{"last_updated":1705943191,"ttl":30,"version":"2.2","data":{"bikes":[{"bike_id":"bb3e1ea0-25ce-4619-af95-3da128a7dcd7","system_id":"levelo_inurba_marseille","lat":43.30911,"lon":5.37077,"is_reserved":false,"is_disabled":false,"rental_uris":{"android":"levelo://app?vid=bb3e1ea0-25ce-4619-af95-3da128a7dcd7","ios":"levelo://app?vid=bb3e1ea0-25ce-4619-af95-3da128a7dcd7"},"vehicle_type_id":"4","last_reported":1705943191,"current_range_meters":8800,"station_id":"","pricing_plan_id":"free"},{"bike_id":"14e7c5b8-668a-46e5-bef9-053856e75486","system_id":"levelo_inurba_marseille","lat":43.314811,"lon":5.373103,"is_reserved":false,"is_disabled":false,"rental_uris":{"android":"levelo://app?vid=14e7c5b8-668a-46e5-bef9-053856e75486","ios":"levelo://app?vid=14e7c5b8-668a-46e5-bef9-053856e75486"},"vehicle_type_id":"4","last_reported":1705943191,"current_range_meters":30400,"station_id":"ce4bgt12rcd13ifvqcd0","pricing_plan_id":"free"},{"bike_id":"6d478210-09a3-472d-9dee-2bd2dd748b83","system_id":"levelo_inurba_marseille","lat":43.309039,"lon":5.371797,"is_reserved":false,"is_disabled":false,"rental_uris":{"android":"levelo://app?vid=6d478210-09a3-472d-9dee-2bd2dd748b83","ios":"levelo://app?vid=6d478210-09a3-472d-9dee-2bd2dd748b83"},"vehicle_type_id":"4","last_reported":1705943191,"current_range_meters":18800,"station_id":"ce4bguh2rcd13ifvqckg","pricing_plan_id":"free"},{"bike_id":"b7ee2b90-e4f3-4b49-ad33-f1cb8b077437","system_id":"levelo_inurba_marseille","lat":43.308819,"lon":5.372052,"is_reserved":false,"is_disabled":false,"rental_uris":{"android":"levelo://app?vid=b7ee2b90-e4f3-4b49-ad33-f1cb8b077437","ios":"levelo://app?vid=b7ee2b90-e4f3-4b49-ad33-f1cb8b077437"},"vehicle_type_id":"4","last_reported":1705943191,"current_range_meters":7200,"station_id":"","pricing_plan_id":"free"},{"bike_id":"89830295-8bd0-4f26-96ba-4b9bd04143cb","system_id":"levelo_inurba_marseille","lat":43.305712,"lon":5.365641,"is_reserved":false,"is_disabled":false,"rental_uris":{"android":"levelo://app?vid=89830295-8bd0-4f26-96ba-4b9bd04143cb","ios":"levelo://app?vid=89830295-8bd0-4f26-96ba-4b9bd04143cb"},"vehicle_type_id":"4","last_reported":1705943191,"current_range_meters":19600,"station_id":"ce4bgs12rcd13ifvqcag","pricing_plan_id":"free"},{"bike_id":"2e8cebfe-56c1-4f54-8e5e-2e0285735f12","system_id":"levelo_inurba_marseille","lat":43.305561,"lon":5.365301,"is_reserved":false,"is_disabled":false,"rental_uris":{"android":"levelo://app?vid=2e8cebfe-56c1-4f54-8e5e-2e0285735f12","ios":"levelo://app?vid=2e8cebfe-56c1-4f54-8e5e-2e0285735f12"},"vehicle_type_id":"4","last_reported":1705943191,"current_range_meters":18000,"station_id":"ce4bgs12rcd13ifvqcag","pricing_plan_id":"free"},{"bike_id":"917c3f3b-2a42-400f-9452-32f2fe36bb63","system_id":"levelo_inurba_marseille","lat":43.305712,"lon":5.365641,"is_reserved":false,"is_disabled":false,"rental_uris":{"android":"levelo://app?vid=917c3f3b-2a42-400f-9452-32f2fe36bb63","ios":"levelo://app?vid=917c3f3b-2a42-400f-9452-32f2fe36bb63"},"vehicle_type_id":"4","last_reported":1705943191,"current_range_meters":0,"station_id":"ce4bgs12rcd13ifvqcag","pricing_plan_id":"free"},{"bike_id":"0e356aee-dcb0-40da-9585-2b9dc657f914","system_id":"levelo_inurba_marseille","lat":43.302992,"lon":5.392136,"is_reserved":false,"is_disabled":false,"rental_uris":{"android":"levelo://app?vid=0e356aee-dcb0-40da-9585-2b9dc657f914","ios":"levelo://app?vid=0e356aee-dcb0-40da-9585-2b9dc657f914"},"vehicle_type_id":"4","last_reported":1705943191,"current_range_meters":28800,"station_id":"ce4bgkh2rcd13ifvqbk0","pricing_plan_id":"free"},{"bike_id":"8eae0362-1623-4205-9fa1-52c37ddb128e","system_id":"levelo_inurba_marseille","lat":43.31125,"lon":5.37757,"is_reserved":false,"is_disabled":false,"rental_uris":{"android":"levelo://app?vid=8eae0362-1623-4205-9fa1-52c37ddb128e","ios":"levelo://app?vid=8eae0362-1623-4205-9fa1-52c37ddb128e"},"vehicle_type_id":"4","last_reported":1705943191,"current_range_meters":0,"station_id":"ce4bgt92rcd13ifvqcg0","pricing_plan_id":"free"},{"bike_id":"66495d1c-ecf7-4b0b-97d8-0180e5194ff1","system_id":"levelo_inurba_marseille","lat":43.311131,"lon":5.377651,"is_reserved":false,"is_disabled":false,"rental_uris":{"android":"levelo://app?vid=66495d1c-ecf7-4b0b-97d8-0180e5194ff1","ios":"levelo://app?vid=66495d1c-ecf7-4b0b-97d8-0180e5194ff1"},"vehicle_type_id":"4","last_reported":1705943191,"current_range_meters":6400,"station_id":"ce4bgt92rcd13ifvqcg0","pricing_plan_id":"free"},{"bike_id":"bfdeb8ba-1a52-453c-9b5f-a9b7f38cfd77","system_id":"levelo_inurba_marseille","lat":43.311131,"lon":5.377651,"is_reserved":false,"is_disabled":false,"rental_uris":{"android":"levelo://app?vid=bfdeb8ba-1a52-453c-9b5f-a9b7f38cfd77","ios":"levelo://app?vid=bfdeb8ba-1a52-453c-9b5f-a9b7f38cfd77"},"vehicle_type_id":"4","last_reported":1705943191,"current_range_meters":24000,"station_id":"ce4bgt92rcd13ifvqcg0","pricing_plan_id":"free"},{"bike_id":"62203095-effa-4367-a389-04525be30990","system_id":"levelo_inurba_marseille","lat":43.311125,"lon":5.377624,"is_reserved":false,"is_disabled":false,"rental_uris":{"android":"levelo://app?vid=62203095-effa-4367-a389-04525be30990","ios":"levelo://app?vid=62203095-effa-4367-a389-04525be30990"},"vehicle_type_id":"4","last_reported":1705943191,"current_range_meters":10000,"station_id":"ce4bgt92rcd13ifvqcg0","pricing_plan_id":"free"},{"bike_id":"0783fb95-3e93-4317-8f5e-0b566b5a4ed2","system_id":"levelo_inurba_marseille","lat":43.311131,"lon":5.377651,"is_reserved":false,"is_disabled":false,"rental_uris":{"android":"levelo://app?vid=0783fb95-3e93-4317-8f5e-0b566b5a4ed2","ios":"levelo://app?vid=0783fb95-3e93-4317-8f5e-0b566b5a4ed2"},"vehicle_type_id":"4","last_reported":1705943191,"current_range_meters":30000,"station_id":"ce4bgt92rcd13ifvqcg0","pricing_plan_id":"free"},{"bike_id":"4088c6f3-d158-450d-a5d1-5141bf2507bb","system_id":"levelo_inurba_marseille","lat":43.307945,"lon":5.376487,"is_reserved":false,"is_disabled":false,"rental_uris":{"android":"levelo://app?vid=4088c6f3-d158-450d-a5d1-5141bf2507bb","ios":"levelo://app?vid=4088c6f3-d158-450d-a5d1-5141bf2507bb"},"vehicle_type_id":"4","last_reported":1705943191,"current_range_meters":0,"station_id":"ce4bgv92rcd13ifvqcq0","pricing_plan_id":"free"},{"bike_id":"d7854f2c-e25b-4567-9ca1-100b79dde627","system_id":"levelo_inurba_marseille","lat":43.31702,"lon":5.37667,"is_reserved":false,"is_disabled":false,"rental_uris":{"android":"levelo://app?vid=d7854f2c-e25b-4567-9ca1-100b79dde627","ios":"levelo://app?vid=d7854f2c-e25b-4567-9ca1-100b79dde627"},"vehicle_type_id":"4","last_reported":1705943191,"current_range_meters":18400,"station_id":"","pricing_plan_id":"free"},{"bike_id":"82573409-49b8-44bd-b33d-cbaf92b26012","system_id":"levelo_inurba_marseille","lat":43.307945,"lon":5.376487,"is_reserved":false,"is_disabled":false,"rental_uris":{"android":"levelo://app?vid=82573409-49b8-44bd-b33d-cbaf92b26012","ios":"levelo://app?vid=82573409-49b8-44bd-b33d-cbaf92b26012"},"vehicle_type_id":"4","last_reported":1705943191,"current_range_meters":24000,"station_id":"ce4bgv92rcd13ifvqcq0","pricing_plan_id":"free"},{"bike_id":"eee617c4-ca10-421a-acf4-6775e7f33421","system_id":"levelo_inurba_marseille","lat":43.307945,"lon":5.376487,"is_reserved":false,"is_disabled":false,"rental_uris":{"android":"levelo://app?vid=eee617c4-ca10-421a-acf4-6775e7f33421","ios":"levelo://app?vid=eee617c4-ca10-421a-acf4-6775e7f33421"},"vehicle_type_id":"4","last_reported":1705943191,"current_range_meters":10800,"station_id":"ce4bgv92rcd13ifvqcq0","pricing_plan_id":"free"},{"bike_id":"d5395238-1cd8-43f6-8f06-8fde6fcf9a8f","system_id":"levelo_inurba_marseille","lat":43.307945,"lon":5.376487,"is_reserved":false,"is_disabled":false,"rental_uris":{"android":"levelo://app?vid=d5395238-1cd8-43f6-8f06-8fde6fcf9a8f","ios":"levelo://app?vid=d5395238-1cd8-43f6-8f06-8fde6fcf9a8f"},"vehicle_type_id":"4","last_reported":1705943191,"current_range_meters":14400,"station_id":"ce4bgv92rcd13ifvqcq0","pricing_plan_id":"free"},{"bike_id":"602c91ce-83c0-410a-936d-e74d3e5b6c8e","system_id":"levelo_inurba_marseille","lat":43.317075,"lon":5.377367,"is_reserved":false,"is_disabled":false,"rental_uris":{"android":"levelo://app?vid=602c91ce-83c0-410a-936d-e74d3e5b6c8e","ios":"levelo://app?vid=602c91ce-83c0-410a-936d-e74d3e5b6c8e"},"vehicle_type_id":"4","last_reported":1705943191,"current_range_meters":7600,"station_id":"ce4bgth2rcd13ifvqch0","pricing_plan_id":"free"},{"bike_id":"2d2be3e9-7446-42b7-8517-a37195c84b07","system_id":"levelo_inurba_marseille","lat":43.317557,"lon":5.390173,"is_reserved":false,"is_disabled":false,"rental_uris":{"android":"levelo://app?vid=2d2be3e9-7446-42b7-8517-a37195c84b07","ios":"levelo://app?vid=2d2be3e9-7446-42b7-8517-a37195c84b07"},"vehicle_type_id":"4","last_reported":1705943191,"current_range_meters":28400,"station_id":"ce4bhqp2rcd13ifvqhng","pricing_plan_id":"free"},{"bike_id":"96990557-4cd7-4e43-9700-354d41c58743","system_id":"levelo_inurba_marseille","lat":43.30304,"lon":5.368987,"is_reserved":false,"is_disabled":false,"rental_uris":{"android":"levelo://app?vid=96990557-4cd7-4e43-9700-354d41c58743","ios":"levelo://app?vid=96990557-4cd7-4e43-9700-354d41c58743"},"vehicle_type_id":"4","last_reported":1705943191,"current_range_meters":28000,"station_id":"ce4bgqh2rcd13ifvqc5g","pricing_plan_id":"free"},{"bike_id":"ecbec8cf-2ec3-4497-8912-cebb011d9954","system_id":"levelo_inurba_marseille","lat":43.31508,"lon":5.38024,"is_reserved":false,"is_disabled":false,"rental_uris":{"android":"levelo://app?vid=ecbec8cf-2ec3-4497-8912-cebb011d9954","ios":"levelo://app?vid=ecbec8cf-2ec3-4497-8912-cebb011d9954"},"vehicle_type_id":"4","last_reported":1705943191,"current_range_meters":13200,"station_id":"","pricing_plan_id":"free"},{"bike_id":"2112222d-f8bf-4163-9305-3384d500fa46","system_id":"levelo_inurba_marseille","lat":43.31536,"lon":5.38036,"is_reserved":false,"is_disabled":false,"rental_uris":{"android":"levelo://app?vid=2112222d-f8bf-4163-9305-3384d500fa46","ios":"levelo://app?vid=2112222d-f8bf-4163-9305-3384d500fa46"},"vehicle_type_id":"4","last_reported":1705943191,"current_range_meters":24000,"station_id":"ce4bhsp2rcd13ifvqi50","pricing_plan_id":"free"},{"bike_id":"c93408fc-73e0-49d4-aef1-2f7400b7de6e","system_id":"levelo_inurba_marseille","lat":43.315293,"lon":5.380349,"is_reserved":false,"is_disabled":false,"rental_uris":{"android":"levelo://app?vid=c93408fc-73e0-49d4-aef1-2f7400b7de6e","ios":"levelo://app?vid=c93408fc-73e0-49d4-aef1-2f7400b7de6e"},"vehicle_type_id":"4","last_reported":1705943191,"current_range_meters":13200,"station_id":"ce4bhsp2rcd13ifvqi50","pricing_plan_id":"free"},{"bike_id":"ec010ac5-2312-468b-bbba-afe0d40b00d4","system_id":"levelo_inurba_marseille","lat":43.301939,"lon":5.366286,"is_reserved":false,"is_disabled":false,"rental_uris":{"android":"levelo://app?vid=ec010ac5-2312-468b-bbba-afe0d40b00d4","ios":"levelo://app?vid=ec010ac5-2312-468b-bbba-afe0d40b00d4"},"vehicle_type_id":"4","last_reported":1705943191,"current_range_meters":21200,"station_id":"ce4bgrh2rcd13ifvqc8g","pricing_plan_id":"free"},{"bike_id":"a6715008-1b51-4e1b-b48c-bceeb04daa39","system_id":"levelo_inurba_marseille","lat":43.308012,"lon":5.381511,"is_reserved":false,"is_disabled":false,"rental_uris":{"android":"levelo://app?vid=a6715008-1b51-4e1b-b48c-bceeb04daa39","ios":"levelo://app?vid=a6715008-1b51-4e1b-b48c-bceeb04daa39"},"vehicle_type_id":"4","last_reported":1705943191,"current_range_meters":31200,"station_id":"ce4bgt12rcd13ifvqce0","pricing_plan_id":"free"},{"bike_id":"28e00e9a-05a9-46c8-977f-0f34b6835059","system_id":"levelo_inurba_marseille","lat":43.308012,"lon":5.381511,"is_reserved":false,"is_disabled":false,"rental_uris":{"android":"levelo://app?vid=28e00e9a-05a9-46c8-977f-0f34b6835059","ios":"levelo://app?vid=28e00e9a-05a9-46c8-977f-0f34b6835059"},"vehicle_type_id":"4","last_reported":1705943191,"current_range_meters":22800,"station_id":"ce4bgt12rcd13ifvqce0","pricing_plan_id":"free"},{"bike_id":"f93cc772-b58e-4458-8619-0473e98f7662","system_id":"levelo_inurba_marseille","lat":43.297946,"lon":5.404063,"is_reserved":false,"is_disabled":false,"rental_uris":{"android":"levelo://app?vid=f93cc772-b58e-4458-8619-0473e98f7662","ios":"levelo://app?vid=f93cc772-b58e-4458-8619-0473e98f7662"},"vehicle_type_id":"4","last_reported":1705943191,"current_range_meters":24000,"station_id":"ce4bh112rcd13ifvqd90","pricing_plan_id":"free"},{"bike_id":"2b92efa5-dbe1-46ab-8001-2c73612c9637","system_id":"levelo_inurba_marseille","lat":43.304606,"lon":5.379026,"is_reserved":false,"is_disabled":false,"rental_uris":{"android":"levelo://app?vid=2b92efa5-dbe1-46ab-8001-2c73612c9637","ios":"levelo://app?vid=2b92efa5-dbe1-46ab-8001-2c73612c9637"},"vehicle_type_id":"4","last_reported":1705943191,"current_range_meters":20800,"station_id":"ce4bgup2rcd13ifvqcn0","pricing_plan_id":"free"},{"bike_id":"fed62992-338f-40b0-a7b3-c1988bc718d4","system_id":"levelo_inurba_marseille","lat":43.304606,"lon":5.379026,"is_reserved":false,"is_disabled":false,"rental_uris":{"android":"levelo://app?vid=fed62992-338f-40b0-a7b3-c1988bc718d4","ios":"levelo://app?vid=fed62992-338f-40b0-a7b3-c1988bc718d4"},"vehicle_type_id":"4","last_reported":1705943191,"current_range_meters":9600,"station_id":"ce4bgup2rcd13ifvqcn0","pricing_plan_id":"free"},{"bike_id":"63e0fbd8-2a43-4259-a517-84e61eb4f0d1","system_id":"levelo_inurba_marseille","lat":43.30451,"lon":5.37912,"is_reserved":false,"is_disabled":false,"rental_uris":{"android":"levelo://app?vid=63e0fbd8-2a43-4259-a517-84e61eb4f0d1","ios":"levelo://app?vid=63e0fbd8-2a43-4259-a517-84e61eb4f0d1"},"vehicle_type_id":"4","last_reported":1705943191,"current_range_meters":0,"station_id":"ce4bgup2rcd13ifvqcn0","pricing_plan_id":"free"},{"bike_id":"27bfb0a2-3330-486a-ab3d-e8eb31fd20d1","system_id":"levelo_inurba_marseille","lat":43.30167,"lon":5.37407,"is_reserved":false,"is_disabled":false,"rental_uris":{"android":"levelo://app?vid=27bfb0a2-3330-486a-ab3d-e8eb31fd20d1","ios":"levelo://app?vid=27bfb0a2-3330-486a-ab3d-e8eb31fd20d1"},"vehicle_type_id":"4","last_reported":1705943191,"current_range_meters":18400,"station_id":"ce4bgs92rcd13ifvqcc0","pricing_plan_id":"free"},{"bike_id":"a7a2de96-bad7-4e34-8a16-1ce71245cb78","system_id":"levelo_inurba_marseille","lat":43.299724,"lon":5.371829,"is_reserved":false,"is_disabled":false,"rental_uris":{"android":"levelo://app?vid=a7a2de96-bad7-4e34-8a16-1ce71245cb78","ios":"levelo://app?vid=a7a2de96-bad7-4e34-8a16-1ce71245cb78"},"vehicle_type_id":"4","last_reported":1705943191,"current_range_meters":13600,"station_id":"ce4bgr92rcd13ifvqc7g","pricing_plan_id":"free"},{"bike_id":"e94e7f0a-3432-4dc5-b3ee-31f30b14340a","system_id":"levelo_inurba_marseille","lat":43.301429,"lon":5.37413,"is_reserved":false,"is_disabled":false,"rental_uris":{"android":"levelo://app?vid=e94e7f0a-3432-4dc5-b3ee-31f30b14340a","ios":"levelo://app?vid=e94e7f0a-3432-4dc5-b3ee-31f30b14340a"},"vehicle_type_id":"4","last_reported":1705943191,"current_range_meters":0,"station_id":"ce4bgs92rcd13ifvqcc0","pricing_plan_id":"free"},{"bike_id":"80151102-94f6-4718-b770-9c657f000af1","system_id":"levelo_inurba_marseille","lat":43.319935,"lon":5.381699,"is_reserved":false,"is_disabled":false,"rental_uris":{"android":"levelo://app?vid=80151102-94f6-4718-b770-9c657f000af1","ios":"levelo://app?vid=80151102-94f6-4718-b770-9c657f000af1"},"vehicle_type_id":"4","last_reported":1705943191,"current_range_meters":24400,"station_id":"ce4bhr12rcd13ifvqhpg","pricing_plan_id":"free"},{"bike_id":"fd388e30-6c90-4fbf-abdf-dd15ef425659","system_id":"levelo_inurba_marseille","lat":43.31996,"lon":5.38147,"is_reserved":false,"is_disabled":false,"rental_uris":{"android":"levelo://app?vid=fd388e30-6c90-4fbf-abdf-dd15ef425659","ios":"levelo://app?vid=fd388e30-6c90-4fbf-abdf-dd15ef425659"},"vehicle_type_id":"4","last_reported":1705943191,"current_range_meters":25200,"station_id":"ce4bhr12rcd13ifvqhpg","pricing_plan_id":"free"},{"bike_id":"e113d1c9-da08-4be0-8879-80169af1faf2","system_id":"levelo_inurba_marseille","lat":43.319943,"lon":5.381545,"is_reserved":false,"is_disabled":false,"rental_uris":{"android":"levelo://app?vid=e113d1c9-da08-4be0-8879-80169af1faf2","ios":"levelo://app?vid=e113d1c9-da08-4be0-8879-80169af1faf2"},"vehicle_type_id":"4","last_reported":1705943191,"current_range_meters":21600,"station_id":"ce4bhr12rcd13ifvqhpg","pricing_plan_id":"free"},{"bike_id":"89784ae0-3df5-4c6d-8bcd-f93d30003d3c","system_id":"levelo_inurba_marseille","lat":43.319935,"lon":5.381699,"is_reserved":false,"is_disabled":false,"rental_uris":{"android":"levelo://app?vid=89784ae0-3df5-4c6d-8bcd-f93d30003d3c","ios":"levelo://app?vid=89784ae0-3df5-4c6d-8bcd-f93d30003d3c"},"vehicle_type_id":"4","last_reported":1705943191,"current_range_meters":11600,"station_id":"ce4bhr12rcd13ifvqhpg","pricing_plan_id":"free"},{"bike_id":"0d709002-2c25-4dff-9e09-3bf85c52dd4e","system_id":"levelo_inurba_marseille","lat":43.319935,"lon":5.381699,"is_reserved":false,"is_disabled":false,"rental_uris":{"android":"levelo://app?vid=0d709002-2c25-4dff-9e09-3bf85c52dd4e","ios":"levelo://app?vid=0d709002-2c25-4dff-9e09-3bf85c52dd4e"},"vehicle_type_id":"4","last_reported":1705943191,"current_range_meters":20000,"station_id":"ce4bhr12rcd13ifvqhpg","pricing_plan_id":"free"},{"bike_id":"46f5e652-5801-423f-ae08-db560cfd1c9c","system_id":"levelo_inurba_marseille","lat":43.319935,"lon":5.381699,"is_reserved":false,"is_disabled":false,"rental_uris":{"android":"levelo://app?vid=46f5e652-5801-423f-ae08-db560cfd1c9c","ios":"levelo://app?vid=46f5e652-5801-423f-ae08-db560cfd1c9c"},"vehicle_type_id":"4","last_reported":1705943191,"current_range_meters":12800,"station_id":"ce4bhr12rcd13ifvqhpg","pricing_plan_id":"free"},{"bike_id":"b9fbd5dc-55cb-4d80-ba4d-d9925e1b6495","system_id":"levelo_inurba_marseille","lat":43.313571,"lon":5.384829,"is_reserved":false,"is_disabled":false,"rental_uris":{"android":"levelo://app?vid=b9fbd5dc-55cb-4d80-ba4d-d9925e1b6495","ios":"levelo://app?vid=b9fbd5dc-55cb-4d80-ba4d-d9925e1b6495"},"vehicle_type_id":"4","last_reported":1705943191,"current_range_meters":12000,"station_id":"ce4bgt92rcd13ifvqcf0","pricing_plan_id":"free"},{"bike_id":"4af3aa1b-9c23-47c6-a8ec-0af4d0f22881","system_id":"levelo_inurba_marseille","lat":43.32602,"lon":5.367457,"is_reserved":false,"is_disabled":false,"rental_uris":{"android":"levelo://app?vid=4af3aa1b-9c23-47c6-a8ec-0af4d0f22881","ios":"levelo://app?vid=4af3aa1b-9c23-47c6-a8ec-0af4d0f22881"},"vehicle_type_id":"4","last_reported":1705943191,"current_range_meters":22400,"station_id":"","pricing_plan_id":"free"},{"bike_id":"3e661a8a-ff72-42d1-a6e7-8e1bb0a53ade","system_id":"levelo_inurba_marseille","lat":43.313571,"lon":5.384829,"is_reserved":false,"is_disabled":false,"rental_uris":{"android":"levelo://app?vid=3e661a8a-ff72-42d1-a6e7-8e1bb0a53ade","ios":"levelo://app?vid=3e661a8a-ff72-42d1-a6e7-8e1bb0a53ade"},"vehicle_type_id":"4","last_reported":1705943191,"current_range_meters":12000,"station_id":"ce4bgt92rcd13ifvqcf0","pricing_plan_id":"free"},{"bike_id":"79d2d98a-29f2-4ffd-ae01-bfd8a1fa05d5","system_id":"levelo_inurba_marseille","lat":43.328371,"lon":5.366912,"is_reserved":false,"is_disabled":false,"rental_uris":{"android":"levelo://app?vid=79d2d98a-29f2-4ffd-ae01-bfd8a1fa05d5","ios":"levelo://app?vid=79d2d98a-29f2-4ffd-ae01-bfd8a1fa05d5"},"vehicle_type_id":"4","last_reported":1705943191,"current_range_meters":23200,"station_id":"ce4bhs92rcd13ifvqi0g","pricing_plan_id":"free"},{"bike_id":"d0533bc3-6f4e-4bb8-b4b1-787bc9897e56","system_id":"levelo_inurba_marseille","lat":43.298433,"lon":5.362774,"is_reserved":false,"is_disabled":false,"rental_uris":{"android":"levelo://app?vid=d0533bc3-6f4e-4bb8-b4b1-787bc9897e56","ios":"levelo://app?vid=d0533bc3-6f4e-4bb8-b4b1-787bc9897e56"},"vehicle_type_id":"4","last_reported":1705943191,"current_range_meters":11200,"station_id":"ce4bgpp2rcd13ifvqc3g","pricing_plan_id":"free"},{"bike_id":"ae453d06-9a57-4724-942e-7dab8cb80f77","system_id":"levelo_inurba_marseille","lat":43.305364,"lon":5.384119,"is_reserved":false,"is_disabled":false,"rental_uris":{"android":"levelo://app?vid=ae453d06-9a57-4724-942e-7dab8cb80f77","ios":"levelo://app?vid=ae453d06-9a57-4724-942e-7dab8cb80f77"},"vehicle_type_id":"4","last_reported":1705943191,"current_range_meters":5600,"station_id":"ce4bgg92rcd13ifvqb30","pricing_plan_id":"free"},{"bike_id":"1ce70803-c05a-437a-9267-99f9fb368877","system_id":"levelo_inurba_marseille","lat":43.305364,"lon":5.384119,"is_reserved":false,"is_disabled":false,"rental_uris":{"android":"levelo://app?vid=1ce70803-c05a-437a-9267-99f9fb368877","ios":"levelo://app?vid=1ce70803-c05a-437a-9267-99f9fb368877"},"vehicle_type_id":"4","last_reported":1705943191,"current_range_meters":0,"station_id":"ce4bgg92rcd13ifvqb30","pricing_plan_id":"free"},{"bike_id":"34f16531-fa0b-4811-9089-359834fde0e2","system_id":"levelo_inurba_marseille","lat":43.298433,"lon":5.362774,"is_reserved":false,"is_disabled":false,"rental_uris":{"android":"levelo://app?vid=34f16531-fa0b-4811-9089-359834fde0e2","ios":"levelo://app?vid=34f16531-fa0b-4811-9089-359834fde0e2"},"vehicle_type_id":"4","last_reported":1705943191,"current_range_meters":23200,"station_id":"ce4bgpp2rcd13ifvqc3g","pricing_plan_id":"free"},{"bike_id":"fed624e2-053d-4bc3-a09e-0be31f392545","system_id":"levelo_inurba_marseille","lat":43.298433,"lon":5.362774,"is_reserved":false,"is_disabled":false,"rental_uris":{"android":"levelo://app?vid=fed624e2-053d-4bc3-a09e-0be31f392545","ios":"levelo://app?vid=fed624e2-053d-4bc3-a09e-0be31f392545"},"vehicle_type_id":"4","last_reported":1705943191,"current_range_meters":31200,"station_id":"ce4bgpp2rcd13ifvqc3g","pricing_plan_id":"free"},{"bike_id":"b69e355e-f9e7-40c5-b01d-2f9ce70001e0","system_id":"levelo_inurba_marseille","lat":43.298433,"lon":5.362774,"is_reserved":false,"is_disabled":false,"rental_uris":{"android":"levelo://app?vid=b69e355e-f9e7-40c5-b01d-2f9ce70001e0","ios":"levelo://app?vid=b69e355e-f9e7-40c5-b01d-2f9ce70001e0"},"vehicle_type_id":"4","last_reported":1705943191,"current_range_meters":4400,"station_id":"ce4bgpp2rcd13ifvqc3g","pricing_plan_id":"free"},{"bike_id":"8688695a-62cf-49e6-b07c-95a14278e0ef","system_id":"levelo_inurba_marseille","lat":43.31169,"lon":5.38712,"is_reserved":false,"is_disabled":false,"rental_uris":{"android":"levelo://app?vid=8688695a-62cf-49e6-b07c-95a14278e0ef","ios":"levelo://app?vid=8688695a-62cf-49e6-b07c-95a14278e0ef"},"vehicle_type_id":"4","last_reported":1705943191,"current_range_meters":14800,"station_id":"ce4bgv12rcd13ifvqcp0","pricing_plan_id":"free"},{"bike_id":"d019c4c7-3a5e-464f-9a1f-ef9cbeb8664a","system_id":"levelo_inurba_marseille","lat":43.311728,"lon":5.387205,"is_reserved":false,"is_disabled":false,"rental_uris":{"android":"levelo://app?vid=d019c4c7-3a5e-464f-9a1f-ef9cbeb8664a","ios":"levelo://app?vid=d019c4c7-3a5e-464f-9a1f-ef9cbeb8664a"},"vehicle_type_id":"4","last_reported":1705943191,"current_range_meters":24000,"station_id":"ce4bgv12rcd13ifvqcp0","pricing_plan_id":"free"},{"bike_id":"e309691e-f510-43fc-9d07-cbf1c854c1e5","system_id":"levelo_inurba_marseille","lat":43.31168,"lon":5.38723,"is_reserved":false,"is_disabled":false,"rental_uris":{"android":"levelo://app?vid=e309691e-f510-43fc-9d07-cbf1c854c1e5","ios":"levelo://app?vid=e309691e-f510-43fc-9d07-cbf1c854c1e5"},"vehicle_type_id":"4","last_reported":1705943191,"current_range_meters":0,"station_id":"ce4bgv12rcd13ifvqcp0","pricing_plan_id":"free"},{"bike_id":"37b50a3a-71cc-4243-85d8-d6fae29610d9","system_id":"levelo_inurba_marseille","lat":43.31167,"lon":5.38728,"is_reserved":false,"is_disabled":false,"rental_uris":{"android":"levelo://app?vid=37b50a3a-71cc-4243-85d8-d6fae29610d9","ios":"levelo://app?vid=37b50a3a-71cc-4243-85d8-d6fae29610d9"},"vehicle_type_id":"4","last_reported":1705943191,"current_range_meters":17200,"station_id":"ce4bgv12rcd13ifvqcp0","pricing_plan_id":"free"},{"bike_id":"6b802cd1-c562-4f20-b664-7705f69fab22","system_id":"levelo_inurba_marseille","lat":43.297774,"lon":5.370875,"is_reserved":false,"is_disabled":false,"rental_uris":{"android":"levelo://app?vid=6b802cd1-c562-4f20-b664-7705f69fab22","ios":"levelo://app?vid=6b802cd1-c562-4f20-b664-7705f69fab22"},"vehicle_type_id":"4","last_reported":1705943191,"current_range_meters":10800,"station_id":"ce4bgop2rcd13ifvqc1g","pricing_plan_id":"free"},{"bike_id":"f34492e3-c22c-4d2c-b793-bfa6cadb0c99","system_id":"levelo_inurba_marseille","lat":43.297774,"lon":5.370875,"is_reserved":false,"is_disabled":false,"rental_uris":{"android":"levelo://app?vid=f34492e3-c22c-4d2c-b793-bfa6cadb0c99","ios":"levelo://app?vid=f34492e3-c22c-4d2c-b793-bfa6cadb0c99"},"vehicle_type_id":"4","last_reported":1705943191,"current_range_meters":28400,"station_id":"ce4bgop2rcd13ifvqc1g","pricing_plan_id":"free"},{"bike_id":"ce7380a6-9e0a-44a5-99cf-b6d0d9568202","system_id":"levelo_inurba_marseille","lat":43.322872,"lon":5.382756,"is_reserved":false,"is_disabled":false,"rental_uris":{"android":"levelo://app?vid=ce7380a6-9e0a-44a5-99cf-b6d0d9568202","ios":"levelo://app?vid=ce7380a6-9e0a-44a5-99cf-b6d0d9568202"},"vehicle_type_id":"4","last_reported":1705943191,"current_range_meters":30400,"station_id":"ce4bhr12rcd13ifvqhqg","pricing_plan_id":"free"},{"bike_id":"95e0f6dd-23c8-4c9b-b51f-b801063ec866","system_id":"levelo_inurba_marseille","lat":43.322872,"lon":5.382756,"is_reserved":false,"is_disabled":false,"rental_uris":{"android":"levelo://app?vid=95e0f6dd-23c8-4c9b-b51f-b801063ec866","ios":"levelo://app?vid=95e0f6dd-23c8-4c9b-b51f-b801063ec866"},"vehicle_type_id":"4","last_reported":1705943191,"current_range_meters":28400,"station_id":"ce4bhr12rcd13ifvqhqg","pricing_plan_id":"free"},{"bike_id":"c4689705-bde6-4219-964e-2ecc1db7262c","system_id":"levelo_inurba_marseille","lat":43.32822,"lon":5.366771,"is_reserved":false,"is_disabled":false,"rental_uris":{"android":"levelo://app?vid=c4689705-bde6-4219-964e-2ecc1db7262c","ios":"levelo://app?vid=c4689705-bde6-4219-964e-2ecc1db7262c"},"vehicle_type_id":"4","last_reported":1705943191,"current_range_meters":14800,"station_id":"ce4bhs92rcd13ifvqi0g","pricing_plan_id":"free"},{"bike_id":"447532c0-56ca-46ac-9000-fea47d81b433","system_id":"levelo_inurba_marseille","lat":43.328234,"lon":5.366759,"is_reserved":false,"is_disabled":false,"rental_uris":{"android":"levelo://app?vid=447532c0-56ca-46ac-9000-fea47d81b433","ios":"levelo://app?vid=447532c0-56ca-46ac-9000-fea47d81b433"},"vehicle_type_id":"4","last_reported":1705943191,"current_range_meters":30800,"station_id":"ce4bhs92rcd13ifvqi0g","pricing_plan_id":"free"},{"bike_id":"85cedcff-9e9a-415d-8415-195178ea3cb7","system_id":"levelo_inurba_marseille","lat":43.328237,"lon":5.366888,"is_reserved":false,"is_disabled":false,"rental_uris":{"android":"levelo://app?vid=85cedcff-9e9a-415d-8415-195178ea3cb7","ios":"levelo://app?vid=85cedcff-9e9a-415d-8415-195178ea3cb7"},"vehicle_type_id":"4","last_reported":1705943191,"current_range_meters":16400,"station_id":"ce4bhs92rcd13ifvqi0g","pricing_plan_id":"free"},{"bike_id":"572c30ca-2698-4ebb-9720-28d9ee8291d9","system_id":"levelo_inurba_marseille","lat":43.32826,"lon":5.36674,"is_reserved":false,"is_disabled":false,"rental_uris":{"android":"levelo://app?vid=572c30ca-2698-4ebb-9720-28d9ee8291d9","ios":"levelo://app?vid=572c30ca-2698-4ebb-9720-28d9ee8291d9"},"vehicle_type_id":"4","last_reported":1705943191,"current_range_meters":22000,"station_id":"ce4bhs92rcd13ifvqi0g","pricing_plan_id":"free"},{"bike_id":"ea0178f3-2c6b-4af6-b062-91b0b8dde1df","system_id":"levelo_inurba_marseille","lat":43.32827,"lon":5.36678,"is_reserved":false,"is_disabled":false,"rental_uris":{"android":"levelo://app?vid=ea0178f3-2c6b-4af6-b062-91b0b8dde1df","ios":"levelo://app?vid=ea0178f3-2c6b-4af6-b062-91b0b8dde1df"},"vehicle_type_id":"4","last_reported":1705943191,"current_range_meters":14400,"station_id":"ce4bhs92rcd13ifvqi0g","pricing_plan_id":"free"},{"bike_id":"38d4b3c6-c1c4-4ada-b0ed-8e6826ac2770","system_id":"levelo_inurba_marseille","lat":43.328371,"lon":5.366909,"is_reserved":false,"is_disabled":false,"rental_uris":{"android":"levelo://app?vid=38d4b3c6-c1c4-4ada-b0ed-8e6826ac2770","ios":"levelo://app?vid=38d4b3c6-c1c4-4ada-b0ed-8e6826ac2770"},"vehicle_type_id":"4","last_reported":1705943191,"current_range_meters":21600,"station_id":"ce4bhs92rcd13ifvqi0g","pricing_plan_id":"free"},{"bike_id":"6da9db5a-42ba-4fa8-afc9-4fdbb45498c1","system_id":"levelo_inurba_marseille","lat":43.328278,"lon":5.366739,"is_reserved":false,"is_disabled":false,"rental_uris":{"android":"levelo://app?vid=6da9db5a-42ba-4fa8-afc9-4fdbb45498c1","ios":"levelo://app?vid=6da9db5a-42ba-4fa8-afc9-4fdbb45498c1"},"vehicle_type_id":"4","last_reported":1705943191,"current_range_meters":23600,"station_id":"ce4bhs92rcd13ifvqi0g","pricing_plan_id":"free"},{"bike_id":"b982bee1-d32f-45f2-a873-826a3328017e","system_id":"levelo_inurba_marseille","lat":43.328287,"lon":5.366696,"is_reserved":false,"is_disabled":false,"rental_uris":{"android":"levelo://app?vid=b982bee1-d32f-45f2-a873-826a3328017e","ios":"levelo://app?vid=b982bee1-d32f-45f2-a873-826a3328017e"},"vehicle_type_id":"4","last_reported":1705943191,"current_range_meters":22800,"station_id":"ce4bhs92rcd13ifvqi0g","pricing_plan_id":"free"},{"bike_id":"e92d083a-dfb9-464f-a2d7-ffc480709cb3","system_id":"levelo_inurba_marseille","lat":43.328371,"lon":5.366912,"is_reserved":false,"is_disabled":false,"rental_uris":{"android":"levelo://app?vid=e92d083a-dfb9-464f-a2d7-ffc480709cb3","ios":"levelo://app?vid=e92d083a-dfb9-464f-a2d7-ffc480709cb3"},"vehicle_type_id":"4","last_reported":1705943191,"current_range_meters":18000,"station_id":"ce4bhs92rcd13ifvqi0g","pricing_plan_id":"free"},{"bike_id":"d4fb034b-145a-45da-8ad8-312fff8170c9","system_id":"levelo_inurba_marseille","lat":43.328371,"lon":5.366909,"is_reserved":false,"is_disabled":false,"rental_uris":{"android":"levelo://app?vid=d4fb034b-145a-45da-8ad8-312fff8170c9","ios":"levelo://app?vid=d4fb034b-145a-45da-8ad8-312fff8170c9"},"vehicle_type_id":"4","last_reported":1705943191,"current_range_meters":26000,"station_id":"ce4bhs92rcd13ifvqi0g","pricing_plan_id":"free"},{"bike_id":"5b7aaccd-f0dd-4bc4-a5b7-1581df3aca1d","system_id":"levelo_inurba_marseille","lat":43.328371,"lon":5.366909,"is_reserved":false,"is_disabled":false,"rental_uris":{"android":"levelo://app?vid=5b7aaccd-f0dd-4bc4-a5b7-1581df3aca1d","ios":"levelo://app?vid=5b7aaccd-f0dd-4bc4-a5b7-1581df3aca1d"},"vehicle_type_id":"4","last_reported":1705943191,"current_range_meters":19600,"station_id":"ce4bhs92rcd13ifvqi0g","pricing_plan_id":"free"},{"bike_id":"d8b5260c-205c-4300-9784-22ead2fde86f","system_id":"levelo_inurba_marseille","lat":43.328371,"lon":5.366909,"is_reserved":false,"is_disabled":false,"rental_uris":{"android":"levelo://app?vid=d8b5260c-205c-4300-9784-22ead2fde86f","ios":"levelo://app?vid=d8b5260c-205c-4300-9784-22ead2fde86f"},"vehicle_type_id":"4","last_reported":1705943191,"current_range_meters":23200,"station_id":"ce4bhs92rcd13ifvqi0g","pricing_plan_id":"free"},{"bike_id":"8e2e258c-9f25-408c-8291-bf6e5ba33180","system_id":"levelo_inurba_marseille","lat":43.328371,"lon":5.366909,"is_reserved":false,"is_disabled":false,"rental_uris":{"android":"levelo://app?vid=8e2e258c-9f25-408c-8291-bf6e5ba33180","ios":"levelo://app?vid=8e2e258c-9f25-408c-8291-bf6e5ba33180"},"vehicle_type_id":"4","last_reported":1705943191,"current_range_meters":31200,"station_id":"ce4bhs92rcd13ifvqi0g","pricing_plan_id":"free"},{"bike_id":"b996e07b-629b-4973-bc3e-478f08f1b579","system_id":"levelo_inurba_marseille","lat":43.328371,"lon":5.366909,"is_reserved":false,"is_disabled":false,"rental_uris":{"android":"levelo://app?vid=b996e07b-629b-4973-bc3e-478f08f1b579","ios":"levelo://app?vid=b996e07b-629b-4973-bc3e-478f08f1b579"},"vehicle_type_id":"4","last_reported":1705943191,"current_range_meters":24000,"station_id":"ce4bhs92rcd13ifvqi0g","pricing_plan_id":"free"},{"bike_id":"f529af8b-6eb5-4dad-b929-2be8fdbdd47b","system_id":"levelo_inurba_marseille","lat":43.328371,"lon":5.366909,"is_reserved":false,"is_disabled":false,"rental_uris":{"android":"levelo://app?vid=f529af8b-6eb5-4dad-b929-2be8fdbdd47b","ios":"levelo://app?vid=f529af8b-6eb5-4dad-b929-2be8fdbdd47b"},"vehicle_type_id":"4","last_reported":1705943191,"current_range_meters":12000,"station_id":"ce4bhs92rcd13ifvqi0g","pricing_plan_id":"free"},{"bike_id":"d971af84-f55e-4f02-aa54-b2ecac82a0f2","system_id":"levelo_inurba_marseille","lat":43.328371,"lon":5.366909,"is_reserved":false,"is_disabled":false,"rental_uris":{"android":"levelo://app?vid=d971af84-f55e-4f02-aa54-b2ecac82a0f2","ios":"levelo://app?vid=d971af84-f55e-4f02-aa54-b2ecac82a0f2"},"vehicle_type_id":"4","last_reported":1705943191,"current_range_meters":10400,"station_id":"ce4bhs92rcd13ifvqi0g","pricing_plan_id":"free"},{"bike_id":"204738f6-469d-4db3-bd14-c2b38ef5e726","system_id":"levelo_inurba_marseille","lat":43.328371,"lon":5.366912,"is_reserved":false,"is_disabled":false,"rental_uris":{"android":"levelo://app?vid=204738f6-469d-4db3-bd14-c2b38ef5e726","ios":"levelo://app?vid=204738f6-469d-4db3-bd14-c2b38ef5e726"},"vehicle_type_id":"4","last_reported":1705943191,"current_range_meters":28400,"station_id":"ce4bhs92rcd13ifvqi0g","pricing_plan_id":"free"},{"bike_id":"ae9cf431-25a9-4f6c-9bea-dfecdc3f23ba","system_id":"levelo_inurba_marseille","lat":43.297163,"lon":5.365866,"is_reserved":false,"is_disabled":false,"rental_uris":{"android":"levelo://app?vid=ae9cf431-25a9-4f6c-9bea-dfecdc3f23ba","ios":"levelo://app?vid=ae9cf431-25a9-4f6c-9bea-dfecdc3f23ba"},"vehicle_type_id":"4","last_reported":1705943191,"current_range_meters":6400,"station_id":"ce4bgn12rcd13ifvqbt0","pricing_plan_id":"free"},{"bike_id":"38082c03-fac1-44d3-a79f-5142b4a113a9","system_id":"levelo_inurba_marseille","lat":43.328373,"lon":5.366902,"is_reserved":false,"is_disabled":false,"rental_uris":{"android":"levelo://app?vid=38082c03-fac1-44d3-a79f-5142b4a113a9","ios":"levelo://app?vid=38082c03-fac1-44d3-a79f-5142b4a113a9"},"vehicle_type_id":"4","last_reported":1705943191,"current_range_meters":18000,"station_id":"ce4bhs92rcd13ifvqi0g","pricing_plan_id":"free"},{"bike_id":"0f689bb3-5f77-40eb-8911-0acac329b7b0","system_id":"levelo_inurba_marseille","lat":43.297163,"lon":5.365866,"is_reserved":false,"is_disabled":false,"rental_uris":{"android":"levelo://app?vid=0f689bb3-5f77-40eb-8911-0acac329b7b0","ios":"levelo://app?vid=0f689bb3-5f77-40eb-8911-0acac329b7b0"},"vehicle_type_id":"4","last_reported":1705943191,"current_range_meters":24400,"station_id":"ce4bgn12rcd13ifvqbt0","pricing_plan_id":"free"},{"bike_id":"3f56226a-7a9a-4ded-960e-ba08f480b9a1","system_id":"levelo_inurba_marseille","lat":43.297163,"lon":5.365866,"is_reserved":false,"is_disabled":false,"rental_uris":{"android":"levelo://app?vid=3f56226a-7a9a-4ded-960e-ba08f480b9a1","ios":"levelo://app?vid=3f56226a-7a9a-4ded-960e-ba08f480b9a1"},"vehicle_type_id":"4","last_reported":1705943191,"current_range_meters":5200,"station_id":"ce4bgn12rcd13ifvqbt0","pricing_plan_id":"free"},{"bike_id":"8aad134a-a2d8-45f0-ae82-74758f5b2588","system_id":"levelo_inurba_marseille","lat":43.297163,"lon":5.365866,"is_reserved":false,"is_disabled":false,"rental_uris":{"android":"levelo://app?vid=8aad134a-a2d8-45f0-ae82-74758f5b2588","ios":"levelo://app?vid=8aad134a-a2d8-45f0-ae82-74758f5b2588"},"vehicle_type_id":"4","last_reported":1705943191,"current_range_meters":0,"station_id":"ce4bgn12rcd13ifvqbt0","pricing_plan_id":"free"},{"bike_id":"501acba4-1e2b-4a69-a581-acf91ff9d6cd","system_id":"levelo_inurba_marseille","lat":43.308012,"lon":5.381511,"is_reserved":false,"is_disabled":false,"rental_uris":{"android":"levelo://app?vid=501acba4-1e2b-4a69-a581-acf91ff9d6cd","ios":"levelo://app?vid=501acba4-1e2b-4a69-a581-acf91ff9d6cd"},"vehicle_type_id":"4","last_reported":1705943191,"current_range_meters":9600,"station_id":"ce4bgt12rcd13ifvqce0","pricing_plan_id":"free"},{"bike_id":"e961a00b-1e50-40d3-87d9-adffc6cc74fb","system_id":"levelo_inurba_marseille","lat":43.2968,"lon":5.37291,"is_reserved":false,"is_disabled":false,"rental_uris":{"android":"levelo://app?vid=e961a00b-1e50-40d3-87d9-adffc6cc74fb","ios":"levelo://app?vid=e961a00b-1e50-40d3-87d9-adffc6cc74fb"},"vehicle_type_id":"4","last_reported":1705943191,"current_range_meters":24400,"station_id":"ce4bgk12rcd13ifvqbj0","pricing_plan_id":"free"},{"bike_id":"6c29d6c7-864b-404d-a9de-ab34fb358996","system_id":"levelo_inurba_marseille","lat":43.295825,"lon":5.367753,"is_reserved":false,"is_disabled":false,"rental_uris":{"android":"levelo://app?vid=6c29d6c7-864b-404d-a9de-ab34fb358996","ios":"levelo://app?vid=6c29d6c7-864b-404d-a9de-ab34fb358996"},"vehicle_type_id":"4","last_reported":1705943191,"current_range_meters":21200,"station_id":"","pricing_plan_id":"free"},{"bike_id":"710d819c-c372-4181-b027-db28793acb07","system_id":"levelo_inurba_marseille","lat":43.295762,"lon":5.367428,"is_reserved":false,"is_disabled":false,"rental_uris":{"android":"levelo://app?vid=710d819c-c372-4181-b027-db28793acb07","ios":"levelo://app?vid=710d819c-c372-4181-b027-db28793acb07"},"vehicle_type_id":"4","last_reported":1705943191,"current_range_meters":30000,"station_id":"ce4bgph2rcd13ifvqc2g","pricing_plan_id":"free"},{"bike_id":"a5ada8cf-d419-4b37-98f3-2bce71e1c61f","system_id":"levelo_inurba_marseille","lat":43.296921,"lon":5.376579,"is_reserved":false,"is_disabled":false,"rental_uris":{"android":"levelo://app?vid=a5ada8cf-d419-4b37-98f3-2bce71e1c61f","ios":"levelo://app?vid=a5ada8cf-d419-4b37-98f3-2bce71e1c61f"},"vehicle_type_id":"4","last_reported":1705943191,"current_range_meters":0,"station_id":"ce4bgkh2rcd13ifvqbl0","pricing_plan_id":"free"},{"bike_id":"48b61ba6-1be8-4f51-a657-38965ca79743","system_id":"levelo_inurba_marseille","lat":43.309524,"lon":5.390354,"is_reserved":false,"is_disabled":false,"rental_uris":{"android":"levelo://app?vid=48b61ba6-1be8-4f51-a657-38965ca79743","ios":"levelo://app?vid=48b61ba6-1be8-4f51-a657-38965ca79743"},"vehicle_type_id":"4","last_reported":1705943191,"current_range_meters":15200,"station_id":"","pricing_plan_id":"free"},{"bike_id":"2db38b86-e92c-4eb3-bdb1-455527ef5f9c","system_id":"levelo_inurba_marseille","lat":43.298037,"lon":5.381066,"is_reserved":false,"is_disabled":false,"rental_uris":{"android":"levelo://app?vid=2db38b86-e92c-4eb3-bdb1-455527ef5f9c","ios":"levelo://app?vid=2db38b86-e92c-4eb3-bdb1-455527ef5f9c"},"vehicle_type_id":"4","last_reported":1705943191,"current_range_meters":0,"station_id":"ce4bgip2rcd13ifvqbb0","pricing_plan_id":"free"},{"bike_id":"2db968ec-ed69-4634-abc4-33253ac2fd32","system_id":"levelo_inurba_marseille","lat":43.298037,"lon":5.381066,"is_reserved":false,"is_disabled":false,"rental_uris":{"android":"levelo://app?vid=2db968ec-ed69-4634-abc4-33253ac2fd32","ios":"levelo://app?vid=2db968ec-ed69-4634-abc4-33253ac2fd32"},"vehicle_type_id":"4","last_reported":1705943191,"current_range_meters":15200,"station_id":"ce4bgip2rcd13ifvqbb0","pricing_plan_id":"free"},{"bike_id":"ec49e7e2-46c7-4e71-b70b-904e62fe1e73","system_id":"levelo_inurba_marseille","lat":43.298037,"lon":5.381066,"is_reserved":false,"is_disabled":false,"rental_uris":{"android":"levelo://app?vid=ec49e7e2-46c7-4e71-b70b-904e62fe1e73","ios":"levelo://app?vid=ec49e7e2-46c7-4e71-b70b-904e62fe1e73"},"vehicle_type_id":"4","last_reported":1705943191,"current_range_meters":4000,"station_id":"ce4bgip2rcd13ifvqbb0","pricing_plan_id":"free"},{"bike_id":"6de565b3-5445-4938-8f50-ef0258549653","system_id":"levelo_inurba_marseille","lat":43.295748,"lon":5.37522,"is_reserved":false,"is_disabled":false,"rental_uris":{"android":"levelo://app?vid=6de565b3-5445-4938-8f50-ef0258549653","ios":"levelo://app?vid=6de565b3-5445-4938-8f50-ef0258549653"},"vehicle_type_id":"4","last_reported":1705943191,"current_range_meters":10000,"station_id":"ce4bgh92rcd13ifvqb50","pricing_plan_id":"free"},{"bike_id":"0e4a84a2-86db-4547-bd6e-a9f744c146b3","system_id":"levelo_inurba_marseille","lat":43.304274,"lon":5.388873,"is_reserved":false,"is_disabled":false,"rental_uris":{"android":"levelo://app?vid=0e4a84a2-86db-4547-bd6e-a9f744c146b3","ios":"levelo://app?vid=0e4a84a2-86db-4547-bd6e-a9f744c146b3"},"vehicle_type_id":"4","last_reported":1705943191,"current_range_meters":5600,"station_id":"ce4bgk12rcd13ifvqbi0","pricing_plan_id":"free"},{"bike_id":"73054784-5663-4ae3-9293-199b1b73aa7f","system_id":"levelo_inurba_marseille","lat":43.295748,"lon":5.37522,"is_reserved":false,"is_disabled":false,"rental_uris":{"android":"levelo://app?vid=73054784-5663-4ae3-9293-199b1b73aa7f","ios":"levelo://app?vid=73054784-5663-4ae3-9293-199b1b73aa7f"},"vehicle_type_id":"4","last_reported":1705943191,"current_range_meters":0,"station_id":"ce4bgh92rcd13ifvqb50","pricing_plan_id":"free"},{"bike_id":"504554f5-9cdb-4fa4-ad56-746eaf1764cd","system_id":"levelo_inurba_marseille","lat":43.298681,"lon":5.397225,"is_reserved":false,"is_disabled":false,"rental_uris":{"android":"levelo://app?vid=504554f5-9cdb-4fa4-ad56-746eaf1764cd","ios":"levelo://app?vid=504554f5-9cdb-4fa4-ad56-746eaf1764cd"},"vehicle_type_id":"4","last_reported":1705943191,"current_range_meters":26400,"station_id":"ce4bh0h2rcd13ifvqd50","pricing_plan_id":"free"},{"bike_id":"c5f80db6-d89c-4ff9-9fab-5bb0a23169fd","system_id":"levelo_inurba_marseille","lat":43.296263,"lon":5.377094,"is_reserved":false,"is_disabled":false,"rental_uris":{"android":"levelo://app?vid=c5f80db6-d89c-4ff9-9fab-5bb0a23169fd","ios":"levelo://app?vid=c5f80db6-d89c-4ff9-9fab-5bb0a23169fd"},"vehicle_type_id":"4","last_reported":1705943191,"current_range_meters":28400,"station_id":"ce4bgi92rcd13ifvqb90","pricing_plan_id":"free"},{"bike_id":"fd11282d-01af-47c9-a536-d580ce538cea","system_id":"levelo_inurba_marseille","lat":43.299724,"lon":5.384848,"is_reserved":false,"is_disabled":false,"rental_uris":{"android":"levelo://app?vid=fd11282d-01af-47c9-a536-d580ce538cea","ios":"levelo://app?vid=fd11282d-01af-47c9-a536-d580ce538cea"},"vehicle_type_id":"4","last_reported":1705943191,"current_range_meters":24800,"station_id":"ce4bgj92rcd13ifvqbd0","pricing_plan_id":"free"},{"bike_id":"6d5ea52f-2d63-414f-b948-62b84897cbe7","system_id":"levelo_inurba_marseille","lat":43.32367,"lon":5.388836,"is_reserved":false,"is_disabled":false,"rental_uris":{"android":"levelo://app?vid=6d5ea52f-2d63-414f-b948-62b84897cbe7","ios":"levelo://app?vid=6d5ea52f-2d63-414f-b948-62b84897cbe7"},"vehicle_type_id":"4","last_reported":1705943191,"current_range_meters":8800,"station_id":"ce4bhqp2rcd13ifvqhog","pricing_plan_id":"free"},{"bike_id":"4a4d2dfc-55bc-4e74-ab1b-c83ba9a79873","system_id":"levelo_inurba_marseille","lat":43.3237,"lon":5.38885,"is_reserved":false,"is_disabled":false,"rental_uris":{"android":"levelo://app?vid=4a4d2dfc-55bc-4e74-ab1b-c83ba9a79873","ios":"levelo://app?vid=4a4d2dfc-55bc-4e74-ab1b-c83ba9a79873"},"vehicle_type_id":"4","last_reported":1705943191,"current_range_meters":30000,"station_id":"ce4bhqp2rcd13ifvqhog","pricing_plan_id":"free"},{"bike_id":"8592b6f7-b73f-48f5-9ce3-18ef45b4b466","system_id":"levelo_inurba_marseille","lat":43.29602,"lon":5.381084,"is_reserved":false,"is_disabled":false,"rental_uris":{"android":"levelo://app?vid=8592b6f7-b73f-48f5-9ce3-18ef45b4b466","ios":"levelo://app?vid=8592b6f7-b73f-48f5-9ce3-18ef45b4b466"},"vehicle_type_id":"4","last_reported":1705943191,"current_range_meters":24800,"station_id":"ce4bgl12rcd13ifvqbo0","pricing_plan_id":"free"},{"bike_id":"84ac38e4-c5d5-4962-a875-bb100de15dac","system_id":"levelo_inurba_marseille","lat":43.293249,"lon":5.371578,"is_reserved":false,"is_disabled":false,"rental_uris":{"android":"levelo://app?vid=84ac38e4-c5d5-4962-a875-bb100de15dac","ios":"levelo://app?vid=84ac38e4-c5d5-4962-a875-bb100de15dac"},"vehicle_type_id":"4","last_reported":1705943191,"current_range_meters":24800,"station_id":"ce4bgh92rcd13ifvqb40","pricing_plan_id":"free"},{"bike_id":"e1feec6a-3336-4b58-9fef-d2ece4c42288","system_id":"levelo_inurba_marseille","lat":43.293259,"lon":5.371586,"is_reserved":false,"is_disabled":false,"rental_uris":{"android":"levelo://app?vid=e1feec6a-3336-4b58-9fef-d2ece4c42288","ios":"levelo://app?vid=e1feec6a-3336-4b58-9fef-d2ece4c42288"},"vehicle_type_id":"4","last_reported":1705943191,"current_range_meters":6400,"station_id":"ce4bgh92rcd13ifvqb40","pricing_plan_id":"free"},{"bike_id":"d3321420-8704-4341-a27f-c4c0b078e926","system_id":"levelo_inurba_marseille","lat":43.293259,"lon":5.371586,"is_reserved":false,"is_disabled":false,"rental_uris":{"android":"levelo://app?vid=d3321420-8704-4341-a27f-c4c0b078e926","ios":"levelo://app?vid=d3321420-8704-4341-a27f-c4c0b078e926"},"vehicle_type_id":"4","last_reported":1705943191,"current_range_meters":0,"station_id":"ce4bgh92rcd13ifvqb40","pricing_plan_id":"free"},{"bike_id":"c7189e1e-334e-4fa7-960e-114b2528a794","system_id":"levelo_inurba_marseille","lat":43.293259,"lon":5.371586,"is_reserved":false,"is_disabled":false,"rental_uris":{"android":"levelo://app?vid=c7189e1e-334e-4fa7-960e-114b2528a794","ios":"levelo://app?vid=c7189e1e-334e-4fa7-960e-114b2528a794"},"vehicle_type_id":"4","last_reported":1705943191,"current_range_meters":17600,"station_id":"ce4bgh92rcd13ifvqb40","pricing_plan_id":"free"},{"bike_id":"e19185c5-0a3a-4276-832d-1d2e533a1d8e","system_id":"levelo_inurba_marseille","lat":43.292749,"lon":5.368402,"is_reserved":false,"is_disabled":false,"rental_uris":{"android":"levelo://app?vid=e19185c5-0a3a-4276-832d-1d2e533a1d8e","ios":"levelo://app?vid=e19185c5-0a3a-4276-832d-1d2e533a1d8e"},"vehicle_type_id":"4","last_reported":1705943191,"current_range_meters":12000,"station_id":"ce4bhbp2rcd13ifvqesg","pricing_plan_id":"free"},{"bike_id":"11fdec86-70a3-4c91-930b-039b2995366c","system_id":"levelo_inurba_marseille","lat":43.293009,"lon":5.374584,"is_reserved":false,"is_disabled":false,"rental_uris":{"android":"levelo://app?vid=11fdec86-70a3-4c91-930b-039b2995366c","ios":"levelo://app?vid=11fdec86-70a3-4c91-930b-039b2995366c"},"vehicle_type_id":"4","last_reported":1705943191,"current_range_meters":11200,"station_id":"ce4bgi12rcd13ifvqb70","pricing_plan_id":"free"},{"bike_id":"8f37fa90-04e7-463e-bc5c-fe915089bd0a","system_id":"levelo_inurba_marseille","lat":43.305994,"lon":5.393687,"is_reserved":false,"is_disabled":false,"rental_uris":{"android":"levelo://app?vid=8f37fa90-04e7-463e-bc5c-fe915089bd0a","ios":"levelo://app?vid=8f37fa90-04e7-463e-bc5c-fe915089bd0a"},"vehicle_type_id":"4","last_reported":1705943191,"current_range_meters":0,"station_id":"ce4bh0p2rcd13ifvqd80","pricing_plan_id":"free"},{"bike_id":"a7d583b1-b6b7-4d30-8eb9-1f308e7b4037","system_id":"levelo_inurba_marseille","lat":43.313291,"lon":5.396838,"is_reserved":false,"is_disabled":false,"rental_uris":{"android":"levelo://app?vid=a7d583b1-b6b7-4d30-8eb9-1f308e7b4037","ios":"levelo://app?vid=a7d583b1-b6b7-4d30-8eb9-1f308e7b4037"},"vehicle_type_id":"4","last_reported":1705943191,"current_range_meters":23200,"station_id":"ce4bgvp2rcd13ifvqcu0","pricing_plan_id":"free"},{"bike_id":"426010b9-6c5c-4b05-b832-6b93ee63a819","system_id":"levelo_inurba_marseille","lat":43.305994,"lon":5.393687,"is_reserved":false,"is_disabled":false,"rental_uris":{"android":"levelo://app?vid=426010b9-6c5c-4b05-b832-6b93ee63a819","ios":"levelo://app?vid=426010b9-6c5c-4b05-b832-6b93ee63a819"},"vehicle_type_id":"4","last_reported":1705943191,"current_range_meters":6000,"station_id":"ce4bh0p2rcd13ifvqd80","pricing_plan_id":"free"},{"bike_id":"54670aab-4564-41e2-97ee-e86c7d15e8dc","system_id":"levelo_inurba_marseille","lat":43.2936,"lon":5.37835,"is_reserved":false,"is_disabled":false,"rental_uris":{"android":"levelo://app?vid=54670aab-4564-41e2-97ee-e86c7d15e8dc","ios":"levelo://app?vid=54670aab-4564-41e2-97ee-e86c7d15e8dc"},"vehicle_type_id":"4","last_reported":1705943191,"current_range_meters":13200,"station_id":"ce4bgjh2rcd13ifvqbf0","pricing_plan_id":"free"},{"bike_id":"6cf4d737-3b52-4be6-85ab-287dddf9231d","system_id":"levelo_inurba_marseille","lat":43.29174,"lon":5.36642,"is_reserved":false,"is_disabled":false,"rental_uris":{"android":"levelo://app?vid=6cf4d737-3b52-4be6-85ab-287dddf9231d","ios":"levelo://app?vid=6cf4d737-3b52-4be6-85ab-287dddf9231d"},"vehicle_type_id":"4","last_reported":1705943191,"current_range_meters":2000,"station_id":"","pricing_plan_id":"free"},{"bike_id":"bd4b105f-1374-4d63-b844-78858e2edc02","system_id":"levelo_inurba_marseille","lat":43.33366,"lon":5.37045,"is_reserved":false,"is_disabled":false,"rental_uris":{"android":"levelo://app?vid=bd4b105f-1374-4d63-b844-78858e2edc02","ios":"levelo://app?vid=bd4b105f-1374-4d63-b844-78858e2edc02"},"vehicle_type_id":"4","last_reported":1705943191,"current_range_meters":23200,"station_id":"","pricing_plan_id":"free"},{"bike_id":"05d96aac-f05d-42c5-9709-a8a27982b9b7","system_id":"levelo_inurba_marseille","lat":43.298764,"lon":5.388973,"is_reserved":false,"is_disabled":false,"rental_uris":{"android":"levelo://app?vid=05d96aac-f05d-42c5-9709-a8a27982b9b7","ios":"levelo://app?vid=05d96aac-f05d-42c5-9709-a8a27982b9b7"},"vehicle_type_id":"4","last_reported":1705943191,"current_range_meters":7600,"station_id":"ce4bh392rcd13ifvqdl0","pricing_plan_id":"free"},{"bike_id":"7f8dcf1e-92a0-42f4-a098-432bbb7f4be2","system_id":"levelo_inurba_marseille","lat":43.293009,"lon":5.374584,"is_reserved":false,"is_disabled":false,"rental_uris":{"android":"levelo://app?vid=7f8dcf1e-92a0-42f4-a098-432bbb7f4be2","ios":"levelo://app?vid=7f8dcf1e-92a0-42f4-a098-432bbb7f4be2"},"vehicle_type_id":"4","last_reported":1705943191,"current_range_meters":31200,"station_id":"ce4bgi12rcd13ifvqb70","pricing_plan_id":"free"},{"bike_id":"1004716c-065d-4df8-bdd1-b65ab2417438","system_id":"levelo_inurba_marseille","lat":43.298764,"lon":5.388973,"is_reserved":false,"is_disabled":false,"rental_uris":{"android":"levelo://app?vid=1004716c-065d-4df8-bdd1-b65ab2417438","ios":"levelo://app?vid=1004716c-065d-4df8-bdd1-b65ab2417438"},"vehicle_type_id":"4","last_reported":1705943191,"current_range_meters":17600,"station_id":"ce4bh392rcd13ifvqdl0","pricing_plan_id":"free"},{"bike_id":"38a33b05-a637-4e72-afdb-276e1537b864","system_id":"levelo_inurba_marseille","lat":43.296263,"lon":5.40601,"is_reserved":false,"is_disabled":false,"rental_uris":{"android":"levelo://app?vid=38a33b05-a637-4e72-afdb-276e1537b864","ios":"levelo://app?vid=38a33b05-a637-4e72-afdb-276e1537b864"},"vehicle_type_id":"4","last_reported":1705943191,"current_range_meters":16800,"station_id":"ce4bh0h2rcd13ifvqd60","pricing_plan_id":"free"},{"bike_id":"5d0c58cd-d2e1-445b-9abb-04aabaacf0ac","system_id":"levelo_inurba_marseille","lat":43.313276,"lon":5.396845,"is_reserved":false,"is_disabled":false,"rental_uris":{"android":"levelo://app?vid=5d0c58cd-d2e1-445b-9abb-04aabaacf0ac","ios":"levelo://app?vid=5d0c58cd-d2e1-445b-9abb-04aabaacf0ac"},"vehicle_type_id":"4","last_reported":1705943191,"current_range_meters":20000,"station_id":"ce4bgvp2rcd13ifvqcu0","pricing_plan_id":"free"},{"bike_id":"1a9b07e9-1bc5-42be-9168-2d3224b2250d","system_id":"levelo_inurba_marseille","lat":43.309038,"lon":5.396546,"is_reserved":false,"is_disabled":false,"rental_uris":{"android":"levelo://app?vid=1a9b07e9-1bc5-42be-9168-2d3224b2250d","ios":"levelo://app?vid=1a9b07e9-1bc5-42be-9168-2d3224b2250d"},"vehicle_type_id":"4","last_reported":1705943191,"current_range_meters":26000,"station_id":"ce4bh012rcd13ifvqcv0","pricing_plan_id":"free"},{"bike_id":"4629583c-b1ea-4840-b672-862935324178","system_id":"levelo_inurba_marseille","lat":43.313291,"lon":5.396838,"is_reserved":false,"is_disabled":false,"rental_uris":{"android":"levelo://app?vid=4629583c-b1ea-4840-b672-862935324178","ios":"levelo://app?vid=4629583c-b1ea-4840-b672-862935324178"},"vehicle_type_id":"4","last_reported":1705943191,"current_range_meters":17200,"station_id":"ce4bgvp2rcd13ifvqcu0","pricing_plan_id":"free"},{"bike_id":"ffaa24cd-2161-42e5-b8fe-8cb840f422ec","system_id":"levelo_inurba_marseille","lat":43.313291,"lon":5.396838,"is_reserved":false,"is_disabled":false,"rental_uris":{"android":"levelo://app?vid=ffaa24cd-2161-42e5-b8fe-8cb840f422ec","ios":"levelo://app?vid=ffaa24cd-2161-42e5-b8fe-8cb840f422ec"},"vehicle_type_id":"4","last_reported":1705943191,"current_range_meters":17200,"station_id":"ce4bgvp2rcd13ifvqcu0","pricing_plan_id":"free"},{"bike_id":"fcb3b231-c529-47e3-b2e2-1d1b695c2837","system_id":"levelo_inurba_marseille","lat":43.31328,"lon":5.39695,"is_reserved":false,"is_disabled":false,"rental_uris":{"android":"levelo://app?vid=fcb3b231-c529-47e3-b2e2-1d1b695c2837","ios":"levelo://app?vid=fcb3b231-c529-47e3-b2e2-1d1b695c2837"},"vehicle_type_id":"4","last_reported":1705943191,"current_range_meters":11600,"station_id":"ce4bgvp2rcd13ifvqcu0","pricing_plan_id":"free"},{"bike_id":"ef396dc3-8557-489c-87ed-049cf0eeda33","system_id":"levelo_inurba_marseille","lat":43.31322,"lon":5.39697,"is_reserved":false,"is_disabled":false,"rental_uris":{"android":"levelo://app?vid=ef396dc3-8557-489c-87ed-049cf0eeda33","ios":"levelo://app?vid=ef396dc3-8557-489c-87ed-049cf0eeda33"},"vehicle_type_id":"4","last_reported":1705943191,"current_range_meters":10400,"station_id":"ce4bgvp2rcd13ifvqcu0","pricing_plan_id":"free"},{"bike_id":"e804b5e8-dced-4abf-a3e4-772e410179e3","system_id":"levelo_inurba_marseille","lat":43.31327,"lon":5.39698,"is_reserved":false,"is_disabled":false,"rental_uris":{"android":"levelo://app?vid=e804b5e8-dced-4abf-a3e4-772e410179e3","ios":"levelo://app?vid=e804b5e8-dced-4abf-a3e4-772e410179e3"},"vehicle_type_id":"4","last_reported":1705943191,"current_range_meters":5600,"station_id":"ce4bgvp2rcd13ifvqcu0","pricing_plan_id":"free"},{"bike_id":"7c25a2f2-a169-4e02-a9cd-a576589c4931","system_id":"levelo_inurba_marseille","lat":43.291994,"lon":5.357886,"is_reserved":false,"is_disabled":false,"rental_uris":{"android":"levelo://app?vid=7c25a2f2-a169-4e02-a9cd-a576589c4931","ios":"levelo://app?vid=7c25a2f2-a169-4e02-a9cd-a576589c4931"},"vehicle_type_id":"4","last_reported":1705943191,"current_range_meters":6400,"station_id":"ce4bhb12rcd13ifvqel0","pricing_plan_id":"free"},{"bike_id":"4e914a54-894e-4ad3-b7e0-25e629a15136","system_id":"levelo_inurba_marseille","lat":43.309038,"lon":5.396546,"is_reserved":false,"is_disabled":false,"rental_uris":{"android":"levelo://app?vid=4e914a54-894e-4ad3-b7e0-25e629a15136","ios":"levelo://app?vid=4e914a54-894e-4ad3-b7e0-25e629a15136"},"vehicle_type_id":"4","last_reported":1705943191,"current_range_meters":5600,"station_id":"ce4bh012rcd13ifvqcv0","pricing_plan_id":"free"},{"bike_id":"0841cde0-b0f0-41af-ba6d-81d72623c02d","system_id":"levelo_inurba_marseille","lat":43.309038,"lon":5.396546,"is_reserved":false,"is_disabled":false,"rental_uris":{"android":"levelo://app?vid=0841cde0-b0f0-41af-ba6d-81d72623c02d","ios":"levelo://app?vid=0841cde0-b0f0-41af-ba6d-81d72623c02d"},"vehicle_type_id":"4","last_reported":1705943191,"current_range_meters":12800,"station_id":"ce4bh012rcd13ifvqcv0","pricing_plan_id":"free"},{"bike_id":"d5ebf2ac-e9ba-4c7e-b469-c3e51d9686d9","system_id":"levelo_inurba_marseille","lat":43.313291,"lon":5.396838,"is_reserved":false,"is_disabled":false,"rental_uris":{"android":"levelo://app?vid=d5ebf2ac-e9ba-4c7e-b469-c3e51d9686d9","ios":"levelo://app?vid=d5ebf2ac-e9ba-4c7e-b469-c3e51d9686d9"},"vehicle_type_id":"4","last_reported":1705943191,"current_range_meters":24000,"station_id":"ce4bgvp2rcd13ifvqcu0","pricing_plan_id":"free"},{"bike_id":"61435cb2-cb50-45a8-9a49-a07115b09653","system_id":"levelo_inurba_marseille","lat":43.29529,"lon":5.385581,"is_reserved":false,"is_disabled":false,"rental_uris":{"android":"levelo://app?vid=61435cb2-cb50-45a8-9a49-a07115b09653","ios":"levelo://app?vid=61435cb2-cb50-45a8-9a49-a07115b09653"},"vehicle_type_id":"4","last_reported":1705943191,"current_range_meters":16400,"station_id":"ce4bgih2rcd13ifvqba0","pricing_plan_id":"free"},{"bike_id":"db1d427b-bc14-4b5a-bd8c-93fbed11cded","system_id":"levelo_inurba_marseille","lat":43.29529,"lon":5.385581,"is_reserved":false,"is_disabled":false,"rental_uris":{"android":"levelo://app?vid=db1d427b-bc14-4b5a-bd8c-93fbed11cded","ios":"levelo://app?vid=db1d427b-bc14-4b5a-bd8c-93fbed11cded"},"vehicle_type_id":"4","last_reported":1705943191,"current_range_meters":28000,"station_id":"ce4bgih2rcd13ifvqba0","pricing_plan_id":"free"},{"bike_id":"bd9ae264-8d43-4ad7-a858-0580557f535e","system_id":"levelo_inurba_marseille","lat":43.29521,"lon":5.38545,"is_reserved":false,"is_disabled":false,"rental_uris":{"android":"levelo://app?vid=bd9ae264-8d43-4ad7-a858-0580557f535e","ios":"levelo://app?vid=bd9ae264-8d43-4ad7-a858-0580557f535e"},"vehicle_type_id":"4","last_reported":1705943191,"current_range_meters":6400,"station_id":"ce4bgih2rcd13ifvqba0","pricing_plan_id":"free"},{"bike_id":"ace98b51-1481-44f2-8a95-191f0092a4a8","system_id":"levelo_inurba_marseille","lat":43.290779,"lon":5.371482,"is_reserved":false,"is_disabled":false,"rental_uris":{"android":"levelo://app?vid=ace98b51-1481-44f2-8a95-191f0092a4a8","ios":"levelo://app?vid=ace98b51-1481-44f2-8a95-191f0092a4a8"},"vehicle_type_id":"4","last_reported":1705943191,"current_range_meters":10800,"station_id":"ce4bh5p2rcd13ifvqe4g","pricing_plan_id":"free"},{"bike_id":"0d77d5f9-6afb-4c08-8faf-c858768d1a9e","system_id":"levelo_inurba_marseille","lat":43.294736,"lon":5.386024,"is_reserved":false,"is_disabled":false,"rental_uris":{"android":"levelo://app?vid=0d77d5f9-6afb-4c08-8faf-c858768d1a9e","ios":"levelo://app?vid=0d77d5f9-6afb-4c08-8faf-c858768d1a9e"},"vehicle_type_id":"4","last_reported":1705943191,"current_range_meters":6800,"station_id":"ce4bh2h2rcd13ifvqdh0","pricing_plan_id":"free"},{"bike_id":"1cd59b15-824e-457e-be20-6875a3b76b9c","system_id":"levelo_inurba_marseille","lat":43.295169,"lon":5.390426,"is_reserved":false,"is_disabled":false,"rental_uris":{"android":"levelo://app?vid=1cd59b15-824e-457e-be20-6875a3b76b9c","ios":"levelo://app?vid=1cd59b15-824e-457e-be20-6875a3b76b9c"},"vehicle_type_id":"4","last_reported":1705943191,"current_range_meters":11200,"station_id":"ce4bh3p2rcd13ifvqdp0","pricing_plan_id":"free"},{"bike_id":"ed9b91f8-71a7-409a-bc2f-1b977859fe70","system_id":"levelo_inurba_marseille","lat":43.294162,"lon":5.386292,"is_reserved":false,"is_disabled":false,"rental_uris":{"android":"levelo://app?vid=ed9b91f8-71a7-409a-bc2f-1b977859fe70","ios":"levelo://app?vid=ed9b91f8-71a7-409a-bc2f-1b977859fe70"},"vehicle_type_id":"4","last_reported":1705943191,"current_range_meters":16800,"station_id":"ce4bh2h2rcd13ifvqdh0","pricing_plan_id":"free"},{"bike_id":"f0f60359-b3c6-4e44-b07d-2eb48757e43a","system_id":"levelo_inurba_marseille","lat":43.29419,"lon":5.38628,"is_reserved":false,"is_disabled":false,"rental_uris":{"android":"levelo://app?vid=f0f60359-b3c6-4e44-b07d-2eb48757e43a","ios":"levelo://app?vid=f0f60359-b3c6-4e44-b07d-2eb48757e43a"},"vehicle_type_id":"4","last_reported":1705943191,"current_range_meters":24400,"station_id":"ce4bh2h2rcd13ifvqdh0","pricing_plan_id":"free"},{"bike_id":"1b86cfae-c911-4751-bfcc-5fffee9b765f","system_id":"levelo_inurba_marseille","lat":43.29415,"lon":5.38625,"is_reserved":false,"is_disabled":false,"rental_uris":{"android":"levelo://app?vid=1b86cfae-c911-4751-bfcc-5fffee9b765f","ios":"levelo://app?vid=1b86cfae-c911-4751-bfcc-5fffee9b765f"},"vehicle_type_id":"4","last_reported":1705943191,"current_range_meters":26400,"station_id":"ce4bh2h2rcd13ifvqdh0","pricing_plan_id":"free"},{"bike_id":"01cdac64-6669-4b3f-af28-81313511660e","system_id":"levelo_inurba_marseille","lat":43.292644,"lon":5.384257,"is_reserved":false,"is_disabled":false,"rental_uris":{"android":"levelo://app?vid=01cdac64-6669-4b3f-af28-81313511660e","ios":"levelo://app?vid=01cdac64-6669-4b3f-af28-81313511660e"},"vehicle_type_id":"4","last_reported":1705943191,"current_range_meters":1600,"station_id":"ce4bh692rcd13ifvqea0","pricing_plan_id":"free"},{"bike_id":"9acce2bf-4d7f-4fb1-980a-db07a3c0da26","system_id":"levelo_inurba_marseille","lat":43.292644,"lon":5.384257,"is_reserved":false,"is_disabled":false,"rental_uris":{"android":"levelo://app?vid=9acce2bf-4d7f-4fb1-980a-db07a3c0da26","ios":"levelo://app?vid=9acce2bf-4d7f-4fb1-980a-db07a3c0da26"},"vehicle_type_id":"4","last_reported":1705943191,"current_range_meters":19600,"station_id":"ce4bh692rcd13ifvqea0","pricing_plan_id":"free"},{"bike_id":"d289821c-26a6-4ebc-9eed-dcaa6fb1732f","system_id":"levelo_inurba_marseille","lat":43.29004,"lon":5.35616,"is_reserved":false,"is_disabled":false,"rental_uris":{"android":"levelo://app?vid=d289821c-26a6-4ebc-9eed-dcaa6fb1732f","ios":"levelo://app?vid=d289821c-26a6-4ebc-9eed-dcaa6fb1732f"},"vehicle_type_id":"4","last_reported":1705943191,"current_range_meters":23600,"station_id":"ce4bhb92rcd13ifvqen0","pricing_plan_id":"free"},{"bike_id":"14a835c9-2624-413d-a6a9-ec8fa4c5500c","system_id":"levelo_inurba_marseille","lat":43.290103,"lon":5.356114,"is_reserved":false,"is_disabled":false,"rental_uris":{"android":"levelo://app?vid=14a835c9-2624-413d-a6a9-ec8fa4c5500c","ios":"levelo://app?vid=14a835c9-2624-413d-a6a9-ec8fa4c5500c"},"vehicle_type_id":"4","last_reported":1705943191,"current_range_meters":5200,"station_id":"ce4bhb92rcd13ifvqen0","pricing_plan_id":"free"},{"bike_id":"184a7464-3228-4d19-8e57-1089433f592c","system_id":"levelo_inurba_marseille","lat":43.290103,"lon":5.356114,"is_reserved":false,"is_disabled":false,"rental_uris":{"android":"levelo://app?vid=184a7464-3228-4d19-8e57-1089433f592c","ios":"levelo://app?vid=184a7464-3228-4d19-8e57-1089433f592c"},"vehicle_type_id":"4","last_reported":1705943191,"current_range_meters":14800,"station_id":"ce4bhb92rcd13ifvqen0","pricing_plan_id":"free"},{"bike_id":"a989e0c1-bd80-4b6f-b04c-0974ce855ae8","system_id":"levelo_inurba_marseille","lat":43.295169,"lon":5.390426,"is_reserved":false,"is_disabled":false,"rental_uris":{"android":"levelo://app?vid=a989e0c1-bd80-4b6f-b04c-0974ce855ae8","ios":"levelo://app?vid=a989e0c1-bd80-4b6f-b04c-0974ce855ae8"},"vehicle_type_id":"4","last_reported":1705943191,"current_range_meters":15600,"station_id":"ce4bh3p2rcd13ifvqdp0","pricing_plan_id":"free"},{"bike_id":"6bb2cc3e-025b-4559-aee6-81022c0cf8b8","system_id":"levelo_inurba_marseille","lat":43.295169,"lon":5.390426,"is_reserved":false,"is_disabled":false,"rental_uris":{"android":"levelo://app?vid=6bb2cc3e-025b-4559-aee6-81022c0cf8b8","ios":"levelo://app?vid=6bb2cc3e-025b-4559-aee6-81022c0cf8b8"},"vehicle_type_id":"4","last_reported":1705943191,"current_range_meters":14400,"station_id":"ce4bh3p2rcd13ifvqdp0","pricing_plan_id":"free"},{"bike_id":"ab001c16-e197-4d75-bc32-a8f3a5199351","system_id":"levelo_inurba_marseille","lat":43.33018,"lon":5.39039,"is_reserved":false,"is_disabled":false,"rental_uris":{"android":"levelo://app?vid=ab001c16-e197-4d75-bc32-a8f3a5199351","ios":"levelo://app?vid=ab001c16-e197-4d75-bc32-a8f3a5199351"},"vehicle_type_id":"4","last_reported":1705943191,"current_range_meters":28000,"station_id":"ce4bhr92rcd13ifvqhrg","pricing_plan_id":"free"},{"bike_id":"c8217cad-9878-4c41-8e21-9a034be5a361","system_id":"levelo_inurba_marseille","lat":43.33017,"lon":5.39044,"is_reserved":false,"is_disabled":false,"rental_uris":{"android":"levelo://app?vid=c8217cad-9878-4c41-8e21-9a034be5a361","ios":"levelo://app?vid=c8217cad-9878-4c41-8e21-9a034be5a361"},"vehicle_type_id":"4","last_reported":1705943191,"current_range_meters":4000,"station_id":"ce4bhr92rcd13ifvqhrg","pricing_plan_id":"free"},{"bike_id":"de6680e1-a58c-4d83-8e7d-c1e90c9c72cd","system_id":"levelo_inurba_marseille","lat":43.33023,"lon":5.39038,"is_reserved":false,"is_disabled":false,"rental_uris":{"android":"levelo://app?vid=de6680e1-a58c-4d83-8e7d-c1e90c9c72cd","ios":"levelo://app?vid=de6680e1-a58c-4d83-8e7d-c1e90c9c72cd"},"vehicle_type_id":"4","last_reported":1705943191,"current_range_meters":26400,"station_id":"ce4bhr92rcd13ifvqhrg","pricing_plan_id":"free"},{"bike_id":"77f89468-23f4-42b0-aa40-da8db5c2b420","system_id":"levelo_inurba_marseille","lat":43.33021,"lon":5.39045,"is_reserved":false,"is_disabled":false,"rental_uris":{"android":"levelo://app?vid=77f89468-23f4-42b0-aa40-da8db5c2b420","ios":"levelo://app?vid=77f89468-23f4-42b0-aa40-da8db5c2b420"},"vehicle_type_id":"4","last_reported":1705943191,"current_range_meters":18400,"station_id":"ce4bhr92rcd13ifvqhrg","pricing_plan_id":"free"},{"bike_id":"01e83f51-289a-4308-bad3-81415051486b","system_id":"levelo_inurba_marseille","lat":43.290104,"lon":5.356111,"is_reserved":false,"is_disabled":false,"rental_uris":{"android":"levelo://app?vid=01e83f51-289a-4308-bad3-81415051486b","ios":"levelo://app?vid=01e83f51-289a-4308-bad3-81415051486b"},"vehicle_type_id":"4","last_reported":1705943191,"current_range_meters":7200,"station_id":"ce4bhb92rcd13ifvqen0","pricing_plan_id":"free"},{"bike_id":"925eaff5-3e49-4fa2-bc92-9f7181735632","system_id":"levelo_inurba_marseille","lat":43.330251,"lon":5.390447,"is_reserved":false,"is_disabled":false,"rental_uris":{"android":"levelo://app?vid=925eaff5-3e49-4fa2-bc92-9f7181735632","ios":"levelo://app?vid=925eaff5-3e49-4fa2-bc92-9f7181735632"},"vehicle_type_id":"4","last_reported":1705943191,"current_range_meters":13600,"station_id":"ce4bhr92rcd13ifvqhrg","pricing_plan_id":"free"},{"bike_id":"7f6fbd24-7425-4436-bb01-bf104c4230da","system_id":"levelo_inurba_marseille","lat":43.330253,"lon":5.390447,"is_reserved":false,"is_disabled":false,"rental_uris":{"android":"levelo://app?vid=7f6fbd24-7425-4436-bb01-bf104c4230da","ios":"levelo://app?vid=7f6fbd24-7425-4436-bb01-bf104c4230da"},"vehicle_type_id":"4","last_reported":1705943191,"current_range_meters":16000,"station_id":"ce4bhr92rcd13ifvqhrg","pricing_plan_id":"free"},{"bike_id":"04c1ca10-567f-4e88-84a1-5d380fc4e095","system_id":"levelo_inurba_marseille","lat":43.295169,"lon":5.390426,"is_reserved":false,"is_disabled":false,"rental_uris":{"android":"levelo://app?vid=04c1ca10-567f-4e88-84a1-5d380fc4e095","ios":"levelo://app?vid=04c1ca10-567f-4e88-84a1-5d380fc4e095"},"vehicle_type_id":"4","last_reported":1705943191,"current_range_meters":22400,"station_id":"ce4bh3p2rcd13ifvqdp0","pricing_plan_id":"free"},{"bike_id":"f177d4bb-d96b-4cd4-a5db-452459a6e6f3","system_id":"levelo_inurba_marseille","lat":43.295169,"lon":5.390426,"is_reserved":false,"is_disabled":false,"rental_uris":{"android":"levelo://app?vid=f177d4bb-d96b-4cd4-a5db-452459a6e6f3","ios":"levelo://app?vid=f177d4bb-d96b-4cd4-a5db-452459a6e6f3"},"vehicle_type_id":"4","last_reported":1705943191,"current_range_meters":800,"station_id":"ce4bh3p2rcd13ifvqdp0","pricing_plan_id":"free"},{"bike_id":"fa281fce-0eec-4700-906b-c5963a30ca1f","system_id":"levelo_inurba_marseille","lat":43.28856,"lon":5.358371,"is_reserved":false,"is_disabled":false,"rental_uris":{"android":"levelo://app?vid=fa281fce-0eec-4700-906b-c5963a30ca1f","ios":"levelo://app?vid=fa281fce-0eec-4700-906b-c5963a30ca1f"},"vehicle_type_id":"4","last_reported":1705943191,"current_range_meters":5200,"station_id":"ce4bhb12rcd13ifvqem0","pricing_plan_id":"free"},{"bike_id":"12fc4d7b-1f23-4c19-aa25-2091d645d371","system_id":"levelo_inurba_marseille","lat":43.28856,"lon":5.358371,"is_reserved":false,"is_disabled":false,"rental_uris":{"android":"levelo://app?vid=12fc4d7b-1f23-4c19-aa25-2091d645d371","ios":"levelo://app?vid=12fc4d7b-1f23-4c19-aa25-2091d645d371"},"vehicle_type_id":"4","last_reported":1705943191,"current_range_meters":10800,"station_id":"ce4bhb12rcd13ifvqem0","pricing_plan_id":"free"},{"bike_id":"4770cd9e-f395-447d-973b-a32bbf0871ff","system_id":"levelo_inurba_marseille","lat":43.312609,"lon":5.401662,"is_reserved":false,"is_disabled":false,"rental_uris":{"android":"levelo://app?vid=4770cd9e-f395-447d-973b-a32bbf0871ff","ios":"levelo://app?vid=4770cd9e-f395-447d-973b-a32bbf0871ff"},"vehicle_type_id":"4","last_reported":1705943191,"current_range_meters":7600,"station_id":"ce4bh092rcd13ifvqd30","pricing_plan_id":"free"},{"bike_id":"ad581a2b-0f90-49af-b2ef-0ca0167df15a","system_id":"levelo_inurba_marseille","lat":43.312609,"lon":5.401662,"is_reserved":false,"is_disabled":false,"rental_uris":{"android":"levelo://app?vid=ad581a2b-0f90-49af-b2ef-0ca0167df15a","ios":"levelo://app?vid=ad581a2b-0f90-49af-b2ef-0ca0167df15a"},"vehicle_type_id":"4","last_reported":1705943191,"current_range_meters":21200,"station_id":"ce4bh092rcd13ifvqd30","pricing_plan_id":"free"},{"bike_id":"6242f914-b33b-4b05-b781-04f0f5646e7a","system_id":"levelo_inurba_marseille","lat":43.312609,"lon":5.401662,"is_reserved":false,"is_disabled":false,"rental_uris":{"android":"levelo://app?vid=6242f914-b33b-4b05-b781-04f0f5646e7a","ios":"levelo://app?vid=6242f914-b33b-4b05-b781-04f0f5646e7a"},"vehicle_type_id":"4","last_reported":1705943191,"current_range_meters":14000,"station_id":"ce4bh092rcd13ifvqd30","pricing_plan_id":"free"},{"bike_id":"fe27389b-3c3a-4ad2-b34e-e3c131898f74","system_id":"levelo_inurba_marseille","lat":43.312609,"lon":5.401662,"is_reserved":false,"is_disabled":false,"rental_uris":{"android":"levelo://app?vid=fe27389b-3c3a-4ad2-b34e-e3c131898f74","ios":"levelo://app?vid=fe27389b-3c3a-4ad2-b34e-e3c131898f74"},"vehicle_type_id":"4","last_reported":1705943191,"current_range_meters":2000,"station_id":"ce4bh092rcd13ifvqd30","pricing_plan_id":"free"},{"bike_id":"5ecba8ad-042a-4f9e-aecc-abb0013d8877","system_id":"levelo_inurba_marseille","lat":43.323464,"lon":5.406297,"is_reserved":false,"is_disabled":false,"rental_uris":{"android":"levelo://app?vid=5ecba8ad-042a-4f9e-aecc-abb0013d8877","ios":"levelo://app?vid=5ecba8ad-042a-4f9e-aecc-abb0013d8877"},"vehicle_type_id":"4","last_reported":1705943191,"current_range_meters":400,"station_id":"ce4bhq92rcd13ifvqhjg","pricing_plan_id":"free"},{"bike_id":"92583824-3061-4362-a215-b6a04643adf9","system_id":"levelo_inurba_marseille","lat":43.312609,"lon":5.401662,"is_reserved":false,"is_disabled":false,"rental_uris":{"android":"levelo://app?vid=92583824-3061-4362-a215-b6a04643adf9","ios":"levelo://app?vid=92583824-3061-4362-a215-b6a04643adf9"},"vehicle_type_id":"4","last_reported":1705943191,"current_range_meters":22000,"station_id":"ce4bh092rcd13ifvqd30","pricing_plan_id":"free"},{"bike_id":"9e05053d-adf3-4003-a6de-5058f28ac54c","system_id":"levelo_inurba_marseille","lat":43.30931,"lon":5.40143,"is_reserved":false,"is_disabled":false,"rental_uris":{"android":"levelo://app?vid=9e05053d-adf3-4003-a6de-5058f28ac54c","ios":"levelo://app?vid=9e05053d-adf3-4003-a6de-5058f28ac54c"},"vehicle_type_id":"4","last_reported":1705943191,"current_range_meters":0,"station_id":"ce4bgvp2rcd13ifvqct0","pricing_plan_id":"free"},{"bike_id":"88085968-ac37-4934-8195-7f7e3b45116f","system_id":"levelo_inurba_marseille","lat":43.309371,"lon":5.401449,"is_reserved":false,"is_disabled":false,"rental_uris":{"android":"levelo://app?vid=88085968-ac37-4934-8195-7f7e3b45116f","ios":"levelo://app?vid=88085968-ac37-4934-8195-7f7e3b45116f"},"vehicle_type_id":"4","last_reported":1705943191,"current_range_meters":0,"station_id":"ce4bgvp2rcd13ifvqct0","pricing_plan_id":"free"},{"bike_id":"206f158a-0545-4c60-8ca6-b3437d3d43ef","system_id":"levelo_inurba_marseille","lat":43.312609,"lon":5.401662,"is_reserved":false,"is_disabled":false,"rental_uris":{"android":"levelo://app?vid=206f158a-0545-4c60-8ca6-b3437d3d43ef","ios":"levelo://app?vid=206f158a-0545-4c60-8ca6-b3437d3d43ef"},"vehicle_type_id":"4","last_reported":1705943191,"current_range_meters":12800,"station_id":"ce4bh092rcd13ifvqd30","pricing_plan_id":"free"},{"bike_id":"1337d088-b461-4af4-9bfe-5d65476f273c","system_id":"levelo_inurba_marseille","lat":43.33749,"lon":5.37461,"is_reserved":false,"is_disabled":false,"rental_uris":{"android":"levelo://app?vid=1337d088-b461-4af4-9bfe-5d65476f273c","ios":"levelo://app?vid=1337d088-b461-4af4-9bfe-5d65476f273c"},"vehicle_type_id":"4","last_reported":1705943191,"current_range_meters":18800,"station_id":"","pricing_plan_id":"free"},{"bike_id":"60536ab9-b768-4b0e-9ae3-3f9e209c52cb","system_id":"levelo_inurba_marseille","lat":43.28727,"lon":5.36078,"is_reserved":false,"is_disabled":false,"rental_uris":{"android":"levelo://app?vid=60536ab9-b768-4b0e-9ae3-3f9e209c52cb","ios":"levelo://app?vid=60536ab9-b768-4b0e-9ae3-3f9e209c52cb"},"vehicle_type_id":"4","last_reported":1705943191,"current_range_meters":21200,"station_id":"cki0cbj6b192h4jlfktg","pricing_plan_id":"free"},{"bike_id":"a7610754-d94b-414a-9706-1b52c4d21d16","system_id":"levelo_inurba_marseille","lat":43.30634,"lon":5.40078,"is_reserved":false,"is_disabled":false,"rental_uris":{"android":"levelo://app?vid=a7610754-d94b-414a-9706-1b52c4d21d16","ios":"levelo://app?vid=a7610754-d94b-414a-9706-1b52c4d21d16"},"vehicle_type_id":"4","last_reported":1705943191,"current_range_meters":12800,"station_id":"ce4bh112rcd13ifvqda0","pricing_plan_id":"free"},{"bike_id":"9e0cfd9a-9a12-4d3a-badd-899efb031795","system_id":"levelo_inurba_marseille","lat":43.30639,"lon":5.40099,"is_reserved":false,"is_disabled":false,"rental_uris":{"android":"levelo://app?vid=9e0cfd9a-9a12-4d3a-badd-899efb031795","ios":"levelo://app?vid=9e0cfd9a-9a12-4d3a-badd-899efb031795"},"vehicle_type_id":"4","last_reported":1705943191,"current_range_meters":0,"station_id":"ce4bh112rcd13ifvqda0","pricing_plan_id":"free"},{"bike_id":"45c0b587-89d5-4a6c-924d-7f7f3e597258","system_id":"levelo_inurba_marseille","lat":43.29099,"lon":5.38564,"is_reserved":false,"is_disabled":false,"rental_uris":{"android":"levelo://app?vid=45c0b587-89d5-4a6c-924d-7f7f3e597258","ios":"levelo://app?vid=45c0b587-89d5-4a6c-924d-7f7f3e597258"},"vehicle_type_id":"4","last_reported":1705943191,"current_range_meters":14000,"station_id":"ce4bgv12rcd13ifvqcp0","pricing_plan_id":"free"},{"bike_id":"eddf696b-1d07-4560-8769-6083921723fa","system_id":"levelo_inurba_marseille","lat":43.30124,"lon":5.39859,"is_reserved":false,"is_disabled":false,"rental_uris":{"android":"levelo://app?vid=eddf696b-1d07-4560-8769-6083921723fa","ios":"levelo://app?vid=eddf696b-1d07-4560-8769-6083921723fa"},"vehicle_type_id":"4","last_reported":1705943191,"current_range_meters":24000,"station_id":"ce4bh0h2rcd13ifvqd40","pricing_plan_id":"free"},{"bike_id":"ccc9cb65-e814-455d-bd7e-c2ad3b212442","system_id":"levelo_inurba_marseille","lat":43.301117,"lon":5.398795,"is_reserved":false,"is_disabled":false,"rental_uris":{"android":"levelo://app?vid=ccc9cb65-e814-455d-bd7e-c2ad3b212442","ios":"levelo://app?vid=ccc9cb65-e814-455d-bd7e-c2ad3b212442"},"vehicle_type_id":"4","last_reported":1705943191,"current_range_meters":24400,"station_id":"ce4bh0h2rcd13ifvqd40","pricing_plan_id":"free"},{"bike_id":"457ba4f6-2fea-49a5-ab75-98c3e4968394","system_id":"levelo_inurba_marseille","lat":43.30142,"lon":5.39886,"is_reserved":false,"is_disabled":false,"rental_uris":{"android":"levelo://app?vid=457ba4f6-2fea-49a5-ab75-98c3e4968394","ios":"levelo://app?vid=457ba4f6-2fea-49a5-ab75-98c3e4968394"},"vehicle_type_id":"4","last_reported":1705943191,"current_range_meters":5200,"station_id":"ce4bh0h2rcd13ifvqd40","pricing_plan_id":"free"},{"bike_id":"390b5267-7dbc-4588-a16b-b0f3e2a704d0","system_id":"levelo_inurba_marseille","lat":43.28727,"lon":5.36078,"is_reserved":false,"is_disabled":false,"rental_uris":{"android":"levelo://app?vid=390b5267-7dbc-4588-a16b-b0f3e2a704d0","ios":"levelo://app?vid=390b5267-7dbc-4588-a16b-b0f3e2a704d0"},"vehicle_type_id":"4","last_reported":1705943191,"current_range_meters":8000,"station_id":"cki0cbj6b192h4jlfktg","pricing_plan_id":"free"},{"bike_id":"82fddc87-5327-4448-9ab7-3f054c6aae4f","system_id":"levelo_inurba_marseille","lat":43.279087,"lon":5.380114,"is_reserved":false,"is_disabled":false,"rental_uris":{"android":"levelo://app?vid=82fddc87-5327-4448-9ab7-3f054c6aae4f","ios":"levelo://app?vid=82fddc87-5327-4448-9ab7-3f054c6aae4f"},"vehicle_type_id":"4","last_reported":1705943191,"current_range_meters":30400,"station_id":"ce4bhf92rcd13ifvqf50","pricing_plan_id":"free"},{"bike_id":"626a6ee5-12cb-4508-a011-8e934dad3299","system_id":"levelo_inurba_marseille","lat":43.28668,"lon":5.36359,"is_reserved":false,"is_disabled":false,"rental_uris":{"android":"levelo://app?vid=626a6ee5-12cb-4508-a011-8e934dad3299","ios":"levelo://app?vid=626a6ee5-12cb-4508-a011-8e934dad3299"},"vehicle_type_id":"4","last_reported":1705943191,"current_range_meters":20400,"station_id":"ce4bhah2rcd13ifvqej0","pricing_plan_id":"free"},{"bike_id":"05498b87-d3e0-4cbb-b61c-ba09a1374097","system_id":"levelo_inurba_marseille","lat":43.298681,"lon":5.397225,"is_reserved":false,"is_disabled":false,"rental_uris":{"android":"levelo://app?vid=05498b87-d3e0-4cbb-b61c-ba09a1374097","ios":"levelo://app?vid=05498b87-d3e0-4cbb-b61c-ba09a1374097"},"vehicle_type_id":"4","last_reported":1705943191,"current_range_meters":8400,"station_id":"ce4bh0h2rcd13ifvqd50","pricing_plan_id":"free"},{"bike_id":"fb517088-dfb8-4382-a384-df6d139af9e7","system_id":"levelo_inurba_marseille","lat":43.298681,"lon":5.397225,"is_reserved":false,"is_disabled":false,"rental_uris":{"android":"levelo://app?vid=fb517088-dfb8-4382-a384-df6d139af9e7","ios":"levelo://app?vid=fb517088-dfb8-4382-a384-df6d139af9e7"},"vehicle_type_id":"4","last_reported":1705943191,"current_range_meters":14800,"station_id":"ce4bh0h2rcd13ifvqd50","pricing_plan_id":"free"},{"bike_id":"6b135830-b53a-44cb-95d8-7947f084ea6a","system_id":"levelo_inurba_marseille","lat":43.286961,"lon":5.373785,"is_reserved":false,"is_disabled":false,"rental_uris":{"android":"levelo://app?vid=6b135830-b53a-44cb-95d8-7947f084ea6a","ios":"levelo://app?vid=6b135830-b53a-44cb-95d8-7947f084ea6a"},"vehicle_type_id":"4","last_reported":1705943191,"current_range_meters":16800,"station_id":"ce4bh3p2rcd13ifvqdq0","pricing_plan_id":"free"},{"bike_id":"56833033-74dd-4fcd-bb23-f8f82db6e97c","system_id":"levelo_inurba_marseille","lat":43.28661,"lon":5.36358,"is_reserved":false,"is_disabled":false,"rental_uris":{"android":"levelo://app?vid=56833033-74dd-4fcd-bb23-f8f82db6e97c","ios":"levelo://app?vid=56833033-74dd-4fcd-bb23-f8f82db6e97c"},"vehicle_type_id":"4","last_reported":1705943191,"current_range_meters":2800,"station_id":"ce4bhah2rcd13ifvqej0","pricing_plan_id":"free"},{"bike_id":"ddcbc7be-5b04-441f-80a5-540c6c146457","system_id":"levelo_inurba_marseille","lat":43.2951,"lon":5.39406,"is_reserved":false,"is_disabled":false,"rental_uris":{"android":"levelo://app?vid=ddcbc7be-5b04-441f-80a5-540c6c146457","ios":"levelo://app?vid=ddcbc7be-5b04-441f-80a5-540c6c146457"},"vehicle_type_id":"4","last_reported":1705943191,"current_range_meters":0,"station_id":"ce4bh292rcd13ifvqdf0","pricing_plan_id":"free"},{"bike_id":"ddba8219-0c3b-4a7d-8198-f3842936cdbd","system_id":"levelo_inurba_marseille","lat":43.290345,"lon":5.38646,"is_reserved":false,"is_disabled":false,"rental_uris":{"android":"levelo://app?vid=ddba8219-0c3b-4a7d-8198-f3842936cdbd","ios":"levelo://app?vid=ddba8219-0c3b-4a7d-8198-f3842936cdbd"},"vehicle_type_id":"4","last_reported":1705943191,"current_range_meters":20000,"station_id":"ce4bh4p2rcd13ifvqe0g","pricing_plan_id":"free"},{"bike_id":"f348d657-3786-4683-afcf-abf6daccebb3","system_id":"levelo_inurba_marseille","lat":43.290345,"lon":5.38646,"is_reserved":false,"is_disabled":false,"rental_uris":{"android":"levelo://app?vid=f348d657-3786-4683-afcf-abf6daccebb3","ios":"levelo://app?vid=f348d657-3786-4683-afcf-abf6daccebb3"},"vehicle_type_id":"4","last_reported":1705943191,"current_range_meters":22800,"station_id":"ce4bh4p2rcd13ifvqe0g","pricing_plan_id":"free"},{"bike_id":"3294e6ff-a10a-42df-82a3-88f0ddfaa79d","system_id":"levelo_inurba_marseille","lat":43.302759,"lon":5.400793,"is_reserved":false,"is_disabled":false,"rental_uris":{"android":"levelo://app?vid=3294e6ff-a10a-42df-82a3-88f0ddfaa79d","ios":"levelo://app?vid=3294e6ff-a10a-42df-82a3-88f0ddfaa79d"},"vehicle_type_id":"4","last_reported":1705943191,"current_range_meters":30800,"station_id":"ce4bgvh2rcd13ifvqcs0","pricing_plan_id":"free"},{"bike_id":"9563852b-aae8-4657-8c20-a22c4ce5e5bf","system_id":"levelo_inurba_marseille","lat":43.302759,"lon":5.400793,"is_reserved":false,"is_disabled":false,"rental_uris":{"android":"levelo://app?vid=9563852b-aae8-4657-8c20-a22c4ce5e5bf","ios":"levelo://app?vid=9563852b-aae8-4657-8c20-a22c4ce5e5bf"},"vehicle_type_id":"4","last_reported":1705943191,"current_range_meters":18400,"station_id":"ce4bgvh2rcd13ifvqcs0","pricing_plan_id":"free"},{"bike_id":"f9bef99a-b263-467f-810e-265722a01f6b","system_id":"levelo_inurba_marseille","lat":43.290345,"lon":5.38646,"is_reserved":false,"is_disabled":false,"rental_uris":{"android":"levelo://app?vid=f9bef99a-b263-467f-810e-265722a01f6b","ios":"levelo://app?vid=f9bef99a-b263-467f-810e-265722a01f6b"},"vehicle_type_id":"4","last_reported":1705943191,"current_range_meters":8000,"station_id":"ce4bh4p2rcd13ifvqe0g","pricing_plan_id":"free"},{"bike_id":"c001d30f-c6fd-47e1-ac58-a551ad4cde00","system_id":"levelo_inurba_marseille","lat":43.290345,"lon":5.38646,"is_reserved":false,"is_disabled":false,"rental_uris":{"android":"levelo://app?vid=c001d30f-c6fd-47e1-ac58-a551ad4cde00","ios":"levelo://app?vid=c001d30f-c6fd-47e1-ac58-a551ad4cde00"},"vehicle_type_id":"4","last_reported":1705943191,"current_range_meters":12400,"station_id":"ce4bh4p2rcd13ifvqe0g","pricing_plan_id":"free"},{"bike_id":"f195e516-3f62-4b27-b052-b9ffa666365d","system_id":"levelo_inurba_marseille","lat":43.302759,"lon":5.400793,"is_reserved":false,"is_disabled":false,"rental_uris":{"android":"levelo://app?vid=f195e516-3f62-4b27-b052-b9ffa666365d","ios":"levelo://app?vid=f195e516-3f62-4b27-b052-b9ffa666365d"},"vehicle_type_id":"4","last_reported":1705943191,"current_range_meters":18000,"station_id":"ce4bgvh2rcd13ifvqcs0","pricing_plan_id":"free"},{"bike_id":"6cbaa73a-5f5e-4107-89bb-de878da68fc1","system_id":"levelo_inurba_marseille","lat":43.286105,"lon":5.370629,"is_reserved":false,"is_disabled":false,"rental_uris":{"android":"levelo://app?vid=6cbaa73a-5f5e-4107-89bb-de878da68fc1","ios":"levelo://app?vid=6cbaa73a-5f5e-4107-89bb-de878da68fc1"},"vehicle_type_id":"4","last_reported":1705943191,"current_range_meters":16400,"station_id":"","pricing_plan_id":"free"},{"bike_id":"ca2906f2-347e-443b-a275-7b8a3b6f2cd9","system_id":"levelo_inurba_marseille","lat":43.316891,"lon":5.404754,"is_reserved":false,"is_disabled":false,"rental_uris":{"android":"levelo://app?vid=ca2906f2-347e-443b-a275-7b8a3b6f2cd9","ios":"levelo://app?vid=ca2906f2-347e-443b-a275-7b8a3b6f2cd9"},"vehicle_type_id":"4","last_reported":1705943191,"current_range_meters":0,"station_id":"ce4bh012rcd13ifvqd00","pricing_plan_id":"free"},{"bike_id":"45b05b50-8acf-439b-8818-b412de1ae451","system_id":"levelo_inurba_marseille","lat":43.291994,"lon":5.392907,"is_reserved":false,"is_disabled":false,"rental_uris":{"android":"levelo://app?vid=45b05b50-8acf-439b-8818-b412de1ae451","ios":"levelo://app?vid=45b05b50-8acf-439b-8818-b412de1ae451"},"vehicle_type_id":"4","last_reported":1705943191,"current_range_meters":23600,"station_id":"ce4bh192rcd13ifvqdd0","pricing_plan_id":"free"},{"bike_id":"65367078-c044-42f9-ab23-764215a452be","system_id":"levelo_inurba_marseille","lat":43.294314,"lon":5.397498,"is_reserved":false,"is_disabled":false,"rental_uris":{"android":"levelo://app?vid=65367078-c044-42f9-ab23-764215a452be","ios":"levelo://app?vid=65367078-c044-42f9-ab23-764215a452be"},"vehicle_type_id":"4","last_reported":1705943191,"current_range_meters":1200,"station_id":"ce4bh3h2rcd13ifvqdo0","pricing_plan_id":"free"},{"bike_id":"02ab618c-7fd0-4538-a4f7-9edab0194437","system_id":"levelo_inurba_marseille","lat":43.291994,"lon":5.392907,"is_reserved":false,"is_disabled":false,"rental_uris":{"android":"levelo://app?vid=02ab618c-7fd0-4538-a4f7-9edab0194437","ios":"levelo://app?vid=02ab618c-7fd0-4538-a4f7-9edab0194437"},"vehicle_type_id":"4","last_reported":1705943191,"current_range_meters":24000,"station_id":"ce4bh192rcd13ifvqdd0","pricing_plan_id":"free"},{"bike_id":"a043cd63-47f8-42a5-8c54-c5e74810ab85","system_id":"levelo_inurba_marseille","lat":43.284538,"lon":5.358657,"is_reserved":false,"is_disabled":false,"rental_uris":{"android":"levelo://app?vid=a043cd63-47f8-42a5-8c54-c5e74810ab85","ios":"levelo://app?vid=a043cd63-47f8-42a5-8c54-c5e74810ab85"},"vehicle_type_id":"4","last_reported":1705943191,"current_range_meters":27200,"station_id":"ce4bhah2rcd13ifvqei0","pricing_plan_id":"free"},{"bike_id":"e2658264-017d-41db-8cc2-95ebe32cf058","system_id":"levelo_inurba_marseille","lat":43.284538,"lon":5.358657,"is_reserved":false,"is_disabled":false,"rental_uris":{"android":"levelo://app?vid=e2658264-017d-41db-8cc2-95ebe32cf058","ios":"levelo://app?vid=e2658264-017d-41db-8cc2-95ebe32cf058"},"vehicle_type_id":"4","last_reported":1705943191,"current_range_meters":3600,"station_id":"ce4bhah2rcd13ifvqei0","pricing_plan_id":"free"},{"bike_id":"63dc61ca-c7d5-49d1-a514-b34c3ee93978","system_id":"levelo_inurba_marseille","lat":43.284538,"lon":5.358657,"is_reserved":false,"is_disabled":false,"rental_uris":{"android":"levelo://app?vid=63dc61ca-c7d5-49d1-a514-b34c3ee93978","ios":"levelo://app?vid=63dc61ca-c7d5-49d1-a514-b34c3ee93978"},"vehicle_type_id":"4","last_reported":1705943191,"current_range_meters":8000,"station_id":"ce4bhah2rcd13ifvqei0","pricing_plan_id":"free"},{"bike_id":"57afba6e-9687-4612-903f-d5c4ad8fce93","system_id":"levelo_inurba_marseille","lat":43.284538,"lon":5.358657,"is_reserved":false,"is_disabled":false,"rental_uris":{"android":"levelo://app?vid=57afba6e-9687-4612-903f-d5c4ad8fce93","ios":"levelo://app?vid=57afba6e-9687-4612-903f-d5c4ad8fce93"},"vehicle_type_id":"4","last_reported":1705943191,"current_range_meters":2400,"station_id":"ce4bhah2rcd13ifvqei0","pricing_plan_id":"free"},{"bike_id":"eead6b71-1e39-4ff6-81c1-82d270f79530","system_id":"levelo_inurba_marseille","lat":43.294314,"lon":5.397498,"is_reserved":false,"is_disabled":false,"rental_uris":{"android":"levelo://app?vid=eead6b71-1e39-4ff6-81c1-82d270f79530","ios":"levelo://app?vid=eead6b71-1e39-4ff6-81c1-82d270f79530"},"vehicle_type_id":"4","last_reported":1705943191,"current_range_meters":20000,"station_id":"ce4bh3h2rcd13ifvqdo0","pricing_plan_id":"free"},{"bike_id":"f302bd66-8388-4322-a877-7339b71cd4d5","system_id":"levelo_inurba_marseille","lat":43.285848,"lon":5.350787,"is_reserved":false,"is_disabled":false,"rental_uris":{"android":"levelo://app?vid=f302bd66-8388-4322-a877-7339b71cd4d5","ios":"levelo://app?vid=f302bd66-8388-4322-a877-7339b71cd4d5"},"vehicle_type_id":"4","last_reported":1705943191,"current_range_meters":19600,"station_id":"ce4bhch2rcd13ifvqeug","pricing_plan_id":"free"},{"bike_id":"a4f945ed-d986-4842-be9a-e90e5feebf0b","system_id":"levelo_inurba_marseille","lat":43.283998,"lon":5.375062,"is_reserved":false,"is_disabled":false,"rental_uris":{"android":"levelo://app?vid=a4f945ed-d986-4842-be9a-e90e5feebf0b","ios":"levelo://app?vid=a4f945ed-d986-4842-be9a-e90e5feebf0b"},"vehicle_type_id":"4","last_reported":1705943191,"current_range_meters":0,"station_id":"ce4bh412rcd13ifvqds0","pricing_plan_id":"free"},{"bike_id":"5bb657e0-1dee-4d3a-8e14-73caabb9e9cc","system_id":"levelo_inurba_marseille","lat":43.28415,"lon":5.37539,"is_reserved":false,"is_disabled":false,"rental_uris":{"android":"levelo://app?vid=5bb657e0-1dee-4d3a-8e14-73caabb9e9cc","ios":"levelo://app?vid=5bb657e0-1dee-4d3a-8e14-73caabb9e9cc"},"vehicle_type_id":"4","last_reported":1705943191,"current_range_meters":24400,"station_id":"ce4bh412rcd13ifvqds0","pricing_plan_id":"free"},{"bike_id":"da313e1f-5e07-4b82-a514-9fd4853a1544","system_id":"levelo_inurba_marseille","lat":43.295713,"lon":5.399639,"is_reserved":false,"is_disabled":false,"rental_uris":{"android":"levelo://app?vid=da313e1f-5e07-4b82-a514-9fd4853a1544","ios":"levelo://app?vid=da313e1f-5e07-4b82-a514-9fd4853a1544"},"vehicle_type_id":"4","last_reported":1705943191,"current_range_meters":8400,"station_id":"ce4bh312rcd13ifvqdj0","pricing_plan_id":"free"},{"bike_id":"08b43834-7fba-4153-a672-323aa5726db5","system_id":"levelo_inurba_marseille","lat":43.29575,"lon":5.39977,"is_reserved":false,"is_disabled":false,"rental_uris":{"android":"levelo://app?vid=08b43834-7fba-4153-a672-323aa5726db5","ios":"levelo://app?vid=08b43834-7fba-4153-a672-323aa5726db5"},"vehicle_type_id":"4","last_reported":1705943191,"current_range_meters":21600,"station_id":"ce4bh312rcd13ifvqdj0","pricing_plan_id":"free"},{"bike_id":"6f4f0c65-7d9b-4bb1-9885-4bffc81de0a0","system_id":"levelo_inurba_marseille","lat":43.295713,"lon":5.399639,"is_reserved":false,"is_disabled":false,"rental_uris":{"android":"levelo://app?vid=6f4f0c65-7d9b-4bb1-9885-4bffc81de0a0","ios":"levelo://app?vid=6f4f0c65-7d9b-4bb1-9885-4bffc81de0a0"},"vehicle_type_id":"4","last_reported":1705943191,"current_range_meters":22400,"station_id":"ce4bh312rcd13ifvqdj0","pricing_plan_id":"free"},{"bike_id":"a62c7f06-8225-4737-bb93-942c9c93fa1e","system_id":"levelo_inurba_marseille","lat":43.295713,"lon":5.399639,"is_reserved":false,"is_disabled":false,"rental_uris":{"android":"levelo://app?vid=a62c7f06-8225-4737-bb93-942c9c93fa1e","ios":"levelo://app?vid=a62c7f06-8225-4737-bb93-942c9c93fa1e"},"vehicle_type_id":"4","last_reported":1705943191,"current_range_meters":18000,"station_id":"ce4bh312rcd13ifvqdj0","pricing_plan_id":"free"},{"bike_id":"f7c6e9c8-df77-4677-9555-03d4305c5338","system_id":"levelo_inurba_marseille","lat":43.286595,"lon":5.386795,"is_reserved":false,"is_disabled":false,"rental_uris":{"android":"levelo://app?vid=f7c6e9c8-df77-4677-9555-03d4305c5338","ios":"levelo://app?vid=f7c6e9c8-df77-4677-9555-03d4305c5338"},"vehicle_type_id":"4","last_reported":1705943191,"current_range_meters":19200,"station_id":"ce4bh492rcd13ifvqdug","pricing_plan_id":"free"},{"bike_id":"08e5e70c-5968-40af-aa39-f9a687d6ecab","system_id":"levelo_inurba_marseille","lat":43.286595,"lon":5.386795,"is_reserved":false,"is_disabled":false,"rental_uris":{"android":"levelo://app?vid=08e5e70c-5968-40af-aa39-f9a687d6ecab","ios":"levelo://app?vid=08e5e70c-5968-40af-aa39-f9a687d6ecab"},"vehicle_type_id":"4","last_reported":1705943191,"current_range_meters":16000,"station_id":"ce4bh492rcd13ifvqdug","pricing_plan_id":"free"},{"bike_id":"a89aec34-1232-4841-b5e9-7f19558c845d","system_id":"levelo_inurba_marseille","lat":43.33717,"lon":5.391857,"is_reserved":false,"is_disabled":false,"rental_uris":{"android":"levelo://app?vid=a89aec34-1232-4841-b5e9-7f19558c845d","ios":"levelo://app?vid=a89aec34-1232-4841-b5e9-7f19558c845d"},"vehicle_type_id":"4","last_reported":1705943191,"current_range_meters":30400,"station_id":"ce4bhr92rcd13ifvqhsg","pricing_plan_id":"free"},{"bike_id":"4125c1b7-aad9-4bf6-913b-82f9bf7ef6c0","system_id":"levelo_inurba_marseille","lat":43.323464,"lon":5.406297,"is_reserved":false,"is_disabled":false,"rental_uris":{"android":"levelo://app?vid=4125c1b7-aad9-4bf6-913b-82f9bf7ef6c0","ios":"levelo://app?vid=4125c1b7-aad9-4bf6-913b-82f9bf7ef6c0"},"vehicle_type_id":"4","last_reported":1705943191,"current_range_meters":28400,"station_id":"ce4bhq92rcd13ifvqhjg","pricing_plan_id":"free"},{"bike_id":"7b925bcd-cad8-48e5-815b-902d0d3ca5c4","system_id":"levelo_inurba_marseille","lat":43.323464,"lon":5.406297,"is_reserved":false,"is_disabled":false,"rental_uris":{"android":"levelo://app?vid=7b925bcd-cad8-48e5-815b-902d0d3ca5c4","ios":"levelo://app?vid=7b925bcd-cad8-48e5-815b-902d0d3ca5c4"},"vehicle_type_id":"4","last_reported":1705943191,"current_range_meters":24800,"station_id":"ce4bhq92rcd13ifvqhjg","pricing_plan_id":"free"},{"bike_id":"8d63ca84-2cbd-453e-84ae-d4475d3142b4","system_id":"levelo_inurba_marseille","lat":43.284793,"lon":5.384113,"is_reserved":false,"is_disabled":false,"rental_uris":{"android":"levelo://app?vid=8d63ca84-2cbd-453e-84ae-d4475d3142b4","ios":"levelo://app?vid=8d63ca84-2cbd-453e-84ae-d4475d3142b4"},"vehicle_type_id":"4","last_reported":1705943191,"current_range_meters":24400,"station_id":"ce4bh512rcd13ifvqe3g","pricing_plan_id":"free"},{"bike_id":"bcc02610-407b-47f4-8695-1d2af128590e","system_id":"levelo_inurba_marseille","lat":43.297946,"lon":5.404063,"is_reserved":false,"is_disabled":false,"rental_uris":{"android":"levelo://app?vid=bcc02610-407b-47f4-8695-1d2af128590e","ios":"levelo://app?vid=bcc02610-407b-47f4-8695-1d2af128590e"},"vehicle_type_id":"4","last_reported":1705943191,"current_range_meters":12800,"station_id":"ce4bh112rcd13ifvqd90","pricing_plan_id":"free"},{"bike_id":"977180bf-a5e6-4cff-9e4f-bfde6e76f288","system_id":"levelo_inurba_marseille","lat":43.288497,"lon":5.393089,"is_reserved":false,"is_disabled":false,"rental_uris":{"android":"levelo://app?vid=977180bf-a5e6-4cff-9e4f-bfde6e76f288","ios":"levelo://app?vid=977180bf-a5e6-4cff-9e4f-bfde6e76f288"},"vehicle_type_id":"4","last_reported":1705943191,"current_range_meters":26000,"station_id":"ce4bh2p2rcd13ifvqdi0","pricing_plan_id":"free"},{"bike_id":"0c75fa2d-3cf9-4d5f-9ac9-0f6e227260c1","system_id":"levelo_inurba_marseille","lat":43.288497,"lon":5.393089,"is_reserved":false,"is_disabled":false,"rental_uris":{"android":"levelo://app?vid=0c75fa2d-3cf9-4d5f-9ac9-0f6e227260c1","ios":"levelo://app?vid=0c75fa2d-3cf9-4d5f-9ac9-0f6e227260c1"},"vehicle_type_id":"4","last_reported":1705943191,"current_range_meters":20400,"station_id":"ce4bh2p2rcd13ifvqdi0","pricing_plan_id":"free"},{"bike_id":"73314dcd-5cff-465e-b25c-48c9620cbe04","system_id":"levelo_inurba_marseille","lat":43.288497,"lon":5.393089,"is_reserved":false,"is_disabled":false,"rental_uris":{"android":"levelo://app?vid=73314dcd-5cff-465e-b25c-48c9620cbe04","ios":"levelo://app?vid=73314dcd-5cff-465e-b25c-48c9620cbe04"},"vehicle_type_id":"4","last_reported":1705943191,"current_range_meters":13200,"station_id":"ce4bh2p2rcd13ifvqdi0","pricing_plan_id":"free"},{"bike_id":"eef3cf46-6a47-4efe-a706-b6654d2f564e","system_id":"levelo_inurba_marseille","lat":43.284275,"lon":5.349875,"is_reserved":false,"is_disabled":false,"rental_uris":{"android":"levelo://app?vid=eef3cf46-6a47-4efe-a706-b6654d2f564e","ios":"levelo://app?vid=eef3cf46-6a47-4efe-a706-b6654d2f564e"},"vehicle_type_id":"4","last_reported":1705943191,"current_range_meters":31200,"station_id":"ce4bhbh2rcd13ifvqepg","pricing_plan_id":"free"},{"bike_id":"38940587-42c4-4461-a103-edcbf3609a81","system_id":"levelo_inurba_marseille","lat":43.284219,"lon":5.3497,"is_reserved":false,"is_disabled":false,"rental_uris":{"android":"levelo://app?vid=38940587-42c4-4461-a103-edcbf3609a81","ios":"levelo://app?vid=38940587-42c4-4461-a103-edcbf3609a81"},"vehicle_type_id":"4","last_reported":1705943191,"current_range_meters":26000,"station_id":"ce4bhbh2rcd13ifvqepg","pricing_plan_id":"free"},{"bike_id":"c3985749-9d64-4438-8415-430d1fe05f59","system_id":"levelo_inurba_marseille","lat":43.284219,"lon":5.3497,"is_reserved":false,"is_disabled":false,"rental_uris":{"android":"levelo://app?vid=c3985749-9d64-4438-8415-430d1fe05f59","ios":"levelo://app?vid=c3985749-9d64-4438-8415-430d1fe05f59"},"vehicle_type_id":"4","last_reported":1705943191,"current_range_meters":19600,"station_id":"ce4bhbh2rcd13ifvqepg","pricing_plan_id":"free"},{"bike_id":"b41bcd76-cb12-4b33-95cd-9444d1e23578","system_id":"levelo_inurba_marseille","lat":43.293556,"lon":5.401561,"is_reserved":false,"is_disabled":false,"rental_uris":{"android":"levelo://app?vid=b41bcd76-cb12-4b33-95cd-9444d1e23578","ios":"levelo://app?vid=b41bcd76-cb12-4b33-95cd-9444d1e23578"},"vehicle_type_id":"4","last_reported":1705943191,"current_range_meters":28400,"station_id":"","pricing_plan_id":"free"},{"bike_id":"d0b7faaa-da0b-4d17-9470-be44a7544205","system_id":"levelo_inurba_marseille","lat":43.289363,"lon":5.396322,"is_reserved":false,"is_disabled":false,"rental_uris":{"android":"levelo://app?vid=d0b7faaa-da0b-4d17-9470-be44a7544205","ios":"levelo://app?vid=d0b7faaa-da0b-4d17-9470-be44a7544205"},"vehicle_type_id":"4","last_reported":1705943191,"current_range_meters":18800,"station_id":"ce4bh3h2rcd13ifvqdn0","pricing_plan_id":"free"},{"bike_id":"4519b768-46da-4924-b764-a4896de9e400","system_id":"levelo_inurba_marseille","lat":43.282744,"lon":5.350533,"is_reserved":false,"is_disabled":false,"rental_uris":{"android":"levelo://app?vid=4519b768-46da-4924-b764-a4896de9e400","ios":"levelo://app?vid=4519b768-46da-4924-b764-a4896de9e400"},"vehicle_type_id":"4","last_reported":1705943191,"current_range_meters":12800,"station_id":"ce4bhbp2rcd13ifvqerg","pricing_plan_id":"free"},{"bike_id":"728a1aa9-24c4-4ecd-95ee-aa3d5d702de1","system_id":"levelo_inurba_marseille","lat":43.282754,"lon":5.350519,"is_reserved":false,"is_disabled":false,"rental_uris":{"android":"levelo://app?vid=728a1aa9-24c4-4ecd-95ee-aa3d5d702de1","ios":"levelo://app?vid=728a1aa9-24c4-4ecd-95ee-aa3d5d702de1"},"vehicle_type_id":"4","last_reported":1705943191,"current_range_meters":12800,"station_id":"ce4bhbp2rcd13ifvqerg","pricing_plan_id":"free"},{"bike_id":"ea778c39-d204-4495-a0be-f0e277f85786","system_id":"levelo_inurba_marseille","lat":43.280382,"lon":5.369291,"is_reserved":false,"is_disabled":false,"rental_uris":{"android":"levelo://app?vid=ea778c39-d204-4495-a0be-f0e277f85786","ios":"levelo://app?vid=ea778c39-d204-4495-a0be-f0e277f85786"},"vehicle_type_id":"4","last_reported":1705943191,"current_range_meters":20400,"station_id":"ce4bha12rcd13ifvqef0","pricing_plan_id":"free"},{"bike_id":"ae26afe8-570c-4178-8c75-6423dd21b475","system_id":"levelo_inurba_marseille","lat":43.282754,"lon":5.350519,"is_reserved":false,"is_disabled":false,"rental_uris":{"android":"levelo://app?vid=ae26afe8-570c-4178-8c75-6423dd21b475","ios":"levelo://app?vid=ae26afe8-570c-4178-8c75-6423dd21b475"},"vehicle_type_id":"4","last_reported":1705943191,"current_range_meters":12000,"station_id":"ce4bhbp2rcd13ifvqerg","pricing_plan_id":"free"},{"bike_id":"bfdb58bf-edec-49f9-8189-5d806f50f61d","system_id":"levelo_inurba_marseille","lat":43.28039,"lon":5.369297,"is_reserved":false,"is_disabled":false,"rental_uris":{"android":"levelo://app?vid=bfdb58bf-edec-49f9-8189-5d806f50f61d","ios":"levelo://app?vid=bfdb58bf-edec-49f9-8189-5d806f50f61d"},"vehicle_type_id":"4","last_reported":1705943191,"current_range_meters":1200,"station_id":"ce4bha12rcd13ifvqef0","pricing_plan_id":"free"},{"bike_id":"1e5785e3-2e7e-4741-9b5a-05bb1ab88a04","system_id":"levelo_inurba_marseille","lat":43.296263,"lon":5.40601,"is_reserved":false,"is_disabled":false,"rental_uris":{"android":"levelo://app?vid=1e5785e3-2e7e-4741-9b5a-05bb1ab88a04","ios":"levelo://app?vid=1e5785e3-2e7e-4741-9b5a-05bb1ab88a04"},"vehicle_type_id":"4","last_reported":1705943191,"current_range_meters":3200,"station_id":"ce4bh0h2rcd13ifvqd60","pricing_plan_id":"free"},{"bike_id":"3e1c0397-6acf-4d01-ad9a-1e362fb15bfc","system_id":"levelo_inurba_marseille","lat":43.296263,"lon":5.40601,"is_reserved":false,"is_disabled":false,"rental_uris":{"android":"levelo://app?vid=3e1c0397-6acf-4d01-ad9a-1e362fb15bfc","ios":"levelo://app?vid=3e1c0397-6acf-4d01-ad9a-1e362fb15bfc"},"vehicle_type_id":"4","last_reported":1705943191,"current_range_meters":400,"station_id":"ce4bh0h2rcd13ifvqd60","pricing_plan_id":"free"},{"bike_id":"c5c28b9c-2a92-459e-868f-881392dc374d","system_id":"levelo_inurba_marseille","lat":43.281044,"lon":5.378308,"is_reserved":false,"is_disabled":false,"rental_uris":{"android":"levelo://app?vid=c5c28b9c-2a92-459e-868f-881392dc374d","ios":"levelo://app?vid=c5c28b9c-2a92-459e-868f-881392dc374d"},"vehicle_type_id":"4","last_reported":1705943191,"current_range_meters":16800,"station_id":"ce4bha12rcd13ifvqee0","pricing_plan_id":"free"},{"bike_id":"039a3f5d-f34d-4a6d-b139-17965d9d561b","system_id":"levelo_inurba_marseille","lat":43.296263,"lon":5.40601,"is_reserved":false,"is_disabled":false,"rental_uris":{"android":"levelo://app?vid=039a3f5d-f34d-4a6d-b139-17965d9d561b","ios":"levelo://app?vid=039a3f5d-f34d-4a6d-b139-17965d9d561b"},"vehicle_type_id":"4","last_reported":1705943191,"current_range_meters":26400,"station_id":"ce4bh0h2rcd13ifvqd60","pricing_plan_id":"free"},{"bike_id":"1670034e-de60-41f6-9456-b91e53a3c5c1","system_id":"levelo_inurba_marseille","lat":43.296263,"lon":5.40601,"is_reserved":false,"is_disabled":false,"rental_uris":{"android":"levelo://app?vid=1670034e-de60-41f6-9456-b91e53a3c5c1","ios":"levelo://app?vid=1670034e-de60-41f6-9456-b91e53a3c5c1"},"vehicle_type_id":"4","last_reported":1705943191,"current_range_meters":21600,"station_id":"ce4bh0h2rcd13ifvqd60","pricing_plan_id":"free"},