{"last_updated":1738962442,"ttl":60,"version":"2.2","data":{"bikes":[{"bike_id":"b8740638-8b15-4e39-9dd8-3d88c6eff33f","system_id":"levelo_inurba_marseille","lat":43.31242,"lon":5.36834,"is_reserved":false,"is_disabled":true,"rental_uris":{"android":"levelo://app?vid=b8740638-8b15-4e39-9dd8-3d88c6eff33f","ios":"levelo://app?vid=b8740638-8b15-4e39-9dd8-3d88c6eff33f"},"vehicle_type_id":"4","last_reported":1738962442,"current_range_meters":38800,"station_id":"ce4bgl92rcd13ifvqbq0","pricing_plan_id":"cebpf4jnsgd1na2vs0mg"},{"bike_id":"6c10f0d7-4244-4362-8fe1-6ba629525735","system_id":"levelo_inurba_marseille","lat":43.29032,"lon":5.38645,"is_reserved":false,"is_disabled":false,"rental_uris":{"android":"levelo://app?vid=6c10f0d7-4244-4362-8fe1-6ba629525735","ios":"levelo://app?vid=6c10f0d7-4244-4362-8fe1-6ba629525735"},"vehicle_type_id":"4","last_reported":1738962442,"current_range_meters":32800,"station_id":"ce4bh4p2rcd13ifvqe0g","pricing_plan_id":"cebpf4jnsgd1na2vs0mg"},{"bike_id":"ccdc6efe-ebdd-4ab0-9036-6ff3200f0168","system_id":"levelo_inurba_marseille","lat":43.27181,"lon":5.41003,"is_reserved":false,"is_disabled":true,"rental_uris":{"android":"levelo://app?vid=ccdc6efe-ebdd-4ab0-9036-6ff3200f0168","ios":"levelo://app?vid=ccdc6efe-ebdd-4ab0-9036-6ff3200f0168"},"vehicle_type_id":"4","last_reported":1738962442,"current_range_meters":29600,"station_id":"ce4bhl12rcd13ifvqgf0","pricing_plan_id":"cebpf4jnsgd1na2vs0mg"},{"bike_id":"feefdd7c-f4a3-48e3-8633-0e019ff3b8e3","system_id":"levelo_inurba_marseille","lat":43.29199,"lon":5.35814,"is_reserved":false,"is_disabled":true,"rental_uris":{"android":"levelo://app?vid=feefdd7c-f4a3-48e3-8633-0e019ff3b8e3","ios":"levelo://app?vid=feefdd7c-f4a3-48e3-8633-0e019ff3b8e3"},"vehicle_type_id":"4","last_reported":1738962442,"current_range_meters":30400,"station_id":"ce4bhb12rcd13ifvqel0","pricing_plan_id":"cebpf4jnsgd1na2vs0mg"},{"bike_id":"792cbf12-11b5-4ffd-a835-025b717a6a73","system_id":"levelo_inurba_marseille","lat":43.31712,"lon":5.37764,"is_reserved":false,"is_disabled":false,"rental_uris":{"android":"levelo://app?vid=792cbf12-11b5-4ffd-a835-025b717a6a73","ios":"levelo://app?vid=792cbf12-11b5-4ffd-a835-025b717a6a73"},"vehicle_type_id":"4","last_reported":1738962442,"current_range_meters":16000,"station_id":"ce4bgth2rcd13ifvqch0","pricing_plan_id":"cebpf4jnsgd1na2vs0mg"},{"bike_id":"cfa7f1cc-5150-48ed-843c-f6960ddad1e1","system_id":"levelo_inurba_marseille","lat":43.26492,"lon":5.39561,"is_reserved":false,"is_disabled":true,"rental_uris":{"android":"levelo://app?vid=cfa7f1cc-5150-48ed-843c-f6960ddad1e1","ios":"levelo://app?vid=cfa7f1cc-5150-48ed-843c-f6960ddad1e1"},"vehicle_type_id":"4","last_reported":1738962442,"current_range_meters":18000,"station_id":"ce4bhi12rcd13ifvqfq0","pricing_plan_id":"cebpf4jnsgd1na2vs0mg"},{"bike_id":"163760ce-46b7-435d-9416-c8b90e60850d","system_id":"levelo_inurba_marseille","lat":43.32649,"lon":5.42823,"is_reserved":false,"is_disabled":false,"rental_uris":{"android":"levelo://app?vid=163760ce-46b7-435d-9416-c8b90e60850d","ios":"levelo://app?vid=163760ce-46b7-435d-9416-c8b90e60850d"},"vehicle_type_id":"4","last_reported":1738962442,"current_range_meters":28800,"station_id":"","pricing_plan_id":"cebpf4jnsgd1na2vs0mg"},{"bike_id":"b641a80c-3f4b-4e60-b268-665d161d8ead","system_id":"levelo_inurba_marseille","lat":43.28702,"lon":5.3739,"is_reserved":false,"is_disabled":false,"rental_uris":{"android":"levelo://app?vid=b641a80c-3f4b-4e60-b268-665d161d8ead","ios":"levelo://app?vid=b641a80c-3f4b-4e60-b268-665d161d8ead"},"vehicle_type_id":"4","last_reported":1738962442,"current_range_meters":15200,"station_id":"ce4bh3p2rcd13ifvqdq0","pricing_plan_id":"cebpf4jnsgd1na2vs0mg"},{"bike_id":"0b370460-2bdc-4346-a1f4-7aeb9dd2a707","system_id":"levelo_inurba_marseille","lat":43.28632,"lon":5.39138,"is_reserved":false,"is_disabled":true,"rental_uris":{"android":"levelo://app?vid=0b370460-2bdc-4346-a1f4-7aeb9dd2a707","ios":"levelo://app?vid=0b370460-2bdc-4346-a1f4-7aeb9dd2a707"},"vehicle_type_id":"4","last_reported":1738962442,"current_range_meters":13600,"station_id":"","pricing_plan_id":"cebpf4jnsgd1na2vs0mg"},{"bike_id":"7d76beb3-3577-4e70-b961-5c1ce14ac0c3","system_id":"levelo_inurba_marseille","lat":43.27901,"lon":5.38006,"is_reserved":false,"is_disabled":false,"rental_uris":{"android":"levelo://app?vid=7d76beb3-3577-4e70-b961-5c1ce14ac0c3","ios":"levelo://app?vid=7d76beb3-3577-4e70-b961-5c1ce14ac0c3"},"vehicle_type_id":"4","last_reported":1738962442,"current_range_meters":39200,"station_id":"ce4bhf92rcd13ifvqf50","pricing_plan_id":"cebpf4jnsgd1na2vs0mg"},{"bike_id":"952ab6ee-c71f-431a-a116-28c771dc3a24","system_id":"levelo_inurba_marseille","lat":43.27929,"lon":5.41024,"is_reserved":false,"is_disabled":true,"rental_uris":{"android":"levelo://app?vid=952ab6ee-c71f-431a-a116-28c771dc3a24","ios":"levelo://app?vid=952ab6ee-c71f-431a-a116-28c771dc3a24"},"vehicle_type_id":"4","last_reported":1738962442,"current_range_meters":5600,"station_id":"ce4bhnp2rcd13ifvqh0g","pricing_plan_id":"cebpf4jnsgd1na2vs0mg"},{"bike_id":"5a3605f7-1779-41b6-91df-34117c2e9f2a","system_id":"levelo_inurba_marseille","lat":43.30454,"lon":5.38896,"is_reserved":false,"is_disabled":false,"rental_uris":{"android":"levelo://app?vid=5a3605f7-1779-41b6-91df-34117c2e9f2a","ios":"levelo://app?vid=5a3605f7-1779-41b6-91df-34117c2e9f2a"},"vehicle_type_id":"4","last_reported":1738962442,"current_range_meters":39200,"station_id":"ce4bgk12rcd13ifvqbi0","pricing_plan_id":"cebpf4jnsgd1na2vs0mg"},{"bike_id":"bc081c55-3595-4596-902f-6abff0d6318d","system_id":"levelo_inurba_marseille","lat":43.29021,"lon":5.35608,"is_reserved":false,"is_disabled":false,"rental_uris":{"android":"levelo://app?vid=bc081c55-3595-4596-902f-6abff0d6318d","ios":"levelo://app?vid=bc081c55-3595-4596-902f-6abff0d6318d"},"vehicle_type_id":"4","last_reported":1738962442,"current_range_meters":38400,"station_id":"ce4bhb92rcd13ifvqen0","pricing_plan_id":"cebpf4jnsgd1na2vs0mg"},{"bike_id":"74e8cc55-6cc4-4cef-ba21-5ab9abf5f0a2","system_id":"levelo_inurba_marseille","lat":43.30152,"lon":5.39867,"is_reserved":false,"is_disabled":false,"rental_uris":{"android":"levelo://app?vid=74e8cc55-6cc4-4cef-ba21-5ab9abf5f0a2","ios":"levelo://app?vid=74e8cc55-6cc4-4cef-ba21-5ab9abf5f0a2"},"vehicle_type_id":"4","last_reported":1738962442,"current_range_meters":39200,"station_id":"ce4bh0h2rcd13ifvqd40","pricing_plan_id":"cebpf4jnsgd1na2vs0mg"},{"bike_id":"be1fb89d-7e92-4fb5-b7ef-e6505239647d","system_id":"levelo_inurba_marseille","lat":43.29615,"lon":5.37711,"is_reserved":false,"is_disabled":false,"rental_uris":{"android":"levelo://app?vid=be1fb89d-7e92-4fb5-b7ef-e6505239647d","ios":"levelo://app?vid=be1fb89d-7e92-4fb5-b7ef-e6505239647d"},"vehicle_type_id":"4","last_reported":1738962442,"current_range_meters":36400,"station_id":"ce4bgi92rcd13ifvqb90","pricing_plan_id":"cebpf4jnsgd1na2vs0mg"},{"bike_id":"453fab4d-1bca-43e9-a0d8-63916457cfdb","system_id":"levelo_inurba_marseille","lat":43.29879,"lon":5.39731,"is_reserved":false,"is_disabled":false,"rental_uris":{"android":"levelo://app?vid=453fab4d-1bca-43e9-a0d8-63916457cfdb","ios":"levelo://app?vid=453fab4d-1bca-43e9-a0d8-63916457cfdb"},"vehicle_type_id":"4","last_reported":1738962442,"current_range_meters":20400,"station_id":"ce4bh0h2rcd13ifvqd50","pricing_plan_id":"cebpf4jnsgd1na2vs0mg"},{"bike_id":"0e3e205c-def0-409b-93d1-6bd9975a7ce8","system_id":"levelo_inurba_marseille","lat":43.33795,"lon":5.37429,"is_reserved":false,"is_disabled":false,"rental_uris":{"android":"levelo://app?vid=0e3e205c-def0-409b-93d1-6bd9975a7ce8","ios":"levelo://app?vid=0e3e205c-def0-409b-93d1-6bd9975a7ce8"},"vehicle_type_id":"4","last_reported":1738962442,"current_range_meters":4800,"station_id":"","pricing_plan_id":"cebpf4jnsgd1na2vs0mg"},{"bike_id":"1a04bf90-1508-4077-924d-e62c674b15bc","system_id":"levelo_inurba_marseille","lat":43.26558,"lon":5.37305,"is_reserved":false,"is_disabled":false,"rental_uris":{"android":"levelo://app?vid=1a04bf90-1508-4077-924d-e62c674b15bc","ios":"levelo://app?vid=1a04bf90-1508-4077-924d-e62c674b15bc"},"vehicle_type_id":"4","last_reported":1738962442,"current_range_meters":37600,"station_id":"ce4bhg12rcd13ifvqf70","pricing_plan_id":"cebpf4jnsgd1na2vs0mg"},{"bike_id":"6a3bf5dc-6406-4053-977a-019d33b4193c","system_id":"levelo_inurba_marseille","lat":43.28404,"lon":5.37523,"is_reserved":false,"is_disabled":true,"rental_uris":{"android":"levelo://app?vid=6a3bf5dc-6406-4053-977a-019d33b4193c","ios":"levelo://app?vid=6a3bf5dc-6406-4053-977a-019d33b4193c"},"vehicle_type_id":"4","last_reported":1738962442,"current_range_meters":30800,"station_id":"ce4bh412rcd13ifvqds0","pricing_plan_id":"cebpf4jnsgd1na2vs0mg"},{"bike_id":"33d47cf8-88af-411e-ad9c-7ef073cca7d4","system_id":"levelo_inurba_marseille","lat":43.28372,"lon":5.3863,"is_reserved":false,"is_disabled":false,"rental_uris":{"android":"levelo://app?vid=33d47cf8-88af-411e-ad9c-7ef073cca7d4","ios":"levelo://app?vid=33d47cf8-88af-411e-ad9c-7ef073cca7d4"},"vehicle_type_id":"4","last_reported":1738962442,"current_range_meters":38800,"station_id":"ce4bh492rcd13ifvqdvg","pricing_plan_id":"cebpf4jnsgd1na2vs0mg"},{"bike_id":"25c5747b-1e4d-4dcf-80e8-a27167db8296","system_id":"levelo_inurba_marseille","lat":43.290362,"lon":5.399589,"is_reserved":false,"is_disabled":false,"rental_uris":{"android":"levelo://app?vid=25c5747b-1e4d-4dcf-80e8-a27167db8296","ios":"levelo://app?vid=25c5747b-1e4d-4dcf-80e8-a27167db8296"},"vehicle_type_id":"4","last_reported":1738962442,"current_range_meters":19200,"station_id":"ce4bh392rcd13ifvqdm0","pricing_plan_id":"cebpf4jnsgd1na2vs0mg"},{"bike_id":"af3b94d5-ac48-4a4f-9581-92e0687b680b","system_id":"levelo_inurba_marseille","lat":43.28692,"lon":5.37381,"is_reserved":false,"is_disabled":false,"rental_uris":{"android":"levelo://app?vid=af3b94d5-ac48-4a4f-9581-92e0687b680b","ios":"levelo://app?vid=af3b94d5-ac48-4a4f-9581-92e0687b680b"},"vehicle_type_id":"4","last_reported":1738962442,"current_range_meters":21600,"station_id":"ce4bh3p2rcd13ifvqdq0","pricing_plan_id":"cebpf4jnsgd1na2vs0mg"},{"bike_id":"26059c64-3d6c-490c-a476-c8977a9b2259","system_id":"levelo_inurba_marseille","lat":43.29279,"lon":5.38748,"is_reserved":false,"is_disabled":false,"rental_uris":{"android":"levelo://app?vid=26059c64-3d6c-490c-a476-c8977a9b2259","ios":"levelo://app?vid=26059c64-3d6c-490c-a476-c8977a9b2259"},"vehicle_type_id":"4","last_reported":1738962442,"current_range_meters":24800,"station_id":"","pricing_plan_id":"cebpf4jnsgd1na2vs0mg"},{"bike_id":"06bd393d-f5d8-4be6-8764-159361d0b0da","system_id":"levelo_inurba_marseille","lat":43.31701,"lon":5.3785,"is_reserved":false,"is_disabled":false,"rental_uris":{"android":"levelo://app?vid=06bd393d-f5d8-4be6-8764-159361d0b0da","ios":"levelo://app?vid=06bd393d-f5d8-4be6-8764-159361d0b0da"},"vehicle_type_id":"4","last_reported":1738962442,"current_range_meters":24400,"station_id":"ce4bgth2rcd13ifvqch0","pricing_plan_id":"cebpf4jnsgd1na2vs0mg"},{"bike_id":"6411bc62-420d-4cda-9405-5ec45c5030d4","system_id":"levelo_inurba_marseille","lat":43.26194,"lon":5.3745,"is_reserved":false,"is_disabled":false,"rental_uris":{"android":"levelo://app?vid=6411bc62-420d-4cda-9405-5ec45c5030d4","ios":"levelo://app?vid=6411bc62-420d-4cda-9405-5ec45c5030d4"},"vehicle_type_id":"4","last_reported":1738962442,"current_range_meters":34800,"station_id":"ce4bhgp2rcd13ifvqfc0","pricing_plan_id":"cebpf4jnsgd1na2vs0mg"},{"bike_id":"5deb610f-f630-4c7c-be42-0c35c32fca42","system_id":"levelo_inurba_marseille","lat":43.269393,"lon":5.402569,"is_reserved":false,"is_disabled":false,"rental_uris":{"android":"levelo://app?vid=5deb610f-f630-4c7c-be42-0c35c32fca42","ios":"levelo://app?vid=5deb610f-f630-4c7c-be42-0c35c32fca42"},"vehicle_type_id":"4","last_reported":1738962442,"current_range_meters":27200,"station_id":"cjm6bp8fraef2m0cb0m0","pricing_plan_id":"cebpf4jnsgd1na2vs0mg"},{"bike_id":"7cd494b8-458a-457c-ab37-823e425add05","system_id":"levelo_inurba_marseille","lat":43.250882,"lon":5.39519,"is_reserved":false,"is_disabled":false,"rental_uris":{"android":"levelo://app?vid=7cd494b8-458a-457c-ab37-823e425add05","ios":"levelo://app?vid=7cd494b8-458a-457c-ab37-823e425add05"},"vehicle_type_id":"4","last_reported":1738962442,"current_range_meters":21600,"station_id":"ce4bhm12rcd13ifvqgkg","pricing_plan_id":"cebpf4jnsgd1na2vs0mg"},{"bike_id":"62e8c2c1-ec0c-499a-b738-e2f949795bc7","system_id":"levelo_inurba_marseille","lat":43.27836,"lon":5.39219,"is_reserved":false,"is_disabled":false,"rental_uris":{"android":"levelo://app?vid=62e8c2c1-ec0c-499a-b738-e2f949795bc7","ios":"levelo://app?vid=62e8c2c1-ec0c-499a-b738-e2f949795bc7"},"vehicle_type_id":"4","last_reported":1738962442,"current_range_meters":36400,"station_id":"ce4bhjp2rcd13ifvqga0","pricing_plan_id":"cebpf4jnsgd1na2vs0mg"},{"bike_id":"d25bc6a0-30b5-4aa4-922b-fcf83a985386","system_id":"levelo_inurba_marseille","lat":43.23971,"lon":5.36607,"is_reserved":false,"is_disabled":false,"rental_uris":{"android":"levelo://app?vid=d25bc6a0-30b5-4aa4-922b-fcf83a985386","ios":"levelo://app?vid=d25bc6a0-30b5-4aa4-922b-fcf83a985386"},"vehicle_type_id":"4","last_reported":1738962442,"current_range_meters":36800,"station_id":"ce4bhi12rcd13ifvqfp0","pricing_plan_id":"cebpf4jnsgd1na2vs0mg"},{"bike_id":"9c9e59cf-9215-4639-b90b-20c8a5b38757","system_id":"levelo_inurba_marseille","lat":43.28454,"lon":5.35882,"is_reserved":false,"is_disabled":false,"rental_uris":{"android":"levelo://app?vid=9c9e59cf-9215-4639-b90b-20c8a5b38757","ios":"levelo://app?vid=9c9e59cf-9215-4639-b90b-20c8a5b38757"},"vehicle_type_id":"4","last_reported":1738962442,"current_range_meters":32000,"station_id":"ce4bhah2rcd13ifvqei0","pricing_plan_id":"cebpf4jnsgd1na2vs0mg"},{"bike_id":"b14feff6-424d-43a9-a2e2-58713c3ad09c","system_id":"levelo_inurba_marseille","lat":43.2781,"lon":5.4071,"is_reserved":false,"is_disabled":false,"rental_uris":{"android":"levelo://app?vid=b14feff6-424d-43a9-a2e2-58713c3ad09c","ios":"levelo://app?vid=b14feff6-424d-43a9-a2e2-58713c3ad09c"},"vehicle_type_id":"4","last_reported":1738962442,"current_range_meters":38800,"station_id":"ce4bhnh2rcd13ifvqgtg","pricing_plan_id":"cebpf4jnsgd1na2vs0mg"},{"bike_id":"e5e4e6f3-dc37-4181-8d80-26e634351477","system_id":"levelo_inurba_marseille","lat":43.29031,"lon":5.37584,"is_reserved":false,"is_disabled":false,"rental_uris":{"android":"levelo://app?vid=e5e4e6f3-dc37-4181-8d80-26e634351477","ios":"levelo://app?vid=e5e4e6f3-dc37-4181-8d80-26e634351477"},"vehicle_type_id":"4","last_reported":1738962442,"current_range_meters":38800,"station_id":"ce4bh692rcd13ifvqe90","pricing_plan_id":"cebpf4jnsgd1na2vs0mg"},{"bike_id":"2d6a2e4c-47bb-4bf8-8e22-1e9c987f8b16","system_id":"levelo_inurba_marseille","lat":43.23961,"lon":5.36641,"is_reserved":false,"is_disabled":false,"rental_uris":{"android":"levelo://app?vid=2d6a2e4c-47bb-4bf8-8e22-1e9c987f8b16","ios":"levelo://app?vid=2d6a2e4c-47bb-4bf8-8e22-1e9c987f8b16"},"vehicle_type_id":"4","last_reported":1738962442,"current_range_meters":16400,"station_id":"ce4bhi12rcd13ifvqfp0","pricing_plan_id":"cebpf4jnsgd1na2vs0mg"},{"bike_id":"0fa06630-abbc-49ce-bd8f-094dee956051","system_id":"levelo_inurba_marseille","lat":43.25722,"lon":5.4111,"is_reserved":false,"is_disabled":false,"rental_uris":{"android":"levelo://app?vid=0fa06630-abbc-49ce-bd8f-094dee956051","ios":"levelo://app?vid=0fa06630-abbc-49ce-bd8f-094dee956051"},"vehicle_type_id":"4","last_reported":1738962442,"current_range_meters":38400,"station_id":"ce4bhkp2rcd13ifvqgd0","pricing_plan_id":"cebpf4jnsgd1na2vs0mg"},{"bike_id":"b5af732a-8f02-4e6d-b94b-f0d58db8ee32","system_id":"levelo_inurba_marseille","lat":43.28701,"lon":5.39977,"is_reserved":false,"is_disabled":false,"rental_uris":{"android":"levelo://app?vid=b5af732a-8f02-4e6d-b94b-f0d58db8ee32","ios":"levelo://app?vid=b5af732a-8f02-4e6d-b94b-f0d58db8ee32"},"vehicle_type_id":"4","last_reported":1738962442,"current_range_meters":31200,"station_id":"ce4bho92rcd13ifvqh3g","pricing_plan_id":"cebpf4jnsgd1na2vs0mg"},{"bike_id":"984e66a9-958a-4ad4-8afe-42d9883f12f4","system_id":"levelo_inurba_marseille","lat":43.31779,"lon":5.37732,"is_reserved":false,"is_disabled":false,"rental_uris":{"android":"levelo://app?vid=984e66a9-958a-4ad4-8afe-42d9883f12f4","ios":"levelo://app?vid=984e66a9-958a-4ad4-8afe-42d9883f12f4"},"vehicle_type_id":"4","last_reported":1738962442,"current_range_meters":38800,"station_id":"ce4bgth2rcd13ifvqch0","pricing_plan_id":"cebpf4jnsgd1na2vs0mg"},{"bike_id":"098d220b-e449-43ea-8d6d-9fc78e0abad9","system_id":"levelo_inurba_marseille","lat":43.22936,"lon":5.35376,"is_reserved":false,"is_disabled":false,"rental_uris":{"android":"levelo://app?vid=098d220b-e449-43ea-8d6d-9fc78e0abad9","ios":"levelo://app?vid=098d220b-e449-43ea-8d6d-9fc78e0abad9"},"vehicle_type_id":"4","last_reported":1738962442,"current_range_meters":38800,"station_id":"cpo3532slgdg3j2ikp40","pricing_plan_id":"cebpf4jnsgd1na2vs0mg"},{"bike_id":"658b5f4a-4044-4ace-8264-664f029df52f","system_id":"levelo_inurba_marseille","lat":43.29373,"lon":5.37846,"is_reserved":false,"is_disabled":true,"rental_uris":{"android":"levelo://app?vid=658b5f4a-4044-4ace-8264-664f029df52f","ios":"levelo://app?vid=658b5f4a-4044-4ace-8264-664f029df52f"},"vehicle_type_id":"4","last_reported":1738962442,"current_range_meters":28400,"station_id":"ce4bgjh2rcd13ifvqbf0","pricing_plan_id":"cebpf4jnsgd1na2vs0mg"},{"bike_id":"014efb27-8a20-4364-96c1-56f79f380d86","system_id":"levelo_inurba_marseille","lat":43.309093,"lon":5.366806,"is_reserved":false,"is_disabled":true,"rental_uris":{"android":"levelo://app?vid=014efb27-8a20-4364-96c1-56f79f380d86","ios":"levelo://app?vid=014efb27-8a20-4364-96c1-56f79f380d86"},"vehicle_type_id":"4","last_reported":1738962442,"current_range_meters":800,"station_id":"","pricing_plan_id":"cebpf4jnsgd1na2vs0mg"},{"bike_id":"25265f47-6177-48e9-b4ee-d5d5e25bf867","system_id":"levelo_inurba_marseille","lat":43.25722,"lon":5.41119,"is_reserved":false,"is_disabled":false,"rental_uris":{"android":"levelo://app?vid=25265f47-6177-48e9-b4ee-d5d5e25bf867","ios":"levelo://app?vid=25265f47-6177-48e9-b4ee-d5d5e25bf867"},"vehicle_type_id":"4","last_reported":1738962442,"current_range_meters":16400,"station_id":"ce4bhkp2rcd13ifvqgd0","pricing_plan_id":"cebpf4jnsgd1na2vs0mg"},{"bike_id":"dd833579-84b0-4839-89ea-03d9e4d3eaf3","system_id":"levelo_inurba_marseille","lat":43.27384,"lon":5.36224,"is_reserved":false,"is_disabled":false,"rental_uris":{"android":"levelo://app?vid=dd833579-84b0-4839-89ea-03d9e4d3eaf3","ios":"levelo://app?vid=dd833579-84b0-4839-89ea-03d9e4d3eaf3"},"vehicle_type_id":"4","last_reported":1738962442,"current_range_meters":17200,"station_id":"ce4bhbh2rcd13ifvqeo0","pricing_plan_id":"cebpf4jnsgd1na2vs0mg"},{"bike_id":"8134c42b-15c7-43df-91b1-9cea8c89299b","system_id":"levelo_inurba_marseille","lat":43.25863,"lon":5.39908,"is_reserved":false,"is_disabled":false,"rental_uris":{"android":"levelo://app?vid=8134c42b-15c7-43df-91b1-9cea8c89299b","ios":"levelo://app?vid=8134c42b-15c7-43df-91b1-9cea8c89299b"},"vehicle_type_id":"4","last_reported":1738962442,"current_range_meters":38000,"station_id":"ce4bhl92rcd13ifvqghg","pricing_plan_id":"cebpf4jnsgd1na2vs0mg"},{"bike_id":"109d8d07-d605-45c4-912d-3e7b38f9a9ae","system_id":"levelo_inurba_marseille","lat":43.24179,"lon":5.3638,"is_reserved":false,"is_disabled":false,"rental_uris":{"android":"levelo://app?vid=109d8d07-d605-45c4-912d-3e7b38f9a9ae","ios":"levelo://app?vid=109d8d07-d605-45c4-912d-3e7b38f9a9ae"},"vehicle_type_id":"4","last_reported":1738962442,"current_range_meters":16800,"station_id":"cpo36qri1sfpv3e86is0","pricing_plan_id":"cebpf4jnsgd1na2vs0mg"},{"bike_id":"99f2a361-fe3f-4d77-974e-c77619fb7d95","system_id":"levelo_inurba_marseille","lat":43.2942,"lon":5.38622,"is_reserved":false,"is_disabled":false,"rental_uris":{"android":"levelo://app?vid=99f2a361-fe3f-4d77-974e-c77619fb7d95","ios":"levelo://app?vid=99f2a361-fe3f-4d77-974e-c77619fb7d95"},"vehicle_type_id":"4","last_reported":1738962442,"current_range_meters":16000,"station_id":"ce4bh2h2rcd13ifvqdh0","pricing_plan_id":"cebpf4jnsgd1na2vs0mg"},{"bike_id":"67cb7873-5204-4d7d-a0df-43adb8d643f1","system_id":"levelo_inurba_marseille","lat":43.29258,"lon":5.40908,"is_reserved":false,"is_disabled":false,"rental_uris":{"android":"levelo://app?vid=67cb7873-5204-4d7d-a0df-43adb8d643f1","ios":"levelo://app?vid=67cb7873-5204-4d7d-a0df-43adb8d643f1"},"vehicle_type_id":"4","last_reported":1738962442,"current_range_meters":9200,"station_id":"ce4bh192rcd13ifvqdc0","pricing_plan_id":"cebpf4jnsgd1na2vs0mg"},{"bike_id":"2ebd233c-fd15-4f13-9700-c155c053523f","system_id":"levelo_inurba_marseille","lat":43.25942,"lon":5.4092,"is_reserved":false,"is_disabled":true,"rental_uris":{"android":"levelo://app?vid=2ebd233c-fd15-4f13-9700-c155c053523f","ios":"levelo://app?vid=2ebd233c-fd15-4f13-9700-c155c053523f"},"vehicle_type_id":"4","last_reported":1738962442,"current_range_meters":26800,"station_id":"ce4bhm92rcd13ifvqglg","pricing_plan_id":"cebpf4jnsgd1na2vs0mg"},{"bike_id":"9060e4c6-935a-4749-b72c-a9a315d91b19","system_id":"levelo_inurba_marseille","lat":43.24662,"lon":5.38193,"is_reserved":false,"is_disabled":true,"rental_uris":{"android":"levelo://app?vid=9060e4c6-935a-4749-b72c-a9a315d91b19","ios":"levelo://app?vid=9060e4c6-935a-4749-b72c-a9a315d91b19"},"vehicle_type_id":"4","last_reported":1738962442,"current_range_meters":1200,"station_id":"ce4bhih2rcd13ifvqfr0","pricing_plan_id":"cebpf4jnsgd1na2vs0mg"},{"bike_id":"ef98c295-b824-4629-9494-b8a323d6a153","system_id":"levelo_inurba_marseille","lat":43.29025,"lon":5.3865,"is_reserved":false,"is_disabled":false,"rental_uris":{"android":"levelo://app?vid=ef98c295-b824-4629-9494-b8a323d6a153","ios":"levelo://app?vid=ef98c295-b824-4629-9494-b8a323d6a153"},"vehicle_type_id":"4","last_reported":1738962442,"current_range_meters":9200,"station_id":"ce4bh4p2rcd13ifvqe0g","pricing_plan_id":"cebpf4jnsgd1na2vs0mg"},{"bike_id":"16438857-7e2d-4f5a-ba2f-cbf993cf322f","system_id":"levelo_inurba_marseille","lat":43.28469,"lon":5.3588,"is_reserved":false,"is_disabled":false,"rental_uris":{"android":"levelo://app?vid=16438857-7e2d-4f5a-ba2f-cbf993cf322f","ios":"levelo://app?vid=16438857-7e2d-4f5a-ba2f-cbf993cf322f"},"vehicle_type_id":"4","last_reported":1738962442,"current_range_meters":38000,"station_id":"ce4bhah2rcd13ifvqei0","pricing_plan_id":"cebpf4jnsgd1na2vs0mg"},{"bike_id":"c13ae62e-d5d6-4d3f-b979-0be4fe4644ed","system_id":"levelo_inurba_marseille","lat":43.24671,"lon":5.38158,"is_reserved":false,"is_disabled":false,"rental_uris":{"android":"levelo://app?vid=c13ae62e-d5d6-4d3f-b979-0be4fe4644ed","ios":"levelo://app?vid=c13ae62e-d5d6-4d3f-b979-0be4fe4644ed"},"vehicle_type_id":"4","last_reported":1738962442,"current_range_meters":24400,"station_id":"ce4bhih2rcd13ifvqfr0","pricing_plan_id":"cebpf4jnsgd1na2vs0mg"},{"bike_id":"a000edc6-01e1-4a99-8c9c-571be0b28914","system_id":"levelo_inurba_marseille","lat":43.29205,"lon":5.39327,"is_reserved":false,"is_disabled":false,"rental_uris":{"android":"levelo://app?vid=a000edc6-01e1-4a99-8c9c-571be0b28914","ios":"levelo://app?vid=a000edc6-01e1-4a99-8c9c-571be0b28914"},"vehicle_type_id":"4","last_reported":1738962442,"current_range_meters":35200,"station_id":"ce4bh192rcd13ifvqdd0","pricing_plan_id":"cebpf4jnsgd1na2vs0mg"},{"bike_id":"a6792e62-445f-45b2-a8fc-ffc7321fb2fb","system_id":"levelo_inurba_marseille","lat":43.31275,"lon":5.40159,"is_reserved":false,"is_disabled":false,"rental_uris":{"android":"levelo://app?vid=a6792e62-445f-45b2-a8fc-ffc7321fb2fb","ios":"levelo://app?vid=a6792e62-445f-45b2-a8fc-ffc7321fb2fb"},"vehicle_type_id":"4","last_reported":1738962442,"current_range_meters":38800,"station_id":"ce4bh092rcd13ifvqd30","pricing_plan_id":"cebpf4jnsgd1na2vs0mg"},{"bike_id":"68c31b1a-6ee8-4430-a733-93c70ea70dc2","system_id":"levelo_inurba_marseille","lat":43.31893,"lon":5.40738,"is_reserved":false,"is_disabled":false,"rental_uris":{"android":"levelo://app?vid=68c31b1a-6ee8-4430-a733-93c70ea70dc2","ios":"levelo://app?vid=68c31b1a-6ee8-4430-a733-93c70ea70dc2"},"vehicle_type_id":"4","last_reported":1738962442,"current_range_meters":38800,"station_id":"ce4bhq12rcd13ifvqhig","pricing_plan_id":"cebpf4jnsgd1na2vs0mg"},{"bike_id":"083915e7-540d-4b10-a92b-cf84ad1b7557","system_id":"levelo_inurba_marseille","lat":43.26206,"lon":5.3793,"is_reserved":false,"is_disabled":false,"rental_uris":{"android":"levelo://app?vid=083915e7-540d-4b10-a92b-cf84ad1b7557","ios":"levelo://app?vid=083915e7-540d-4b10-a92b-cf84ad1b7557"},"vehicle_type_id":"4","last_reported":1738962442,"current_range_meters":5600,"station_id":"ce4bhjp2rcd13ifvqg90","pricing_plan_id":"cebpf4jnsgd1na2vs0mg"},{"bike_id":"062ef627-163b-4b14-807b-a459c2049e25","system_id":"levelo_inurba_marseille","lat":43.27382,"lon":5.36261,"is_reserved":false,"is_disabled":false,"rental_uris":{"android":"levelo://app?vid=062ef627-163b-4b14-807b-a459c2049e25","ios":"levelo://app?vid=062ef627-163b-4b14-807b-a459c2049e25"},"vehicle_type_id":"4","last_reported":1738962442,"current_range_meters":38800,"station_id":"ce4bhbh2rcd13ifvqeo0","pricing_plan_id":"cebpf4jnsgd1na2vs0mg"},{"bike_id":"6986b042-d67b-490d-a174-01e67df97cbc","system_id":"levelo_inurba_marseille","lat":43.28436,"lon":5.35015,"is_reserved":false,"is_disabled":false,"rental_uris":{"android":"levelo://app?vid=6986b042-d67b-490d-a174-01e67df97cbc","ios":"levelo://app?vid=6986b042-d67b-490d-a174-01e67df97cbc"},"vehicle_type_id":"4","last_reported":1738962442,"current_range_meters":37600,"station_id":"ce4bhbh2rcd13ifvqepg","pricing_plan_id":"cebpf4jnsgd1na2vs0mg"},{"bike_id":"6fcdd030-2bc2-4ae6-a6fb-6b8417f36d6e","system_id":"levelo_inurba_marseille","lat":43.30163,"lon":5.37364,"is_reserved":false,"is_disabled":false,"rental_uris":{"android":"levelo://app?vid=6fcdd030-2bc2-4ae6-a6fb-6b8417f36d6e","ios":"levelo://app?vid=6fcdd030-2bc2-4ae6-a6fb-6b8417f36d6e"},"vehicle_type_id":"4","last_reported":1738962442,"current_range_meters":25200,"station_id":"ce4bgs92rcd13ifvqcc0","pricing_plan_id":"cebpf4jnsgd1na2vs0mg"},{"bike_id":"89912e32-c5f0-448f-82d2-e236e4d6d653","system_id":"levelo_inurba_marseille","lat":43.27794,"lon":5.39876,"is_reserved":false,"is_disabled":true,"rental_uris":{"android":"levelo://app?vid=89912e32-c5f0-448f-82d2-e236e4d6d653","ios":"levelo://app?vid=89912e32-c5f0-448f-82d2-e236e4d6d653"},"vehicle_type_id":"4","last_reported":1738962442,"current_range_meters":3600,"station_id":"","pricing_plan_id":"cebpf4jnsgd1na2vs0mg"},{"bike_id":"3666261e-55ba-44b1-acc8-8d6308a29bf9","system_id":"levelo_inurba_marseille","lat":43.29254,"lon":5.38445,"is_reserved":false,"is_disabled":false,"rental_uris":{"android":"levelo://app?vid=3666261e-55ba-44b1-acc8-8d6308a29bf9","ios":"levelo://app?vid=3666261e-55ba-44b1-acc8-8d6308a29bf9"},"vehicle_type_id":"4","last_reported":1738962442,"current_range_meters":38000,"station_id":"ce4bh692rcd13ifvqea0","pricing_plan_id":"cebpf4jnsgd1na2vs0mg"},{"bike_id":"fd3a1368-f913-44f5-a3ba-f3703e337e82","system_id":"levelo_inurba_marseille","lat":43.25117,"lon":5.40324,"is_reserved":false,"is_disabled":false,"rental_uris":{"android":"levelo://app?vid=fd3a1368-f913-44f5-a3ba-f3703e337e82","ios":"levelo://app?vid=fd3a1368-f913-44f5-a3ba-f3703e337e82"},"vehicle_type_id":"4","last_reported":1738962442,"current_range_meters":38000,"station_id":"ce4bhlh2rcd13ifvqgig","pricing_plan_id":"cebpf4jnsgd1na2vs0mg"},{"bike_id":"0a445341-8673-4756-a475-e7a57bf8192d","system_id":"levelo_inurba_marseille","lat":43.302923,"lon":5.401286,"is_reserved":false,"is_disabled":false,"rental_uris":{"android":"levelo://app?vid=0a445341-8673-4756-a475-e7a57bf8192d","ios":"levelo://app?vid=0a445341-8673-4756-a475-e7a57bf8192d"},"vehicle_type_id":"4","last_reported":1738962442,"current_range_meters":20000,"station_id":"ce4bh012rcd13ifvqd10","pricing_plan_id":"cebpf4jnsgd1na2vs0mg"},{"bike_id":"32fda757-366b-40bc-a7bd-05bfaf911eab","system_id":"levelo_inurba_marseille","lat":43.29636,"lon":5.40594,"is_reserved":false,"is_disabled":false,"rental_uris":{"android":"levelo://app?vid=32fda757-366b-40bc-a7bd-05bfaf911eab","ios":"levelo://app?vid=32fda757-366b-40bc-a7bd-05bfaf911eab"},"vehicle_type_id":"4","last_reported":1738962442,"current_range_meters":37600,"station_id":"ce4bh0h2rcd13ifvqd60","pricing_plan_id":"cebpf4jnsgd1na2vs0mg"},{"bike_id":"25651862-076f-495c-9f56-5b5d71587433","system_id":"levelo_inurba_marseille","lat":43.255,"lon":5.37646,"is_reserved":false,"is_disabled":false,"rental_uris":{"android":"levelo://app?vid=25651862-076f-495c-9f56-5b5d71587433","ios":"levelo://app?vid=25651862-076f-495c-9f56-5b5d71587433"},"vehicle_type_id":"4","last_reported":1738962442,"current_range_meters":24000,"station_id":"ce4bhh12rcd13ifvqff0","pricing_plan_id":"cebpf4jnsgd1na2vs0mg"},{"bike_id":"fb5a704f-a51b-458c-a6e9-f5586a789b94","system_id":"levelo_inurba_marseille","lat":43.24168,"lon":5.36398,"is_reserved":false,"is_disabled":false,"rental_uris":{"android":"levelo://app?vid=fb5a704f-a51b-458c-a6e9-f5586a789b94","ios":"levelo://app?vid=fb5a704f-a51b-458c-a6e9-f5586a789b94"},"vehicle_type_id":"4","last_reported":1738962442,"current_range_meters":38800,"station_id":"cpo36qri1sfpv3e86is0","pricing_plan_id":"cebpf4jnsgd1na2vs0mg"},{"bike_id":"f1c1e8ea-c768-43eb-bbb3-77dbe638329d","system_id":"levelo_inurba_marseille","lat":43.32273,"lon":5.38282,"is_reserved":false,"is_disabled":false,"rental_uris":{"android":"levelo://app?vid=f1c1e8ea-c768-43eb-bbb3-77dbe638329d","ios":"levelo://app?vid=f1c1e8ea-c768-43eb-bbb3-77dbe638329d"},"vehicle_type_id":"4","last_reported":1738962442,"current_range_meters":38000,"station_id":"ce4bhr12rcd13ifvqhqg","pricing_plan_id":"cebpf4jnsgd1na2vs0mg"},{"bike_id":"fa45f7fc-432e-4d72-a845-9cc31b862f0c","system_id":"levelo_inurba_marseille","lat":43.27949,"lon":5.41046,"is_reserved":false,"is_disabled":false,"rental_uris":{"android":"levelo://app?vid=fa45f7fc-432e-4d72-a845-9cc31b862f0c","ios":"levelo://app?vid=fa45f7fc-432e-4d72-a845-9cc31b862f0c"},"vehicle_type_id":"4","last_reported":1738962442,"current_range_meters":16400,"station_id":"ce4bhnp2rcd13ifvqh0g","pricing_plan_id":"cebpf4jnsgd1na2vs0mg"},{"bike_id":"b73937ba-05e4-41c7-8959-6f24613e2797","system_id":"levelo_inurba_marseille","lat":43.22931,"lon":5.35383,"is_reserved":false,"is_disabled":false,"rental_uris":{"android":"levelo://app?vid=b73937ba-05e4-41c7-8959-6f24613e2797","ios":"levelo://app?vid=b73937ba-05e4-41c7-8959-6f24613e2797"},"vehicle_type_id":"4","last_reported":1738962442,"current_range_meters":32400,"station_id":"cpo3532slgdg3j2ikp40","pricing_plan_id":"cebpf4jnsgd1na2vs0mg"},{"bike_id":"d975e100-2a27-4e42-8101-7707ce7e9e5c","system_id":"levelo_inurba_marseille","lat":43.30321,"lon":5.36904,"is_reserved":false,"is_disabled":true,"rental_uris":{"android":"levelo://app?vid=d975e100-2a27-4e42-8101-7707ce7e9e5c","ios":"levelo://app?vid=d975e100-2a27-4e42-8101-7707ce7e9e5c"},"vehicle_type_id":"4","last_reported":1738962442,"current_range_meters":16000,"station_id":"ce4bgqh2rcd13ifvqc5g","pricing_plan_id":"cebpf4jnsgd1na2vs0mg"},{"bike_id":"bd600c0d-c185-42e2-8339-a9e6a86e5826","system_id":"levelo_inurba_marseille","lat":43.32304,"lon":5.3898,"is_reserved":false,"is_disabled":false,"rental_uris":{"android":"levelo://app?vid=bd600c0d-c185-42e2-8339-a9e6a86e5826","ios":"levelo://app?vid=bd600c0d-c185-42e2-8339-a9e6a86e5826"},"vehicle_type_id":"4","last_reported":1738962442,"current_range_meters":29600,"station_id":"ce4bhqp2rcd13ifvqhog","pricing_plan_id":"cebpf4jnsgd1na2vs0mg"},{"bike_id":"ab54e2d0-4c2c-486a-84c7-811ed9008ddc","system_id":"levelo_inurba_marseille","lat":43.27857,"lon":5.42541,"is_reserved":false,"is_disabled":true,"rental_uris":{"android":"levelo://app?vid=ab54e2d0-4c2c-486a-84c7-811ed9008ddc","ios":"levelo://app?vid=ab54e2d0-4c2c-486a-84c7-811ed9008ddc"},"vehicle_type_id":"4","last_reported":1738962442,"current_range_meters":0,"station_id":"","pricing_plan_id":"cebpf4jnsgd1na2vs0mg"},{"bike_id":"43b43d06-f797-4161-9348-39640ab88e33","system_id":"levelo_inurba_marseille","lat":43.29307,"lon":5.37176,"is_reserved":false,"is_disabled":false,"rental_uris":{"android":"levelo://app?vid=43b43d06-f797-4161-9348-39640ab88e33","ios":"levelo://app?vid=43b43d06-f797-4161-9348-39640ab88e33"},"vehicle_type_id":"4","last_reported":1738962442,"current_range_meters":27600,"station_id":"ce4bgh92rcd13ifvqb40","pricing_plan_id":"cebpf4jnsgd1na2vs0mg"},{"bike_id":"ff50e520-d5cc-4b8d-8200-758769c6ad46","system_id":"levelo_inurba_marseille","lat":43.29416,"lon":5.38629,"is_reserved":false,"is_disabled":false,"rental_uris":{"android":"levelo://app?vid=ff50e520-d5cc-4b8d-8200-758769c6ad46","ios":"levelo://app?vid=ff50e520-d5cc-4b8d-8200-758769c6ad46"},"vehicle_type_id":"4","last_reported":1738962442,"current_range_meters":28000,"station_id":"ce4bh2h2rcd13ifvqdh0","pricing_plan_id":"cebpf4jnsgd1na2vs0mg"},{"bike_id":"ea3c45d5-300b-4422-954e-d1a4ff0ceaaa","system_id":"levelo_inurba_marseille","lat":43.30678,"lon":5.36951,"is_reserved":false,"is_disabled":false,"rental_uris":{"android":"levelo://app?vid=ea3c45d5-300b-4422-954e-d1a4ff0ceaaa","ios":"levelo://app?vid=ea3c45d5-300b-4422-954e-d1a4ff0ceaaa"},"vehicle_type_id":"4","last_reported":1738962442,"current_range_meters":24800,"station_id":"","pricing_plan_id":"cebpf4jnsgd1na2vs0mg"},{"bike_id":"6835673f-f138-4499-8bdd-83c3f3bccf33","system_id":"levelo_inurba_marseille","lat":43.27995,"lon":5.40019,"is_reserved":false,"is_disabled":false,"rental_uris":{"android":"levelo://app?vid=6835673f-f138-4499-8bdd-83c3f3bccf33","ios":"levelo://app?vid=6835673f-f138-4499-8bdd-83c3f3bccf33"},"vehicle_type_id":"4","last_reported":1738962442,"current_range_meters":37600,"station_id":"ce4bho92rcd13ifvqh4g","pricing_plan_id":"cebpf4jnsgd1na2vs0mg"},{"bike_id":"bb1bab95-412e-41ba-879a-c483b6ec0924","system_id":"levelo_inurba_marseille","lat":43.2783,"lon":5.40668,"is_reserved":false,"is_disabled":false,"rental_uris":{"android":"levelo://app?vid=bb1bab95-412e-41ba-879a-c483b6ec0924","ios":"levelo://app?vid=bb1bab95-412e-41ba-879a-c483b6ec0924"},"vehicle_type_id":"4","last_reported":1738962442,"current_range_meters":16800,"station_id":"ce4bhnh2rcd13ifvqgtg","pricing_plan_id":"cebpf4jnsgd1na2vs0mg"},{"bike_id":"363f89dc-7a31-4716-bf7c-5e8b960f961f","system_id":"levelo_inurba_marseille","lat":43.310846,"lon":5.424284,"is_reserved":false,"is_disabled":false,"rental_uris":{"android":"levelo://app?vid=363f89dc-7a31-4716-bf7c-5e8b960f961f","ios":"levelo://app?vid=363f89dc-7a31-4716-bf7c-5e8b960f961f"},"vehicle_type_id":"4","last_reported":1738962442,"current_range_meters":38800,"station_id":"ce4bhp92rcd13ifvqhag","pricing_plan_id":"cebpf4jnsgd1na2vs0mg"},{"bike_id":"cf1ec810-f7ec-419a-8ceb-08d76d0efda3","system_id":"levelo_inurba_marseille","lat":43.26556,"lon":5.37286,"is_reserved":false,"is_disabled":false,"rental_uris":{"android":"levelo://app?vid=cf1ec810-f7ec-419a-8ceb-08d76d0efda3","ios":"levelo://app?vid=cf1ec810-f7ec-419a-8ceb-08d76d0efda3"},"vehicle_type_id":"4","last_reported":1738962442,"current_range_meters":21600,"station_id":"ce4bhg12rcd13ifvqf70","pricing_plan_id":"cebpf4jnsgd1na2vs0mg"},{"bike_id":"b48ca8df-89b8-49ca-98f8-11c918547442","system_id":"levelo_inurba_marseille","lat":43.29412,"lon":5.3863,"is_reserved":false,"is_disabled":false,"rental_uris":{"android":"levelo://app?vid=b48ca8df-89b8-49ca-98f8-11c918547442","ios":"levelo://app?vid=b48ca8df-89b8-49ca-98f8-11c918547442"},"vehicle_type_id":"4","last_reported":1738962442,"current_range_meters":32400,"station_id":"ce4bh2h2rcd13ifvqdh0","pricing_plan_id":"cebpf4jnsgd1na2vs0mg"},{"bike_id":"d9f971ea-392b-4d97-a29a-d7f54c212195","system_id":"levelo_inurba_marseille","lat":43.28484,"lon":5.38397,"is_reserved":false,"is_disabled":false,"rental_uris":{"android":"levelo://app?vid=d9f971ea-392b-4d97-a29a-d7f54c212195","ios":"levelo://app?vid=d9f971ea-392b-4d97-a29a-d7f54c212195"},"vehicle_type_id":"4","last_reported":1738962442,"current_range_meters":38400,"station_id":"ce4bh512rcd13ifvqe3g","pricing_plan_id":"cebpf4jnsgd1na2vs0mg"},{"bike_id":"9b7a8c62-e473-4d07-971b-e94975d6428e","system_id":"levelo_inurba_marseille","lat":43.32371,"lon":5.38875,"is_reserved":false,"is_disabled":false,"rental_uris":{"android":"levelo://app?vid=9b7a8c62-e473-4d07-971b-e94975d6428e","ios":"levelo://app?vid=9b7a8c62-e473-4d07-971b-e94975d6428e"},"vehicle_type_id":"4","last_reported":1738962442,"current_range_meters":18000,"station_id":"ce4bhqp2rcd13ifvqhog","pricing_plan_id":"cebpf4jnsgd1na2vs0mg"},{"bike_id":"70ac1a4f-6f86-42ba-b8c6-93e2a4c4f9f8","system_id":"levelo_inurba_marseille","lat":43.25501,"lon":5.37649,"is_reserved":false,"is_disabled":false,"rental_uris":{"android":"levelo://app?vid=70ac1a4f-6f86-42ba-b8c6-93e2a4c4f9f8","ios":"levelo://app?vid=70ac1a4f-6f86-42ba-b8c6-93e2a4c4f9f8"},"vehicle_type_id":"4","last_reported":1738962442,"current_range_meters":8000,"station_id":"ce4bhh12rcd13ifvqff0","pricing_plan_id":"cebpf4jnsgd1na2vs0mg"},{"bike_id":"c34604b0-f551-4e35-9721-ca6dd71c5182","system_id":"levelo_inurba_marseille","lat":43.2873,"lon":5.36086,"is_reserved":false,"is_disabled":false,"rental_uris":{"android":"levelo://app?vid=c34604b0-f551-4e35-9721-ca6dd71c5182","ios":"levelo://app?vid=c34604b0-f551-4e35-9721-ca6dd71c5182"},"vehicle_type_id":"4","last_reported":1738962442,"current_range_meters":34000,"station_id":"cki0cbj6b192h4jlfktg","pricing_plan_id":"cebpf4jnsgd1na2vs0mg"},{"bike_id":"6ec337e9-4dc1-44a2-a6eb-e498c27f9790","system_id":"levelo_inurba_marseille","lat":43.30268,"lon":5.40077,"is_reserved":false,"is_disabled":false,"rental_uris":{"android":"levelo://app?vid=6ec337e9-4dc1-44a2-a6eb-e498c27f9790","ios":"levelo://app?vid=6ec337e9-4dc1-44a2-a6eb-e498c27f9790"},"vehicle_type_id":"4","last_reported":1738962442,"current_range_meters":39200,"station_id":"ce4bgvh2rcd13ifvqcs0","pricing_plan_id":"cebpf4jnsgd1na2vs0mg"},{"bike_id":"5f58bcf2-dddd-41e8-9d23-4ffa6a2e8b91","system_id":"levelo_inurba_marseille","lat":43.29261,"lon":5.38444,"is_reserved":false,"is_disabled":false,"rental_uris":{"android":"levelo://app?vid=5f58bcf2-dddd-41e8-9d23-4ffa6a2e8b91","ios":"levelo://app?vid=5f58bcf2-dddd-41e8-9d23-4ffa6a2e8b91"},"vehicle_type_id":"4","last_reported":1738962442,"current_range_meters":24800,"station_id":"ce4bh692rcd13ifvqea0","pricing_plan_id":"cebpf4jnsgd1na2vs0mg"},{"bike_id":"2f0fc77e-f97d-462c-bd26-d5b9ad11bef2","system_id":"levelo_inurba_marseille","lat":43.33004,"lon":5.39,"is_reserved":false,"is_disabled":false,"rental_uris":{"android":"levelo://app?vid=2f0fc77e-f97d-462c-bd26-d5b9ad11bef2","ios":"levelo://app?vid=2f0fc77e-f97d-462c-bd26-d5b9ad11bef2"},"vehicle_type_id":"4","last_reported":1738962442,"current_range_meters":17200,"station_id":"ce4bhr92rcd13ifvqhrg","pricing_plan_id":"cebpf4jnsgd1na2vs0mg"},{"bike_id":"187375a2-49e4-46d1-b02c-429ac3db4d24","system_id":"levelo_inurba_marseille","lat":43.2862,"lon":5.35094,"is_reserved":false,"is_disabled":false,"rental_uris":{"android":"levelo://app?vid=187375a2-49e4-46d1-b02c-429ac3db4d24","ios":"levelo://app?vid=187375a2-49e4-46d1-b02c-429ac3db4d24"},"vehicle_type_id":"4","last_reported":1738962442,"current_range_meters":28000,"station_id":"ce4bhch2rcd13ifvqeug","pricing_plan_id":"cebpf4jnsgd1na2vs0mg"},{"bike_id":"6c573821-3004-405c-ad6d-6fa4ebad8177","system_id":"levelo_inurba_marseille","lat":43.2893,"lon":5.38386,"is_reserved":false,"is_disabled":false,"rental_uris":{"android":"levelo://app?vid=6c573821-3004-405c-ad6d-6fa4ebad8177","ios":"levelo://app?vid=6c573821-3004-405c-ad6d-6fa4ebad8177"},"vehicle_type_id":"4","last_reported":1738962442,"current_range_meters":30800,"station_id":"ce4bh612rcd13ifvqe6g","pricing_plan_id":"cebpf4jnsgd1na2vs0mg"},{"bike_id":"0ccae692-16fa-48e3-88e0-236b5491d838","system_id":"levelo_inurba_marseille","lat":43.33765,"lon":5.39183,"is_reserved":false,"is_disabled":false,"rental_uris":{"android":"levelo://app?vid=0ccae692-16fa-48e3-88e0-236b5491d838","ios":"levelo://app?vid=0ccae692-16fa-48e3-88e0-236b5491d838"},"vehicle_type_id":"4","last_reported":1738962442,"current_range_meters":39200,"station_id":"ce4bhr92rcd13ifvqhsg","pricing_plan_id":"cebpf4jnsgd1na2vs0mg"},{"bike_id":"ca23d269-f786-421c-abe3-64324fb88254","system_id":"levelo_inurba_marseille","lat":43.29413,"lon":5.38632,"is_reserved":false,"is_disabled":false,"rental_uris":{"android":"levelo://app?vid=ca23d269-f786-421c-abe3-64324fb88254","ios":"levelo://app?vid=ca23d269-f786-421c-abe3-64324fb88254"},"vehicle_type_id":"4","last_reported":1738962442,"current_range_meters":32000,"station_id":"ce4bh2h2rcd13ifvqdh0","pricing_plan_id":"cebpf4jnsgd1na2vs0mg"},{"bike_id":"1cfe21f7-6157-4ffb-a163-41af87f64a95","system_id":"levelo_inurba_marseille","lat":43.28461,"lon":5.35884,"is_reserved":false,"is_disabled":false,"rental_uris":{"android":"levelo://app?vid=1cfe21f7-6157-4ffb-a163-41af87f64a95","ios":"levelo://app?vid=1cfe21f7-6157-4ffb-a163-41af87f64a95"},"vehicle_type_id":"4","last_reported":1738962442,"current_range_meters":38800,"station_id":"ce4bhah2rcd13ifvqei0","pricing_plan_id":"cebpf4jnsgd1na2vs0mg"},{"bike_id":"ae564310-76d7-49ce-b5b4-085dd15ccb9b","system_id":"levelo_inurba_marseille","lat":43.29025,"lon":5.38642,"is_reserved":false,"is_disabled":false,"rental_uris":{"android":"levelo://app?vid=ae564310-76d7-49ce-b5b4-085dd15ccb9b","ios":"levelo://app?vid=ae564310-76d7-49ce-b5b4-085dd15ccb9b"},"vehicle_type_id":"4","last_reported":1738962442,"current_range_meters":33600,"station_id":"ce4bh4p2rcd13ifvqe0g","pricing_plan_id":"cebpf4jnsgd1na2vs0mg"},{"bike_id":"dd8a6add-f240-476a-afcb-390bf0f598ab","system_id":"levelo_inurba_marseille","lat":43.31536,"lon":5.38045,"is_reserved":false,"is_disabled":false,"rental_uris":{"android":"levelo://app?vid=dd8a6add-f240-476a-afcb-390bf0f598ab","ios":"levelo://app?vid=dd8a6add-f240-476a-afcb-390bf0f598ab"},"vehicle_type_id":"4","last_reported":1738962442,"current_range_meters":35600,"station_id":"ce4bhsp2rcd13ifvqi50","pricing_plan_id":"cebpf4jnsgd1na2vs0mg"},{"bike_id":"c5afe4ed-432e-4c43-8e07-8a9cecbd1a94","system_id":"levelo_inurba_marseille","lat":43.29273,"lon":5.38448,"is_reserved":false,"is_disabled":false,"rental_uris":{"android":"levelo://app?vid=c5afe4ed-432e-4c43-8e07-8a9cecbd1a94","ios":"levelo://app?vid=c5afe4ed-432e-4c43-8e07-8a9cecbd1a94"},"vehicle_type_id":"4","last_reported":1738962442,"current_range_meters":38400,"station_id":"ce4bh692rcd13ifvqea0","pricing_plan_id":"cebpf4jnsgd1na2vs0mg"},{"bike_id":"c7f21633-e0fc-4cc0-8805-620b994fb74e","system_id":"levelo_inurba_marseille","lat":43.31528,"lon":5.38035,"is_reserved":false,"is_disabled":false,"rental_uris":{"android":"levelo://app?vid=c7f21633-e0fc-4cc0-8805-620b994fb74e","ios":"levelo://app?vid=c7f21633-e0fc-4cc0-8805-620b994fb74e"},"vehicle_type_id":"4","last_reported":1738962442,"current_range_meters":38000,"station_id":"ce4bhsp2rcd13ifvqi50","pricing_plan_id":"cebpf4jnsgd1na2vs0mg"},{"bike_id":"061ad218-5e14-42ca-9e7e-ab9e18d283ef","system_id":"levelo_inurba_marseille","lat":43.25866,"lon":5.39898,"is_reserved":false,"is_disabled":false,"rental_uris":{"android":"levelo://app?vid=061ad218-5e14-42ca-9e7e-ab9e18d283ef","ios":"levelo://app?vid=061ad218-5e14-42ca-9e7e-ab9e18d283ef"},"vehicle_type_id":"4","last_reported":1738962442,"current_range_meters":22000,"station_id":"ce4bhl92rcd13ifvqghg","pricing_plan_id":"cebpf4jnsgd1na2vs0mg"},{"bike_id":"a74b13bd-b35d-4ad8-9674-b8300bf0dc5b","system_id":"levelo_inurba_marseille","lat":43.31527,"lon":5.38037,"is_reserved":false,"is_disabled":false,"rental_uris":{"android":"levelo://app?vid=a74b13bd-b35d-4ad8-9674-b8300bf0dc5b","ios":"levelo://app?vid=a74b13bd-b35d-4ad8-9674-b8300bf0dc5b"},"vehicle_type_id":"4","last_reported":1738962442,"current_range_meters":33200,"station_id":"ce4bhsp2rcd13ifvqi50","pricing_plan_id":"cebpf4jnsgd1na2vs0mg"},{"bike_id":"201ecfc8-9896-48c6-91ea-b68110b20dcc","system_id":"levelo_inurba_marseille","lat":43.27837,"lon":5.39207,"is_reserved":false,"is_disabled":false,"rental_uris":{"android":"levelo://app?vid=201ecfc8-9896-48c6-91ea-b68110b20dcc","ios":"levelo://app?vid=201ecfc8-9896-48c6-91ea-b68110b20dcc"},"vehicle_type_id":"4","last_reported":1738962442,"current_range_meters":38400,"station_id":"ce4bhjp2rcd13ifvqga0","pricing_plan_id":"cebpf4jnsgd1na2vs0mg"},{"bike_id":"f67b7531-6c63-4f46-a9d4-4fdf588facb0","system_id":"levelo_inurba_marseille","lat":43.27862,"lon":5.40614,"is_reserved":false,"is_disabled":true,"rental_uris":{"android":"levelo://app?vid=f67b7531-6c63-4f46-a9d4-4fdf588facb0","ios":"levelo://app?vid=f67b7531-6c63-4f46-a9d4-4fdf588facb0"},"vehicle_type_id":"4","last_reported":1738962442,"current_range_meters":0,"station_id":"","pricing_plan_id":"cebpf4jnsgd1na2vs0mg"},{"bike_id":"b526e262-999e-484f-827d-51a1e672d63f","system_id":"levelo_inurba_marseille","lat":43.29306,"lon":5.37473,"is_reserved":false,"is_disabled":false,"rental_uris":{"android":"levelo://app?vid=b526e262-999e-484f-827d-51a1e672d63f","ios":"levelo://app?vid=b526e262-999e-484f-827d-51a1e672d63f"},"vehicle_type_id":"4","last_reported":1738962442,"current_range_meters":39200,"station_id":"ce4bgi12rcd13ifvqb70","pricing_plan_id":"cebpf4jnsgd1na2vs0mg"},{"bike_id":"ccc0d99a-4f06-4847-88ea-bfbf26a9a708","system_id":"levelo_inurba_marseille","lat":43.27387,"lon":5.36243,"is_reserved":false,"is_disabled":false,"rental_uris":{"android":"levelo://app?vid=ccc0d99a-4f06-4847-88ea-bfbf26a9a708","ios":"levelo://app?vid=ccc0d99a-4f06-4847-88ea-bfbf26a9a708"},"vehicle_type_id":"4","last_reported":1738962442,"current_range_meters":38400,"station_id":"ce4bhbh2rcd13ifvqeo0","pricing_plan_id":"cebpf4jnsgd1na2vs0mg"},{"bike_id":"1047ff1d-49b3-4860-859b-cb306bbb0b1e","system_id":"levelo_inurba_marseille","lat":43.25711,"lon":5.4179,"is_reserved":false,"is_disabled":false,"rental_uris":{"android":"levelo://app?vid=1047ff1d-49b3-4860-859b-cb306bbb0b1e","ios":"levelo://app?vid=1047ff1d-49b3-4860-859b-cb306bbb0b1e"},"vehicle_type_id":"4","last_reported":1738962442,"current_range_meters":6800,"station_id":"","pricing_plan_id":"cebpf4jnsgd1na2vs0mg"},{"bike_id":"a1ff6a73-36b2-4a61-a88f-8f0cc16371c7","system_id":"levelo_inurba_marseille","lat":43.26221,"lon":5.40442,"is_reserved":false,"is_disabled":false,"rental_uris":{"android":"levelo://app?vid=a1ff6a73-36b2-4a61-a88f-8f0cc16371c7","ios":"levelo://app?vid=a1ff6a73-36b2-4a61-a88f-8f0cc16371c7"},"vehicle_type_id":"4","last_reported":1738962442,"current_range_meters":36400,"station_id":"ce4bhmh2rcd13ifvqgmg","pricing_plan_id":"cebpf4jnsgd1na2vs0mg"},{"bike_id":"5a2d5dfd-03ec-4fe4-9110-6cf9df6cb751","system_id":"levelo_inurba_marseille","lat":43.28716,"lon":5.37952,"is_reserved":false,"is_disabled":true,"rental_uris":{"android":"levelo://app?vid=5a2d5dfd-03ec-4fe4-9110-6cf9df6cb751","ios":"levelo://app?vid=5a2d5dfd-03ec-4fe4-9110-6cf9df6cb751"},"vehicle_type_id":"4","last_reported":1738962442,"current_range_meters":25600,"station_id":"ce4bh9p2rcd13ifvqec0","pricing_plan_id":"cebpf4jnsgd1na2vs0mg"},{"bike_id":"359b6247-0c56-4066-9203-ed98a21ba5b2","system_id":"levelo_inurba_marseille","lat":43.27559,"lon":5.38427,"is_reserved":false,"is_disabled":false,"rental_uris":{"android":"levelo://app?vid=359b6247-0c56-4066-9203-ed98a21ba5b2","ios":"levelo://app?vid=359b6247-0c56-4066-9203-ed98a21ba5b2"},"vehicle_type_id":"4","last_reported":1738962442,"current_range_meters":38800,"station_id":"ce4bhh92rcd13ifvqfi0","pricing_plan_id":"cebpf4jnsgd1na2vs0mg"},{"bike_id":"114998f0-dfb0-494f-8117-273cb0fabd56","system_id":"levelo_inurba_marseille","lat":43.231879,"lon":5.399782,"is_reserved":false,"is_disabled":false,"rental_uris":{"android":"levelo://app?vid=114998f0-dfb0-494f-8117-273cb0fabd56","ios":"levelo://app?vid=114998f0-dfb0-494f-8117-273cb0fabd56"},"vehicle_type_id":"4","last_reported":1738962442,"current_range_meters":38800,"station_id":"ce4bhn12rcd13ifvqgqg","pricing_plan_id":"cebpf4jnsgd1na2vs0mg"},{"bike_id":"55c531ba-cb99-413a-81f9-84f3b3d5979e","system_id":"levelo_inurba_marseille","lat":43.22924,"lon":5.35376,"is_reserved":false,"is_disabled":false,"rental_uris":{"android":"levelo://app?vid=55c531ba-cb99-413a-81f9-84f3b3d5979e","ios":"levelo://app?vid=55c531ba-cb99-413a-81f9-84f3b3d5979e"},"vehicle_type_id":"4","last_reported":1738962442,"current_range_meters":24000,"station_id":"cpo3532slgdg3j2ikp40","pricing_plan_id":"cebpf4jnsgd1na2vs0mg"},{"bike_id":"3862a553-7de1-4bb5-b382-fadc6257c031","system_id":"levelo_inurba_marseille","lat":43.29381,"lon":5.37855,"is_reserved":false,"is_disabled":false,"rental_uris":{"android":"levelo://app?vid=3862a553-7de1-4bb5-b382-fadc6257c031","ios":"levelo://app?vid=3862a553-7de1-4bb5-b382-fadc6257c031"},"vehicle_type_id":"4","last_reported":1738962442,"current_range_meters":38800,"station_id":"ce4bgjh2rcd13ifvqbf0","pricing_plan_id":"cebpf4jnsgd1na2vs0mg"},{"bike_id":"1e3b6a96-cbed-473d-ab34-026bfd583da7","system_id":"levelo_inurba_marseille","lat":43.29309,"lon":5.37171,"is_reserved":false,"is_disabled":false,"rental_uris":{"android":"levelo://app?vid=1e3b6a96-cbed-473d-ab34-026bfd583da7","ios":"levelo://app?vid=1e3b6a96-cbed-473d-ab34-026bfd583da7"},"vehicle_type_id":"4","last_reported":1738962442,"current_range_meters":25200,"station_id":"ce4bgh92rcd13ifvqb40","pricing_plan_id":"cebpf4jnsgd1na2vs0mg"},{"bike_id":"eeb1626b-d9a7-4181-8530-ac28fa96e047","system_id":"levelo_inurba_marseille","lat":43.29035,"lon":5.35916,"is_reserved":false,"is_disabled":false,"rental_uris":{"android":"levelo://app?vid=eeb1626b-d9a7-4181-8530-ac28fa96e047","ios":"levelo://app?vid=eeb1626b-d9a7-4181-8530-ac28fa96e047"},"vehicle_type_id":"4","last_reported":1738962442,"current_range_meters":38400,"station_id":"ce4bha92rcd13ifvqeg0","pricing_plan_id":"cebpf4jnsgd1na2vs0mg"},{"bike_id":"8c08c6a2-3404-4d8b-b103-439efea13c08","system_id":"levelo_inurba_marseille","lat":43.27949,"lon":5.41052,"is_reserved":false,"is_disabled":false,"rental_uris":{"android":"levelo://app?vid=8c08c6a2-3404-4d8b-b103-439efea13c08","ios":"levelo://app?vid=8c08c6a2-3404-4d8b-b103-439efea13c08"},"vehicle_type_id":"4","last_reported":1738962442,"current_range_meters":14000,"station_id":"ce4bhnp2rcd13ifvqh0g","pricing_plan_id":"cebpf4jnsgd1na2vs0mg"},{"bike_id":"42b00d6b-70d0-4750-bdd2-377deb18497e","system_id":"levelo_inurba_marseille","lat":43.22932,"lon":5.35375,"is_reserved":false,"is_disabled":false,"rental_uris":{"android":"levelo://app?vid=42b00d6b-70d0-4750-bdd2-377deb18497e","ios":"levelo://app?vid=42b00d6b-70d0-4750-bdd2-377deb18497e"},"vehicle_type_id":"4","last_reported":1738962442,"current_range_meters":26800,"station_id":"cpo3532slgdg3j2ikp40","pricing_plan_id":"cebpf4jnsgd1na2vs0mg"},{"bike_id":"1fce3b99-86c8-4809-b0f0-6ad78e815c23","system_id":"levelo_inurba_marseille","lat":43.29261,"lon":5.38442,"is_reserved":false,"is_disabled":false,"rental_uris":{"android":"levelo://app?vid=1fce3b99-86c8-4809-b0f0-6ad78e815c23","ios":"levelo://app?vid=1fce3b99-86c8-4809-b0f0-6ad78e815c23"},"vehicle_type_id":"4","last_reported":1738962442,"current_range_meters":27200,"station_id":"ce4bh692rcd13ifvqea0","pricing_plan_id":"cebpf4jnsgd1na2vs0mg"},{"bike_id":"d26811a1-4240-4c38-9630-b44ae6b37a73","system_id":"levelo_inurba_marseille","lat":43.28154,"lon":5.42659,"is_reserved":false,"is_disabled":false,"rental_uris":{"android":"levelo://app?vid=d26811a1-4240-4c38-9630-b44ae6b37a73","ios":"levelo://app?vid=d26811a1-4240-4c38-9630-b44ae6b37a73"},"vehicle_type_id":"4","last_reported":1738962442,"current_range_meters":39200,"station_id":"ce4bhnh2rcd13ifvqgug","pricing_plan_id":"cebpf4jnsgd1na2vs0mg"},{"bike_id":"ea3d872f-e26a-4c91-8a3d-8dd3be540b63","system_id":"levelo_inurba_marseille","lat":43.31179,"lon":5.3871,"is_reserved":false,"is_disabled":false,"rental_uris":{"android":"levelo://app?vid=ea3d872f-e26a-4c91-8a3d-8dd3be540b63","ios":"levelo://app?vid=ea3d872f-e26a-4c91-8a3d-8dd3be540b63"},"vehicle_type_id":"4","last_reported":1738962442,"current_range_meters":8800,"station_id":"ce4bgv12rcd13ifvqcp0","pricing_plan_id":"cebpf4jnsgd1na2vs0mg"},{"bike_id":"f1bbac45-5b32-4b97-b4ef-d7ee065546b1","system_id":"levelo_inurba_marseille","lat":43.26032,"lon":5.37526,"is_reserved":false,"is_disabled":false,"rental_uris":{"android":"levelo://app?vid=f1bbac45-5b32-4b97-b4ef-d7ee065546b1","ios":"levelo://app?vid=f1bbac45-5b32-4b97-b4ef-d7ee065546b1"},"vehicle_type_id":"4","last_reported":1738962442,"current_range_meters":36800,"station_id":"ce4bhgh2rcd13ifvqfa0","pricing_plan_id":"cebpf4jnsgd1na2vs0mg"},{"bike_id":"d5cd8306-e7c1-4233-8800-5d3776ebfa92","system_id":"levelo_inurba_marseille","lat":43.26808,"lon":5.40251,"is_reserved":false,"is_disabled":false,"rental_uris":{"android":"levelo://app?vid=d5cd8306-e7c1-4233-8800-5d3776ebfa92","ios":"levelo://app?vid=d5cd8306-e7c1-4233-8800-5d3776ebfa92"},"vehicle_type_id":"4","last_reported":1738962442,"current_range_meters":38400,"station_id":"ce501612rcd8frsf0b60","pricing_plan_id":"cebpf4jnsgd1na2vs0mg"},{"bike_id":"3a959277-7982-4e64-8356-0ff2ab30f7da","system_id":"levelo_inurba_marseille","lat":43.26189,"lon":5.37449,"is_reserved":false,"is_disabled":false,"rental_uris":{"android":"levelo://app?vid=3a959277-7982-4e64-8356-0ff2ab30f7da","ios":"levelo://app?vid=3a959277-7982-4e64-8356-0ff2ab30f7da"},"vehicle_type_id":"4","last_reported":1738962442,"current_range_meters":26000,"station_id":"ce4bhgp2rcd13ifvqfc0","pricing_plan_id":"cebpf4jnsgd1na2vs0mg"},{"bike_id":"e9bd66cb-c15d-47c8-be92-d4e752e9e79c","system_id":"levelo_inurba_marseille","lat":43.26204,"lon":5.37923,"is_reserved":false,"is_disabled":false,"rental_uris":{"android":"levelo://app?vid=e9bd66cb-c15d-47c8-be92-d4e752e9e79c","ios":"levelo://app?vid=e9bd66cb-c15d-47c8-be92-d4e752e9e79c"},"vehicle_type_id":"4","last_reported":1738962442,"current_range_meters":8400,"station_id":"ce4bhjp2rcd13ifvqg90","pricing_plan_id":"cebpf4jnsgd1na2vs0mg"},{"bike_id":"480c1ea6-85b2-413d-91f0-43d3624cb198","system_id":"levelo_inurba_marseille","lat":43.26673,"lon":5.38257,"is_reserved":false,"is_disabled":false,"rental_uris":{"android":"levelo://app?vid=480c1ea6-85b2-413d-91f0-43d3624cb198","ios":"levelo://app?vid=480c1ea6-85b2-413d-91f0-43d3624cb198"},"vehicle_type_id":"4","last_reported":1738962442,"current_range_meters":27200,"station_id":"ce4bhg92rcd13ifvqf90","pricing_plan_id":"cebpf4jnsgd1na2vs0mg"},{"bike_id":"3c434100-0ec7-4174-be49-81df709efba1","system_id":"levelo_inurba_marseille","lat":43.26492,"lon":5.39547,"is_reserved":false,"is_disabled":false,"rental_uris":{"android":"levelo://app?vid=3c434100-0ec7-4174-be49-81df709efba1","ios":"levelo://app?vid=3c434100-0ec7-4174-be49-81df709efba1"},"vehicle_type_id":"4","last_reported":1738962442,"current_range_meters":26800,"station_id":"ce4bhi12rcd13ifvqfq0","pricing_plan_id":"cebpf4jnsgd1na2vs0mg"},{"bike_id":"c6fc4b4a-5347-4905-8d96-67ea4d004656","system_id":"levelo_inurba_marseille","lat":43.23197,"lon":5.35541,"is_reserved":false,"is_disabled":false,"rental_uris":{"android":"levelo://app?vid=c6fc4b4a-5347-4905-8d96-67ea4d004656","ios":"levelo://app?vid=c6fc4b4a-5347-4905-8d96-67ea4d004656"},"vehicle_type_id":"4","last_reported":1738962442,"current_range_meters":9200,"station_id":"ce4bhu92rcd13ifvqi70","pricing_plan_id":"cebpf4jnsgd1na2vs0mg"},{"bike_id":"1da8b17b-ad28-4780-a711-431647c244ed","system_id":"levelo_inurba_marseille","lat":43.23962,"lon":5.36631,"is_reserved":false,"is_disabled":false,"rental_uris":{"android":"levelo://app?vid=1da8b17b-ad28-4780-a711-431647c244ed","ios":"levelo://app?vid=1da8b17b-ad28-4780-a711-431647c244ed"},"vehicle_type_id":"4","last_reported":1738962442,"current_range_meters":27600,"station_id":"ce4bhi12rcd13ifvqfp0","pricing_plan_id":"cebpf4jnsgd1na2vs0mg"},{"bike_id":"b1db3003-a515-433c-b006-a61b3558f325","system_id":"levelo_inurba_marseille","lat":43.30204,"lon":5.39473,"is_reserved":false,"is_disabled":true,"rental_uris":{"android":"levelo://app?vid=b1db3003-a515-433c-b006-a61b3558f325","ios":"levelo://app?vid=b1db3003-a515-433c-b006-a61b3558f325"},"vehicle_type_id":"4","last_reported":1738962442,"current_range_meters":38400,"station_id":"ce4bh0p2rcd13ifvqd70","pricing_plan_id":"cebpf4jnsgd1na2vs0mg"},{"bike_id":"e48be0c1-1097-4ff9-9c77-4cd65d6a2bea","system_id":"levelo_inurba_marseille","lat":43.29271,"lon":5.38456,"is_reserved":false,"is_disabled":false,"rental_uris":{"android":"levelo://app?vid=e48be0c1-1097-4ff9-9c77-4cd65d6a2bea","ios":"levelo://app?vid=e48be0c1-1097-4ff9-9c77-4cd65d6a2bea"},"vehicle_type_id":"4","last_reported":1738962442,"current_range_meters":27200,"station_id":"ce4bh692rcd13ifvqea0","pricing_plan_id":"cebpf4jnsgd1na2vs0mg"},{"bike_id":"ab75a80f-ad3c-4d82-b2d3-842c931bd38d","system_id":"levelo_inurba_marseille","lat":43.29515,"lon":5.39395,"is_reserved":false,"is_disabled":false,"rental_uris":{"android":"levelo://app?vid=ab75a80f-ad3c-4d82-b2d3-842c931bd38d","ios":"levelo://app?vid=ab75a80f-ad3c-4d82-b2d3-842c931bd38d"},"vehicle_type_id":"4","last_reported":1738962442,"current_range_meters":38800,"station_id":"ce4bh292rcd13ifvqdf0","pricing_plan_id":"cebpf4jnsgd1na2vs0mg"},{"bike_id":"734aa561-ad68-4e98-943f-9e006d2ddfa2","system_id":"levelo_inurba_marseille","lat":43.31319,"lon":5.39704,"is_reserved":false,"is_disabled":false,"rental_uris":{"android":"levelo://app?vid=734aa561-ad68-4e98-943f-9e006d2ddfa2","ios":"levelo://app?vid=734aa561-ad68-4e98-943f-9e006d2ddfa2"},"vehicle_type_id":"4","last_reported":1738962442,"current_range_meters":30800,"station_id":"ce4bgvp2rcd13ifvqcu0","pricing_plan_id":"cebpf4jnsgd1na2vs0mg"},{"bike_id":"92048128-7a92-4daa-a371-dfa471d7dc4e","system_id":"levelo_inurba_marseille","lat":43.29299,"lon":5.37167,"is_reserved":false,"is_disabled":false,"rental_uris":{"android":"levelo://app?vid=92048128-7a92-4daa-a371-dfa471d7dc4e","ios":"levelo://app?vid=92048128-7a92-4daa-a371-dfa471d7dc4e"},"vehicle_type_id":"4","last_reported":1738962442,"current_range_meters":14400,"station_id":"ce4bgh92rcd13ifvqb40","pricing_plan_id":"cebpf4jnsgd1na2vs0mg"},{"bike_id":"ef8d049c-d0df-4a1f-9f63-9a236c6c2471","system_id":"levelo_inurba_marseille","lat":43.27972,"lon":5.38761,"is_reserved":false,"is_disabled":false,"rental_uris":{"android":"levelo://app?vid=ef8d049c-d0df-4a1f-9f63-9a236c6c2471","ios":"levelo://app?vid=ef8d049c-d0df-4a1f-9f63-9a236c6c2471"},"vehicle_type_id":"4","last_reported":1738962442,"current_range_meters":33600,"station_id":"ce4bhg12rcd13ifvqf80","pricing_plan_id":"cebpf4jnsgd1na2vs0mg"},{"bike_id":"e408d721-1719-4f3b-bfb2-ee76b97560c7","system_id":"levelo_inurba_marseille","lat":43.24652,"lon":5.38923,"is_reserved":false,"is_disabled":false,"rental_uris":{"android":"levelo://app?vid=e408d721-1719-4f3b-bfb2-ee76b97560c7","ios":"levelo://app?vid=e408d721-1719-4f3b-bfb2-ee76b97560c7"},"vehicle_type_id":"4","last_reported":1738962442,"current_range_meters":38800,"station_id":"ce4bhg12rcd13ifvqf60","pricing_plan_id":"cebpf4jnsgd1na2vs0mg"},{"bike_id":"399d7b82-a26d-4e72-8f60-93811a584148","system_id":"levelo_inurba_marseille","lat":43.29536,"lon":5.38555,"is_reserved":false,"is_disabled":false,"rental_uris":{"android":"levelo://app?vid=399d7b82-a26d-4e72-8f60-93811a584148","ios":"levelo://app?vid=399d7b82-a26d-4e72-8f60-93811a584148"},"vehicle_type_id":"4","last_reported":1738962442,"current_range_meters":38800,"station_id":"ce4bgih2rcd13ifvqba0","pricing_plan_id":"cebpf4jnsgd1na2vs0mg"},{"bike_id":"5cffad1f-81a9-40bf-aff0-056a8966565a","system_id":"levelo_inurba_marseille","lat":43.30916,"lon":5.36866,"is_reserved":false,"is_disabled":false,"rental_uris":{"android":"levelo://app?vid=5cffad1f-81a9-40bf-aff0-056a8966565a","ios":"levelo://app?vid=5cffad1f-81a9-40bf-aff0-056a8966565a"},"vehicle_type_id":"4","last_reported":1738962442,"current_range_meters":33600,"station_id":"ce4bgn92rcd13ifvqbvg","pricing_plan_id":"cebpf4jnsgd1na2vs0mg"},{"bike_id":"b535402c-25ad-4274-bf8f-573a8931886f","system_id":"levelo_inurba_marseille","lat":43.33012,"lon":5.3903,"is_reserved":false,"is_disabled":false,"rental_uris":{"android":"levelo://app?vid=b535402c-25ad-4274-bf8f-573a8931886f","ios":"levelo://app?vid=b535402c-25ad-4274-bf8f-573a8931886f"},"vehicle_type_id":"4","last_reported":1738962442,"current_range_meters":39200,"station_id":"ce4bhr92rcd13ifvqhrg","pricing_plan_id":"cebpf4jnsgd1na2vs0mg"},{"bike_id":"c8467e20-c52a-4fa4-90f2-f69c646cb59f","system_id":"levelo_inurba_marseille","lat":43.30817,"lon":5.43535,"is_reserved":false,"is_disabled":false,"rental_uris":{"android":"levelo://app?vid=c8467e20-c52a-4fa4-90f2-f69c646cb59f","ios":"levelo://app?vid=c8467e20-c52a-4fa4-90f2-f69c646cb59f"},"vehicle_type_id":"4","last_reported":1738962442,"current_range_meters":31200,"station_id":"ce4bhph2rcd13ifvqheg","pricing_plan_id":"cebpf4jnsgd1na2vs0mg"},{"bike_id":"be40be85-6e30-4ba1-bde9-11e9b64acf34","system_id":"levelo_inurba_marseille","lat":43.2841,"lon":5.3751,"is_reserved":false,"is_disabled":false,"rental_uris":{"android":"levelo://app?vid=be40be85-6e30-4ba1-bde9-11e9b64acf34","ios":"levelo://app?vid=be40be85-6e30-4ba1-bde9-11e9b64acf34"},"vehicle_type_id":"4","last_reported":1738962442,"current_range_meters":34000,"station_id":"ce4bh412rcd13ifvqds0","pricing_plan_id":"cebpf4jnsgd1na2vs0mg"},{"bike_id":"478c59fe-432f-4789-ab40-d8a8d0f21ebb","system_id":"levelo_inurba_marseille","lat":43.30154,"lon":5.39861,"is_reserved":false,"is_disabled":false,"rental_uris":{"android":"levelo://app?vid=478c59fe-432f-4789-ab40-d8a8d0f21ebb","ios":"levelo://app?vid=478c59fe-432f-4789-ab40-d8a8d0f21ebb"},"vehicle_type_id":"4","last_reported":1738962442,"current_range_meters":38800,"station_id":"ce4bh0h2rcd13ifvqd40","pricing_plan_id":"cebpf4jnsgd1na2vs0mg"},{"bike_id":"8b7ff651-145e-4b6f-b73e-f6e79c9f6087","system_id":"levelo_inurba_marseille","lat":43.31164,"lon":5.38698,"is_reserved":false,"is_disabled":false,"rental_uris":{"android":"levelo://app?vid=8b7ff651-145e-4b6f-b73e-f6e79c9f6087","ios":"levelo://app?vid=8b7ff651-145e-4b6f-b73e-f6e79c9f6087"},"vehicle_type_id":"4","last_reported":1738962442,"current_range_meters":38000,"station_id":"ce4bgv12rcd13ifvqcp0","pricing_plan_id":"cebpf4jnsgd1na2vs0mg"},{"bike_id":"fd7f60dd-1b52-46f9-9b6b-de4b0fe7477f","system_id":"levelo_inurba_marseille","lat":43.27077,"lon":5.42272,"is_reserved":false,"is_disabled":true,"rental_uris":{"android":"levelo://app?vid=fd7f60dd-1b52-46f9-9b6b-de4b0fe7477f","ios":"levelo://app?vid=fd7f60dd-1b52-46f9-9b6b-de4b0fe7477f"},"vehicle_type_id":"4","last_reported":1738962442,"current_range_meters":38800,"station_id":"ce4bhk92rcd13ifvqgb0","pricing_plan_id":"cebpf4jnsgd1na2vs0mg"},{"bike_id":"9563d2a6-bf60-4758-bc3e-9491576f38e3","system_id":"levelo_inurba_marseille","lat":43.31633,"lon":5.38957,"is_reserved":false,"is_disabled":false,"rental_uris":{"android":"levelo://app?vid=9563d2a6-bf60-4758-bc3e-9491576f38e3","ios":"levelo://app?vid=9563d2a6-bf60-4758-bc3e-9491576f38e3"},"vehicle_type_id":"4","last_reported":1738962442,"current_range_meters":38000,"station_id":"","pricing_plan_id":"cebpf4jnsgd1na2vs0mg"},{"bike_id":"9bea31d2-acf5-4289-a24e-d8aef02f75cc","system_id":"levelo_inurba_marseille","lat":43.294204,"lon":5.38623,"is_reserved":false,"is_disabled":false,"rental_uris":{"android":"levelo://app?vid=9bea31d2-acf5-4289-a24e-d8aef02f75cc","ios":"levelo://app?vid=9bea31d2-acf5-4289-a24e-d8aef02f75cc"},"vehicle_type_id":"4","last_reported":1738962442,"current_range_meters":38800,"station_id":"ce4bh2h2rcd13ifvqdh0","pricing_plan_id":"cebpf4jnsgd1na2vs0mg"},{"bike_id":"befb5b6b-67f1-40f2-b4f1-f2e1c95c0f34","system_id":"levelo_inurba_marseille","lat":43.28819,"lon":5.35876,"is_reserved":false,"is_disabled":false,"rental_uris":{"android":"levelo://app?vid=befb5b6b-67f1-40f2-b4f1-f2e1c95c0f34","ios":"levelo://app?vid=befb5b6b-67f1-40f2-b4f1-f2e1c95c0f34"},"vehicle_type_id":"4","last_reported":1738962442,"current_range_meters":33600,"station_id":"ce4bhb12rcd13ifvqem0","pricing_plan_id":"cebpf4jnsgd1na2vs0mg"},{"bike_id":"0341a2f7-3c07-4616-a341-17df35d959d8","system_id":"levelo_inurba_marseille","lat":43.30937,"lon":5.40136,"is_reserved":false,"is_disabled":false,"rental_uris":{"android":"levelo://app?vid=0341a2f7-3c07-4616-a341-17df35d959d8","ios":"levelo://app?vid=0341a2f7-3c07-4616-a341-17df35d959d8"},"vehicle_type_id":"4","last_reported":1738962442,"current_range_meters":24000,"station_id":"ce4bgvp2rcd13ifvqct0","pricing_plan_id":"cebpf4jnsgd1na2vs0mg"},{"bike_id":"59903c59-2e9e-43b1-8a37-af2b6126a2d3","system_id":"levelo_inurba_marseille","lat":43.29316,"lon":5.37188,"is_reserved":false,"is_disabled":false,"rental_uris":{"android":"levelo://app?vid=59903c59-2e9e-43b1-8a37-af2b6126a2d3","ios":"levelo://app?vid=59903c59-2e9e-43b1-8a37-af2b6126a2d3"},"vehicle_type_id":"4","last_reported":1738962442,"current_range_meters":27200,"station_id":"ce4bgh92rcd13ifvqb40","pricing_plan_id":"cebpf4jnsgd1na2vs0mg"},{"bike_id":"48e4415f-4bfa-4dd7-b8c6-72b96454ae71","system_id":"levelo_inurba_marseille","lat":43.26807,"lon":5.40254,"is_reserved":false,"is_disabled":false,"rental_uris":{"android":"levelo://app?vid=48e4415f-4bfa-4dd7-b8c6-72b96454ae71","ios":"levelo://app?vid=48e4415f-4bfa-4dd7-b8c6-72b96454ae71"},"vehicle_type_id":"4","last_reported":1738962442,"current_range_meters":38800,"station_id":"ce501612rcd8frsf0b60","pricing_plan_id":"cebpf4jnsgd1na2vs0mg"},{"bike_id":"86e7fe57-f8b6-4306-adb2-c48a1d6d6515","system_id":"levelo_inurba_marseille","lat":43.25725,"lon":5.41111,"is_reserved":false,"is_disabled":false,"rental_uris":{"android":"levelo://app?vid=86e7fe57-f8b6-4306-adb2-c48a1d6d6515","ios":"levelo://app?vid=86e7fe57-f8b6-4306-adb2-c48a1d6d6515"},"vehicle_type_id":"4","last_reported":1738962442,"current_range_meters":38800,"station_id":"ce4bhkp2rcd13ifvqgd0","pricing_plan_id":"cebpf4jnsgd1na2vs0mg"},{"bike_id":"7d71b0af-1db3-4686-a687-f9db4ecccd95","system_id":"levelo_inurba_marseille","lat":43.30436,"lon":5.38891,"is_reserved":false,"is_disabled":false,"rental_uris":{"android":"levelo://app?vid=7d71b0af-1db3-4686-a687-f9db4ecccd95","ios":"levelo://app?vid=7d71b0af-1db3-4686-a687-f9db4ecccd95"},"vehicle_type_id":"4","last_reported":1738962442,"current_range_meters":36400,"station_id":"ce4bgk12rcd13ifvqbi0","pricing_plan_id":"cebpf4jnsgd1na2vs0mg"},{"bike_id":"20d6c88e-47e3-45a3-b6e5-c8978ffca51a","system_id":"levelo_inurba_marseille","lat":43.30299,"lon":5.3921,"is_reserved":false,"is_disabled":true,"rental_uris":{"android":"levelo://app?vid=20d6c88e-47e3-45a3-b6e5-c8978ffca51a","ios":"levelo://app?vid=20d6c88e-47e3-45a3-b6e5-c8978ffca51a"},"vehicle_type_id":"4","last_reported":1738962442,"current_range_meters":8400,"station_id":"ce4bgkh2rcd13ifvqbk0","pricing_plan_id":"cebpf4jnsgd1na2vs0mg"},{"bike_id":"2e7629af-07d3-4712-944b-9c2c492ddabb","system_id":"levelo_inurba_marseille","lat":43.29288,"lon":5.36843,"is_reserved":false,"is_disabled":false,"rental_uris":{"android":"levelo://app?vid=2e7629af-07d3-4712-944b-9c2c492ddabb","ios":"levelo://app?vid=2e7629af-07d3-4712-944b-9c2c492ddabb"},"vehicle_type_id":"4","last_reported":1738962442,"current_range_meters":31200,"station_id":"ce4bhbp2rcd13ifvqesg","pricing_plan_id":"cebpf4jnsgd1na2vs0mg"},{"bike_id":"be03eb0a-4597-4fef-8e89-e0a6de105fab","system_id":"levelo_inurba_marseille","lat":43.32346,"lon":5.40603,"is_reserved":false,"is_disabled":false,"rental_uris":{"android":"levelo://app?vid=be03eb0a-4597-4fef-8e89-e0a6de105fab","ios":"levelo://app?vid=be03eb0a-4597-4fef-8e89-e0a6de105fab"},"vehicle_type_id":"4","last_reported":1738962442,"current_range_meters":39200,"station_id":"ce4bhq92rcd13ifvqhjg","pricing_plan_id":"cebpf4jnsgd1na2vs0mg"},{"bike_id":"b45bfae6-be0f-45df-88eb-5e1c06313ae6","system_id":"levelo_inurba_marseille","lat":43.29531,"lon":5.38543,"is_reserved":false,"is_disabled":false,"rental_uris":{"android":"levelo://app?vid=b45bfae6-be0f-45df-88eb-5e1c06313ae6","ios":"levelo://app?vid=b45bfae6-be0f-45df-88eb-5e1c06313ae6"},"vehicle_type_id":"4","last_reported":1738962442,"current_range_meters":30000,"station_id":"ce4bgih2rcd13ifvqba0","pricing_plan_id":"cebpf4jnsgd1na2vs0mg"},{"bike_id":"e1f727f7-1e0b-4ed1-97d4-d8af8d0d301b","system_id":"levelo_inurba_marseille","lat":43.3189,"lon":5.40738,"is_reserved":false,"is_disabled":false,"rental_uris":{"android":"levelo://app?vid=e1f727f7-1e0b-4ed1-97d4-d8af8d0d301b","ios":"levelo://app?vid=e1f727f7-1e0b-4ed1-97d4-d8af8d0d301b"},"vehicle_type_id":"4","last_reported":1738962442,"current_range_meters":38000,"station_id":"ce4bhq12rcd13ifvqhig","pricing_plan_id":"cebpf4jnsgd1na2vs0mg"},{"bike_id":"f121b4f3-9ce7-4c6a-b725-2596a1176eb8","system_id":"levelo_inurba_marseille","lat":43.26495,"lon":5.39559,"is_reserved":false,"is_disabled":false,"rental_uris":{"android":"levelo://app?vid=f121b4f3-9ce7-4c6a-b725-2596a1176eb8","ios":"levelo://app?vid=f121b4f3-9ce7-4c6a-b725-2596a1176eb8"},"vehicle_type_id":"4","last_reported":1738962442,"current_range_meters":20400,"station_id":"ce4bhi12rcd13ifvqfq0","pricing_plan_id":"cebpf4jnsgd1na2vs0mg"},{"bike_id":"c6f92ca4-91f7-4b27-a97d-0ada5b4e29ae","system_id":"levelo_inurba_marseille","lat":43.24674,"lon":5.38169,"is_reserved":false,"is_disabled":false,"rental_uris":{"android":"levelo://app?vid=c6f92ca4-91f7-4b27-a97d-0ada5b4e29ae","ios":"levelo://app?vid=c6f92ca4-91f7-4b27-a97d-0ada5b4e29ae"},"vehicle_type_id":"4","last_reported":1738962442,"current_range_meters":28800,"station_id":"ce4bhih2rcd13ifvqfr0","pricing_plan_id":"cebpf4jnsgd1na2vs0mg"},{"bike_id":"791d19d3-582d-4768-b430-a039c7b84cfb","system_id":"levelo_inurba_marseille","lat":43.29528,"lon":5.39403,"is_reserved":false,"is_disabled":false,"rental_uris":{"android":"levelo://app?vid=791d19d3-582d-4768-b430-a039c7b84cfb","ios":"levelo://app?vid=791d19d3-582d-4768-b430-a039c7b84cfb"},"vehicle_type_id":"4","last_reported":1738962442,"current_range_meters":32800,"station_id":"ce4bh292rcd13ifvqdf0","pricing_plan_id":"cebpf4jnsgd1na2vs0mg"},{"bike_id":"2bdc30f2-b58a-4dbf-9890-eb5128508cce","system_id":"levelo_inurba_marseille","lat":43.28688,"lon":5.42523,"is_reserved":false,"is_disabled":true,"rental_uris":{"android":"levelo://app?vid=2bdc30f2-b58a-4dbf-9890-eb5128508cce","ios":"levelo://app?vid=2bdc30f2-b58a-4dbf-9890-eb5128508cce"},"vehicle_type_id":"4","last_reported":1738962442,"current_range_meters":1200,"station_id":"","pricing_plan_id":"cebpf4jnsgd1na2vs0mg"},{"bike_id":"21c23e3f-46f9-4595-9668-722a07efb801","system_id":"levelo_inurba_marseille","lat":43.29318,"lon":5.37193,"is_reserved":false,"is_disabled":false,"rental_uris":{"android":"levelo://app?vid=21c23e3f-46f9-4595-9668-722a07efb801","ios":"levelo://app?vid=21c23e3f-46f9-4595-9668-722a07efb801"},"vehicle_type_id":"4","last_reported":1738962442,"current_range_meters":32400,"station_id":"ce4bgh92rcd13ifvqb40","pricing_plan_id":"cebpf4jnsgd1na2vs0mg"},{"bike_id":"78ecc04f-c6b4-4a42-9dab-0f7e815391e1","system_id":"levelo_inurba_marseille","lat":43.29391,"lon":5.38645,"is_reserved":false,"is_disabled":false,"rental_uris":{"android":"levelo://app?vid=78ecc04f-c6b4-4a42-9dab-0f7e815391e1","ios":"levelo://app?vid=78ecc04f-c6b4-4a42-9dab-0f7e815391e1"},"vehicle_type_id":"4","last_reported":1738962442,"current_range_meters":38800,"station_id":"ce4bh2h2rcd13ifvqdh0","pricing_plan_id":"cebpf4jnsgd1na2vs0mg"},{"bike_id":"a72cdeb8-b07a-4fcc-a8c7-f3da7402cd9e","system_id":"levelo_inurba_marseille","lat":43.30911,"lon":5.36862,"is_reserved":false,"is_disabled":false,"rental_uris":{"android":"levelo://app?vid=a72cdeb8-b07a-4fcc-a8c7-f3da7402cd9e","ios":"levelo://app?vid=a72cdeb8-b07a-4fcc-a8c7-f3da7402cd9e"},"vehicle_type_id":"4","last_reported":1738962442,"current_range_meters":17600,"station_id":"ce4bgn92rcd13ifvqbvg","pricing_plan_id":"cebpf4jnsgd1na2vs0mg"},{"bike_id":"206b513f-1457-4ad3-a5d5-05a7d19db066","system_id":"levelo_inurba_marseille","lat":43.29262,"lon":5.38431,"is_reserved":false,"is_disabled":false,"rental_uris":{"android":"levelo://app?vid=206b513f-1457-4ad3-a5d5-05a7d19db066","ios":"levelo://app?vid=206b513f-1457-4ad3-a5d5-05a7d19db066"},"vehicle_type_id":"4","last_reported":1738962442,"current_range_meters":38800,"station_id":"ce4bh692rcd13ifvqea0","pricing_plan_id":"cebpf4jnsgd1na2vs0mg"},{"bike_id":"eab6a6fa-f488-43a5-80d5-f969b4b2f3f1","system_id":"levelo_inurba_marseille","lat":43.3118,"lon":5.38783,"is_reserved":false,"is_disabled":false,"rental_uris":{"android":"levelo://app?vid=eab6a6fa-f488-43a5-80d5-f969b4b2f3f1","ios":"levelo://app?vid=eab6a6fa-f488-43a5-80d5-f969b4b2f3f1"},"vehicle_type_id":"4","last_reported":1738962442,"current_range_meters":11200,"station_id":"ce4bgv12rcd13ifvqcp0","pricing_plan_id":"cebpf4jnsgd1na2vs0mg"},{"bike_id":"57a13a6d-a085-4a3f-be47-0d2914581713","system_id":"levelo_inurba_marseille","lat":43.31722,"lon":5.42413,"is_reserved":false,"is_disabled":false,"rental_uris":{"android":"levelo://app?vid=57a13a6d-a085-4a3f-be47-0d2914581713","ios":"levelo://app?vid=57a13a6d-a085-4a3f-be47-0d2914581713"},"vehicle_type_id":"4","last_reported":1738962442,"current_range_meters":30000,"station_id":"ce4bhp92rcd13ifvqhbg","pricing_plan_id":"cebpf4jnsgd1na2vs0mg"},{"bike_id":"3272d649-cbbb-43c7-9071-2e055392ed6f","system_id":"levelo_inurba_marseille","lat":43.295723,"lon":5.399728,"is_reserved":false,"is_disabled":false,"rental_uris":{"android":"levelo://app?vid=3272d649-cbbb-43c7-9071-2e055392ed6f","ios":"levelo://app?vid=3272d649-cbbb-43c7-9071-2e055392ed6f"},"vehicle_type_id":"4","last_reported":1738962442,"current_range_meters":38000,"station_id":"ce4bh0h2rcd13ifvqd50","pricing_plan_id":"cebpf4jnsgd1na2vs0mg"},{"bike_id":"c5789181-d252-4c46-b75d-908f3a6a38fe","system_id":"levelo_inurba_marseille","lat":43.33773,"lon":5.39187,"is_reserved":false,"is_disabled":false,"rental_uris":{"android":"levelo://app?vid=c5789181-d252-4c46-b75d-908f3a6a38fe","ios":"levelo://app?vid=c5789181-d252-4c46-b75d-908f3a6a38fe"},"vehicle_type_id":"4","last_reported":1738962442,"current_range_meters":38800,"station_id":"ce4bhr92rcd13ifvqhsg","pricing_plan_id":"cebpf4jnsgd1na2vs0mg"},{"bike_id":"1421091f-d9bd-4f1c-be63-477178bb18b4","system_id":"levelo_inurba_marseille","lat":43.26677,"lon":5.38269,"is_reserved":false,"is_disabled":false,"rental_uris":{"android":"levelo://app?vid=1421091f-d9bd-4f1c-be63-477178bb18b4","ios":"levelo://app?vid=1421091f-d9bd-4f1c-be63-477178bb18b4"},"vehicle_type_id":"4","last_reported":1738962442,"current_range_meters":35600,"station_id":"ce4bhg92rcd13ifvqf90","pricing_plan_id":"cebpf4jnsgd1na2vs0mg"},{"bike_id":"d8366f96-842f-49f2-85e7-1920941ffc50","system_id":"levelo_inurba_marseille","lat":43.30909,"lon":5.36857,"is_reserved":false,"is_disabled":false,"rental_uris":{"android":"levelo://app?vid=d8366f96-842f-49f2-85e7-1920941ffc50","ios":"levelo://app?vid=d8366f96-842f-49f2-85e7-1920941ffc50"},"vehicle_type_id":"4","last_reported":1738962442,"current_range_meters":28400,"station_id":"ce4bgn92rcd13ifvqbvg","pricing_plan_id":"cebpf4jnsgd1na2vs0mg"},{"bike_id":"b8a288ef-4349-437d-a22a-753084f41b03","system_id":"levelo_inurba_marseille","lat":43.31776,"lon":5.3908,"is_reserved":false,"is_disabled":false,"rental_uris":{"android":"levelo://app?vid=b8a288ef-4349-437d-a22a-753084f41b03","ios":"levelo://app?vid=b8a288ef-4349-437d-a22a-753084f41b03"},"vehicle_type_id":"4","last_reported":1738962442,"current_range_meters":38000,"station_id":"","pricing_plan_id":"cebpf4jnsgd1na2vs0mg"},{"bike_id":"4b346763-af4b-47bb-8f20-016bb4fee202","system_id":"levelo_inurba_marseille","lat":43.27812,"lon":5.40706,"is_reserved":false,"is_disabled":false,"rental_uris":{"android":"levelo://app?vid=4b346763-af4b-47bb-8f20-016bb4fee202","ios":"levelo://app?vid=4b346763-af4b-47bb-8f20-016bb4fee202"},"vehicle_type_id":"4","last_reported":1738962442,"current_range_meters":39200,"station_id":"ce4bhnh2rcd13ifvqgtg","pricing_plan_id":"cebpf4jnsgd1na2vs0mg"},{"bike_id":"718600f8-0ec1-4972-8c4d-d308643f73ea","system_id":"levelo_inurba_marseille","lat":43.28938,"lon":5.36637,"is_reserved":false,"is_disabled":false,"rental_uris":{"android":"levelo://app?vid=718600f8-0ec1-4972-8c4d-d308643f73ea","ios":"levelo://app?vid=718600f8-0ec1-4972-8c4d-d308643f73ea"},"vehicle_type_id":"4","last_reported":1738962442,"current_range_meters":24800,"station_id":"ce4bhap2rcd13ifvqek0","pricing_plan_id":"cebpf4jnsgd1na2vs0mg"},{"bike_id":"bf28d705-e090-4e22-9afe-af17b184d532","system_id":"levelo_inurba_marseille","lat":43.29312,"lon":5.37193,"is_reserved":false,"is_disabled":false,"rental_uris":{"android":"levelo://app?vid=bf28d705-e090-4e22-9afe-af17b184d532","ios":"levelo://app?vid=bf28d705-e090-4e22-9afe-af17b184d532"},"vehicle_type_id":"4","last_reported":1738962442,"current_range_meters":28800,"station_id":"ce4bgh92rcd13ifvqb40","pricing_plan_id":"cebpf4jnsgd1na2vs0mg"},{"bike_id":"09710415-4dac-4e4c-a5b2-403eafa59e89","system_id":"levelo_inurba_marseille","lat":43.23963,"lon":5.36636,"is_reserved":false,"is_disabled":false,"rental_uris":{"android":"levelo://app?vid=09710415-4dac-4e4c-a5b2-403eafa59e89","ios":"levelo://app?vid=09710415-4dac-4e4c-a5b2-403eafa59e89"},"vehicle_type_id":"4","last_reported":1738962442,"current_range_meters":3600,"station_id":"ce4bhi12rcd13ifvqfp0","pricing_plan_id":"cebpf4jnsgd1na2vs0mg"},{"bike_id":"7ca09130-b2d3-4ce5-9826-53f7b9409b5b","system_id":"levelo_inurba_marseille","lat":43.29266,"lon":5.38441,"is_reserved":false,"is_disabled":false,"rental_uris":{"android":"levelo://app?vid=7ca09130-b2d3-4ce5-9826-53f7b9409b5b","ios":"levelo://app?vid=7ca09130-b2d3-4ce5-9826-53f7b9409b5b"},"vehicle_type_id":"4","last_reported":1738962442,"current_range_meters":20000,"station_id":"ce4bh692rcd13ifvqea0","pricing_plan_id":"cebpf4jnsgd1na2vs0mg"},{"bike_id":"71f5853d-8df9-4a76-ac94-4e72a4a00da7","system_id":"levelo_inurba_marseille","lat":43.31069,"lon":5.3835,"is_reserved":false,"is_disabled":false,"rental_uris":{"android":"levelo://app?vid=71f5853d-8df9-4a76-ac94-4e72a4a00da7","ios":"levelo://app?vid=71f5853d-8df9-4a76-ac94-4e72a4a00da7"},"vehicle_type_id":"4","last_reported":1738962442,"current_range_meters":29600,"station_id":"ce4bgv92rcd13ifvqcr0","pricing_plan_id":"cebpf4jnsgd1na2vs0mg"},{"bike_id":"9df291fb-1aaa-46e9-b45f-323e94d6df84","system_id":"levelo_inurba_marseille","lat":43.29619,"lon":5.37142,"is_reserved":false,"is_disabled":false,"rental_uris":{"android":"levelo://app?vid=9df291fb-1aaa-46e9-b45f-323e94d6df84","ios":"levelo://app?vid=9df291fb-1aaa-46e9-b45f-323e94d6df84"},"vehicle_type_id":"4","last_reported":1738962442,"current_range_meters":36000,"station_id":"ce4bgnh2rcd13ifvqc0g","pricing_plan_id":"cebpf4jnsgd1na2vs0mg"},{"bike_id":"33f37d6b-08fe-4642-b4da-79d2133e4243","system_id":"levelo_inurba_marseille","lat":43.27343,"lon":5.4226,"is_reserved":false,"is_disabled":true,"rental_uris":{"android":"levelo://app?vid=33f37d6b-08fe-4642-b4da-79d2133e4243","ios":"levelo://app?vid=33f37d6b-08fe-4642-b4da-79d2133e4243"},"vehicle_type_id":"4","last_reported":1738962442,"current_range_meters":0,"station_id":"","pricing_plan_id":"cebpf4jnsgd1na2vs0mg"},{"bike_id":"118b1d9a-bc00-428d-ac60-6949e2e1ff6b","system_id":"levelo_inurba_marseille","lat":43.24801,"lon":5.37445,"is_reserved":false,"is_disabled":false,"rental_uris":{"android":"levelo://app?vid=118b1d9a-bc00-428d-ac60-6949e2e1ff6b","ios":"levelo://app?vid=118b1d9a-bc00-428d-ac60-6949e2e1ff6b"},"vehicle_type_id":"4","last_reported":1738962442,"current_range_meters":36400,"station_id":"ce4bhgh2rcd13ifvqfb0","pricing_plan_id":"cebpf4jnsgd1na2vs0mg"},{"bike_id":"76c774d1-e263-4dbb-8fbe-2a8b431bf828","system_id":"levelo_inurba_marseille","lat":43.29515,"lon":5.39016,"is_reserved":false,"is_disabled":false,"rental_uris":{"android":"levelo://app?vid=76c774d1-e263-4dbb-8fbe-2a8b431bf828","ios":"levelo://app?vid=76c774d1-e263-4dbb-8fbe-2a8b431bf828"},"vehicle_type_id":"4","last_reported":1738962442,"current_range_meters":38800,"station_id":"ce4bh3p2rcd13ifvqdp0","pricing_plan_id":"cebpf4jnsgd1na2vs0mg"},{"bike_id":"c1011d45-0e30-48f4-9c83-9de4a4d17063","system_id":"levelo_inurba_marseille","lat":43.29401,"lon":5.4283,"is_reserved":false,"is_disabled":false,"rental_uris":{"android":"levelo://app?vid=c1011d45-0e30-48f4-9c83-9de4a4d17063","ios":"levelo://app?vid=c1011d45-0e30-48f4-9c83-9de4a4d17063"},"vehicle_type_id":"4","last_reported":1738962442,"current_range_meters":19600,"station_id":"","pricing_plan_id":"cebpf4jnsgd1na2vs0mg"},{"bike_id":"1f55eb06-2da6-4b79-8af3-3f81d5c39dc1","system_id":"levelo_inurba_marseille","lat":43.28825,"lon":5.380393,"is_reserved":false,"is_disabled":false,"rental_uris":{"android":"levelo://app?vid=1f55eb06-2da6-4b79-8af3-3f81d5c39dc1","ios":"levelo://app?vid=1f55eb06-2da6-4b79-8af3-3f81d5c39dc1"},"vehicle_type_id":"4","last_reported":1738962442,"current_range_meters":31200,"station_id":"","pricing_plan_id":"cebpf4jnsgd1na2vs0mg"},{"bike_id":"d94da8e2-a1f1-46e4-bb51-ac3d4a761980","system_id":"levelo_inurba_marseille","lat":43.25836,"lon":5.39452,"is_reserved":false,"is_disabled":false,"rental_uris":{"android":"levelo://app?vid=d94da8e2-a1f1-46e4-bb51-ac3d4a761980","ios":"levelo://app?vid=d94da8e2-a1f1-46e4-bb51-ac3d4a761980"},"vehicle_type_id":"4","last_reported":1738962442,"current_range_meters":38800,"station_id":"ce4bhip2rcd13ifvqft0","pricing_plan_id":"cebpf4jnsgd1na2vs0mg"},{"bike_id":"dd3cf04a-9788-47c0-8399-50f8ecb7d4e0","system_id":"levelo_inurba_marseille","lat":43.29281,"lon":5.37442,"is_reserved":false,"is_disabled":false,"rental_uris":{"android":"levelo://app?vid=dd3cf04a-9788-47c0-8399-50f8ecb7d4e0","ios":"levelo://app?vid=dd3cf04a-9788-47c0-8399-50f8ecb7d4e0"},"vehicle_type_id":"4","last_reported":1738962442,"current_range_meters":35600,"station_id":"ce4bgi12rcd13ifvqb70","pricing_plan_id":"cebpf4jnsgd1na2vs0mg"},{"bike_id":"616062e4-19db-444e-bc13-a16a639c15cb","system_id":"levelo_inurba_marseille","lat":43.30682,"lon":5.40075,"is_reserved":false,"is_disabled":true,"rental_uris":{"android":"levelo://app?vid=616062e4-19db-444e-bc13-a16a639c15cb","ios":"levelo://app?vid=616062e4-19db-444e-bc13-a16a639c15cb"},"vehicle_type_id":"4","last_reported":1738962442,"current_range_meters":6800,"station_id":"ce4bh112rcd13ifvqda0","pricing_plan_id":"cebpf4jnsgd1na2vs0mg"},{"bike_id":"adea3fe0-0d5f-493f-bc7a-8db19cd779cc","system_id":"levelo_inurba_marseille","lat":43.26211,"lon":5.37917,"is_reserved":false,"is_disabled":false,"rental_uris":{"android":"levelo://app?vid=adea3fe0-0d5f-493f-bc7a-8db19cd779cc","ios":"levelo://app?vid=adea3fe0-0d5f-493f-bc7a-8db19cd779cc"},"vehicle_type_id":"4","last_reported":1738962442,"current_range_meters":36000,"station_id":"ce4bhjp2rcd13ifvqg90","pricing_plan_id":"cebpf4jnsgd1na2vs0mg"},{"bike_id":"6a65a071-9271-4178-a426-fd4e98d0b10e","system_id":"levelo_inurba_marseille","lat":43.26801,"lon":5.39414,"is_reserved":false,"is_disabled":false,"rental_uris":{"android":"levelo://app?vid=6a65a071-9271-4178-a426-fd4e98d0b10e","ios":"levelo://app?vid=6a65a071-9271-4178-a426-fd4e98d0b10e"},"vehicle_type_id":"4","last_reported":1738962442,"current_range_meters":26800,"station_id":"ce4bhh12rcd13ifvqfg0","pricing_plan_id":"cebpf4jnsgd1na2vs0mg"},{"bike_id":"889ef476-f99b-42ff-95f8-28ea11857507","system_id":"levelo_inurba_marseille","lat":43.239668,"lon":5.366243,"is_reserved":false,"is_disabled":false,"rental_uris":{"android":"levelo://app?vid=889ef476-f99b-42ff-95f8-28ea11857507","ios":"levelo://app?vid=889ef476-f99b-42ff-95f8-28ea11857507"},"vehicle_type_id":"4","last_reported":1738962442,"current_range_meters":34800,"station_id":"ce4bhi12rcd13ifvqfp0","pricing_plan_id":"cebpf4jnsgd1na2vs0mg"},{"bike_id":"2e45d347-f2a9-4c8e-b5da-d3e56e0bf649","system_id":"levelo_inurba_marseille","lat":43.23194,"lon":5.39987,"is_reserved":false,"is_disabled":false,"rental_uris":{"android":"levelo://app?vid=2e45d347-f2a9-4c8e-b5da-d3e56e0bf649","ios":"levelo://app?vid=2e45d347-f2a9-4c8e-b5da-d3e56e0bf649"},"vehicle_type_id":"4","last_reported":1738962442,"current_range_meters":9600,"station_id":"ce4bhn12rcd13ifvqgqg","pricing_plan_id":"cebpf4jnsgd1na2vs0mg"},{"bike_id":"aee60cfb-7586-4f94-9113-47cfd9d66739","system_id":"levelo_inurba_marseille","lat":43.28158,"lon":5.42637,"is_reserved":false,"is_disabled":false,"rental_uris":{"android":"levelo://app?vid=aee60cfb-7586-4f94-9113-47cfd9d66739","ios":"levelo://app?vid=aee60cfb-7586-4f94-9113-47cfd9d66739"},"vehicle_type_id":"4","last_reported":1738962442,"current_range_meters":38800,"station_id":"ce4bhnh2rcd13ifvqgug","pricing_plan_id":"cebpf4jnsgd1na2vs0mg"},{"bike_id":"4f1c2621-d910-4c29-b777-f4f4a28aa8f4","system_id":"levelo_inurba_marseille","lat":43.2925,"lon":5.38433,"is_reserved":false,"is_disabled":false,"rental_uris":{"android":"levelo://app?vid=4f1c2621-d910-4c29-b777-f4f4a28aa8f4","ios":"levelo://app?vid=4f1c2621-d910-4c29-b777-f4f4a28aa8f4"},"vehicle_type_id":"4","last_reported":1738962442,"current_range_meters":28400,"station_id":"ce4bh692rcd13ifvqea0","pricing_plan_id":"cebpf4jnsgd1na2vs0mg"},{"bike_id":"fd741a2c-6090-4746-8e0c-a3bcf67c55a8","system_id":"levelo_inurba_marseille","lat":43.23147,"lon":5.43701,"is_reserved":false,"is_disabled":true,"rental_uris":{"android":"levelo://app?vid=fd741a2c-6090-4746-8e0c-a3bcf67c55a8","ios":"levelo://app?vid=fd741a2c-6090-4746-8e0c-a3bcf67c55a8"},"vehicle_type_id":"4","last_reported":1738962442,"current_range_meters":0,"station_id":"ce4bhmp2rcd13ifvqgog","pricing_plan_id":"cebpf4jnsgd1na2vs0mg"},{"bike_id":"f2df57fd-48fb-42b4-9b53-5e639c9b06ad","system_id":"levelo_inurba_marseille","lat":43.32372,"lon":5.38888,"is_reserved":false,"is_disabled":false,"rental_uris":{"android":"levelo://app?vid=f2df57fd-48fb-42b4-9b53-5e639c9b06ad","ios":"levelo://app?vid=f2df57fd-48fb-42b4-9b53-5e639c9b06ad"},"vehicle_type_id":"4","last_reported":1738962442,"current_range_meters":36800,"station_id":"ce4bhqp2rcd13ifvqhog","pricing_plan_id":"cebpf4jnsgd1na2vs0mg"},{"bike_id":"0e92fc97-fe6e-4177-a272-1378435648dd","system_id":"levelo_inurba_marseille","lat":43.29531,"lon":5.38542,"is_reserved":false,"is_disabled":false,"rental_uris":{"android":"levelo://app?vid=0e92fc97-fe6e-4177-a272-1378435648dd","ios":"levelo://app?vid=0e92fc97-fe6e-4177-a272-1378435648dd"},"vehicle_type_id":"4","last_reported":1738962442,"current_range_meters":36000,"station_id":"ce4bgih2rcd13ifvqba0","pricing_plan_id":"cebpf4jnsgd1na2vs0mg"},{"bike_id":"0db2bfd7-2ca1-4f77-9597-ebb3b2c72fef","system_id":"levelo_inurba_marseille","lat":43.27372,"lon":5.3625,"is_reserved":false,"is_disabled":false,"rental_uris":{"android":"levelo://app?vid=0db2bfd7-2ca1-4f77-9597-ebb3b2c72fef","ios":"levelo://app?vid=0db2bfd7-2ca1-4f77-9597-ebb3b2c72fef"},"vehicle_type_id":"4","last_reported":1738962442,"current_range_meters":20000,"station_id":"ce4bhbh2rcd13ifvqeo0","pricing_plan_id":"cebpf4jnsgd1na2vs0mg"},{"bike_id":"502f7ebe-a302-4fa3-af3c-3dcd436b8b7d","system_id":"levelo_inurba_marseille","lat":43.28683,"lon":5.38662,"is_reserved":false,"is_disabled":false,"rental_uris":{"android":"levelo://app?vid=502f7ebe-a302-4fa3-af3c-3dcd436b8b7d","ios":"levelo://app?vid=502f7ebe-a302-4fa3-af3c-3dcd436b8b7d"},"vehicle_type_id":"4","last_reported":1738962442,"current_range_meters":9600,"station_id":"ce4bh492rcd13ifvqdug","pricing_plan_id":"cebpf4jnsgd1na2vs0mg"},{"bike_id":"59db9156-837c-4bef-bdf0-6cb05d00fb23","system_id":"levelo_inurba_marseille","lat":43.241673,"lon":5.363985,"is_reserved":false,"is_disabled":false,"rental_uris":{"android":"levelo://app?vid=59db9156-837c-4bef-bdf0-6cb05d00fb23","ios":"levelo://app?vid=59db9156-837c-4bef-bdf0-6cb05d00fb23"},"vehicle_type_id":"4","last_reported":1738962442,"current_range_meters":30000,"station_id":"cpo36qri1sfpv3e86is0","pricing_plan_id":"cebpf4jnsgd1na2vs0mg"},{"bike_id":"da2d8c01-630b-457d-a9b4-7854372e8eba","system_id":"levelo_inurba_marseille","lat":43.30442,"lon":5.36799,"is_reserved":false,"is_disabled":false,"rental_uris":{"android":"levelo://app?vid=da2d8c01-630b-457d-a9b4-7854372e8eba","ios":"levelo://app?vid=da2d8c01-630b-457d-a9b4-7854372e8eba"},"vehicle_type_id":"4","last_reported":1738962442,"current_range_meters":22400,"station_id":"","pricing_plan_id":"cebpf4jnsgd1na2vs0mg"},{"bike_id":"1d47de60-1649-469c-a5d2-0c264dcc8228","system_id":"levelo_inurba_marseille","lat":43.30901,"lon":5.36858,"is_reserved":false,"is_disabled":false,"rental_uris":{"android":"levelo://app?vid=1d47de60-1649-469c-a5d2-0c264dcc8228","ios":"levelo://app?vid=1d47de60-1649-469c-a5d2-0c264dcc8228"},"vehicle_type_id":"4","last_reported":1738962442,"current_range_meters":12800,"station_id":"ce4bgn92rcd13ifvqbvg","pricing_plan_id":"cebpf4jnsgd1na2vs0mg"},{"bike_id":"19c91191-64ee-4803-94d7-14a4a66340df","system_id":"levelo_inurba_marseille","lat":43.31711,"lon":5.42394,"is_reserved":false,"is_disabled":true,"rental_uris":{"android":"levelo://app?vid=19c91191-64ee-4803-94d7-14a4a66340df","ios":"levelo://app?vid=19c91191-64ee-4803-94d7-14a4a66340df"},"vehicle_type_id":"4","last_reported":1738962442,"current_range_meters":0,"station_id":"ce4bhp92rcd13ifvqhbg","pricing_plan_id":"cebpf4jnsgd1na2vs0mg"},{"bike_id":"253b4999-41c5-4f79-8ef7-b17022cf04e3","system_id":"levelo_inurba_marseille","lat":43.33019,"lon":5.38985,"is_reserved":false,"is_disabled":false,"rental_uris":{"android":"levelo://app?vid=253b4999-41c5-4f79-8ef7-b17022cf04e3","ios":"levelo://app?vid=253b4999-41c5-4f79-8ef7-b17022cf04e3"},"vehicle_type_id":"4","last_reported":1738962442,"current_range_meters":37600,"station_id":"ce4bhr92rcd13ifvqhrg","pricing_plan_id":"cebpf4jnsgd1na2vs0mg"},{"bike_id":"426e09ee-9e79-4472-8ad7-7e9f8628bd00","system_id":"levelo_inurba_marseille","lat":43.24661,"lon":5.38178,"is_reserved":false,"is_disabled":false,"rental_uris":{"android":"levelo://app?vid=426e09ee-9e79-4472-8ad7-7e9f8628bd00","ios":"levelo://app?vid=426e09ee-9e79-4472-8ad7-7e9f8628bd00"},"vehicle_type_id":"4","last_reported":1738962442,"current_range_meters":10800,"station_id":"ce4bhih2rcd13ifvqfr0","pricing_plan_id":"cebpf4jnsgd1na2vs0mg"},{"bike_id":"93370b7f-41fe-4a83-8105-53eab335a1f0","system_id":"levelo_inurba_marseille","lat":43.30259,"lon":5.40065,"is_reserved":false,"is_disabled":false,"rental_uris":{"android":"levelo://app?vid=93370b7f-41fe-4a83-8105-53eab335a1f0","ios":"levelo://app?vid=93370b7f-41fe-4a83-8105-53eab335a1f0"},"vehicle_type_id":"4","last_reported":1738962442,"current_range_meters":38800,"station_id":"ce4bgvh2rcd13ifvqcs0","pricing_plan_id":"cebpf4jnsgd1na2vs0mg"},{"bike_id":"1720df93-f265-48f1-8109-1d51a368c63b","system_id":"levelo_inurba_marseille","lat":43.28665,"lon":5.36355,"is_reserved":false,"is_disabled":false,"rental_uris":{"android":"levelo://app?vid=1720df93-f265-48f1-8109-1d51a368c63b","ios":"levelo://app?vid=1720df93-f265-48f1-8109-1d51a368c63b"},"vehicle_type_id":"4","last_reported":1738962442,"current_range_meters":29600,"station_id":"ce4bhah2rcd13ifvqej0","pricing_plan_id":"cebpf4jnsgd1na2vs0mg"},{"bike_id":"5f853f80-02d7-40e2-8d62-b066ffd24559","system_id":"levelo_inurba_marseille","lat":43.27969,"lon":5.38761,"is_reserved":false,"is_disabled":false,"rental_uris":{"android":"levelo://app?vid=5f853f80-02d7-40e2-8d62-b066ffd24559","ios":"levelo://app?vid=5f853f80-02d7-40e2-8d62-b066ffd24559"},"vehicle_type_id":"4","last_reported":1738962442,"current_range_meters":38400,"station_id":"ce4bhg12rcd13ifvqf80","pricing_plan_id":"cebpf4jnsgd1na2vs0mg"},{"bike_id":"4e0b88b7-802a-44d7-8ca8-f331fc880877","system_id":"levelo_inurba_marseille","lat":43.24546,"lon":5.39531,"is_reserved":false,"is_disabled":false,"rental_uris":{"android":"levelo://app?vid=4e0b88b7-802a-44d7-8ca8-f331fc880877","ios":"levelo://app?vid=4e0b88b7-802a-44d7-8ca8-f331fc880877"},"vehicle_type_id":"4","last_reported":1738962442,"current_range_meters":20400,"station_id":"ce4bhlp2rcd13ifvqgjg","pricing_plan_id":"cebpf4jnsgd1na2vs0mg"},{"bike_id":"63502e7d-71b3-44d6-b82d-6352b6e3809f","system_id":"levelo_inurba_marseille","lat":43.25833,"lon":5.394358,"is_reserved":false,"is_disabled":false,"rental_uris":{"android":"levelo://app?vid=63502e7d-71b3-44d6-b82d-6352b6e3809f","ios":"levelo://app?vid=63502e7d-71b3-44d6-b82d-6352b6e3809f"},"vehicle_type_id":"4","last_reported":1738962442,"current_range_meters":35600,"station_id":"ce4bhip2rcd13ifvqft0","pricing_plan_id":"cebpf4jnsgd1na2vs0mg"},{"bike_id":"54bc081f-58f2-4ed7-bb64-5dac5c7e1c26","system_id":"levelo_inurba_marseille","lat":43.27614,"lon":5.36113,"is_reserved":false,"is_disabled":false,"rental_uris":{"android":"levelo://app?vid=54bc081f-58f2-4ed7-bb64-5dac5c7e1c26","ios":"levelo://app?vid=54bc081f-58f2-4ed7-bb64-5dac5c7e1c26"},"vehicle_type_id":"4","last_reported":1738962442,"current_range_meters":18000,"station_id":"ce4bgj92rcd13ifvqbe0","pricing_plan_id":"cebpf4jnsgd1na2vs0mg"},{"bike_id":"375e0cd2-469f-4762-942a-816fe40f9032","system_id":"levelo_inurba_marseille","lat":43.309146,"lon":5.368573,"is_reserved":false,"is_disabled":false,"rental_uris":{"android":"levelo://app?vid=375e0cd2-469f-4762-942a-816fe40f9032","ios":"levelo://app?vid=375e0cd2-469f-4762-942a-816fe40f9032"},"vehicle_type_id":"4","last_reported":1738962442,"current_range_meters":17200,"station_id":"ce4bgn92rcd13ifvqbvg","pricing_plan_id":"cebpf4jnsgd1na2vs0mg"},{"bike_id":"5971bd83-9ba2-4f29-b63d-4da967e98667","system_id":"levelo_inurba_marseille","lat":43.25586,"lon":5.3824,"is_reserved":false,"is_disabled":false,"rental_uris":{"android":"levelo://app?vid=5971bd83-9ba2-4f29-b63d-4da967e98667","ios":"levelo://app?vid=5971bd83-9ba2-4f29-b63d-4da967e98667"},"vehicle_type_id":"4","last_reported":1738962442,"current_range_meters":38400,"station_id":"ce4bhih2rcd13ifvqfs0","pricing_plan_id":"cebpf4jnsgd1na2vs0mg"},{"bike_id":"5d1dacf3-3fa1-40ba-8373-ce163dd2d283","system_id":"levelo_inurba_marseille","lat":43.26197,"lon":5.3795,"is_reserved":false,"is_disabled":false,"rental_uris":{"android":"levelo://app?vid=5d1dacf3-3fa1-40ba-8373-ce163dd2d283","ios":"levelo://app?vid=5d1dacf3-3fa1-40ba-8373-ce163dd2d283"},"vehicle_type_id":"4","last_reported":1738962442,"current_range_meters":38800,"station_id":"ce4bhjp2rcd13ifvqg90","pricing_plan_id":"cebpf4jnsgd1na2vs0mg"},{"bike_id":"37db5fc9-0f62-46fc-91e6-628868788ccc","system_id":"levelo_inurba_marseille","lat":43.29001,"lon":5.35604,"is_reserved":false,"is_disabled":false,"rental_uris":{"android":"levelo://app?vid=37db5fc9-0f62-46fc-91e6-628868788ccc","ios":"levelo://app?vid=37db5fc9-0f62-46fc-91e6-628868788ccc"},"vehicle_type_id":"4","last_reported":1738962442,"current_range_meters":38800,"station_id":"ce4bhb92rcd13ifvqen0","pricing_plan_id":"cebpf4jnsgd1na2vs0mg"},{"bike_id":"6ff781d1-2621-44d1-b299-83b571f09432","system_id":"levelo_inurba_marseille","lat":43.34068,"lon":5.38509,"is_reserved":false,"is_disabled":false,"rental_uris":{"android":"levelo://app?vid=6ff781d1-2621-44d1-b299-83b571f09432","ios":"levelo://app?vid=6ff781d1-2621-44d1-b299-83b571f09432"},"vehicle_type_id":"4","last_reported":1738962442,"current_range_meters":6800,"station_id":"","pricing_plan_id":"cebpf4jnsgd1na2vs0mg"},{"bike_id":"a2e733be-b3e3-470d-b20e-7d85b62390d1","system_id":"levelo_inurba_marseille","lat":43.3008,"lon":5.39082,"is_reserved":false,"is_disabled":false,"rental_uris":{"android":"levelo://app?vid=a2e733be-b3e3-470d-b20e-7d85b62390d1","ios":"levelo://app?vid=a2e733be-b3e3-470d-b20e-7d85b62390d1"},"vehicle_type_id":"4","last_reported":1738962442,"current_range_meters":24400,"station_id":"ce4bh192rcd13ifvqdb0","pricing_plan_id":"cebpf4jnsgd1na2vs0mg"},{"bike_id":"175d1a11-70b9-4ca8-ad4c-a2d2305783e3","system_id":"levelo_inurba_marseille","lat":43.28665,"lon":5.36356,"is_reserved":false,"is_disabled":false,"rental_uris":{"android":"levelo://app?vid=175d1a11-70b9-4ca8-ad4c-a2d2305783e3","ios":"levelo://app?vid=175d1a11-70b9-4ca8-ad4c-a2d2305783e3"},"vehicle_type_id":"4","last_reported":1738962442,"current_range_meters":30800,"station_id":"ce4bhah2rcd13ifvqej0","pricing_plan_id":"cebpf4jnsgd1na2vs0mg"},{"bike_id":"2e7bd61f-e5b8-4f15-8770-276e298dc684","system_id":"levelo_inurba_marseille","lat":43.30358,"lon":5.41882,"is_reserved":false,"is_disabled":false,"rental_uris":{"android":"levelo://app?vid=2e7bd61f-e5b8-4f15-8770-276e298dc684","ios":"levelo://app?vid=2e7bd61f-e5b8-4f15-8770-276e298dc684"},"vehicle_type_id":"4","last_reported":1738962442,"current_range_meters":36000,"station_id":"ce4bhop2rcd13ifvqh7g","pricing_plan_id":"cebpf4jnsgd1na2vs0mg"},{"bike_id":"7abed690-08ef-45b9-9f1c-53575137024f","system_id":"levelo_inurba_marseille","lat":43.28037,"lon":5.36944,"is_reserved":false,"is_disabled":false,"rental_uris":{"android":"levelo://app?vid=7abed690-08ef-45b9-9f1c-53575137024f","ios":"levelo://app?vid=7abed690-08ef-45b9-9f1c-53575137024f"},"vehicle_type_id":"4","last_reported":1738962442,"current_range_meters":39200,"station_id":"ce4bha12rcd13ifvqef0","pricing_plan_id":"cebpf4jnsgd1na2vs0mg"},{"bike_id":"8bec6f5e-e450-4c2b-8557-aced9db82d7a","system_id":"levelo_inurba_marseille","lat":43.25727,"lon":5.41116,"is_reserved":false,"is_disabled":false,"rental_uris":{"android":"levelo://app?vid=8bec6f5e-e450-4c2b-8557-aced9db82d7a","ios":"levelo://app?vid=8bec6f5e-e450-4c2b-8557-aced9db82d7a"},"vehicle_type_id":"4","last_reported":1738962442,"current_range_meters":38000,"station_id":"ce4bhkp2rcd13ifvqgd0","pricing_plan_id":"cebpf4jnsgd1na2vs0mg"},{"bike_id":"ccabdee7-a74c-431a-b395-45e0a95a3359","system_id":"levelo_inurba_marseille","lat":43.296,"lon":5.3771,"is_reserved":false,"is_disabled":false,"rental_uris":{"android":"levelo://app?vid=ccabdee7-a74c-431a-b395-45e0a95a3359","ios":"levelo://app?vid=ccabdee7-a74c-431a-b395-45e0a95a3359"},"vehicle_type_id":"4","last_reported":1738962442,"current_range_meters":21600,"station_id":"ce4bgi92rcd13ifvqb90","pricing_plan_id":"cebpf4jnsgd1na2vs0mg"},{"bike_id":"136b7431-fe25-4be5-acba-3a2786dece70","system_id":"levelo_inurba_marseille","lat":43.2942,"lon":5.38602,"is_reserved":false,"is_disabled":false,"rental_uris":{"android":"levelo://app?vid=136b7431-fe25-4be5-acba-3a2786dece70","ios":"levelo://app?vid=136b7431-fe25-4be5-acba-3a2786dece70"},"vehicle_type_id":"4","last_reported":1738962442,"current_range_meters":39200,"station_id":"ce4bh2h2rcd13ifvqdh0","pricing_plan_id":"cebpf4jnsgd1na2vs0mg"},{"bike_id":"b7a5ea59-7d83-4dc6-9166-5d8c288910ea","system_id":"levelo_inurba_marseille","lat":43.30897,"lon":5.37187,"is_reserved":false,"is_disabled":false,"rental_uris":{"android":"levelo://app?vid=b7a5ea59-7d83-4dc6-9166-5d8c288910ea","ios":"levelo://app?vid=b7a5ea59-7d83-4dc6-9166-5d8c288910ea"},"vehicle_type_id":"4","last_reported":1738962442,"current_range_meters":24800,"station_id":"ce4bguh2rcd13ifvqckg","pricing_plan_id":"cebpf4jnsgd1na2vs0mg"},{"bike_id":"1e6b40d7-355d-4ad8-9fc9-3a551279ad58","system_id":"levelo_inurba_marseille","lat":43.30415,"lon":5.3889,"is_reserved":false,"is_disabled":false,"rental_uris":{"android":"levelo://app?vid=1e6b40d7-355d-4ad8-9fc9-3a551279ad58","ios":"levelo://app?vid=1e6b40d7-355d-4ad8-9fc9-3a551279ad58"},"vehicle_type_id":"4","last_reported":1738962442,"current_range_meters":38800,"station_id":"ce4bgk12rcd13ifvqbi0","pricing_plan_id":"cebpf4jnsgd1na2vs0mg"},{"bike_id":"957f8b7e-d828-49bc-a82c-23988c526e55","system_id":"levelo_inurba_marseille","lat":43.28939,"lon":5.36629,"is_reserved":false,"is_disabled":true,"rental_uris":{"android":"levelo://app?vid=957f8b7e-d828-49bc-a82c-23988c526e55","ios":"levelo://app?vid=957f8b7e-d828-49bc-a82c-23988c526e55"},"vehicle_type_id":"4","last_reported":1738962442,"current_range_meters":38000,"station_id":"ce4bhap2rcd13ifvqek0","pricing_plan_id":"cebpf4jnsgd1na2vs0mg"},{"bike_id":"e2200dc8-d2f7-4f30-b1b2-4f395de74e61","system_id":"levelo_inurba_marseille","lat":43.31141,"lon":5.37771,"is_reserved":false,"is_disabled":false,"rental_uris":{"android":"levelo://app?vid=e2200dc8-d2f7-4f30-b1b2-4f395de74e61","ios":"levelo://app?vid=e2200dc8-d2f7-4f30-b1b2-4f395de74e61"},"vehicle_type_id":"4","last_reported":1738962442,"current_range_meters":32000,"station_id":"ce4bgt92rcd13ifvqcg0","pricing_plan_id":"cebpf4jnsgd1na2vs0mg"},