{"last_updated":1743077991,"ttl":60,"version":"2.2","data":{"bikes":[{"bike_id":"9c49e995-8238-4296-adaa-ce5e8cba49c0","system_id":"levelo_inurba_marseille","lat":43.27993,"lon":5.41666,"is_reserved":false,"is_disabled":false,"rental_uris":{"android":"levelo://app?vid=9c49e995-8238-4296-adaa-ce5e8cba49c0","ios":"levelo://app?vid=9c49e995-8238-4296-adaa-ce5e8cba49c0"},"vehicle_type_id":"4","last_reported":1743077991,"current_range_meters":2800,"station_id":"ce4bho12rcd13ifvqh1g","pricing_plan_id":"cebpf4jnsgd1na2vs0mg"},{"bike_id":"ea20248a-486b-41a2-a35b-540175fa9041","system_id":"levelo_inurba_marseille","lat":43.29277,"lon":5.36848,"is_reserved":false,"is_disabled":false,"rental_uris":{"android":"levelo://app?vid=ea20248a-486b-41a2-a35b-540175fa9041","ios":"levelo://app?vid=ea20248a-486b-41a2-a35b-540175fa9041"},"vehicle_type_id":"4","last_reported":1743077991,"current_range_meters":2800,"station_id":"ce4bhbp2rcd13ifvqesg","pricing_plan_id":"cebpf4jnsgd1na2vs0mg"},{"bike_id":"1adbe8f5-382e-4eee-811c-960f6f90e8bd","system_id":"levelo_inurba_marseille","lat":43.29355,"lon":5.37848,"is_reserved":false,"is_disabled":false,"rental_uris":{"android":"levelo://app?vid=1adbe8f5-382e-4eee-811c-960f6f90e8bd","ios":"levelo://app?vid=1adbe8f5-382e-4eee-811c-960f6f90e8bd"},"vehicle_type_id":"4","last_reported":1743077991,"current_range_meters":2800,"station_id":"ce4bgjh2rcd13ifvqbf0","pricing_plan_id":"cebpf4jnsgd1na2vs0mg"},{"bike_id":"a7a51d75-1c9d-4ab1-9637-8320f8366129","system_id":"levelo_inurba_marseille","lat":43.2928,"lon":5.36848,"is_reserved":false,"is_disabled":false,"rental_uris":{"android":"levelo://app?vid=a7a51d75-1c9d-4ab1-9637-8320f8366129","ios":"levelo://app?vid=a7a51d75-1c9d-4ab1-9637-8320f8366129"},"vehicle_type_id":"4","last_reported":1743077991,"current_range_meters":2800,"station_id":"ce4bhbp2rcd13ifvqesg","pricing_plan_id":"cebpf4jnsgd1na2vs0mg"},{"bike_id":"2968aa9d-67d2-45fc-86b0-6a529137e1e3","system_id":"levelo_inurba_marseille","lat":43.33027,"lon":5.39047,"is_reserved":false,"is_disabled":false,"rental_uris":{"android":"levelo://app?vid=2968aa9d-67d2-45fc-86b0-6a529137e1e3","ios":"levelo://app?vid=2968aa9d-67d2-45fc-86b0-6a529137e1e3"},"vehicle_type_id":"4","last_reported":1743077991,"current_range_meters":3200,"station_id":"ce4bhr92rcd13ifvqhrg","pricing_plan_id":"cebpf4jnsgd1na2vs0mg"},{"bike_id":"1f580411-584d-491d-9616-4f69844dc7c8","system_id":"levelo_inurba_marseille","lat":43.297858,"lon":5.393336,"is_reserved":false,"is_disabled":false,"rental_uris":{"android":"levelo://app?vid=1f580411-584d-491d-9616-4f69844dc7c8","ios":"levelo://app?vid=1f580411-584d-491d-9616-4f69844dc7c8"},"vehicle_type_id":"4","last_reported":1743077991,"current_range_meters":2800,"station_id":"chh1huq6cuj3fo74tm60","pricing_plan_id":"cebpf4jnsgd1na2vs0mg"},{"bike_id":"f21f1530-83ee-4d0a-84fc-525579989e2d","system_id":"levelo_inurba_marseille","lat":43.28562,"lon":5.395,"is_reserved":false,"is_disabled":false,"rental_uris":{"android":"levelo://app?vid=f21f1530-83ee-4d0a-84fc-525579989e2d","ios":"levelo://app?vid=f21f1530-83ee-4d0a-84fc-525579989e2d"},"vehicle_type_id":"4","last_reported":1743077991,"current_range_meters":3600,"station_id":"ce4bh292rcd13ifvqdg0","pricing_plan_id":"cebpf4jnsgd1na2vs0mg"},{"bike_id":"ee28380f-2566-499f-8ab8-5a75cb1ed72f","system_id":"levelo_inurba_marseille","lat":43.288329,"lon":5.393258,"is_reserved":false,"is_disabled":false,"rental_uris":{"android":"levelo://app?vid=ee28380f-2566-499f-8ab8-5a75cb1ed72f","ios":"levelo://app?vid=ee28380f-2566-499f-8ab8-5a75cb1ed72f"},"vehicle_type_id":"4","last_reported":1743077991,"current_range_meters":3600,"station_id":"","pricing_plan_id":"cebpf4jnsgd1na2vs0mg"},{"bike_id":"27c60bff-68b1-400a-b624-bb6898d7c677","system_id":"levelo_inurba_marseille","lat":43.27059,"lon":5.40258,"is_reserved":false,"is_disabled":false,"rental_uris":{"android":"levelo://app?vid=27c60bff-68b1-400a-b624-bb6898d7c677","ios":"levelo://app?vid=27c60bff-68b1-400a-b624-bb6898d7c677"},"vehicle_type_id":"4","last_reported":1743077991,"current_range_meters":3600,"station_id":"ce4bhk92rcd13ifvqgc0","pricing_plan_id":"cebpf4jnsgd1na2vs0mg"},{"bike_id":"3da138d1-530c-4747-8c5c-279b93d9a567","system_id":"levelo_inurba_marseille","lat":43.30464,"lon":5.3791,"is_reserved":false,"is_disabled":false,"rental_uris":{"android":"levelo://app?vid=3da138d1-530c-4747-8c5c-279b93d9a567","ios":"levelo://app?vid=3da138d1-530c-4747-8c5c-279b93d9a567"},"vehicle_type_id":"4","last_reported":1743077991,"current_range_meters":4000,"station_id":"ce4bgup2rcd13ifvqcn0","pricing_plan_id":"cebpf4jnsgd1na2vs0mg"},{"bike_id":"7943a637-6377-431f-93f4-c8bf1581a247","system_id":"levelo_inurba_marseille","lat":43.28617,"lon":5.35106,"is_reserved":false,"is_disabled":false,"rental_uris":{"android":"levelo://app?vid=7943a637-6377-431f-93f4-c8bf1581a247","ios":"levelo://app?vid=7943a637-6377-431f-93f4-c8bf1581a247"},"vehicle_type_id":"4","last_reported":1743077991,"current_range_meters":4000,"station_id":"ce4bhch2rcd13ifvqeug","pricing_plan_id":"cebpf4jnsgd1na2vs0mg"},{"bike_id":"f83ff8bb-4278-47b7-8ae1-ac60243a03e3","system_id":"levelo_inurba_marseille","lat":43.28722,"lon":5.37942,"is_reserved":false,"is_disabled":false,"rental_uris":{"android":"levelo://app?vid=f83ff8bb-4278-47b7-8ae1-ac60243a03e3","ios":"levelo://app?vid=f83ff8bb-4278-47b7-8ae1-ac60243a03e3"},"vehicle_type_id":"4","last_reported":1743077991,"current_range_meters":4000,"station_id":"ce4bh9p2rcd13ifvqec0","pricing_plan_id":"cebpf4jnsgd1na2vs0mg"},{"bike_id":"44156654-a4cf-4f20-b992-8a27bbcc69ed","system_id":"levelo_inurba_marseille","lat":43.23194,"lon":5.39995,"is_reserved":false,"is_disabled":true,"rental_uris":{"android":"levelo://app?vid=44156654-a4cf-4f20-b992-8a27bbcc69ed","ios":"levelo://app?vid=44156654-a4cf-4f20-b992-8a27bbcc69ed"},"vehicle_type_id":"4","last_reported":1743077991,"current_range_meters":4000,"station_id":"ce4bhn12rcd13ifvqgqg","pricing_plan_id":"cebpf4jnsgd1na2vs0mg"},{"bike_id":"39132323-c731-49ab-98e3-c68cfd77b0de","system_id":"levelo_inurba_marseille","lat":43.26425,"lon":5.40426,"is_reserved":false,"is_disabled":false,"rental_uris":{"android":"levelo://app?vid=39132323-c731-49ab-98e3-c68cfd77b0de","ios":"levelo://app?vid=39132323-c731-49ab-98e3-c68cfd77b0de"},"vehicle_type_id":"4","last_reported":1743077991,"current_range_meters":4000,"station_id":"","pricing_plan_id":"cebpf4jnsgd1na2vs0mg"},{"bike_id":"795ef212-53f8-4a87-a23c-8d1c034666b8","system_id":"levelo_inurba_marseille","lat":43.24389,"lon":5.37065,"is_reserved":false,"is_disabled":false,"rental_uris":{"android":"levelo://app?vid=795ef212-53f8-4a87-a23c-8d1c034666b8","ios":"levelo://app?vid=795ef212-53f8-4a87-a23c-8d1c034666b8"},"vehicle_type_id":"4","last_reported":1743077991,"current_range_meters":4000,"station_id":"ce4bhhh2rcd13ifvqfk0","pricing_plan_id":"cebpf4jnsgd1na2vs0mg"},{"bike_id":"afc869f0-3774-45f5-8b92-96b047ad2025","system_id":"levelo_inurba_marseille","lat":43.3238,"lon":5.38882,"is_reserved":false,"is_disabled":false,"rental_uris":{"android":"levelo://app?vid=afc869f0-3774-45f5-8b92-96b047ad2025","ios":"levelo://app?vid=afc869f0-3774-45f5-8b92-96b047ad2025"},"vehicle_type_id":"4","last_reported":1743077991,"current_range_meters":4000,"station_id":"ce4bhqp2rcd13ifvqhog","pricing_plan_id":"cebpf4jnsgd1na2vs0mg"},{"bike_id":"ca4935c1-b3d1-4445-81bd-fd3700d0af94","system_id":"levelo_inurba_marseille","lat":43.243913,"lon":5.370549,"is_reserved":false,"is_disabled":false,"rental_uris":{"android":"levelo://app?vid=ca4935c1-b3d1-4445-81bd-fd3700d0af94","ios":"levelo://app?vid=ca4935c1-b3d1-4445-81bd-fd3700d0af94"},"vehicle_type_id":"4","last_reported":1743077991,"current_range_meters":4000,"station_id":"ce4bhhh2rcd13ifvqfk0","pricing_plan_id":"cebpf4jnsgd1na2vs0mg"},{"bike_id":"067247e0-a27c-4e52-9052-c6b9eea5c7f4","system_id":"levelo_inurba_marseille","lat":43.31403,"lon":5.37427,"is_reserved":false,"is_disabled":false,"rental_uris":{"android":"levelo://app?vid=067247e0-a27c-4e52-9052-c6b9eea5c7f4","ios":"levelo://app?vid=067247e0-a27c-4e52-9052-c6b9eea5c7f4"},"vehicle_type_id":"4","last_reported":1743077991,"current_range_meters":4000,"station_id":"","pricing_plan_id":"cebpf4jnsgd1na2vs0mg"},{"bike_id":"32c0e8a8-3183-4f24-9239-339d42d89b9b","system_id":"levelo_inurba_marseille","lat":43.31246,"lon":5.36906,"is_reserved":false,"is_disabled":false,"rental_uris":{"android":"levelo://app?vid=32c0e8a8-3183-4f24-9239-339d42d89b9b","ios":"levelo://app?vid=32c0e8a8-3183-4f24-9239-339d42d89b9b"},"vehicle_type_id":"4","last_reported":1743077991,"current_range_meters":4400,"station_id":"ce4bgl92rcd13ifvqbq0","pricing_plan_id":"cebpf4jnsgd1na2vs0mg"},{"bike_id":"598e1521-ea09-4968-bac1-208db71d337f","system_id":"levelo_inurba_marseille","lat":43.31246,"lon":5.36876,"is_reserved":false,"is_disabled":false,"rental_uris":{"android":"levelo://app?vid=598e1521-ea09-4968-bac1-208db71d337f","ios":"levelo://app?vid=598e1521-ea09-4968-bac1-208db71d337f"},"vehicle_type_id":"4","last_reported":1743077991,"current_range_meters":4400,"station_id":"ce4bgl92rcd13ifvqbq0","pricing_plan_id":"cebpf4jnsgd1na2vs0mg"},{"bike_id":"a96b211a-dbae-44a3-80db-45475ccf38cc","system_id":"levelo_inurba_marseille","lat":43.296288,"lon":5.371624,"is_reserved":false,"is_disabled":false,"rental_uris":{"android":"levelo://app?vid=a96b211a-dbae-44a3-80db-45475ccf38cc","ios":"levelo://app?vid=a96b211a-dbae-44a3-80db-45475ccf38cc"},"vehicle_type_id":"4","last_reported":1743077991,"current_range_meters":4400,"station_id":"ce4bgnh2rcd13ifvqc0g","pricing_plan_id":"cebpf4jnsgd1na2vs0mg"},{"bike_id":"e7e1fca6-2a90-4bd1-8a4b-8bf2c2bf6e87","system_id":"levelo_inurba_marseille","lat":43.30466,"lon":5.37916,"is_reserved":false,"is_disabled":false,"rental_uris":{"android":"levelo://app?vid=e7e1fca6-2a90-4bd1-8a4b-8bf2c2bf6e87","ios":"levelo://app?vid=e7e1fca6-2a90-4bd1-8a4b-8bf2c2bf6e87"},"vehicle_type_id":"4","last_reported":1743077991,"current_range_meters":4400,"station_id":"ce4bgup2rcd13ifvqcn0","pricing_plan_id":"cebpf4jnsgd1na2vs0mg"},{"bike_id":"a5fb06d1-c469-4515-9522-548b956fd2b3","system_id":"levelo_inurba_marseille","lat":43.31745,"lon":5.38989,"is_reserved":false,"is_disabled":false,"rental_uris":{"android":"levelo://app?vid=a5fb06d1-c469-4515-9522-548b956fd2b3","ios":"levelo://app?vid=a5fb06d1-c469-4515-9522-548b956fd2b3"},"vehicle_type_id":"4","last_reported":1743077991,"current_range_meters":4800,"station_id":"ce4bhqp2rcd13ifvqhng","pricing_plan_id":"cebpf4jnsgd1na2vs0mg"},{"bike_id":"c1ff2ae3-d269-4124-86a1-c76b61a388a0","system_id":"levelo_inurba_marseille","lat":43.29064,"lon":5.37172,"is_reserved":false,"is_disabled":false,"rental_uris":{"android":"levelo://app?vid=c1ff2ae3-d269-4124-86a1-c76b61a388a0","ios":"levelo://app?vid=c1ff2ae3-d269-4124-86a1-c76b61a388a0"},"vehicle_type_id":"4","last_reported":1743077991,"current_range_meters":4800,"station_id":"ce4bh5p2rcd13ifvqe4g","pricing_plan_id":"cebpf4jnsgd1na2vs0mg"},{"bike_id":"03b836a2-30c9-4d97-84ce-cae6504c3c84","system_id":"levelo_inurba_marseille","lat":43.32105,"lon":5.36773,"is_reserved":false,"is_disabled":false,"rental_uris":{"android":"levelo://app?vid=03b836a2-30c9-4d97-84ce-cae6504c3c84","ios":"levelo://app?vid=03b836a2-30c9-4d97-84ce-cae6504c3c84"},"vehicle_type_id":"4","last_reported":1743077991,"current_range_meters":4800,"station_id":"ce4bhrh2rcd13ifvqhug","pricing_plan_id":"cebpf4jnsgd1na2vs0mg"},{"bike_id":"04bf9c54-d28b-4a3a-8edd-2e8d1721c378","system_id":"levelo_inurba_marseille","lat":43.27916,"lon":5.39579,"is_reserved":false,"is_disabled":false,"rental_uris":{"android":"levelo://app?vid=04bf9c54-d28b-4a3a-8edd-2e8d1721c378","ios":"levelo://app?vid=04bf9c54-d28b-4a3a-8edd-2e8d1721c378"},"vehicle_type_id":"4","last_reported":1743077991,"current_range_meters":4800,"station_id":"ce4bhf92rcd13ifvqf40","pricing_plan_id":"cebpf4jnsgd1na2vs0mg"},{"bike_id":"3071030e-b680-4b83-83e2-ce0fcf7ed459","system_id":"levelo_inurba_marseille","lat":43.27558,"lon":5.38428,"is_reserved":false,"is_disabled":false,"rental_uris":{"android":"levelo://app?vid=3071030e-b680-4b83-83e2-ce0fcf7ed459","ios":"levelo://app?vid=3071030e-b680-4b83-83e2-ce0fcf7ed459"},"vehicle_type_id":"4","last_reported":1743077991,"current_range_meters":4800,"station_id":"ce4bhh92rcd13ifvqfi0","pricing_plan_id":"cebpf4jnsgd1na2vs0mg"},{"bike_id":"2d550bd1-dacd-4872-b415-56b4f9169a0d","system_id":"levelo_inurba_marseille","lat":43.2758,"lon":5.38411,"is_reserved":false,"is_disabled":false,"rental_uris":{"android":"levelo://app?vid=2d550bd1-dacd-4872-b415-56b4f9169a0d","ios":"levelo://app?vid=2d550bd1-dacd-4872-b415-56b4f9169a0d"},"vehicle_type_id":"4","last_reported":1743077991,"current_range_meters":4800,"station_id":"ce4bhh92rcd13ifvqfi0","pricing_plan_id":"cebpf4jnsgd1na2vs0mg"},{"bike_id":"c7db09f9-d17d-48b7-a547-77ada39097ca","system_id":"levelo_inurba_marseille","lat":43.28354,"lon":5.38113,"is_reserved":false,"is_disabled":false,"rental_uris":{"android":"levelo://app?vid=c7db09f9-d17d-48b7-a547-77ada39097ca","ios":"levelo://app?vid=c7db09f9-d17d-48b7-a547-77ada39097ca"},"vehicle_type_id":"4","last_reported":1743077991,"current_range_meters":5600,"station_id":"ce4bh412rcd13ifvqdr0","pricing_plan_id":"cebpf4jnsgd1na2vs0mg"},{"bike_id":"64978c37-40c5-4052-84cd-5f1feb791ff3","system_id":"levelo_inurba_marseille","lat":43.31757,"lon":5.39022,"is_reserved":false,"is_disabled":false,"rental_uris":{"android":"levelo://app?vid=64978c37-40c5-4052-84cd-5f1feb791ff3","ios":"levelo://app?vid=64978c37-40c5-4052-84cd-5f1feb791ff3"},"vehicle_type_id":"4","last_reported":1743077991,"current_range_meters":5600,"station_id":"ce4bhqp2rcd13ifvqhng","pricing_plan_id":"cebpf4jnsgd1na2vs0mg"},{"bike_id":"8d154900-7c61-4a98-8e68-324768f8d5ba","system_id":"levelo_inurba_marseille","lat":43.2901,"lon":5.35605,"is_reserved":false,"is_disabled":false,"rental_uris":{"android":"levelo://app?vid=8d154900-7c61-4a98-8e68-324768f8d5ba","ios":"levelo://app?vid=8d154900-7c61-4a98-8e68-324768f8d5ba"},"vehicle_type_id":"4","last_reported":1743077991,"current_range_meters":5600,"station_id":"ce4bhb92rcd13ifvqen0","pricing_plan_id":"cebpf4jnsgd1na2vs0mg"},{"bike_id":"3fbe1556-8639-4440-98d0-ebb7bbf7790f","system_id":"levelo_inurba_marseille","lat":43.28266,"lon":5.35081,"is_reserved":false,"is_disabled":false,"rental_uris":{"android":"levelo://app?vid=3fbe1556-8639-4440-98d0-ebb7bbf7790f","ios":"levelo://app?vid=3fbe1556-8639-4440-98d0-ebb7bbf7790f"},"vehicle_type_id":"4","last_reported":1743077991,"current_range_meters":5600,"station_id":"ce4bhbp2rcd13ifvqerg","pricing_plan_id":"cebpf4jnsgd1na2vs0mg"},{"bike_id":"1e0b2636-48a1-4292-92c0-73b807651a12","system_id":"levelo_inurba_marseille","lat":43.289703,"lon":5.37838,"is_reserved":false,"is_disabled":false,"rental_uris":{"android":"levelo://app?vid=1e0b2636-48a1-4292-92c0-73b807651a12","ios":"levelo://app?vid=1e0b2636-48a1-4292-92c0-73b807651a12"},"vehicle_type_id":"4","last_reported":1743077991,"current_range_meters":6000,"station_id":"ce4bgip2rcd13ifvqbb0","pricing_plan_id":"cebpf4jnsgd1na2vs0mg"},{"bike_id":"452d2ec4-066f-4eff-b53f-f465a7c49f6e","system_id":"levelo_inurba_marseille","lat":43.28716,"lon":5.39995,"is_reserved":false,"is_disabled":false,"rental_uris":{"android":"levelo://app?vid=452d2ec4-066f-4eff-b53f-f465a7c49f6e","ios":"levelo://app?vid=452d2ec4-066f-4eff-b53f-f465a7c49f6e"},"vehicle_type_id":"4","last_reported":1743077991,"current_range_meters":6000,"station_id":"ce4bho92rcd13ifvqh3g","pricing_plan_id":"cebpf4jnsgd1na2vs0mg"},{"bike_id":"e40ca3db-9cd3-4e7c-a6c9-9922c73b5079","system_id":"levelo_inurba_marseille","lat":43.30374,"lon":5.42494,"is_reserved":false,"is_disabled":false,"rental_uris":{"android":"levelo://app?vid=e40ca3db-9cd3-4e7c-a6c9-9922c73b5079","ios":"levelo://app?vid=e40ca3db-9cd3-4e7c-a6c9-9922c73b5079"},"vehicle_type_id":"4","last_reported":1743077991,"current_range_meters":6000,"station_id":"ce4bhoh2rcd13ifvqh6g","pricing_plan_id":"cebpf4jnsgd1na2vs0mg"},{"bike_id":"fd7c855c-deff-4d2a-bb02-354640905361","system_id":"levelo_inurba_marseille","lat":43.24074,"lon":5.37761,"is_reserved":false,"is_disabled":false,"rental_uris":{"android":"levelo://app?vid=fd7c855c-deff-4d2a-bb02-354640905361","ios":"levelo://app?vid=fd7c855c-deff-4d2a-bb02-354640905361"},"vehicle_type_id":"4","last_reported":1743077991,"current_range_meters":6000,"station_id":"ce4bhnp2rcd13ifvqgvg","pricing_plan_id":"cebpf4jnsgd1na2vs0mg"},{"bike_id":"496d7a86-4619-4857-866d-5273262504f7","system_id":"levelo_inurba_marseille","lat":43.30523,"lon":5.3672,"is_reserved":false,"is_disabled":false,"rental_uris":{"android":"levelo://app?vid=496d7a86-4619-4857-866d-5273262504f7","ios":"levelo://app?vid=496d7a86-4619-4857-866d-5273262504f7"},"vehicle_type_id":"4","last_reported":1743077991,"current_range_meters":6000,"station_id":"ce4bgrp2rcd13ifvqc9g","pricing_plan_id":"cebpf4jnsgd1na2vs0mg"},{"bike_id":"e3a29d38-a611-4b12-87ef-2fb8a21c41d5","system_id":"levelo_inurba_marseille","lat":43.22923,"lon":5.35373,"is_reserved":false,"is_disabled":false,"rental_uris":{"android":"levelo://app?vid=e3a29d38-a611-4b12-87ef-2fb8a21c41d5","ios":"levelo://app?vid=e3a29d38-a611-4b12-87ef-2fb8a21c41d5"},"vehicle_type_id":"4","last_reported":1743077991,"current_range_meters":6000,"station_id":"cpo3532slgdg3j2ikp40","pricing_plan_id":"cebpf4jnsgd1na2vs0mg"},{"bike_id":"9c66cc15-0096-423b-bdc5-f6e3c74078ab","system_id":"levelo_inurba_marseille","lat":43.31195,"lon":5.37881,"is_reserved":false,"is_disabled":false,"rental_uris":{"android":"levelo://app?vid=9c66cc15-0096-423b-bdc5-f6e3c74078ab","ios":"levelo://app?vid=9c66cc15-0096-423b-bdc5-f6e3c74078ab"},"vehicle_type_id":"4","last_reported":1743077991,"current_range_meters":6000,"station_id":"","pricing_plan_id":"cebpf4jnsgd1na2vs0mg"},{"bike_id":"a0e89771-a530-4890-b74c-df0fd3627a95","system_id":"levelo_inurba_marseille","lat":43.24071,"lon":5.37774,"is_reserved":false,"is_disabled":false,"rental_uris":{"android":"levelo://app?vid=a0e89771-a530-4890-b74c-df0fd3627a95","ios":"levelo://app?vid=a0e89771-a530-4890-b74c-df0fd3627a95"},"vehicle_type_id":"4","last_reported":1743077991,"current_range_meters":6000,"station_id":"ce4bhnp2rcd13ifvqgvg","pricing_plan_id":"cebpf4jnsgd1na2vs0mg"},{"bike_id":"f22dd984-23ed-4af6-b4bb-c3d5c828c367","system_id":"levelo_inurba_marseille","lat":43.27952,"lon":5.41043,"is_reserved":false,"is_disabled":false,"rental_uris":{"android":"levelo://app?vid=f22dd984-23ed-4af6-b4bb-c3d5c828c367","ios":"levelo://app?vid=f22dd984-23ed-4af6-b4bb-c3d5c828c367"},"vehicle_type_id":"4","last_reported":1743077991,"current_range_meters":6400,"station_id":"ce4bhnp2rcd13ifvqh0g","pricing_plan_id":"cebpf4jnsgd1na2vs0mg"},{"bike_id":"748655c8-1ced-4b23-8157-fd8b7fba7e51","system_id":"levelo_inurba_marseille","lat":43.279163,"lon":5.39586,"is_reserved":false,"is_disabled":false,"rental_uris":{"android":"levelo://app?vid=748655c8-1ced-4b23-8157-fd8b7fba7e51","ios":"levelo://app?vid=748655c8-1ced-4b23-8157-fd8b7fba7e51"},"vehicle_type_id":"4","last_reported":1743077991,"current_range_meters":6400,"station_id":"ce4bhf92rcd13ifvqf40","pricing_plan_id":"cebpf4jnsgd1na2vs0mg"},{"bike_id":"918814ca-5e98-4992-8bbe-4f04fdfb2cc7","system_id":"levelo_inurba_marseille","lat":43.30582,"lon":5.36666,"is_reserved":false,"is_disabled":false,"rental_uris":{"android":"levelo://app?vid=918814ca-5e98-4992-8bbe-4f04fdfb2cc7","ios":"levelo://app?vid=918814ca-5e98-4992-8bbe-4f04fdfb2cc7"},"vehicle_type_id":"4","last_reported":1743077991,"current_range_meters":6400,"station_id":"ce4bgrp2rcd13ifvqc9g","pricing_plan_id":"cebpf4jnsgd1na2vs0mg"},{"bike_id":"f5dd31c5-41d6-437b-9f25-c085f44e4f65","system_id":"levelo_inurba_marseille","lat":43.28842,"lon":5.39313,"is_reserved":false,"is_disabled":false,"rental_uris":{"android":"levelo://app?vid=f5dd31c5-41d6-437b-9f25-c085f44e4f65","ios":"levelo://app?vid=f5dd31c5-41d6-437b-9f25-c085f44e4f65"},"vehicle_type_id":"4","last_reported":1743077991,"current_range_meters":6400,"station_id":"ce4bh2p2rcd13ifvqdi0","pricing_plan_id":"cebpf4jnsgd1na2vs0mg"},{"bike_id":"83acb600-9a02-456b-be98-1b9f8cd51ef4","system_id":"levelo_inurba_marseille","lat":43.28981,"lon":5.37843,"is_reserved":false,"is_disabled":false,"rental_uris":{"android":"levelo://app?vid=83acb600-9a02-456b-be98-1b9f8cd51ef4","ios":"levelo://app?vid=83acb600-9a02-456b-be98-1b9f8cd51ef4"},"vehicle_type_id":"4","last_reported":1743077991,"current_range_meters":6400,"station_id":"ce4bh9p2rcd13ifvqed0","pricing_plan_id":"cebpf4jnsgd1na2vs0mg"},{"bike_id":"8a9602e7-e6f2-4dac-845f-cea224e49dd5","system_id":"levelo_inurba_marseille","lat":43.23066,"lon":5.354912,"is_reserved":false,"is_disabled":false,"rental_uris":{"android":"levelo://app?vid=8a9602e7-e6f2-4dac-845f-cea224e49dd5","ios":"levelo://app?vid=8a9602e7-e6f2-4dac-845f-cea224e49dd5"},"vehicle_type_id":"4","last_reported":1743077991,"current_range_meters":6400,"station_id":"cpo3342slgdg3j2ifvpg","pricing_plan_id":"cebpf4jnsgd1na2vs0mg"},{"bike_id":"e870b704-d87d-4e9d-85d3-8ec16895e7e1","system_id":"levelo_inurba_marseille","lat":43.336,"lon":5.41036,"is_reserved":false,"is_disabled":false,"rental_uris":{"android":"levelo://app?vid=e870b704-d87d-4e9d-85d3-8ec16895e7e1","ios":"levelo://app?vid=e870b704-d87d-4e9d-85d3-8ec16895e7e1"},"vehicle_type_id":"4","last_reported":1743077991,"current_range_meters":6800,"station_id":"ce4bhqh2rcd13ifvqhmg","pricing_plan_id":"cebpf4jnsgd1na2vs0mg"},{"bike_id":"1dd765a9-64b4-439c-a196-df55419cc971","system_id":"levelo_inurba_marseille","lat":43.24162,"lon":5.36407,"is_reserved":false,"is_disabled":false,"rental_uris":{"android":"levelo://app?vid=1dd765a9-64b4-439c-a196-df55419cc971","ios":"levelo://app?vid=1dd765a9-64b4-439c-a196-df55419cc971"},"vehicle_type_id":"4","last_reported":1743077991,"current_range_meters":6800,"station_id":"cpo36qri1sfpv3e86is0","pricing_plan_id":"cebpf4jnsgd1na2vs0mg"},{"bike_id":"a2aa94aa-e95a-4a80-a3a5-656d494e6ca1","system_id":"levelo_inurba_marseille","lat":43.3054,"lon":5.36516,"is_reserved":false,"is_disabled":true,"rental_uris":{"android":"levelo://app?vid=a2aa94aa-e95a-4a80-a3a5-656d494e6ca1","ios":"levelo://app?vid=a2aa94aa-e95a-4a80-a3a5-656d494e6ca1"},"vehicle_type_id":"4","last_reported":1743077991,"current_range_meters":6800,"station_id":"ce4bgs12rcd13ifvqcag","pricing_plan_id":"cebpf4jnsgd1na2vs0mg"},{"bike_id":"0fda4ef5-84bd-42ea-b67a-899fd7762da9","system_id":"levelo_inurba_marseille","lat":43.28568,"lon":5.39498,"is_reserved":false,"is_disabled":false,"rental_uris":{"android":"levelo://app?vid=0fda4ef5-84bd-42ea-b67a-899fd7762da9","ios":"levelo://app?vid=0fda4ef5-84bd-42ea-b67a-899fd7762da9"},"vehicle_type_id":"4","last_reported":1743077991,"current_range_meters":6800,"station_id":"ce4bh292rcd13ifvqdg0","pricing_plan_id":"cebpf4jnsgd1na2vs0mg"},{"bike_id":"3657b6dd-1f86-4261-9d83-670f248731a8","system_id":"levelo_inurba_marseille","lat":43.23152,"lon":5.4372,"is_reserved":false,"is_disabled":false,"rental_uris":{"android":"levelo://app?vid=3657b6dd-1f86-4261-9d83-670f248731a8","ios":"levelo://app?vid=3657b6dd-1f86-4261-9d83-670f248731a8"},"vehicle_type_id":"4","last_reported":1743077991,"current_range_meters":7200,"station_id":"ce4bhmp2rcd13ifvqgog","pricing_plan_id":"cebpf4jnsgd1na2vs0mg"},{"bike_id":"a357f62c-ce1c-43ba-9305-a7b51c062372","system_id":"levelo_inurba_marseille","lat":43.25825,"lon":5.39448,"is_reserved":false,"is_disabled":false,"rental_uris":{"android":"levelo://app?vid=a357f62c-ce1c-43ba-9305-a7b51c062372","ios":"levelo://app?vid=a357f62c-ce1c-43ba-9305-a7b51c062372"},"vehicle_type_id":"4","last_reported":1743077991,"current_range_meters":7200,"station_id":"ce4bhip2rcd13ifvqft0","pricing_plan_id":"cebpf4jnsgd1na2vs0mg"},{"bike_id":"843ccbe8-0c5b-46de-b39c-b437250640f0","system_id":"levelo_inurba_marseille","lat":43.25995,"lon":5.37583,"is_reserved":false,"is_disabled":false,"rental_uris":{"android":"levelo://app?vid=843ccbe8-0c5b-46de-b39c-b437250640f0","ios":"levelo://app?vid=843ccbe8-0c5b-46de-b39c-b437250640f0"},"vehicle_type_id":"4","last_reported":1743077991,"current_range_meters":7200,"station_id":"ce4bhgh2rcd13ifvqfa0","pricing_plan_id":"cebpf4jnsgd1na2vs0mg"},{"bike_id":"c37c1a11-fa75-46d3-8726-799f67893a85","system_id":"levelo_inurba_marseille","lat":43.2835,"lon":5.38114,"is_reserved":false,"is_disabled":false,"rental_uris":{"android":"levelo://app?vid=c37c1a11-fa75-46d3-8726-799f67893a85","ios":"levelo://app?vid=c37c1a11-fa75-46d3-8726-799f67893a85"},"vehicle_type_id":"4","last_reported":1743077991,"current_range_meters":7200,"station_id":"ce4bh412rcd13ifvqdr0","pricing_plan_id":"cebpf4jnsgd1na2vs0mg"},{"bike_id":"787d3b21-7966-4c92-bd48-8f52f642c894","system_id":"levelo_inurba_marseille","lat":43.2883,"lon":5.39335,"is_reserved":false,"is_disabled":false,"rental_uris":{"android":"levelo://app?vid=787d3b21-7966-4c92-bd48-8f52f642c894","ios":"levelo://app?vid=787d3b21-7966-4c92-bd48-8f52f642c894"},"vehicle_type_id":"4","last_reported":1743077991,"current_range_meters":7200,"station_id":"ce4bh2p2rcd13ifvqdi0","pricing_plan_id":"cebpf4jnsgd1na2vs0mg"},{"bike_id":"8d029d9f-5e4c-41c8-8f66-c3b58e254d98","system_id":"levelo_inurba_marseille","lat":43.3253,"lon":5.41433,"is_reserved":false,"is_disabled":false,"rental_uris":{"android":"levelo://app?vid=8d029d9f-5e4c-41c8-8f66-c3b58e254d98","ios":"levelo://app?vid=8d029d9f-5e4c-41c8-8f66-c3b58e254d98"},"vehicle_type_id":"4","last_reported":1743077991,"current_range_meters":7200,"station_id":"ce4bhq12rcd13ifvqhhg","pricing_plan_id":"cebpf4jnsgd1na2vs0mg"},{"bike_id":"cc031383-15ba-4cd5-a2b5-28b25e7e4869","system_id":"levelo_inurba_marseille","lat":43.27909,"lon":5.39594,"is_reserved":false,"is_disabled":false,"rental_uris":{"android":"levelo://app?vid=cc031383-15ba-4cd5-a2b5-28b25e7e4869","ios":"levelo://app?vid=cc031383-15ba-4cd5-a2b5-28b25e7e4869"},"vehicle_type_id":"4","last_reported":1743077991,"current_range_meters":7200,"station_id":"ce4bhf92rcd13ifvqf40","pricing_plan_id":"cebpf4jnsgd1na2vs0mg"},{"bike_id":"8f4c6599-c57c-47f3-b859-da4512b39b4a","system_id":"levelo_inurba_marseille","lat":43.305519,"lon":5.365258,"is_reserved":false,"is_disabled":false,"rental_uris":{"android":"levelo://app?vid=8f4c6599-c57c-47f3-b859-da4512b39b4a","ios":"levelo://app?vid=8f4c6599-c57c-47f3-b859-da4512b39b4a"},"vehicle_type_id":"4","last_reported":1743077991,"current_range_meters":7200,"station_id":"ce4bgs12rcd13ifvqcag","pricing_plan_id":"cebpf4jnsgd1na2vs0mg"},{"bike_id":"0238b184-60dd-489e-8ce3-0b6830ec89bf","system_id":"levelo_inurba_marseille","lat":43.26498,"lon":5.39552,"is_reserved":false,"is_disabled":false,"rental_uris":{"android":"levelo://app?vid=0238b184-60dd-489e-8ce3-0b6830ec89bf","ios":"levelo://app?vid=0238b184-60dd-489e-8ce3-0b6830ec89bf"},"vehicle_type_id":"4","last_reported":1743077991,"current_range_meters":7200,"station_id":"ce4bhi12rcd13ifvqfq0","pricing_plan_id":"cebpf4jnsgd1na2vs0mg"},{"bike_id":"4fa9b8f4-26cc-4ca0-bd63-5f673cb2743b","system_id":"levelo_inurba_marseille","lat":43.2731,"lon":5.39147,"is_reserved":false,"is_disabled":true,"rental_uris":{"android":"levelo://app?vid=4fa9b8f4-26cc-4ca0-bd63-5f673cb2743b","ios":"levelo://app?vid=4fa9b8f4-26cc-4ca0-bd63-5f673cb2743b"},"vehicle_type_id":"4","last_reported":1743077991,"current_range_meters":7200,"station_id":"ce4bhgp2rcd13ifvqfe0","pricing_plan_id":"cebpf4jnsgd1na2vs0mg"},{"bike_id":"e4da3e84-b2d2-487a-9e61-555ac0256fc0","system_id":"levelo_inurba_marseille","lat":43.26962,"lon":5.38617,"is_reserved":false,"is_disabled":false,"rental_uris":{"android":"levelo://app?vid=e4da3e84-b2d2-487a-9e61-555ac0256fc0","ios":"levelo://app?vid=e4da3e84-b2d2-487a-9e61-555ac0256fc0"},"vehicle_type_id":"4","last_reported":1743077991,"current_range_meters":7200,"station_id":"ce4bhh92rcd13ifvqfh0","pricing_plan_id":"cebpf4jnsgd1na2vs0mg"},{"bike_id":"1b543932-d5d1-46d8-8c50-5e82d73320ed","system_id":"levelo_inurba_marseille","lat":43.23151,"lon":5.43724,"is_reserved":false,"is_disabled":false,"rental_uris":{"android":"levelo://app?vid=1b543932-d5d1-46d8-8c50-5e82d73320ed","ios":"levelo://app?vid=1b543932-d5d1-46d8-8c50-5e82d73320ed"},"vehicle_type_id":"4","last_reported":1743077991,"current_range_meters":8000,"station_id":"ce4bhmp2rcd13ifvqgog","pricing_plan_id":"cebpf4jnsgd1na2vs0mg"},{"bike_id":"1ff40e0c-f2ee-4fb7-ad16-546b5863c0bd","system_id":"levelo_inurba_marseille","lat":43.2293,"lon":5.35384,"is_reserved":false,"is_disabled":false,"rental_uris":{"android":"levelo://app?vid=1ff40e0c-f2ee-4fb7-ad16-546b5863c0bd","ios":"levelo://app?vid=1ff40e0c-f2ee-4fb7-ad16-546b5863c0bd"},"vehicle_type_id":"4","last_reported":1743077991,"current_range_meters":8000,"station_id":"cpo3532slgdg3j2ikp40","pricing_plan_id":"cebpf4jnsgd1na2vs0mg"},{"bike_id":"fce28ee0-7843-4a58-9465-dacbcf0711dd","system_id":"levelo_inurba_marseille","lat":43.30139,"lon":5.38791,"is_reserved":false,"is_disabled":false,"rental_uris":{"android":"levelo://app?vid=fce28ee0-7843-4a58-9465-dacbcf0711dd","ios":"levelo://app?vid=fce28ee0-7843-4a58-9465-dacbcf0711dd"},"vehicle_type_id":"4","last_reported":1743077991,"current_range_meters":8000,"station_id":"ce4bghh2rcd13ifvqb60","pricing_plan_id":"cebpf4jnsgd1na2vs0mg"},{"bike_id":"5b20eb68-1120-4031-a8c6-88d7d072fe6f","system_id":"levelo_inurba_marseille","lat":43.290324,"lon":5.386532,"is_reserved":false,"is_disabled":false,"rental_uris":{"android":"levelo://app?vid=5b20eb68-1120-4031-a8c6-88d7d072fe6f","ios":"levelo://app?vid=5b20eb68-1120-4031-a8c6-88d7d072fe6f"},"vehicle_type_id":"4","last_reported":1743077991,"current_range_meters":8000,"station_id":"ce4bh4p2rcd13ifvqe0g","pricing_plan_id":"cebpf4jnsgd1na2vs0mg"},{"bike_id":"84a7a785-5392-42bc-8088-fb903bcc7f5c","system_id":"levelo_inurba_marseille","lat":43.23069,"lon":5.35496,"is_reserved":false,"is_disabled":false,"rental_uris":{"android":"levelo://app?vid=84a7a785-5392-42bc-8088-fb903bcc7f5c","ios":"levelo://app?vid=84a7a785-5392-42bc-8088-fb903bcc7f5c"},"vehicle_type_id":"4","last_reported":1743077991,"current_range_meters":8000,"station_id":"cpo3342slgdg3j2ifvpg","pricing_plan_id":"cebpf4jnsgd1na2vs0mg"},{"bike_id":"04481e21-9dcc-4379-8093-72970d89e32c","system_id":"levelo_inurba_marseille","lat":43.3055,"lon":5.36524,"is_reserved":false,"is_disabled":false,"rental_uris":{"android":"levelo://app?vid=04481e21-9dcc-4379-8093-72970d89e32c","ios":"levelo://app?vid=04481e21-9dcc-4379-8093-72970d89e32c"},"vehicle_type_id":"4","last_reported":1743077991,"current_range_meters":8000,"station_id":"ce4bgs12rcd13ifvqcag","pricing_plan_id":"cebpf4jnsgd1na2vs0mg"},{"bike_id":"a76d2fa0-cc1f-468b-96d5-2acf2fd05495","system_id":"levelo_inurba_marseille","lat":43.29531,"lon":5.39402,"is_reserved":false,"is_disabled":false,"rental_uris":{"android":"levelo://app?vid=a76d2fa0-cc1f-468b-96d5-2acf2fd05495","ios":"levelo://app?vid=a76d2fa0-cc1f-468b-96d5-2acf2fd05495"},"vehicle_type_id":"4","last_reported":1743077991,"current_range_meters":8000,"station_id":"ce4bh292rcd13ifvqdf0","pricing_plan_id":"cebpf4jnsgd1na2vs0mg"},{"bike_id":"dc8ccdc9-a018-4504-b0a9-676297905591","system_id":"levelo_inurba_marseille","lat":43.29292,"lon":5.36982,"is_reserved":false,"is_disabled":false,"rental_uris":{"android":"levelo://app?vid=dc8ccdc9-a018-4504-b0a9-676297905591","ios":"levelo://app?vid=dc8ccdc9-a018-4504-b0a9-676297905591"},"vehicle_type_id":"4","last_reported":1743077991,"current_range_meters":8000,"station_id":"","pricing_plan_id":"cebpf4jnsgd1na2vs0mg"},{"bike_id":"9b0db4f1-c6a1-4ca7-86c5-ec1daffe0ea2","system_id":"levelo_inurba_marseille","lat":43.251,"lon":5.39506,"is_reserved":false,"is_disabled":false,"rental_uris":{"android":"levelo://app?vid=9b0db4f1-c6a1-4ca7-86c5-ec1daffe0ea2","ios":"levelo://app?vid=9b0db4f1-c6a1-4ca7-86c5-ec1daffe0ea2"},"vehicle_type_id":"4","last_reported":1743077991,"current_range_meters":8000,"station_id":"ce4bhm12rcd13ifvqgkg","pricing_plan_id":"cebpf4jnsgd1na2vs0mg"},{"bike_id":"1bdb47d8-a4c7-4118-bdaf-4834ca1aaf27","system_id":"levelo_inurba_marseille","lat":43.30619,"lon":5.36578,"is_reserved":false,"is_disabled":false,"rental_uris":{"android":"levelo://app?vid=1bdb47d8-a4c7-4118-bdaf-4834ca1aaf27","ios":"levelo://app?vid=1bdb47d8-a4c7-4118-bdaf-4834ca1aaf27"},"vehicle_type_id":"4","last_reported":1743077991,"current_range_meters":8400,"station_id":"ce4bgs12rcd13ifvqcag","pricing_plan_id":"cebpf4jnsgd1na2vs0mg"},{"bike_id":"51b2ee4a-1a96-4b71-bfac-079b2527edd1","system_id":"levelo_inurba_marseille","lat":43.29196,"lon":5.35803,"is_reserved":false,"is_disabled":false,"rental_uris":{"android":"levelo://app?vid=51b2ee4a-1a96-4b71-bfac-079b2527edd1","ios":"levelo://app?vid=51b2ee4a-1a96-4b71-bfac-079b2527edd1"},"vehicle_type_id":"4","last_reported":1743077991,"current_range_meters":8400,"station_id":"ce4bhb12rcd13ifvqel0","pricing_plan_id":"cebpf4jnsgd1na2vs0mg"},{"bike_id":"67e9128c-7961-4c21-87ab-b470100807a9","system_id":"levelo_inurba_marseille","lat":43.3046,"lon":5.3791,"is_reserved":false,"is_disabled":false,"rental_uris":{"android":"levelo://app?vid=67e9128c-7961-4c21-87ab-b470100807a9","ios":"levelo://app?vid=67e9128c-7961-4c21-87ab-b470100807a9"},"vehicle_type_id":"4","last_reported":1743077991,"current_range_meters":8400,"station_id":"ce4bgup2rcd13ifvqcn0","pricing_plan_id":"cebpf4jnsgd1na2vs0mg"},{"bike_id":"597d2fa1-1cc5-45e6-817c-9e1cf75f7795","system_id":"levelo_inurba_marseille","lat":43.28847,"lon":5.39313,"is_reserved":false,"is_disabled":false,"rental_uris":{"android":"levelo://app?vid=597d2fa1-1cc5-45e6-817c-9e1cf75f7795","ios":"levelo://app?vid=597d2fa1-1cc5-45e6-817c-9e1cf75f7795"},"vehicle_type_id":"4","last_reported":1743077991,"current_range_meters":8400,"station_id":"ce4bh2p2rcd13ifvqdi0","pricing_plan_id":"cebpf4jnsgd1na2vs0mg"},{"bike_id":"2591bfdd-195a-43fc-b49b-cead5d9ba9e8","system_id":"levelo_inurba_marseille","lat":43.25042,"lon":5.38883,"is_reserved":false,"is_disabled":false,"rental_uris":{"android":"levelo://app?vid=2591bfdd-195a-43fc-b49b-cead5d9ba9e8","ios":"levelo://app?vid=2591bfdd-195a-43fc-b49b-cead5d9ba9e8"},"vehicle_type_id":"4","last_reported":1743077991,"current_range_meters":8400,"station_id":"ce4bhgp2rcd13ifvqfd0","pricing_plan_id":"cebpf4jnsgd1na2vs0mg"},{"bike_id":"3a5e18ad-6a23-4442-9c34-19c7bd17a17e","system_id":"levelo_inurba_marseille","lat":43.22932,"lon":5.35375,"is_reserved":false,"is_disabled":false,"rental_uris":{"android":"levelo://app?vid=3a5e18ad-6a23-4442-9c34-19c7bd17a17e","ios":"levelo://app?vid=3a5e18ad-6a23-4442-9c34-19c7bd17a17e"},"vehicle_type_id":"4","last_reported":1743077991,"current_range_meters":8400,"station_id":"cpo3532slgdg3j2ikp40","pricing_plan_id":"cebpf4jnsgd1na2vs0mg"},{"bike_id":"4408d37c-8db5-40c2-90db-cb5c3ea6ee53","system_id":"levelo_inurba_marseille","lat":43.30191,"lon":5.36636,"is_reserved":false,"is_disabled":false,"rental_uris":{"android":"levelo://app?vid=4408d37c-8db5-40c2-90db-cb5c3ea6ee53","ios":"levelo://app?vid=4408d37c-8db5-40c2-90db-cb5c3ea6ee53"},"vehicle_type_id":"4","last_reported":1743077991,"current_range_meters":8400,"station_id":"ce4bgrh2rcd13ifvqc8g","pricing_plan_id":"cebpf4jnsgd1na2vs0mg"},{"bike_id":"813f18ed-22bd-46a4-bbbd-1a4b45fcd91d","system_id":"levelo_inurba_marseille","lat":43.27913,"lon":5.3959,"is_reserved":false,"is_disabled":false,"rental_uris":{"android":"levelo://app?vid=813f18ed-22bd-46a4-bbbd-1a4b45fcd91d","ios":"levelo://app?vid=813f18ed-22bd-46a4-bbbd-1a4b45fcd91d"},"vehicle_type_id":"4","last_reported":1743077991,"current_range_meters":8400,"station_id":"ce4bhf92rcd13ifvqf40","pricing_plan_id":"cebpf4jnsgd1na2vs0mg"},{"bike_id":"85d0fa0c-b5b9-41cd-ba43-951901672dab","system_id":"levelo_inurba_marseille","lat":43.25609,"lon":5.38959,"is_reserved":false,"is_disabled":false,"rental_uris":{"android":"levelo://app?vid=85d0fa0c-b5b9-41cd-ba43-951901672dab","ios":"levelo://app?vid=85d0fa0c-b5b9-41cd-ba43-951901672dab"},"vehicle_type_id":"4","last_reported":1743077991,"current_range_meters":8400,"station_id":"","pricing_plan_id":"cebpf4jnsgd1na2vs0mg"},{"bike_id":"57ec6dc9-9f93-4b7a-8981-a92acbb4e001","system_id":"levelo_inurba_marseille","lat":43.231502,"lon":5.437212,"is_reserved":false,"is_disabled":false,"rental_uris":{"android":"levelo://app?vid=57ec6dc9-9f93-4b7a-8981-a92acbb4e001","ios":"levelo://app?vid=57ec6dc9-9f93-4b7a-8981-a92acbb4e001"},"vehicle_type_id":"4","last_reported":1743077991,"current_range_meters":8400,"station_id":"ce4bhmp2rcd13ifvqgog","pricing_plan_id":"cebpf4jnsgd1na2vs0mg"},{"bike_id":"629dc58e-f1fa-4c78-b496-582f20ae1d69","system_id":"levelo_inurba_marseille","lat":43.23151,"lon":5.43722,"is_reserved":false,"is_disabled":true,"rental_uris":{"android":"levelo://app?vid=629dc58e-f1fa-4c78-b496-582f20ae1d69","ios":"levelo://app?vid=629dc58e-f1fa-4c78-b496-582f20ae1d69"},"vehicle_type_id":"4","last_reported":1743077991,"current_range_meters":8400,"station_id":"ce4bhmp2rcd13ifvqgog","pricing_plan_id":"cebpf4jnsgd1na2vs0mg"},{"bike_id":"0a861920-d833-4216-9f12-ff2b5bca0033","system_id":"levelo_inurba_marseille","lat":43.26029,"lon":5.37564,"is_reserved":false,"is_disabled":false,"rental_uris":{"android":"levelo://app?vid=0a861920-d833-4216-9f12-ff2b5bca0033","ios":"levelo://app?vid=0a861920-d833-4216-9f12-ff2b5bca0033"},"vehicle_type_id":"4","last_reported":1743077991,"current_range_meters":8400,"station_id":"ce4bhgh2rcd13ifvqfa0","pricing_plan_id":"cebpf4jnsgd1na2vs0mg"},{"bike_id":"0daa15f1-962d-46b3-b845-52bb3024b6c5","system_id":"levelo_inurba_marseille","lat":43.28158,"lon":5.42647,"is_reserved":false,"is_disabled":false,"rental_uris":{"android":"levelo://app?vid=0daa15f1-962d-46b3-b845-52bb3024b6c5","ios":"levelo://app?vid=0daa15f1-962d-46b3-b845-52bb3024b6c5"},"vehicle_type_id":"4","last_reported":1743077991,"current_range_meters":8400,"station_id":"ce4bhnh2rcd13ifvqgug","pricing_plan_id":"cebpf4jnsgd1na2vs0mg"},{"bike_id":"18460cf5-915d-48eb-8bb6-4a7b73794a0c","system_id":"levelo_inurba_marseille","lat":43.31228,"lon":5.36857,"is_reserved":false,"is_disabled":false,"rental_uris":{"android":"levelo://app?vid=18460cf5-915d-48eb-8bb6-4a7b73794a0c","ios":"levelo://app?vid=18460cf5-915d-48eb-8bb6-4a7b73794a0c"},"vehicle_type_id":"4","last_reported":1743077991,"current_range_meters":8800,"station_id":"ce4bgl92rcd13ifvqbq0","pricing_plan_id":"cebpf4jnsgd1na2vs0mg"},{"bike_id":"40046afd-c6aa-43ea-88bd-183a4d2ec61c","system_id":"levelo_inurba_marseille","lat":43.31614,"lon":5.4168,"is_reserved":false,"is_disabled":true,"rental_uris":{"android":"levelo://app?vid=40046afd-c6aa-43ea-88bd-183a4d2ec61c","ios":"levelo://app?vid=40046afd-c6aa-43ea-88bd-183a4d2ec61c"},"vehicle_type_id":"4","last_reported":1743077991,"current_range_meters":8800,"station_id":"","pricing_plan_id":"cebpf4jnsgd1na2vs0mg"},{"bike_id":"d958bb52-d3ce-41ba-b876-3f538ecb7fe0","system_id":"levelo_inurba_marseille","lat":43.29263,"lon":5.40898,"is_reserved":false,"is_disabled":true,"rental_uris":{"android":"levelo://app?vid=d958bb52-d3ce-41ba-b876-3f538ecb7fe0","ios":"levelo://app?vid=d958bb52-d3ce-41ba-b876-3f538ecb7fe0"},"vehicle_type_id":"4","last_reported":1743077991,"current_range_meters":8800,"station_id":"ce4bh192rcd13ifvqdc0","pricing_plan_id":"cebpf4jnsgd1na2vs0mg"},{"bike_id":"c9b72621-5589-4aec-a41b-2fde4fc02364","system_id":"levelo_inurba_marseille","lat":43.25581,"lon":5.38221,"is_reserved":false,"is_disabled":false,"rental_uris":{"android":"levelo://app?vid=c9b72621-5589-4aec-a41b-2fde4fc02364","ios":"levelo://app?vid=c9b72621-5589-4aec-a41b-2fde4fc02364"},"vehicle_type_id":"4","last_reported":1743077991,"current_range_meters":8800,"station_id":"ce4bhih2rcd13ifvqfs0","pricing_plan_id":"cebpf4jnsgd1na2vs0mg"},{"bike_id":"8d9b2f5e-1b0c-4da7-89a1-13513438bbcc","system_id":"levelo_inurba_marseille","lat":43.2995,"lon":5.37166,"is_reserved":false,"is_disabled":false,"rental_uris":{"android":"levelo://app?vid=8d9b2f5e-1b0c-4da7-89a1-13513438bbcc","ios":"levelo://app?vid=8d9b2f5e-1b0c-4da7-89a1-13513438bbcc"},"vehicle_type_id":"4","last_reported":1743077991,"current_range_meters":8800,"station_id":"ce4bgr92rcd13ifvqc7g","pricing_plan_id":"cebpf4jnsgd1na2vs0mg"},{"bike_id":"7813f42a-8d11-4b2a-b077-be9650363461","system_id":"levelo_inurba_marseille","lat":43.23139,"lon":5.43717,"is_reserved":false,"is_disabled":false,"rental_uris":{"android":"levelo://app?vid=7813f42a-8d11-4b2a-b077-be9650363461","ios":"levelo://app?vid=7813f42a-8d11-4b2a-b077-be9650363461"},"vehicle_type_id":"4","last_reported":1743077991,"current_range_meters":8800,"station_id":"ce4bhmp2rcd13ifvqgog","pricing_plan_id":"cebpf4jnsgd1na2vs0mg"},{"bike_id":"21705c6e-750f-4bb7-bc31-479fbd58787e","system_id":"levelo_inurba_marseille","lat":43.30144,"lon":5.39869,"is_reserved":false,"is_disabled":false,"rental_uris":{"android":"levelo://app?vid=21705c6e-750f-4bb7-bc31-479fbd58787e","ios":"levelo://app?vid=21705c6e-750f-4bb7-bc31-479fbd58787e"},"vehicle_type_id":"4","last_reported":1743077991,"current_range_meters":11200,"station_id":"ce4bh0h2rcd13ifvqd40","pricing_plan_id":"cebpf4jnsgd1na2vs0mg"},{"bike_id":"4ea2dc4a-53b8-4d21-b056-faf850ab7b24","system_id":"levelo_inurba_marseille","lat":43.2955,"lon":5.42271,"is_reserved":false,"is_disabled":false,"rental_uris":{"android":"levelo://app?vid=4ea2dc4a-53b8-4d21-b056-faf850ab7b24","ios":"levelo://app?vid=4ea2dc4a-53b8-4d21-b056-faf850ab7b24"},"vehicle_type_id":"4","last_reported":1743077991,"current_range_meters":9200,"station_id":"ce4bhph2rcd13ifvqhdg","pricing_plan_id":"cebpf4jnsgd1na2vs0mg"},{"bike_id":"0a5fbe17-09e7-4568-83ad-36886fbbc522","system_id":"levelo_inurba_marseille","lat":43.240768,"lon":5.377538,"is_reserved":false,"is_disabled":false,"rental_uris":{"android":"levelo://app?vid=0a5fbe17-09e7-4568-83ad-36886fbbc522","ios":"levelo://app?vid=0a5fbe17-09e7-4568-83ad-36886fbbc522"},"vehicle_type_id":"4","last_reported":1743077991,"current_range_meters":9200,"station_id":"ce4bhnp2rcd13ifvqgvg","pricing_plan_id":"cebpf4jnsgd1na2vs0mg"},{"bike_id":"056a04f0-846a-4e0d-b95b-7235c032d817","system_id":"levelo_inurba_marseille","lat":43.29327,"lon":5.37117,"is_reserved":false,"is_disabled":false,"rental_uris":{"android":"levelo://app?vid=056a04f0-846a-4e0d-b95b-7235c032d817","ios":"levelo://app?vid=056a04f0-846a-4e0d-b95b-7235c032d817"},"vehicle_type_id":"4","last_reported":1743077991,"current_range_meters":9200,"station_id":"","pricing_plan_id":"cebpf4jnsgd1na2vs0mg"},{"bike_id":"f35c8dac-946a-4808-9e5d-c62d8a387844","system_id":"levelo_inurba_marseille","lat":43.30466,"lon":5.37915,"is_reserved":false,"is_disabled":false,"rental_uris":{"android":"levelo://app?vid=f35c8dac-946a-4808-9e5d-c62d8a387844","ios":"levelo://app?vid=f35c8dac-946a-4808-9e5d-c62d8a387844"},"vehicle_type_id":"4","last_reported":1743077991,"current_range_meters":9200,"station_id":"ce4bgup2rcd13ifvqcn0","pricing_plan_id":"cebpf4jnsgd1na2vs0mg"},{"bike_id":"99122cd7-e025-4329-991d-c2d464c73009","system_id":"levelo_inurba_marseille","lat":43.28265,"lon":5.35064,"is_reserved":false,"is_disabled":false,"rental_uris":{"android":"levelo://app?vid=99122cd7-e025-4329-991d-c2d464c73009","ios":"levelo://app?vid=99122cd7-e025-4329-991d-c2d464c73009"},"vehicle_type_id":"4","last_reported":1743077991,"current_range_meters":9200,"station_id":"ce4bhbp2rcd13ifvqerg","pricing_plan_id":"cebpf4jnsgd1na2vs0mg"},{"bike_id":"90cf2a71-d997-4ed2-beab-067f90dc84bb","system_id":"levelo_inurba_marseille","lat":43.29773,"lon":5.37106,"is_reserved":false,"is_disabled":false,"rental_uris":{"android":"levelo://app?vid=90cf2a71-d997-4ed2-beab-067f90dc84bb","ios":"levelo://app?vid=90cf2a71-d997-4ed2-beab-067f90dc84bb"},"vehicle_type_id":"4","last_reported":1743077991,"current_range_meters":9200,"station_id":"ce4bgop2rcd13ifvqc1g","pricing_plan_id":"cebpf4jnsgd1na2vs0mg"},{"bike_id":"6dabef9c-9571-4756-a046-550e124653d9","system_id":"levelo_inurba_marseille","lat":43.303314,"lon":5.397041,"is_reserved":false,"is_disabled":false,"rental_uris":{"android":"levelo://app?vid=6dabef9c-9571-4756-a046-550e124653d9","ios":"levelo://app?vid=6dabef9c-9571-4756-a046-550e124653d9"},"vehicle_type_id":"4","last_reported":1743077991,"current_range_meters":9200,"station_id":"ce4bh092rcd13ifvqd20","pricing_plan_id":"cebpf4jnsgd1na2vs0mg"},{"bike_id":"411428f3-7ba3-4e60-8dc2-81313c135eee","system_id":"levelo_inurba_marseille","lat":43.29905,"lon":5.43661,"is_reserved":false,"is_disabled":false,"rental_uris":{"android":"levelo://app?vid=411428f3-7ba3-4e60-8dc2-81313c135eee","ios":"levelo://app?vid=411428f3-7ba3-4e60-8dc2-81313c135eee"},"vehicle_type_id":"4","last_reported":1743077991,"current_range_meters":9200,"station_id":"ce4bhpp2rcd13ifvqhfg","pricing_plan_id":"cebpf4jnsgd1na2vs0mg"},{"bike_id":"bf2b816e-1e7e-46ae-a644-271755239091","system_id":"levelo_inurba_marseille","lat":43.30475,"lon":5.37893,"is_reserved":false,"is_disabled":false,"rental_uris":{"android":"levelo://app?vid=bf2b816e-1e7e-46ae-a644-271755239091","ios":"levelo://app?vid=bf2b816e-1e7e-46ae-a644-271755239091"},"vehicle_type_id":"4","last_reported":1743077991,"current_range_meters":9600,"station_id":"ce4bgup2rcd13ifvqcn0","pricing_plan_id":"cebpf4jnsgd1na2vs0mg"},{"bike_id":"f8a5e80a-07e7-47f3-bfaf-ffc91ab4dc2c","system_id":"levelo_inurba_marseille","lat":43.269492,"lon":5.386312,"is_reserved":false,"is_disabled":false,"rental_uris":{"android":"levelo://app?vid=f8a5e80a-07e7-47f3-bfaf-ffc91ab4dc2c","ios":"levelo://app?vid=f8a5e80a-07e7-47f3-bfaf-ffc91ab4dc2c"},"vehicle_type_id":"4","last_reported":1743077991,"current_range_meters":9600,"station_id":"ce4bhh92rcd13ifvqfh0","pricing_plan_id":"cebpf4jnsgd1na2vs0mg"},{"bike_id":"1b43fc25-3ea0-48b3-af2c-a67610b49dc2","system_id":"levelo_inurba_marseille","lat":43.31347,"lon":5.36687,"is_reserved":false,"is_disabled":false,"rental_uris":{"android":"levelo://app?vid=1b43fc25-3ea0-48b3-af2c-a67610b49dc2","ios":"levelo://app?vid=1b43fc25-3ea0-48b3-af2c-a67610b49dc2"},"vehicle_type_id":"4","last_reported":1743077991,"current_range_meters":9600,"station_id":"ce4bgr92rcd13ifvqc6g","pricing_plan_id":"cebpf4jnsgd1na2vs0mg"},{"bike_id":"cfee4e76-7d5d-406c-bc52-38f44db21bf3","system_id":"levelo_inurba_marseille","lat":43.30542,"lon":5.365395,"is_reserved":false,"is_disabled":false,"rental_uris":{"android":"levelo://app?vid=cfee4e76-7d5d-406c-bc52-38f44db21bf3","ios":"levelo://app?vid=cfee4e76-7d5d-406c-bc52-38f44db21bf3"},"vehicle_type_id":"4","last_reported":1743077991,"current_range_meters":9600,"station_id":"ce4bgs12rcd13ifvqcag","pricing_plan_id":"cebpf4jnsgd1na2vs0mg"},{"bike_id":"97fe268e-7a37-420a-889b-e223d81f2c56","system_id":"levelo_inurba_marseille","lat":43.29258,"lon":5.37639,"is_reserved":false,"is_disabled":false,"rental_uris":{"android":"levelo://app?vid=97fe268e-7a37-420a-889b-e223d81f2c56","ios":"levelo://app?vid=97fe268e-7a37-420a-889b-e223d81f2c56"},"vehicle_type_id":"4","last_reported":1743077991,"current_range_meters":9600,"station_id":"ce4bgi12rcd13ifvqb80","pricing_plan_id":"cebpf4jnsgd1na2vs0mg"},{"bike_id":"a53b5987-13ec-40d3-a6d4-281783cb3092","system_id":"levelo_inurba_marseille","lat":43.3047,"lon":5.37888,"is_reserved":false,"is_disabled":false,"rental_uris":{"android":"levelo://app?vid=a53b5987-13ec-40d3-a6d4-281783cb3092","ios":"levelo://app?vid=a53b5987-13ec-40d3-a6d4-281783cb3092"},"vehicle_type_id":"4","last_reported":1743077991,"current_range_meters":9600,"station_id":"ce4bgup2rcd13ifvqcn0","pricing_plan_id":"cebpf4jnsgd1na2vs0mg"},{"bike_id":"8e1fd18c-ee2f-4132-8303-b254e815e5b7","system_id":"levelo_inurba_marseille","lat":43.25018,"lon":5.3893,"is_reserved":false,"is_disabled":false,"rental_uris":{"android":"levelo://app?vid=8e1fd18c-ee2f-4132-8303-b254e815e5b7","ios":"levelo://app?vid=8e1fd18c-ee2f-4132-8303-b254e815e5b7"},"vehicle_type_id":"4","last_reported":1743077991,"current_range_meters":9600,"station_id":"ce4bhgp2rcd13ifvqfd0","pricing_plan_id":"cebpf4jnsgd1na2vs0mg"},{"bike_id":"a0aa2b66-8d81-4f41-ae27-5d11fde4f918","system_id":"levelo_inurba_marseille","lat":43.28434,"lon":5.34997,"is_reserved":false,"is_disabled":false,"rental_uris":{"android":"levelo://app?vid=a0aa2b66-8d81-4f41-ae27-5d11fde4f918","ios":"levelo://app?vid=a0aa2b66-8d81-4f41-ae27-5d11fde4f918"},"vehicle_type_id":"4","last_reported":1743077991,"current_range_meters":9600,"station_id":"ce4bhbh2rcd13ifvqepg","pricing_plan_id":"cebpf4jnsgd1na2vs0mg"},{"bike_id":"262431d2-6995-43b0-9cca-45d1a466cc85","system_id":"levelo_inurba_marseille","lat":43.2756,"lon":5.38416,"is_reserved":false,"is_disabled":false,"rental_uris":{"android":"levelo://app?vid=262431d2-6995-43b0-9cca-45d1a466cc85","ios":"levelo://app?vid=262431d2-6995-43b0-9cca-45d1a466cc85"},"vehicle_type_id":"4","last_reported":1743077991,"current_range_meters":10000,"station_id":"ce4bhh92rcd13ifvqfi0","pricing_plan_id":"cebpf4jnsgd1na2vs0mg"},{"bike_id":"f67f98a3-54a8-47d6-b2ff-11adab6ff5d2","system_id":"levelo_inurba_marseille","lat":43.31232,"lon":5.36891,"is_reserved":false,"is_disabled":false,"rental_uris":{"android":"levelo://app?vid=f67f98a3-54a8-47d6-b2ff-11adab6ff5d2","ios":"levelo://app?vid=f67f98a3-54a8-47d6-b2ff-11adab6ff5d2"},"vehicle_type_id":"4","last_reported":1743077991,"current_range_meters":10000,"station_id":"ce4bgl92rcd13ifvqbq0","pricing_plan_id":"cebpf4jnsgd1na2vs0mg"},{"bike_id":"0b0fb0ab-861f-4ff6-96a9-b4ac851b249a","system_id":"levelo_inurba_marseille","lat":43.3118,"lon":5.38729,"is_reserved":false,"is_disabled":false,"rental_uris":{"android":"levelo://app?vid=0b0fb0ab-861f-4ff6-96a9-b4ac851b249a","ios":"levelo://app?vid=0b0fb0ab-861f-4ff6-96a9-b4ac851b249a"},"vehicle_type_id":"4","last_reported":1743077991,"current_range_meters":10000,"station_id":"ce4bgv12rcd13ifvqcp0","pricing_plan_id":"cebpf4jnsgd1na2vs0mg"},{"bike_id":"42675edf-45d0-4acb-a04f-7d2046352aec","system_id":"levelo_inurba_marseille","lat":43.29903,"lon":5.43647,"is_reserved":false,"is_disabled":false,"rental_uris":{"android":"levelo://app?vid=42675edf-45d0-4acb-a04f-7d2046352aec","ios":"levelo://app?vid=42675edf-45d0-4acb-a04f-7d2046352aec"},"vehicle_type_id":"4","last_reported":1743077991,"current_range_meters":10000,"station_id":"ce4bhpp2rcd13ifvqhfg","pricing_plan_id":"cebpf4jnsgd1na2vs0mg"},{"bike_id":"5611c475-851f-4bff-9eb4-1673a793d8d7","system_id":"levelo_inurba_marseille","lat":43.31361,"lon":5.36715,"is_reserved":false,"is_disabled":true,"rental_uris":{"android":"levelo://app?vid=5611c475-851f-4bff-9eb4-1673a793d8d7","ios":"levelo://app?vid=5611c475-851f-4bff-9eb4-1673a793d8d7"},"vehicle_type_id":"4","last_reported":1743077991,"current_range_meters":10000,"station_id":"","pricing_plan_id":"cebpf4jnsgd1na2vs0mg"},{"bike_id":"7226775f-0346-45e7-8247-171bdbcfcc59","system_id":"levelo_inurba_marseille","lat":43.29039,"lon":5.39966,"is_reserved":false,"is_disabled":false,"rental_uris":{"android":"levelo://app?vid=7226775f-0346-45e7-8247-171bdbcfcc59","ios":"levelo://app?vid=7226775f-0346-45e7-8247-171bdbcfcc59"},"vehicle_type_id":"4","last_reported":1743077991,"current_range_meters":9600,"station_id":"ce4bh392rcd13ifvqdm0","pricing_plan_id":"cebpf4jnsgd1na2vs0mg"},{"bike_id":"c18155db-65c7-4d5a-8c5b-923eb75c675d","system_id":"levelo_inurba_marseille","lat":43.32104,"lon":5.36817,"is_reserved":false,"is_disabled":false,"rental_uris":{"android":"levelo://app?vid=c18155db-65c7-4d5a-8c5b-923eb75c675d","ios":"levelo://app?vid=c18155db-65c7-4d5a-8c5b-923eb75c675d"},"vehicle_type_id":"4","last_reported":1743077991,"current_range_meters":10000,"station_id":"ce4bhrh2rcd13ifvqhug","pricing_plan_id":"cebpf4jnsgd1na2vs0mg"},{"bike_id":"d78bef9c-ed08-4dd3-be8c-89d87f9036be","system_id":"levelo_inurba_marseille","lat":43.28433,"lon":5.35011,"is_reserved":false,"is_disabled":false,"rental_uris":{"android":"levelo://app?vid=d78bef9c-ed08-4dd3-be8c-89d87f9036be","ios":"levelo://app?vid=d78bef9c-ed08-4dd3-be8c-89d87f9036be"},"vehicle_type_id":"4","last_reported":1743077991,"current_range_meters":10000,"station_id":"ce4bhbh2rcd13ifvqepg","pricing_plan_id":"cebpf4jnsgd1na2vs0mg"},{"bike_id":"b0146bce-8fe4-4d30-bb2b-985ab1f560a1","system_id":"levelo_inurba_marseille","lat":43.31361,"lon":5.38489,"is_reserved":false,"is_disabled":false,"rental_uris":{"android":"levelo://app?vid=b0146bce-8fe4-4d30-bb2b-985ab1f560a1","ios":"levelo://app?vid=b0146bce-8fe4-4d30-bb2b-985ab1f560a1"},"vehicle_type_id":"4","last_reported":1743077991,"current_range_meters":10000,"station_id":"ce4bgt92rcd13ifvqcf0","pricing_plan_id":"cebpf4jnsgd1na2vs0mg"},{"bike_id":"1c21b756-e036-4348-8b3e-23fd217ddfa2","system_id":"levelo_inurba_marseille","lat":43.26957,"lon":5.38626,"is_reserved":false,"is_disabled":false,"rental_uris":{"android":"levelo://app?vid=1c21b756-e036-4348-8b3e-23fd217ddfa2","ios":"levelo://app?vid=1c21b756-e036-4348-8b3e-23fd217ddfa2"},"vehicle_type_id":"4","last_reported":1743077991,"current_range_meters":10000,"station_id":"ce4bhh92rcd13ifvqfh0","pricing_plan_id":"cebpf4jnsgd1na2vs0mg"},{"bike_id":"cc47bdae-e849-4c2a-a9b3-b38e0f1eb05b","system_id":"levelo_inurba_marseille","lat":43.24995,"lon":5.38929,"is_reserved":false,"is_disabled":false,"rental_uris":{"android":"levelo://app?vid=cc47bdae-e849-4c2a-a9b3-b38e0f1eb05b","ios":"levelo://app?vid=cc47bdae-e849-4c2a-a9b3-b38e0f1eb05b"},"vehicle_type_id":"4","last_reported":1743077991,"current_range_meters":10000,"station_id":"ce4bhgp2rcd13ifvqfd0","pricing_plan_id":"cebpf4jnsgd1na2vs0mg"},{"bike_id":"fc180b99-9347-4102-af72-daaa2aa7f1ff","system_id":"levelo_inurba_marseille","lat":43.31761,"lon":5.39012,"is_reserved":false,"is_disabled":false,"rental_uris":{"android":"levelo://app?vid=fc180b99-9347-4102-af72-daaa2aa7f1ff","ios":"levelo://app?vid=fc180b99-9347-4102-af72-daaa2aa7f1ff"},"vehicle_type_id":"4","last_reported":1743077991,"current_range_meters":9600,"station_id":"ce4bhqp2rcd13ifvqhng","pricing_plan_id":"cebpf4jnsgd1na2vs0mg"},{"bike_id":"2a8938f3-a92d-4fae-9674-112eef02fe99","system_id":"levelo_inurba_marseille","lat":43.31217,"lon":5.36867,"is_reserved":false,"is_disabled":true,"rental_uris":{"android":"levelo://app?vid=2a8938f3-a92d-4fae-9674-112eef02fe99","ios":"levelo://app?vid=2a8938f3-a92d-4fae-9674-112eef02fe99"},"vehicle_type_id":"4","last_reported":1743077991,"current_range_meters":10800,"station_id":"ce4bgl92rcd13ifvqbq0","pricing_plan_id":"cebpf4jnsgd1na2vs0mg"},{"bike_id":"75c7187b-7cb5-4136-b180-795a32bcbe1d","system_id":"levelo_inurba_marseille","lat":43.27974,"lon":5.38589,"is_reserved":false,"is_disabled":true,"rental_uris":{"android":"levelo://app?vid=75c7187b-7cb5-4136-b180-795a32bcbe1d","ios":"levelo://app?vid=75c7187b-7cb5-4136-b180-795a32bcbe1d"},"vehicle_type_id":"4","last_reported":1743077991,"current_range_meters":10800,"station_id":"","pricing_plan_id":"cebpf4jnsgd1na2vs0mg"},{"bike_id":"0ac88cdf-dd3a-494f-aaa5-2b24d1ce393f","system_id":"levelo_inurba_marseille","lat":43.23188,"lon":5.3556,"is_reserved":false,"is_disabled":false,"rental_uris":{"android":"levelo://app?vid=0ac88cdf-dd3a-494f-aaa5-2b24d1ce393f","ios":"levelo://app?vid=0ac88cdf-dd3a-494f-aaa5-2b24d1ce393f"},"vehicle_type_id":"4","last_reported":1743077991,"current_range_meters":10800,"station_id":"ce4bhu92rcd13ifvqi70","pricing_plan_id":"cebpf4jnsgd1na2vs0mg"},{"bike_id":"1315cf04-c031-4438-b452-80eff3dd2e77","system_id":"levelo_inurba_marseille","lat":43.25017,"lon":5.38957,"is_reserved":false,"is_disabled":false,"rental_uris":{"android":"levelo://app?vid=1315cf04-c031-4438-b452-80eff3dd2e77","ios":"levelo://app?vid=1315cf04-c031-4438-b452-80eff3dd2e77"},"vehicle_type_id":"4","last_reported":1743077991,"current_range_meters":10800,"station_id":"ce4bhgp2rcd13ifvqfd0","pricing_plan_id":"cebpf4jnsgd1na2vs0mg"},{"bike_id":"3a9bdcca-abab-46db-a40a-336182c98f57","system_id":"levelo_inurba_marseille","lat":43.27814,"lon":5.40716,"is_reserved":false,"is_disabled":false,"rental_uris":{"android":"levelo://app?vid=3a9bdcca-abab-46db-a40a-336182c98f57","ios":"levelo://app?vid=3a9bdcca-abab-46db-a40a-336182c98f57"},"vehicle_type_id":"4","last_reported":1743077991,"current_range_meters":11200,"station_id":"ce4bhnh2rcd13ifvqgtg","pricing_plan_id":"cebpf4jnsgd1na2vs0mg"},{"bike_id":"fe60eebf-1b13-4e0b-9a60-9ee974b6fc55","system_id":"levelo_inurba_marseille","lat":43.27566,"lon":5.38422,"is_reserved":false,"is_disabled":false,"rental_uris":{"android":"levelo://app?vid=fe60eebf-1b13-4e0b-9a60-9ee974b6fc55","ios":"levelo://app?vid=fe60eebf-1b13-4e0b-9a60-9ee974b6fc55"},"vehicle_type_id":"4","last_reported":1743077991,"current_range_meters":11200,"station_id":"ce4bhh92rcd13ifvqfi0","pricing_plan_id":"cebpf4jnsgd1na2vs0mg"},{"bike_id":"eca4da62-6370-4187-bd27-0c03f6c76648","system_id":"levelo_inurba_marseille","lat":43.304712,"lon":5.37913,"is_reserved":false,"is_disabled":false,"rental_uris":{"android":"levelo://app?vid=eca4da62-6370-4187-bd27-0c03f6c76648","ios":"levelo://app?vid=eca4da62-6370-4187-bd27-0c03f6c76648"},"vehicle_type_id":"4","last_reported":1743077991,"current_range_meters":11200,"station_id":"ce4bgup2rcd13ifvqcn0","pricing_plan_id":"cebpf4jnsgd1na2vs0mg"},{"bike_id":"2079e143-15fb-4fca-b428-1dcdbd2da2aa","system_id":"levelo_inurba_marseille","lat":43.27864,"lon":5.40678,"is_reserved":false,"is_disabled":false,"rental_uris":{"android":"levelo://app?vid=2079e143-15fb-4fca-b428-1dcdbd2da2aa","ios":"levelo://app?vid=2079e143-15fb-4fca-b428-1dcdbd2da2aa"},"vehicle_type_id":"4","last_reported":1743077991,"current_range_meters":11200,"station_id":"ce4bhnh2rcd13ifvqgtg","pricing_plan_id":"cebpf4jnsgd1na2vs0mg"},{"bike_id":"b7df044c-a420-415e-b7b7-345aa8eb07fc","system_id":"levelo_inurba_marseille","lat":43.3184,"lon":5.38724,"is_reserved":false,"is_disabled":false,"rental_uris":{"android":"levelo://app?vid=b7df044c-a420-415e-b7b7-345aa8eb07fc","ios":"levelo://app?vid=b7df044c-a420-415e-b7b7-345aa8eb07fc"},"vehicle_type_id":"4","last_reported":1743077991,"current_range_meters":11200,"station_id":"","pricing_plan_id":"cebpf4jnsgd1na2vs0mg"},{"bike_id":"64f0ea86-1180-4755-95e1-3cbc9c8d4cf5","system_id":"levelo_inurba_marseille","lat":43.330073,"lon":5.438669,"is_reserved":false,"is_disabled":true,"rental_uris":{"android":"levelo://app?vid=64f0ea86-1180-4755-95e1-3cbc9c8d4cf5","ios":"levelo://app?vid=64f0ea86-1180-4755-95e1-3cbc9c8d4cf5"},"vehicle_type_id":"4","last_reported":1743077991,"current_range_meters":11200,"station_id":"","pricing_plan_id":"cebpf4jnsgd1na2vs0mg"},{"bike_id":"a77fc623-5e04-4cc1-84fd-2da4f33224eb","system_id":"levelo_inurba_marseille","lat":43.2998,"lon":5.38509,"is_reserved":false,"is_disabled":false,"rental_uris":{"android":"levelo://app?vid=a77fc623-5e04-4cc1-84fd-2da4f33224eb","ios":"levelo://app?vid=a77fc623-5e04-4cc1-84fd-2da4f33224eb"},"vehicle_type_id":"4","last_reported":1743077991,"current_range_meters":11200,"station_id":"ce4bgj92rcd13ifvqbd0","pricing_plan_id":"cebpf4jnsgd1na2vs0mg"},{"bike_id":"fc8e8371-f4e9-4721-bc19-563801e389dc","system_id":"levelo_inurba_marseille","lat":43.337444,"lon":5.374475,"is_reserved":false,"is_disabled":false,"rental_uris":{"android":"levelo://app?vid=fc8e8371-f4e9-4721-bc19-563801e389dc","ios":"levelo://app?vid=fc8e8371-f4e9-4721-bc19-563801e389dc"},"vehicle_type_id":"4","last_reported":1743077991,"current_range_meters":11200,"station_id":"","pricing_plan_id":"cebpf4jnsgd1na2vs0mg"},{"bike_id":"025425bb-1287-4df2-9401-0428a6e93f63","system_id":"levelo_inurba_marseille","lat":43.30911,"lon":5.36855,"is_reserved":false,"is_disabled":false,"rental_uris":{"android":"levelo://app?vid=025425bb-1287-4df2-9401-0428a6e93f63","ios":"levelo://app?vid=025425bb-1287-4df2-9401-0428a6e93f63"},"vehicle_type_id":"4","last_reported":1743077991,"current_range_meters":11600,"station_id":"ce4bgn92rcd13ifvqbvg","pricing_plan_id":"cebpf4jnsgd1na2vs0mg"},{"bike_id":"2d4748b4-d1d5-4d84-85e6-b23c9f28a316","system_id":"levelo_inurba_marseille","lat":43.24143,"lon":5.3973,"is_reserved":false,"is_disabled":false,"rental_uris":{"android":"levelo://app?vid=2d4748b4-d1d5-4d84-85e6-b23c9f28a316","ios":"levelo://app?vid=2d4748b4-d1d5-4d84-85e6-b23c9f28a316"},"vehicle_type_id":"4","last_reported":1743077991,"current_range_meters":11600,"station_id":"ce4bhn12rcd13ifvqgpg","pricing_plan_id":"cebpf4jnsgd1na2vs0mg"},{"bike_id":"873e640f-15ea-478a-af22-72420f38ce62","system_id":"levelo_inurba_marseille","lat":43.32336,"lon":5.40628,"is_reserved":false,"is_disabled":false,"rental_uris":{"android":"levelo://app?vid=873e640f-15ea-478a-af22-72420f38ce62","ios":"levelo://app?vid=873e640f-15ea-478a-af22-72420f38ce62"},"vehicle_type_id":"4","last_reported":1743077991,"current_range_meters":11600,"station_id":"ce4bhq92rcd13ifvqhjg","pricing_plan_id":"cebpf4jnsgd1na2vs0mg"},{"bike_id":"5e611bed-ca9d-4d28-bd90-aa8fd404a87a","system_id":"levelo_inurba_marseille","lat":43.2482,"lon":5.37454,"is_reserved":false,"is_disabled":true,"rental_uris":{"android":"levelo://app?vid=5e611bed-ca9d-4d28-bd90-aa8fd404a87a","ios":"levelo://app?vid=5e611bed-ca9d-4d28-bd90-aa8fd404a87a"},"vehicle_type_id":"4","last_reported":1743077991,"current_range_meters":11600,"station_id":"ce4bhgh2rcd13ifvqfb0","pricing_plan_id":"cebpf4jnsgd1na2vs0mg"},{"bike_id":"30cd612a-8cb0-4fab-9e3a-cd08e9fc22b5","system_id":"levelo_inurba_marseille","lat":43.2952,"lon":5.39387,"is_reserved":false,"is_disabled":true,"rental_uris":{"android":"levelo://app?vid=30cd612a-8cb0-4fab-9e3a-cd08e9fc22b5","ios":"levelo://app?vid=30cd612a-8cb0-4fab-9e3a-cd08e9fc22b5"},"vehicle_type_id":"4","last_reported":1743077991,"current_range_meters":11600,"station_id":"ce4bh292rcd13ifvqdf0","pricing_plan_id":"cebpf4jnsgd1na2vs0mg"},{"bike_id":"1d8d714c-f99b-4f65-9040-49bcc2897371","system_id":"levelo_inurba_marseille","lat":43.29094,"lon":5.38128,"is_reserved":false,"is_disabled":true,"rental_uris":{"android":"levelo://app?vid=1d8d714c-f99b-4f65-9040-49bcc2897371","ios":"levelo://app?vid=1d8d714c-f99b-4f65-9040-49bcc2897371"},"vehicle_type_id":"4","last_reported":1743077991,"current_range_meters":11600,"station_id":"ce4bh512rcd13ifvqe2g","pricing_plan_id":"cebpf4jnsgd1na2vs0mg"},{"bike_id":"92993cb4-59aa-4202-a566-3ebb75cd8e0a","system_id":"levelo_inurba_marseille","lat":43.29003,"lon":5.3561,"is_reserved":false,"is_disabled":false,"rental_uris":{"android":"levelo://app?vid=92993cb4-59aa-4202-a566-3ebb75cd8e0a","ios":"levelo://app?vid=92993cb4-59aa-4202-a566-3ebb75cd8e0a"},"vehicle_type_id":"4","last_reported":1743077991,"current_range_meters":11600,"station_id":"ce4bhb92rcd13ifvqen0","pricing_plan_id":"cebpf4jnsgd1na2vs0mg"},{"bike_id":"3d290f3b-e4f4-46ff-bb6d-65fa0034a269","system_id":"levelo_inurba_marseille","lat":43.31226,"lon":5.36854,"is_reserved":false,"is_disabled":false,"rental_uris":{"android":"levelo://app?vid=3d290f3b-e4f4-46ff-bb6d-65fa0034a269","ios":"levelo://app?vid=3d290f3b-e4f4-46ff-bb6d-65fa0034a269"},"vehicle_type_id":"4","last_reported":1743077991,"current_range_meters":11600,"station_id":"ce4bgl92rcd13ifvqbq0","pricing_plan_id":"cebpf4jnsgd1na2vs0mg"},{"bike_id":"4bab6223-4ee6-4dc4-ae05-f7366f76b24b","system_id":"levelo_inurba_marseille","lat":43.278183,"lon":5.407178,"is_reserved":false,"is_disabled":false,"rental_uris":{"android":"levelo://app?vid=4bab6223-4ee6-4dc4-ae05-f7366f76b24b","ios":"levelo://app?vid=4bab6223-4ee6-4dc4-ae05-f7366f76b24b"},"vehicle_type_id":"4","last_reported":1743077991,"current_range_meters":11600,"station_id":"ce4bhnh2rcd13ifvqgtg","pricing_plan_id":"cebpf4jnsgd1na2vs0mg"},{"bike_id":"9c2e20b3-f9e7-4588-934a-ef6d6223514b","system_id":"levelo_inurba_marseille","lat":43.30104,"lon":5.37475,"is_reserved":false,"is_disabled":false,"rental_uris":{"android":"levelo://app?vid=9c2e20b3-f9e7-4588-934a-ef6d6223514b","ios":"levelo://app?vid=9c2e20b3-f9e7-4588-934a-ef6d6223514b"},"vehicle_type_id":"4","last_reported":1743077991,"current_range_meters":11600,"station_id":"","pricing_plan_id":"cebpf4jnsgd1na2vs0mg"},{"bike_id":"9c8af011-7519-4281-8ab8-945b2a0d6ea9","system_id":"levelo_inurba_marseille","lat":43.30461,"lon":5.37903,"is_reserved":false,"is_disabled":false,"rental_uris":{"android":"levelo://app?vid=9c8af011-7519-4281-8ab8-945b2a0d6ea9","ios":"levelo://app?vid=9c8af011-7519-4281-8ab8-945b2a0d6ea9"},"vehicle_type_id":"4","last_reported":1743077991,"current_range_meters":12000,"station_id":"ce4bgup2rcd13ifvqcn0","pricing_plan_id":"cebpf4jnsgd1na2vs0mg"},{"bike_id":"12de2a5d-af1a-406f-ae29-1792c23b418c","system_id":"levelo_inurba_marseille","lat":43.2842,"lon":5.35,"is_reserved":false,"is_disabled":false,"rental_uris":{"android":"levelo://app?vid=12de2a5d-af1a-406f-ae29-1792c23b418c","ios":"levelo://app?vid=12de2a5d-af1a-406f-ae29-1792c23b418c"},"vehicle_type_id":"4","last_reported":1743077991,"current_range_meters":12000,"station_id":"ce4bhbh2rcd13ifvqepg","pricing_plan_id":"cebpf4jnsgd1na2vs0mg"},{"bike_id":"60d0dbbf-88d3-4a52-a6d0-645622533b79","system_id":"levelo_inurba_marseille","lat":43.23148,"lon":5.43717,"is_reserved":false,"is_disabled":false,"rental_uris":{"android":"levelo://app?vid=60d0dbbf-88d3-4a52-a6d0-645622533b79","ios":"levelo://app?vid=60d0dbbf-88d3-4a52-a6d0-645622533b79"},"vehicle_type_id":"4","last_reported":1743077991,"current_range_meters":12000,"station_id":"ce4bhmp2rcd13ifvqgog","pricing_plan_id":"cebpf4jnsgd1na2vs0mg"},{"bike_id":"00f8a823-b5b1-4799-904b-6136ec63ab41","system_id":"levelo_inurba_marseille","lat":43.28621,"lon":5.35097,"is_reserved":false,"is_disabled":false,"rental_uris":{"android":"levelo://app?vid=00f8a823-b5b1-4799-904b-6136ec63ab41","ios":"levelo://app?vid=00f8a823-b5b1-4799-904b-6136ec63ab41"},"vehicle_type_id":"4","last_reported":1743077991,"current_range_meters":12000,"station_id":"ce4bhch2rcd13ifvqeug","pricing_plan_id":"cebpf4jnsgd1na2vs0mg"},{"bike_id":"25c93242-72e6-4525-aea7-7d96e2cd1825","system_id":"levelo_inurba_marseille","lat":43.33091,"lon":5.4083,"is_reserved":false,"is_disabled":false,"rental_uris":{"android":"levelo://app?vid=25c93242-72e6-4525-aea7-7d96e2cd1825","ios":"levelo://app?vid=25c93242-72e6-4525-aea7-7d96e2cd1825"},"vehicle_type_id":"4","last_reported":1743077991,"current_range_meters":12000,"station_id":"","pricing_plan_id":"cebpf4jnsgd1na2vs0mg"},{"bike_id":"9a15a95f-cf9b-4362-bb25-0b5170108c0a","system_id":"levelo_inurba_marseille","lat":43.30541,"lon":5.36565,"is_reserved":false,"is_disabled":false,"rental_uris":{"android":"levelo://app?vid=9a15a95f-cf9b-4362-bb25-0b5170108c0a","ios":"levelo://app?vid=9a15a95f-cf9b-4362-bb25-0b5170108c0a"},"vehicle_type_id":"4","last_reported":1743077991,"current_range_meters":12000,"station_id":"ce4bgs12rcd13ifvqcag","pricing_plan_id":"cebpf4jnsgd1na2vs0mg"},{"bike_id":"19221227-42ec-4f4b-8f04-42a0818e22f5","system_id":"levelo_inurba_marseille","lat":43.321054,"lon":5.36778,"is_reserved":false,"is_disabled":false,"rental_uris":{"android":"levelo://app?vid=19221227-42ec-4f4b-8f04-42a0818e22f5","ios":"levelo://app?vid=19221227-42ec-4f4b-8f04-42a0818e22f5"},"vehicle_type_id":"4","last_reported":1743077991,"current_range_meters":12000,"station_id":"ce4bhrh2rcd13ifvqhug","pricing_plan_id":"cebpf4jnsgd1na2vs0mg"},{"bike_id":"dee19a89-a423-464a-9a44-df2825c63a05","system_id":"levelo_inurba_marseille","lat":43.2408,"lon":5.37756,"is_reserved":false,"is_disabled":false,"rental_uris":{"android":"levelo://app?vid=dee19a89-a423-464a-9a44-df2825c63a05","ios":"levelo://app?vid=dee19a89-a423-464a-9a44-df2825c63a05"},"vehicle_type_id":"4","last_reported":1743077991,"current_range_meters":12000,"station_id":"ce4bhnp2rcd13ifvqgvg","pricing_plan_id":"cebpf4jnsgd1na2vs0mg"},{"bike_id":"46bc710b-ba5b-4a06-b139-1452387f1098","system_id":"levelo_inurba_marseille","lat":43.23155,"lon":5.43716,"is_reserved":false,"is_disabled":false,"rental_uris":{"android":"levelo://app?vid=46bc710b-ba5b-4a06-b139-1452387f1098","ios":"levelo://app?vid=46bc710b-ba5b-4a06-b139-1452387f1098"},"vehicle_type_id":"4","last_reported":1743077991,"current_range_meters":12400,"station_id":"ce4bhmp2rcd13ifvqgog","pricing_plan_id":"cebpf4jnsgd1na2vs0mg"},{"bike_id":"88ac7731-65ca-448c-83da-6be0c3b0e675","system_id":"levelo_inurba_marseille","lat":43.29005,"lon":5.35617,"is_reserved":false,"is_disabled":false,"rental_uris":{"android":"levelo://app?vid=88ac7731-65ca-448c-83da-6be0c3b0e675","ios":"levelo://app?vid=88ac7731-65ca-448c-83da-6be0c3b0e675"},"vehicle_type_id":"4","last_reported":1743077991,"current_range_meters":12400,"station_id":"ce4bhb92rcd13ifvqen0","pricing_plan_id":"cebpf4jnsgd1na2vs0mg"},{"bike_id":"929dc956-2b4d-4a62-a433-5892161c84a1","system_id":"levelo_inurba_marseille","lat":43.32516,"lon":5.36655,"is_reserved":false,"is_disabled":false,"rental_uris":{"android":"levelo://app?vid=929dc956-2b4d-4a62-a433-5892161c84a1","ios":"levelo://app?vid=929dc956-2b4d-4a62-a433-5892161c84a1"},"vehicle_type_id":"4","last_reported":1743077991,"current_range_meters":12400,"station_id":"","pricing_plan_id":"cebpf4jnsgd1na2vs0mg"},{"bike_id":"310533ef-db94-4ac8-9ada-b0387b0b2d2c","system_id":"levelo_inurba_marseille","lat":43.30414,"lon":5.41292,"is_reserved":false,"is_disabled":false,"rental_uris":{"android":"levelo://app?vid=310533ef-db94-4ac8-9ada-b0387b0b2d2c","ios":"levelo://app?vid=310533ef-db94-4ac8-9ada-b0387b0b2d2c"},"vehicle_type_id":"4","last_reported":1743077991,"current_range_meters":12400,"station_id":"ce4bhop2rcd13ifvqh8g","pricing_plan_id":"cebpf4jnsgd1na2vs0mg"},{"bike_id":"59b78039-07c8-4481-876d-404938d15499","system_id":"levelo_inurba_marseille","lat":43.30522,"lon":5.36535,"is_reserved":false,"is_disabled":false,"rental_uris":{"android":"levelo://app?vid=59b78039-07c8-4481-876d-404938d15499","ios":"levelo://app?vid=59b78039-07c8-4481-876d-404938d15499"},"vehicle_type_id":"4","last_reported":1743077991,"current_range_meters":12400,"station_id":"","pricing_plan_id":"cebpf4jnsgd1na2vs0mg"},{"bike_id":"f2ef1250-dd46-4c02-88f4-f88b02d93360","system_id":"levelo_inurba_marseille","lat":43.27607,"lon":5.36109,"is_reserved":false,"is_disabled":false,"rental_uris":{"android":"levelo://app?vid=f2ef1250-dd46-4c02-88f4-f88b02d93360","ios":"levelo://app?vid=f2ef1250-dd46-4c02-88f4-f88b02d93360"},"vehicle_type_id":"4","last_reported":1743077991,"current_range_meters":12400,"station_id":"ce4bgj92rcd13ifvqbe0","pricing_plan_id":"cebpf4jnsgd1na2vs0mg"},{"bike_id":"b90ea539-cd4c-4e2f-8708-ffa01e215a77","system_id":"levelo_inurba_marseille","lat":43.31343,"lon":5.36731,"is_reserved":false,"is_disabled":false,"rental_uris":{"android":"levelo://app?vid=b90ea539-cd4c-4e2f-8708-ffa01e215a77","ios":"levelo://app?vid=b90ea539-cd4c-4e2f-8708-ffa01e215a77"},"vehicle_type_id":"4","last_reported":1743077991,"current_range_meters":12400,"station_id":"ce4bgr92rcd13ifvqc6g","pricing_plan_id":"cebpf4jnsgd1na2vs0mg"},{"bike_id":"25f5ae66-9bed-4bb5-9e41-64fcd661e193","system_id":"levelo_inurba_marseille","lat":43.31248,"lon":5.369,"is_reserved":false,"is_disabled":false,"rental_uris":{"android":"levelo://app?vid=25f5ae66-9bed-4bb5-9e41-64fcd661e193","ios":"levelo://app?vid=25f5ae66-9bed-4bb5-9e41-64fcd661e193"},"vehicle_type_id":"4","last_reported":1743077991,"current_range_meters":12400,"station_id":"ce4bgl92rcd13ifvqbq0","pricing_plan_id":"cebpf4jnsgd1na2vs0mg"},{"bike_id":"a4dcb781-8dd2-4d35-a142-fb423ca7408b","system_id":"levelo_inurba_marseille","lat":43.31116,"lon":5.37784,"is_reserved":false,"is_disabled":false,"rental_uris":{"android":"levelo://app?vid=a4dcb781-8dd2-4d35-a142-fb423ca7408b","ios":"levelo://app?vid=a4dcb781-8dd2-4d35-a142-fb423ca7408b"},"vehicle_type_id":"4","last_reported":1743077991,"current_range_meters":12400,"station_id":"ce4bgt92rcd13ifvqcg0","pricing_plan_id":"cebpf4jnsgd1na2vs0mg"},{"bike_id":"8807847f-5642-45cc-8ff0-f9d7321a15fa","system_id":"levelo_inurba_marseille","lat":43.29037,"lon":5.39949,"is_reserved":false,"is_disabled":false,"rental_uris":{"android":"levelo://app?vid=8807847f-5642-45cc-8ff0-f9d7321a15fa","ios":"levelo://app?vid=8807847f-5642-45cc-8ff0-f9d7321a15fa"},"vehicle_type_id":"4","last_reported":1743077991,"current_range_meters":12400,"station_id":"ce4bh392rcd13ifvqdm0","pricing_plan_id":"cebpf4jnsgd1na2vs0mg"},{"bike_id":"4148286b-bba9-4adb-8839-83b192769343","system_id":"levelo_inurba_marseille","lat":43.28423,"lon":5.34981,"is_reserved":false,"is_disabled":false,"rental_uris":{"android":"levelo://app?vid=4148286b-bba9-4adb-8839-83b192769343","ios":"levelo://app?vid=4148286b-bba9-4adb-8839-83b192769343"},"vehicle_type_id":"4","last_reported":1743077991,"current_range_meters":12400,"station_id":"ce4bhbh2rcd13ifvqepg","pricing_plan_id":"cebpf4jnsgd1na2vs0mg"},{"bike_id":"e06a053a-e129-490b-9b65-9b32b33257f8","system_id":"levelo_inurba_marseille","lat":43.312225,"lon":5.36866,"is_reserved":false,"is_disabled":false,"rental_uris":{"android":"levelo://app?vid=e06a053a-e129-490b-9b65-9b32b33257f8","ios":"levelo://app?vid=e06a053a-e129-490b-9b65-9b32b33257f8"},"vehicle_type_id":"4","last_reported":1743077991,"current_range_meters":12400,"station_id":"ce4bh512rcd13ifvqe2g","pricing_plan_id":"cebpf4jnsgd1na2vs0mg"},{"bike_id":"648d9142-0ea6-4148-82b8-63122bfed330","system_id":"levelo_inurba_marseille","lat":43.287036,"lon":5.399906,"is_reserved":false,"is_disabled":false,"rental_uris":{"android":"levelo://app?vid=648d9142-0ea6-4148-82b8-63122bfed330","ios":"levelo://app?vid=648d9142-0ea6-4148-82b8-63122bfed330"},"vehicle_type_id":"4","last_reported":1743077991,"current_range_meters":12800,"station_id":"ce4bho92rcd13ifvqh3g","pricing_plan_id":"cebpf4jnsgd1na2vs0mg"},{"bike_id":"f00e0bf1-e77c-4752-8f1b-63a2e565cf51","system_id":"levelo_inurba_marseille","lat":43.27968,"lon":5.38723,"is_reserved":false,"is_disabled":true,"rental_uris":{"android":"levelo://app?vid=f00e0bf1-e77c-4752-8f1b-63a2e565cf51","ios":"levelo://app?vid=f00e0bf1-e77c-4752-8f1b-63a2e565cf51"},"vehicle_type_id":"4","last_reported":1743077991,"current_range_meters":12800,"station_id":"ce4bhg12rcd13ifvqf80","pricing_plan_id":"cebpf4jnsgd1na2vs0mg"},{"bike_id":"3528c57a-0092-446c-b932-7666785ccd87","system_id":"levelo_inurba_marseille","lat":43.290131,"lon":5.356298,"is_reserved":false,"is_disabled":false,"rental_uris":{"android":"levelo://app?vid=3528c57a-0092-446c-b932-7666785ccd87","ios":"levelo://app?vid=3528c57a-0092-446c-b932-7666785ccd87"},"vehicle_type_id":"4","last_reported":1743077991,"current_range_meters":12800,"station_id":"ce4bhb92rcd13ifvqen0","pricing_plan_id":"cebpf4jnsgd1na2vs0mg"},{"bike_id":"b69d2198-072c-40c0-aa6a-a7cee229b06d","system_id":"levelo_inurba_marseille","lat":43.23149,"lon":5.437235,"is_reserved":false,"is_disabled":false,"rental_uris":{"android":"levelo://app?vid=b69d2198-072c-40c0-aa6a-a7cee229b06d","ios":"levelo://app?vid=b69d2198-072c-40c0-aa6a-a7cee229b06d"},"vehicle_type_id":"4","last_reported":1743077991,"current_range_meters":12800,"station_id":"ce4bhmp2rcd13ifvqgog","pricing_plan_id":"cebpf4jnsgd1na2vs0mg"},{"bike_id":"df767ddd-5f05-41e7-9ca1-d7a3b4ddff9f","system_id":"levelo_inurba_marseille","lat":43.24085,"lon":5.37734,"is_reserved":false,"is_disabled":false,"rental_uris":{"android":"levelo://app?vid=df767ddd-5f05-41e7-9ca1-d7a3b4ddff9f","ios":"levelo://app?vid=df767ddd-5f05-41e7-9ca1-d7a3b4ddff9f"},"vehicle_type_id":"4","last_reported":1743077991,"current_range_meters":12800,"station_id":"ce4bhnp2rcd13ifvqgvg","pricing_plan_id":"cebpf4jnsgd1na2vs0mg"},{"bike_id":"53d01836-8db0-4a34-ac3d-74c9725fbb9f","system_id":"levelo_inurba_marseille","lat":43.27914,"lon":5.39581,"is_reserved":false,"is_disabled":false,"rental_uris":{"android":"levelo://app?vid=53d01836-8db0-4a34-ac3d-74c9725fbb9f","ios":"levelo://app?vid=53d01836-8db0-4a34-ac3d-74c9725fbb9f"},"vehicle_type_id":"4","last_reported":1743077991,"current_range_meters":12800,"station_id":"ce4bhf92rcd13ifvqf40","pricing_plan_id":"cebpf4jnsgd1na2vs0mg"},{"bike_id":"d2779e3d-4287-4ace-9aab-bfc81e294938","system_id":"levelo_inurba_marseille","lat":43.29035,"lon":5.38666,"is_reserved":false,"is_disabled":false,"rental_uris":{"android":"levelo://app?vid=d2779e3d-4287-4ace-9aab-bfc81e294938","ios":"levelo://app?vid=d2779e3d-4287-4ace-9aab-bfc81e294938"},"vehicle_type_id":"4","last_reported":1743077991,"current_range_meters":12800,"station_id":"ce4bh4p2rcd13ifvqe0g","pricing_plan_id":"cebpf4jnsgd1na2vs0mg"},{"bike_id":"98042073-a0f9-4186-ba20-8b62a6f182b0","system_id":"levelo_inurba_marseille","lat":43.31082,"lon":5.42431,"is_reserved":false,"is_disabled":false,"rental_uris":{"android":"levelo://app?vid=98042073-a0f9-4186-ba20-8b62a6f182b0","ios":"levelo://app?vid=98042073-a0f9-4186-ba20-8b62a6f182b0"},"vehicle_type_id":"4","last_reported":1743077991,"current_range_meters":12800,"station_id":"ce4bhp92rcd13ifvqhag","pricing_plan_id":"cebpf4jnsgd1na2vs0mg"},{"bike_id":"5b2118ab-52fe-4b4d-aa8d-a690d39ec9fa","system_id":"levelo_inurba_marseille","lat":43.27912,"lon":5.39595,"is_reserved":false,"is_disabled":false,"rental_uris":{"android":"levelo://app?vid=5b2118ab-52fe-4b4d-aa8d-a690d39ec9fa","ios":"levelo://app?vid=5b2118ab-52fe-4b4d-aa8d-a690d39ec9fa"},"vehicle_type_id":"4","last_reported":1743077991,"current_range_meters":12800,"station_id":"ce4bhf92rcd13ifvqf40","pricing_plan_id":"cebpf4jnsgd1na2vs0mg"},{"bike_id":"4605e24d-65b2-4424-9d4d-b88f889f4b8e","system_id":"levelo_inurba_marseille","lat":43.28106,"lon":5.39849,"is_reserved":false,"is_disabled":false,"rental_uris":{"android":"levelo://app?vid=4605e24d-65b2-4424-9d4d-b88f889f4b8e","ios":"levelo://app?vid=4605e24d-65b2-4424-9d4d-b88f889f4b8e"},"vehicle_type_id":"4","last_reported":1743077991,"current_range_meters":12800,"station_id":"","pricing_plan_id":"cebpf4jnsgd1na2vs0mg"},{"bike_id":"927f6187-1bcd-4667-905a-785028d00d8e","system_id":"levelo_inurba_marseille","lat":43.251206,"lon":5.403149,"is_reserved":false,"is_disabled":false,"rental_uris":{"android":"levelo://app?vid=927f6187-1bcd-4667-905a-785028d00d8e","ios":"levelo://app?vid=927f6187-1bcd-4667-905a-785028d00d8e"},"vehicle_type_id":"4","last_reported":1743077991,"current_range_meters":13600,"station_id":"ce4bhlh2rcd13ifvqgig","pricing_plan_id":"cebpf4jnsgd1na2vs0mg"},{"bike_id":"4d0e83d0-a03f-4251-a8eb-35e0793a980d","system_id":"levelo_inurba_marseille","lat":43.28943,"lon":5.36401,"is_reserved":false,"is_disabled":false,"rental_uris":{"android":"levelo://app?vid=4d0e83d0-a03f-4251-a8eb-35e0793a980d","ios":"levelo://app?vid=4d0e83d0-a03f-4251-a8eb-35e0793a980d"},"vehicle_type_id":"4","last_reported":1743077991,"current_range_meters":13600,"station_id":"ce4bhc92rcd13ifvqetg","pricing_plan_id":"cebpf4jnsgd1na2vs0mg"},{"bike_id":"69b50d6e-00b3-4e22-be04-59a1e9696636","system_id":"levelo_inurba_marseille","lat":43.26213,"lon":5.37439,"is_reserved":false,"is_disabled":false,"rental_uris":{"android":"levelo://app?vid=69b50d6e-00b3-4e22-be04-59a1e9696636","ios":"levelo://app?vid=69b50d6e-00b3-4e22-be04-59a1e9696636"},"vehicle_type_id":"4","last_reported":1743077991,"current_range_meters":13600,"station_id":"ce4bhgp2rcd13ifvqfc0","pricing_plan_id":"cebpf4jnsgd1na2vs0mg"},{"bike_id":"489e92e1-96f1-4a74-9d00-5686b05f00ff","system_id":"levelo_inurba_marseille","lat":43.24387,"lon":5.37066,"is_reserved":false,"is_disabled":false,"rental_uris":{"android":"levelo://app?vid=489e92e1-96f1-4a74-9d00-5686b05f00ff","ios":"levelo://app?vid=489e92e1-96f1-4a74-9d00-5686b05f00ff"},"vehicle_type_id":"4","last_reported":1743077991,"current_range_meters":13600,"station_id":"ce4bhhh2rcd13ifvqfk0","pricing_plan_id":"cebpf4jnsgd1na2vs0mg"},{"bike_id":"b039ec95-e5a0-43a1-9870-e35ee0b1ae17","system_id":"levelo_inurba_marseille","lat":43.317475,"lon":5.390069,"is_reserved":false,"is_disabled":false,"rental_uris":{"android":"levelo://app?vid=b039ec95-e5a0-43a1-9870-e35ee0b1ae17","ios":"levelo://app?vid=b039ec95-e5a0-43a1-9870-e35ee0b1ae17"},"vehicle_type_id":"4","last_reported":1743077991,"current_range_meters":14000,"station_id":"ce4bhqp2rcd13ifvqhng","pricing_plan_id":"cebpf4jnsgd1na2vs0mg"},{"bike_id":"ac4377b2-45d5-4c4a-a67b-4b69a8a894f2","system_id":"levelo_inurba_marseille","lat":43.262,"lon":5.37925,"is_reserved":false,"is_disabled":false,"rental_uris":{"android":"levelo://app?vid=ac4377b2-45d5-4c4a-a67b-4b69a8a894f2","ios":"levelo://app?vid=ac4377b2-45d5-4c4a-a67b-4b69a8a894f2"},"vehicle_type_id":"4","last_reported":1743077991,"current_range_meters":14000,"station_id":"ce4bhjp2rcd13ifvqg90","pricing_plan_id":"cebpf4jnsgd1na2vs0mg"},{"bike_id":"6bb7a53f-f012-4855-bb26-37beff24b62c","system_id":"levelo_inurba_marseille","lat":43.23065,"lon":5.3549,"is_reserved":false,"is_disabled":false,"rental_uris":{"android":"levelo://app?vid=6bb7a53f-f012-4855-bb26-37beff24b62c","ios":"levelo://app?vid=6bb7a53f-f012-4855-bb26-37beff24b62c"},"vehicle_type_id":"4","last_reported":1743077991,"current_range_meters":14000,"station_id":"cpo3342slgdg3j2ifvpg","pricing_plan_id":"cebpf4jnsgd1na2vs0mg"},{"bike_id":"fca480f8-b315-42ed-8b94-e43ecf953dd7","system_id":"levelo_inurba_marseille","lat":43.26931,"lon":5.38627,"is_reserved":false,"is_disabled":false,"rental_uris":{"android":"levelo://app?vid=fca480f8-b315-42ed-8b94-e43ecf953dd7","ios":"levelo://app?vid=fca480f8-b315-42ed-8b94-e43ecf953dd7"},"vehicle_type_id":"4","last_reported":1743077991,"current_range_meters":14000,"station_id":"ce4bhh92rcd13ifvqfh0","pricing_plan_id":"cebpf4jnsgd1na2vs0mg"},{"bike_id":"d1f25aad-d814-4565-9cc7-df98278dbf79","system_id":"levelo_inurba_marseille","lat":43.26558,"lon":5.37285,"is_reserved":false,"is_disabled":false,"rental_uris":{"android":"levelo://app?vid=d1f25aad-d814-4565-9cc7-df98278dbf79","ios":"levelo://app?vid=d1f25aad-d814-4565-9cc7-df98278dbf79"},"vehicle_type_id":"4","last_reported":1743077991,"current_range_meters":14000,"station_id":"ce4bhg12rcd13ifvqf70","pricing_plan_id":"cebpf4jnsgd1na2vs0mg"},{"bike_id":"fe732956-557a-48a7-90f8-6ea522c4bef7","system_id":"levelo_inurba_marseille","lat":43.26701,"lon":5.38263,"is_reserved":false,"is_disabled":false,"rental_uris":{"android":"levelo://app?vid=fe732956-557a-48a7-90f8-6ea522c4bef7","ios":"levelo://app?vid=fe732956-557a-48a7-90f8-6ea522c4bef7"},"vehicle_type_id":"4","last_reported":1743077991,"current_range_meters":14000,"station_id":"ce4bhg92rcd13ifvqf90","pricing_plan_id":"cebpf4jnsgd1na2vs0mg"},{"bike_id":"e6456943-2894-434c-b781-778555d3d1fd","system_id":"levelo_inurba_marseille","lat":43.27577,"lon":5.38411,"is_reserved":false,"is_disabled":false,"rental_uris":{"android":"levelo://app?vid=e6456943-2894-434c-b781-778555d3d1fd","ios":"levelo://app?vid=e6456943-2894-434c-b781-778555d3d1fd"},"vehicle_type_id":"4","last_reported":1743077991,"current_range_meters":14000,"station_id":"ce4bhh92rcd13ifvqfi0","pricing_plan_id":"cebpf4jnsgd1na2vs0mg"},{"bike_id":"8a67b658-819f-4e1f-b8d2-a64ed779df16","system_id":"levelo_inurba_marseille","lat":43.30146,"lon":5.3741,"is_reserved":false,"is_disabled":false,"rental_uris":{"android":"levelo://app?vid=8a67b658-819f-4e1f-b8d2-a64ed779df16","ios":"levelo://app?vid=8a67b658-819f-4e1f-b8d2-a64ed779df16"},"vehicle_type_id":"4","last_reported":1743077991,"current_range_meters":14000,"station_id":"ce4bgs92rcd13ifvqcc0","pricing_plan_id":"cebpf4jnsgd1na2vs0mg"},{"bike_id":"8052bae7-3b36-4988-a62d-2e0a96997222","system_id":"levelo_inurba_marseille","lat":43.30602,"lon":5.37224,"is_reserved":false,"is_disabled":false,"rental_uris":{"android":"levelo://app?vid=8052bae7-3b36-4988-a62d-2e0a96997222","ios":"levelo://app?vid=8052bae7-3b36-4988-a62d-2e0a96997222"},"vehicle_type_id":"4","last_reported":1743077991,"current_range_meters":14000,"station_id":"ce4bgqh2rcd13ifvqc4g","pricing_plan_id":"cebpf4jnsgd1na2vs0mg"},{"bike_id":"e0f854e6-2375-437d-a78b-6d5bf2ead237","system_id":"levelo_inurba_marseille","lat":43.33421,"lon":5.40065,"is_reserved":false,"is_disabled":false,"rental_uris":{"android":"levelo://app?vid=e0f854e6-2375-437d-a78b-6d5bf2ead237","ios":"levelo://app?vid=e0f854e6-2375-437d-a78b-6d5bf2ead237"},"vehicle_type_id":"4","last_reported":1743077991,"current_range_meters":14000,"station_id":"","pricing_plan_id":"cebpf4jnsgd1na2vs0mg"},{"bike_id":"86f30ee5-de09-4826-8dd8-a6fbbe8a7d1b","system_id":"levelo_inurba_marseille","lat":43.2592,"lon":5.4089,"is_reserved":false,"is_disabled":false,"rental_uris":{"android":"levelo://app?vid=86f30ee5-de09-4826-8dd8-a6fbbe8a7d1b","ios":"levelo://app?vid=86f30ee5-de09-4826-8dd8-a6fbbe8a7d1b"},"vehicle_type_id":"4","last_reported":1743077991,"current_range_meters":14000,"station_id":"ce4bhm92rcd13ifvqglg","pricing_plan_id":"cebpf4jnsgd1na2vs0mg"},{"bike_id":"ef34c5df-04ac-43f5-b064-e6bc9741740d","system_id":"levelo_inurba_marseille","lat":43.32207,"lon":5.3669,"is_reserved":false,"is_disabled":false,"rental_uris":{"android":"levelo://app?vid=ef34c5df-04ac-43f5-b064-e6bc9741740d","ios":"levelo://app?vid=ef34c5df-04ac-43f5-b064-e6bc9741740d"},"vehicle_type_id":"4","last_reported":1743077991,"current_range_meters":14000,"station_id":"","pricing_plan_id":"cebpf4jnsgd1na2vs0mg"},{"bike_id":"561e290b-4db1-442c-80bd-c38abf13836d","system_id":"levelo_inurba_marseille","lat":43.27069,"lon":5.42278,"is_reserved":false,"is_disabled":false,"rental_uris":{"android":"levelo://app?vid=561e290b-4db1-442c-80bd-c38abf13836d","ios":"levelo://app?vid=561e290b-4db1-442c-80bd-c38abf13836d"},"vehicle_type_id":"4","last_reported":1743077991,"current_range_meters":14400,"station_id":"ce4bhk92rcd13ifvqgb0","pricing_plan_id":"cebpf4jnsgd1na2vs0mg"},{"bike_id":"b02752f7-abd1-4416-bcc7-7c1ce8e4130c","system_id":"levelo_inurba_marseille","lat":43.284436,"lon":5.391992,"is_reserved":false,"is_disabled":false,"rental_uris":{"android":"levelo://app?vid=b02752f7-abd1-4416-bcc7-7c1ce8e4130c","ios":"levelo://app?vid=b02752f7-abd1-4416-bcc7-7c1ce8e4130c"},"vehicle_type_id":"4","last_reported":1743077991,"current_range_meters":14400,"station_id":"","pricing_plan_id":"cebpf4jnsgd1na2vs0mg"},{"bike_id":"1c14bf9c-ada4-4a36-8853-740a1a2c000a","system_id":"levelo_inurba_marseille","lat":43.23197,"lon":5.35544,"is_reserved":false,"is_disabled":false,"rental_uris":{"android":"levelo://app?vid=1c14bf9c-ada4-4a36-8853-740a1a2c000a","ios":"levelo://app?vid=1c14bf9c-ada4-4a36-8853-740a1a2c000a"},"vehicle_type_id":"4","last_reported":1743077991,"current_range_meters":14400,"station_id":"ce4bhu92rcd13ifvqi70","pricing_plan_id":"cebpf4jnsgd1na2vs0mg"},{"bike_id":"2277b85e-b181-4caa-bd68-e979e62a344c","system_id":"levelo_inurba_marseille","lat":43.25924,"lon":5.40876,"is_reserved":false,"is_disabled":false,"rental_uris":{"android":"levelo://app?vid=2277b85e-b181-4caa-bd68-e979e62a344c","ios":"levelo://app?vid=2277b85e-b181-4caa-bd68-e979e62a344c"},"vehicle_type_id":"4","last_reported":1743077991,"current_range_meters":14400,"station_id":"ce4bhm92rcd13ifvqglg","pricing_plan_id":"cebpf4jnsgd1na2vs0mg"},{"bike_id":"5a64d06d-50f2-4651-a133-a3fb2c3af1b9","system_id":"levelo_inurba_marseille","lat":43.28715,"lon":5.39961,"is_reserved":false,"is_disabled":false,"rental_uris":{"android":"levelo://app?vid=5a64d06d-50f2-4651-a133-a3fb2c3af1b9","ios":"levelo://app?vid=5a64d06d-50f2-4651-a133-a3fb2c3af1b9"},"vehicle_type_id":"4","last_reported":1743077991,"current_range_meters":14800,"station_id":"ce4bho92rcd13ifvqh3g","pricing_plan_id":"cebpf4jnsgd1na2vs0mg"},{"bike_id":"16cd4f2f-35e9-4119-9f98-2fda17130f1b","system_id":"levelo_inurba_marseille","lat":43.24073,"lon":5.37768,"is_reserved":false,"is_disabled":false,"rental_uris":{"android":"levelo://app?vid=16cd4f2f-35e9-4119-9f98-2fda17130f1b","ios":"levelo://app?vid=16cd4f2f-35e9-4119-9f98-2fda17130f1b"},"vehicle_type_id":"4","last_reported":1743077991,"current_range_meters":14800,"station_id":"ce4bhnp2rcd13ifvqgvg","pricing_plan_id":"cebpf4jnsgd1na2vs0mg"},{"bike_id":"6b828762-da1e-43a7-bcfc-9c7788c80576","system_id":"levelo_inurba_marseille","lat":43.32007,"lon":5.38148,"is_reserved":false,"is_disabled":true,"rental_uris":{"android":"levelo://app?vid=6b828762-da1e-43a7-bcfc-9c7788c80576","ios":"levelo://app?vid=6b828762-da1e-43a7-bcfc-9c7788c80576"},"vehicle_type_id":"4","last_reported":1743077991,"current_range_meters":14800,"station_id":"ce4bhr12rcd13ifvqhpg","pricing_plan_id":"cebpf4jnsgd1na2vs0mg"},{"bike_id":"c9058bb3-bfbd-4e1d-92d3-db43165f022c","system_id":"levelo_inurba_marseille","lat":43.2621,"lon":5.37444,"is_reserved":false,"is_disabled":false,"rental_uris":{"android":"levelo://app?vid=c9058bb3-bfbd-4e1d-92d3-db43165f022c","ios":"levelo://app?vid=c9058bb3-bfbd-4e1d-92d3-db43165f022c"},"vehicle_type_id":"4","last_reported":1743077991,"current_range_meters":14800,"station_id":"ce4bhgp2rcd13ifvqfc0","pricing_plan_id":"cebpf4jnsgd1na2vs0mg"},{"bike_id":"2e919ca5-ce98-4c47-a9d7-66e6ab7584e4","system_id":"levelo_inurba_marseille","lat":43.32112,"lon":5.36769,"is_reserved":false,"is_disabled":false,"rental_uris":{"android":"levelo://app?vid=2e919ca5-ce98-4c47-a9d7-66e6ab7584e4","ios":"levelo://app?vid=2e919ca5-ce98-4c47-a9d7-66e6ab7584e4"},"vehicle_type_id":"4","last_reported":1743077991,"current_range_meters":14800,"station_id":"ce4bhrh2rcd13ifvqhug","pricing_plan_id":"cebpf4jnsgd1na2vs0mg"},{"bike_id":"439d2fd7-3fa8-4292-8f80-6f33da500ede","system_id":"levelo_inurba_marseille","lat":43.29045,"lon":5.37582,"is_reserved":false,"is_disabled":false,"rental_uris":{"android":"levelo://app?vid=439d2fd7-3fa8-4292-8f80-6f33da500ede","ios":"levelo://app?vid=439d2fd7-3fa8-4292-8f80-6f33da500ede"},"vehicle_type_id":"4","last_reported":1743077991,"current_range_meters":14800,"station_id":"ce4bh692rcd13ifvqe90","pricing_plan_id":"cebpf4jnsgd1na2vs0mg"},{"bike_id":"124d5afc-7405-4c3a-8f18-2f20624653c7","system_id":"levelo_inurba_marseille","lat":43.24176,"lon":5.39727,"is_reserved":false,"is_disabled":false,"rental_uris":{"android":"levelo://app?vid=124d5afc-7405-4c3a-8f18-2f20624653c7","ios":"levelo://app?vid=124d5afc-7405-4c3a-8f18-2f20624653c7"},"vehicle_type_id":"4","last_reported":1743077991,"current_range_meters":14800,"station_id":"ce4bhn12rcd13ifvqgpg","pricing_plan_id":"cebpf4jnsgd1na2vs0mg"},{"bike_id":"b5723e75-28ae-4cac-9db4-9f006b9ef67c","system_id":"levelo_inurba_marseille","lat":43.29852,"lon":5.36275,"is_reserved":false,"is_disabled":false,"rental_uris":{"android":"levelo://app?vid=b5723e75-28ae-4cac-9db4-9f006b9ef67c","ios":"levelo://app?vid=b5723e75-28ae-4cac-9db4-9f006b9ef67c"},"vehicle_type_id":"4","last_reported":1743077991,"current_range_meters":14800,"station_id":"ce4bgpp2rcd13ifvqc3g","pricing_plan_id":"cebpf4jnsgd1na2vs0mg"},{"bike_id":"bb6d3e35-eb6d-49e4-9094-4a82b36c2c46","system_id":"levelo_inurba_marseille","lat":43.32362,"lon":5.36754,"is_reserved":false,"is_disabled":false,"rental_uris":{"android":"levelo://app?vid=bb6d3e35-eb6d-49e4-9094-4a82b36c2c46","ios":"levelo://app?vid=bb6d3e35-eb6d-49e4-9094-4a82b36c2c46"},"vehicle_type_id":"4","last_reported":1743077991,"current_range_meters":15200,"station_id":"ce4bhsh2rcd13ifvqi2g","pricing_plan_id":"cebpf4jnsgd1na2vs0mg"},{"bike_id":"79f9cd7a-b757-4868-ac7f-f496b875c21d","system_id":"levelo_inurba_marseille","lat":43.279928,"lon":5.416571,"is_reserved":false,"is_disabled":false,"rental_uris":{"android":"levelo://app?vid=79f9cd7a-b757-4868-ac7f-f496b875c21d","ios":"levelo://app?vid=79f9cd7a-b757-4868-ac7f-f496b875c21d"},"vehicle_type_id":"4","last_reported":1743077991,"current_range_meters":15200,"station_id":"ce4bho12rcd13ifvqh1g","pricing_plan_id":"cebpf4jnsgd1na2vs0mg"},{"bike_id":"cacaca3f-7b8a-4bd3-9156-6562941b4beb","system_id":"levelo_inurba_marseille","lat":43.25725,"lon":5.41107,"is_reserved":false,"is_disabled":false,"rental_uris":{"android":"levelo://app?vid=cacaca3f-7b8a-4bd3-9156-6562941b4beb","ios":"levelo://app?vid=cacaca3f-7b8a-4bd3-9156-6562941b4beb"},"vehicle_type_id":"4","last_reported":1743077991,"current_range_meters":15200,"station_id":"ce4bhkp2rcd13ifvqgd0","pricing_plan_id":"cebpf4jnsgd1na2vs0mg"},{"bike_id":"8ce3e8ad-9362-40c8-9284-29a9342d7b87","system_id":"levelo_inurba_marseille","lat":43.30553,"lon":5.36497,"is_reserved":false,"is_disabled":true,"rental_uris":{"android":"levelo://app?vid=8ce3e8ad-9362-40c8-9284-29a9342d7b87","ios":"levelo://app?vid=8ce3e8ad-9362-40c8-9284-29a9342d7b87"},"vehicle_type_id":"4","last_reported":1743077991,"current_range_meters":15200,"station_id":"","pricing_plan_id":"cebpf4jnsgd1na2vs0mg"},{"bike_id":"1482affe-c766-4816-bf38-6b83120b702f","system_id":"levelo_inurba_marseille","lat":43.24168,"lon":5.39737,"is_reserved":false,"is_disabled":false,"rental_uris":{"android":"levelo://app?vid=1482affe-c766-4816-bf38-6b83120b702f","ios":"levelo://app?vid=1482affe-c766-4816-bf38-6b83120b702f"},"vehicle_type_id":"4","last_reported":1743077991,"current_range_meters":15200,"station_id":"ce4bhn12rcd13ifvqgpg","pricing_plan_id":"cebpf4jnsgd1na2vs0mg"},{"bike_id":"cb68b904-1b0b-4ea3-a702-016cef640300","system_id":"levelo_inurba_marseille","lat":43.303402,"lon":5.392473,"is_reserved":false,"is_disabled":true,"rental_uris":{"android":"levelo://app?vid=cb68b904-1b0b-4ea3-a702-016cef640300","ios":"levelo://app?vid=cb68b904-1b0b-4ea3-a702-016cef640300"},"vehicle_type_id":"4","last_reported":1743077991,"current_range_meters":15200,"station_id":"","pricing_plan_id":"cebpf4jnsgd1na2vs0mg"},{"bike_id":"551524f0-2526-4326-9682-073845e90938","system_id":"levelo_inurba_marseille","lat":43.30549,"lon":5.3668,"is_reserved":false,"is_disabled":false,"rental_uris":{"android":"levelo://app?vid=551524f0-2526-4326-9682-073845e90938","ios":"levelo://app?vid=551524f0-2526-4326-9682-073845e90938"},"vehicle_type_id":"4","last_reported":1743077991,"current_range_meters":16000,"station_id":"ce4bgrp2rcd13ifvqc9g","pricing_plan_id":"cebpf4jnsgd1na2vs0mg"},{"bike_id":"1b466596-37b7-4819-a8b6-b096a2ef4c25","system_id":"levelo_inurba_marseille","lat":43.29893,"lon":5.43671,"is_reserved":false,"is_disabled":false,"rental_uris":{"android":"levelo://app?vid=1b466596-37b7-4819-a8b6-b096a2ef4c25","ios":"levelo://app?vid=1b466596-37b7-4819-a8b6-b096a2ef4c25"},"vehicle_type_id":"4","last_reported":1743077991,"current_range_meters":16000,"station_id":"ce4bhpp2rcd13ifvqhfg","pricing_plan_id":"cebpf4jnsgd1na2vs0mg"},{"bike_id":"e6b7b19d-c288-44e7-a5f2-57bfd7bd2acc","system_id":"levelo_inurba_marseille","lat":43.295304,"lon":5.385408,"is_reserved":false,"is_disabled":false,"rental_uris":{"android":"levelo://app?vid=e6b7b19d-c288-44e7-a5f2-57bfd7bd2acc","ios":"levelo://app?vid=e6b7b19d-c288-44e7-a5f2-57bfd7bd2acc"},"vehicle_type_id":"4","last_reported":1743077991,"current_range_meters":16000,"station_id":"ce4bh692rcd13ifvqea0","pricing_plan_id":"cebpf4jnsgd1na2vs0mg"},{"bike_id":"b93b90ce-a654-48e9-b204-0840757e4dd0","system_id":"levelo_inurba_marseille","lat":43.29257,"lon":5.40907,"is_reserved":false,"is_disabled":false,"rental_uris":{"android":"levelo://app?vid=b93b90ce-a654-48e9-b204-0840757e4dd0","ios":"levelo://app?vid=b93b90ce-a654-48e9-b204-0840757e4dd0"},"vehicle_type_id":"4","last_reported":1743077991,"current_range_meters":16000,"station_id":"ce4bh192rcd13ifvqdc0","pricing_plan_id":"cebpf4jnsgd1na2vs0mg"},{"bike_id":"1c0b998d-895a-4af6-9fa6-53a4d4686e9f","system_id":"levelo_inurba_marseille","lat":43.23158,"lon":5.43693,"is_reserved":false,"is_disabled":true,"rental_uris":{"android":"levelo://app?vid=1c0b998d-895a-4af6-9fa6-53a4d4686e9f","ios":"levelo://app?vid=1c0b998d-895a-4af6-9fa6-53a4d4686e9f"},"vehicle_type_id":"4","last_reported":1743077991,"current_range_meters":16000,"station_id":"ce4bhmp2rcd13ifvqgog","pricing_plan_id":"cebpf4jnsgd1na2vs0mg"},{"bike_id":"6888ff4b-c905-42a5-9e69-bd2b7a142c18","system_id":"levelo_inurba_marseille","lat":43.28424,"lon":5.34983,"is_reserved":false,"is_disabled":false,"rental_uris":{"android":"levelo://app?vid=6888ff4b-c905-42a5-9e69-bd2b7a142c18","ios":"levelo://app?vid=6888ff4b-c905-42a5-9e69-bd2b7a142c18"},"vehicle_type_id":"4","last_reported":1743077991,"current_range_meters":16000,"station_id":"ce4bhbh2rcd13ifvqepg","pricing_plan_id":"cebpf4jnsgd1na2vs0mg"},{"bike_id":"773e1a3a-a6d6-48a4-aa9b-c0ef3c0ec9de","system_id":"levelo_inurba_marseille","lat":43.29044,"lon":5.37564,"is_reserved":false,"is_disabled":false,"rental_uris":{"android":"levelo://app?vid=773e1a3a-a6d6-48a4-aa9b-c0ef3c0ec9de","ios":"levelo://app?vid=773e1a3a-a6d6-48a4-aa9b-c0ef3c0ec9de"},"vehicle_type_id":"4","last_reported":1743077991,"current_range_meters":16000,"station_id":"ce4bh692rcd13ifvqe90","pricing_plan_id":"cebpf4jnsgd1na2vs0mg"},{"bike_id":"3ded1608-4f23-4370-bd0f-094558d46664","system_id":"levelo_inurba_marseille","lat":43.28161,"lon":5.42645,"is_reserved":false,"is_disabled":false,"rental_uris":{"android":"levelo://app?vid=3ded1608-4f23-4370-bd0f-094558d46664","ios":"levelo://app?vid=3ded1608-4f23-4370-bd0f-094558d46664"},"vehicle_type_id":"4","last_reported":1743077991,"current_range_meters":16000,"station_id":"ce4bhnh2rcd13ifvqgug","pricing_plan_id":"cebpf4jnsgd1na2vs0mg"},{"bike_id":"2a38139f-be63-46c9-b0c3-f086f3dd474f","system_id":"levelo_inurba_marseille","lat":43.27943,"lon":5.41052,"is_reserved":false,"is_disabled":false,"rental_uris":{"android":"levelo://app?vid=2a38139f-be63-46c9-b0c3-f086f3dd474f","ios":"levelo://app?vid=2a38139f-be63-46c9-b0c3-f086f3dd474f"},"vehicle_type_id":"4","last_reported":1743077991,"current_range_meters":13600,"station_id":"ce4bhnp2rcd13ifvqh0g","pricing_plan_id":"cebpf4jnsgd1na2vs0mg"},{"bike_id":"e0f61b83-3cba-4b96-814a-565836cbd0d9","system_id":"levelo_inurba_marseille","lat":43.25497,"lon":5.37654,"is_reserved":false,"is_disabled":false,"rental_uris":{"android":"levelo://app?vid=e0f61b83-3cba-4b96-814a-565836cbd0d9","ios":"levelo://app?vid=e0f61b83-3cba-4b96-814a-565836cbd0d9"},"vehicle_type_id":"4","last_reported":1743077991,"current_range_meters":16000,"station_id":"ce4bhh12rcd13ifvqff0","pricing_plan_id":"cebpf4jnsgd1na2vs0mg"},{"bike_id":"74ef2666-194b-4fe6-8859-dc7b693fca79","system_id":"levelo_inurba_marseille","lat":43.27495,"lon":5.42452,"is_reserved":false,"is_disabled":false,"rental_uris":{"android":"levelo://app?vid=74ef2666-194b-4fe6-8859-dc7b693fca79","ios":"levelo://app?vid=74ef2666-194b-4fe6-8859-dc7b693fca79"},"vehicle_type_id":"4","last_reported":1743077991,"current_range_meters":16000,"station_id":"ce4bhn92rcd13ifvqgrg","pricing_plan_id":"cebpf4jnsgd1na2vs0mg"},{"bike_id":"c5b747b8-0a33-4be6-a6c0-180ceea5e00d","system_id":"levelo_inurba_marseille","lat":43.28125,"lon":5.39628,"is_reserved":false,"is_disabled":true,"rental_uris":{"android":"levelo://app?vid=c5b747b8-0a33-4be6-a6c0-180ceea5e00d","ios":"levelo://app?vid=c5b747b8-0a33-4be6-a6c0-180ceea5e00d"},"vehicle_type_id":"4","last_reported":1743077991,"current_range_meters":16000,"station_id":"","pricing_plan_id":"cebpf4jnsgd1na2vs0mg"},{"bike_id":"7a1b5c86-e85e-4c2d-9990-2fdf7ef919f0","system_id":"levelo_inurba_marseille","lat":43.29626,"lon":5.38055,"is_reserved":false,"is_disabled":true,"rental_uris":{"android":"levelo://app?vid=7a1b5c86-e85e-4c2d-9990-2fdf7ef919f0","ios":"levelo://app?vid=7a1b5c86-e85e-4c2d-9990-2fdf7ef919f0"},"vehicle_type_id":"4","last_reported":1743077991,"current_range_meters":16400,"station_id":"","pricing_plan_id":"cebpf4jnsgd1na2vs0mg"},{"bike_id":"855985e2-b9d9-4904-ba17-9d90a36c68d8","system_id":"levelo_inurba_marseille","lat":43.30563,"lon":5.36649,"is_reserved":false,"is_disabled":false,"rental_uris":{"android":"levelo://app?vid=855985e2-b9d9-4904-ba17-9d90a36c68d8","ios":"levelo://app?vid=855985e2-b9d9-4904-ba17-9d90a36c68d8"},"vehicle_type_id":"4","last_reported":1743077991,"current_range_meters":16400,"station_id":"ce4bgrp2rcd13ifvqc9g","pricing_plan_id":"cebpf4jnsgd1na2vs0mg"},{"bike_id":"3f07f503-c683-43e2-889a-d6577be42c42","system_id":"levelo_inurba_marseille","lat":43.30531,"lon":5.36545,"is_reserved":false,"is_disabled":false,"rental_uris":{"android":"levelo://app?vid=3f07f503-c683-43e2-889a-d6577be42c42","ios":"levelo://app?vid=3f07f503-c683-43e2-889a-d6577be42c42"},"vehicle_type_id":"4","last_reported":1743077991,"current_range_meters":16400,"station_id":"ce4bgs12rcd13ifvqcag","pricing_plan_id":"cebpf4jnsgd1na2vs0mg"},{"bike_id":"a00cc33c-2bc4-4c78-817a-62a76e486c2d","system_id":"levelo_inurba_marseille","lat":43.30173,"lon":5.37397,"is_reserved":false,"is_disabled":false,"rental_uris":{"android":"levelo://app?vid=a00cc33c-2bc4-4c78-817a-62a76e486c2d","ios":"levelo://app?vid=a00cc33c-2bc4-4c78-817a-62a76e486c2d"},"vehicle_type_id":"4","last_reported":1743077991,"current_range_meters":16400,"station_id":"ce4bgs92rcd13ifvqcc0","pricing_plan_id":"cebpf4jnsgd1na2vs0mg"},