{"last_updated":1753553655,"ttl":60,"version":"2.2","data":{"bikes":[{"bike_id":"3e500ad1-a64b-496e-98ac-41b6ac264e17","system_id":"levelo_inurba_marseille","lat":43.29868,"lon":5.39725,"is_reserved":false,"is_disabled":true,"rental_uris":{"android":"levelo://app?vid=3e500ad1-a64b-496e-98ac-41b6ac264e17","ios":"levelo://app?vid=3e500ad1-a64b-496e-98ac-41b6ac264e17"},"vehicle_type_id":"4","last_reported":1753553655,"current_range_meters":2800,"station_id":"ce4bh0h2rcd13ifvqd50","pricing_plan_id":"cebpf4jnsgd1na2vs0mg"},{"bike_id":"5f19d144-5d57-414e-bbd2-f77799874ad2","system_id":"levelo_inurba_marseille","lat":43.32663,"lon":5.40972,"is_reserved":false,"is_disabled":false,"rental_uris":{"android":"levelo://app?vid=5f19d144-5d57-414e-bbd2-f77799874ad2","ios":"levelo://app?vid=5f19d144-5d57-414e-bbd2-f77799874ad2"},"vehicle_type_id":"4","last_reported":1753553655,"current_range_meters":2800,"station_id":"ce4bhpp2rcd13ifvqhgg","pricing_plan_id":"cebpf4jnsgd1na2vs0mg"},{"bike_id":"0fd1ad3f-6ec3-4965-a4a2-e2be57704709","system_id":"levelo_inurba_marseille","lat":43.28715,"lon":5.3794,"is_reserved":false,"is_disabled":false,"rental_uris":{"android":"levelo://app?vid=0fd1ad3f-6ec3-4965-a4a2-e2be57704709","ios":"levelo://app?vid=0fd1ad3f-6ec3-4965-a4a2-e2be57704709"},"vehicle_type_id":"4","last_reported":1753553655,"current_range_meters":2800,"station_id":"ce4bh9p2rcd13ifvqec0","pricing_plan_id":"cebpf4jnsgd1na2vs0mg"},{"bike_id":"ce84de04-23f1-4530-a5f8-4de9eb408f8e","system_id":"levelo_inurba_marseille","lat":43.30597,"lon":5.39359,"is_reserved":false,"is_disabled":false,"rental_uris":{"android":"levelo://app?vid=ce84de04-23f1-4530-a5f8-4de9eb408f8e","ios":"levelo://app?vid=ce84de04-23f1-4530-a5f8-4de9eb408f8e"},"vehicle_type_id":"4","last_reported":1753553655,"current_range_meters":3200,"station_id":"ce4bh0p2rcd13ifvqd80","pricing_plan_id":"cebpf4jnsgd1na2vs0mg"},{"bike_id":"e19cd9bd-8f1f-4909-a624-5af678243303","system_id":"levelo_inurba_marseille","lat":43.29076,"lon":5.39869,"is_reserved":false,"is_disabled":false,"rental_uris":{"android":"levelo://app?vid=e19cd9bd-8f1f-4909-a624-5af678243303","ios":"levelo://app?vid=e19cd9bd-8f1f-4909-a624-5af678243303"},"vehicle_type_id":"4","last_reported":1753553655,"current_range_meters":3200,"station_id":"","pricing_plan_id":"cebpf4jnsgd1na2vs0mg"},{"bike_id":"285e6ee1-5299-49a2-849f-b5ff523a0180","system_id":"levelo_inurba_marseille","lat":43.29528,"lon":5.3904,"is_reserved":false,"is_disabled":false,"rental_uris":{"android":"levelo://app?vid=285e6ee1-5299-49a2-849f-b5ff523a0180","ios":"levelo://app?vid=285e6ee1-5299-49a2-849f-b5ff523a0180"},"vehicle_type_id":"4","last_reported":1753553655,"current_range_meters":3200,"station_id":"ce4bh3p2rcd13ifvqdp0","pricing_plan_id":"cebpf4jnsgd1na2vs0mg"},{"bike_id":"b2e48102-411c-44e8-84d2-9ef4dd86634f","system_id":"levelo_inurba_marseille","lat":43.31175,"lon":5.38721,"is_reserved":false,"is_disabled":false,"rental_uris":{"android":"levelo://app?vid=b2e48102-411c-44e8-84d2-9ef4dd86634f","ios":"levelo://app?vid=b2e48102-411c-44e8-84d2-9ef4dd86634f"},"vehicle_type_id":"4","last_reported":1753553655,"current_range_meters":2800,"station_id":"ce4bgv12rcd13ifvqcp0","pricing_plan_id":"cebpf4jnsgd1na2vs0mg"},{"bike_id":"c0cd0571-1c05-499b-a9cc-ceedc530c5c7","system_id":"levelo_inurba_marseille","lat":43.27917,"lon":5.39573,"is_reserved":false,"is_disabled":false,"rental_uris":{"android":"levelo://app?vid=c0cd0571-1c05-499b-a9cc-ceedc530c5c7","ios":"levelo://app?vid=c0cd0571-1c05-499b-a9cc-ceedc530c5c7"},"vehicle_type_id":"4","last_reported":1753553655,"current_range_meters":3200,"station_id":"ce4bhf92rcd13ifvqf40","pricing_plan_id":"cebpf4jnsgd1na2vs0mg"},{"bike_id":"e1988476-3d74-40a8-afa2-f3265973eb32","system_id":"levelo_inurba_marseille","lat":43.26026,"lon":5.3755,"is_reserved":false,"is_disabled":false,"rental_uris":{"android":"levelo://app?vid=e1988476-3d74-40a8-afa2-f3265973eb32","ios":"levelo://app?vid=e1988476-3d74-40a8-afa2-f3265973eb32"},"vehicle_type_id":"4","last_reported":1753553655,"current_range_meters":3200,"station_id":"ce4bhgh2rcd13ifvqfa0","pricing_plan_id":"cebpf4jnsgd1na2vs0mg"},{"bike_id":"d580dfac-cec8-4f78-83c4-710987158fd1","system_id":"levelo_inurba_marseille","lat":43.291696,"lon":5.371613,"is_reserved":false,"is_disabled":false,"rental_uris":{"android":"levelo://app?vid=d580dfac-cec8-4f78-83c4-710987158fd1","ios":"levelo://app?vid=d580dfac-cec8-4f78-83c4-710987158fd1"},"vehicle_type_id":"4","last_reported":1753553655,"current_range_meters":3600,"station_id":"ce4bha92rcd13ifvqeh0","pricing_plan_id":"cebpf4jnsgd1na2vs0mg"},{"bike_id":"6f399156-5cd8-47eb-b237-b49e6e8de778","system_id":"levelo_inurba_marseille","lat":43.30897,"lon":5.39648,"is_reserved":false,"is_disabled":false,"rental_uris":{"android":"levelo://app?vid=6f399156-5cd8-47eb-b237-b49e6e8de778","ios":"levelo://app?vid=6f399156-5cd8-47eb-b237-b49e6e8de778"},"vehicle_type_id":"4","last_reported":1753553655,"current_range_meters":4000,"station_id":"ce4bh012rcd13ifvqcv0","pricing_plan_id":"cebpf4jnsgd1na2vs0mg"},{"bike_id":"0169a98e-2c41-4579-b154-75de4aa43095","system_id":"levelo_inurba_marseille","lat":43.29031,"lon":5.38641,"is_reserved":false,"is_disabled":false,"rental_uris":{"android":"levelo://app?vid=0169a98e-2c41-4579-b154-75de4aa43095","ios":"levelo://app?vid=0169a98e-2c41-4579-b154-75de4aa43095"},"vehicle_type_id":"4","last_reported":1753553655,"current_range_meters":4000,"station_id":"ce4bh4p2rcd13ifvqe0g","pricing_plan_id":"cebpf4jnsgd1na2vs0mg"},{"bike_id":"f28d2bb9-4217-4196-a573-ba6f4c172497","system_id":"levelo_inurba_marseille","lat":43.281556,"lon":5.361144,"is_reserved":false,"is_disabled":false,"rental_uris":{"android":"levelo://app?vid=f28d2bb9-4217-4196-a573-ba6f4c172497","ios":"levelo://app?vid=f28d2bb9-4217-4196-a573-ba6f4c172497"},"vehicle_type_id":"4","last_reported":1753553655,"current_range_meters":4000,"station_id":"","pricing_plan_id":"cebpf4jnsgd1na2vs0mg"},{"bike_id":"0a991379-cd67-4d8b-8203-869c0b750ca9","system_id":"levelo_inurba_marseille","lat":43.29096,"lon":5.38138,"is_reserved":false,"is_disabled":false,"rental_uris":{"android":"levelo://app?vid=0a991379-cd67-4d8b-8203-869c0b750ca9","ios":"levelo://app?vid=0a991379-cd67-4d8b-8203-869c0b750ca9"},"vehicle_type_id":"4","last_reported":1753553655,"current_range_meters":4000,"station_id":"ce4bh512rcd13ifvqe2g","pricing_plan_id":"cebpf4jnsgd1na2vs0mg"},{"bike_id":"f4e10af8-fba6-4fa7-bf98-0297ab83705c","system_id":"levelo_inurba_marseille","lat":43.28152,"lon":5.42647,"is_reserved":false,"is_disabled":false,"rental_uris":{"android":"levelo://app?vid=f4e10af8-fba6-4fa7-bf98-0297ab83705c","ios":"levelo://app?vid=f4e10af8-fba6-4fa7-bf98-0297ab83705c"},"vehicle_type_id":"4","last_reported":1753553655,"current_range_meters":4000,"station_id":"ce4bhnh2rcd13ifvqgug","pricing_plan_id":"cebpf4jnsgd1na2vs0mg"},{"bike_id":"a9bcff15-70d8-4922-b020-1a5b437dd9fd","system_id":"levelo_inurba_marseille","lat":43.21377,"lon":5.35003,"is_reserved":false,"is_disabled":false,"rental_uris":{"android":"levelo://app?vid=a9bcff15-70d8-4922-b020-1a5b437dd9fd","ios":"levelo://app?vid=a9bcff15-70d8-4922-b020-1a5b437dd9fd"},"vehicle_type_id":"4","last_reported":1753553655,"current_range_meters":4400,"station_id":"","pricing_plan_id":"cebpf4jnsgd1na2vs0mg"},{"bike_id":"43a3c80d-5e7b-4a2d-9636-31e2e2c7ef9a","system_id":"levelo_inurba_marseille","lat":43.29972,"lon":5.38488,"is_reserved":false,"is_disabled":false,"rental_uris":{"android":"levelo://app?vid=43a3c80d-5e7b-4a2d-9636-31e2e2c7ef9a","ios":"levelo://app?vid=43a3c80d-5e7b-4a2d-9636-31e2e2c7ef9a"},"vehicle_type_id":"4","last_reported":1753553655,"current_range_meters":4400,"station_id":"ce4bgj92rcd13ifvqbd0","pricing_plan_id":"cebpf4jnsgd1na2vs0mg"},{"bike_id":"28766218-f059-418a-a4c6-e3a97e899f6d","system_id":"levelo_inurba_marseille","lat":43.27319,"lon":5.39071,"is_reserved":false,"is_disabled":false,"rental_uris":{"android":"levelo://app?vid=28766218-f059-418a-a4c6-e3a97e899f6d","ios":"levelo://app?vid=28766218-f059-418a-a4c6-e3a97e899f6d"},"vehicle_type_id":"4","last_reported":1753553655,"current_range_meters":4000,"station_id":"ce4bhgp2rcd13ifvqfe0","pricing_plan_id":"cebpf4jnsgd1na2vs0mg"},{"bike_id":"bf158499-abf4-4716-ad20-df229fb20126","system_id":"levelo_inurba_marseille","lat":43.225051,"lon":5.347864,"is_reserved":false,"is_disabled":true,"rental_uris":{"android":"levelo://app?vid=bf158499-abf4-4716-ad20-df229fb20126","ios":"levelo://app?vid=bf158499-abf4-4716-ad20-df229fb20126"},"vehicle_type_id":"4","last_reported":1753553655,"current_range_meters":4400,"station_id":"","pricing_plan_id":"cebpf4jnsgd1na2vs0mg"},{"bike_id":"75ed58c4-34e3-4bf9-82e2-3f5b0cbd5db0","system_id":"levelo_inurba_marseille","lat":43.30647,"lon":5.40091,"is_reserved":false,"is_disabled":false,"rental_uris":{"android":"levelo://app?vid=75ed58c4-34e3-4bf9-82e2-3f5b0cbd5db0","ios":"levelo://app?vid=75ed58c4-34e3-4bf9-82e2-3f5b0cbd5db0"},"vehicle_type_id":"4","last_reported":1753553655,"current_range_meters":4400,"station_id":"ce4bh112rcd13ifvqda0","pricing_plan_id":"cebpf4jnsgd1na2vs0mg"},{"bike_id":"caf28761-1f80-4f90-b024-92c9dc4ddfc6","system_id":"levelo_inurba_marseille","lat":43.30952,"lon":5.39046,"is_reserved":false,"is_disabled":false,"rental_uris":{"android":"levelo://app?vid=caf28761-1f80-4f90-b024-92c9dc4ddfc6","ios":"levelo://app?vid=caf28761-1f80-4f90-b024-92c9dc4ddfc6"},"vehicle_type_id":"4","last_reported":1753553655,"current_range_meters":4800,"station_id":"ce4bgup2rcd13ifvqco0","pricing_plan_id":"cebpf4jnsgd1na2vs0mg"},{"bike_id":"c55ed2f1-ae80-4fb9-ae9f-e4989ce4a9ed","system_id":"levelo_inurba_marseille","lat":43.24548,"lon":5.3952,"is_reserved":false,"is_disabled":false,"rental_uris":{"android":"levelo://app?vid=c55ed2f1-ae80-4fb9-ae9f-e4989ce4a9ed","ios":"levelo://app?vid=c55ed2f1-ae80-4fb9-ae9f-e4989ce4a9ed"},"vehicle_type_id":"4","last_reported":1753553655,"current_range_meters":4800,"station_id":"ce4bhlp2rcd13ifvqgjg","pricing_plan_id":"cebpf4jnsgd1na2vs0mg"},{"bike_id":"19b3d5e6-dab4-4d22-90a1-2c14dacdbb42","system_id":"levelo_inurba_marseille","lat":43.31703,"lon":5.40457,"is_reserved":false,"is_disabled":false,"rental_uris":{"android":"levelo://app?vid=19b3d5e6-dab4-4d22-90a1-2c14dacdbb42","ios":"levelo://app?vid=19b3d5e6-dab4-4d22-90a1-2c14dacdbb42"},"vehicle_type_id":"4","last_reported":1753553655,"current_range_meters":4800,"station_id":"ce4bh012rcd13ifvqd00","pricing_plan_id":"cebpf4jnsgd1na2vs0mg"},{"bike_id":"17c6da21-f22f-43d8-87c7-888b887aee18","system_id":"levelo_inurba_marseille","lat":43.29003,"lon":5.35604,"is_reserved":false,"is_disabled":false,"rental_uris":{"android":"levelo://app?vid=17c6da21-f22f-43d8-87c7-888b887aee18","ios":"levelo://app?vid=17c6da21-f22f-43d8-87c7-888b887aee18"},"vehicle_type_id":"4","last_reported":1753553655,"current_range_meters":4800,"station_id":"ce4bhb92rcd13ifvqen0","pricing_plan_id":"cebpf4jnsgd1na2vs0mg"},{"bike_id":"4dd15084-de54-487c-8ac5-f95f9d95f423","system_id":"levelo_inurba_marseille","lat":43.23195,"lon":5.35552,"is_reserved":false,"is_disabled":false,"rental_uris":{"android":"levelo://app?vid=4dd15084-de54-487c-8ac5-f95f9d95f423","ios":"levelo://app?vid=4dd15084-de54-487c-8ac5-f95f9d95f423"},"vehicle_type_id":"4","last_reported":1753553655,"current_range_meters":5600,"station_id":"ce4bhu92rcd13ifvqi70","pricing_plan_id":"cebpf4jnsgd1na2vs0mg"},{"bike_id":"941a7333-7a7f-46db-98d1-d5b2968b85bb","system_id":"levelo_inurba_marseille","lat":43.22524,"lon":5.34749,"is_reserved":false,"is_disabled":false,"rental_uris":{"android":"levelo://app?vid=941a7333-7a7f-46db-98d1-d5b2968b85bb","ios":"levelo://app?vid=941a7333-7a7f-46db-98d1-d5b2968b85bb"},"vehicle_type_id":"4","last_reported":1753553655,"current_range_meters":5600,"station_id":"st_cvj5dfep6f1abm77gieg","pricing_plan_id":"cebpf4jnsgd1na2vs0mg"},{"bike_id":"6af7a72a-189c-4dbc-9282-a956426542ba","system_id":"levelo_inurba_marseille","lat":43.22512,"lon":5.34779,"is_reserved":false,"is_disabled":false,"rental_uris":{"android":"levelo://app?vid=6af7a72a-189c-4dbc-9282-a956426542ba","ios":"levelo://app?vid=6af7a72a-189c-4dbc-9282-a956426542ba"},"vehicle_type_id":"4","last_reported":1753553655,"current_range_meters":6000,"station_id":"","pricing_plan_id":"cebpf4jnsgd1na2vs0mg"},{"bike_id":"ff30a5ee-0e9d-4bfa-a593-c7beaf9df463","system_id":"levelo_inurba_marseille","lat":43.33534,"lon":5.36204,"is_reserved":false,"is_disabled":false,"rental_uris":{"android":"levelo://app?vid=ff30a5ee-0e9d-4bfa-a593-c7beaf9df463","ios":"levelo://app?vid=ff30a5ee-0e9d-4bfa-a593-c7beaf9df463"},"vehicle_type_id":"4","last_reported":1753553655,"current_range_meters":6000,"station_id":"","pricing_plan_id":"cebpf4jnsgd1na2vs0mg"},{"bike_id":"44e27c8e-f6a1-4a85-b0b5-37a1972c9078","system_id":"levelo_inurba_marseille","lat":43.24077,"lon":5.37758,"is_reserved":false,"is_disabled":false,"rental_uris":{"android":"levelo://app?vid=44e27c8e-f6a1-4a85-b0b5-37a1972c9078","ios":"levelo://app?vid=44e27c8e-f6a1-4a85-b0b5-37a1972c9078"},"vehicle_type_id":"4","last_reported":1753553655,"current_range_meters":6000,"station_id":"ce4bhnp2rcd13ifvqgvg","pricing_plan_id":"cebpf4jnsgd1na2vs0mg"},{"bike_id":"89dcea3a-f7f7-44b2-9d2c-a3300861829d","system_id":"levelo_inurba_marseille","lat":43.278697,"lon":5.39708,"is_reserved":false,"is_disabled":false,"rental_uris":{"android":"levelo://app?vid=89dcea3a-f7f7-44b2-9d2c-a3300861829d","ios":"levelo://app?vid=89dcea3a-f7f7-44b2-9d2c-a3300861829d"},"vehicle_type_id":"4","last_reported":1753553655,"current_range_meters":6000,"station_id":"","pricing_plan_id":"cebpf4jnsgd1na2vs0mg"},{"bike_id":"f1e34573-4783-40eb-a840-36b01e56420a","system_id":"levelo_inurba_marseille","lat":43.29965,"lon":5.38493,"is_reserved":false,"is_disabled":false,"rental_uris":{"android":"levelo://app?vid=f1e34573-4783-40eb-a840-36b01e56420a","ios":"levelo://app?vid=f1e34573-4783-40eb-a840-36b01e56420a"},"vehicle_type_id":"4","last_reported":1753553655,"current_range_meters":6000,"station_id":"ce4bgj92rcd13ifvqbd0","pricing_plan_id":"cebpf4jnsgd1na2vs0mg"},{"bike_id":"1c31f24b-2b9e-48c3-b103-bffd32b92420","system_id":"levelo_inurba_marseille","lat":43.33515,"lon":5.40861,"is_reserved":false,"is_disabled":false,"rental_uris":{"android":"levelo://app?vid=1c31f24b-2b9e-48c3-b103-bffd32b92420","ios":"levelo://app?vid=1c31f24b-2b9e-48c3-b103-bffd32b92420"},"vehicle_type_id":"4","last_reported":1753553655,"current_range_meters":6400,"station_id":"","pricing_plan_id":"cebpf4jnsgd1na2vs0mg"},{"bike_id":"19e316e0-c1a6-4196-9d6d-c85af254ac34","system_id":"levelo_inurba_marseille","lat":43.292603,"lon":5.384412,"is_reserved":false,"is_disabled":false,"rental_uris":{"android":"levelo://app?vid=19e316e0-c1a6-4196-9d6d-c85af254ac34","ios":"levelo://app?vid=19e316e0-c1a6-4196-9d6d-c85af254ac34"},"vehicle_type_id":"4","last_reported":1753553655,"current_range_meters":6800,"station_id":"ce4bh692rcd13ifvqea0","pricing_plan_id":"cebpf4jnsgd1na2vs0mg"},{"bike_id":"18544162-ead7-4c48-a672-22b02a5319d4","system_id":"levelo_inurba_marseille","lat":43.31247,"lon":5.36861,"is_reserved":false,"is_disabled":false,"rental_uris":{"android":"levelo://app?vid=18544162-ead7-4c48-a672-22b02a5319d4","ios":"levelo://app?vid=18544162-ead7-4c48-a672-22b02a5319d4"},"vehicle_type_id":"4","last_reported":1753553655,"current_range_meters":6000,"station_id":"ce4bgl92rcd13ifvqbq0","pricing_plan_id":"cebpf4jnsgd1na2vs0mg"},{"bike_id":"c70becbb-f20a-400d-8ecf-cef777d85ace","system_id":"levelo_inurba_marseille","lat":43.3026,"lon":5.40058,"is_reserved":false,"is_disabled":false,"rental_uris":{"android":"levelo://app?vid=c70becbb-f20a-400d-8ecf-cef777d85ace","ios":"levelo://app?vid=c70becbb-f20a-400d-8ecf-cef777d85ace"},"vehicle_type_id":"4","last_reported":1753553655,"current_range_meters":6400,"station_id":"ce4bgvh2rcd13ifvqcs0","pricing_plan_id":"cebpf4jnsgd1na2vs0mg"},{"bike_id":"ffd378c2-512b-45ed-92b5-5d00dc6e3f30","system_id":"levelo_inurba_marseille","lat":43.30131,"lon":5.39872,"is_reserved":false,"is_disabled":false,"rental_uris":{"android":"levelo://app?vid=ffd378c2-512b-45ed-92b5-5d00dc6e3f30","ios":"levelo://app?vid=ffd378c2-512b-45ed-92b5-5d00dc6e3f30"},"vehicle_type_id":"4","last_reported":1753553655,"current_range_meters":6400,"station_id":"ce4bh0h2rcd13ifvqd40","pricing_plan_id":"cebpf4jnsgd1na2vs0mg"},{"bike_id":"d4c6c7f1-7cd7-4160-9994-6c32a1976f86","system_id":"levelo_inurba_marseille","lat":43.21753,"lon":5.34602,"is_reserved":false,"is_disabled":false,"rental_uris":{"android":"levelo://app?vid=d4c6c7f1-7cd7-4160-9994-6c32a1976f86","ios":"levelo://app?vid=d4c6c7f1-7cd7-4160-9994-6c32a1976f86"},"vehicle_type_id":"4","last_reported":1753553655,"current_range_meters":6400,"station_id":"cpo3342slgdg3j2ifvpg","pricing_plan_id":"cebpf4jnsgd1na2vs0mg"},{"bike_id":"531302fa-5645-450b-97c0-52669c85f0a0","system_id":"levelo_inurba_marseille","lat":43.29964,"lon":5.38493,"is_reserved":false,"is_disabled":false,"rental_uris":{"android":"levelo://app?vid=531302fa-5645-450b-97c0-52669c85f0a0","ios":"levelo://app?vid=531302fa-5645-450b-97c0-52669c85f0a0"},"vehicle_type_id":"4","last_reported":1753553655,"current_range_meters":6800,"station_id":"ce4bgj92rcd13ifvqbd0","pricing_plan_id":"cebpf4jnsgd1na2vs0mg"},{"bike_id":"270e709e-d676-4138-8c25-2260e22ff5ad","system_id":"levelo_inurba_marseille","lat":43.276217,"lon":5.36107,"is_reserved":false,"is_disabled":false,"rental_uris":{"android":"levelo://app?vid=270e709e-d676-4138-8c25-2260e22ff5ad","ios":"levelo://app?vid=270e709e-d676-4138-8c25-2260e22ff5ad"},"vehicle_type_id":"4","last_reported":1753553655,"current_range_meters":6800,"station_id":"ce4bgj92rcd13ifvqbe0","pricing_plan_id":"cebpf4jnsgd1na2vs0mg"},{"bike_id":"761ecc18-219a-464d-b7df-09f0894aa8f0","system_id":"levelo_inurba_marseille","lat":43.295317,"lon":5.385388,"is_reserved":false,"is_disabled":false,"rental_uris":{"android":"levelo://app?vid=761ecc18-219a-464d-b7df-09f0894aa8f0","ios":"levelo://app?vid=761ecc18-219a-464d-b7df-09f0894aa8f0"},"vehicle_type_id":"4","last_reported":1753553655,"current_range_meters":6800,"station_id":"ce4bgih2rcd13ifvqba0","pricing_plan_id":"cebpf4jnsgd1na2vs0mg"},{"bike_id":"f4297774-6ce9-4397-bcda-9a3e5bb9cd76","system_id":"levelo_inurba_marseille","lat":43.225081,"lon":5.347847,"is_reserved":false,"is_disabled":false,"rental_uris":{"android":"levelo://app?vid=f4297774-6ce9-4397-bcda-9a3e5bb9cd76","ios":"levelo://app?vid=f4297774-6ce9-4397-bcda-9a3e5bb9cd76"},"vehicle_type_id":"4","last_reported":1753553655,"current_range_meters":7200,"station_id":"st_cvj5dfep6f1abm77gieg","pricing_plan_id":"cebpf4jnsgd1na2vs0mg"},{"bike_id":"a33ed0be-87c7-4d99-aa2d-7f8f676a29f0","system_id":"levelo_inurba_marseille","lat":43.29973,"lon":5.38485,"is_reserved":false,"is_disabled":false,"rental_uris":{"android":"levelo://app?vid=a33ed0be-87c7-4d99-aa2d-7f8f676a29f0","ios":"levelo://app?vid=a33ed0be-87c7-4d99-aa2d-7f8f676a29f0"},"vehicle_type_id":"4","last_reported":1753553655,"current_range_meters":7200,"station_id":"ce4bgj92rcd13ifvqbd0","pricing_plan_id":"cebpf4jnsgd1na2vs0mg"},{"bike_id":"ac42b969-c2ee-4f58-afb7-01d351993158","system_id":"levelo_inurba_marseille","lat":43.2917,"lon":5.37148,"is_reserved":false,"is_disabled":false,"rental_uris":{"android":"levelo://app?vid=ac42b969-c2ee-4f58-afb7-01d351993158","ios":"levelo://app?vid=ac42b969-c2ee-4f58-afb7-01d351993158"},"vehicle_type_id":"4","last_reported":1753553655,"current_range_meters":7200,"station_id":"ce4bha92rcd13ifvqeh0","pricing_plan_id":"cebpf4jnsgd1na2vs0mg"},{"bike_id":"0aeff3f7-8189-41d3-b59f-8d8fda3910ab","system_id":"levelo_inurba_marseille","lat":43.29098,"lon":5.38132,"is_reserved":false,"is_disabled":false,"rental_uris":{"android":"levelo://app?vid=0aeff3f7-8189-41d3-b59f-8d8fda3910ab","ios":"levelo://app?vid=0aeff3f7-8189-41d3-b59f-8d8fda3910ab"},"vehicle_type_id":"4","last_reported":1753553655,"current_range_meters":7200,"station_id":"ce4bh512rcd13ifvqe2g","pricing_plan_id":"cebpf4jnsgd1na2vs0mg"},{"bike_id":"69fd0c83-418f-41c3-b37e-9001da79506f","system_id":"levelo_inurba_marseille","lat":43.23178,"lon":5.39983,"is_reserved":false,"is_disabled":false,"rental_uris":{"android":"levelo://app?vid=69fd0c83-418f-41c3-b37e-9001da79506f","ios":"levelo://app?vid=69fd0c83-418f-41c3-b37e-9001da79506f"},"vehicle_type_id":"4","last_reported":1753553655,"current_range_meters":7200,"station_id":"ce4bhn12rcd13ifvqgqg","pricing_plan_id":"cebpf4jnsgd1na2vs0mg"},{"bike_id":"f58bce9b-c064-4ef7-b5c8-068f42c44f58","system_id":"levelo_inurba_marseille","lat":43.28477,"lon":5.3841,"is_reserved":false,"is_disabled":false,"rental_uris":{"android":"levelo://app?vid=f58bce9b-c064-4ef7-b5c8-068f42c44f58","ios":"levelo://app?vid=f58bce9b-c064-4ef7-b5c8-068f42c44f58"},"vehicle_type_id":"4","last_reported":1753553655,"current_range_meters":7200,"station_id":"ce4bh512rcd13ifvqe3g","pricing_plan_id":"cebpf4jnsgd1na2vs0mg"},{"bike_id":"c3d818eb-16b0-453b-a8db-72b030397544","system_id":"levelo_inurba_marseille","lat":43.28149,"lon":5.42629,"is_reserved":false,"is_disabled":false,"rental_uris":{"android":"levelo://app?vid=c3d818eb-16b0-453b-a8db-72b030397544","ios":"levelo://app?vid=c3d818eb-16b0-453b-a8db-72b030397544"},"vehicle_type_id":"4","last_reported":1753553655,"current_range_meters":7200,"station_id":"ce4bhnh2rcd13ifvqgug","pricing_plan_id":"cebpf4jnsgd1na2vs0mg"},{"bike_id":"4d59e1de-b26d-45e9-93ba-2895a9a1ffbd","system_id":"levelo_inurba_marseille","lat":43.29531,"lon":5.38602,"is_reserved":false,"is_disabled":false,"rental_uris":{"android":"levelo://app?vid=4d59e1de-b26d-45e9-93ba-2895a9a1ffbd","ios":"levelo://app?vid=4d59e1de-b26d-45e9-93ba-2895a9a1ffbd"},"vehicle_type_id":"4","last_reported":1753553655,"current_range_meters":8000,"station_id":"ce4bgih2rcd13ifvqba0","pricing_plan_id":"cebpf4jnsgd1na2vs0mg"},{"bike_id":"73a3ca56-fcd1-4c9f-bbe7-a130296f68e6","system_id":"levelo_inurba_marseille","lat":43.29524,"lon":5.38617,"is_reserved":false,"is_disabled":false,"rental_uris":{"android":"levelo://app?vid=73a3ca56-fcd1-4c9f-bbe7-a130296f68e6","ios":"levelo://app?vid=73a3ca56-fcd1-4c9f-bbe7-a130296f68e6"},"vehicle_type_id":"4","last_reported":1753553655,"current_range_meters":8000,"station_id":"ce4bgih2rcd13ifvqba0","pricing_plan_id":"cebpf4jnsgd1na2vs0mg"},{"bike_id":"4f19d206-0d9f-4e82-94c8-f909977df45d","system_id":"levelo_inurba_marseille","lat":43.260266,"lon":5.375479,"is_reserved":false,"is_disabled":false,"rental_uris":{"android":"levelo://app?vid=4f19d206-0d9f-4e82-94c8-f909977df45d","ios":"levelo://app?vid=4f19d206-0d9f-4e82-94c8-f909977df45d"},"vehicle_type_id":"4","last_reported":1753553655,"current_range_meters":8000,"station_id":"ce4bhgh2rcd13ifvqfa0","pricing_plan_id":"cebpf4jnsgd1na2vs0mg"},{"bike_id":"078febbd-6d49-4abf-8b46-d33f87f8da46","system_id":"levelo_inurba_marseille","lat":43.25452,"lon":5.38007,"is_reserved":false,"is_disabled":false,"rental_uris":{"android":"levelo://app?vid=078febbd-6d49-4abf-8b46-d33f87f8da46","ios":"levelo://app?vid=078febbd-6d49-4abf-8b46-d33f87f8da46"},"vehicle_type_id":"4","last_reported":1753553655,"current_range_meters":8000,"station_id":"","pricing_plan_id":"cebpf4jnsgd1na2vs0mg"},{"bike_id":"4177c350-b39d-4243-a455-e13f00e80b0a","system_id":"levelo_inurba_marseille","lat":43.26212,"lon":5.37441,"is_reserved":false,"is_disabled":true,"rental_uris":{"android":"levelo://app?vid=4177c350-b39d-4243-a455-e13f00e80b0a","ios":"levelo://app?vid=4177c350-b39d-4243-a455-e13f00e80b0a"},"vehicle_type_id":"4","last_reported":1753553655,"current_range_meters":8000,"station_id":"ce4bhgp2rcd13ifvqfc0","pricing_plan_id":"cebpf4jnsgd1na2vs0mg"},{"bike_id":"a6fb35af-c3fd-4a70-b346-25108a39c0e5","system_id":"levelo_inurba_marseille","lat":43.2816,"lon":5.42607,"is_reserved":false,"is_disabled":false,"rental_uris":{"android":"levelo://app?vid=a6fb35af-c3fd-4a70-b346-25108a39c0e5","ios":"levelo://app?vid=a6fb35af-c3fd-4a70-b346-25108a39c0e5"},"vehicle_type_id":"4","last_reported":1753553655,"current_range_meters":8000,"station_id":"ce4bhnh2rcd13ifvqgug","pricing_plan_id":"cebpf4jnsgd1na2vs0mg"},{"bike_id":"bbf77ea0-0122-4100-8a74-f3bb6d869f05","system_id":"levelo_inurba_marseille","lat":43.28357,"lon":5.38092,"is_reserved":false,"is_disabled":false,"rental_uris":{"android":"levelo://app?vid=bbf77ea0-0122-4100-8a74-f3bb6d869f05","ios":"levelo://app?vid=bbf77ea0-0122-4100-8a74-f3bb6d869f05"},"vehicle_type_id":"4","last_reported":1753553655,"current_range_meters":8400,"station_id":"ce4bh412rcd13ifvqdr0","pricing_plan_id":"cebpf4jnsgd1na2vs0mg"},{"bike_id":"2e9ab9fd-45bc-49eb-b9e9-c8e46ff07a26","system_id":"levelo_inurba_marseille","lat":43.29918,"lon":5.37476,"is_reserved":false,"is_disabled":false,"rental_uris":{"android":"levelo://app?vid=2e9ab9fd-45bc-49eb-b9e9-c8e46ff07a26","ios":"levelo://app?vid=2e9ab9fd-45bc-49eb-b9e9-c8e46ff07a26"},"vehicle_type_id":"4","last_reported":1753553655,"current_range_meters":8400,"station_id":"ce4bgjh2rcd13ifvqbg0","pricing_plan_id":"cebpf4jnsgd1na2vs0mg"},{"bike_id":"c87fea3a-8eb1-40d6-919a-328fdb9d22ae","system_id":"levelo_inurba_marseille","lat":43.29617,"lon":5.37728,"is_reserved":false,"is_disabled":false,"rental_uris":{"android":"levelo://app?vid=c87fea3a-8eb1-40d6-919a-328fdb9d22ae","ios":"levelo://app?vid=c87fea3a-8eb1-40d6-919a-328fdb9d22ae"},"vehicle_type_id":"4","last_reported":1753553655,"current_range_meters":8400,"station_id":"ce4bgi92rcd13ifvqb90","pricing_plan_id":"cebpf4jnsgd1na2vs0mg"},{"bike_id":"cf72d26f-c2f4-4555-8bdb-d1b40dea4191","system_id":"levelo_inurba_marseille","lat":43.29682,"lon":5.37289,"is_reserved":false,"is_disabled":false,"rental_uris":{"android":"levelo://app?vid=cf72d26f-c2f4-4555-8bdb-d1b40dea4191","ios":"levelo://app?vid=cf72d26f-c2f4-4555-8bdb-d1b40dea4191"},"vehicle_type_id":"4","last_reported":1753553655,"current_range_meters":8400,"station_id":"ce4bgk12rcd13ifvqbj0","pricing_plan_id":"cebpf4jnsgd1na2vs0mg"},{"bike_id":"40eaf862-a003-4768-ac75-b4b9be3d43f1","system_id":"levelo_inurba_marseille","lat":43.26207,"lon":5.37442,"is_reserved":false,"is_disabled":false,"rental_uris":{"android":"levelo://app?vid=40eaf862-a003-4768-ac75-b4b9be3d43f1","ios":"levelo://app?vid=40eaf862-a003-4768-ac75-b4b9be3d43f1"},"vehicle_type_id":"4","last_reported":1753553655,"current_range_meters":8400,"station_id":"ce4bhgp2rcd13ifvqfc0","pricing_plan_id":"cebpf4jnsgd1na2vs0mg"},{"bike_id":"68efc304-0d41-4c98-a023-943580f46380","system_id":"levelo_inurba_marseille","lat":43.225,"lon":5.34777,"is_reserved":false,"is_disabled":true,"rental_uris":{"android":"levelo://app?vid=68efc304-0d41-4c98-a023-943580f46380","ios":"levelo://app?vid=68efc304-0d41-4c98-a023-943580f46380"},"vehicle_type_id":"4","last_reported":1753553655,"current_range_meters":8400,"station_id":"st_cvj5dfep6f1abm77gieg","pricing_plan_id":"cebpf4jnsgd1na2vs0mg"},{"bike_id":"93702d68-9606-419c-a5fe-eee999288ff0","system_id":"levelo_inurba_marseille","lat":43.29095,"lon":5.38128,"is_reserved":false,"is_disabled":false,"rental_uris":{"android":"levelo://app?vid=93702d68-9606-419c-a5fe-eee999288ff0","ios":"levelo://app?vid=93702d68-9606-419c-a5fe-eee999288ff0"},"vehicle_type_id":"4","last_reported":1753553655,"current_range_meters":8400,"station_id":"ce4bh512rcd13ifvqe2g","pricing_plan_id":"cebpf4jnsgd1na2vs0mg"},{"bike_id":"c1dcf064-7633-4f3e-9c7d-cf25342fb85f","system_id":"levelo_inurba_marseille","lat":43.27202,"lon":5.39185,"is_reserved":false,"is_disabled":true,"rental_uris":{"android":"levelo://app?vid=c1dcf064-7633-4f3e-9c7d-cf25342fb85f","ios":"levelo://app?vid=c1dcf064-7633-4f3e-9c7d-cf25342fb85f"},"vehicle_type_id":"4","last_reported":1753553655,"current_range_meters":8400,"station_id":"ce4bhhp2rcd13ifvqfm0","pricing_plan_id":"cebpf4jnsgd1na2vs0mg"},{"bike_id":"c49430b4-18eb-4d6d-ab60-1ad85e196786","system_id":"levelo_inurba_marseille","lat":43.28667,"lon":5.36335,"is_reserved":false,"is_disabled":true,"rental_uris":{"android":"levelo://app?vid=c49430b4-18eb-4d6d-ab60-1ad85e196786","ios":"levelo://app?vid=c49430b4-18eb-4d6d-ab60-1ad85e196786"},"vehicle_type_id":"4","last_reported":1753553655,"current_range_meters":8800,"station_id":"ce4bhah2rcd13ifvqej0","pricing_plan_id":"cebpf4jnsgd1na2vs0mg"},{"bike_id":"13c4991c-3e29-4005-9c0f-381d2d699abf","system_id":"levelo_inurba_marseille","lat":43.28905,"lon":5.36003,"is_reserved":false,"is_disabled":false,"rental_uris":{"android":"levelo://app?vid=13c4991c-3e29-4005-9c0f-381d2d699abf","ios":"levelo://app?vid=13c4991c-3e29-4005-9c0f-381d2d699abf"},"vehicle_type_id":"4","last_reported":1753553655,"current_range_meters":8800,"station_id":"","pricing_plan_id":"cebpf4jnsgd1na2vs0mg"},{"bike_id":"dc9e1c82-30cc-40d0-b96b-43aa21b80cfe","system_id":"levelo_inurba_marseille","lat":43.21207,"lon":5.35071,"is_reserved":false,"is_disabled":false,"rental_uris":{"android":"levelo://app?vid=dc9e1c82-30cc-40d0-b96b-43aa21b80cfe","ios":"levelo://app?vid=dc9e1c82-30cc-40d0-b96b-43aa21b80cfe"},"vehicle_type_id":"4","last_reported":1753553655,"current_range_meters":8800,"station_id":"st_cvj6sg6p6f1abm77japg","pricing_plan_id":"cebpf4jnsgd1na2vs0mg"},{"bike_id":"08f8d726-bb0a-4588-9535-fbbdd37f4078","system_id":"levelo_inurba_marseille","lat":43.24166,"lon":5.36394,"is_reserved":false,"is_disabled":false,"rental_uris":{"android":"levelo://app?vid=08f8d726-bb0a-4588-9535-fbbdd37f4078","ios":"levelo://app?vid=08f8d726-bb0a-4588-9535-fbbdd37f4078"},"vehicle_type_id":"4","last_reported":1753553655,"current_range_meters":8800,"station_id":"cpo36qri1sfpv3e86is0","pricing_plan_id":"cebpf4jnsgd1na2vs0mg"},{"bike_id":"d79b409f-ca1b-43df-9348-1c6665f1fc25","system_id":"levelo_inurba_marseille","lat":43.22503,"lon":5.3477,"is_reserved":false,"is_disabled":false,"rental_uris":{"android":"levelo://app?vid=d79b409f-ca1b-43df-9348-1c6665f1fc25","ios":"levelo://app?vid=d79b409f-ca1b-43df-9348-1c6665f1fc25"},"vehicle_type_id":"4","last_reported":1753553655,"current_range_meters":9200,"station_id":"st_cvj5dfep6f1abm77gieg","pricing_plan_id":"cebpf4jnsgd1na2vs0mg"},{"bike_id":"43cf4049-15dd-4e8c-88a8-61cd8dc10bf5","system_id":"levelo_inurba_marseille","lat":43.33242,"lon":5.37865,"is_reserved":false,"is_disabled":false,"rental_uris":{"android":"levelo://app?vid=43cf4049-15dd-4e8c-88a8-61cd8dc10bf5","ios":"levelo://app?vid=43cf4049-15dd-4e8c-88a8-61cd8dc10bf5"},"vehicle_type_id":"4","last_reported":1753553655,"current_range_meters":9200,"station_id":"","pricing_plan_id":"cebpf4jnsgd1na2vs0mg"},{"bike_id":"eb3d85ab-4df8-4617-9ec6-a0dc8ab2ba2a","system_id":"levelo_inurba_marseille","lat":43.28038,"lon":5.36947,"is_reserved":false,"is_disabled":false,"rental_uris":{"android":"levelo://app?vid=eb3d85ab-4df8-4617-9ec6-a0dc8ab2ba2a","ios":"levelo://app?vid=eb3d85ab-4df8-4617-9ec6-a0dc8ab2ba2a"},"vehicle_type_id":"4","last_reported":1753553655,"current_range_meters":9200,"station_id":"ce4bha12rcd13ifvqef0","pricing_plan_id":"cebpf4jnsgd1na2vs0mg"},{"bike_id":"81781739-c81a-42f6-984d-9eccadf66fec","system_id":"levelo_inurba_marseille","lat":43.28672,"lon":5.3856,"is_reserved":false,"is_disabled":false,"rental_uris":{"android":"levelo://app?vid=81781739-c81a-42f6-984d-9eccadf66fec","ios":"levelo://app?vid=81781739-c81a-42f6-984d-9eccadf66fec"},"vehicle_type_id":"4","last_reported":1753553655,"current_range_meters":9200,"station_id":"","pricing_plan_id":"cebpf4jnsgd1na2vs0mg"},{"bike_id":"4d07f63a-991a-4c6c-9c09-18fa734dfb36","system_id":"levelo_inurba_marseille","lat":43.24178,"lon":5.39728,"is_reserved":false,"is_disabled":false,"rental_uris":{"android":"levelo://app?vid=4d07f63a-991a-4c6c-9c09-18fa734dfb36","ios":"levelo://app?vid=4d07f63a-991a-4c6c-9c09-18fa734dfb36"},"vehicle_type_id":"4","last_reported":1753553655,"current_range_meters":9200,"station_id":"ce4bhn12rcd13ifvqgpg","pricing_plan_id":"cebpf4jnsgd1na2vs0mg"},{"bike_id":"310b2400-dd2e-4320-8ec4-6b74e028c0c7","system_id":"levelo_inurba_marseille","lat":43.225043,"lon":5.347773,"is_reserved":false,"is_disabled":false,"rental_uris":{"android":"levelo://app?vid=310b2400-dd2e-4320-8ec4-6b74e028c0c7","ios":"levelo://app?vid=310b2400-dd2e-4320-8ec4-6b74e028c0c7"},"vehicle_type_id":"4","last_reported":1753553655,"current_range_meters":9200,"station_id":"","pricing_plan_id":"cebpf4jnsgd1na2vs0mg"},{"bike_id":"a0d60e44-246d-4cc0-aef3-dc664879b373","system_id":"levelo_inurba_marseille","lat":43.21767,"lon":5.3461,"is_reserved":false,"is_disabled":true,"rental_uris":{"android":"levelo://app?vid=a0d60e44-246d-4cc0-aef3-dc664879b373","ios":"levelo://app?vid=a0d60e44-246d-4cc0-aef3-dc664879b373"},"vehicle_type_id":"4","last_reported":1753553655,"current_range_meters":9600,"station_id":"st_cvj6r9ubvosntc0bgbag","pricing_plan_id":"cebpf4jnsgd1na2vs0mg"},{"bike_id":"ceb2bf6d-e8e4-4a4f-88bd-c9aba72bb5ce","system_id":"levelo_inurba_marseille","lat":43.29029,"lon":5.38636,"is_reserved":false,"is_disabled":false,"rental_uris":{"android":"levelo://app?vid=ceb2bf6d-e8e4-4a4f-88bd-c9aba72bb5ce","ios":"levelo://app?vid=ceb2bf6d-e8e4-4a4f-88bd-c9aba72bb5ce"},"vehicle_type_id":"4","last_reported":1753553655,"current_range_meters":9600,"station_id":"ce4bh4p2rcd13ifvqe0g","pricing_plan_id":"cebpf4jnsgd1na2vs0mg"},{"bike_id":"3010d8bc-b8ad-479f-9ea2-a1cc08b88489","system_id":"levelo_inurba_marseille","lat":43.31482,"lon":5.37306,"is_reserved":false,"is_disabled":false,"rental_uris":{"android":"levelo://app?vid=3010d8bc-b8ad-479f-9ea2-a1cc08b88489","ios":"levelo://app?vid=3010d8bc-b8ad-479f-9ea2-a1cc08b88489"},"vehicle_type_id":"4","last_reported":1753553655,"current_range_meters":9600,"station_id":"ce4bgt12rcd13ifvqcd0","pricing_plan_id":"cebpf4jnsgd1na2vs0mg"},{"bike_id":"cd5561c9-1cf8-4017-b7e0-c99a926bc380","system_id":"levelo_inurba_marseille","lat":43.32289,"lon":5.38273,"is_reserved":false,"is_disabled":false,"rental_uris":{"android":"levelo://app?vid=cd5561c9-1cf8-4017-b7e0-c99a926bc380","ios":"levelo://app?vid=cd5561c9-1cf8-4017-b7e0-c99a926bc380"},"vehicle_type_id":"4","last_reported":1753553655,"current_range_meters":9600,"station_id":"ce4bhr12rcd13ifvqhqg","pricing_plan_id":"cebpf4jnsgd1na2vs0mg"},{"bike_id":"ab991371-506a-411d-b1d8-1efc5ac7cde6","system_id":"levelo_inurba_marseille","lat":43.22802,"lon":5.35185,"is_reserved":false,"is_disabled":false,"rental_uris":{"android":"levelo://app?vid=ab991371-506a-411d-b1d8-1efc5ac7cde6","ios":"levelo://app?vid=ab991371-506a-411d-b1d8-1efc5ac7cde6"},"vehicle_type_id":"4","last_reported":1753553655,"current_range_meters":9600,"station_id":"","pricing_plan_id":"cebpf4jnsgd1na2vs0mg"},{"bike_id":"783ce86c-061f-4d1d-a46c-9c32be713301","system_id":"levelo_inurba_marseille","lat":43.29526,"lon":5.37505,"is_reserved":false,"is_disabled":false,"rental_uris":{"android":"levelo://app?vid=783ce86c-061f-4d1d-a46c-9c32be713301","ios":"levelo://app?vid=783ce86c-061f-4d1d-a46c-9c32be713301"},"vehicle_type_id":"4","last_reported":1753553655,"current_range_meters":9600,"station_id":"ce4bgkp2rcd13ifvqbmg","pricing_plan_id":"cebpf4jnsgd1na2vs0mg"},{"bike_id":"75a52d90-a84e-49e8-9197-7fd3f8d0259a","system_id":"levelo_inurba_marseille","lat":43.26205,"lon":5.37436,"is_reserved":false,"is_disabled":true,"rental_uris":{"android":"levelo://app?vid=75a52d90-a84e-49e8-9197-7fd3f8d0259a","ios":"levelo://app?vid=75a52d90-a84e-49e8-9197-7fd3f8d0259a"},"vehicle_type_id":"4","last_reported":1753553655,"current_range_meters":9600,"station_id":"ce4bhgp2rcd13ifvqfc0","pricing_plan_id":"cebpf4jnsgd1na2vs0mg"},{"bike_id":"a3fe9995-2e3e-423b-9540-429a92fa997e","system_id":"levelo_inurba_marseille","lat":43.30166,"lon":5.37203,"is_reserved":false,"is_disabled":false,"rental_uris":{"android":"levelo://app?vid=a3fe9995-2e3e-423b-9540-429a92fa997e","ios":"levelo://app?vid=a3fe9995-2e3e-423b-9540-429a92fa997e"},"vehicle_type_id":"4","last_reported":1753553655,"current_range_meters":9600,"station_id":"","pricing_plan_id":"cebpf4jnsgd1na2vs0mg"},{"bike_id":"6c698754-be18-4beb-959f-273e42568a9f","system_id":"levelo_inurba_marseille","lat":43.2678,"lon":5.39419,"is_reserved":false,"is_disabled":false,"rental_uris":{"android":"levelo://app?vid=6c698754-be18-4beb-959f-273e42568a9f","ios":"levelo://app?vid=6c698754-be18-4beb-959f-273e42568a9f"},"vehicle_type_id":"4","last_reported":1753553655,"current_range_meters":9600,"station_id":"ce4bhh12rcd13ifvqfg0","pricing_plan_id":"cebpf4jnsgd1na2vs0mg"},{"bike_id":"3a8c6d07-acd8-4ff5-acb3-6bf469c706dc","system_id":"levelo_inurba_marseille","lat":43.28155,"lon":5.42631,"is_reserved":false,"is_disabled":false,"rental_uris":{"android":"levelo://app?vid=3a8c6d07-acd8-4ff5-acb3-6bf469c706dc","ios":"levelo://app?vid=3a8c6d07-acd8-4ff5-acb3-6bf469c706dc"},"vehicle_type_id":"4","last_reported":1753553655,"current_range_meters":10000,"station_id":"ce4bhnh2rcd13ifvqgug","pricing_plan_id":"cebpf4jnsgd1na2vs0mg"},{"bike_id":"22dca147-1260-44d8-822d-d9d1d50cce31","system_id":"levelo_inurba_marseille","lat":43.2748,"lon":5.39568,"is_reserved":false,"is_disabled":false,"rental_uris":{"android":"levelo://app?vid=22dca147-1260-44d8-822d-d9d1d50cce31","ios":"levelo://app?vid=22dca147-1260-44d8-822d-d9d1d50cce31"},"vehicle_type_id":"4","last_reported":1753553655,"current_range_meters":10000,"station_id":"","pricing_plan_id":"cebpf4jnsgd1na2vs0mg"},{"bike_id":"75da2e45-852e-4a05-be72-9fe588e19f0f","system_id":"levelo_inurba_marseille","lat":43.28679,"lon":5.3867,"is_reserved":false,"is_disabled":false,"rental_uris":{"android":"levelo://app?vid=75da2e45-852e-4a05-be72-9fe588e19f0f","ios":"levelo://app?vid=75da2e45-852e-4a05-be72-9fe588e19f0f"},"vehicle_type_id":"4","last_reported":1753553655,"current_range_meters":10000,"station_id":"ce4bh492rcd13ifvqdug","pricing_plan_id":"cebpf4jnsgd1na2vs0mg"},{"bike_id":"295de28f-5469-421c-873e-076d2fbd1d95","system_id":"levelo_inurba_marseille","lat":43.28609,"lon":5.37059,"is_reserved":false,"is_disabled":false,"rental_uris":{"android":"levelo://app?vid=295de28f-5469-421c-873e-076d2fbd1d95","ios":"levelo://app?vid=295de28f-5469-421c-873e-076d2fbd1d95"},"vehicle_type_id":"4","last_reported":1753553655,"current_range_meters":10000,"station_id":"ce4bht12rcd13ifvqi60","pricing_plan_id":"cebpf4jnsgd1na2vs0mg"},{"bike_id":"d2cd51d1-4be4-47b8-a777-8c658e075be9","system_id":"levelo_inurba_marseille","lat":43.29969,"lon":5.38481,"is_reserved":false,"is_disabled":false,"rental_uris":{"android":"levelo://app?vid=d2cd51d1-4be4-47b8-a777-8c658e075be9","ios":"levelo://app?vid=d2cd51d1-4be4-47b8-a777-8c658e075be9"},"vehicle_type_id":"4","last_reported":1753553655,"current_range_meters":10000,"station_id":"ce4bgj92rcd13ifvqbd0","pricing_plan_id":"cebpf4jnsgd1na2vs0mg"},{"bike_id":"021f24ab-f5d0-41f5-bd51-2f9bbcdcc9bf","system_id":"levelo_inurba_marseille","lat":43.31318,"lon":5.39686,"is_reserved":false,"is_disabled":false,"rental_uris":{"android":"levelo://app?vid=021f24ab-f5d0-41f5-bd51-2f9bbcdcc9bf","ios":"levelo://app?vid=021f24ab-f5d0-41f5-bd51-2f9bbcdcc9bf"},"vehicle_type_id":"4","last_reported":1753553655,"current_range_meters":10000,"station_id":"ce4bgvp2rcd13ifvqcu0","pricing_plan_id":"cebpf4jnsgd1na2vs0mg"},{"bike_id":"8aec49e9-2a7c-473f-936a-01f180d46c56","system_id":"levelo_inurba_marseille","lat":43.225044,"lon":5.347839,"is_reserved":false,"is_disabled":false,"rental_uris":{"android":"levelo://app?vid=8aec49e9-2a7c-473f-936a-01f180d46c56","ios":"levelo://app?vid=8aec49e9-2a7c-473f-936a-01f180d46c56"},"vehicle_type_id":"4","last_reported":1753553655,"current_range_meters":10800,"station_id":"st_cvj5dfep6f1abm77gieg","pricing_plan_id":"cebpf4jnsgd1na2vs0mg"},{"bike_id":"6ab0b13c-2ff1-417a-acfd-489d6800d4c9","system_id":"levelo_inurba_marseille","lat":43.27373,"lon":5.36259,"is_reserved":false,"is_disabled":true,"rental_uris":{"android":"levelo://app?vid=6ab0b13c-2ff1-417a-acfd-489d6800d4c9","ios":"levelo://app?vid=6ab0b13c-2ff1-417a-acfd-489d6800d4c9"},"vehicle_type_id":"4","last_reported":1753553655,"current_range_meters":10800,"station_id":"ce4bhbh2rcd13ifvqeo0","pricing_plan_id":"cebpf4jnsgd1na2vs0mg"},{"bike_id":"6fa7e742-1c3f-4f45-aef4-b48823a7ffd2","system_id":"levelo_inurba_marseille","lat":43.259529,"lon":5.396296,"is_reserved":false,"is_disabled":false,"rental_uris":{"android":"levelo://app?vid=6fa7e742-1c3f-4f45-aef4-b48823a7ffd2","ios":"levelo://app?vid=6fa7e742-1c3f-4f45-aef4-b48823a7ffd2"},"vehicle_type_id":"4","last_reported":1753553655,"current_range_meters":10800,"station_id":"ce4bhip2rcd13ifvqft0","pricing_plan_id":"cebpf4jnsgd1na2vs0mg"},{"bike_id":"242f0461-beac-4dee-bb7f-5141179ea7b4","system_id":"levelo_inurba_marseille","lat":43.28674,"lon":5.38666,"is_reserved":false,"is_disabled":false,"rental_uris":{"android":"levelo://app?vid=242f0461-beac-4dee-bb7f-5141179ea7b4","ios":"levelo://app?vid=242f0461-beac-4dee-bb7f-5141179ea7b4"},"vehicle_type_id":"4","last_reported":1753553655,"current_range_meters":10800,"station_id":"ce4bh492rcd13ifvqdug","pricing_plan_id":"cebpf4jnsgd1na2vs0mg"},{"bike_id":"df64365a-4567-427a-8200-3b29ffbeb241","system_id":"levelo_inurba_marseille","lat":43.29532,"lon":5.37502,"is_reserved":false,"is_disabled":false,"rental_uris":{"android":"levelo://app?vid=df64365a-4567-427a-8200-3b29ffbeb241","ios":"levelo://app?vid=df64365a-4567-427a-8200-3b29ffbeb241"},"vehicle_type_id":"4","last_reported":1753553655,"current_range_meters":11200,"station_id":"ce4bgkp2rcd13ifvqbmg","pricing_plan_id":"cebpf4jnsgd1na2vs0mg"},{"bike_id":"a3f02138-c78c-44df-9e46-19ff6c53e688","system_id":"levelo_inurba_marseille","lat":43.27069,"lon":5.4228,"is_reserved":false,"is_disabled":false,"rental_uris":{"android":"levelo://app?vid=a3f02138-c78c-44df-9e46-19ff6c53e688","ios":"levelo://app?vid=a3f02138-c78c-44df-9e46-19ff6c53e688"},"vehicle_type_id":"4","last_reported":1753553655,"current_range_meters":11200,"station_id":"ce4bhk92rcd13ifvqgb0","pricing_plan_id":"cebpf4jnsgd1na2vs0mg"},{"bike_id":"6070b287-ba72-4b04-8e31-29269d5dd36d","system_id":"levelo_inurba_marseille","lat":43.24081,"lon":5.37734,"is_reserved":false,"is_disabled":false,"rental_uris":{"android":"levelo://app?vid=6070b287-ba72-4b04-8e31-29269d5dd36d","ios":"levelo://app?vid=6070b287-ba72-4b04-8e31-29269d5dd36d"},"vehicle_type_id":"4","last_reported":1753553655,"current_range_meters":11200,"station_id":"ce4bhnp2rcd13ifvqgvg","pricing_plan_id":"cebpf4jnsgd1na2vs0mg"},{"bike_id":"49ed8182-517a-4845-8d39-41a53c0fac10","system_id":"levelo_inurba_marseille","lat":43.30587,"lon":5.39354,"is_reserved":false,"is_disabled":false,"rental_uris":{"android":"levelo://app?vid=49ed8182-517a-4845-8d39-41a53c0fac10","ios":"levelo://app?vid=49ed8182-517a-4845-8d39-41a53c0fac10"},"vehicle_type_id":"4","last_reported":1753553655,"current_range_meters":11200,"station_id":"ce4bh0p2rcd13ifvqd80","pricing_plan_id":"cebpf4jnsgd1na2vs0mg"},{"bike_id":"a4eb96aa-257e-4830-a60a-db57240efb07","system_id":"levelo_inurba_marseille","lat":43.31318,"lon":5.39687,"is_reserved":false,"is_disabled":false,"rental_uris":{"android":"levelo://app?vid=a4eb96aa-257e-4830-a60a-db57240efb07","ios":"levelo://app?vid=a4eb96aa-257e-4830-a60a-db57240efb07"},"vehicle_type_id":"4","last_reported":1753553655,"current_range_meters":11200,"station_id":"ce4bgvp2rcd13ifvqcu0","pricing_plan_id":"cebpf4jnsgd1na2vs0mg"},{"bike_id":"f2c0d178-a474-46a0-b002-379a7a30c411","system_id":"levelo_inurba_marseille","lat":43.29416,"lon":5.37579,"is_reserved":false,"is_disabled":false,"rental_uris":{"android":"levelo://app?vid=f2c0d178-a474-46a0-b002-379a7a30c411","ios":"levelo://app?vid=f2c0d178-a474-46a0-b002-379a7a30c411"},"vehicle_type_id":"4","last_reported":1753553655,"current_range_meters":11600,"station_id":"","pricing_plan_id":"cebpf4jnsgd1na2vs0mg"},{"bike_id":"317a2eae-3fb9-40f1-b740-b20b5cb13993","system_id":"levelo_inurba_marseille","lat":43.324646,"lon":5.365369,"is_reserved":false,"is_disabled":false,"rental_uris":{"android":"levelo://app?vid=317a2eae-3fb9-40f1-b740-b20b5cb13993","ios":"levelo://app?vid=317a2eae-3fb9-40f1-b740-b20b5cb13993"},"vehicle_type_id":"4","last_reported":1753553655,"current_range_meters":11600,"station_id":"ce4bhs12rcd13ifvqhvg","pricing_plan_id":"cebpf4jnsgd1na2vs0mg"},{"bike_id":"de99b14c-9afd-4bdd-bc56-50354c110c3d","system_id":"levelo_inurba_marseille","lat":43.25467,"lon":5.37687,"is_reserved":false,"is_disabled":false,"rental_uris":{"android":"levelo://app?vid=de99b14c-9afd-4bdd-bc56-50354c110c3d","ios":"levelo://app?vid=de99b14c-9afd-4bdd-bc56-50354c110c3d"},"vehicle_type_id":"4","last_reported":1753553655,"current_range_meters":11600,"station_id":"","pricing_plan_id":"cebpf4jnsgd1na2vs0mg"},{"bike_id":"9bff4c30-7d52-4173-88ba-afd3702b54f6","system_id":"levelo_inurba_marseille","lat":43.27994,"lon":5.41654,"is_reserved":false,"is_disabled":false,"rental_uris":{"android":"levelo://app?vid=9bff4c30-7d52-4173-88ba-afd3702b54f6","ios":"levelo://app?vid=9bff4c30-7d52-4173-88ba-afd3702b54f6"},"vehicle_type_id":"4","last_reported":1753553655,"current_range_meters":11600,"station_id":"ce4bho12rcd13ifvqh1g","pricing_plan_id":"cebpf4jnsgd1na2vs0mg"},{"bike_id":"c52fda6b-1ffb-47ac-af3f-8372a2a7c52b","system_id":"levelo_inurba_marseille","lat":43.29194,"lon":5.39318,"is_reserved":false,"is_disabled":false,"rental_uris":{"android":"levelo://app?vid=c52fda6b-1ffb-47ac-af3f-8372a2a7c52b","ios":"levelo://app?vid=c52fda6b-1ffb-47ac-af3f-8372a2a7c52b"},"vehicle_type_id":"4","last_reported":1753553655,"current_range_meters":11200,"station_id":"ce4bh192rcd13ifvqdd0","pricing_plan_id":"cebpf4jnsgd1na2vs0mg"},{"bike_id":"57755280-973c-4ff3-9c25-8f15e2c5b510","system_id":"levelo_inurba_marseille","lat":43.31872,"lon":5.37373,"is_reserved":false,"is_disabled":false,"rental_uris":{"android":"levelo://app?vid=57755280-973c-4ff3-9c25-8f15e2c5b510","ios":"levelo://app?vid=57755280-973c-4ff3-9c25-8f15e2c5b510"},"vehicle_type_id":"4","last_reported":1753553655,"current_range_meters":11600,"station_id":"","pricing_plan_id":"cebpf4jnsgd1na2vs0mg"},{"bike_id":"aea0b2ab-c62e-4648-8a2d-23816e4f36f6","system_id":"levelo_inurba_marseille","lat":43.26509,"lon":5.39535,"is_reserved":false,"is_disabled":false,"rental_uris":{"android":"levelo://app?vid=aea0b2ab-c62e-4648-8a2d-23816e4f36f6","ios":"levelo://app?vid=aea0b2ab-c62e-4648-8a2d-23816e4f36f6"},"vehicle_type_id":"4","last_reported":1753553655,"current_range_meters":12000,"station_id":"ce4bhi12rcd13ifvqfq0","pricing_plan_id":"cebpf4jnsgd1na2vs0mg"},{"bike_id":"b5aab1b5-818a-4dfd-b7ae-70df5639e329","system_id":"levelo_inurba_marseille","lat":43.27059,"lon":5.42286,"is_reserved":false,"is_disabled":false,"rental_uris":{"android":"levelo://app?vid=b5aab1b5-818a-4dfd-b7ae-70df5639e329","ios":"levelo://app?vid=b5aab1b5-818a-4dfd-b7ae-70df5639e329"},"vehicle_type_id":"4","last_reported":1753553655,"current_range_meters":12000,"station_id":"ce4bhk92rcd13ifvqgb0","pricing_plan_id":"cebpf4jnsgd1na2vs0mg"},{"bike_id":"de80e1f8-f338-4fdf-a46a-fb5d0e7700ed","system_id":"levelo_inurba_marseille","lat":43.23966,"lon":5.36623,"is_reserved":false,"is_disabled":false,"rental_uris":{"android":"levelo://app?vid=de80e1f8-f338-4fdf-a46a-fb5d0e7700ed","ios":"levelo://app?vid=de80e1f8-f338-4fdf-a46a-fb5d0e7700ed"},"vehicle_type_id":"4","last_reported":1753553655,"current_range_meters":12000,"station_id":"ce4bhi12rcd13ifvqfp0","pricing_plan_id":"cebpf4jnsgd1na2vs0mg"},{"bike_id":"01919711-51c0-4b9e-863e-584f9a31b4ec","system_id":"levelo_inurba_marseille","lat":43.29905,"lon":5.39705,"is_reserved":false,"is_disabled":true,"rental_uris":{"android":"levelo://app?vid=01919711-51c0-4b9e-863e-584f9a31b4ec","ios":"levelo://app?vid=01919711-51c0-4b9e-863e-584f9a31b4ec"},"vehicle_type_id":"4","last_reported":1753553655,"current_range_meters":12000,"station_id":"ce4bh0h2rcd13ifvqd50","pricing_plan_id":"cebpf4jnsgd1na2vs0mg"},{"bike_id":"163d693b-9a5e-4bb0-bab1-d62e01d36f28","system_id":"levelo_inurba_marseille","lat":43.26954,"lon":5.38628,"is_reserved":false,"is_disabled":false,"rental_uris":{"android":"levelo://app?vid=163d693b-9a5e-4bb0-bab1-d62e01d36f28","ios":"levelo://app?vid=163d693b-9a5e-4bb0-bab1-d62e01d36f28"},"vehicle_type_id":"4","last_reported":1753553655,"current_range_meters":12000,"station_id":"ce4bhh92rcd13ifvqfh0","pricing_plan_id":"cebpf4jnsgd1na2vs0mg"},{"bike_id":"33eb3b36-fcc8-448e-96ef-ed046e14778e","system_id":"levelo_inurba_marseille","lat":43.29252,"lon":5.40909,"is_reserved":false,"is_disabled":false,"rental_uris":{"android":"levelo://app?vid=33eb3b36-fcc8-448e-96ef-ed046e14778e","ios":"levelo://app?vid=33eb3b36-fcc8-448e-96ef-ed046e14778e"},"vehicle_type_id":"4","last_reported":1753553655,"current_range_meters":12000,"station_id":"ce4bh192rcd13ifvqdc0","pricing_plan_id":"cebpf4jnsgd1na2vs0mg"},{"bike_id":"82a78c19-6b68-4a64-bd8e-80281a14fca0","system_id":"levelo_inurba_marseille","lat":43.26675,"lon":5.38268,"is_reserved":false,"is_disabled":false,"rental_uris":{"android":"levelo://app?vid=82a78c19-6b68-4a64-bd8e-80281a14fca0","ios":"levelo://app?vid=82a78c19-6b68-4a64-bd8e-80281a14fca0"},"vehicle_type_id":"4","last_reported":1753553655,"current_range_meters":12000,"station_id":"ce4bhg92rcd13ifvqf90","pricing_plan_id":"cebpf4jnsgd1na2vs0mg"},{"bike_id":"09447d92-0522-480e-b6b5-24959949ccf9","system_id":"levelo_inurba_marseille","lat":43.32423,"lon":5.36785,"is_reserved":false,"is_disabled":false,"rental_uris":{"android":"levelo://app?vid=09447d92-0522-480e-b6b5-24959949ccf9","ios":"levelo://app?vid=09447d92-0522-480e-b6b5-24959949ccf9"},"vehicle_type_id":"4","last_reported":1753553655,"current_range_meters":12400,"station_id":"","pricing_plan_id":"cebpf4jnsgd1na2vs0mg"},{"bike_id":"b1f94bed-d530-4ec2-ae47-39fb36be28bf","system_id":"levelo_inurba_marseille","lat":43.29276,"lon":5.36839,"is_reserved":false,"is_disabled":false,"rental_uris":{"android":"levelo://app?vid=b1f94bed-d530-4ec2-ae47-39fb36be28bf","ios":"levelo://app?vid=b1f94bed-d530-4ec2-ae47-39fb36be28bf"},"vehicle_type_id":"4","last_reported":1753553655,"current_range_meters":12400,"station_id":"ce4bhbp2rcd13ifvqesg","pricing_plan_id":"cebpf4jnsgd1na2vs0mg"},{"bike_id":"cc9ac4f6-acd3-4ca3-8347-8dab40b9622a","system_id":"levelo_inurba_marseille","lat":43.23191,"lon":5.35545,"is_reserved":false,"is_disabled":false,"rental_uris":{"android":"levelo://app?vid=cc9ac4f6-acd3-4ca3-8347-8dab40b9622a","ios":"levelo://app?vid=cc9ac4f6-acd3-4ca3-8347-8dab40b9622a"},"vehicle_type_id":"4","last_reported":1753553655,"current_range_meters":12400,"station_id":"ce4bhu92rcd13ifvqi70","pricing_plan_id":"cebpf4jnsgd1na2vs0mg"},{"bike_id":"03b4bdd5-e66d-455f-b6dc-96264f387f25","system_id":"levelo_inurba_marseille","lat":43.30597,"lon":5.39358,"is_reserved":false,"is_disabled":false,"rental_uris":{"android":"levelo://app?vid=03b4bdd5-e66d-455f-b6dc-96264f387f25","ios":"levelo://app?vid=03b4bdd5-e66d-455f-b6dc-96264f387f25"},"vehicle_type_id":"4","last_reported":1753553655,"current_range_meters":12400,"station_id":"ce4bh0p2rcd13ifvqd80","pricing_plan_id":"cebpf4jnsgd1na2vs0mg"},{"bike_id":"89a3a37c-45fb-41d9-a69f-c40391485fb2","system_id":"levelo_inurba_marseille","lat":43.30887,"lon":5.37193,"is_reserved":false,"is_disabled":false,"rental_uris":{"android":"levelo://app?vid=89a3a37c-45fb-41d9-a69f-c40391485fb2","ios":"levelo://app?vid=89a3a37c-45fb-41d9-a69f-c40391485fb2"},"vehicle_type_id":"4","last_reported":1753553655,"current_range_meters":12400,"station_id":"ce4bguh2rcd13ifvqckg","pricing_plan_id":"cebpf4jnsgd1na2vs0mg"},{"bike_id":"d00b6abc-174d-48a1-8e37-47955a519e3f","system_id":"levelo_inurba_marseille","lat":43.22949,"lon":5.35343,"is_reserved":false,"is_disabled":false,"rental_uris":{"android":"levelo://app?vid=d00b6abc-174d-48a1-8e37-47955a519e3f","ios":"levelo://app?vid=d00b6abc-174d-48a1-8e37-47955a519e3f"},"vehicle_type_id":"4","last_reported":1753553655,"current_range_meters":12800,"station_id":"cpo3532slgdg3j2ikp40","pricing_plan_id":"cebpf4jnsgd1na2vs0mg"},{"bike_id":"af39779b-1c47-4e77-95ee-7415f5a6221e","system_id":"levelo_inurba_marseille","lat":43.29193,"lon":5.39324,"is_reserved":false,"is_disabled":false,"rental_uris":{"android":"levelo://app?vid=af39779b-1c47-4e77-95ee-7415f5a6221e","ios":"levelo://app?vid=af39779b-1c47-4e77-95ee-7415f5a6221e"},"vehicle_type_id":"4","last_reported":1753553655,"current_range_meters":12800,"station_id":"ce4bh192rcd13ifvqdd0","pricing_plan_id":"cebpf4jnsgd1na2vs0mg"},{"bike_id":"b77c50a4-1ce8-4c1f-8358-251392245270","system_id":"levelo_inurba_marseille","lat":43.2707,"lon":5.4228,"is_reserved":false,"is_disabled":false,"rental_uris":{"android":"levelo://app?vid=b77c50a4-1ce8-4c1f-8358-251392245270","ios":"levelo://app?vid=b77c50a4-1ce8-4c1f-8358-251392245270"},"vehicle_type_id":"4","last_reported":1753553655,"current_range_meters":12800,"station_id":"ce4bhk92rcd13ifvqgb0","pricing_plan_id":"cebpf4jnsgd1na2vs0mg"},{"bike_id":"0944bbad-2f17-4520-9044-3f90f2fa610f","system_id":"levelo_inurba_marseille","lat":43.25114,"lon":5.40319,"is_reserved":false,"is_disabled":false,"rental_uris":{"android":"levelo://app?vid=0944bbad-2f17-4520-9044-3f90f2fa610f","ios":"levelo://app?vid=0944bbad-2f17-4520-9044-3f90f2fa610f"},"vehicle_type_id":"4","last_reported":1753553655,"current_range_meters":12800,"station_id":"ce4bhlh2rcd13ifvqgig","pricing_plan_id":"cebpf4jnsgd1na2vs0mg"},{"bike_id":"80cda384-a0de-4854-88d7-81c5eb0a10d1","system_id":"levelo_inurba_marseille","lat":43.28942,"lon":5.36398,"is_reserved":false,"is_disabled":true,"rental_uris":{"android":"levelo://app?vid=80cda384-a0de-4854-88d7-81c5eb0a10d1","ios":"levelo://app?vid=80cda384-a0de-4854-88d7-81c5eb0a10d1"},"vehicle_type_id":"4","last_reported":1753553655,"current_range_meters":12800,"station_id":"ce4bhc92rcd13ifvqetg","pricing_plan_id":"cebpf4jnsgd1na2vs0mg"},{"bike_id":"459459dc-9459-4880-a80b-6404fe18983e","system_id":"levelo_inurba_marseille","lat":43.29359,"lon":5.37836,"is_reserved":false,"is_disabled":false,"rental_uris":{"android":"levelo://app?vid=459459dc-9459-4880-a80b-6404fe18983e","ios":"levelo://app?vid=459459dc-9459-4880-a80b-6404fe18983e"},"vehicle_type_id":"4","last_reported":1753553655,"current_range_meters":12800,"station_id":"ce4bgjh2rcd13ifvqbf0","pricing_plan_id":"cebpf4jnsgd1na2vs0mg"},{"bike_id":"38430b3a-6e1c-4808-8cf1-8d4bfa508640","system_id":"levelo_inurba_marseille","lat":43.29228,"lon":5.3605,"is_reserved":false,"is_disabled":false,"rental_uris":{"android":"levelo://app?vid=38430b3a-6e1c-4808-8cf1-8d4bfa508640","ios":"levelo://app?vid=38430b3a-6e1c-4808-8cf1-8d4bfa508640"},"vehicle_type_id":"4","last_reported":1753553655,"current_range_meters":12800,"station_id":"ce4bhbh2rcd13ifvqeqg","pricing_plan_id":"cebpf4jnsgd1na2vs0mg"},{"bike_id":"ba93bb28-cf26-4afd-a786-6bc2f811c4cb","system_id":"levelo_inurba_marseille","lat":43.32413,"lon":5.40412,"is_reserved":false,"is_disabled":false,"rental_uris":{"android":"levelo://app?vid=ba93bb28-cf26-4afd-a786-6bc2f811c4cb","ios":"levelo://app?vid=ba93bb28-cf26-4afd-a786-6bc2f811c4cb"},"vehicle_type_id":"4","last_reported":1753553655,"current_range_meters":13600,"station_id":"","pricing_plan_id":"cebpf4jnsgd1na2vs0mg"},{"bike_id":"c3c2652b-f2d7-4ed4-89ec-9559feb01451","system_id":"levelo_inurba_marseille","lat":43.29226,"lon":5.360481,"is_reserved":false,"is_disabled":true,"rental_uris":{"android":"levelo://app?vid=c3c2652b-f2d7-4ed4-89ec-9559feb01451","ios":"levelo://app?vid=c3c2652b-f2d7-4ed4-89ec-9559feb01451"},"vehicle_type_id":"4","last_reported":1753553655,"current_range_meters":13600,"station_id":"ce4bhbh2rcd13ifvqeqg","pricing_plan_id":"cebpf4jnsgd1na2vs0mg"},{"bike_id":"d2bd3271-8e2d-48c4-9604-8adeffdba011","system_id":"levelo_inurba_marseille","lat":43.274326,"lon":5.394158,"is_reserved":false,"is_disabled":false,"rental_uris":{"android":"levelo://app?vid=d2bd3271-8e2d-48c4-9604-8adeffdba011","ios":"levelo://app?vid=d2bd3271-8e2d-48c4-9604-8adeffdba011"},"vehicle_type_id":"4","last_reported":1753553655,"current_range_meters":13600,"station_id":"ce4bhip2rcd13ifvqft0","pricing_plan_id":"cebpf4jnsgd1na2vs0mg"},{"bike_id":"99011a54-dce6-4409-a7ce-b855d0b9d225","system_id":"levelo_inurba_marseille","lat":43.29256,"lon":5.3762,"is_reserved":false,"is_disabled":false,"rental_uris":{"android":"levelo://app?vid=99011a54-dce6-4409-a7ce-b855d0b9d225","ios":"levelo://app?vid=99011a54-dce6-4409-a7ce-b855d0b9d225"},"vehicle_type_id":"4","last_reported":1753553655,"current_range_meters":13600,"station_id":"ce4bgi12rcd13ifvqb80","pricing_plan_id":"cebpf4jnsgd1na2vs0mg"},{"bike_id":"4d833890-f87d-4d24-b14a-94f3e2b819d2","system_id":"levelo_inurba_marseille","lat":43.22507,"lon":5.34775,"is_reserved":false,"is_disabled":false,"rental_uris":{"android":"levelo://app?vid=4d833890-f87d-4d24-b14a-94f3e2b819d2","ios":"levelo://app?vid=4d833890-f87d-4d24-b14a-94f3e2b819d2"},"vehicle_type_id":"4","last_reported":1753553655,"current_range_meters":14000,"station_id":"st_cvj5dfep6f1abm77gieg","pricing_plan_id":"cebpf4jnsgd1na2vs0mg"},{"bike_id":"3d3f7e5e-5f19-4daf-a8dd-75fa4f45d685","system_id":"levelo_inurba_marseille","lat":43.28976,"lon":5.37833,"is_reserved":false,"is_disabled":false,"rental_uris":{"android":"levelo://app?vid=3d3f7e5e-5f19-4daf-a8dd-75fa4f45d685","ios":"levelo://app?vid=3d3f7e5e-5f19-4daf-a8dd-75fa4f45d685"},"vehicle_type_id":"4","last_reported":1753553655,"current_range_meters":14000,"station_id":"ce4bh9p2rcd13ifvqed0","pricing_plan_id":"cebpf4jnsgd1na2vs0mg"},{"bike_id":"e8dde99c-6ecf-4e63-9ffc-47ebe879a97f","system_id":"levelo_inurba_marseille","lat":43.290311,"lon":5.399895,"is_reserved":false,"is_disabled":false,"rental_uris":{"android":"levelo://app?vid=e8dde99c-6ecf-4e63-9ffc-47ebe879a97f","ios":"levelo://app?vid=e8dde99c-6ecf-4e63-9ffc-47ebe879a97f"},"vehicle_type_id":"4","last_reported":1753553655,"current_range_meters":14000,"station_id":"ce4bh392rcd13ifvqdm0","pricing_plan_id":"cebpf4jnsgd1na2vs0mg"},{"bike_id":"4f069cb2-e85f-44ab-8659-b3444c19b657","system_id":"levelo_inurba_marseille","lat":43.23195,"lon":5.35521,"is_reserved":false,"is_disabled":false,"rental_uris":{"android":"levelo://app?vid=4f069cb2-e85f-44ab-8659-b3444c19b657","ios":"levelo://app?vid=4f069cb2-e85f-44ab-8659-b3444c19b657"},"vehicle_type_id":"4","last_reported":1753553655,"current_range_meters":14400,"station_id":"ce4bhu92rcd13ifvqi70","pricing_plan_id":"cebpf4jnsgd1na2vs0mg"},{"bike_id":"0428cb8d-9dbb-49aa-bddf-f3e50aad81da","system_id":"levelo_inurba_marseille","lat":43.2925,"lon":5.36868,"is_reserved":false,"is_disabled":false,"rental_uris":{"android":"levelo://app?vid=0428cb8d-9dbb-49aa-bddf-f3e50aad81da","ios":"levelo://app?vid=0428cb8d-9dbb-49aa-bddf-f3e50aad81da"},"vehicle_type_id":"4","last_reported":1753553655,"current_range_meters":14000,"station_id":"ce4bhbp2rcd13ifvqesg","pricing_plan_id":"cebpf4jnsgd1na2vs0mg"},{"bike_id":"dd5b3db2-62f9-4716-992d-435138b6493d","system_id":"levelo_inurba_marseille","lat":43.30831,"lon":5.38112,"is_reserved":false,"is_disabled":true,"rental_uris":{"android":"levelo://app?vid=dd5b3db2-62f9-4716-992d-435138b6493d","ios":"levelo://app?vid=dd5b3db2-62f9-4716-992d-435138b6493d"},"vehicle_type_id":"4","last_reported":1753553655,"current_range_meters":14000,"station_id":"ce4bgt12rcd13ifvqce0","pricing_plan_id":"cebpf4jnsgd1na2vs0mg"},{"bike_id":"94d1ecab-4f04-424d-9493-caf427bdd598","system_id":"levelo_inurba_marseille","lat":43.239666,"lon":5.36655,"is_reserved":false,"is_disabled":false,"rental_uris":{"android":"levelo://app?vid=94d1ecab-4f04-424d-9493-caf427bdd598","ios":"levelo://app?vid=94d1ecab-4f04-424d-9493-caf427bdd598"},"vehicle_type_id":"4","last_reported":1753553655,"current_range_meters":14000,"station_id":"ce4bhi12rcd13ifvqfp0","pricing_plan_id":"cebpf4jnsgd1na2vs0mg"},{"bike_id":"e1892bf6-8397-4d44-b6ed-45e89abf1d1a","system_id":"levelo_inurba_marseille","lat":43.29031,"lon":5.38641,"is_reserved":false,"is_disabled":false,"rental_uris":{"android":"levelo://app?vid=e1892bf6-8397-4d44-b6ed-45e89abf1d1a","ios":"levelo://app?vid=e1892bf6-8397-4d44-b6ed-45e89abf1d1a"},"vehicle_type_id":"4","last_reported":1753553655,"current_range_meters":14000,"station_id":"ce4bh4p2rcd13ifvqe0g","pricing_plan_id":"cebpf4jnsgd1na2vs0mg"},{"bike_id":"831a3cf2-acf1-4d34-a389-e78eddcf9ddd","system_id":"levelo_inurba_marseille","lat":43.29544,"lon":5.38538,"is_reserved":false,"is_disabled":false,"rental_uris":{"android":"levelo://app?vid=831a3cf2-acf1-4d34-a389-e78eddcf9ddd","ios":"levelo://app?vid=831a3cf2-acf1-4d34-a389-e78eddcf9ddd"},"vehicle_type_id":"4","last_reported":1753553655,"current_range_meters":14000,"station_id":"ce4bgih2rcd13ifvqba0","pricing_plan_id":"cebpf4jnsgd1na2vs0mg"},{"bike_id":"18c85822-3cb8-4c00-95c7-874f8909774d","system_id":"levelo_inurba_marseille","lat":43.29916,"lon":5.37471,"is_reserved":false,"is_disabled":false,"rental_uris":{"android":"levelo://app?vid=18c85822-3cb8-4c00-95c7-874f8909774d","ios":"levelo://app?vid=18c85822-3cb8-4c00-95c7-874f8909774d"},"vehicle_type_id":"4","last_reported":1753553655,"current_range_meters":14000,"station_id":"ce4bgjh2rcd13ifvqbg0","pricing_plan_id":"cebpf4jnsgd1na2vs0mg"},{"bike_id":"61082fc7-40bd-4308-9408-4f344547985c","system_id":"levelo_inurba_marseille","lat":43.30463,"lon":5.37901,"is_reserved":false,"is_disabled":false,"rental_uris":{"android":"levelo://app?vid=61082fc7-40bd-4308-9408-4f344547985c","ios":"levelo://app?vid=61082fc7-40bd-4308-9408-4f344547985c"},"vehicle_type_id":"4","last_reported":1753553655,"current_range_meters":14000,"station_id":"ce4bgup2rcd13ifvqcn0","pricing_plan_id":"cebpf4jnsgd1na2vs0mg"},{"bike_id":"a7e73716-1228-4340-93a3-70b535aa04eb","system_id":"levelo_inurba_marseille","lat":43.24659,"lon":5.38157,"is_reserved":false,"is_disabled":false,"rental_uris":{"android":"levelo://app?vid=a7e73716-1228-4340-93a3-70b535aa04eb","ios":"levelo://app?vid=a7e73716-1228-4340-93a3-70b535aa04eb"},"vehicle_type_id":"4","last_reported":1753553655,"current_range_meters":14400,"station_id":"ce4bhih2rcd13ifvqfr0","pricing_plan_id":"cebpf4jnsgd1na2vs0mg"},{"bike_id":"41f9f37c-c50e-462d-946f-728ceba45d27","system_id":"levelo_inurba_marseille","lat":43.286142,"lon":5.350971,"is_reserved":false,"is_disabled":false,"rental_uris":{"android":"levelo://app?vid=41f9f37c-c50e-462d-946f-728ceba45d27","ios":"levelo://app?vid=41f9f37c-c50e-462d-946f-728ceba45d27"},"vehicle_type_id":"4","last_reported":1753553655,"current_range_meters":14400,"station_id":"ce4bhch2rcd13ifvqeug","pricing_plan_id":"cebpf4jnsgd1na2vs0mg"},{"bike_id":"da2dca42-f134-4e4a-82a2-b995476c594c","system_id":"levelo_inurba_marseille","lat":43.29578,"lon":5.37515,"is_reserved":false,"is_disabled":false,"rental_uris":{"android":"levelo://app?vid=da2dca42-f134-4e4a-82a2-b995476c594c","ios":"levelo://app?vid=da2dca42-f134-4e4a-82a2-b995476c594c"},"vehicle_type_id":"4","last_reported":1753553655,"current_range_meters":14400,"station_id":"ce4bgh92rcd13ifvqb50","pricing_plan_id":"cebpf4jnsgd1na2vs0mg"},{"bike_id":"61cd7fe3-237f-4708-afc7-dd8a81b4454c","system_id":"levelo_inurba_marseille","lat":43.22929,"lon":5.35355,"is_reserved":false,"is_disabled":false,"rental_uris":{"android":"levelo://app?vid=61cd7fe3-237f-4708-afc7-dd8a81b4454c","ios":"levelo://app?vid=61cd7fe3-237f-4708-afc7-dd8a81b4454c"},"vehicle_type_id":"4","last_reported":1753553655,"current_range_meters":14400,"station_id":"cpo3532slgdg3j2ikp40","pricing_plan_id":"cebpf4jnsgd1na2vs0mg"},{"bike_id":"adc99020-a046-4247-b3bb-abb9aabfb167","system_id":"levelo_inurba_marseille","lat":43.24394,"lon":5.37062,"is_reserved":false,"is_disabled":false,"rental_uris":{"android":"levelo://app?vid=adc99020-a046-4247-b3bb-abb9aabfb167","ios":"levelo://app?vid=adc99020-a046-4247-b3bb-abb9aabfb167"},"vehicle_type_id":"4","last_reported":1753553655,"current_range_meters":14400,"station_id":"ce4bhhh2rcd13ifvqfk0","pricing_plan_id":"cebpf4jnsgd1na2vs0mg"},{"bike_id":"95bd8fd3-8a83-4ee7-85d6-75e6e14086ba","system_id":"levelo_inurba_marseille","lat":43.29562,"lon":5.3751,"is_reserved":false,"is_disabled":false,"rental_uris":{"android":"levelo://app?vid=95bd8fd3-8a83-4ee7-85d6-75e6e14086ba","ios":"levelo://app?vid=95bd8fd3-8a83-4ee7-85d6-75e6e14086ba"},"vehicle_type_id":"4","last_reported":1753553655,"current_range_meters":14400,"station_id":"ce4bgh92rcd13ifvqb50","pricing_plan_id":"cebpf4jnsgd1na2vs0mg"},{"bike_id":"313ef7e4-e9fc-42d8-b288-40febb09a49b","system_id":"levelo_inurba_marseille","lat":43.31701,"lon":5.37788,"is_reserved":false,"is_disabled":false,"rental_uris":{"android":"levelo://app?vid=313ef7e4-e9fc-42d8-b288-40febb09a49b","ios":"levelo://app?vid=313ef7e4-e9fc-42d8-b288-40febb09a49b"},"vehicle_type_id":"4","last_reported":1753553655,"current_range_meters":14000,"station_id":"ce4bgth2rcd13ifvqch0","pricing_plan_id":"cebpf4jnsgd1na2vs0mg"},{"bike_id":"2fa9dd39-7ea8-42db-9ead-ca5e3675e815","system_id":"levelo_inurba_marseille","lat":43.30205,"lon":5.39453,"is_reserved":false,"is_disabled":true,"rental_uris":{"android":"levelo://app?vid=2fa9dd39-7ea8-42db-9ead-ca5e3675e815","ios":"levelo://app?vid=2fa9dd39-7ea8-42db-9ead-ca5e3675e815"},"vehicle_type_id":"4","last_reported":1753553655,"current_range_meters":14400,"station_id":"ce4bh0p2rcd13ifvqd70","pricing_plan_id":"cebpf4jnsgd1na2vs0mg"},{"bike_id":"25e07804-327d-451e-af4e-6a6e09b5f052","system_id":"levelo_inurba_marseille","lat":43.26553,"lon":5.37282,"is_reserved":false,"is_disabled":false,"rental_uris":{"android":"levelo://app?vid=25e07804-327d-451e-af4e-6a6e09b5f052","ios":"levelo://app?vid=25e07804-327d-451e-af4e-6a6e09b5f052"},"vehicle_type_id":"4","last_reported":1753553655,"current_range_meters":14400,"station_id":"ce4bhg12rcd13ifvqf70","pricing_plan_id":"cebpf4jnsgd1na2vs0mg"},{"bike_id":"f663b5c6-7bca-4ec6-a067-bfb07a19ac59","system_id":"levelo_inurba_marseille","lat":43.32371,"lon":5.38892,"is_reserved":false,"is_disabled":false,"rental_uris":{"android":"levelo://app?vid=f663b5c6-7bca-4ec6-a067-bfb07a19ac59","ios":"levelo://app?vid=f663b5c6-7bca-4ec6-a067-bfb07a19ac59"},"vehicle_type_id":"4","last_reported":1753553655,"current_range_meters":14400,"station_id":"ce4bhqp2rcd13ifvqhog","pricing_plan_id":"cebpf4jnsgd1na2vs0mg"},{"bike_id":"a1d5115b-997f-44a5-8b4b-21cb29757407","system_id":"levelo_inurba_marseille","lat":43.31215,"lon":5.37302,"is_reserved":false,"is_disabled":false,"rental_uris":{"android":"levelo://app?vid=a1d5115b-997f-44a5-8b4b-21cb29757407","ios":"levelo://app?vid=a1d5115b-997f-44a5-8b4b-21cb29757407"},"vehicle_type_id":"4","last_reported":1753553655,"current_range_meters":14400,"station_id":"","pricing_plan_id":"cebpf4jnsgd1na2vs0mg"},{"bike_id":"c34587a8-a019-4b34-8b52-b2a04d65fdd5","system_id":"levelo_inurba_marseille","lat":43.26026,"lon":5.37527,"is_reserved":false,"is_disabled":false,"rental_uris":{"android":"levelo://app?vid=c34587a8-a019-4b34-8b52-b2a04d65fdd5","ios":"levelo://app?vid=c34587a8-a019-4b34-8b52-b2a04d65fdd5"},"vehicle_type_id":"4","last_reported":1753553655,"current_range_meters":14400,"station_id":"ce4bhgh2rcd13ifvqfa0","pricing_plan_id":"cebpf4jnsgd1na2vs0mg"},{"bike_id":"7e65c5ea-0429-45f5-a396-bd32e67f0744","system_id":"levelo_inurba_marseille","lat":43.33474,"lon":5.40032,"is_reserved":false,"is_disabled":false,"rental_uris":{"android":"levelo://app?vid=7e65c5ea-0429-45f5-a396-bd32e67f0744","ios":"levelo://app?vid=7e65c5ea-0429-45f5-a396-bd32e67f0744"},"vehicle_type_id":"4","last_reported":1753553655,"current_range_meters":14400,"station_id":"","pricing_plan_id":"cebpf4jnsgd1na2vs0mg"},{"bike_id":"9377d52d-7c04-4205-81e5-05265b3eabff","system_id":"levelo_inurba_marseille","lat":43.28714,"lon":5.37925,"is_reserved":false,"is_disabled":true,"rental_uris":{"android":"levelo://app?vid=9377d52d-7c04-4205-81e5-05265b3eabff","ios":"levelo://app?vid=9377d52d-7c04-4205-81e5-05265b3eabff"},"vehicle_type_id":"4","last_reported":1753553655,"current_range_meters":14800,"station_id":"ce4bh9p2rcd13ifvqec0","pricing_plan_id":"cebpf4jnsgd1na2vs0mg"},{"bike_id":"73b5b045-1223-460a-b633-9cfec418a97f","system_id":"levelo_inurba_marseille","lat":43.29007,"lon":5.35611,"is_reserved":false,"is_disabled":false,"rental_uris":{"android":"levelo://app?vid=73b5b045-1223-460a-b633-9cfec418a97f","ios":"levelo://app?vid=73b5b045-1223-460a-b633-9cfec418a97f"},"vehicle_type_id":"4","last_reported":1753553655,"current_range_meters":14800,"station_id":"ce4bhb92rcd13ifvqen0","pricing_plan_id":"cebpf4jnsgd1na2vs0mg"},{"bike_id":"70542dc1-dc79-45aa-b4bd-471a7b34e6f2","system_id":"levelo_inurba_marseille","lat":43.27394,"lon":5.362438,"is_reserved":false,"is_disabled":false,"rental_uris":{"android":"levelo://app?vid=70542dc1-dc79-45aa-b4bd-471a7b34e6f2","ios":"levelo://app?vid=70542dc1-dc79-45aa-b4bd-471a7b34e6f2"},"vehicle_type_id":"4","last_reported":1753553655,"current_range_meters":14800,"station_id":"ce4bhbh2rcd13ifvqeo0","pricing_plan_id":"cebpf4jnsgd1na2vs0mg"},{"bike_id":"a05343f6-5345-451e-92c9-8d14b4ec04eb","system_id":"levelo_inurba_marseille","lat":43.314919,"lon":5.373082,"is_reserved":false,"is_disabled":false,"rental_uris":{"android":"levelo://app?vid=a05343f6-5345-451e-92c9-8d14b4ec04eb","ios":"levelo://app?vid=a05343f6-5345-451e-92c9-8d14b4ec04eb"},"vehicle_type_id":"4","last_reported":1753553655,"current_range_meters":14800,"station_id":"","pricing_plan_id":"cebpf4jnsgd1na2vs0mg"},{"bike_id":"7254c071-82f3-4351-816b-2a844c6f1784","system_id":"levelo_inurba_marseille","lat":43.29529,"lon":5.38548,"is_reserved":false,"is_disabled":false,"rental_uris":{"android":"levelo://app?vid=7254c071-82f3-4351-816b-2a844c6f1784","ios":"levelo://app?vid=7254c071-82f3-4351-816b-2a844c6f1784"},"vehicle_type_id":"4","last_reported":1753553655,"current_range_meters":14800,"station_id":"ce4bgih2rcd13ifvqba0","pricing_plan_id":"cebpf4jnsgd1na2vs0mg"},{"bike_id":"f3d9f4e3-18e1-46b0-943e-1414afeca2da","system_id":"levelo_inurba_marseille","lat":43.2294,"lon":5.35371,"is_reserved":false,"is_disabled":false,"rental_uris":{"android":"levelo://app?vid=f3d9f4e3-18e1-46b0-943e-1414afeca2da","ios":"levelo://app?vid=f3d9f4e3-18e1-46b0-943e-1414afeca2da"},"vehicle_type_id":"4","last_reported":1753553655,"current_range_meters":14800,"station_id":"cpo3532slgdg3j2ikp40","pricing_plan_id":"cebpf4jnsgd1na2vs0mg"},{"bike_id":"1e5c96a6-9d0f-4d5f-85ef-5a5f8ac0317a","system_id":"levelo_inurba_marseille","lat":43.334645,"lon":5.391283,"is_reserved":false,"is_disabled":false,"rental_uris":{"android":"levelo://app?vid=1e5c96a6-9d0f-4d5f-85ef-5a5f8ac0317a","ios":"levelo://app?vid=1e5c96a6-9d0f-4d5f-85ef-5a5f8ac0317a"},"vehicle_type_id":"4","last_reported":1753553655,"current_range_meters":14800,"station_id":"","pricing_plan_id":"cebpf4jnsgd1na2vs0mg"},{"bike_id":"854526cd-ffad-4788-ac3e-753a76f67966","system_id":"levelo_inurba_marseille","lat":43.30646,"lon":5.40094,"is_reserved":false,"is_disabled":false,"rental_uris":{"android":"levelo://app?vid=854526cd-ffad-4788-ac3e-753a76f67966","ios":"levelo://app?vid=854526cd-ffad-4788-ac3e-753a76f67966"},"vehicle_type_id":"4","last_reported":1753553655,"current_range_meters":14800,"station_id":"ce4bh112rcd13ifvqda0","pricing_plan_id":"cebpf4jnsgd1na2vs0mg"},{"bike_id":"fe165cbd-2aa7-40d4-b28e-c33848c088c9","system_id":"levelo_inurba_marseille","lat":43.29567,"lon":5.37519,"is_reserved":false,"is_disabled":false,"rental_uris":{"android":"levelo://app?vid=fe165cbd-2aa7-40d4-b28e-c33848c088c9","ios":"levelo://app?vid=fe165cbd-2aa7-40d4-b28e-c33848c088c9"},"vehicle_type_id":"4","last_reported":1753553655,"current_range_meters":14800,"station_id":"ce4bgh92rcd13ifvqb50","pricing_plan_id":"cebpf4jnsgd1na2vs0mg"},{"bike_id":"bb48a806-49e5-40db-a229-2bad6d559e27","system_id":"levelo_inurba_marseille","lat":43.29016,"lon":5.38127,"is_reserved":false,"is_disabled":false,"rental_uris":{"android":"levelo://app?vid=bb48a806-49e5-40db-a229-2bad6d559e27","ios":"levelo://app?vid=bb48a806-49e5-40db-a229-2bad6d559e27"},"vehicle_type_id":"4","last_reported":1753553655,"current_range_meters":14800,"station_id":"ce4bh4p2rcd13ifvqe1g","pricing_plan_id":"cebpf4jnsgd1na2vs0mg"},{"bike_id":"481ac0fb-00e6-4499-98db-12144824b27f","system_id":"levelo_inurba_marseille","lat":43.262016,"lon":5.374521,"is_reserved":false,"is_disabled":false,"rental_uris":{"android":"levelo://app?vid=481ac0fb-00e6-4499-98db-12144824b27f","ios":"levelo://app?vid=481ac0fb-00e6-4499-98db-12144824b27f"},"vehicle_type_id":"4","last_reported":1753553655,"current_range_meters":14800,"station_id":"ce4bhgp2rcd13ifvqfc0","pricing_plan_id":"cebpf4jnsgd1na2vs0mg"},{"bike_id":"898d1f8e-e261-4f25-9386-a6825028d102","system_id":"levelo_inurba_marseille","lat":43.29046,"lon":5.4742,"is_reserved":false,"is_disabled":false,"rental_uris":{"android":"levelo://app?vid=898d1f8e-e261-4f25-9386-a6825028d102","ios":"levelo://app?vid=898d1f8e-e261-4f25-9386-a6825028d102"},"vehicle_type_id":"4","last_reported":1753553655,"current_range_meters":15200,"station_id":"","pricing_plan_id":"cebpf4jnsgd1na2vs0mg"},{"bike_id":"b895b54e-07d8-473e-85aa-63378254c806","system_id":"levelo_inurba_marseille","lat":43.22933,"lon":5.35406,"is_reserved":false,"is_disabled":false,"rental_uris":{"android":"levelo://app?vid=b895b54e-07d8-473e-85aa-63378254c806","ios":"levelo://app?vid=b895b54e-07d8-473e-85aa-63378254c806"},"vehicle_type_id":"4","last_reported":1753553655,"current_range_meters":15200,"station_id":"cpo3532slgdg3j2ikp40","pricing_plan_id":"cebpf4jnsgd1na2vs0mg"},{"bike_id":"e3ea7b8c-ec2b-4e90-9fb8-78bd951aed6d","system_id":"levelo_inurba_marseille","lat":43.22934,"lon":5.35364,"is_reserved":false,"is_disabled":false,"rental_uris":{"android":"levelo://app?vid=e3ea7b8c-ec2b-4e90-9fb8-78bd951aed6d","ios":"levelo://app?vid=e3ea7b8c-ec2b-4e90-9fb8-78bd951aed6d"},"vehicle_type_id":"4","last_reported":1753553655,"current_range_meters":15200,"station_id":"cpo3532slgdg3j2ikp40","pricing_plan_id":"cebpf4jnsgd1na2vs0mg"},{"bike_id":"a7d896f9-ed90-400f-b521-60f094bf2ab7","system_id":"levelo_inurba_marseille","lat":43.21198,"lon":5.35043,"is_reserved":false,"is_disabled":false,"rental_uris":{"android":"levelo://app?vid=a7d896f9-ed90-400f-b521-60f094bf2ab7","ios":"levelo://app?vid=a7d896f9-ed90-400f-b521-60f094bf2ab7"},"vehicle_type_id":"4","last_reported":1753553655,"current_range_meters":16000,"station_id":"st_cvj6sg6p6f1abm77japg","pricing_plan_id":"cebpf4jnsgd1na2vs0mg"},{"bike_id":"f7967a89-687a-41c8-b0a0-22e51eb2db84","system_id":"levelo_inurba_marseille","lat":43.284819,"lon":5.384165,"is_reserved":false,"is_disabled":false,"rental_uris":{"android":"levelo://app?vid=f7967a89-687a-41c8-b0a0-22e51eb2db84","ios":"levelo://app?vid=f7967a89-687a-41c8-b0a0-22e51eb2db84"},"vehicle_type_id":"4","last_reported":1753553655,"current_range_meters":16000,"station_id":"ce4bh512rcd13ifvqe3g","pricing_plan_id":"cebpf4jnsgd1na2vs0mg"},{"bike_id":"0c11f6c1-8064-42f4-a9d5-3b25c443f052","system_id":"levelo_inurba_marseille","lat":43.22939,"lon":5.35343,"is_reserved":false,"is_disabled":false,"rental_uris":{"android":"levelo://app?vid=0c11f6c1-8064-42f4-a9d5-3b25c443f052","ios":"levelo://app?vid=0c11f6c1-8064-42f4-a9d5-3b25c443f052"},"vehicle_type_id":"4","last_reported":1753553655,"current_range_meters":16000,"station_id":"cpo3532slgdg3j2ikp40","pricing_plan_id":"cebpf4jnsgd1na2vs0mg"},{"bike_id":"d8ede7a6-2370-4585-9b4e-834634539090","system_id":"levelo_inurba_marseille","lat":43.2251,"lon":5.34771,"is_reserved":false,"is_disabled":false,"rental_uris":{"android":"levelo://app?vid=d8ede7a6-2370-4585-9b4e-834634539090","ios":"levelo://app?vid=d8ede7a6-2370-4585-9b4e-834634539090"},"vehicle_type_id":"4","last_reported":1753553655,"current_range_meters":16000,"station_id":"st_cvj5dfep6f1abm77gieg","pricing_plan_id":"cebpf4jnsgd1na2vs0mg"},{"bike_id":"9dfdeb8a-ee13-4931-94b4-ad2b5f23aa4b","system_id":"levelo_inurba_marseille","lat":43.2319,"lon":5.39984,"is_reserved":false,"is_disabled":true,"rental_uris":{"android":"levelo://app?vid=9dfdeb8a-ee13-4931-94b4-ad2b5f23aa4b","ios":"levelo://app?vid=9dfdeb8a-ee13-4931-94b4-ad2b5f23aa4b"},"vehicle_type_id":"4","last_reported":1753553655,"current_range_meters":16000,"station_id":"ce4bhn12rcd13ifvqgqg","pricing_plan_id":"cebpf4jnsgd1na2vs0mg"},{"bike_id":"bdc8ef21-146d-46ff-9c91-249dba0037c7","system_id":"levelo_inurba_marseille","lat":43.2293,"lon":5.353662,"is_reserved":false,"is_disabled":false,"rental_uris":{"android":"levelo://app?vid=bdc8ef21-146d-46ff-9c91-249dba0037c7","ios":"levelo://app?vid=bdc8ef21-146d-46ff-9c91-249dba0037c7"},"vehicle_type_id":"4","last_reported":1753553655,"current_range_meters":16000,"station_id":"cpo3532slgdg3j2ikp40","pricing_plan_id":"cebpf4jnsgd1na2vs0mg"},{"bike_id":"f160c74e-6712-41e0-963e-7bbfbf4b3232","system_id":"levelo_inurba_marseille","lat":43.286709,"lon":5.363547,"is_reserved":false,"is_disabled":false,"rental_uris":{"android":"levelo://app?vid=f160c74e-6712-41e0-963e-7bbfbf4b3232","ios":"levelo://app?vid=f160c74e-6712-41e0-963e-7bbfbf4b3232"},"vehicle_type_id":"4","last_reported":1753553655,"current_range_meters":16000,"station_id":"ce4bhah2rcd13ifvqej0","pricing_plan_id":"cebpf4jnsgd1na2vs0mg"},{"bike_id":"8a43fd17-f37d-4efa-9c86-e96e90492052","system_id":"levelo_inurba_marseille","lat":43.24815,"lon":5.37466,"is_reserved":false,"is_disabled":false,"rental_uris":{"android":"levelo://app?vid=8a43fd17-f37d-4efa-9c86-e96e90492052","ios":"levelo://app?vid=8a43fd17-f37d-4efa-9c86-e96e90492052"},"vehicle_type_id":"4","last_reported":1753553655,"current_range_meters":16000,"station_id":"ce4bhgh2rcd13ifvqfb0","pricing_plan_id":"cebpf4jnsgd1na2vs0mg"},{"bike_id":"d0ea210c-d12c-4635-bf0c-7d84bf130d0c","system_id":"levelo_inurba_marseille","lat":43.23192,"lon":5.35555,"is_reserved":false,"is_disabled":false,"rental_uris":{"android":"levelo://app?vid=d0ea210c-d12c-4635-bf0c-7d84bf130d0c","ios":"levelo://app?vid=d0ea210c-d12c-4635-bf0c-7d84bf130d0c"},"vehicle_type_id":"4","last_reported":1753553655,"current_range_meters":16000,"station_id":"ce4bhu92rcd13ifvqi70","pricing_plan_id":"cebpf4jnsgd1na2vs0mg"},{"bike_id":"43dbc09e-d0e4-4ddb-bafe-4f55874d23a9","system_id":"levelo_inurba_marseille","lat":43.30233,"lon":5.38229,"is_reserved":false,"is_disabled":false,"rental_uris":{"android":"levelo://app?vid=43dbc09e-d0e4-4ddb-bafe-4f55874d23a9","ios":"levelo://app?vid=43dbc09e-d0e4-4ddb-bafe-4f55874d23a9"},"vehicle_type_id":"4","last_reported":1753553655,"current_range_meters":16000,"station_id":"","pricing_plan_id":"cebpf4jnsgd1na2vs0mg"},{"bike_id":"791d6026-4bf4-4c7e-9370-1e8e4ba95d3a","system_id":"levelo_inurba_marseille","lat":43.31328,"lon":5.39689,"is_reserved":false,"is_disabled":false,"rental_uris":{"android":"levelo://app?vid=791d6026-4bf4-4c7e-9370-1e8e4ba95d3a","ios":"levelo://app?vid=791d6026-4bf4-4c7e-9370-1e8e4ba95d3a"},"vehicle_type_id":"4","last_reported":1753553655,"current_range_meters":16000,"station_id":"ce4bgvp2rcd13ifvqcu0","pricing_plan_id":"cebpf4jnsgd1na2vs0mg"},{"bike_id":"c5794c7a-bb35-409f-9175-7d8933c8fd68","system_id":"levelo_inurba_marseille","lat":43.31125,"lon":5.39635,"is_reserved":false,"is_disabled":false,"rental_uris":{"android":"levelo://app?vid=c5794c7a-bb35-409f-9175-7d8933c8fd68","ios":"levelo://app?vid=c5794c7a-bb35-409f-9175-7d8933c8fd68"},"vehicle_type_id":"4","last_reported":1753553655,"current_range_meters":16000,"station_id":"","pricing_plan_id":"cebpf4jnsgd1na2vs0mg"},{"bike_id":"0511766d-da7a-42d7-885d-9f311ab91b06","system_id":"levelo_inurba_marseille","lat":43.25501,"lon":5.37648,"is_reserved":false,"is_disabled":false,"rental_uris":{"android":"levelo://app?vid=0511766d-da7a-42d7-885d-9f311ab91b06","ios":"levelo://app?vid=0511766d-da7a-42d7-885d-9f311ab91b06"},"vehicle_type_id":"4","last_reported":1753553655,"current_range_meters":16000,"station_id":"ce4bhh12rcd13ifvqff0","pricing_plan_id":"cebpf4jnsgd1na2vs0mg"},{"bike_id":"15f3c594-4abb-452d-801d-4636525cd85b","system_id":"levelo_inurba_marseille","lat":43.29575,"lon":5.37514,"is_reserved":false,"is_disabled":false,"rental_uris":{"android":"levelo://app?vid=15f3c594-4abb-452d-801d-4636525cd85b","ios":"levelo://app?vid=15f3c594-4abb-452d-801d-4636525cd85b"},"vehicle_type_id":"4","last_reported":1753553655,"current_range_meters":16000,"station_id":"ce4bgh92rcd13ifvqb50","pricing_plan_id":"cebpf4jnsgd1na2vs0mg"},{"bike_id":"4e99979f-3d20-43e8-b380-f1c6e2d66fed","system_id":"levelo_inurba_marseille","lat":43.28934,"lon":5.38383,"is_reserved":false,"is_disabled":false,"rental_uris":{"android":"levelo://app?vid=4e99979f-3d20-43e8-b380-f1c6e2d66fed","ios":"levelo://app?vid=4e99979f-3d20-43e8-b380-f1c6e2d66fed"},"vehicle_type_id":"4","last_reported":1753553655,"current_range_meters":16400,"station_id":"ce4bh612rcd13ifvqe6g","pricing_plan_id":"cebpf4jnsgd1na2vs0mg"},{"bike_id":"a4cac7a4-4dad-424b-b262-9dc16dc19926","system_id":"levelo_inurba_marseille","lat":43.292664,"lon":5.368034,"is_reserved":false,"is_disabled":false,"rental_uris":{"android":"levelo://app?vid=a4cac7a4-4dad-424b-b262-9dc16dc19926","ios":"levelo://app?vid=a4cac7a4-4dad-424b-b262-9dc16dc19926"},"vehicle_type_id":"4","last_reported":1753553655,"current_range_meters":16400,"station_id":"ce4bhih2rcd13ifvqfs0","pricing_plan_id":"cebpf4jnsgd1na2vs0mg"},{"bike_id":"8fc9018f-05f4-4a02-91a8-36a445bd5955","system_id":"levelo_inurba_marseille","lat":43.2707,"lon":5.42278,"is_reserved":false,"is_disabled":false,"rental_uris":{"android":"levelo://app?vid=8fc9018f-05f4-4a02-91a8-36a445bd5955","ios":"levelo://app?vid=8fc9018f-05f4-4a02-91a8-36a445bd5955"},"vehicle_type_id":"4","last_reported":1753553655,"current_range_meters":16400,"station_id":"ce4bhk92rcd13ifvqgb0","pricing_plan_id":"cebpf4jnsgd1na2vs0mg"},{"bike_id":"7cfeff2f-ed6e-4fc9-bb13-d0033ccdaffa","system_id":"levelo_inurba_marseille","lat":43.30304,"lon":5.369,"is_reserved":false,"is_disabled":false,"rental_uris":{"android":"levelo://app?vid=7cfeff2f-ed6e-4fc9-bb13-d0033ccdaffa","ios":"levelo://app?vid=7cfeff2f-ed6e-4fc9-bb13-d0033ccdaffa"},"vehicle_type_id":"4","last_reported":1753553655,"current_range_meters":16400,"station_id":"ce4bgqh2rcd13ifvqc5g","pricing_plan_id":"cebpf4jnsgd1na2vs0mg"},{"bike_id":"c0bb5d73-ab82-4534-b6b3-a4263bb68a6b","system_id":"levelo_inurba_marseille","lat":43.29167,"lon":5.37157,"is_reserved":false,"is_disabled":false,"rental_uris":{"android":"levelo://app?vid=c0bb5d73-ab82-4534-b6b3-a4263bb68a6b","ios":"levelo://app?vid=c0bb5d73-ab82-4534-b6b3-a4263bb68a6b"},"vehicle_type_id":"4","last_reported":1753553655,"current_range_meters":16400,"station_id":"ce4bha92rcd13ifvqeh0","pricing_plan_id":"cebpf4jnsgd1na2vs0mg"},{"bike_id":"6c38f903-98fc-43f2-b709-3b1e9132591a","system_id":"levelo_inurba_marseille","lat":43.29566,"lon":5.37522,"is_reserved":false,"is_disabled":false,"rental_uris":{"android":"levelo://app?vid=6c38f903-98fc-43f2-b709-3b1e9132591a","ios":"levelo://app?vid=6c38f903-98fc-43f2-b709-3b1e9132591a"},"vehicle_type_id":"4","last_reported":1753553655,"current_range_meters":16400,"station_id":"ce4bgh92rcd13ifvqb50","pricing_plan_id":"cebpf4jnsgd1na2vs0mg"},{"bike_id":"02cab979-ccb2-40ce-bd89-cd624415fc04","system_id":"levelo_inurba_marseille","lat":43.27779,"lon":5.39938,"is_reserved":false,"is_disabled":false,"rental_uris":{"android":"levelo://app?vid=02cab979-ccb2-40ce-bd89-cd624415fc04","ios":"levelo://app?vid=02cab979-ccb2-40ce-bd89-cd624415fc04"},"vehicle_type_id":"4","last_reported":1753553655,"current_range_meters":16400,"station_id":"","pricing_plan_id":"cebpf4jnsgd1na2vs0mg"},{"bike_id":"1533361c-c8b0-46c4-bb07-47847e110ffc","system_id":"levelo_inurba_marseille","lat":43.28144,"lon":5.42642,"is_reserved":false,"is_disabled":false,"rental_uris":{"android":"levelo://app?vid=1533361c-c8b0-46c4-bb07-47847e110ffc","ios":"levelo://app?vid=1533361c-c8b0-46c4-bb07-47847e110ffc"},"vehicle_type_id":"4","last_reported":1753553655,"current_range_meters":16400,"station_id":"ce4bhnh2rcd13ifvqgug","pricing_plan_id":"cebpf4jnsgd1na2vs0mg"},{"bike_id":"c3f920a0-181a-4f3b-8bbe-5050b7e98056","system_id":"levelo_inurba_marseille","lat":43.29263,"lon":5.38443,"is_reserved":false,"is_disabled":false,"rental_uris":{"android":"levelo://app?vid=c3f920a0-181a-4f3b-8bbe-5050b7e98056","ios":"levelo://app?vid=c3f920a0-181a-4f3b-8bbe-5050b7e98056"},"vehicle_type_id":"4","last_reported":1753553655,"current_range_meters":16400,"station_id":"ce4bh692rcd13ifvqea0","pricing_plan_id":"cebpf4jnsgd1na2vs0mg"},{"bike_id":"4a870c4b-d199-4252-a18c-25aeb8e584ac","system_id":"levelo_inurba_marseille","lat":43.29788,"lon":5.37108,"is_reserved":false,"is_disabled":false,"rental_uris":{"android":"levelo://app?vid=4a870c4b-d199-4252-a18c-25aeb8e584ac","ios":"levelo://app?vid=4a870c4b-d199-4252-a18c-25aeb8e584ac"},"vehicle_type_id":"4","last_reported":1753553655,"current_range_meters":16400,"station_id":"ce4bgop2rcd13ifvqc1g","pricing_plan_id":"cebpf4jnsgd1na2vs0mg"},{"bike_id":"efe59640-1f5a-4a35-a2b7-bc4e75b4911b","system_id":"levelo_inurba_marseille","lat":43.28145,"lon":5.42637,"is_reserved":false,"is_disabled":false,"rental_uris":{"android":"levelo://app?vid=efe59640-1f5a-4a35-a2b7-bc4e75b4911b","ios":"levelo://app?vid=efe59640-1f5a-4a35-a2b7-bc4e75b4911b"},"vehicle_type_id":"4","last_reported":1753553655,"current_range_meters":16400,"station_id":"ce4bhnh2rcd13ifvqgug","pricing_plan_id":"cebpf4jnsgd1na2vs0mg"},{"bike_id":"c3a5a1a9-8e4c-4154-abb5-5d047b7c1ce8","system_id":"levelo_inurba_marseille","lat":43.29575,"lon":5.375233,"is_reserved":false,"is_disabled":false,"rental_uris":{"android":"levelo://app?vid=c3a5a1a9-8e4c-4154-abb5-5d047b7c1ce8","ios":"levelo://app?vid=c3a5a1a9-8e4c-4154-abb5-5d047b7c1ce8"},"vehicle_type_id":"4","last_reported":1753553655,"current_range_meters":16400,"station_id":"ce4bgh92rcd13ifvqb50","pricing_plan_id":"cebpf4jnsgd1na2vs0mg"},{"bike_id":"4e18c676-3072-42a7-b0dc-a224c48f4c81","system_id":"levelo_inurba_marseille","lat":43.28148,"lon":5.42639,"is_reserved":false,"is_disabled":false,"rental_uris":{"android":"levelo://app?vid=4e18c676-3072-42a7-b0dc-a224c48f4c81","ios":"levelo://app?vid=4e18c676-3072-42a7-b0dc-a224c48f4c81"},"vehicle_type_id":"4","last_reported":1753553655,"current_range_meters":16400,"station_id":"ce4bhnh2rcd13ifvqgug","pricing_plan_id":"cebpf4jnsgd1na2vs0mg"},{"bike_id":"0cbf75cf-ca0f-428c-adaa-2b0c3e87944b","system_id":"levelo_inurba_marseille","lat":43.25392,"lon":5.37526,"is_reserved":false,"is_disabled":false,"rental_uris":{"android":"levelo://app?vid=0cbf75cf-ca0f-428c-adaa-2b0c3e87944b","ios":"levelo://app?vid=0cbf75cf-ca0f-428c-adaa-2b0c3e87944b"},"vehicle_type_id":"4","last_reported":1753553655,"current_range_meters":16400,"station_id":"","pricing_plan_id":"cebpf4jnsgd1na2vs0mg"},{"bike_id":"327b8e2e-c883-414a-8ef4-1ca54e568dde","system_id":"levelo_inurba_marseille","lat":43.29035,"lon":5.38646,"is_reserved":false,"is_disabled":false,"rental_uris":{"android":"levelo://app?vid=327b8e2e-c883-414a-8ef4-1ca54e568dde","ios":"levelo://app?vid=327b8e2e-c883-414a-8ef4-1ca54e568dde"},"vehicle_type_id":"4","last_reported":1753553655,"current_range_meters":16800,"station_id":"ce4bh4p2rcd13ifvqe0g","pricing_plan_id":"cebpf4jnsgd1na2vs0mg"},{"bike_id":"54405b04-0f04-4c64-af8f-9ccbb34ae9ba","system_id":"levelo_inurba_marseille","lat":43.28035,"lon":5.3696,"is_reserved":false,"is_disabled":false,"rental_uris":{"android":"levelo://app?vid=54405b04-0f04-4c64-af8f-9ccbb34ae9ba","ios":"levelo://app?vid=54405b04-0f04-4c64-af8f-9ccbb34ae9ba"},"vehicle_type_id":"4","last_reported":1753553655,"current_range_meters":16800,"station_id":"ce4bha12rcd13ifvqef0","pricing_plan_id":"cebpf4jnsgd1na2vs0mg"},{"bike_id":"ffd9f360-d835-4295-b1fd-a9cff7cf07db","system_id":"levelo_inurba_marseille","lat":43.27996,"lon":5.41665,"is_reserved":false,"is_disabled":false,"rental_uris":{"android":"levelo://app?vid=ffd9f360-d835-4295-b1fd-a9cff7cf07db","ios":"levelo://app?vid=ffd9f360-d835-4295-b1fd-a9cff7cf07db"},"vehicle_type_id":"4","last_reported":1753553655,"current_range_meters":16800,"station_id":"ce4bho12rcd13ifvqh1g","pricing_plan_id":"cebpf4jnsgd1na2vs0mg"},{"bike_id":"e53ca61f-fd08-48ca-a5e3-07990003ee53","system_id":"levelo_inurba_marseille","lat":43.30131,"lon":5.39865,"is_reserved":false,"is_disabled":false,"rental_uris":{"android":"levelo://app?vid=e53ca61f-fd08-48ca-a5e3-07990003ee53","ios":"levelo://app?vid=e53ca61f-fd08-48ca-a5e3-07990003ee53"},"vehicle_type_id":"4","last_reported":1753553655,"current_range_meters":16800,"station_id":"ce4bh0h2rcd13ifvqd40","pricing_plan_id":"cebpf4jnsgd1na2vs0mg"},{"bike_id":"01f67f23-8be9-43f7-a443-854f6f80a64d","system_id":"levelo_inurba_marseille","lat":43.292286,"lon":5.360722,"is_reserved":false,"is_disabled":false,"rental_uris":{"android":"levelo://app?vid=01f67f23-8be9-43f7-a443-854f6f80a64d","ios":"levelo://app?vid=01f67f23-8be9-43f7-a443-854f6f80a64d"},"vehicle_type_id":"4","last_reported":1753553655,"current_range_meters":16800,"station_id":"ce4bhbh2rcd13ifvqeqg","pricing_plan_id":"cebpf4jnsgd1na2vs0mg"},{"bike_id":"4fc563e5-5af3-4e66-b309-4f545577a0a4","system_id":"levelo_inurba_marseille","lat":43.217445,"lon":5.346039,"is_reserved":false,"is_disabled":false,"rental_uris":{"android":"levelo://app?vid=4fc563e5-5af3-4e66-b309-4f545577a0a4","ios":"levelo://app?vid=4fc563e5-5af3-4e66-b309-4f545577a0a4"},"vehicle_type_id":"4","last_reported":1753553655,"current_range_meters":16800,"station_id":"","pricing_plan_id":"cebpf4jnsgd1na2vs0mg"},{"bike_id":"a117e912-b1d8-49c3-b56c-a15088a9f662","system_id":"levelo_inurba_marseille","lat":43.29172,"lon":5.37151,"is_reserved":false,"is_disabled":false,"rental_uris":{"android":"levelo://app?vid=a117e912-b1d8-49c3-b56c-a15088a9f662","ios":"levelo://app?vid=a117e912-b1d8-49c3-b56c-a15088a9f662"},"vehicle_type_id":"4","last_reported":1753553655,"current_range_meters":16800,"station_id":"ce4bha92rcd13ifvqeh0","pricing_plan_id":"cebpf4jnsgd1na2vs0mg"},{"bike_id":"e5b3d4e0-0657-4ee6-a5c2-17afc36b8bfc","system_id":"levelo_inurba_marseille","lat":43.31283,"lon":5.40134,"is_reserved":false,"is_disabled":false,"rental_uris":{"android":"levelo://app?vid=e5b3d4e0-0657-4ee6-a5c2-17afc36b8bfc","ios":"levelo://app?vid=e5b3d4e0-0657-4ee6-a5c2-17afc36b8bfc"},"vehicle_type_id":"4","last_reported":1753553655,"current_range_meters":16800,"station_id":"ce4bh092rcd13ifvqd30","pricing_plan_id":"cebpf4jnsgd1na2vs0mg"},{"bike_id":"fa09a2af-7e58-468a-9cff-92ca5bfa99da","system_id":"levelo_inurba_marseille","lat":43.30429,"lon":5.38891,"is_reserved":false,"is_disabled":false,"rental_uris":{"android":"levelo://app?vid=fa09a2af-7e58-468a-9cff-92ca5bfa99da","ios":"levelo://app?vid=fa09a2af-7e58-468a-9cff-92ca5bfa99da"},"vehicle_type_id":"4","last_reported":1753553655,"current_range_meters":16800,"station_id":"ce4bgk12rcd13ifvqbi0","pricing_plan_id":"cebpf4jnsgd1na2vs0mg"},{"bike_id":"07bdf7f4-31e3-4166-8507-4452a98400cb","system_id":"levelo_inurba_marseille","lat":43.26215,"lon":5.37448,"is_reserved":false,"is_disabled":false,"rental_uris":{"android":"levelo://app?vid=07bdf7f4-31e3-4166-8507-4452a98400cb","ios":"levelo://app?vid=07bdf7f4-31e3-4166-8507-4452a98400cb"},"vehicle_type_id":"4","last_reported":1753553655,"current_range_meters":16800,"station_id":"ce4bhgp2rcd13ifvqfc0","pricing_plan_id":"cebpf4jnsgd1na2vs0mg"},{"bike_id":"5290a91c-2da7-4771-9529-f9add5e4322d","system_id":"levelo_inurba_marseille","lat":43.29285,"lon":5.38423,"is_reserved":false,"is_disabled":false,"rental_uris":{"android":"levelo://app?vid=5290a91c-2da7-4771-9529-f9add5e4322d","ios":"levelo://app?vid=5290a91c-2da7-4771-9529-f9add5e4322d"},"vehicle_type_id":"4","last_reported":1753553655,"current_range_meters":16800,"station_id":"ce4bh692rcd13ifvqea0","pricing_plan_id":"cebpf4jnsgd1na2vs0mg"},{"bike_id":"37562319-1ab7-4052-84cd-19474c696578","system_id":"levelo_inurba_marseille","lat":43.2763,"lon":5.36077,"is_reserved":false,"is_disabled":false,"rental_uris":{"android":"levelo://app?vid=37562319-1ab7-4052-84cd-19474c696578","ios":"levelo://app?vid=37562319-1ab7-4052-84cd-19474c696578"},"vehicle_type_id":"4","last_reported":1753553655,"current_range_meters":17200,"station_id":"ce4bgj92rcd13ifvqbe0","pricing_plan_id":"cebpf4jnsgd1na2vs0mg"},{"bike_id":"e666153e-0d94-49fc-a285-a6a2347ef6ad","system_id":"levelo_inurba_marseille","lat":43.269459,"lon":5.386325,"is_reserved":false,"is_disabled":true,"rental_uris":{"android":"levelo://app?vid=e666153e-0d94-49fc-a285-a6a2347ef6ad","ios":"levelo://app?vid=e666153e-0d94-49fc-a285-a6a2347ef6ad"},"vehicle_type_id":"4","last_reported":1753553655,"current_range_meters":17200,"station_id":"ce4bhh92rcd13ifvqfh0","pricing_plan_id":"cebpf4jnsgd1na2vs0mg"},{"bike_id":"eaf7ef0b-0d42-4308-ab0e-5751337b8201","system_id":"levelo_inurba_marseille","lat":43.286147,"lon":5.351033,"is_reserved":false,"is_disabled":false,"rental_uris":{"android":"levelo://app?vid=eaf7ef0b-0d42-4308-ab0e-5751337b8201","ios":"levelo://app?vid=eaf7ef0b-0d42-4308-ab0e-5751337b8201"},"vehicle_type_id":"4","last_reported":1753553655,"current_range_meters":17200,"station_id":"ce4bhch2rcd13ifvqeug","pricing_plan_id":"cebpf4jnsgd1na2vs0mg"},{"bike_id":"adbc006e-c51d-4434-863c-610344ea30cd","system_id":"levelo_inurba_marseille","lat":43.21774,"lon":5.34571,"is_reserved":false,"is_disabled":true,"rental_uris":{"android":"levelo://app?vid=adbc006e-c51d-4434-863c-610344ea30cd","ios":"levelo://app?vid=adbc006e-c51d-4434-863c-610344ea30cd"},"vehicle_type_id":"4","last_reported":1753553655,"current_range_meters":17200,"station_id":"st_cvj6r9ubvosntc0bgbag","pricing_plan_id":"cebpf4jnsgd1na2vs0mg"},{"bike_id":"44fb4896-e924-4a56-8fd9-d1e491dd403d","system_id":"levelo_inurba_marseille","lat":43.29196,"lon":5.3932,"is_reserved":false,"is_disabled":false,"rental_uris":{"android":"levelo://app?vid=44fb4896-e924-4a56-8fd9-d1e491dd403d","ios":"levelo://app?vid=44fb4896-e924-4a56-8fd9-d1e491dd403d"},"vehicle_type_id":"4","last_reported":1753553655,"current_range_meters":17200,"station_id":"ce4bh192rcd13ifvqdd0","pricing_plan_id":"cebpf4jnsgd1na2vs0mg"},{"bike_id":"02b08402-c094-4ea8-bb97-72d60f41819a","system_id":"levelo_inurba_marseille","lat":43.28928,"lon":5.36639,"is_reserved":false,"is_disabled":false,"rental_uris":{"android":"levelo://app?vid=02b08402-c094-4ea8-bb97-72d60f41819a","ios":"levelo://app?vid=02b08402-c094-4ea8-bb97-72d60f41819a"},"vehicle_type_id":"4","last_reported":1753553655,"current_range_meters":16800,"station_id":"ce4bhap2rcd13ifvqek0","pricing_plan_id":"cebpf4jnsgd1na2vs0mg"},{"bike_id":"4a380ef2-d522-42de-bdea-26ff0fac08a0","system_id":"levelo_inurba_marseille","lat":43.27068,"lon":5.42276,"is_reserved":false,"is_disabled":false,"rental_uris":{"android":"levelo://app?vid=4a380ef2-d522-42de-bdea-26ff0fac08a0","ios":"levelo://app?vid=4a380ef2-d522-42de-bdea-26ff0fac08a0"},"vehicle_type_id":"4","last_reported":1753553655,"current_range_meters":17200,"station_id":"ce4bhk92rcd13ifvqgb0","pricing_plan_id":"cebpf4jnsgd1na2vs0mg"},{"bike_id":"dc8fb429-176c-4bce-9e75-f66695a13c04","system_id":"levelo_inurba_marseille","lat":43.26553,"lon":5.37276,"is_reserved":false,"is_disabled":false,"rental_uris":{"android":"levelo://app?vid=dc8fb429-176c-4bce-9e75-f66695a13c04","ios":"levelo://app?vid=dc8fb429-176c-4bce-9e75-f66695a13c04"},"vehicle_type_id":"4","last_reported":1753553655,"current_range_meters":17200,"station_id":"ce4bhg12rcd13ifvqf70","pricing_plan_id":"cebpf4jnsgd1na2vs0mg"},{"bike_id":"341546d5-c76a-4ef0-9a45-fbf1d25c9a1b","system_id":"levelo_inurba_marseille","lat":43.2826,"lon":5.35071,"is_reserved":false,"is_disabled":false,"rental_uris":{"android":"levelo://app?vid=341546d5-c76a-4ef0-9a45-fbf1d25c9a1b","ios":"levelo://app?vid=341546d5-c76a-4ef0-9a45-fbf1d25c9a1b"},"vehicle_type_id":"4","last_reported":1753553655,"current_range_meters":17600,"station_id":"","pricing_plan_id":"cebpf4jnsgd1na2vs0mg"},{"bike_id":"484ce80f-12be-41fa-9586-784b84db2ffe","system_id":"levelo_inurba_marseille","lat":43.248203,"lon":5.374538,"is_reserved":false,"is_disabled":false,"rental_uris":{"android":"levelo://app?vid=484ce80f-12be-41fa-9586-784b84db2ffe","ios":"levelo://app?vid=484ce80f-12be-41fa-9586-784b84db2ffe"},"vehicle_type_id":"4","last_reported":1753553655,"current_range_meters":17600,"station_id":"ce4bhgh2rcd13ifvqfb0","pricing_plan_id":"cebpf4jnsgd1na2vs0mg"},{"bike_id":"01f2634f-d4b7-4f4d-8c66-f36499fcfa55","system_id":"levelo_inurba_marseille","lat":43.315327,"lon":5.38025,"is_reserved":false,"is_disabled":false,"rental_uris":{"android":"levelo://app?vid=01f2634f-d4b7-4f4d-8c66-f36499fcfa55","ios":"levelo://app?vid=01f2634f-d4b7-4f4d-8c66-f36499fcfa55"},"vehicle_type_id":"4","last_reported":1753553655,"current_range_meters":17600,"station_id":"ce4bhsp2rcd13ifvqi50","pricing_plan_id":"cebpf4jnsgd1na2vs0mg"},{"bike_id":"092445da-6c69-438d-914a-76950a2eb10d","system_id":"levelo_inurba_marseille","lat":43.32369,"lon":5.3888,"is_reserved":false,"is_disabled":false,"rental_uris":{"android":"levelo://app?vid=092445da-6c69-438d-914a-76950a2eb10d","ios":"levelo://app?vid=092445da-6c69-438d-914a-76950a2eb10d"},"vehicle_type_id":"4","last_reported":1753553655,"current_range_meters":17600,"station_id":"ce4bhqp2rcd13ifvqhog","pricing_plan_id":"cebpf4jnsgd1na2vs0mg"},{"bike_id":"cb2f1f27-0369-44a4-88f2-ebe63f13bc7b","system_id":"levelo_inurba_marseille","lat":43.28717,"lon":5.37386,"is_reserved":false,"is_disabled":false,"rental_uris":{"android":"levelo://app?vid=cb2f1f27-0369-44a4-88f2-ebe63f13bc7b","ios":"levelo://app?vid=cb2f1f27-0369-44a4-88f2-ebe63f13bc7b"},"vehicle_type_id":"4","last_reported":1753553655,"current_range_meters":17600,"station_id":"ce4bh3p2rcd13ifvqdq0","pricing_plan_id":"cebpf4jnsgd1na2vs0mg"},{"bike_id":"8512b265-75e1-49d7-bb7d-bd988c357d7c","system_id":"levelo_inurba_marseille","lat":43.287,"lon":5.39971,"is_reserved":false,"is_disabled":true,"rental_uris":{"android":"levelo://app?vid=8512b265-75e1-49d7-bb7d-bd988c357d7c","ios":"levelo://app?vid=8512b265-75e1-49d7-bb7d-bd988c357d7c"},"vehicle_type_id":"4","last_reported":1753553655,"current_range_meters":17600,"station_id":"ce4bho92rcd13ifvqh3g","pricing_plan_id":"cebpf4jnsgd1na2vs0mg"},{"bike_id":"a7e4a6c3-ad45-4ba6-91d2-4ec56a92fe4c","system_id":"levelo_inurba_marseille","lat":43.29522,"lon":5.37484,"is_reserved":false,"is_disabled":true,"rental_uris":{"android":"levelo://app?vid=a7e4a6c3-ad45-4ba6-91d2-4ec56a92fe4c","ios":"levelo://app?vid=a7e4a6c3-ad45-4ba6-91d2-4ec56a92fe4c"},"vehicle_type_id":"4","last_reported":1753553655,"current_range_meters":17600,"station_id":"ce4bgkp2rcd13ifvqbmg","pricing_plan_id":"cebpf4jnsgd1na2vs0mg"},{"bike_id":"dc8eddc9-b807-4be2-ac1c-594f36a73ea8","system_id":"levelo_inurba_marseille","lat":43.26191,"lon":5.37457,"is_reserved":false,"is_disabled":false,"rental_uris":{"android":"levelo://app?vid=dc8eddc9-b807-4be2-ac1c-594f36a73ea8","ios":"levelo://app?vid=dc8eddc9-b807-4be2-ac1c-594f36a73ea8"},"vehicle_type_id":"4","last_reported":1753553655,"current_range_meters":17600,"station_id":"ce4bhgp2rcd13ifvqfc0","pricing_plan_id":"cebpf4jnsgd1na2vs0mg"},{"bike_id":"0b6e37e1-db39-4d64-9941-7e484c9ea038","system_id":"levelo_inurba_marseille","lat":43.29614,"lon":5.37716,"is_reserved":false,"is_disabled":true,"rental_uris":{"android":"levelo://app?vid=0b6e37e1-db39-4d64-9941-7e484c9ea038","ios":"levelo://app?vid=0b6e37e1-db39-4d64-9941-7e484c9ea038"},"vehicle_type_id":"4","last_reported":1753553655,"current_range_meters":17600,"station_id":"","pricing_plan_id":"cebpf4jnsgd1na2vs0mg"},{"bike_id":"281b363c-7c3a-4111-bfd5-1cb688276ef8","system_id":"levelo_inurba_marseille","lat":43.30315,"lon":5.36899,"is_reserved":false,"is_disabled":false,"rental_uris":{"android":"levelo://app?vid=281b363c-7c3a-4111-bfd5-1cb688276ef8","ios":"levelo://app?vid=281b363c-7c3a-4111-bfd5-1cb688276ef8"},"vehicle_type_id":"4","last_reported":1753553655,"current_range_meters":17600,"station_id":"ce4bgqh2rcd13ifvqc5g","pricing_plan_id":"cebpf4jnsgd1na2vs0mg"},{"bike_id":"1146d4ef-c921-4cac-92c3-f801471efa88","system_id":"levelo_inurba_marseille","lat":43.3127,"lon":5.40165,"is_reserved":false,"is_disabled":false,"rental_uris":{"android":"levelo://app?vid=1146d4ef-c921-4cac-92c3-f801471efa88","ios":"levelo://app?vid=1146d4ef-c921-4cac-92c3-f801471efa88"},"vehicle_type_id":"4","last_reported":1753553655,"current_range_meters":17600,"station_id":"ce4bh092rcd13ifvqd30","pricing_plan_id":"cebpf4jnsgd1na2vs0mg"},