{"last_updated":1687460774,"ttl":30,"version":"2.2","data":{"bikes":[{"bike_id":"d4332dc1-ca7f-47c1-8251-6fc28249a3b4","system_id":"levelo_inurba_marseille","lat":43.313391,"lon":5.36706,"is_reserved":false,"is_disabled":false,"rental_uris":{"android":"levelo://app?vid=d4332dc1-ca7f-47c1-8251-6fc28249a3b4","ios":"levelo://app?vid=d4332dc1-ca7f-47c1-8251-6fc28249a3b4"},"vehicle_type_id":"4","last_reported":1687460775,"current_range_meters":31200,"station_id":"ce4bgr92rcd13ifvqc6g","pricing_plan_id":"free"},{"bike_id":"e174d5f0-b6c8-4dda-a820-d2e61e69de13","system_id":"levelo_inurba_marseille","lat":43.31341,"lon":5.367098,"is_reserved":false,"is_disabled":false,"rental_uris":{"android":"levelo://app?vid=e174d5f0-b6c8-4dda-a820-d2e61e69de13","ios":"levelo://app?vid=e174d5f0-b6c8-4dda-a820-d2e61e69de13"},"vehicle_type_id":"4","last_reported":1687460775,"current_range_meters":30400,"station_id":"ce4bgr92rcd13ifvqc6g","pricing_plan_id":"free"},{"bike_id":"6af3ddd3-abe5-4014-930d-8bc2eb738f55","system_id":"levelo_inurba_marseille","lat":43.31341,"lon":5.367098,"is_reserved":false,"is_disabled":false,"rental_uris":{"android":"levelo://app?vid=6af3ddd3-abe5-4014-930d-8bc2eb738f55","ios":"levelo://app?vid=6af3ddd3-abe5-4014-930d-8bc2eb738f55"},"vehicle_type_id":"4","last_reported":1687460775,"current_range_meters":30000,"station_id":"ce4bgr92rcd13ifvqc6g","pricing_plan_id":"free"},{"bike_id":"442277db-a1b1-404f-99ca-4e553a79746d","system_id":"levelo_inurba_marseille","lat":43.31341,"lon":5.367098,"is_reserved":false,"is_disabled":false,"rental_uris":{"android":"levelo://app?vid=442277db-a1b1-404f-99ca-4e553a79746d","ios":"levelo://app?vid=442277db-a1b1-404f-99ca-4e553a79746d"},"vehicle_type_id":"4","last_reported":1687460775,"current_range_meters":31200,"station_id":"ce4bgr92rcd13ifvqc6g","pricing_plan_id":"free"},{"bike_id":"4953f328-3844-4770-9687-adbaf569325c","system_id":"levelo_inurba_marseille","lat":43.31341,"lon":5.367098,"is_reserved":false,"is_disabled":false,"rental_uris":{"android":"levelo://app?vid=4953f328-3844-4770-9687-adbaf569325c","ios":"levelo://app?vid=4953f328-3844-4770-9687-adbaf569325c"},"vehicle_type_id":"4","last_reported":1687460775,"current_range_meters":30400,"station_id":"ce4bgr92rcd13ifvqc6g","pricing_plan_id":"free"},{"bike_id":"0550341a-124c-4d98-bbe2-ecab3fc28f99","system_id":"levelo_inurba_marseille","lat":43.313391,"lon":5.36706,"is_reserved":false,"is_disabled":false,"rental_uris":{"android":"levelo://app?vid=0550341a-124c-4d98-bbe2-ecab3fc28f99","ios":"levelo://app?vid=0550341a-124c-4d98-bbe2-ecab3fc28f99"},"vehicle_type_id":"4","last_reported":1687460775,"current_range_meters":31200,"station_id":"ce4bgr92rcd13ifvqc6g","pricing_plan_id":"free"},{"bike_id":"5dc666bf-f148-4c4d-ae39-69fe1328a441","system_id":"levelo_inurba_marseille","lat":43.31341,"lon":5.367098,"is_reserved":false,"is_disabled":false,"rental_uris":{"android":"levelo://app?vid=5dc666bf-f148-4c4d-ae39-69fe1328a441","ios":"levelo://app?vid=5dc666bf-f148-4c4d-ae39-69fe1328a441"},"vehicle_type_id":"4","last_reported":1687460775,"current_range_meters":30400,"station_id":"ce4bgr92rcd13ifvqc6g","pricing_plan_id":"free"},{"bike_id":"67ebb07b-53b0-4200-978f-d17311a6131c","system_id":"levelo_inurba_marseille","lat":43.313391,"lon":5.36706,"is_reserved":false,"is_disabled":false,"rental_uris":{"android":"levelo://app?vid=67ebb07b-53b0-4200-978f-d17311a6131c","ios":"levelo://app?vid=67ebb07b-53b0-4200-978f-d17311a6131c"},"vehicle_type_id":"4","last_reported":1687460775,"current_range_meters":31200,"station_id":"ce4bgr92rcd13ifvqc6g","pricing_plan_id":"free"},{"bike_id":"830e4573-28c8-4b5a-a546-4278eb33b0a8","system_id":"levelo_inurba_marseille","lat":43.31229,"lon":5.36862,"is_reserved":false,"is_disabled":false,"rental_uris":{"android":"levelo://app?vid=830e4573-28c8-4b5a-a546-4278eb33b0a8","ios":"levelo://app?vid=830e4573-28c8-4b5a-a546-4278eb33b0a8"},"vehicle_type_id":"4","last_reported":1687460775,"current_range_meters":29600,"station_id":"ce4bgl92rcd13ifvqbq0","pricing_plan_id":"free"},{"bike_id":"443d3d30-37e2-4702-a543-4e048fb0fc0b","system_id":"levelo_inurba_marseille","lat":43.312239,"lon":5.368562,"is_reserved":false,"is_disabled":false,"rental_uris":{"android":"levelo://app?vid=443d3d30-37e2-4702-a543-4e048fb0fc0b","ios":"levelo://app?vid=443d3d30-37e2-4702-a543-4e048fb0fc0b"},"vehicle_type_id":"4","last_reported":1687460775,"current_range_meters":31200,"station_id":"ce4bgl92rcd13ifvqbq0","pricing_plan_id":"free"},{"bike_id":"12017bab-d88e-4a72-8b0c-a4e13cfa2cdd","system_id":"levelo_inurba_marseille","lat":43.312299,"lon":5.368682,"is_reserved":false,"is_disabled":false,"rental_uris":{"android":"levelo://app?vid=12017bab-d88e-4a72-8b0c-a4e13cfa2cdd","ios":"levelo://app?vid=12017bab-d88e-4a72-8b0c-a4e13cfa2cdd"},"vehicle_type_id":"4","last_reported":1687460775,"current_range_meters":31200,"station_id":"ce4bgl92rcd13ifvqbq0","pricing_plan_id":"free"},{"bike_id":"9000d116-43f4-4fa8-bfc2-3858a6532e98","system_id":"levelo_inurba_marseille","lat":43.312163,"lon":5.368672,"is_reserved":false,"is_disabled":false,"rental_uris":{"android":"levelo://app?vid=9000d116-43f4-4fa8-bfc2-3858a6532e98","ios":"levelo://app?vid=9000d116-43f4-4fa8-bfc2-3858a6532e98"},"vehicle_type_id":"4","last_reported":1687460775,"current_range_meters":30800,"station_id":"ce4bgl92rcd13ifvqbq0","pricing_plan_id":"free"},{"bike_id":"6592af64-2179-418f-bfd5-266c57d77827","system_id":"levelo_inurba_marseille","lat":43.312117,"lon":5.368669,"is_reserved":false,"is_disabled":false,"rental_uris":{"android":"levelo://app?vid=6592af64-2179-418f-bfd5-266c57d77827","ios":"levelo://app?vid=6592af64-2179-418f-bfd5-266c57d77827"},"vehicle_type_id":"4","last_reported":1687460775,"current_range_meters":28400,"station_id":"ce4bgl92rcd13ifvqbq0","pricing_plan_id":"free"},{"bike_id":"23b94c24-41f9-4a4a-94e9-9681cfeef2a0","system_id":"levelo_inurba_marseille","lat":43.309076,"lon":5.368465,"is_reserved":false,"is_disabled":false,"rental_uris":{"android":"levelo://app?vid=23b94c24-41f9-4a4a-94e9-9681cfeef2a0","ios":"levelo://app?vid=23b94c24-41f9-4a4a-94e9-9681cfeef2a0"},"vehicle_type_id":"4","last_reported":1687460775,"current_range_meters":8800,"station_id":"ce4bgn92rcd13ifvqbvg","pricing_plan_id":"free"},{"bike_id":"dbfe3520-3432-4356-a6ad-0499adf7b8b2","system_id":"levelo_inurba_marseille","lat":43.31482,"lon":5.37302,"is_reserved":false,"is_disabled":false,"rental_uris":{"android":"levelo://app?vid=dbfe3520-3432-4356-a6ad-0499adf7b8b2","ios":"levelo://app?vid=dbfe3520-3432-4356-a6ad-0499adf7b8b2"},"vehicle_type_id":"4","last_reported":1687460775,"current_range_meters":31200,"station_id":"ce4bgt12rcd13ifvqcd0","pricing_plan_id":"free"},{"bike_id":"077012c0-327a-41b7-a149-1df98069d09b","system_id":"levelo_inurba_marseille","lat":43.31486,"lon":5.37307,"is_reserved":false,"is_disabled":false,"rental_uris":{"android":"levelo://app?vid=077012c0-327a-41b7-a149-1df98069d09b","ios":"levelo://app?vid=077012c0-327a-41b7-a149-1df98069d09b"},"vehicle_type_id":"4","last_reported":1687460775,"current_range_meters":30400,"station_id":"ce4bgt12rcd13ifvqcd0","pricing_plan_id":"free"},{"bike_id":"1261a908-af4a-4a6a-9dbe-48842b52dd05","system_id":"levelo_inurba_marseille","lat":43.314811,"lon":5.373103,"is_reserved":false,"is_disabled":false,"rental_uris":{"android":"levelo://app?vid=1261a908-af4a-4a6a-9dbe-48842b52dd05","ios":"levelo://app?vid=1261a908-af4a-4a6a-9dbe-48842b52dd05"},"vehicle_type_id":"4","last_reported":1687460775,"current_range_meters":21600,"station_id":"ce4bgt12rcd13ifvqcd0","pricing_plan_id":"free"},{"bike_id":"b5fe3601-07a8-4a0b-a035-56d424fbf38c","system_id":"levelo_inurba_marseille","lat":43.31494,"lon":5.3731,"is_reserved":false,"is_disabled":false,"rental_uris":{"android":"levelo://app?vid=b5fe3601-07a8-4a0b-a035-56d424fbf38c","ios":"levelo://app?vid=b5fe3601-07a8-4a0b-a035-56d424fbf38c"},"vehicle_type_id":"4","last_reported":1687460775,"current_range_meters":21200,"station_id":"ce4bgt12rcd13ifvqcd0","pricing_plan_id":"free"},{"bike_id":"06a3e33f-c3e4-4f20-861b-406da615f592","system_id":"levelo_inurba_marseille","lat":43.308606,"lon":5.372099,"is_reserved":false,"is_disabled":false,"rental_uris":{"android":"levelo://app?vid=06a3e33f-c3e4-4f20-861b-406da615f592","ios":"levelo://app?vid=06a3e33f-c3e4-4f20-861b-406da615f592"},"vehicle_type_id":"4","last_reported":1687460775,"current_range_meters":23200,"station_id":"ce4bguh2rcd13ifvqckg","pricing_plan_id":"free"},{"bike_id":"6e587f3b-69d6-43fa-ba75-23ddde94eac0","system_id":"levelo_inurba_marseille","lat":43.305714,"lon":5.365633,"is_reserved":false,"is_disabled":false,"rental_uris":{"android":"levelo://app?vid=6e587f3b-69d6-43fa-ba75-23ddde94eac0","ios":"levelo://app?vid=6e587f3b-69d6-43fa-ba75-23ddde94eac0"},"vehicle_type_id":"4","last_reported":1687460775,"current_range_meters":0,"station_id":"ce4bgs12rcd13ifvqcag","pricing_plan_id":"free"},{"bike_id":"b208fd6c-9ab8-41e3-a175-2732460494b4","system_id":"levelo_inurba_marseille","lat":43.30547,"lon":5.36559,"is_reserved":false,"is_disabled":false,"rental_uris":{"android":"levelo://app?vid=b208fd6c-9ab8-41e3-a175-2732460494b4","ios":"levelo://app?vid=b208fd6c-9ab8-41e3-a175-2732460494b4"},"vehicle_type_id":"4","last_reported":1687460775,"current_range_meters":26800,"station_id":"ce4bgs12rcd13ifvqcag","pricing_plan_id":"free"},{"bike_id":"77d94f1f-6750-45d7-bc28-e05d4c75002d","system_id":"levelo_inurba_marseille","lat":43.305714,"lon":5.365633,"is_reserved":false,"is_disabled":false,"rental_uris":{"android":"levelo://app?vid=77d94f1f-6750-45d7-bc28-e05d4c75002d","ios":"levelo://app?vid=77d94f1f-6750-45d7-bc28-e05d4c75002d"},"vehicle_type_id":"4","last_reported":1687460775,"current_range_meters":5200,"station_id":"ce4bgs12rcd13ifvqcag","pricing_plan_id":"free"},{"bike_id":"febc024e-8dfc-4c6a-8c4c-56b2ee5455e7","system_id":"levelo_inurba_marseille","lat":43.305714,"lon":5.365633,"is_reserved":false,"is_disabled":false,"rental_uris":{"android":"levelo://app?vid=febc024e-8dfc-4c6a-8c4c-56b2ee5455e7","ios":"levelo://app?vid=febc024e-8dfc-4c6a-8c4c-56b2ee5455e7"},"vehicle_type_id":"4","last_reported":1687460775,"current_range_meters":0,"station_id":"ce4bgs12rcd13ifvqcag","pricing_plan_id":"free"},{"bike_id":"82f1a267-9173-43a6-8263-92063a060848","system_id":"levelo_inurba_marseille","lat":43.3053,"lon":5.36716,"is_reserved":false,"is_disabled":false,"rental_uris":{"android":"levelo://app?vid=82f1a267-9173-43a6-8263-92063a060848","ios":"levelo://app?vid=82f1a267-9173-43a6-8263-92063a060848"},"vehicle_type_id":"4","last_reported":1687460775,"current_range_meters":26400,"station_id":"ce4bgrp2rcd13ifvqc9g","pricing_plan_id":"free"},{"bike_id":"7f4dbea1-b8b9-4d70-b7d4-548badc93c81","system_id":"levelo_inurba_marseille","lat":43.305714,"lon":5.365633,"is_reserved":false,"is_disabled":false,"rental_uris":{"android":"levelo://app?vid=7f4dbea1-b8b9-4d70-b7d4-548badc93c81","ios":"levelo://app?vid=7f4dbea1-b8b9-4d70-b7d4-548badc93c81"},"vehicle_type_id":"4","last_reported":1687460775,"current_range_meters":29200,"station_id":"ce4bgs12rcd13ifvqcag","pricing_plan_id":"free"},{"bike_id":"5de6ffcf-46f3-49ab-911f-4de75e2c8b15","system_id":"levelo_inurba_marseille","lat":43.305989,"lon":5.37225,"is_reserved":false,"is_disabled":false,"rental_uris":{"android":"levelo://app?vid=5de6ffcf-46f3-49ab-911f-4de75e2c8b15","ios":"levelo://app?vid=5de6ffcf-46f3-49ab-911f-4de75e2c8b15"},"vehicle_type_id":"4","last_reported":1687460775,"current_range_meters":28400,"station_id":"ce4bgqh2rcd13ifvqc4g","pricing_plan_id":"free"},{"bike_id":"d7a5ca78-37a0-4161-95c7-5f33270aea9f","system_id":"levelo_inurba_marseille","lat":43.305989,"lon":5.37225,"is_reserved":false,"is_disabled":false,"rental_uris":{"android":"levelo://app?vid=d7a5ca78-37a0-4161-95c7-5f33270aea9f","ios":"levelo://app?vid=d7a5ca78-37a0-4161-95c7-5f33270aea9f"},"vehicle_type_id":"4","last_reported":1687460775,"current_range_meters":24400,"station_id":"ce4bgqh2rcd13ifvqc4g","pricing_plan_id":"free"},{"bike_id":"ddf8ac5f-96f3-426f-9b61-db2abf7457a8","system_id":"levelo_inurba_marseille","lat":43.311182,"lon":5.377754,"is_reserved":false,"is_disabled":false,"rental_uris":{"android":"levelo://app?vid=ddf8ac5f-96f3-426f-9b61-db2abf7457a8","ios":"levelo://app?vid=ddf8ac5f-96f3-426f-9b61-db2abf7457a8"},"vehicle_type_id":"4","last_reported":1687460775,"current_range_meters":20000,"station_id":"ce4bgt92rcd13ifvqcg0","pricing_plan_id":"free"},{"bike_id":"ff10af4e-ed79-41b9-a171-372351c144ba","system_id":"levelo_inurba_marseille","lat":43.317075,"lon":5.377367,"is_reserved":false,"is_disabled":false,"rental_uris":{"android":"levelo://app?vid=ff10af4e-ed79-41b9-a171-372351c144ba","ios":"levelo://app?vid=ff10af4e-ed79-41b9-a171-372351c144ba"},"vehicle_type_id":"4","last_reported":1687460775,"current_range_meters":25200,"station_id":"ce4bgth2rcd13ifvqch0","pricing_plan_id":"free"},{"bike_id":"2cebafeb-12a0-4cb6-83ce-4e34dcefc158","system_id":"levelo_inurba_marseille","lat":43.317075,"lon":5.377367,"is_reserved":false,"is_disabled":false,"rental_uris":{"android":"levelo://app?vid=2cebafeb-12a0-4cb6-83ce-4e34dcefc158","ios":"levelo://app?vid=2cebafeb-12a0-4cb6-83ce-4e34dcefc158"},"vehicle_type_id":"4","last_reported":1687460775,"current_range_meters":29600,"station_id":"ce4bgth2rcd13ifvqch0","pricing_plan_id":"free"},{"bike_id":"9847a916-6a76-401d-a8e6-0c566d9471b9","system_id":"levelo_inurba_marseille","lat":43.3153,"lon":5.380332,"is_reserved":false,"is_disabled":false,"rental_uris":{"android":"levelo://app?vid=9847a916-6a76-401d-a8e6-0c566d9471b9","ios":"levelo://app?vid=9847a916-6a76-401d-a8e6-0c566d9471b9"},"vehicle_type_id":"4","last_reported":1687460775,"current_range_meters":24800,"station_id":"ce4bhsp2rcd13ifvqi50","pricing_plan_id":"free"},{"bike_id":"cf7014bc-49c1-465b-a116-1efbbe1210c8","system_id":"levelo_inurba_marseille","lat":43.3153,"lon":5.380332,"is_reserved":false,"is_disabled":false,"rental_uris":{"android":"levelo://app?vid=cf7014bc-49c1-465b-a116-1efbbe1210c8","ios":"levelo://app?vid=cf7014bc-49c1-465b-a116-1efbbe1210c8"},"vehicle_type_id":"4","last_reported":1687460775,"current_range_meters":22400,"station_id":"ce4bhsp2rcd13ifvqi50","pricing_plan_id":"free"},{"bike_id":"676544c1-d089-4ff3-ac82-440502e7e765","system_id":"levelo_inurba_marseille","lat":43.31532,"lon":5.38036,"is_reserved":false,"is_disabled":false,"rental_uris":{"android":"levelo://app?vid=676544c1-d089-4ff3-ac82-440502e7e765","ios":"levelo://app?vid=676544c1-d089-4ff3-ac82-440502e7e765"},"vehicle_type_id":"4","last_reported":1687460775,"current_range_meters":28000,"station_id":"ce4bhsp2rcd13ifvqi50","pricing_plan_id":"free"},{"bike_id":"f46f39dc-c31f-423b-b7b0-a6326a8e18e1","system_id":"levelo_inurba_marseille","lat":43.301939,"lon":5.366286,"is_reserved":false,"is_disabled":false,"rental_uris":{"android":"levelo://app?vid=f46f39dc-c31f-423b-b7b0-a6326a8e18e1","ios":"levelo://app?vid=f46f39dc-c31f-423b-b7b0-a6326a8e18e1"},"vehicle_type_id":"4","last_reported":1687460775,"current_range_meters":29600,"station_id":"ce4bgrh2rcd13ifvqc8g","pricing_plan_id":"free"},{"bike_id":"e5616a54-4bdd-4ec8-b8e2-4832ff7c9e1a","system_id":"levelo_inurba_marseille","lat":43.30167,"lon":5.36753,"is_reserved":false,"is_disabled":false,"rental_uris":{"android":"levelo://app?vid=e5616a54-4bdd-4ec8-b8e2-4832ff7c9e1a","ios":"levelo://app?vid=e5616a54-4bdd-4ec8-b8e2-4832ff7c9e1a"},"vehicle_type_id":"4","last_reported":1687460775,"current_range_meters":15200,"station_id":"","pricing_plan_id":"free"},{"bike_id":"c98c824a-5a21-41d7-a2b3-cfad705b7985","system_id":"levelo_inurba_marseille","lat":43.292642,"lon":5.384254,"is_reserved":false,"is_disabled":false,"rental_uris":{"android":"levelo://app?vid=c98c824a-5a21-41d7-a2b3-cfad705b7985","ios":"levelo://app?vid=c98c824a-5a21-41d7-a2b3-cfad705b7985"},"vehicle_type_id":"4","last_reported":1687460775,"current_range_meters":1600,"station_id":"ce4bh692rcd13ifvqea0","pricing_plan_id":"free"},{"bike_id":"34ea083c-9e7f-48d5-96c3-235566b8b959","system_id":"levelo_inurba_marseille","lat":43.308012,"lon":5.381511,"is_reserved":false,"is_disabled":false,"rental_uris":{"android":"levelo://app?vid=34ea083c-9e7f-48d5-96c3-235566b8b959","ios":"levelo://app?vid=34ea083c-9e7f-48d5-96c3-235566b8b959"},"vehicle_type_id":"4","last_reported":1687460775,"current_range_meters":25200,"station_id":"ce4bgt12rcd13ifvqce0","pricing_plan_id":"free"},{"bike_id":"0c7f0144-01f1-4736-bd95-f592a95e0d97","system_id":"levelo_inurba_marseille","lat":43.3079,"lon":5.38156,"is_reserved":false,"is_disabled":false,"rental_uris":{"android":"levelo://app?vid=0c7f0144-01f1-4736-bd95-f592a95e0d97","ios":"levelo://app?vid=0c7f0144-01f1-4736-bd95-f592a95e0d97"},"vehicle_type_id":"4","last_reported":1687460775,"current_range_meters":6800,"station_id":"","pricing_plan_id":"free"},{"bike_id":"8855f8a2-3321-4906-9de5-593968f1e787","system_id":"levelo_inurba_marseille","lat":43.308012,"lon":5.381511,"is_reserved":false,"is_disabled":false,"rental_uris":{"android":"levelo://app?vid=8855f8a2-3321-4906-9de5-593968f1e787","ios":"levelo://app?vid=8855f8a2-3321-4906-9de5-593968f1e787"},"vehicle_type_id":"4","last_reported":1687460775,"current_range_meters":24800,"station_id":"ce4bgt12rcd13ifvqce0","pricing_plan_id":"free"},{"bike_id":"43fc693e-f2a9-4aec-8fd9-d094bb02cb70","system_id":"levelo_inurba_marseille","lat":43.304606,"lon":5.379026,"is_reserved":false,"is_disabled":false,"rental_uris":{"android":"levelo://app?vid=43fc693e-f2a9-4aec-8fd9-d094bb02cb70","ios":"levelo://app?vid=43fc693e-f2a9-4aec-8fd9-d094bb02cb70"},"vehicle_type_id":"4","last_reported":1687460775,"current_range_meters":1200,"station_id":"ce4bgup2rcd13ifvqcn0","pricing_plan_id":"free"},{"bike_id":"13f6eef6-3c61-436a-ae50-d70483983bba","system_id":"levelo_inurba_marseille","lat":43.301429,"lon":5.37413,"is_reserved":false,"is_disabled":false,"rental_uris":{"android":"levelo://app?vid=13f6eef6-3c61-436a-ae50-d70483983bba","ios":"levelo://app?vid=13f6eef6-3c61-436a-ae50-d70483983bba"},"vehicle_type_id":"4","last_reported":1687460775,"current_range_meters":26800,"station_id":"ce4bgs92rcd13ifvqcc0","pricing_plan_id":"free"},{"bike_id":"cc7ccaed-aeac-4fb6-a249-e3eec1cb8751","system_id":"levelo_inurba_marseille","lat":43.32215,"lon":5.37893,"is_reserved":false,"is_disabled":false,"rental_uris":{"android":"levelo://app?vid=cc7ccaed-aeac-4fb6-a249-e3eec1cb8751","ios":"levelo://app?vid=cc7ccaed-aeac-4fb6-a249-e3eec1cb8751"},"vehicle_type_id":"4","last_reported":1687460775,"current_range_meters":30000,"station_id":"","pricing_plan_id":"free"},{"bike_id":"dd0223fc-e3b2-4277-9a36-68031be99e8b","system_id":"levelo_inurba_marseille","lat":43.319935,"lon":5.381699,"is_reserved":false,"is_disabled":false,"rental_uris":{"android":"levelo://app?vid=dd0223fc-e3b2-4277-9a36-68031be99e8b","ios":"levelo://app?vid=dd0223fc-e3b2-4277-9a36-68031be99e8b"},"vehicle_type_id":"4","last_reported":1687460775,"current_range_meters":13200,"station_id":"ce4bhr12rcd13ifvqhpg","pricing_plan_id":"free"},{"bike_id":"2b477804-59d6-4ed2-b858-3f9e3c0f0764","system_id":"levelo_inurba_marseille","lat":43.319935,"lon":5.381699,"is_reserved":false,"is_disabled":false,"rental_uris":{"android":"levelo://app?vid=2b477804-59d6-4ed2-b858-3f9e3c0f0764","ios":"levelo://app?vid=2b477804-59d6-4ed2-b858-3f9e3c0f0764"},"vehicle_type_id":"4","last_reported":1687460775,"current_range_meters":5200,"station_id":"ce4bhr12rcd13ifvqhpg","pricing_plan_id":"free"},{"bike_id":"7deee56c-9315-446d-9bb0-655b3a7b2977","system_id":"levelo_inurba_marseille","lat":43.319935,"lon":5.381699,"is_reserved":false,"is_disabled":false,"rental_uris":{"android":"levelo://app?vid=7deee56c-9315-446d-9bb0-655b3a7b2977","ios":"levelo://app?vid=7deee56c-9315-446d-9bb0-655b3a7b2977"},"vehicle_type_id":"4","last_reported":1687460775,"current_range_meters":3600,"station_id":"ce4bhr12rcd13ifvqhpg","pricing_plan_id":"free"},{"bike_id":"b936f8e9-dc3a-4ecb-8c65-d10db5b9f8f4","system_id":"levelo_inurba_marseille","lat":43.29939,"lon":5.36554,"is_reserved":false,"is_disabled":false,"rental_uris":{"android":"levelo://app?vid=b936f8e9-dc3a-4ecb-8c65-d10db5b9f8f4","ios":"levelo://app?vid=b936f8e9-dc3a-4ecb-8c65-d10db5b9f8f4"},"vehicle_type_id":"4","last_reported":1687460775,"current_range_meters":30400,"station_id":"ce4bgm92rcd13ifvqbr0","pricing_plan_id":"free"},{"bike_id":"0ed6dca5-82e5-4ac7-a304-07e1ec74ef1a","system_id":"levelo_inurba_marseille","lat":43.299222,"lon":5.365554,"is_reserved":false,"is_disabled":false,"rental_uris":{"android":"levelo://app?vid=0ed6dca5-82e5-4ac7-a304-07e1ec74ef1a","ios":"levelo://app?vid=0ed6dca5-82e5-4ac7-a304-07e1ec74ef1a"},"vehicle_type_id":"4","last_reported":1687460775,"current_range_meters":14400,"station_id":"ce4bgm92rcd13ifvqbr0","pricing_plan_id":"free"},{"bike_id":"5591c8ac-5763-4b6c-b922-ac11eb8afa74","system_id":"levelo_inurba_marseille","lat":43.299222,"lon":5.365554,"is_reserved":false,"is_disabled":false,"rental_uris":{"android":"levelo://app?vid=5591c8ac-5763-4b6c-b922-ac11eb8afa74","ios":"levelo://app?vid=5591c8ac-5763-4b6c-b922-ac11eb8afa74"},"vehicle_type_id":"4","last_reported":1687460775,"current_range_meters":12800,"station_id":"ce4bgm92rcd13ifvqbr0","pricing_plan_id":"free"},{"bike_id":"4ab9acfe-4da7-4868-804c-b7c1caa95880","system_id":"levelo_inurba_marseille","lat":43.299222,"lon":5.365554,"is_reserved":false,"is_disabled":false,"rental_uris":{"android":"levelo://app?vid=4ab9acfe-4da7-4868-804c-b7c1caa95880","ios":"levelo://app?vid=4ab9acfe-4da7-4868-804c-b7c1caa95880"},"vehicle_type_id":"4","last_reported":1687460775,"current_range_meters":12400,"station_id":"ce4bgm92rcd13ifvqbr0","pricing_plan_id":"free"},{"bike_id":"820b2c83-dcf2-4d81-9d57-ac8f1b88fb5e","system_id":"levelo_inurba_marseille","lat":43.305364,"lon":5.384119,"is_reserved":false,"is_disabled":false,"rental_uris":{"android":"levelo://app?vid=820b2c83-dcf2-4d81-9d57-ac8f1b88fb5e","ios":"levelo://app?vid=820b2c83-dcf2-4d81-9d57-ac8f1b88fb5e"},"vehicle_type_id":"4","last_reported":1687460775,"current_range_meters":30000,"station_id":"ce4bgg92rcd13ifvqb30","pricing_plan_id":"free"},{"bike_id":"f5100f51-1ea2-459e-8063-9e4fa9c25920","system_id":"levelo_inurba_marseille","lat":43.311722,"lon":5.387247,"is_reserved":false,"is_disabled":false,"rental_uris":{"android":"levelo://app?vid=f5100f51-1ea2-459e-8063-9e4fa9c25920","ios":"levelo://app?vid=f5100f51-1ea2-459e-8063-9e4fa9c25920"},"vehicle_type_id":"4","last_reported":1687460775,"current_range_meters":6000,"station_id":"ce4bgv12rcd13ifvqcp0","pricing_plan_id":"free"},{"bike_id":"002fbf78-bf7f-4229-85f7-080024671b92","system_id":"levelo_inurba_marseille","lat":43.299243,"lon":5.374807,"is_reserved":false,"is_disabled":false,"rental_uris":{"android":"levelo://app?vid=002fbf78-bf7f-4229-85f7-080024671b92","ios":"levelo://app?vid=002fbf78-bf7f-4229-85f7-080024671b92"},"vehicle_type_id":"4","last_reported":1687460775,"current_range_meters":24800,"station_id":"ce4bgjh2rcd13ifvqbg0","pricing_plan_id":"free"},{"bike_id":"a82c248a-64e2-4163-ad60-90b899ba2e68","system_id":"levelo_inurba_marseille","lat":43.299243,"lon":5.37481,"is_reserved":false,"is_disabled":false,"rental_uris":{"android":"levelo://app?vid=a82c248a-64e2-4163-ad60-90b899ba2e68","ios":"levelo://app?vid=a82c248a-64e2-4163-ad60-90b899ba2e68"},"vehicle_type_id":"4","last_reported":1687460775,"current_range_meters":0,"station_id":"ce4bgjh2rcd13ifvqbg0","pricing_plan_id":"free"},{"bike_id":"e6ea61d5-da20-4ad2-b344-94c2975133fa","system_id":"levelo_inurba_marseille","lat":43.32271,"lon":5.38203,"is_reserved":false,"is_disabled":false,"rental_uris":{"android":"levelo://app?vid=e6ea61d5-da20-4ad2-b344-94c2975133fa","ios":"levelo://app?vid=e6ea61d5-da20-4ad2-b344-94c2975133fa"},"vehicle_type_id":"4","last_reported":1687460775,"current_range_meters":0,"station_id":"","pricing_plan_id":"free"},{"bike_id":"b8ff6f3d-690e-4b98-9d45-08c895fbcfbe","system_id":"levelo_inurba_marseille","lat":43.297774,"lon":5.370875,"is_reserved":false,"is_disabled":false,"rental_uris":{"android":"levelo://app?vid=b8ff6f3d-690e-4b98-9d45-08c895fbcfbe","ios":"levelo://app?vid=b8ff6f3d-690e-4b98-9d45-08c895fbcfbe"},"vehicle_type_id":"4","last_reported":1687460775,"current_range_meters":2800,"station_id":"ce4bgop2rcd13ifvqc1g","pricing_plan_id":"free"},{"bike_id":"41235149-f42e-4673-9d1a-055ac92c3df6","system_id":"levelo_inurba_marseille","lat":43.328371,"lon":5.366909,"is_reserved":false,"is_disabled":false,"rental_uris":{"android":"levelo://app?vid=41235149-f42e-4673-9d1a-055ac92c3df6","ios":"levelo://app?vid=41235149-f42e-4673-9d1a-055ac92c3df6"},"vehicle_type_id":"4","last_reported":1687460775,"current_range_meters":28800,"station_id":"ce4bhs92rcd13ifvqi0g","pricing_plan_id":"free"},{"bike_id":"c7714765-93ab-4a1c-b397-1f1a1d1598da","system_id":"levelo_inurba_marseille","lat":43.297163,"lon":5.365866,"is_reserved":false,"is_disabled":false,"rental_uris":{"android":"levelo://app?vid=c7714765-93ab-4a1c-b397-1f1a1d1598da","ios":"levelo://app?vid=c7714765-93ab-4a1c-b397-1f1a1d1598da"},"vehicle_type_id":"4","last_reported":1687460775,"current_range_meters":13200,"station_id":"ce4bgn12rcd13ifvqbt0","pricing_plan_id":"free"},{"bike_id":"3a718268-466b-4dd3-b124-d408a5dadf36","system_id":"levelo_inurba_marseille","lat":43.297163,"lon":5.365866,"is_reserved":false,"is_disabled":false,"rental_uris":{"android":"levelo://app?vid=3a718268-466b-4dd3-b124-d408a5dadf36","ios":"levelo://app?vid=3a718268-466b-4dd3-b124-d408a5dadf36"},"vehicle_type_id":"4","last_reported":1687460775,"current_range_meters":3200,"station_id":"ce4bgn12rcd13ifvqbt0","pricing_plan_id":"free"},{"bike_id":"db15bf2f-9488-4783-a85e-36b9d8ad8b43","system_id":"levelo_inurba_marseille","lat":43.297163,"lon":5.365866,"is_reserved":false,"is_disabled":false,"rental_uris":{"android":"levelo://app?vid=db15bf2f-9488-4783-a85e-36b9d8ad8b43","ios":"levelo://app?vid=db15bf2f-9488-4783-a85e-36b9d8ad8b43"},"vehicle_type_id":"4","last_reported":1687460775,"current_range_meters":2000,"station_id":"ce4bgn12rcd13ifvqbt0","pricing_plan_id":"free"},{"bike_id":"d6aa4b8f-0fbd-492f-a726-f1b64033634e","system_id":"levelo_inurba_marseille","lat":43.29699,"lon":5.3641,"is_reserved":false,"is_disabled":false,"rental_uris":{"android":"levelo://app?vid=d6aa4b8f-0fbd-492f-a726-f1b64033634e","ios":"levelo://app?vid=d6aa4b8f-0fbd-492f-a726-f1b64033634e"},"vehicle_type_id":"4","last_reported":1687460775,"current_range_meters":14400,"station_id":"","pricing_plan_id":"free"},{"bike_id":"0c6ef4f4-bfc4-4d60-b13c-b96cc5071d7c","system_id":"levelo_inurba_marseille","lat":43.296131,"lon":5.370791,"is_reserved":false,"is_disabled":false,"rental_uris":{"android":"levelo://app?vid=0c6ef4f4-bfc4-4d60-b13c-b96cc5071d7c","ios":"levelo://app?vid=0c6ef4f4-bfc4-4d60-b13c-b96cc5071d7c"},"vehicle_type_id":"4","last_reported":1687460775,"current_range_meters":1600,"station_id":"ce4bgnh2rcd13ifvqc0g","pricing_plan_id":"free"},{"bike_id":"041bc147-ef2f-419b-bb81-deca3bdf89e2","system_id":"levelo_inurba_marseille","lat":43.29611,"lon":5.36046,"is_reserved":false,"is_disabled":false,"rental_uris":{"android":"levelo://app?vid=041bc147-ef2f-419b-bb81-deca3bdf89e2","ios":"levelo://app?vid=041bc147-ef2f-419b-bb81-deca3bdf89e2"},"vehicle_type_id":"4","last_reported":1687460775,"current_range_meters":13600,"station_id":"","pricing_plan_id":"free"},{"bike_id":"4c104248-5430-42e9-acf1-c86c3fe46353","system_id":"levelo_inurba_marseille","lat":43.30966,"lon":5.39032,"is_reserved":false,"is_disabled":false,"rental_uris":{"android":"levelo://app?vid=4c104248-5430-42e9-acf1-c86c3fe46353","ios":"levelo://app?vid=4c104248-5430-42e9-acf1-c86c3fe46353"},"vehicle_type_id":"4","last_reported":1687460775,"current_range_meters":28400,"station_id":"ce4bgup2rcd13ifvqco0","pricing_plan_id":"free"},{"bike_id":"3765512c-c584-4667-a3b7-445f77d88477","system_id":"levelo_inurba_marseille","lat":43.317557,"lon":5.390173,"is_reserved":false,"is_disabled":false,"rental_uris":{"android":"levelo://app?vid=3765512c-c584-4667-a3b7-445f77d88477","ios":"levelo://app?vid=3765512c-c584-4667-a3b7-445f77d88477"},"vehicle_type_id":"4","last_reported":1687460775,"current_range_meters":5200,"station_id":"ce4bhqp2rcd13ifvqhng","pricing_plan_id":"free"},{"bike_id":"9a76280d-6158-428c-abf9-ff703d4a73e7","system_id":"levelo_inurba_marseille","lat":43.298037,"lon":5.381066,"is_reserved":false,"is_disabled":false,"rental_uris":{"android":"levelo://app?vid=9a76280d-6158-428c-abf9-ff703d4a73e7","ios":"levelo://app?vid=9a76280d-6158-428c-abf9-ff703d4a73e7"},"vehicle_type_id":"4","last_reported":1687460775,"current_range_meters":12800,"station_id":"ce4bgip2rcd13ifvqbb0","pricing_plan_id":"free"},{"bike_id":"7bb45ee1-28cb-468c-a445-31fec3752a0d","system_id":"levelo_inurba_marseille","lat":43.304274,"lon":5.388873,"is_reserved":false,"is_disabled":false,"rental_uris":{"android":"levelo://app?vid=7bb45ee1-28cb-468c-a445-31fec3752a0d","ios":"levelo://app?vid=7bb45ee1-28cb-468c-a445-31fec3752a0d"},"vehicle_type_id":"4","last_reported":1687460775,"current_range_meters":31200,"station_id":"ce4bgk12rcd13ifvqbi0","pricing_plan_id":"free"},{"bike_id":"440ad96d-c911-46fb-b30b-88ddd04283bd","system_id":"levelo_inurba_marseille","lat":43.295748,"lon":5.37522,"is_reserved":false,"is_disabled":false,"rental_uris":{"android":"levelo://app?vid=440ad96d-c911-46fb-b30b-88ddd04283bd","ios":"levelo://app?vid=440ad96d-c911-46fb-b30b-88ddd04283bd"},"vehicle_type_id":"4","last_reported":1687460775,"current_range_meters":31200,"station_id":"ce4bgh92rcd13ifvqb50","pricing_plan_id":"free"},{"bike_id":"d23bee67-d34f-4e58-a259-ca0262701a12","system_id":"levelo_inurba_marseille","lat":43.295752,"lon":5.375148,"is_reserved":false,"is_disabled":false,"rental_uris":{"android":"levelo://app?vid=d23bee67-d34f-4e58-a259-ca0262701a12","ios":"levelo://app?vid=d23bee67-d34f-4e58-a259-ca0262701a12"},"vehicle_type_id":"4","last_reported":1687460775,"current_range_meters":400,"station_id":"","pricing_plan_id":"free"},{"bike_id":"430ca9a1-b41b-4392-a61c-b84c25e4f782","system_id":"levelo_inurba_marseille","lat":43.295748,"lon":5.37522,"is_reserved":false,"is_disabled":false,"rental_uris":{"android":"levelo://app?vid=430ca9a1-b41b-4392-a61c-b84c25e4f782","ios":"levelo://app?vid=430ca9a1-b41b-4392-a61c-b84c25e4f782"},"vehicle_type_id":"4","last_reported":1687460775,"current_range_meters":31200,"station_id":"ce4bgh92rcd13ifvqb50","pricing_plan_id":"free"},{"bike_id":"f849cb51-89b4-4a08-8cfa-7a9174899c44","system_id":"levelo_inurba_marseille","lat":43.30434,"lon":5.38885,"is_reserved":false,"is_disabled":false,"rental_uris":{"android":"levelo://app?vid=f849cb51-89b4-4a08-8cfa-7a9174899c44","ios":"levelo://app?vid=f849cb51-89b4-4a08-8cfa-7a9174899c44"},"vehicle_type_id":"4","last_reported":1687460775,"current_range_meters":1600,"station_id":"","pricing_plan_id":"free"},{"bike_id":"c424ffef-6b0d-48b2-ab27-ee413c4700c9","system_id":"levelo_inurba_marseille","lat":43.295748,"lon":5.37522,"is_reserved":false,"is_disabled":false,"rental_uris":{"android":"levelo://app?vid=c424ffef-6b0d-48b2-ab27-ee413c4700c9","ios":"levelo://app?vid=c424ffef-6b0d-48b2-ab27-ee413c4700c9"},"vehicle_type_id":"4","last_reported":1687460775,"current_range_meters":1200,"station_id":"ce4bgh92rcd13ifvqb50","pricing_plan_id":"free"},{"bike_id":"232afbaf-08c8-41a8-a719-460b0faf5cdf","system_id":"levelo_inurba_marseille","lat":43.298037,"lon":5.381066,"is_reserved":false,"is_disabled":false,"rental_uris":{"android":"levelo://app?vid=232afbaf-08c8-41a8-a719-460b0faf5cdf","ios":"levelo://app?vid=232afbaf-08c8-41a8-a719-460b0faf5cdf"},"vehicle_type_id":"4","last_reported":1687460775,"current_range_meters":1200,"station_id":"ce4bgip2rcd13ifvqbb0","pricing_plan_id":"free"},{"bike_id":"d6a79adc-1409-4274-8796-415bd42bbb72","system_id":"levelo_inurba_marseille","lat":43.30445,"lon":5.38894,"is_reserved":false,"is_disabled":false,"rental_uris":{"android":"levelo://app?vid=d6a79adc-1409-4274-8796-415bd42bbb72","ios":"levelo://app?vid=d6a79adc-1409-4274-8796-415bd42bbb72"},"vehicle_type_id":"4","last_reported":1687460775,"current_range_meters":29600,"station_id":"ce4bgk12rcd13ifvqbi0","pricing_plan_id":"free"},{"bike_id":"dcd2acb2-c6fd-47b8-976f-f175e7b47a6c","system_id":"levelo_inurba_marseille","lat":43.29571,"lon":5.37513,"is_reserved":false,"is_disabled":false,"rental_uris":{"android":"levelo://app?vid=dcd2acb2-c6fd-47b8-976f-f175e7b47a6c","ios":"levelo://app?vid=dcd2acb2-c6fd-47b8-976f-f175e7b47a6c"},"vehicle_type_id":"4","last_reported":1687460775,"current_range_meters":20000,"station_id":"ce4bgh92rcd13ifvqb50","pricing_plan_id":"free"},{"bike_id":"ead95086-b48d-460e-8b3e-01ec47e83be1","system_id":"levelo_inurba_marseille","lat":43.295722,"lon":5.375303,"is_reserved":false,"is_disabled":false,"rental_uris":{"android":"levelo://app?vid=ead95086-b48d-460e-8b3e-01ec47e83be1","ios":"levelo://app?vid=ead95086-b48d-460e-8b3e-01ec47e83be1"},"vehicle_type_id":"4","last_reported":1687460775,"current_range_meters":26000,"station_id":"ce4bgkp2rcd13ifvqbmg","pricing_plan_id":"free"},{"bike_id":"2a18a7f6-bdd7-41b4-bd1f-fd3948d57c65","system_id":"levelo_inurba_marseille","lat":43.296277,"lon":5.377108,"is_reserved":false,"is_disabled":false,"rental_uris":{"android":"levelo://app?vid=2a18a7f6-bdd7-41b4-bd1f-fd3948d57c65","ios":"levelo://app?vid=2a18a7f6-bdd7-41b4-bd1f-fd3948d57c65"},"vehicle_type_id":"4","last_reported":1687460775,"current_range_meters":7200,"station_id":"ce4bgi92rcd13ifvqb90","pricing_plan_id":"free"},{"bike_id":"b3611dac-3938-4ba4-88ad-9265b3622e9a","system_id":"levelo_inurba_marseille","lat":43.304274,"lon":5.388873,"is_reserved":false,"is_disabled":false,"rental_uris":{"android":"levelo://app?vid=b3611dac-3938-4ba4-88ad-9265b3622e9a","ios":"levelo://app?vid=b3611dac-3938-4ba4-88ad-9265b3622e9a"},"vehicle_type_id":"4","last_reported":1687460775,"current_range_meters":10400,"station_id":"ce4bgk12rcd13ifvqbi0","pricing_plan_id":"free"},{"bike_id":"f5e2ac58-3767-4d03-88c8-16a0c26cb7a4","system_id":"levelo_inurba_marseille","lat":43.30432,"lon":5.38896,"is_reserved":false,"is_disabled":false,"rental_uris":{"android":"levelo://app?vid=f5e2ac58-3767-4d03-88c8-16a0c26cb7a4","ios":"levelo://app?vid=f5e2ac58-3767-4d03-88c8-16a0c26cb7a4"},"vehicle_type_id":"4","last_reported":1687460775,"current_range_meters":31600,"station_id":"ce4bgk12rcd13ifvqbi0","pricing_plan_id":"free"},{"bike_id":"57ef74e7-dc4c-4c99-8885-e798792eeba1","system_id":"levelo_inurba_marseille","lat":43.30436,"lon":5.38904,"is_reserved":false,"is_disabled":false,"rental_uris":{"android":"levelo://app?vid=57ef74e7-dc4c-4c99-8885-e798792eeba1","ios":"levelo://app?vid=57ef74e7-dc4c-4c99-8885-e798792eeba1"},"vehicle_type_id":"4","last_reported":1687460775,"current_range_meters":31200,"station_id":"ce4bgk12rcd13ifvqbi0","pricing_plan_id":"free"},{"bike_id":"2a09f3a7-0114-41cd-b60f-3e83f63d0bbd","system_id":"levelo_inurba_marseille","lat":43.30434,"lon":5.38905,"is_reserved":false,"is_disabled":false,"rental_uris":{"android":"levelo://app?vid=2a09f3a7-0114-41cd-b60f-3e83f63d0bbd","ios":"levelo://app?vid=2a09f3a7-0114-41cd-b60f-3e83f63d0bbd"},"vehicle_type_id":"4","last_reported":1687460775,"current_range_meters":800,"station_id":"ce4bgk12rcd13ifvqbi0","pricing_plan_id":"free"},{"bike_id":"213e8943-975e-471d-b24d-eab15486bb57","system_id":"levelo_inurba_marseille","lat":43.2962,"lon":5.37724,"is_reserved":false,"is_disabled":false,"rental_uris":{"android":"levelo://app?vid=213e8943-975e-471d-b24d-eab15486bb57","ios":"levelo://app?vid=213e8943-975e-471d-b24d-eab15486bb57"},"vehicle_type_id":"4","last_reported":1687460775,"current_range_meters":10800,"station_id":"ce4bgi92rcd13ifvqb90","pricing_plan_id":"free"},{"bike_id":"692f4e37-0ef3-4f60-8b1c-d2065a913109","system_id":"levelo_inurba_marseille","lat":43.296263,"lon":5.377094,"is_reserved":false,"is_disabled":false,"rental_uris":{"android":"levelo://app?vid=692f4e37-0ef3-4f60-8b1c-d2065a913109","ios":"levelo://app?vid=692f4e37-0ef3-4f60-8b1c-d2065a913109"},"vehicle_type_id":"4","last_reported":1687460775,"current_range_meters":3600,"station_id":"ce4bgi92rcd13ifvqb90","pricing_plan_id":"free"},{"bike_id":"ce865b36-3ac1-40db-91ea-fc154bf9b8f2","system_id":"levelo_inurba_marseille","lat":43.295279,"lon":5.375048,"is_reserved":false,"is_disabled":false,"rental_uris":{"android":"levelo://app?vid=ce865b36-3ac1-40db-91ea-fc154bf9b8f2","ios":"levelo://app?vid=ce865b36-3ac1-40db-91ea-fc154bf9b8f2"},"vehicle_type_id":"4","last_reported":1687460775,"current_range_meters":31200,"station_id":"ce4bgkp2rcd13ifvqbmg","pricing_plan_id":"free"},{"bike_id":"c345287a-3c55-4ffa-9f12-a6b3c2a52702","system_id":"levelo_inurba_marseille","lat":43.29599,"lon":5.37714,"is_reserved":false,"is_disabled":false,"rental_uris":{"android":"levelo://app?vid=c345287a-3c55-4ffa-9f12-a6b3c2a52702","ios":"levelo://app?vid=c345287a-3c55-4ffa-9f12-a6b3c2a52702"},"vehicle_type_id":"4","last_reported":1687460775,"current_range_meters":0,"station_id":"","pricing_plan_id":"free"},{"bike_id":"d051aa8f-41d4-46d8-a135-616f3bccc085","system_id":"levelo_inurba_marseille","lat":43.295279,"lon":5.375048,"is_reserved":false,"is_disabled":false,"rental_uris":{"android":"levelo://app?vid=d051aa8f-41d4-46d8-a135-616f3bccc085","ios":"levelo://app?vid=d051aa8f-41d4-46d8-a135-616f3bccc085"},"vehicle_type_id":"4","last_reported":1687460775,"current_range_meters":26400,"station_id":"ce4bgkp2rcd13ifvqbmg","pricing_plan_id":"free"},{"bike_id":"fbfe6362-06d1-46a5-b788-d82645534d19","system_id":"levelo_inurba_marseille","lat":43.299772,"lon":5.384812,"is_reserved":false,"is_disabled":false,"rental_uris":{"android":"levelo://app?vid=fbfe6362-06d1-46a5-b788-d82645534d19","ios":"levelo://app?vid=fbfe6362-06d1-46a5-b788-d82645534d19"},"vehicle_type_id":"4","last_reported":1687460775,"current_range_meters":0,"station_id":"ce4bgj92rcd13ifvqbd0","pricing_plan_id":"free"},{"bike_id":"b6643e80-4623-49bb-9860-1bebb2e6a888","system_id":"levelo_inurba_marseille","lat":43.29979,"lon":5.38497,"is_reserved":false,"is_disabled":false,"rental_uris":{"android":"levelo://app?vid=b6643e80-4623-49bb-9860-1bebb2e6a888","ios":"levelo://app?vid=b6643e80-4623-49bb-9860-1bebb2e6a888"},"vehicle_type_id":"4","last_reported":1687460775,"current_range_meters":19200,"station_id":"ce4bgj92rcd13ifvqbd0","pricing_plan_id":"free"},{"bike_id":"5521f765-ba31-494f-8084-b708e0ab58ce","system_id":"levelo_inurba_marseille","lat":43.295279,"lon":5.375048,"is_reserved":false,"is_disabled":false,"rental_uris":{"android":"levelo://app?vid=5521f765-ba31-494f-8084-b708e0ab58ce","ios":"levelo://app?vid=5521f765-ba31-494f-8084-b708e0ab58ce"},"vehicle_type_id":"4","last_reported":1687460775,"current_range_meters":28800,"station_id":"ce4bgkp2rcd13ifvqbmg","pricing_plan_id":"free"},{"bike_id":"537904b6-81e9-4163-ada3-bc304b2c5b19","system_id":"levelo_inurba_marseille","lat":43.32367,"lon":5.388836,"is_reserved":false,"is_disabled":false,"rental_uris":{"android":"levelo://app?vid=537904b6-81e9-4163-ada3-bc304b2c5b19","ios":"levelo://app?vid=537904b6-81e9-4163-ada3-bc304b2c5b19"},"vehicle_type_id":"4","last_reported":1687460775,"current_range_meters":14800,"station_id":"ce4bhqp2rcd13ifvqhog","pricing_plan_id":"free"},{"bike_id":"ba9bcc13-30a6-41ee-ab87-c9d21de1e9f5","system_id":"levelo_inurba_marseille","lat":43.32367,"lon":5.388836,"is_reserved":false,"is_disabled":false,"rental_uris":{"android":"levelo://app?vid=ba9bcc13-30a6-41ee-ab87-c9d21de1e9f5","ios":"levelo://app?vid=ba9bcc13-30a6-41ee-ab87-c9d21de1e9f5"},"vehicle_type_id":"4","last_reported":1687460775,"current_range_meters":20800,"station_id":"ce4bhqp2rcd13ifvqhog","pricing_plan_id":"free"},{"bike_id":"8d928649-1123-4bc1-83c9-892fb3baff6d","system_id":"levelo_inurba_marseille","lat":43.32367,"lon":5.388836,"is_reserved":false,"is_disabled":false,"rental_uris":{"android":"levelo://app?vid=8d928649-1123-4bc1-83c9-892fb3baff6d","ios":"levelo://app?vid=8d928649-1123-4bc1-83c9-892fb3baff6d"},"vehicle_type_id":"4","last_reported":1687460775,"current_range_meters":8400,"station_id":"ce4bhqp2rcd13ifvqhog","pricing_plan_id":"free"},{"bike_id":"a2da44b6-4085-43d7-b95a-d57e9f431fbe","system_id":"levelo_inurba_marseille","lat":43.29601,"lon":5.381084,"is_reserved":false,"is_disabled":false,"rental_uris":{"android":"levelo://app?vid=a2da44b6-4085-43d7-b95a-d57e9f431fbe","ios":"levelo://app?vid=a2da44b6-4085-43d7-b95a-d57e9f431fbe"},"vehicle_type_id":"4","last_reported":1687460775,"current_range_meters":1600,"station_id":"ce4bgl12rcd13ifvqbo0","pricing_plan_id":"free"},{"bike_id":"5c02ac01-5ed7-400f-8141-01191c6ed7b9","system_id":"levelo_inurba_marseille","lat":43.29601,"lon":5.381084,"is_reserved":false,"is_disabled":false,"rental_uris":{"android":"levelo://app?vid=5c02ac01-5ed7-400f-8141-01191c6ed7b9","ios":"levelo://app?vid=5c02ac01-5ed7-400f-8141-01191c6ed7b9"},"vehicle_type_id":"4","last_reported":1687460775,"current_range_meters":4000,"station_id":"ce4bgl12rcd13ifvqbo0","pricing_plan_id":"free"},{"bike_id":"3602c29b-9d41-4f14-9c8a-96b89c5ffef1","system_id":"levelo_inurba_marseille","lat":43.292749,"lon":5.368402,"is_reserved":false,"is_disabled":false,"rental_uris":{"android":"levelo://app?vid=3602c29b-9d41-4f14-9c8a-96b89c5ffef1","ios":"levelo://app?vid=3602c29b-9d41-4f14-9c8a-96b89c5ffef1"},"vehicle_type_id":"4","last_reported":1687460775,"current_range_meters":15600,"station_id":"ce4bhbp2rcd13ifvqesg","pricing_plan_id":"free"},{"bike_id":"c2953ac9-0af7-4caa-bdc1-c51e48b1c16c","system_id":"levelo_inurba_marseille","lat":43.292749,"lon":5.368398,"is_reserved":false,"is_disabled":false,"rental_uris":{"android":"levelo://app?vid=c2953ac9-0af7-4caa-bdc1-c51e48b1c16c","ios":"levelo://app?vid=c2953ac9-0af7-4caa-bdc1-c51e48b1c16c"},"vehicle_type_id":"4","last_reported":1687460775,"current_range_meters":0,"station_id":"ce4bhbp2rcd13ifvqesg","pricing_plan_id":"free"},{"bike_id":"ce4b485f-837a-44aa-ba5a-d22e34cdb6bb","system_id":"levelo_inurba_marseille","lat":43.29301,"lon":5.37456,"is_reserved":false,"is_disabled":false,"rental_uris":{"android":"levelo://app?vid=ce4b485f-837a-44aa-ba5a-d22e34cdb6bb","ios":"levelo://app?vid=ce4b485f-837a-44aa-ba5a-d22e34cdb6bb"},"vehicle_type_id":"4","last_reported":1687460775,"current_range_meters":27200,"station_id":"ce4bgi12rcd13ifvqb70","pricing_plan_id":"free"},{"bike_id":"82962bf2-4310-4efb-af0e-e0c2985b458f","system_id":"levelo_inurba_marseille","lat":43.2927,"lon":5.35984,"is_reserved":false,"is_disabled":false,"rental_uris":{"android":"levelo://app?vid=82962bf2-4310-4efb-af0e-e0c2985b458f","ios":"levelo://app?vid=82962bf2-4310-4efb-af0e-e0c2985b458f"},"vehicle_type_id":"4","last_reported":1687460775,"current_range_meters":28000,"station_id":"","pricing_plan_id":"free"},{"bike_id":"6c7b31db-359f-46cf-9e4c-cb21ab38f334","system_id":"levelo_inurba_marseille","lat":43.30304,"lon":5.39212,"is_reserved":false,"is_disabled":false,"rental_uris":{"android":"levelo://app?vid=6c7b31db-359f-46cf-9e4c-cb21ab38f334","ios":"levelo://app?vid=6c7b31db-359f-46cf-9e4c-cb21ab38f334"},"vehicle_type_id":"4","last_reported":1687460775,"current_range_meters":31200,"station_id":"ce4bgkh2rcd13ifvqbk0","pricing_plan_id":"free"},{"bike_id":"88549a46-5f19-4c03-9afb-b7fc8f313e18","system_id":"levelo_inurba_marseille","lat":43.30085,"lon":5.390856,"is_reserved":false,"is_disabled":false,"rental_uris":{"android":"levelo://app?vid=88549a46-5f19-4c03-9afb-b7fc8f313e18","ios":"levelo://app?vid=88549a46-5f19-4c03-9afb-b7fc8f313e18"},"vehicle_type_id":"4","last_reported":1687460775,"current_range_meters":0,"station_id":"ce4bh192rcd13ifvqdb0","pricing_plan_id":"free"},{"bike_id":"4b5150b5-4796-4e1c-9bd4-79316e6d4556","system_id":"levelo_inurba_marseille","lat":43.298764,"lon":5.388973,"is_reserved":false,"is_disabled":false,"rental_uris":{"android":"levelo://app?vid=4b5150b5-4796-4e1c-9bd4-79316e6d4556","ios":"levelo://app?vid=4b5150b5-4796-4e1c-9bd4-79316e6d4556"},"vehicle_type_id":"4","last_reported":1687460775,"current_range_meters":0,"station_id":"ce4bh392rcd13ifvqdl0","pricing_plan_id":"free"},{"bike_id":"2629bedf-7055-4ea4-a7d7-7d18bb994bc6","system_id":"levelo_inurba_marseille","lat":43.313291,"lon":5.396838,"is_reserved":false,"is_disabled":false,"rental_uris":{"android":"levelo://app?vid=2629bedf-7055-4ea4-a7d7-7d18bb994bc6","ios":"levelo://app?vid=2629bedf-7055-4ea4-a7d7-7d18bb994bc6"},"vehicle_type_id":"4","last_reported":1687460775,"current_range_meters":0,"station_id":"ce4bgvp2rcd13ifvqcu0","pricing_plan_id":"free"},{"bike_id":"1334198f-1bea-49bf-b610-cb1d6ae78499","system_id":"levelo_inurba_marseille","lat":43.313291,"lon":5.396838,"is_reserved":false,"is_disabled":false,"rental_uris":{"android":"levelo://app?vid=1334198f-1bea-49bf-b610-cb1d6ae78499","ios":"levelo://app?vid=1334198f-1bea-49bf-b610-cb1d6ae78499"},"vehicle_type_id":"4","last_reported":1687460775,"current_range_meters":10800,"station_id":"ce4bgvp2rcd13ifvqcu0","pricing_plan_id":"free"},{"bike_id":"f29a7205-f2cc-4d14-9e6e-ba20e6495f15","system_id":"levelo_inurba_marseille","lat":43.313291,"lon":5.396838,"is_reserved":false,"is_disabled":false,"rental_uris":{"android":"levelo://app?vid=f29a7205-f2cc-4d14-9e6e-ba20e6495f15","ios":"levelo://app?vid=f29a7205-f2cc-4d14-9e6e-ba20e6495f15"},"vehicle_type_id":"4","last_reported":1687460775,"current_range_meters":31200,"station_id":"ce4bgvp2rcd13ifvqcu0","pricing_plan_id":"free"},{"bike_id":"77efe2a4-f2f9-400e-8ffc-744faa54df1f","system_id":"levelo_inurba_marseille","lat":43.313291,"lon":5.396838,"is_reserved":false,"is_disabled":false,"rental_uris":{"android":"levelo://app?vid=77efe2a4-f2f9-400e-8ffc-744faa54df1f","ios":"levelo://app?vid=77efe2a4-f2f9-400e-8ffc-744faa54df1f"},"vehicle_type_id":"4","last_reported":1687460775,"current_range_meters":31200,"station_id":"ce4bgvp2rcd13ifvqcu0","pricing_plan_id":"free"},{"bike_id":"9f657e37-c8de-4ad8-ab40-92897236a68b","system_id":"levelo_inurba_marseille","lat":43.290779,"lon":5.371482,"is_reserved":false,"is_disabled":false,"rental_uris":{"android":"levelo://app?vid=9f657e37-c8de-4ad8-ab40-92897236a68b","ios":"levelo://app?vid=9f657e37-c8de-4ad8-ab40-92897236a68b"},"vehicle_type_id":"4","last_reported":1687460775,"current_range_meters":0,"station_id":"ce4bh5p2rcd13ifvqe4g","pricing_plan_id":"free"},{"bike_id":"68520477-6151-418d-a2dd-a6182029db29","system_id":"levelo_inurba_marseille","lat":43.29065,"lon":5.37163,"is_reserved":false,"is_disabled":false,"rental_uris":{"android":"levelo://app?vid=68520477-6151-418d-a2dd-a6182029db29","ios":"levelo://app?vid=68520477-6151-418d-a2dd-a6182029db29"},"vehicle_type_id":"4","last_reported":1687460775,"current_range_meters":3600,"station_id":"ce4bh5p2rcd13ifvqe4g","pricing_plan_id":"free"},{"bike_id":"29a09969-f999-43ee-b29e-06fbb650663a","system_id":"levelo_inurba_marseille","lat":43.302008,"lon":5.394694,"is_reserved":false,"is_disabled":false,"rental_uris":{"android":"levelo://app?vid=29a09969-f999-43ee-b29e-06fbb650663a","ios":"levelo://app?vid=29a09969-f999-43ee-b29e-06fbb650663a"},"vehicle_type_id":"4","last_reported":1687460775,"current_range_meters":18000,"station_id":"ce4bh0p2rcd13ifvqd70","pricing_plan_id":"free"},{"bike_id":"7afc6156-ce63-4765-a8e5-c3dbd7383401","system_id":"levelo_inurba_marseille","lat":43.294162,"lon":5.386292,"is_reserved":false,"is_disabled":false,"rental_uris":{"android":"levelo://app?vid=7afc6156-ce63-4765-a8e5-c3dbd7383401","ios":"levelo://app?vid=7afc6156-ce63-4765-a8e5-c3dbd7383401"},"vehicle_type_id":"4","last_reported":1687460775,"current_range_meters":5200,"station_id":"ce4bh2h2rcd13ifvqdh0","pricing_plan_id":"free"},{"bike_id":"0ced9a39-1847-4e9b-b9ea-3216bd38d06e","system_id":"levelo_inurba_marseille","lat":43.290327,"lon":5.375711,"is_reserved":false,"is_disabled":false,"rental_uris":{"android":"levelo://app?vid=0ced9a39-1847-4e9b-b9ea-3216bd38d06e","ios":"levelo://app?vid=0ced9a39-1847-4e9b-b9ea-3216bd38d06e"},"vehicle_type_id":"4","last_reported":1687460775,"current_range_meters":29600,"station_id":"ce4bh692rcd13ifvqe90","pricing_plan_id":"free"},{"bike_id":"d72ace48-53fc-45af-a6b1-19d46aae8972","system_id":"levelo_inurba_marseille","lat":43.28945,"lon":5.3664,"is_reserved":false,"is_disabled":false,"rental_uris":{"android":"levelo://app?vid=d72ace48-53fc-45af-a6b1-19d46aae8972","ios":"levelo://app?vid=d72ace48-53fc-45af-a6b1-19d46aae8972"},"vehicle_type_id":"4","last_reported":1687460775,"current_range_meters":12400,"station_id":"","pricing_plan_id":"free"},{"bike_id":"3e36dbd4-61ec-4a46-95ce-ef63a3cb073e","system_id":"levelo_inurba_marseille","lat":43.29411,"lon":5.38614,"is_reserved":false,"is_disabled":false,"rental_uris":{"android":"levelo://app?vid=3e36dbd4-61ec-4a46-95ce-ef63a3cb073e","ios":"levelo://app?vid=3e36dbd4-61ec-4a46-95ce-ef63a3cb073e"},"vehicle_type_id":"4","last_reported":1687460775,"current_range_meters":26000,"station_id":"","pricing_plan_id":"free"},{"bike_id":"627e4874-2002-4e0e-8a2a-5f4874121a18","system_id":"levelo_inurba_marseille","lat":43.290327,"lon":5.375711,"is_reserved":false,"is_disabled":false,"rental_uris":{"android":"levelo://app?vid=627e4874-2002-4e0e-8a2a-5f4874121a18","ios":"levelo://app?vid=627e4874-2002-4e0e-8a2a-5f4874121a18"},"vehicle_type_id":"4","last_reported":1687460775,"current_range_meters":800,"station_id":"ce4bh692rcd13ifvqe90","pricing_plan_id":"free"},{"bike_id":"92621a60-4093-48a4-bf92-ded0f8b5e39a","system_id":"levelo_inurba_marseille","lat":43.28943,"lon":5.36639,"is_reserved":false,"is_disabled":false,"rental_uris":{"android":"levelo://app?vid=92621a60-4093-48a4-bf92-ded0f8b5e39a","ios":"levelo://app?vid=92621a60-4093-48a4-bf92-ded0f8b5e39a"},"vehicle_type_id":"4","last_reported":1687460775,"current_range_meters":29200,"station_id":"","pricing_plan_id":"free"},{"bike_id":"58abc571-df9c-4d16-98b7-03712e395926","system_id":"levelo_inurba_marseille","lat":43.294162,"lon":5.386292,"is_reserved":false,"is_disabled":false,"rental_uris":{"android":"levelo://app?vid=58abc571-df9c-4d16-98b7-03712e395926","ios":"levelo://app?vid=58abc571-df9c-4d16-98b7-03712e395926"},"vehicle_type_id":"4","last_reported":1687460775,"current_range_meters":6400,"station_id":"ce4bh2h2rcd13ifvqdh0","pricing_plan_id":"free"},{"bike_id":"d3ef9007-83f2-4dc9-8fc2-09fc5873298a","system_id":"levelo_inurba_marseille","lat":43.289184,"lon":5.366408,"is_reserved":false,"is_disabled":false,"rental_uris":{"android":"levelo://app?vid=d3ef9007-83f2-4dc9-8fc2-09fc5873298a","ios":"levelo://app?vid=d3ef9007-83f2-4dc9-8fc2-09fc5873298a"},"vehicle_type_id":"4","last_reported":1687460775,"current_range_meters":25600,"station_id":"ce4bhap2rcd13ifvqek0","pricing_plan_id":"free"},{"bike_id":"b3175896-d912-4ee0-abb4-c4551183512d","system_id":"levelo_inurba_marseille","lat":43.289184,"lon":5.366408,"is_reserved":false,"is_disabled":false,"rental_uris":{"android":"levelo://app?vid=b3175896-d912-4ee0-abb4-c4551183512d","ios":"levelo://app?vid=b3175896-d912-4ee0-abb4-c4551183512d"},"vehicle_type_id":"4","last_reported":1687460775,"current_range_meters":28000,"station_id":"ce4bhap2rcd13ifvqek0","pricing_plan_id":"free"},{"bike_id":"93587a4b-71b8-4367-9d8e-5f2d127d8773","system_id":"levelo_inurba_marseille","lat":43.28934,"lon":5.36398,"is_reserved":false,"is_disabled":false,"rental_uris":{"android":"levelo://app?vid=93587a4b-71b8-4367-9d8e-5f2d127d8773","ios":"levelo://app?vid=93587a4b-71b8-4367-9d8e-5f2d127d8773"},"vehicle_type_id":"4","last_reported":1687460775,"current_range_meters":0,"station_id":"ce4bhc92rcd13ifvqetg","pricing_plan_id":"free"},{"bike_id":"5c2d0112-00d0-4db3-9601-e0ef2b94592e","system_id":"levelo_inurba_marseille","lat":43.304296,"lon":5.397513,"is_reserved":false,"is_disabled":false,"rental_uris":{"android":"levelo://app?vid=5c2d0112-00d0-4db3-9601-e0ef2b94592e","ios":"levelo://app?vid=5c2d0112-00d0-4db3-9601-e0ef2b94592e"},"vehicle_type_id":"4","last_reported":1687460775,"current_range_meters":19200,"station_id":"ce4bh092rcd13ifvqd20","pricing_plan_id":"free"},{"bike_id":"faa3dfa1-d557-4ba0-bf94-c915f27c6746","system_id":"levelo_inurba_marseille","lat":43.292642,"lon":5.384254,"is_reserved":false,"is_disabled":false,"rental_uris":{"android":"levelo://app?vid=faa3dfa1-d557-4ba0-bf94-c915f27c6746","ios":"levelo://app?vid=faa3dfa1-d557-4ba0-bf94-c915f27c6746"},"vehicle_type_id":"4","last_reported":1687460775,"current_range_meters":0,"station_id":"ce4bh692rcd13ifvqea0","pricing_plan_id":"free"},{"bike_id":"ce8816e9-26f0-4cca-a1cd-14def6e3c0ac","system_id":"levelo_inurba_marseille","lat":43.33049,"lon":5.38906,"is_reserved":false,"is_disabled":false,"rental_uris":{"android":"levelo://app?vid=ce8816e9-26f0-4cca-a1cd-14def6e3c0ac","ios":"levelo://app?vid=ce8816e9-26f0-4cca-a1cd-14def6e3c0ac"},"vehicle_type_id":"4","last_reported":1687460775,"current_range_meters":31600,"station_id":"ce4bhr92rcd13ifvqhrg","pricing_plan_id":"free"},{"bike_id":"8f3f2ae0-cf34-439b-818d-2c39a055cbf9","system_id":"levelo_inurba_marseille","lat":43.33045,"lon":5.38915,"is_reserved":false,"is_disabled":false,"rental_uris":{"android":"levelo://app?vid=8f3f2ae0-cf34-439b-818d-2c39a055cbf9","ios":"levelo://app?vid=8f3f2ae0-cf34-439b-818d-2c39a055cbf9"},"vehicle_type_id":"4","last_reported":1687460775,"current_range_meters":0,"station_id":"ce4bhr92rcd13ifvqhrg","pricing_plan_id":"free"},{"bike_id":"ab990c51-1ffe-43dd-a6cd-9353811d08e6","system_id":"levelo_inurba_marseille","lat":43.3304,"lon":5.38923,"is_reserved":false,"is_disabled":false,"rental_uris":{"android":"levelo://app?vid=ab990c51-1ffe-43dd-a6cd-9353811d08e6","ios":"levelo://app?vid=ab990c51-1ffe-43dd-a6cd-9353811d08e6"},"vehicle_type_id":"4","last_reported":1687460775,"current_range_meters":10800,"station_id":"ce4bhr92rcd13ifvqhrg","pricing_plan_id":"free"},{"bike_id":"e87461b0-b833-4223-872d-7d458b615d87","system_id":"levelo_inurba_marseille","lat":43.33044,"lon":5.38919,"is_reserved":false,"is_disabled":false,"rental_uris":{"android":"levelo://app?vid=e87461b0-b833-4223-872d-7d458b615d87","ios":"levelo://app?vid=e87461b0-b833-4223-872d-7d458b615d87"},"vehicle_type_id":"4","last_reported":1687460775,"current_range_meters":17200,"station_id":"ce4bhr92rcd13ifvqhrg","pricing_plan_id":"free"},{"bike_id":"c54fbd3e-208e-47df-af26-714f2d22e730","system_id":"levelo_inurba_marseille","lat":43.33043,"lon":5.38921,"is_reserved":false,"is_disabled":false,"rental_uris":{"android":"levelo://app?vid=c54fbd3e-208e-47df-af26-714f2d22e730","ios":"levelo://app?vid=c54fbd3e-208e-47df-af26-714f2d22e730"},"vehicle_type_id":"4","last_reported":1687460775,"current_range_meters":9200,"station_id":"ce4bhr92rcd13ifvqhrg","pricing_plan_id":"free"},{"bike_id":"a58bf0bd-7a44-4383-a7d8-c3c2143f811f","system_id":"levelo_inurba_marseille","lat":43.33047,"lon":5.38916,"is_reserved":false,"is_disabled":false,"rental_uris":{"android":"levelo://app?vid=a58bf0bd-7a44-4383-a7d8-c3c2143f811f","ios":"levelo://app?vid=a58bf0bd-7a44-4383-a7d8-c3c2143f811f"},"vehicle_type_id":"4","last_reported":1687460775,"current_range_meters":14000,"station_id":"ce4bhr92rcd13ifvqhrg","pricing_plan_id":"free"},{"bike_id":"c73d2cc7-61ec-4fd2-a002-ffa050603a67","system_id":"levelo_inurba_marseille","lat":43.33038,"lon":5.38937,"is_reserved":false,"is_disabled":false,"rental_uris":{"android":"levelo://app?vid=c73d2cc7-61ec-4fd2-a002-ffa050603a67","ios":"levelo://app?vid=c73d2cc7-61ec-4fd2-a002-ffa050603a67"},"vehicle_type_id":"4","last_reported":1687460775,"current_range_meters":31200,"station_id":"ce4bhr92rcd13ifvqhrg","pricing_plan_id":"free"},{"bike_id":"66ecb548-7f23-48e4-af28-64a9d5132651","system_id":"levelo_inurba_marseille","lat":43.295169,"lon":5.390426,"is_reserved":false,"is_disabled":false,"rental_uris":{"android":"levelo://app?vid=66ecb548-7f23-48e4-af28-64a9d5132651","ios":"levelo://app?vid=66ecb548-7f23-48e4-af28-64a9d5132651"},"vehicle_type_id":"4","last_reported":1687460775,"current_range_meters":0,"station_id":"ce4bh3p2rcd13ifvqdp0","pricing_plan_id":"free"},{"bike_id":"84a063fe-0dcd-4148-9ce8-38ac5f4b2e9c","system_id":"levelo_inurba_marseille","lat":43.295169,"lon":5.390426,"is_reserved":false,"is_disabled":false,"rental_uris":{"android":"levelo://app?vid=84a063fe-0dcd-4148-9ce8-38ac5f4b2e9c","ios":"levelo://app?vid=84a063fe-0dcd-4148-9ce8-38ac5f4b2e9c"},"vehicle_type_id":"4","last_reported":1687460775,"current_range_meters":8000,"station_id":"ce4bh3p2rcd13ifvqdp0","pricing_plan_id":"free"},{"bike_id":"7c97d708-2301-4e23-a349-e8593b06fa54","system_id":"levelo_inurba_marseille","lat":43.295169,"lon":5.390426,"is_reserved":false,"is_disabled":false,"rental_uris":{"android":"levelo://app?vid=7c97d708-2301-4e23-a349-e8593b06fa54","ios":"levelo://app?vid=7c97d708-2301-4e23-a349-e8593b06fa54"},"vehicle_type_id":"4","last_reported":1687460775,"current_range_meters":16800,"station_id":"ce4bh3p2rcd13ifvqdp0","pricing_plan_id":"free"},{"bike_id":"5ad4311b-e9af-4359-897f-b6db0119531e","system_id":"levelo_inurba_marseille","lat":43.2901,"lon":5.381269,"is_reserved":false,"is_disabled":false,"rental_uris":{"android":"levelo://app?vid=5ad4311b-e9af-4359-897f-b6db0119531e","ios":"levelo://app?vid=5ad4311b-e9af-4359-897f-b6db0119531e"},"vehicle_type_id":"4","last_reported":1687460775,"current_range_meters":0,"station_id":"ce4bh4p2rcd13ifvqe1g","pricing_plan_id":"free"},{"bike_id":"79d369d3-f5a8-4733-b639-2bfb27acdca8","system_id":"levelo_inurba_marseille","lat":43.2885,"lon":5.3586,"is_reserved":false,"is_disabled":false,"rental_uris":{"android":"levelo://app?vid=79d369d3-f5a8-4733-b639-2bfb27acdca8","ios":"levelo://app?vid=79d369d3-f5a8-4733-b639-2bfb27acdca8"},"vehicle_type_id":"4","last_reported":1687460775,"current_range_meters":0,"station_id":"ce4bhb12rcd13ifvqem0","pricing_plan_id":"free"},{"bike_id":"3f8a925a-6a54-4259-a38f-9cf091aab246","system_id":"levelo_inurba_marseille","lat":43.29261,"lon":5.38751,"is_reserved":false,"is_disabled":false,"rental_uris":{"android":"levelo://app?vid=3f8a925a-6a54-4259-a38f-9cf091aab246","ios":"levelo://app?vid=3f8a925a-6a54-4259-a38f-9cf091aab246"},"vehicle_type_id":"4","last_reported":1687460775,"current_range_meters":28800,"station_id":"","pricing_plan_id":"free"},{"bike_id":"3de20f9e-803f-4120-b6b0-cc371bb19a40","system_id":"levelo_inurba_marseille","lat":43.3094,"lon":5.4014,"is_reserved":false,"is_disabled":false,"rental_uris":{"android":"levelo://app?vid=3de20f9e-803f-4120-b6b0-cc371bb19a40","ios":"levelo://app?vid=3de20f9e-803f-4120-b6b0-cc371bb19a40"},"vehicle_type_id":"4","last_reported":1687460775,"current_range_meters":0,"station_id":"ce4bgvp2rcd13ifvqct0","pricing_plan_id":"free"},{"bike_id":"c180ae38-f769-441f-8a55-5a6e4930e6ad","system_id":"levelo_inurba_marseille","lat":43.33752,"lon":5.374282,"is_reserved":false,"is_disabled":false,"rental_uris":{"android":"levelo://app?vid=c180ae38-f769-441f-8a55-5a6e4930e6ad","ios":"levelo://app?vid=c180ae38-f769-441f-8a55-5a6e4930e6ad"},"vehicle_type_id":"4","last_reported":1687460775,"current_range_meters":28000,"station_id":"","pricing_plan_id":"free"},{"bike_id":"d74474a7-d1ea-4940-94c7-db1e07163ef0","system_id":"levelo_inurba_marseille","lat":43.337482,"lon":5.374726,"is_reserved":false,"is_disabled":false,"rental_uris":{"android":"levelo://app?vid=d74474a7-d1ea-4940-94c7-db1e07163ef0","ios":"levelo://app?vid=d74474a7-d1ea-4940-94c7-db1e07163ef0"},"vehicle_type_id":"4","last_reported":1687460775,"current_range_meters":11600,"station_id":"","pricing_plan_id":"free"},{"bike_id":"3433a528-dd6a-4ac7-b9d2-b8d42e81ea38","system_id":"levelo_inurba_marseille","lat":43.33748,"lon":5.37483,"is_reserved":false,"is_disabled":false,"rental_uris":{"android":"levelo://app?vid=3433a528-dd6a-4ac7-b9d2-b8d42e81ea38","ios":"levelo://app?vid=3433a528-dd6a-4ac7-b9d2-b8d42e81ea38"},"vehicle_type_id":"4","last_reported":1687460775,"current_range_meters":26400,"station_id":"","pricing_plan_id":"free"},{"bike_id":"71a50c1f-09f0-47f2-bd28-cfcd0711a6bd","system_id":"levelo_inurba_marseille","lat":43.33755,"lon":5.3745,"is_reserved":false,"is_disabled":false,"rental_uris":{"android":"levelo://app?vid=71a50c1f-09f0-47f2-bd28-cfcd0711a6bd","ios":"levelo://app?vid=71a50c1f-09f0-47f2-bd28-cfcd0711a6bd"},"vehicle_type_id":"4","last_reported":1687460775,"current_range_meters":29600,"station_id":"","pricing_plan_id":"free"},{"bike_id":"b0bd3bcb-bd35-4f75-8285-8f528f09b8d5","system_id":"levelo_inurba_marseille","lat":43.337575,"lon":5.374489,"is_reserved":false,"is_disabled":false,"rental_uris":{"android":"levelo://app?vid=b0bd3bcb-bd35-4f75-8285-8f528f09b8d5","ios":"levelo://app?vid=b0bd3bcb-bd35-4f75-8285-8f528f09b8d5"},"vehicle_type_id":"4","last_reported":1687460775,"current_range_meters":15200,"station_id":"","pricing_plan_id":"free"},{"bike_id":"5f1275df-b60b-4e38-a835-ffc327f91b07","system_id":"levelo_inurba_marseille","lat":43.30642,"lon":5.401031,"is_reserved":false,"is_disabled":false,"rental_uris":{"android":"levelo://app?vid=5f1275df-b60b-4e38-a835-ffc327f91b07","ios":"levelo://app?vid=5f1275df-b60b-4e38-a835-ffc327f91b07"},"vehicle_type_id":"4","last_reported":1687460775,"current_range_meters":0,"station_id":"ce4bh112rcd13ifvqda0","pricing_plan_id":"free"},{"bike_id":"879c8caf-1d75-403e-b55e-c8449d97c576","system_id":"levelo_inurba_marseille","lat":43.301117,"lon":5.398795,"is_reserved":false,"is_disabled":false,"rental_uris":{"android":"levelo://app?vid=879c8caf-1d75-403e-b55e-c8449d97c576","ios":"levelo://app?vid=879c8caf-1d75-403e-b55e-c8449d97c576"},"vehicle_type_id":"4","last_reported":1687460775,"current_range_meters":24400,"station_id":"ce4bh0h2rcd13ifvqd40","pricing_plan_id":"free"},{"bike_id":"d8a45eab-c666-47db-977d-39632631e7bb","system_id":"levelo_inurba_marseille","lat":43.286961,"lon":5.373785,"is_reserved":false,"is_disabled":false,"rental_uris":{"android":"levelo://app?vid=d8a45eab-c666-47db-977d-39632631e7bb","ios":"levelo://app?vid=d8a45eab-c666-47db-977d-39632631e7bb"},"vehicle_type_id":"4","last_reported":1687460775,"current_range_meters":6800,"station_id":"ce4bh3p2rcd13ifvqdq0","pricing_plan_id":"free"},{"bike_id":"73bb4652-6e61-4b3e-bd83-ee6f01647d93","system_id":"levelo_inurba_marseille","lat":43.286591,"lon":5.363346,"is_reserved":false,"is_disabled":false,"rental_uris":{"android":"levelo://app?vid=73bb4652-6e61-4b3e-bd83-ee6f01647d93","ios":"levelo://app?vid=73bb4652-6e61-4b3e-bd83-ee6f01647d93"},"vehicle_type_id":"4","last_reported":1687460775,"current_range_meters":22400,"station_id":"ce4bhah2rcd13ifvqej0","pricing_plan_id":"free"},{"bike_id":"8cf66d58-cbac-46a9-8904-af5302a19104","system_id":"levelo_inurba_marseille","lat":43.286593,"lon":5.363346,"is_reserved":false,"is_disabled":false,"rental_uris":{"android":"levelo://app?vid=8cf66d58-cbac-46a9-8904-af5302a19104","ios":"levelo://app?vid=8cf66d58-cbac-46a9-8904-af5302a19104"},"vehicle_type_id":"4","last_reported":1687460775,"current_range_meters":7600,"station_id":"ce4bhah2rcd13ifvqej0","pricing_plan_id":"free"},{"bike_id":"65695815-9992-4c58-b585-146bb264d540","system_id":"levelo_inurba_marseille","lat":43.286961,"lon":5.373785,"is_reserved":false,"is_disabled":false,"rental_uris":{"android":"levelo://app?vid=65695815-9992-4c58-b585-146bb264d540","ios":"levelo://app?vid=65695815-9992-4c58-b585-146bb264d540"},"vehicle_type_id":"4","last_reported":1687460775,"current_range_meters":26400,"station_id":"ce4bh3p2rcd13ifvqdq0","pricing_plan_id":"free"},{"bike_id":"fd723d0d-38b4-4ccb-a0bb-81fde69dff62","system_id":"levelo_inurba_marseille","lat":43.302759,"lon":5.400793,"is_reserved":false,"is_disabled":false,"rental_uris":{"android":"levelo://app?vid=fd723d0d-38b4-4ccb-a0bb-81fde69dff62","ios":"levelo://app?vid=fd723d0d-38b4-4ccb-a0bb-81fde69dff62"},"vehicle_type_id":"4","last_reported":1687460775,"current_range_meters":20400,"station_id":"ce4bgvh2rcd13ifvqcs0","pricing_plan_id":"free"},{"bike_id":"8f58ce72-9f61-43bd-9615-261703c9a32d","system_id":"levelo_inurba_marseille","lat":43.290336,"lon":5.386425,"is_reserved":false,"is_disabled":false,"rental_uris":{"android":"levelo://app?vid=8f58ce72-9f61-43bd-9615-261703c9a32d","ios":"levelo://app?vid=8f58ce72-9f61-43bd-9615-261703c9a32d"},"vehicle_type_id":"4","last_reported":1687460775,"current_range_meters":2000,"station_id":"ce4bh4p2rcd13ifvqe0g","pricing_plan_id":"free"},{"bike_id":"ab010165-f7e9-4c63-bff5-2af05fac4cfa","system_id":"levelo_inurba_marseille","lat":43.286039,"lon":5.370681,"is_reserved":false,"is_disabled":false,"rental_uris":{"android":"levelo://app?vid=ab010165-f7e9-4c63-bff5-2af05fac4cfa","ios":"levelo://app?vid=ab010165-f7e9-4c63-bff5-2af05fac4cfa"},"vehicle_type_id":"4","last_reported":1687460775,"current_range_meters":23600,"station_id":"ce4bht12rcd13ifvqi60","pricing_plan_id":"free"},{"bike_id":"df9a8e73-0389-4f47-829b-cd1b755ce462","system_id":"levelo_inurba_marseille","lat":43.286039,"lon":5.370681,"is_reserved":false,"is_disabled":false,"rental_uris":{"android":"levelo://app?vid=df9a8e73-0389-4f47-829b-cd1b755ce462","ios":"levelo://app?vid=df9a8e73-0389-4f47-829b-cd1b755ce462"},"vehicle_type_id":"4","last_reported":1687460775,"current_range_meters":26800,"station_id":"ce4bht12rcd13ifvqi60","pricing_plan_id":"free"},{"bike_id":"1b49e415-a5b8-4013-ba5d-142e81c3047c","system_id":"levelo_inurba_marseille","lat":43.291994,"lon":5.392907,"is_reserved":false,"is_disabled":false,"rental_uris":{"android":"levelo://app?vid=1b49e415-a5b8-4013-ba5d-142e81c3047c","ios":"levelo://app?vid=1b49e415-a5b8-4013-ba5d-142e81c3047c"},"vehicle_type_id":"4","last_reported":1687460775,"current_range_meters":0,"station_id":"ce4bh192rcd13ifvqdd0","pricing_plan_id":"free"},{"bike_id":"2cf4ab0b-9e86-4969-a6ee-e04688ea3c26","system_id":"levelo_inurba_marseille","lat":43.291994,"lon":5.392907,"is_reserved":false,"is_disabled":false,"rental_uris":{"android":"levelo://app?vid=2cf4ab0b-9e86-4969-a6ee-e04688ea3c26","ios":"levelo://app?vid=2cf4ab0b-9e86-4969-a6ee-e04688ea3c26"},"vehicle_type_id":"4","last_reported":1687460775,"current_range_meters":26000,"station_id":"ce4bh192rcd13ifvqdd0","pricing_plan_id":"free"},{"bike_id":"3ddd323c-86f9-46cb-bd66-758bd6e88cf9","system_id":"levelo_inurba_marseille","lat":43.29197,"lon":5.39336,"is_reserved":false,"is_disabled":false,"rental_uris":{"android":"levelo://app?vid=3ddd323c-86f9-46cb-bd66-758bd6e88cf9","ios":"levelo://app?vid=3ddd323c-86f9-46cb-bd66-758bd6e88cf9"},"vehicle_type_id":"4","last_reported":1687460775,"current_range_meters":13600,"station_id":"","pricing_plan_id":"free"},{"bike_id":"f05b7ad8-ad73-4cb3-9cb6-2bee9101b150","system_id":"levelo_inurba_marseille","lat":43.28462,"lon":5.35887,"is_reserved":false,"is_disabled":false,"rental_uris":{"android":"levelo://app?vid=f05b7ad8-ad73-4cb3-9cb6-2bee9101b150","ios":"levelo://app?vid=f05b7ad8-ad73-4cb3-9cb6-2bee9101b150"},"vehicle_type_id":"4","last_reported":1687460775,"current_range_meters":31200,"station_id":"ce4bhah2rcd13ifvqei0","pricing_plan_id":"free"},{"bike_id":"725eb368-1643-4e85-b338-8698e9cd74af","system_id":"levelo_inurba_marseille","lat":43.284534,"lon":5.358662,"is_reserved":false,"is_disabled":false,"rental_uris":{"android":"levelo://app?vid=725eb368-1643-4e85-b338-8698e9cd74af","ios":"levelo://app?vid=725eb368-1643-4e85-b338-8698e9cd74af"},"vehicle_type_id":"4","last_reported":1687460775,"current_range_meters":28800,"station_id":"ce4bhah2rcd13ifvqei0","pricing_plan_id":"free"},{"bike_id":"ff2ba0b3-a3d9-4154-8b98-eeada08c8f5c","system_id":"levelo_inurba_marseille","lat":43.28457,"lon":5.35893,"is_reserved":false,"is_disabled":false,"rental_uris":{"android":"levelo://app?vid=ff2ba0b3-a3d9-4154-8b98-eeada08c8f5c","ios":"levelo://app?vid=ff2ba0b3-a3d9-4154-8b98-eeada08c8f5c"},"vehicle_type_id":"4","last_reported":1687460775,"current_range_meters":22000,"station_id":"ce4bhah2rcd13ifvqei0","pricing_plan_id":"free"},{"bike_id":"29306571-2e45-4f1d-b544-ac7300e21bef","system_id":"levelo_inurba_marseille","lat":43.28458,"lon":5.35886,"is_reserved":false,"is_disabled":false,"rental_uris":{"android":"levelo://app?vid=29306571-2e45-4f1d-b544-ac7300e21bef","ios":"levelo://app?vid=29306571-2e45-4f1d-b544-ac7300e21bef"},"vehicle_type_id":"4","last_reported":1687460775,"current_range_meters":10800,"station_id":"ce4bhah2rcd13ifvqei0","pricing_plan_id":"free"},{"bike_id":"4a6fb75d-d8de-4e59-8439-4a9e54d43c8a","system_id":"levelo_inurba_marseille","lat":43.28456,"lon":5.35893,"is_reserved":false,"is_disabled":false,"rental_uris":{"android":"levelo://app?vid=4a6fb75d-d8de-4e59-8439-4a9e54d43c8a","ios":"levelo://app?vid=4a6fb75d-d8de-4e59-8439-4a9e54d43c8a"},"vehicle_type_id":"4","last_reported":1687460775,"current_range_meters":8400,"station_id":"ce4bhah2rcd13ifvqei0","pricing_plan_id":"free"},{"bike_id":"cb27c4aa-b4e2-42c9-bc1f-03a16e319d84","system_id":"levelo_inurba_marseille","lat":43.28455,"lon":5.35883,"is_reserved":false,"is_disabled":false,"rental_uris":{"android":"levelo://app?vid=cb27c4aa-b4e2-42c9-bc1f-03a16e319d84","ios":"levelo://app?vid=cb27c4aa-b4e2-42c9-bc1f-03a16e319d84"},"vehicle_type_id":"4","last_reported":1687460775,"current_range_meters":0,"station_id":"ce4bhah2rcd13ifvqei0","pricing_plan_id":"free"},{"bike_id":"a9e3a32b-e89b-4983-baea-ebccb96d5e5f","system_id":"levelo_inurba_marseille","lat":43.28621,"lon":5.3511,"is_reserved":false,"is_disabled":false,"rental_uris":{"android":"levelo://app?vid=a9e3a32b-e89b-4983-baea-ebccb96d5e5f","ios":"levelo://app?vid=a9e3a32b-e89b-4983-baea-ebccb96d5e5f"},"vehicle_type_id":"4","last_reported":1687460775,"current_range_meters":13200,"station_id":"ce4bhch2rcd13ifvqeug","pricing_plan_id":"free"},{"bike_id":"8eb28708-2b36-4d40-bed9-1e9a9e4513c1","system_id":"levelo_inurba_marseille","lat":43.285856,"lon":5.350771,"is_reserved":false,"is_disabled":false,"rental_uris":{"android":"levelo://app?vid=8eb28708-2b36-4d40-bed9-1e9a9e4513c1","ios":"levelo://app?vid=8eb28708-2b36-4d40-bed9-1e9a9e4513c1"},"vehicle_type_id":"4","last_reported":1687460775,"current_range_meters":31600,"station_id":"ce4bhch2rcd13ifvqeug","pricing_plan_id":"free"},{"bike_id":"981589d7-f396-46fc-b80f-95b64654dc81","system_id":"levelo_inurba_marseille","lat":43.28613,"lon":5.35107,"is_reserved":false,"is_disabled":false,"rental_uris":{"android":"levelo://app?vid=981589d7-f396-46fc-b80f-95b64654dc81","ios":"levelo://app?vid=981589d7-f396-46fc-b80f-95b64654dc81"},"vehicle_type_id":"4","last_reported":1687460775,"current_range_meters":0,"station_id":"ce4bhch2rcd13ifvqeug","pricing_plan_id":"free"},{"bike_id":"d50e724c-72c9-416d-ba6d-8967d4846434","system_id":"levelo_inurba_marseille","lat":43.2861,"lon":5.35104,"is_reserved":false,"is_disabled":false,"rental_uris":{"android":"levelo://app?vid=d50e724c-72c9-416d-ba6d-8967d4846434","ios":"levelo://app?vid=d50e724c-72c9-416d-ba6d-8967d4846434"},"vehicle_type_id":"4","last_reported":1687460775,"current_range_meters":31200,"station_id":"ce4bhch2rcd13ifvqeug","pricing_plan_id":"free"},{"bike_id":"f5dd5919-cef5-4228-b7a6-b326a744f0ca","system_id":"levelo_inurba_marseille","lat":43.29568,"lon":5.39961,"is_reserved":false,"is_disabled":false,"rental_uris":{"android":"levelo://app?vid=f5dd5919-cef5-4228-b7a6-b326a744f0ca","ios":"levelo://app?vid=f5dd5919-cef5-4228-b7a6-b326a744f0ca"},"vehicle_type_id":"4","last_reported":1687460775,"current_range_meters":18000,"station_id":"ce4bh312rcd13ifvqdj0","pricing_plan_id":"free"},{"bike_id":"4d2a5477-9537-4fb7-ab49-73ac44c83da7","system_id":"levelo_inurba_marseille","lat":43.28409,"lon":5.37521,"is_reserved":false,"is_disabled":false,"rental_uris":{"android":"levelo://app?vid=4d2a5477-9537-4fb7-ab49-73ac44c83da7","ios":"levelo://app?vid=4d2a5477-9537-4fb7-ab49-73ac44c83da7"},"vehicle_type_id":"4","last_reported":1687460775,"current_range_meters":2000,"station_id":"ce4bh412rcd13ifvqds0","pricing_plan_id":"free"},{"bike_id":"3c5e7569-37d0-4087-9cad-6381952c9d04","system_id":"levelo_inurba_marseille","lat":43.283998,"lon":5.375062,"is_reserved":false,"is_disabled":false,"rental_uris":{"android":"levelo://app?vid=3c5e7569-37d0-4087-9cad-6381952c9d04","ios":"levelo://app?vid=3c5e7569-37d0-4087-9cad-6381952c9d04"},"vehicle_type_id":"4","last_reported":1687460775,"current_range_meters":0,"station_id":"ce4bh412rcd13ifvqds0","pricing_plan_id":"free"},{"bike_id":"2a529030-238d-43d0-83e9-e05430ca411f","system_id":"levelo_inurba_marseille","lat":43.28406,"lon":5.37525,"is_reserved":false,"is_disabled":false,"rental_uris":{"android":"levelo://app?vid=2a529030-238d-43d0-83e9-e05430ca411f","ios":"levelo://app?vid=2a529030-238d-43d0-83e9-e05430ca411f"},"vehicle_type_id":"4","last_reported":1687460775,"current_range_meters":14000,"station_id":"ce4bh412rcd13ifvqds0","pricing_plan_id":"free"},{"bike_id":"0c7b01b2-a828-415a-bdce-8e40035ac18a","system_id":"levelo_inurba_marseille","lat":43.286595,"lon":5.386795,"is_reserved":false,"is_disabled":false,"rental_uris":{"android":"levelo://app?vid=0c7b01b2-a828-415a-bdce-8e40035ac18a","ios":"levelo://app?vid=0c7b01b2-a828-415a-bdce-8e40035ac18a"},"vehicle_type_id":"4","last_reported":1687460775,"current_range_meters":8400,"station_id":"ce4bh492rcd13ifvqdug","pricing_plan_id":"free"},{"bike_id":"f6fda2f2-04f1-4377-bae3-2fc212d95c47","system_id":"levelo_inurba_marseille","lat":43.34237,"lon":5.36188,"is_reserved":false,"is_disabled":false,"rental_uris":{"android":"levelo://app?vid=f6fda2f2-04f1-4377-bae3-2fc212d95c47","ios":"levelo://app?vid=f6fda2f2-04f1-4377-bae3-2fc212d95c47"},"vehicle_type_id":"4","last_reported":1687460775,"current_range_meters":400,"station_id":"","pricing_plan_id":"free"},{"bike_id":"0ed91cf0-65b4-485f-bb66-78ee8d9b9ac7","system_id":"levelo_inurba_marseille","lat":43.32332,"lon":5.40624,"is_reserved":false,"is_disabled":false,"rental_uris":{"android":"levelo://app?vid=0ed91cf0-65b4-485f-bb66-78ee8d9b9ac7","ios":"levelo://app?vid=0ed91cf0-65b4-485f-bb66-78ee8d9b9ac7"},"vehicle_type_id":"4","last_reported":1687460775,"current_range_meters":8400,"station_id":"ce4bhq92rcd13ifvqhjg","pricing_plan_id":"free"},{"bike_id":"bd33a782-af7d-4601-a556-a65a2c0d1295","system_id":"levelo_inurba_marseille","lat":43.284793,"lon":5.384113,"is_reserved":false,"is_disabled":false,"rental_uris":{"android":"levelo://app?vid=bd33a782-af7d-4601-a556-a65a2c0d1295","ios":"levelo://app?vid=bd33a782-af7d-4601-a556-a65a2c0d1295"},"vehicle_type_id":"4","last_reported":1687460775,"current_range_meters":11600,"station_id":"ce4bh512rcd13ifvqe3g","pricing_plan_id":"free"},{"bike_id":"b4c950db-352f-4a1a-8e3c-c05101a6dad0","system_id":"levelo_inurba_marseille","lat":43.288497,"lon":5.393089,"is_reserved":false,"is_disabled":false,"rental_uris":{"android":"levelo://app?vid=b4c950db-352f-4a1a-8e3c-c05101a6dad0","ios":"levelo://app?vid=b4c950db-352f-4a1a-8e3c-c05101a6dad0"},"vehicle_type_id":"4","last_reported":1687460775,"current_range_meters":31200,"station_id":"ce4bh2p2rcd13ifvqdi0","pricing_plan_id":"free"},{"bike_id":"f24d5055-df43-4ebc-99b2-6791bdce80cf","system_id":"levelo_inurba_marseille","lat":43.289363,"lon":5.396322,"is_reserved":false,"is_disabled":false,"rental_uris":{"android":"levelo://app?vid=f24d5055-df43-4ebc-99b2-6791bdce80cf","ios":"levelo://app?vid=f24d5055-df43-4ebc-99b2-6791bdce80cf"},"vehicle_type_id":"4","last_reported":1687460775,"current_range_meters":11600,"station_id":"ce4bh3h2rcd13ifvqdn0","pricing_plan_id":"free"},{"bike_id":"c17bd354-bc6d-4436-8d2c-d9073d163e3f","system_id":"levelo_inurba_marseille","lat":43.289363,"lon":5.396322,"is_reserved":false,"is_disabled":false,"rental_uris":{"android":"levelo://app?vid=c17bd354-bc6d-4436-8d2c-d9073d163e3f","ios":"levelo://app?vid=c17bd354-bc6d-4436-8d2c-d9073d163e3f"},"vehicle_type_id":"4","last_reported":1687460775,"current_range_meters":28800,"station_id":"ce4bh3h2rcd13ifvqdn0","pricing_plan_id":"free"},{"bike_id":"86189781-d850-437f-8e23-c62f3a2a4db9","system_id":"levelo_inurba_marseille","lat":43.289363,"lon":5.396322,"is_reserved":false,"is_disabled":false,"rental_uris":{"android":"levelo://app?vid=86189781-d850-437f-8e23-c62f3a2a4db9","ios":"levelo://app?vid=86189781-d850-437f-8e23-c62f3a2a4db9"},"vehicle_type_id":"4","last_reported":1687460775,"current_range_meters":26800,"station_id":"ce4bh3h2rcd13ifvqdn0","pricing_plan_id":"free"},{"bike_id":"a9da09ef-0cc8-41ee-9abe-27f51abc86b9","system_id":"levelo_inurba_marseille","lat":43.29281,"lon":5.40114,"is_reserved":false,"is_disabled":false,"rental_uris":{"android":"levelo://app?vid=a9da09ef-0cc8-41ee-9abe-27f51abc86b9","ios":"levelo://app?vid=a9da09ef-0cc8-41ee-9abe-27f51abc86b9"},"vehicle_type_id":"4","last_reported":1687460775,"current_range_meters":29200,"station_id":"ce4bh312rcd13ifvqdk0","pricing_plan_id":"free"},{"bike_id":"fde19135-ea0d-4f2c-8712-17a93b0db536","system_id":"levelo_inurba_marseille","lat":43.29603,"lon":5.40481,"is_reserved":false,"is_disabled":false,"rental_uris":{"android":"levelo://app?vid=fde19135-ea0d-4f2c-8712-17a93b0db536","ios":"levelo://app?vid=fde19135-ea0d-4f2c-8712-17a93b0db536"},"vehicle_type_id":"4","last_reported":1687460775,"current_range_meters":13200,"station_id":"","pricing_plan_id":"free"},{"bike_id":"63f3b64f-d8f3-4c30-a711-267a88b0fb41","system_id":"levelo_inurba_marseille","lat":43.280382,"lon":5.369291,"is_reserved":false,"is_disabled":false,"rental_uris":{"android":"levelo://app?vid=63f3b64f-d8f3-4c30-a711-267a88b0fb41","ios":"levelo://app?vid=63f3b64f-d8f3-4c30-a711-267a88b0fb41"},"vehicle_type_id":"4","last_reported":1687460775,"current_range_meters":24000,"station_id":"ce4bha12rcd13ifvqef0","pricing_plan_id":"free"},{"bike_id":"3c951801-bcdb-4724-a1b9-c3005587d453","system_id":"levelo_inurba_marseille","lat":43.28039,"lon":5.369297,"is_reserved":false,"is_disabled":false,"rental_uris":{"android":"levelo://app?vid=3c951801-bcdb-4724-a1b9-c3005587d453","ios":"levelo://app?vid=3c951801-bcdb-4724-a1b9-c3005587d453"},"vehicle_type_id":"4","last_reported":1687460775,"current_range_meters":21600,"station_id":"ce4bha12rcd13ifvqef0","pricing_plan_id":"free"},{"bike_id":"f802147e-26b4-49a9-b6c5-60b58d6ee1bb","system_id":"levelo_inurba_marseille","lat":43.28039,"lon":5.369297,"is_reserved":false,"is_disabled":false,"rental_uris":{"android":"levelo://app?vid=f802147e-26b4-49a9-b6c5-60b58d6ee1bb","ios":"levelo://app?vid=f802147e-26b4-49a9-b6c5-60b58d6ee1bb"},"vehicle_type_id":"4","last_reported":1687460775,"current_range_meters":18400,"station_id":"ce4bha12rcd13ifvqef0","pricing_plan_id":"free"},{"bike_id":"8732715f-39db-4c6f-a4f6-1acf24b1480c","system_id":"levelo_inurba_marseille","lat":43.28039,"lon":5.369297,"is_reserved":false,"is_disabled":false,"rental_uris":{"android":"levelo://app?vid=8732715f-39db-4c6f-a4f6-1acf24b1480c","ios":"levelo://app?vid=8732715f-39db-4c6f-a4f6-1acf24b1480c"},"vehicle_type_id":"4","last_reported":1687460775,"current_range_meters":31600,"station_id":"ce4bha12rcd13ifvqef0","pricing_plan_id":"free"},{"bike_id":"89d2637f-b777-4a85-9263-b5837afc2db2","system_id":"levelo_inurba_marseille","lat":43.28983,"lon":5.39837,"is_reserved":false,"is_disabled":false,"rental_uris":{"android":"levelo://app?vid=89d2637f-b777-4a85-9263-b5837afc2db2","ios":"levelo://app?vid=89d2637f-b777-4a85-9263-b5837afc2db2"},"vehicle_type_id":"4","last_reported":1687460775,"current_range_meters":14800,"station_id":"","pricing_plan_id":"free"},{"bike_id":"35babcb6-b911-4bcb-a6c1-c2f599761888","system_id":"levelo_inurba_marseille","lat":43.28039,"lon":5.369297,"is_reserved":false,"is_disabled":false,"rental_uris":{"android":"levelo://app?vid=35babcb6-b911-4bcb-a6c1-c2f599761888","ios":"levelo://app?vid=35babcb6-b911-4bcb-a6c1-c2f599761888"},"vehicle_type_id":"4","last_reported":1687460775,"current_range_meters":800,"station_id":"ce4bha12rcd13ifvqef0","pricing_plan_id":"free"},{"bike_id":"6ceb940d-e01f-48f2-8994-5040b63e432a","system_id":"levelo_inurba_marseille","lat":43.28038,"lon":5.36944,"is_reserved":false,"is_disabled":false,"rental_uris":{"android":"levelo://app?vid=6ceb940d-e01f-48f2-8994-5040b63e432a","ios":"levelo://app?vid=6ceb940d-e01f-48f2-8994-5040b63e432a"},"vehicle_type_id":"4","last_reported":1687460775,"current_range_meters":12000,"station_id":"ce4bha12rcd13ifvqef0","pricing_plan_id":"free"},{"bike_id":"a17b0029-ca33-4798-baab-0f3eaa19db41","system_id":"levelo_inurba_marseille","lat":43.280382,"lon":5.369291,"is_reserved":false,"is_disabled":false,"rental_uris":{"android":"levelo://app?vid=a17b0029-ca33-4798-baab-0f3eaa19db41","ios":"levelo://app?vid=a17b0029-ca33-4798-baab-0f3eaa19db41"},"vehicle_type_id":"4","last_reported":1687460775,"current_range_meters":28800,"station_id":"ce4bha12rcd13ifvqef0","pricing_plan_id":"free"},{"bike_id":"bfbf1071-d3e2-42d2-8e14-a375cefa8a50","system_id":"levelo_inurba_marseille","lat":43.280382,"lon":5.369291,"is_reserved":false,"is_disabled":false,"rental_uris":{"android":"levelo://app?vid=bfbf1071-d3e2-42d2-8e14-a375cefa8a50","ios":"levelo://app?vid=bfbf1071-d3e2-42d2-8e14-a375cefa8a50"},"vehicle_type_id":"4","last_reported":1687460775,"current_range_meters":6400,"station_id":"ce4bha12rcd13ifvqef0","pricing_plan_id":"free"},{"bike_id":"50f3a798-ec79-4fe0-b285-1326ae52c348","system_id":"levelo_inurba_marseille","lat":43.290426,"lon":5.399584,"is_reserved":false,"is_disabled":false,"rental_uris":{"android":"levelo://app?vid=50f3a798-ec79-4fe0-b285-1326ae52c348","ios":"levelo://app?vid=50f3a798-ec79-4fe0-b285-1326ae52c348"},"vehicle_type_id":"4","last_reported":1687460775,"current_range_meters":0,"station_id":"","pricing_plan_id":"free"},{"bike_id":"7f295d86-e12b-48fb-a5f5-8e36c7ff6394","system_id":"levelo_inurba_marseille","lat":43.29041,"lon":5.399634,"is_reserved":false,"is_disabled":false,"rental_uris":{"android":"levelo://app?vid=7f295d86-e12b-48fb-a5f5-8e36c7ff6394","ios":"levelo://app?vid=7f295d86-e12b-48fb-a5f5-8e36c7ff6394"},"vehicle_type_id":"4","last_reported":1687460775,"current_range_meters":0,"station_id":"ce4bh392rcd13ifvqdm0","pricing_plan_id":"free"},{"bike_id":"9d294bb0-970a-48c2-9a8f-1a14bbe0822e","system_id":"levelo_inurba_marseille","lat":43.29041,"lon":5.399634,"is_reserved":false,"is_disabled":false,"rental_uris":{"android":"levelo://app?vid=9d294bb0-970a-48c2-9a8f-1a14bbe0822e","ios":"levelo://app?vid=9d294bb0-970a-48c2-9a8f-1a14bbe0822e"},"vehicle_type_id":"4","last_reported":1687460775,"current_range_meters":27200,"station_id":"ce4bh392rcd13ifvqdm0","pricing_plan_id":"free"},{"bike_id":"247fc742-2e60-4a06-93b5-18c7c3e21302","system_id":"levelo_inurba_marseille","lat":43.29041,"lon":5.399634,"is_reserved":false,"is_disabled":false,"rental_uris":{"android":"levelo://app?vid=247fc742-2e60-4a06-93b5-18c7c3e21302","ios":"levelo://app?vid=247fc742-2e60-4a06-93b5-18c7c3e21302"},"vehicle_type_id":"4","last_reported":1687460775,"current_range_meters":0,"station_id":"ce4bh392rcd13ifvqdm0","pricing_plan_id":"free"},{"bike_id":"78c59485-b2ac-480a-ab6d-c0c9010fb891","system_id":"levelo_inurba_marseille","lat":43.290412,"lon":5.399633,"is_reserved":false,"is_disabled":false,"rental_uris":{"android":"levelo://app?vid=78c59485-b2ac-480a-ab6d-c0c9010fb891","ios":"levelo://app?vid=78c59485-b2ac-480a-ab6d-c0c9010fb891"},"vehicle_type_id":"4","last_reported":1687460775,"current_range_meters":1200,"station_id":"ce4bh392rcd13ifvqdm0","pricing_plan_id":"free"},{"bike_id":"3c504285-6c62-427e-b186-a27f7ccec619","system_id":"levelo_inurba_marseille","lat":43.29034,"lon":5.39978,"is_reserved":false,"is_disabled":false,"rental_uris":{"android":"levelo://app?vid=3c504285-6c62-427e-b186-a27f7ccec619","ios":"levelo://app?vid=3c504285-6c62-427e-b186-a27f7ccec619"},"vehicle_type_id":"4","last_reported":1687460775,"current_range_meters":0,"station_id":"ce4bh392rcd13ifvqdm0","pricing_plan_id":"free"},{"bike_id":"c4163ea3-a29b-45e8-9ace-78563fe2fc47","system_id":"levelo_inurba_marseille","lat":43.281044,"lon":5.378308,"is_reserved":false,"is_disabled":false,"rental_uris":{"android":"levelo://app?vid=c4163ea3-a29b-45e8-9ace-78563fe2fc47","ios":"levelo://app?vid=c4163ea3-a29b-45e8-9ace-78563fe2fc47"},"vehicle_type_id":"4","last_reported":1687460775,"current_range_meters":16000,"station_id":"ce4bha12rcd13ifvqee0","pricing_plan_id":"free"},{"bike_id":"9221511d-696f-458e-ac0d-44754ddb4dc4","system_id":"levelo_inurba_marseille","lat":43.29041,"lon":5.399634,"is_reserved":false,"is_disabled":false,"rental_uris":{"android":"levelo://app?vid=9221511d-696f-458e-ac0d-44754ddb4dc4","ios":"levelo://app?vid=9221511d-696f-458e-ac0d-44754ddb4dc4"},"vehicle_type_id":"4","last_reported":1687460775,"current_range_meters":29600,"station_id":"ce4bh392rcd13ifvqdm0","pricing_plan_id":"free"},{"bike_id":"5f522344-ccc1-4299-9bf5-0e183ec1d3ea","system_id":"levelo_inurba_marseille","lat":43.29041,"lon":5.399634,"is_reserved":false,"is_disabled":false,"rental_uris":{"android":"levelo://app?vid=5f522344-ccc1-4299-9bf5-0e183ec1d3ea","ios":"levelo://app?vid=5f522344-ccc1-4299-9bf5-0e183ec1d3ea"},"vehicle_type_id":"4","last_reported":1687460775,"current_range_meters":12400,"station_id":"ce4bh392rcd13ifvqdm0","pricing_plan_id":"free"},{"bike_id":"3cd10ad7-a316-4ed6-a3d9-f31d3f3622ac","system_id":"levelo_inurba_marseille","lat":43.34468,"lon":5.3782,"is_reserved":false,"is_disabled":false,"rental_uris":{"android":"levelo://app?vid=3cd10ad7-a316-4ed6-a3d9-f31d3f3622ac","ios":"levelo://app?vid=3cd10ad7-a316-4ed6-a3d9-f31d3f3622ac"},"vehicle_type_id":"4","last_reported":1687460775,"current_range_meters":4800,"station_id":"","pricing_plan_id":"free"},{"bike_id":"ff60adae-f71a-4e2f-9c03-c28e9ecc3c45","system_id":"levelo_inurba_marseille","lat":43.32738,"lon":5.4076,"is_reserved":false,"is_disabled":false,"rental_uris":{"android":"levelo://app?vid=ff60adae-f71a-4e2f-9c03-c28e9ecc3c45","ios":"levelo://app?vid=ff60adae-f71a-4e2f-9c03-c28e9ecc3c45"},"vehicle_type_id":"4","last_reported":1687460775,"current_range_meters":13600,"station_id":"","pricing_plan_id":"free"},{"bike_id":"dd190c74-fb09-4c21-85a7-f1463ffc1402","system_id":"levelo_inurba_marseille","lat":43.32584,"lon":5.40926,"is_reserved":false,"is_disabled":false,"rental_uris":{"android":"levelo://app?vid=dd190c74-fb09-4c21-85a7-f1463ffc1402","ios":"levelo://app?vid=dd190c74-fb09-4c21-85a7-f1463ffc1402"},"vehicle_type_id":"4","last_reported":1687460775,"current_range_meters":0,"station_id":"","pricing_plan_id":"free"},{"bike_id":"cc8750d2-bae6-41dc-bf3a-764b42f56e15","system_id":"levelo_inurba_marseille","lat":43.28451,"lon":5.39195,"is_reserved":false,"is_disabled":false,"rental_uris":{"android":"levelo://app?vid=cc8750d2-bae6-41dc-bf3a-764b42f56e15","ios":"levelo://app?vid=cc8750d2-bae6-41dc-bf3a-764b42f56e15"},"vehicle_type_id":"4","last_reported":1687460775,"current_range_meters":22800,"station_id":"ce4bhoh2rcd13ifvqh5g","pricing_plan_id":"free"},{"bike_id":"7c2124dd-b579-4124-a196-ec28d72328f1","system_id":"levelo_inurba_marseille","lat":43.28438,"lon":5.39209,"is_reserved":false,"is_disabled":false,"rental_uris":{"android":"levelo://app?vid=7c2124dd-b579-4124-a196-ec28d72328f1","ios":"levelo://app?vid=7c2124dd-b579-4124-a196-ec28d72328f1"},"vehicle_type_id":"4","last_reported":1687460775,"current_range_meters":19200,"station_id":"ce4bhoh2rcd13ifvqh5g","pricing_plan_id":"free"},{"bike_id":"243f77b3-4fe6-483f-8e03-44000bfbcf8a","system_id":"levelo_inurba_marseille","lat":43.32659,"lon":5.40994,"is_reserved":false,"is_disabled":false,"rental_uris":{"android":"levelo://app?vid=243f77b3-4fe6-483f-8e03-44000bfbcf8a","ios":"levelo://app?vid=243f77b3-4fe6-483f-8e03-44000bfbcf8a"},"vehicle_type_id":"4","last_reported":1687460775,"current_range_meters":800,"station_id":"ce4bhpp2rcd13ifvqhgg","pricing_plan_id":"free"},{"bike_id":"fc2a51fe-3bf8-46f3-9fe8-f24612d4a02a","system_id":"levelo_inurba_marseille","lat":43.326565,"lon":5.409975,"is_reserved":false,"is_disabled":false,"rental_uris":{"android":"levelo://app?vid=fc2a51fe-3bf8-46f3-9fe8-f24612d4a02a","ios":"levelo://app?vid=fc2a51fe-3bf8-46f3-9fe8-f24612d4a02a"},"vehicle_type_id":"4","last_reported":1687460775,"current_range_meters":10400,"station_id":"ce4bhpp2rcd13ifvqhgg","pricing_plan_id":"free"},{"bike_id":"a77765d3-22fe-49e6-a8e3-365f2fd7e433","system_id":"levelo_inurba_marseille","lat":43.279087,"lon":5.380114,"is_reserved":false,"is_disabled":false,"rental_uris":{"android":"levelo://app?vid=a77765d3-22fe-49e6-a8e3-365f2fd7e433","ios":"levelo://app?vid=a77765d3-22fe-49e6-a8e3-365f2fd7e433"},"vehicle_type_id":"4","last_reported":1687460775,"current_range_meters":0,"station_id":"ce4bhf92rcd13ifvqf50","pricing_plan_id":"free"},{"bike_id":"50fd953c-9754-45f4-aec7-ae52bb9eb6fe","system_id":"levelo_inurba_marseille","lat":43.287154,"lon":5.399979,"is_reserved":false,"is_disabled":false,"rental_uris":{"android":"levelo://app?vid=50fd953c-9754-45f4-aec7-ae52bb9eb6fe","ios":"levelo://app?vid=50fd953c-9754-45f4-aec7-ae52bb9eb6fe"},"vehicle_type_id":"4","last_reported":1687460775,"current_range_meters":24800,"station_id":"ce4bho92rcd13ifvqh3g","pricing_plan_id":"free"},{"bike_id":"f47d889e-f3a7-4cf7-b89b-498d12032e77","system_id":"levelo_inurba_marseille","lat":43.2929,"lon":5.40667,"is_reserved":false,"is_disabled":false,"rental_uris":{"android":"levelo://app?vid=f47d889e-f3a7-4cf7-b89b-498d12032e77","ios":"levelo://app?vid=f47d889e-f3a7-4cf7-b89b-498d12032e77"},"vehicle_type_id":"4","last_reported":1687460775,"current_range_meters":12800,"station_id":"","pricing_plan_id":"free"},{"bike_id":"78366d73-8ca6-4513-9676-a0395fedcafc","system_id":"levelo_inurba_marseille","lat":43.287154,"lon":5.399979,"is_reserved":false,"is_disabled":false,"rental_uris":{"android":"levelo://app?vid=78366d73-8ca6-4513-9676-a0395fedcafc","ios":"levelo://app?vid=78366d73-8ca6-4513-9676-a0395fedcafc"},"vehicle_type_id":"4","last_reported":1687460775,"current_range_meters":4000,"station_id":"ce4bho92rcd13ifvqh3g","pricing_plan_id":"free"},{"bike_id":"de5765f4-46b4-4169-a349-21b316e2c874","system_id":"levelo_inurba_marseille","lat":43.287154,"lon":5.399979,"is_reserved":false,"is_disabled":false,"rental_uris":{"android":"levelo://app?vid=de5765f4-46b4-4169-a349-21b316e2c874","ios":"levelo://app?vid=de5765f4-46b4-4169-a349-21b316e2c874"},"vehicle_type_id":"4","last_reported":1687460775,"current_range_meters":8000,"station_id":"ce4bho92rcd13ifvqh3g","pricing_plan_id":"free"},{"bike_id":"e94cb20b-e32e-4b6d-aaab-5d2977845089","system_id":"levelo_inurba_marseille","lat":43.299577,"lon":5.413277,"is_reserved":false,"is_disabled":false,"rental_uris":{"android":"levelo://app?vid=e94cb20b-e32e-4b6d-aaab-5d2977845089","ios":"levelo://app?vid=e94cb20b-e32e-4b6d-aaab-5d2977845089"},"vehicle_type_id":"4","last_reported":1687460775,"current_range_meters":14000,"station_id":"ce4bhp12rcd13ifvqh9g","pricing_plan_id":"free"},{"bike_id":"c118b61f-944a-46ab-a30d-38917bc94e40","system_id":"levelo_inurba_marseille","lat":43.320045,"lon":5.415048,"is_reserved":false,"is_disabled":false,"rental_uris":{"android":"levelo://app?vid=c118b61f-944a-46ab-a30d-38917bc94e40","ios":"levelo://app?vid=c118b61f-944a-46ab-a30d-38917bc94e40"},"vehicle_type_id":"4","last_reported":1687460775,"current_range_meters":8000,"station_id":"ce4bhq92rcd13ifvqhkg","pricing_plan_id":"free"},{"bike_id":"53f790db-6646-4a8e-b546-a29c2cdb0935","system_id":"levelo_inurba_marseille","lat":43.320045,"lon":5.415048,"is_reserved":false,"is_disabled":false,"rental_uris":{"android":"levelo://app?vid=53f790db-6646-4a8e-b546-a29c2cdb0935","ios":"levelo://app?vid=53f790db-6646-4a8e-b546-a29c2cdb0935"},"vehicle_type_id":"4","last_reported":1687460775,"current_range_meters":12000,"station_id":"ce4bhq92rcd13ifvqhkg","pricing_plan_id":"free"},{"bike_id":"c35898e7-b55a-408b-ab5d-e2dd461701cd","system_id":"levelo_inurba_marseille","lat":43.320045,"lon":5.415046,"is_reserved":false,"is_disabled":false,"rental_uris":{"android":"levelo://app?vid=c35898e7-b55a-408b-ab5d-e2dd461701cd","ios":"levelo://app?vid=c35898e7-b55a-408b-ab5d-e2dd461701cd"},"vehicle_type_id":"4","last_reported":1687460775,"current_range_meters":400,"station_id":"ce4bhq92rcd13ifvqhkg","pricing_plan_id":"free"},{"bike_id":"c6b91c52-a71d-4879-88c1-74cb97dd6224","system_id":"levelo_inurba_marseille","lat":43.292569,"lon":5.409107,"is_reserved":false,"is_disabled":false,"rental_uris":{"android":"levelo://app?vid=c6b91c52-a71d-4879-88c1-74cb97dd6224","ios":"levelo://app?vid=c6b91c52-a71d-4879-88c1-74cb97dd6224"},"vehicle_type_id":"4","last_reported":1687460775,"current_range_meters":24000,"station_id":"ce4bh192rcd13ifvqdc0","pricing_plan_id":"free"},{"bike_id":"167913a1-8f2d-4077-9dff-35e51510ce06","system_id":"levelo_inurba_marseille","lat":43.292569,"lon":5.409107,"is_reserved":false,"is_disabled":false,"rental_uris":{"android":"levelo://app?vid=167913a1-8f2d-4077-9dff-35e51510ce06","ios":"levelo://app?vid=167913a1-8f2d-4077-9dff-35e51510ce06"},"vehicle_type_id":"4","last_reported":1687460775,"current_range_meters":2000,"station_id":"ce4bh192rcd13ifvqdc0","pricing_plan_id":"free"},{"bike_id":"4599220e-450a-4ef5-9892-87ab81e245b1","system_id":"levelo_inurba_marseille","lat":43.29258,"lon":5.40909,"is_reserved":false,"is_disabled":false,"rental_uris":{"android":"levelo://app?vid=4599220e-450a-4ef5-9892-87ab81e245b1","ios":"levelo://app?vid=4599220e-450a-4ef5-9892-87ab81e245b1"},"vehicle_type_id":"4","last_reported":1687460775,"current_range_meters":22000,"station_id":"ce4bh192rcd13ifvqdc0","pricing_plan_id":"free"},{"bike_id":"b2c25e40-09f8-43d3-8955-74346676b375","system_id":"levelo_inurba_marseille","lat":43.27618,"lon":5.361009,"is_reserved":false,"is_disabled":false,"rental_uris":{"android":"levelo://app?vid=b2c25e40-09f8-43d3-8955-74346676b375","ios":"levelo://app?vid=b2c25e40-09f8-43d3-8955-74346676b375"},"vehicle_type_id":"4","last_reported":1687460775,"current_range_meters":6400,"station_id":"ce4bgj92rcd13ifvqbe0","pricing_plan_id":"free"},{"bike_id":"a1482ac7-6688-4a80-93c8-9aa72617681d","system_id":"levelo_inurba_marseille","lat":43.27618,"lon":5.361009,"is_reserved":false,"is_disabled":false,"rental_uris":{"android":"levelo://app?vid=a1482ac7-6688-4a80-93c8-9aa72617681d","ios":"levelo://app?vid=a1482ac7-6688-4a80-93c8-9aa72617681d"},"vehicle_type_id":"4","last_reported":1687460775,"current_range_meters":26000,"station_id":"ce4bgj92rcd13ifvqbe0","pricing_plan_id":"free"},{"bike_id":"4d495793-33ca-4df4-85fa-9470e76f969d","system_id":"levelo_inurba_marseille","lat":43.27616,"lon":5.36116,"is_reserved":false,"is_disabled":false,"rental_uris":{"android":"levelo://app?vid=4d495793-33ca-4df4-85fa-9470e76f969d","ios":"levelo://app?vid=4d495793-33ca-4df4-85fa-9470e76f969d"},"vehicle_type_id":"4","last_reported":1687460775,"current_range_meters":17600,"station_id":"ce4bgj92rcd13ifvqbe0","pricing_plan_id":"free"},{"bike_id":"e7ab150e-dcf6-4620-a3b5-e79fdeeb6168","system_id":"levelo_inurba_marseille","lat":43.32543,"lon":5.41444,"is_reserved":false,"is_disabled":false,"rental_uris":{"android":"levelo://app?vid=e7ab150e-dcf6-4620-a3b5-e79fdeeb6168","ios":"levelo://app?vid=e7ab150e-dcf6-4620-a3b5-e79fdeeb6168"},"vehicle_type_id":"4","last_reported":1687460775,"current_range_meters":28400,"station_id":"ce4bhq12rcd13ifvqhhg","pricing_plan_id":"free"},{"bike_id":"58fb4fb6-848e-4a8c-89aa-5823af6f6fd9","system_id":"levelo_inurba_marseille","lat":43.28085,"lon":5.3966,"is_reserved":false,"is_disabled":false,"rental_uris":{"android":"levelo://app?vid=58fb4fb6-848e-4a8c-89aa-5823af6f6fd9","ios":"levelo://app?vid=58fb4fb6-848e-4a8c-89aa-5823af6f6fd9"},"vehicle_type_id":"4","last_reported":1687460775,"current_range_meters":30800,"station_id":"ce4bho12rcd13ifvqh2g","pricing_plan_id":"free"},{"bike_id":"b228f470-f108-4964-a22a-5efec506ac08","system_id":"levelo_inurba_marseille","lat":43.33612,"lon":5.410321,"is_reserved":false,"is_disabled":false,"rental_uris":{"android":"levelo://app?vid=b228f470-f108-4964-a22a-5efec506ac08","ios":"levelo://app?vid=b228f470-f108-4964-a22a-5efec506ac08"},"vehicle_type_id":"4","last_reported":1687460775,"current_range_meters":12800,"station_id":"ce4bhqh2rcd13ifvqhmg","pricing_plan_id":"free"},{"bike_id":"21d2c550-b4fd-41b2-af24-29413185dc28","system_id":"levelo_inurba_marseille","lat":43.2783,"lon":5.39207,"is_reserved":false,"is_disabled":false,"rental_uris":{"android":"levelo://app?vid=21d2c550-b4fd-41b2-af24-29413185dc28","ios":"levelo://app?vid=21d2c550-b4fd-41b2-af24-29413185dc28"},"vehicle_type_id":"4","last_reported":1687460775,"current_range_meters":0,"station_id":"ce4bhjp2rcd13ifvqga0","pricing_plan_id":"free"},{"bike_id":"9d4bf93f-3851-49ba-9212-53071492bc17","system_id":"levelo_inurba_marseille","lat":43.336134,"lon":5.410341,"is_reserved":false,"is_disabled":false,"rental_uris":{"android":"levelo://app?vid=9d4bf93f-3851-49ba-9212-53071492bc17","ios":"levelo://app?vid=9d4bf93f-3851-49ba-9212-53071492bc17"},"vehicle_type_id":"4","last_reported":1687460775,"current_range_meters":17200,"station_id":"ce4bhqh2rcd13ifvqhmg","pricing_plan_id":"free"},{"bike_id":"8056bcbd-14c6-42d1-9526-bbc5048a5619","system_id":"levelo_inurba_marseille","lat":43.33612,"lon":5.410321,"is_reserved":false,"is_disabled":false,"rental_uris":{"android":"levelo://app?vid=8056bcbd-14c6-42d1-9526-bbc5048a5619","ios":"levelo://app?vid=8056bcbd-14c6-42d1-9526-bbc5048a5619"},"vehicle_type_id":"4","last_reported":1687460775,"current_range_meters":25200,"station_id":"ce4bhqh2rcd13ifvqhmg","pricing_plan_id":"free"},{"bike_id":"7113f49b-d6e1-4fb5-95d4-e9692c43b356","system_id":"levelo_inurba_marseille","lat":43.336134,"lon":5.410341,"is_reserved":false,"is_disabled":false,"rental_uris":{"android":"levelo://app?vid=7113f49b-d6e1-4fb5-95d4-e9692c43b356","ios":"levelo://app?vid=7113f49b-d6e1-4fb5-95d4-e9692c43b356"},"vehicle_type_id":"4","last_reported":1687460775,"current_range_meters":12000,"station_id":"ce4bhqh2rcd13ifvqhmg","pricing_plan_id":"free"},{"bike_id":"1b14a152-4fd1-4789-b42e-d0f5644a75f2","system_id":"levelo_inurba_marseille","lat":43.336134,"lon":5.410341,"is_reserved":false,"is_disabled":false,"rental_uris":{"android":"levelo://app?vid=1b14a152-4fd1-4789-b42e-d0f5644a75f2","ios":"levelo://app?vid=1b14a152-4fd1-4789-b42e-d0f5644a75f2"},"vehicle_type_id":"4","last_reported":1687460775,"current_range_meters":19600,"station_id":"ce4bhqh2rcd13ifvqhmg","pricing_plan_id":"free"},{"bike_id":"7159048f-887f-40b5-9d20-b12a57befb2a","system_id":"levelo_inurba_marseille","lat":43.336134,"lon":5.410341,"is_reserved":false,"is_disabled":false,"rental_uris":{"android":"levelo://app?vid=7159048f-887f-40b5-9d20-b12a57befb2a","ios":"levelo://app?vid=7159048f-887f-40b5-9d20-b12a57befb2a"},"vehicle_type_id":"4","last_reported":1687460775,"current_range_meters":28400,"station_id":"ce4bhqh2rcd13ifvqhmg","pricing_plan_id":"free"},{"bike_id":"d2dd41f5-a4b8-46de-ac72-b3bbf27aca53","system_id":"levelo_inurba_marseille","lat":43.317121,"lon":5.423936,"is_reserved":false,"is_disabled":false,"rental_uris":{"android":"levelo://app?vid=d2dd41f5-a4b8-46de-ac72-b3bbf27aca53","ios":"levelo://app?vid=d2dd41f5-a4b8-46de-ac72-b3bbf27aca53"},"vehicle_type_id":"4","last_reported":1687460775,"current_range_meters":25200,"station_id":"ce4bhp92rcd13ifvqhbg","pricing_plan_id":"free"},{"bike_id":"450194b0-55e9-4ca1-8074-7a3904d3d662","system_id":"levelo_inurba_marseille","lat":43.310785,"lon":5.424305,"is_reserved":false,"is_disabled":false,"rental_uris":{"android":"levelo://app?vid=450194b0-55e9-4ca1-8074-7a3904d3d662","ios":"levelo://app?vid=450194b0-55e9-4ca1-8074-7a3904d3d662"},"vehicle_type_id":"4","last_reported":1687460775,"current_range_meters":10400,"station_id":"ce4bhp92rcd13ifvqhag","pricing_plan_id":"free"},{"bike_id":"c6e0f6a4-d948-4c21-9a34-dea1eade76e3","system_id":"levelo_inurba_marseille","lat":43.317121,"lon":5.423936,"is_reserved":false,"is_disabled":false,"rental_uris":{"android":"levelo://app?vid=c6e0f6a4-d948-4c21-9a34-dea1eade76e3","ios":"levelo://app?vid=c6e0f6a4-d948-4c21-9a34-dea1eade76e3"},"vehicle_type_id":"4","last_reported":1687460775,"current_range_meters":5200,"station_id":"ce4bhp92rcd13ifvqhbg","pricing_plan_id":"free"},{"bike_id":"96af19eb-1eb6-44fb-85c0-fdac670e83eb","system_id":"levelo_inurba_marseille","lat":43.304096,"lon":5.425385,"is_reserved":false,"is_disabled":false,"rental_uris":{"android":"levelo://app?vid=96af19eb-1eb6-44fb-85c0-fdac670e83eb","ios":"levelo://app?vid=96af19eb-1eb6-44fb-85c0-fdac670e83eb"},