{"last_updated":1685234412,"ttl":30,"version":"2.2","data":{"bikes":[{"bike_id":"acf08d59-ec52-4e8f-9a37-896a500fdcb4","system_id":"levelo_inurba_marseille","lat":43.312239,"lon":5.368562,"is_reserved":false,"is_disabled":false,"rental_uris":{"android":"levelo://app?vid=acf08d59-ec52-4e8f-9a37-896a500fdcb4","ios":"levelo://app?vid=acf08d59-ec52-4e8f-9a37-896a500fdcb4"},"vehicle_type_id":"4","last_reported":1685234413,"current_range_meters":800,"station_id":"ce4bgl92rcd13ifvqbq0","pricing_plan_id":"free"},{"bike_id":"54716154-8db0-4266-ab8e-a58a594b5020","system_id":"levelo_inurba_marseille","lat":43.312239,"lon":5.368562,"is_reserved":false,"is_disabled":false,"rental_uris":{"android":"levelo://app?vid=54716154-8db0-4266-ab8e-a58a594b5020","ios":"levelo://app?vid=54716154-8db0-4266-ab8e-a58a594b5020"},"vehicle_type_id":"4","last_reported":1685234413,"current_range_meters":0,"station_id":"ce4bgl92rcd13ifvqbq0","pricing_plan_id":"free"},{"bike_id":"075b303d-fd8a-40fa-acf3-935ff42905b9","system_id":"levelo_inurba_marseille","lat":43.312239,"lon":5.368562,"is_reserved":false,"is_disabled":false,"rental_uris":{"android":"levelo://app?vid=075b303d-fd8a-40fa-acf3-935ff42905b9","ios":"levelo://app?vid=075b303d-fd8a-40fa-acf3-935ff42905b9"},"vehicle_type_id":"4","last_reported":1685234413,"current_range_meters":25200,"station_id":"ce4bgl92rcd13ifvqbq0","pricing_plan_id":"free"},{"bike_id":"03599b92-07a4-4470-ae7d-d44cbdcad97f","system_id":"levelo_inurba_marseille","lat":43.31235,"lon":5.36865,"is_reserved":false,"is_disabled":false,"rental_uris":{"android":"levelo://app?vid=03599b92-07a4-4470-ae7d-d44cbdcad97f","ios":"levelo://app?vid=03599b92-07a4-4470-ae7d-d44cbdcad97f"},"vehicle_type_id":"4","last_reported":1685234413,"current_range_meters":29200,"station_id":"ce4bgl92rcd13ifvqbq0","pricing_plan_id":"free"},{"bike_id":"79e42267-e5f2-44c4-97a2-1ea50a3ad8ac","system_id":"levelo_inurba_marseille","lat":43.31227,"lon":5.36864,"is_reserved":false,"is_disabled":false,"rental_uris":{"android":"levelo://app?vid=79e42267-e5f2-44c4-97a2-1ea50a3ad8ac","ios":"levelo://app?vid=79e42267-e5f2-44c4-97a2-1ea50a3ad8ac"},"vehicle_type_id":"4","last_reported":1685234413,"current_range_meters":30800,"station_id":"ce4bgl92rcd13ifvqbq0","pricing_plan_id":"free"},{"bike_id":"12e8f98e-800e-495b-ab80-51a570493864","system_id":"levelo_inurba_marseille","lat":43.312239,"lon":5.368562,"is_reserved":false,"is_disabled":false,"rental_uris":{"android":"levelo://app?vid=12e8f98e-800e-495b-ab80-51a570493864","ios":"levelo://app?vid=12e8f98e-800e-495b-ab80-51a570493864"},"vehicle_type_id":"4","last_reported":1685234413,"current_range_meters":25600,"station_id":"ce4bgl92rcd13ifvqbq0","pricing_plan_id":"free"},{"bike_id":"ee110a6c-389b-482b-88f3-0c275c83727e","system_id":"levelo_inurba_marseille","lat":43.312239,"lon":5.368562,"is_reserved":false,"is_disabled":false,"rental_uris":{"android":"levelo://app?vid=ee110a6c-389b-482b-88f3-0c275c83727e","ios":"levelo://app?vid=ee110a6c-389b-482b-88f3-0c275c83727e"},"vehicle_type_id":"4","last_reported":1685234413,"current_range_meters":18800,"station_id":"ce4bgl92rcd13ifvqbq0","pricing_plan_id":"free"},{"bike_id":"57469489-9058-4306-86b2-d63d9adfce16","system_id":"levelo_inurba_marseille","lat":43.31208,"lon":5.36862,"is_reserved":false,"is_disabled":false,"rental_uris":{"android":"levelo://app?vid=57469489-9058-4306-86b2-d63d9adfce16","ios":"levelo://app?vid=57469489-9058-4306-86b2-d63d9adfce16"},"vehicle_type_id":"4","last_reported":1685234413,"current_range_meters":27200,"station_id":"ce4bgl92rcd13ifvqbq0","pricing_plan_id":"free"},{"bike_id":"667033fb-c72a-4bb5-a994-76e4233ed5a0","system_id":"levelo_inurba_marseille","lat":43.314811,"lon":5.373103,"is_reserved":false,"is_disabled":false,"rental_uris":{"android":"levelo://app?vid=667033fb-c72a-4bb5-a994-76e4233ed5a0","ios":"levelo://app?vid=667033fb-c72a-4bb5-a994-76e4233ed5a0"},"vehicle_type_id":"4","last_reported":1685234413,"current_range_meters":30800,"station_id":"ce4bgt12rcd13ifvqcd0","pricing_plan_id":"free"},{"bike_id":"9ddb5361-5243-40b4-a8f9-dddba96b4ada","system_id":"levelo_inurba_marseille","lat":43.314811,"lon":5.373103,"is_reserved":false,"is_disabled":false,"rental_uris":{"android":"levelo://app?vid=9ddb5361-5243-40b4-a8f9-dddba96b4ada","ios":"levelo://app?vid=9ddb5361-5243-40b4-a8f9-dddba96b4ada"},"vehicle_type_id":"4","last_reported":1685234413,"current_range_meters":29200,"station_id":"ce4bgt12rcd13ifvqcd0","pricing_plan_id":"free"},{"bike_id":"271b9f02-3d05-4d0f-bc60-9ef42c2aceba","system_id":"levelo_inurba_marseille","lat":43.314811,"lon":5.373103,"is_reserved":false,"is_disabled":false,"rental_uris":{"android":"levelo://app?vid=271b9f02-3d05-4d0f-bc60-9ef42c2aceba","ios":"levelo://app?vid=271b9f02-3d05-4d0f-bc60-9ef42c2aceba"},"vehicle_type_id":"4","last_reported":1685234413,"current_range_meters":21600,"station_id":"ce4bgt12rcd13ifvqcd0","pricing_plan_id":"free"},{"bike_id":"0048c1dd-6865-4786-8657-80943829bac2","system_id":"levelo_inurba_marseille","lat":43.314811,"lon":5.373103,"is_reserved":false,"is_disabled":false,"rental_uris":{"android":"levelo://app?vid=0048c1dd-6865-4786-8657-80943829bac2","ios":"levelo://app?vid=0048c1dd-6865-4786-8657-80943829bac2"},"vehicle_type_id":"4","last_reported":1685234413,"current_range_meters":20000,"station_id":"ce4bgt12rcd13ifvqcd0","pricing_plan_id":"free"},{"bike_id":"4b35e01b-35b5-4443-ae3b-cfa5a1a5e07f","system_id":"levelo_inurba_marseille","lat":43.3149,"lon":5.37307,"is_reserved":false,"is_disabled":false,"rental_uris":{"android":"levelo://app?vid=4b35e01b-35b5-4443-ae3b-cfa5a1a5e07f","ios":"levelo://app?vid=4b35e01b-35b5-4443-ae3b-cfa5a1a5e07f"},"vehicle_type_id":"4","last_reported":1685234413,"current_range_meters":4000,"station_id":"ce4bgt12rcd13ifvqcd0","pricing_plan_id":"free"},{"bike_id":"e37c5480-aeae-4112-bda6-63cf0729ecb6","system_id":"levelo_inurba_marseille","lat":43.3149,"lon":5.37313,"is_reserved":false,"is_disabled":false,"rental_uris":{"android":"levelo://app?vid=e37c5480-aeae-4112-bda6-63cf0729ecb6","ios":"levelo://app?vid=e37c5480-aeae-4112-bda6-63cf0729ecb6"},"vehicle_type_id":"4","last_reported":1685234413,"current_range_meters":26400,"station_id":"ce4bgt12rcd13ifvqcd0","pricing_plan_id":"free"},{"bike_id":"7bb58c5b-d3cd-4500-b7be-09f6127da20e","system_id":"levelo_inurba_marseille","lat":43.308614,"lon":5.372098,"is_reserved":false,"is_disabled":false,"rental_uris":{"android":"levelo://app?vid=7bb58c5b-d3cd-4500-b7be-09f6127da20e","ios":"levelo://app?vid=7bb58c5b-d3cd-4500-b7be-09f6127da20e"},"vehicle_type_id":"4","last_reported":1685234413,"current_range_meters":23200,"station_id":"ce4bguh2rcd13ifvqckg","pricing_plan_id":"free"},{"bike_id":"15a79423-842c-4cc9-92fc-54b57333bb87","system_id":"levelo_inurba_marseille","lat":43.308614,"lon":5.372098,"is_reserved":false,"is_disabled":false,"rental_uris":{"android":"levelo://app?vid=15a79423-842c-4cc9-92fc-54b57333bb87","ios":"levelo://app?vid=15a79423-842c-4cc9-92fc-54b57333bb87"},"vehicle_type_id":"4","last_reported":1685234413,"current_range_meters":19600,"station_id":"ce4bguh2rcd13ifvqckg","pricing_plan_id":"free"},{"bike_id":"ad3bb206-72b8-4ff8-bf25-c14210887728","system_id":"levelo_inurba_marseille","lat":43.308614,"lon":5.372098,"is_reserved":false,"is_disabled":false,"rental_uris":{"android":"levelo://app?vid=ad3bb206-72b8-4ff8-bf25-c14210887728","ios":"levelo://app?vid=ad3bb206-72b8-4ff8-bf25-c14210887728"},"vehicle_type_id":"4","last_reported":1685234413,"current_range_meters":4000,"station_id":"ce4bguh2rcd13ifvqckg","pricing_plan_id":"free"},{"bike_id":"56034605-77ad-4184-b784-4f503b409eaf","system_id":"levelo_inurba_marseille","lat":43.30874,"lon":5.3719,"is_reserved":false,"is_disabled":false,"rental_uris":{"android":"levelo://app?vid=56034605-77ad-4184-b784-4f503b409eaf","ios":"levelo://app?vid=56034605-77ad-4184-b784-4f503b409eaf"},"vehicle_type_id":"4","last_reported":1685234413,"current_range_meters":25600,"station_id":"ce4bguh2rcd13ifvqckg","pricing_plan_id":"free"},{"bike_id":"5bdcb73e-d344-42a9-94f6-d1fb79c63856","system_id":"levelo_inurba_marseille","lat":43.3054,"lon":5.36533,"is_reserved":false,"is_disabled":false,"rental_uris":{"android":"levelo://app?vid=5bdcb73e-d344-42a9-94f6-d1fb79c63856","ios":"levelo://app?vid=5bdcb73e-d344-42a9-94f6-d1fb79c63856"},"vehicle_type_id":"4","last_reported":1685234413,"current_range_meters":19600,"station_id":"","pricing_plan_id":"free"},{"bike_id":"7bdfd563-5159-4bff-8301-885e118c08d4","system_id":"levelo_inurba_marseille","lat":43.305989,"lon":5.37225,"is_reserved":false,"is_disabled":false,"rental_uris":{"android":"levelo://app?vid=7bdfd563-5159-4bff-8301-885e118c08d4","ios":"levelo://app?vid=7bdfd563-5159-4bff-8301-885e118c08d4"},"vehicle_type_id":"4","last_reported":1685234413,"current_range_meters":12800,"station_id":"ce4bgqh2rcd13ifvqc4g","pricing_plan_id":"free"},{"bike_id":"93af254d-e288-4071-9c07-3fa64c43c324","system_id":"levelo_inurba_marseille","lat":43.305989,"lon":5.37225,"is_reserved":false,"is_disabled":false,"rental_uris":{"android":"levelo://app?vid=93af254d-e288-4071-9c07-3fa64c43c324","ios":"levelo://app?vid=93af254d-e288-4071-9c07-3fa64c43c324"},"vehicle_type_id":"4","last_reported":1685234413,"current_range_meters":19200,"station_id":"ce4bgqh2rcd13ifvqc4g","pricing_plan_id":"free"},{"bike_id":"64c78913-55e2-42a4-916f-9024a69e741f","system_id":"levelo_inurba_marseille","lat":43.305989,"lon":5.37225,"is_reserved":false,"is_disabled":false,"rental_uris":{"android":"levelo://app?vid=64c78913-55e2-42a4-916f-9024a69e741f","ios":"levelo://app?vid=64c78913-55e2-42a4-916f-9024a69e741f"},"vehicle_type_id":"4","last_reported":1685234413,"current_range_meters":31600,"station_id":"ce4bgqh2rcd13ifvqc4g","pricing_plan_id":"free"},{"bike_id":"58cc01f7-4dc6-4e66-957a-6bcbb19b26a9","system_id":"levelo_inurba_marseille","lat":43.305989,"lon":5.37225,"is_reserved":false,"is_disabled":false,"rental_uris":{"android":"levelo://app?vid=58cc01f7-4dc6-4e66-957a-6bcbb19b26a9","ios":"levelo://app?vid=58cc01f7-4dc6-4e66-957a-6bcbb19b26a9"},"vehicle_type_id":"4","last_reported":1685234413,"current_range_meters":22400,"station_id":"ce4bgqh2rcd13ifvqc4g","pricing_plan_id":"free"},{"bike_id":"dd31bef2-d9ed-45f5-bca6-ddc1790afdf9","system_id":"levelo_inurba_marseille","lat":43.311131,"lon":5.377651,"is_reserved":false,"is_disabled":false,"rental_uris":{"android":"levelo://app?vid=dd31bef2-d9ed-45f5-bca6-ddc1790afdf9","ios":"levelo://app?vid=dd31bef2-d9ed-45f5-bca6-ddc1790afdf9"},"vehicle_type_id":"4","last_reported":1685234413,"current_range_meters":26400,"station_id":"ce4bgt92rcd13ifvqcg0","pricing_plan_id":"free"},{"bike_id":"323efece-d233-48ff-858b-564239321437","system_id":"levelo_inurba_marseille","lat":43.311131,"lon":5.377651,"is_reserved":false,"is_disabled":false,"rental_uris":{"android":"levelo://app?vid=323efece-d233-48ff-858b-564239321437","ios":"levelo://app?vid=323efece-d233-48ff-858b-564239321437"},"vehicle_type_id":"4","last_reported":1685234413,"current_range_meters":30400,"station_id":"ce4bgt92rcd13ifvqcg0","pricing_plan_id":"free"},{"bike_id":"3a38e723-0333-42a9-9f40-deb818ff0b44","system_id":"levelo_inurba_marseille","lat":43.311131,"lon":5.377651,"is_reserved":false,"is_disabled":false,"rental_uris":{"android":"levelo://app?vid=3a38e723-0333-42a9-9f40-deb818ff0b44","ios":"levelo://app?vid=3a38e723-0333-42a9-9f40-deb818ff0b44"},"vehicle_type_id":"4","last_reported":1685234413,"current_range_meters":2400,"station_id":"ce4bgt92rcd13ifvqcg0","pricing_plan_id":"free"},{"bike_id":"fdf10776-3174-4866-9b02-95c7a06d0e47","system_id":"levelo_inurba_marseille","lat":43.317075,"lon":5.377367,"is_reserved":false,"is_disabled":false,"rental_uris":{"android":"levelo://app?vid=fdf10776-3174-4866-9b02-95c7a06d0e47","ios":"levelo://app?vid=fdf10776-3174-4866-9b02-95c7a06d0e47"},"vehicle_type_id":"4","last_reported":1685234413,"current_range_meters":8000,"station_id":"ce4bgth2rcd13ifvqch0","pricing_plan_id":"free"},{"bike_id":"794f0de2-ca9c-47ee-a77a-3f1b232a3e18","system_id":"levelo_inurba_marseille","lat":43.3223,"lon":5.36854,"is_reserved":false,"is_disabled":false,"rental_uris":{"android":"levelo://app?vid=794f0de2-ca9c-47ee-a77a-3f1b232a3e18","ios":"levelo://app?vid=794f0de2-ca9c-47ee-a77a-3f1b232a3e18"},"vehicle_type_id":"4","last_reported":1685234413,"current_range_meters":17200,"station_id":"","pricing_plan_id":"free"},{"bike_id":"7699ad3d-cdf7-4843-8098-39761f485c5f","system_id":"levelo_inurba_marseille","lat":43.30314,"lon":5.36915,"is_reserved":false,"is_disabled":false,"rental_uris":{"android":"levelo://app?vid=7699ad3d-cdf7-4843-8098-39761f485c5f","ios":"levelo://app?vid=7699ad3d-cdf7-4843-8098-39761f485c5f"},"vehicle_type_id":"4","last_reported":1685234413,"current_range_meters":23600,"station_id":"ce4bgqh2rcd13ifvqc5g","pricing_plan_id":"free"},{"bike_id":"6afc8233-5c09-413c-a577-6b70851adbf3","system_id":"levelo_inurba_marseille","lat":43.315289,"lon":5.380349,"is_reserved":false,"is_disabled":false,"rental_uris":{"android":"levelo://app?vid=6afc8233-5c09-413c-a577-6b70851adbf3","ios":"levelo://app?vid=6afc8233-5c09-413c-a577-6b70851adbf3"},"vehicle_type_id":"4","last_reported":1685234413,"current_range_meters":3600,"station_id":"ce4bhsp2rcd13ifvqi50","pricing_plan_id":"free"},{"bike_id":"04865bb0-6933-4fae-b00c-d2b470ca7796","system_id":"levelo_inurba_marseille","lat":43.315289,"lon":5.380349,"is_reserved":false,"is_disabled":false,"rental_uris":{"android":"levelo://app?vid=04865bb0-6933-4fae-b00c-d2b470ca7796","ios":"levelo://app?vid=04865bb0-6933-4fae-b00c-d2b470ca7796"},"vehicle_type_id":"4","last_reported":1685234413,"current_range_meters":16800,"station_id":"ce4bhsp2rcd13ifvqi50","pricing_plan_id":"free"},{"bike_id":"9913319e-4dce-4434-bbf7-629568fa27ea","system_id":"levelo_inurba_marseille","lat":43.308012,"lon":5.381511,"is_reserved":false,"is_disabled":false,"rental_uris":{"android":"levelo://app?vid=9913319e-4dce-4434-bbf7-629568fa27ea","ios":"levelo://app?vid=9913319e-4dce-4434-bbf7-629568fa27ea"},"vehicle_type_id":"4","last_reported":1685234413,"current_range_meters":0,"station_id":"ce4bgt12rcd13ifvqce0","pricing_plan_id":"free"},{"bike_id":"3e04f99a-2d24-43c7-99c0-fcaa8fd8f96c","system_id":"levelo_inurba_marseille","lat":43.308012,"lon":5.381511,"is_reserved":false,"is_disabled":false,"rental_uris":{"android":"levelo://app?vid=3e04f99a-2d24-43c7-99c0-fcaa8fd8f96c","ios":"levelo://app?vid=3e04f99a-2d24-43c7-99c0-fcaa8fd8f96c"},"vehicle_type_id":"4","last_reported":1685234413,"current_range_meters":25600,"station_id":"ce4bgt12rcd13ifvqce0","pricing_plan_id":"free"},{"bike_id":"2aeef588-e828-4599-9e49-3d8017a5bdac","system_id":"levelo_inurba_marseille","lat":43.304606,"lon":5.379026,"is_reserved":false,"is_disabled":false,"rental_uris":{"android":"levelo://app?vid=2aeef588-e828-4599-9e49-3d8017a5bdac","ios":"levelo://app?vid=2aeef588-e828-4599-9e49-3d8017a5bdac"},"vehicle_type_id":"4","last_reported":1685234413,"current_range_meters":24000,"station_id":"ce4bgup2rcd13ifvqcn0","pricing_plan_id":"free"},{"bike_id":"6c4bccde-dfa2-4cdc-b9bc-3f907b7c4092","system_id":"levelo_inurba_marseille","lat":43.304606,"lon":5.379026,"is_reserved":false,"is_disabled":false,"rental_uris":{"android":"levelo://app?vid=6c4bccde-dfa2-4cdc-b9bc-3f907b7c4092","ios":"levelo://app?vid=6c4bccde-dfa2-4cdc-b9bc-3f907b7c4092"},"vehicle_type_id":"4","last_reported":1685234413,"current_range_meters":30800,"station_id":"ce4bgup2rcd13ifvqcn0","pricing_plan_id":"free"},{"bike_id":"cb58d36b-0416-4733-95d4-9f87e588b978","system_id":"levelo_inurba_marseille","lat":43.304606,"lon":5.379026,"is_reserved":false,"is_disabled":false,"rental_uris":{"android":"levelo://app?vid=cb58d36b-0416-4733-95d4-9f87e588b978","ios":"levelo://app?vid=cb58d36b-0416-4733-95d4-9f87e588b978"},"vehicle_type_id":"4","last_reported":1685234413,"current_range_meters":28800,"station_id":"ce4bgup2rcd13ifvqcn0","pricing_plan_id":"free"},{"bike_id":"87b621a7-0f08-46a1-a67d-db967e04fde4","system_id":"levelo_inurba_marseille","lat":43.304606,"lon":5.379026,"is_reserved":false,"is_disabled":false,"rental_uris":{"android":"levelo://app?vid=87b621a7-0f08-46a1-a67d-db967e04fde4","ios":"levelo://app?vid=87b621a7-0f08-46a1-a67d-db967e04fde4"},"vehicle_type_id":"4","last_reported":1685234413,"current_range_meters":24400,"station_id":"ce4bgup2rcd13ifvqcn0","pricing_plan_id":"free"},{"bike_id":"be1e7bee-3118-4333-b1e2-90959df1c5ed","system_id":"levelo_inurba_marseille","lat":43.304606,"lon":5.379026,"is_reserved":false,"is_disabled":false,"rental_uris":{"android":"levelo://app?vid=be1e7bee-3118-4333-b1e2-90959df1c5ed","ios":"levelo://app?vid=be1e7bee-3118-4333-b1e2-90959df1c5ed"},"vehicle_type_id":"4","last_reported":1685234413,"current_range_meters":31600,"station_id":"ce4bgup2rcd13ifvqcn0","pricing_plan_id":"free"},{"bike_id":"043b8837-d974-4e8a-824b-87c48710aa6e","system_id":"levelo_inurba_marseille","lat":43.319935,"lon":5.381699,"is_reserved":false,"is_disabled":false,"rental_uris":{"android":"levelo://app?vid=043b8837-d974-4e8a-824b-87c48710aa6e","ios":"levelo://app?vid=043b8837-d974-4e8a-824b-87c48710aa6e"},"vehicle_type_id":"4","last_reported":1685234413,"current_range_meters":9200,"station_id":"ce4bhr12rcd13ifvqhpg","pricing_plan_id":"free"},{"bike_id":"a5ad76e3-2fbc-4a3b-a15e-6081ac73d0d9","system_id":"levelo_inurba_marseille","lat":43.319935,"lon":5.381699,"is_reserved":false,"is_disabled":false,"rental_uris":{"android":"levelo://app?vid=a5ad76e3-2fbc-4a3b-a15e-6081ac73d0d9","ios":"levelo://app?vid=a5ad76e3-2fbc-4a3b-a15e-6081ac73d0d9"},"vehicle_type_id":"4","last_reported":1685234413,"current_range_meters":8400,"station_id":"ce4bhr12rcd13ifvqhpg","pricing_plan_id":"free"},{"bike_id":"6bee5066-104b-471d-aa34-e3cd488a62e0","system_id":"levelo_inurba_marseille","lat":43.319935,"lon":5.381699,"is_reserved":false,"is_disabled":false,"rental_uris":{"android":"levelo://app?vid=6bee5066-104b-471d-aa34-e3cd488a62e0","ios":"levelo://app?vid=6bee5066-104b-471d-aa34-e3cd488a62e0"},"vehicle_type_id":"4","last_reported":1685234413,"current_range_meters":12400,"station_id":"ce4bhr12rcd13ifvqhpg","pricing_plan_id":"free"},{"bike_id":"2eb25aca-9cb4-4be1-ae38-ac14310ecf8d","system_id":"levelo_inurba_marseille","lat":43.319935,"lon":5.381699,"is_reserved":false,"is_disabled":false,"rental_uris":{"android":"levelo://app?vid=2eb25aca-9cb4-4be1-ae38-ac14310ecf8d","ios":"levelo://app?vid=2eb25aca-9cb4-4be1-ae38-ac14310ecf8d"},"vehicle_type_id":"4","last_reported":1685234413,"current_range_meters":26000,"station_id":"ce4bhr12rcd13ifvqhpg","pricing_plan_id":"free"},{"bike_id":"8d09bc82-de5a-4658-b78e-49c7a789bb73","system_id":"levelo_inurba_marseille","lat":43.313571,"lon":5.384829,"is_reserved":false,"is_disabled":false,"rental_uris":{"android":"levelo://app?vid=8d09bc82-de5a-4658-b78e-49c7a789bb73","ios":"levelo://app?vid=8d09bc82-de5a-4658-b78e-49c7a789bb73"},"vehicle_type_id":"4","last_reported":1685234413,"current_range_meters":6400,"station_id":"ce4bgt92rcd13ifvqcf0","pricing_plan_id":"free"},{"bike_id":"a734bb82-0836-49d0-b2fe-10ecec16f3a1","system_id":"levelo_inurba_marseille","lat":43.31356,"lon":5.38485,"is_reserved":false,"is_disabled":false,"rental_uris":{"android":"levelo://app?vid=a734bb82-0836-49d0-b2fe-10ecec16f3a1","ios":"levelo://app?vid=a734bb82-0836-49d0-b2fe-10ecec16f3a1"},"vehicle_type_id":"4","last_reported":1685234413,"current_range_meters":31600,"station_id":"ce4bgt92rcd13ifvqcf0","pricing_plan_id":"free"},{"bike_id":"646f4660-d5bd-46da-ba9b-68c0247e825b","system_id":"levelo_inurba_marseille","lat":43.313571,"lon":5.384829,"is_reserved":false,"is_disabled":false,"rental_uris":{"android":"levelo://app?vid=646f4660-d5bd-46da-ba9b-68c0247e825b","ios":"levelo://app?vid=646f4660-d5bd-46da-ba9b-68c0247e825b"},"vehicle_type_id":"4","last_reported":1685234413,"current_range_meters":0,"station_id":"ce4bgt92rcd13ifvqcf0","pricing_plan_id":"free"},{"bike_id":"c6928dc1-1522-4f1b-af11-f034761c5d77","system_id":"levelo_inurba_marseille","lat":43.313571,"lon":5.384829,"is_reserved":false,"is_disabled":false,"rental_uris":{"android":"levelo://app?vid=c6928dc1-1522-4f1b-af11-f034761c5d77","ios":"levelo://app?vid=c6928dc1-1522-4f1b-af11-f034761c5d77"},"vehicle_type_id":"4","last_reported":1685234413,"current_range_meters":0,"station_id":"ce4bgt92rcd13ifvqcf0","pricing_plan_id":"free"},{"bike_id":"7132bc17-777d-4646-bbf5-84e2c3563098","system_id":"levelo_inurba_marseille","lat":43.313571,"lon":5.384829,"is_reserved":false,"is_disabled":false,"rental_uris":{"android":"levelo://app?vid=7132bc17-777d-4646-bbf5-84e2c3563098","ios":"levelo://app?vid=7132bc17-777d-4646-bbf5-84e2c3563098"},"vehicle_type_id":"4","last_reported":1685234413,"current_range_meters":15200,"station_id":"ce4bgt92rcd13ifvqcf0","pricing_plan_id":"free"},{"bike_id":"5a5be0dd-949e-4fa0-b422-4948d9a0f2c1","system_id":"levelo_inurba_marseille","lat":43.313571,"lon":5.384829,"is_reserved":false,"is_disabled":false,"rental_uris":{"android":"levelo://app?vid=5a5be0dd-949e-4fa0-b422-4948d9a0f2c1","ios":"levelo://app?vid=5a5be0dd-949e-4fa0-b422-4948d9a0f2c1"},"vehicle_type_id":"4","last_reported":1685234413,"current_range_meters":28800,"station_id":"ce4bgt92rcd13ifvqcf0","pricing_plan_id":"free"},{"bike_id":"3f2975c3-e494-4b7b-b559-847d5bc972dd","system_id":"levelo_inurba_marseille","lat":43.313571,"lon":5.384829,"is_reserved":false,"is_disabled":false,"rental_uris":{"android":"levelo://app?vid=3f2975c3-e494-4b7b-b559-847d5bc972dd","ios":"levelo://app?vid=3f2975c3-e494-4b7b-b559-847d5bc972dd"},"vehicle_type_id":"4","last_reported":1685234413,"current_range_meters":28000,"station_id":"ce4bgt92rcd13ifvqcf0","pricing_plan_id":"free"},{"bike_id":"c5d0d0fc-bb22-4ee0-b915-7e3ab91fe2ce","system_id":"levelo_inurba_marseille","lat":43.313571,"lon":5.384829,"is_reserved":false,"is_disabled":false,"rental_uris":{"android":"levelo://app?vid=c5d0d0fc-bb22-4ee0-b915-7e3ab91fe2ce","ios":"levelo://app?vid=c5d0d0fc-bb22-4ee0-b915-7e3ab91fe2ce"},"vehicle_type_id":"4","last_reported":1685234413,"current_range_meters":22000,"station_id":"ce4bgt92rcd13ifvqcf0","pricing_plan_id":"free"},{"bike_id":"4952214b-69fa-4f33-b9cf-016087900bfe","system_id":"levelo_inurba_marseille","lat":43.313571,"lon":5.384829,"is_reserved":false,"is_disabled":false,"rental_uris":{"android":"levelo://app?vid=4952214b-69fa-4f33-b9cf-016087900bfe","ios":"levelo://app?vid=4952214b-69fa-4f33-b9cf-016087900bfe"},"vehicle_type_id":"4","last_reported":1685234413,"current_range_meters":28400,"station_id":"ce4bgt92rcd13ifvqcf0","pricing_plan_id":"free"},{"bike_id":"e4c19211-01df-4b4d-a36e-a7b986639261","system_id":"levelo_inurba_marseille","lat":43.313571,"lon":5.384829,"is_reserved":false,"is_disabled":false,"rental_uris":{"android":"levelo://app?vid=e4c19211-01df-4b4d-a36e-a7b986639261","ios":"levelo://app?vid=e4c19211-01df-4b4d-a36e-a7b986639261"},"vehicle_type_id":"4","last_reported":1685234413,"current_range_meters":23600,"station_id":"ce4bgt92rcd13ifvqcf0","pricing_plan_id":"free"},{"bike_id":"2a981fed-8098-4307-aa74-991843610e2e","system_id":"levelo_inurba_marseille","lat":43.313571,"lon":5.384829,"is_reserved":false,"is_disabled":false,"rental_uris":{"android":"levelo://app?vid=2a981fed-8098-4307-aa74-991843610e2e","ios":"levelo://app?vid=2a981fed-8098-4307-aa74-991843610e2e"},"vehicle_type_id":"4","last_reported":1685234413,"current_range_meters":30800,"station_id":"ce4bgt92rcd13ifvqcf0","pricing_plan_id":"free"},{"bike_id":"a4f2d50d-65b6-4560-9908-ffcbce0568f6","system_id":"levelo_inurba_marseille","lat":43.313571,"lon":5.384829,"is_reserved":false,"is_disabled":false,"rental_uris":{"android":"levelo://app?vid=a4f2d50d-65b6-4560-9908-ffcbce0568f6","ios":"levelo://app?vid=a4f2d50d-65b6-4560-9908-ffcbce0568f6"},"vehicle_type_id":"4","last_reported":1685234413,"current_range_meters":30400,"station_id":"ce4bgt92rcd13ifvqcf0","pricing_plan_id":"free"},{"bike_id":"da805e1a-588d-4f38-88cc-fe76dcfb2bf0","system_id":"levelo_inurba_marseille","lat":43.299222,"lon":5.365554,"is_reserved":false,"is_disabled":false,"rental_uris":{"android":"levelo://app?vid=da805e1a-588d-4f38-88cc-fe76dcfb2bf0","ios":"levelo://app?vid=da805e1a-588d-4f38-88cc-fe76dcfb2bf0"},"vehicle_type_id":"4","last_reported":1685234413,"current_range_meters":0,"station_id":"ce4bgm92rcd13ifvqbr0","pricing_plan_id":"free"},{"bike_id":"51b1d98f-7000-40a8-982a-45da6578d406","system_id":"levelo_inurba_marseille","lat":43.305364,"lon":5.384119,"is_reserved":false,"is_disabled":false,"rental_uris":{"android":"levelo://app?vid=51b1d98f-7000-40a8-982a-45da6578d406","ios":"levelo://app?vid=51b1d98f-7000-40a8-982a-45da6578d406"},"vehicle_type_id":"4","last_reported":1685234413,"current_range_meters":24000,"station_id":"ce4bgg92rcd13ifvqb30","pricing_plan_id":"free"},{"bike_id":"358620bf-25f4-423b-985d-4884fc0d535f","system_id":"levelo_inurba_marseille","lat":43.31173,"lon":5.38704,"is_reserved":false,"is_disabled":false,"rental_uris":{"android":"levelo://app?vid=358620bf-25f4-423b-985d-4884fc0d535f","ios":"levelo://app?vid=358620bf-25f4-423b-985d-4884fc0d535f"},"vehicle_type_id":"4","last_reported":1685234413,"current_range_meters":24000,"station_id":"ce4bgv12rcd13ifvqcp0","pricing_plan_id":"free"},{"bike_id":"ff95e753-2b75-404d-a453-b107a6abefa4","system_id":"levelo_inurba_marseille","lat":43.298402,"lon":5.362661,"is_reserved":false,"is_disabled":false,"rental_uris":{"android":"levelo://app?vid=ff95e753-2b75-404d-a453-b107a6abefa4","ios":"levelo://app?vid=ff95e753-2b75-404d-a453-b107a6abefa4"},"vehicle_type_id":"4","last_reported":1685234413,"current_range_meters":16400,"station_id":"","pricing_plan_id":"free"},{"bike_id":"d382fdfa-2b2b-4987-9324-f294bb49dc3d","system_id":"levelo_inurba_marseille","lat":43.311722,"lon":5.387247,"is_reserved":false,"is_disabled":false,"rental_uris":{"android":"levelo://app?vid=d382fdfa-2b2b-4987-9324-f294bb49dc3d","ios":"levelo://app?vid=d382fdfa-2b2b-4987-9324-f294bb49dc3d"},"vehicle_type_id":"4","last_reported":1685234413,"current_range_meters":22400,"station_id":"ce4bgv12rcd13ifvqcp0","pricing_plan_id":"free"},{"bike_id":"8e2f6173-5eb3-46ad-b33a-95bad1640050","system_id":"levelo_inurba_marseille","lat":43.311722,"lon":5.387247,"is_reserved":false,"is_disabled":false,"rental_uris":{"android":"levelo://app?vid=8e2f6173-5eb3-46ad-b33a-95bad1640050","ios":"levelo://app?vid=8e2f6173-5eb3-46ad-b33a-95bad1640050"},"vehicle_type_id":"4","last_reported":1685234413,"current_range_meters":24800,"station_id":"ce4bgv12rcd13ifvqcp0","pricing_plan_id":"free"},{"bike_id":"f2cb7529-e7ff-4990-ad6c-0ee033b83005","system_id":"levelo_inurba_marseille","lat":43.311722,"lon":5.387247,"is_reserved":false,"is_disabled":false,"rental_uris":{"android":"levelo://app?vid=f2cb7529-e7ff-4990-ad6c-0ee033b83005","ios":"levelo://app?vid=f2cb7529-e7ff-4990-ad6c-0ee033b83005"},"vehicle_type_id":"4","last_reported":1685234413,"current_range_meters":2800,"station_id":"ce4bgv12rcd13ifvqcp0","pricing_plan_id":"free"},{"bike_id":"2764e067-ff58-4404-9556-1a62ad6f4b85","system_id":"levelo_inurba_marseille","lat":43.31184,"lon":5.38713,"is_reserved":false,"is_disabled":false,"rental_uris":{"android":"levelo://app?vid=2764e067-ff58-4404-9556-1a62ad6f4b85","ios":"levelo://app?vid=2764e067-ff58-4404-9556-1a62ad6f4b85"},"vehicle_type_id":"4","last_reported":1685234413,"current_range_meters":25200,"station_id":"ce4bgv12rcd13ifvqcp0","pricing_plan_id":"free"},{"bike_id":"39f34151-7d15-475c-9863-4bc74dce71ef","system_id":"levelo_inurba_marseille","lat":43.311722,"lon":5.387247,"is_reserved":false,"is_disabled":false,"rental_uris":{"android":"levelo://app?vid=39f34151-7d15-475c-9863-4bc74dce71ef","ios":"levelo://app?vid=39f34151-7d15-475c-9863-4bc74dce71ef"},"vehicle_type_id":"4","last_reported":1685234413,"current_range_meters":29200,"station_id":"ce4bgv12rcd13ifvqcp0","pricing_plan_id":"free"},{"bike_id":"92d2d95f-1ca5-401b-8d51-f922614f1e45","system_id":"levelo_inurba_marseille","lat":43.31166,"lon":5.38713,"is_reserved":false,"is_disabled":false,"rental_uris":{"android":"levelo://app?vid=92d2d95f-1ca5-401b-8d51-f922614f1e45","ios":"levelo://app?vid=92d2d95f-1ca5-401b-8d51-f922614f1e45"},"vehicle_type_id":"4","last_reported":1685234413,"current_range_meters":25200,"station_id":"ce4bgv12rcd13ifvqcp0","pricing_plan_id":"free"},{"bike_id":"e197b317-2e82-4b6d-a34b-36adf7f842d6","system_id":"levelo_inurba_marseille","lat":43.311722,"lon":5.387247,"is_reserved":false,"is_disabled":false,"rental_uris":{"android":"levelo://app?vid=e197b317-2e82-4b6d-a34b-36adf7f842d6","ios":"levelo://app?vid=e197b317-2e82-4b6d-a34b-36adf7f842d6"},"vehicle_type_id":"4","last_reported":1685234413,"current_range_meters":6000,"station_id":"ce4bgv12rcd13ifvqcp0","pricing_plan_id":"free"},{"bike_id":"54003b76-748b-4e68-96f1-ddf7985a2e2d","system_id":"levelo_inurba_marseille","lat":43.311722,"lon":5.387247,"is_reserved":false,"is_disabled":false,"rental_uris":{"android":"levelo://app?vid=54003b76-748b-4e68-96f1-ddf7985a2e2d","ios":"levelo://app?vid=54003b76-748b-4e68-96f1-ddf7985a2e2d"},"vehicle_type_id":"4","last_reported":1685234413,"current_range_meters":4000,"station_id":"ce4bgv12rcd13ifvqcp0","pricing_plan_id":"free"},{"bike_id":"cb4ec8be-13f9-4cdd-bb43-567ed64e5cf3","system_id":"levelo_inurba_marseille","lat":43.31171,"lon":5.38718,"is_reserved":false,"is_disabled":false,"rental_uris":{"android":"levelo://app?vid=cb4ec8be-13f9-4cdd-bb43-567ed64e5cf3","ios":"levelo://app?vid=cb4ec8be-13f9-4cdd-bb43-567ed64e5cf3"},"vehicle_type_id":"4","last_reported":1685234413,"current_range_meters":14800,"station_id":"ce4bgv12rcd13ifvqcp0","pricing_plan_id":"free"},{"bike_id":"35b8bd81-b3c5-4ecd-87b1-a89a9e8cc95e","system_id":"levelo_inurba_marseille","lat":43.311722,"lon":5.387247,"is_reserved":false,"is_disabled":false,"rental_uris":{"android":"levelo://app?vid=35b8bd81-b3c5-4ecd-87b1-a89a9e8cc95e","ios":"levelo://app?vid=35b8bd81-b3c5-4ecd-87b1-a89a9e8cc95e"},"vehicle_type_id":"4","last_reported":1685234413,"current_range_meters":24800,"station_id":"ce4bgv12rcd13ifvqcp0","pricing_plan_id":"free"},{"bike_id":"21e429c9-02dc-4067-ab71-ddb76019837b","system_id":"levelo_inurba_marseille","lat":43.311722,"lon":5.387247,"is_reserved":false,"is_disabled":false,"rental_uris":{"android":"levelo://app?vid=21e429c9-02dc-4067-ab71-ddb76019837b","ios":"levelo://app?vid=21e429c9-02dc-4067-ab71-ddb76019837b"},"vehicle_type_id":"4","last_reported":1685234413,"current_range_meters":9600,"station_id":"ce4bgv12rcd13ifvqcp0","pricing_plan_id":"free"},{"bike_id":"3e2180d3-fd94-4a1f-82dc-1a6ab4376402","system_id":"levelo_inurba_marseille","lat":43.311722,"lon":5.387247,"is_reserved":false,"is_disabled":false,"rental_uris":{"android":"levelo://app?vid=3e2180d3-fd94-4a1f-82dc-1a6ab4376402","ios":"levelo://app?vid=3e2180d3-fd94-4a1f-82dc-1a6ab4376402"},"vehicle_type_id":"4","last_reported":1685234413,"current_range_meters":18000,"station_id":"ce4bgv12rcd13ifvqcp0","pricing_plan_id":"free"},{"bike_id":"d9151911-a611-4df2-a4c0-2b6897248b3e","system_id":"levelo_inurba_marseille","lat":43.311634,"lon":5.38722,"is_reserved":false,"is_disabled":false,"rental_uris":{"android":"levelo://app?vid=d9151911-a611-4df2-a4c0-2b6897248b3e","ios":"levelo://app?vid=d9151911-a611-4df2-a4c0-2b6897248b3e"},"vehicle_type_id":"4","last_reported":1685234413,"current_range_meters":25200,"station_id":"ce4bgv12rcd13ifvqcp0","pricing_plan_id":"free"},{"bike_id":"708ff613-13ee-4967-bae8-5deeda0f1c7b","system_id":"levelo_inurba_marseille","lat":43.29903,"lon":5.37466,"is_reserved":false,"is_disabled":false,"rental_uris":{"android":"levelo://app?vid=708ff613-13ee-4967-bae8-5deeda0f1c7b","ios":"levelo://app?vid=708ff613-13ee-4967-bae8-5deeda0f1c7b"},"vehicle_type_id":"4","last_reported":1685234413,"current_range_meters":24800,"station_id":"ce4bgjh2rcd13ifvqbg0","pricing_plan_id":"free"},{"bike_id":"ec00ef44-24fd-4afb-8bb4-3cf75fde794f","system_id":"levelo_inurba_marseille","lat":43.328371,"lon":5.366909,"is_reserved":false,"is_disabled":false,"rental_uris":{"android":"levelo://app?vid=ec00ef44-24fd-4afb-8bb4-3cf75fde794f","ios":"levelo://app?vid=ec00ef44-24fd-4afb-8bb4-3cf75fde794f"},"vehicle_type_id":"4","last_reported":1685234413,"current_range_meters":31200,"station_id":"ce4bhs92rcd13ifvqi0g","pricing_plan_id":"free"},{"bike_id":"fcbed497-d2a8-482c-92d1-ee59547f63b3","system_id":"levelo_inurba_marseille","lat":43.32825,"lon":5.36685,"is_reserved":false,"is_disabled":false,"rental_uris":{"android":"levelo://app?vid=fcbed497-d2a8-482c-92d1-ee59547f63b3","ios":"levelo://app?vid=fcbed497-d2a8-482c-92d1-ee59547f63b3"},"vehicle_type_id":"4","last_reported":1685234413,"current_range_meters":31200,"station_id":"ce4bhs92rcd13ifvqi0g","pricing_plan_id":"free"},{"bike_id":"43d041a6-cdcf-4897-8665-6ed61b2c409c","system_id":"levelo_inurba_marseille","lat":43.328371,"lon":5.366909,"is_reserved":false,"is_disabled":false,"rental_uris":{"android":"levelo://app?vid=43d041a6-cdcf-4897-8665-6ed61b2c409c","ios":"levelo://app?vid=43d041a6-cdcf-4897-8665-6ed61b2c409c"},"vehicle_type_id":"4","last_reported":1685234413,"current_range_meters":31200,"station_id":"ce4bhs92rcd13ifvqi0g","pricing_plan_id":"free"},{"bike_id":"e56cb228-bb4d-4c0c-918c-5fb17ff8d7c3","system_id":"levelo_inurba_marseille","lat":43.32829,"lon":5.36687,"is_reserved":false,"is_disabled":false,"rental_uris":{"android":"levelo://app?vid=e56cb228-bb4d-4c0c-918c-5fb17ff8d7c3","ios":"levelo://app?vid=e56cb228-bb4d-4c0c-918c-5fb17ff8d7c3"},"vehicle_type_id":"4","last_reported":1685234413,"current_range_meters":26000,"station_id":"ce4bhs92rcd13ifvqi0g","pricing_plan_id":"free"},{"bike_id":"3232ef33-5859-4816-89f8-ba13659ad816","system_id":"levelo_inurba_marseille","lat":43.3283,"lon":5.36686,"is_reserved":false,"is_disabled":false,"rental_uris":{"android":"levelo://app?vid=3232ef33-5859-4816-89f8-ba13659ad816","ios":"levelo://app?vid=3232ef33-5859-4816-89f8-ba13659ad816"},"vehicle_type_id":"4","last_reported":1685234413,"current_range_meters":0,"station_id":"ce4bhs92rcd13ifvqi0g","pricing_plan_id":"free"},{"bike_id":"6aadd20f-ee22-42f7-9c69-f3066c5dfcf1","system_id":"levelo_inurba_marseille","lat":43.328371,"lon":5.366909,"is_reserved":false,"is_disabled":false,"rental_uris":{"android":"levelo://app?vid=6aadd20f-ee22-42f7-9c69-f3066c5dfcf1","ios":"levelo://app?vid=6aadd20f-ee22-42f7-9c69-f3066c5dfcf1"},"vehicle_type_id":"4","last_reported":1685234413,"current_range_meters":13600,"station_id":"ce4bhs92rcd13ifvqi0g","pricing_plan_id":"free"},{"bike_id":"a3da1d96-89c5-452a-9720-5bff4b00ec21","system_id":"levelo_inurba_marseille","lat":43.29709,"lon":5.36601,"is_reserved":false,"is_disabled":false,"rental_uris":{"android":"levelo://app?vid=a3da1d96-89c5-452a-9720-5bff4b00ec21","ios":"levelo://app?vid=a3da1d96-89c5-452a-9720-5bff4b00ec21"},"vehicle_type_id":"4","last_reported":1685234413,"current_range_meters":31200,"station_id":"","pricing_plan_id":"free"},{"bike_id":"ee789235-685c-4168-a148-3b345cdec63b","system_id":"levelo_inurba_marseille","lat":43.29705,"lon":5.36606,"is_reserved":false,"is_disabled":false,"rental_uris":{"android":"levelo://app?vid=ee789235-685c-4168-a148-3b345cdec63b","ios":"levelo://app?vid=ee789235-685c-4168-a148-3b345cdec63b"},"vehicle_type_id":"4","last_reported":1685234413,"current_range_meters":31200,"station_id":"","pricing_plan_id":"free"},{"bike_id":"b4064c68-cfb0-4fb4-825c-685ccd807718","system_id":"levelo_inurba_marseille","lat":43.29705,"lon":5.36598,"is_reserved":false,"is_disabled":false,"rental_uris":{"android":"levelo://app?vid=b4064c68-cfb0-4fb4-825c-685ccd807718","ios":"levelo://app?vid=b4064c68-cfb0-4fb4-825c-685ccd807718"},"vehicle_type_id":"4","last_reported":1685234413,"current_range_meters":30800,"station_id":"","pricing_plan_id":"free"},{"bike_id":"b41bf055-9f6d-432b-acf9-6a2835f60629","system_id":"levelo_inurba_marseille","lat":43.29699,"lon":5.366,"is_reserved":false,"is_disabled":false,"rental_uris":{"android":"levelo://app?vid=b41bf055-9f6d-432b-acf9-6a2835f60629","ios":"levelo://app?vid=b41bf055-9f6d-432b-acf9-6a2835f60629"},"vehicle_type_id":"4","last_reported":1685234413,"current_range_meters":31200,"station_id":"","pricing_plan_id":"free"},{"bike_id":"95b01026-2338-4914-b01c-fdbedc506ac4","system_id":"levelo_inurba_marseille","lat":43.29697,"lon":5.36584,"is_reserved":false,"is_disabled":false,"rental_uris":{"android":"levelo://app?vid=95b01026-2338-4914-b01c-fdbedc506ac4","ios":"levelo://app?vid=95b01026-2338-4914-b01c-fdbedc506ac4"},"vehicle_type_id":"4","last_reported":1685234413,"current_range_meters":26400,"station_id":"","pricing_plan_id":"free"},{"bike_id":"88e7a53e-3fc5-4303-94ac-f9f92943a378","system_id":"levelo_inurba_marseille","lat":43.30945,"lon":5.39019,"is_reserved":false,"is_disabled":false,"rental_uris":{"android":"levelo://app?vid=88e7a53e-3fc5-4303-94ac-f9f92943a378","ios":"levelo://app?vid=88e7a53e-3fc5-4303-94ac-f9f92943a378"},"vehicle_type_id":"4","last_reported":1685234413,"current_range_meters":0,"station_id":"ce4bgup2rcd13ifvqco0","pricing_plan_id":"free"},{"bike_id":"586fc8dc-d03f-4b3c-941e-d8ad7a7c9602","system_id":"levelo_inurba_marseille","lat":43.30948,"lon":5.39029,"is_reserved":false,"is_disabled":false,"rental_uris":{"android":"levelo://app?vid=586fc8dc-d03f-4b3c-941e-d8ad7a7c9602","ios":"levelo://app?vid=586fc8dc-d03f-4b3c-941e-d8ad7a7c9602"},"vehicle_type_id":"4","last_reported":1685234413,"current_range_meters":26800,"station_id":"ce4bgup2rcd13ifvqco0","pricing_plan_id":"free"},{"bike_id":"04f6883d-fac2-49cf-876c-0d231a0edf40","system_id":"levelo_inurba_marseille","lat":43.317557,"lon":5.390173,"is_reserved":false,"is_disabled":false,"rental_uris":{"android":"levelo://app?vid=04f6883d-fac2-49cf-876c-0d231a0edf40","ios":"levelo://app?vid=04f6883d-fac2-49cf-876c-0d231a0edf40"},"vehicle_type_id":"4","last_reported":1685234413,"current_range_meters":30400,"station_id":"ce4bhqp2rcd13ifvqhng","pricing_plan_id":"free"},{"bike_id":"59b2aea5-34fb-4481-88fd-7f008ad8c35a","system_id":"levelo_inurba_marseille","lat":43.304278,"lon":5.388868,"is_reserved":false,"is_disabled":false,"rental_uris":{"android":"levelo://app?vid=59b2aea5-34fb-4481-88fd-7f008ad8c35a","ios":"levelo://app?vid=59b2aea5-34fb-4481-88fd-7f008ad8c35a"},"vehicle_type_id":"4","last_reported":1685234413,"current_range_meters":30400,"station_id":"ce4bgk12rcd13ifvqbi0","pricing_plan_id":"free"},{"bike_id":"a9fc3534-a83c-4088-b037-b6bb86674c7e","system_id":"levelo_inurba_marseille","lat":43.304278,"lon":5.388868,"is_reserved":false,"is_disabled":false,"rental_uris":{"android":"levelo://app?vid=a9fc3534-a83c-4088-b037-b6bb86674c7e","ios":"levelo://app?vid=a9fc3534-a83c-4088-b037-b6bb86674c7e"},"vehicle_type_id":"4","last_reported":1685234413,"current_range_meters":29600,"station_id":"ce4bgk12rcd13ifvqbi0","pricing_plan_id":"free"},{"bike_id":"d0dbe1c6-36fb-41e1-82b2-7537e05ff9f0","system_id":"levelo_inurba_marseille","lat":43.304278,"lon":5.388868,"is_reserved":false,"is_disabled":false,"rental_uris":{"android":"levelo://app?vid=d0dbe1c6-36fb-41e1-82b2-7537e05ff9f0","ios":"levelo://app?vid=d0dbe1c6-36fb-41e1-82b2-7537e05ff9f0"},"vehicle_type_id":"4","last_reported":1685234413,"current_range_meters":28800,"station_id":"ce4bgk12rcd13ifvqbi0","pricing_plan_id":"free"},{"bike_id":"012eb8c5-3c0e-48ad-a076-6b5aa1470dfc","system_id":"levelo_inurba_marseille","lat":43.304278,"lon":5.388868,"is_reserved":false,"is_disabled":false,"rental_uris":{"android":"levelo://app?vid=012eb8c5-3c0e-48ad-a076-6b5aa1470dfc","ios":"levelo://app?vid=012eb8c5-3c0e-48ad-a076-6b5aa1470dfc"},"vehicle_type_id":"4","last_reported":1685234413,"current_range_meters":30800,"station_id":"ce4bgk12rcd13ifvqbi0","pricing_plan_id":"free"},{"bike_id":"376c2e44-fed6-4415-8fd4-094b1224bf5c","system_id":"levelo_inurba_marseille","lat":43.304278,"lon":5.388868,"is_reserved":false,"is_disabled":false,"rental_uris":{"android":"levelo://app?vid=376c2e44-fed6-4415-8fd4-094b1224bf5c","ios":"levelo://app?vid=376c2e44-fed6-4415-8fd4-094b1224bf5c"},"vehicle_type_id":"4","last_reported":1685234413,"current_range_meters":4800,"station_id":"ce4bgk12rcd13ifvqbi0","pricing_plan_id":"free"},{"bike_id":"3cc1b240-ab24-45bd-bb5e-60f5d953b6bd","system_id":"levelo_inurba_marseille","lat":43.304278,"lon":5.388868,"is_reserved":false,"is_disabled":false,"rental_uris":{"android":"levelo://app?vid=3cc1b240-ab24-45bd-bb5e-60f5d953b6bd","ios":"levelo://app?vid=3cc1b240-ab24-45bd-bb5e-60f5d953b6bd"},"vehicle_type_id":"4","last_reported":1685234413,"current_range_meters":30800,"station_id":"ce4bgk12rcd13ifvqbi0","pricing_plan_id":"free"},{"bike_id":"f4c127c2-6a2c-447e-bd4e-edbfffd8756c","system_id":"levelo_inurba_marseille","lat":43.32367,"lon":5.388836,"is_reserved":false,"is_disabled":false,"rental_uris":{"android":"levelo://app?vid=f4c127c2-6a2c-447e-bd4e-edbfffd8756c","ios":"levelo://app?vid=f4c127c2-6a2c-447e-bd4e-edbfffd8756c"},"vehicle_type_id":"4","last_reported":1685234413,"current_range_meters":15600,"station_id":"ce4bhqp2rcd13ifvqhog","pricing_plan_id":"free"},{"bike_id":"7f49ef87-7fc7-45b0-8263-747245d48ec0","system_id":"levelo_inurba_marseille","lat":43.32364,"lon":5.38893,"is_reserved":false,"is_disabled":false,"rental_uris":{"android":"levelo://app?vid=7f49ef87-7fc7-45b0-8263-747245d48ec0","ios":"levelo://app?vid=7f49ef87-7fc7-45b0-8263-747245d48ec0"},"vehicle_type_id":"4","last_reported":1685234413,"current_range_meters":5600,"station_id":"ce4bhqp2rcd13ifvqhog","pricing_plan_id":"free"},{"bike_id":"f36ed4b6-4d0a-46d5-b254-7a308ae096f7","system_id":"levelo_inurba_marseille","lat":43.292749,"lon":5.368398,"is_reserved":false,"is_disabled":false,"rental_uris":{"android":"levelo://app?vid=f36ed4b6-4d0a-46d5-b254-7a308ae096f7","ios":"levelo://app?vid=f36ed4b6-4d0a-46d5-b254-7a308ae096f7"},"vehicle_type_id":"4","last_reported":1685234413,"current_range_meters":29200,"station_id":"ce4bhbp2rcd13ifvqesg","pricing_plan_id":"free"},{"bike_id":"b923523d-8a40-4a7b-8626-bbf9dc8996b0","system_id":"levelo_inurba_marseille","lat":43.305994,"lon":5.393687,"is_reserved":false,"is_disabled":false,"rental_uris":{"android":"levelo://app?vid=b923523d-8a40-4a7b-8626-bbf9dc8996b0","ios":"levelo://app?vid=b923523d-8a40-4a7b-8626-bbf9dc8996b0"},"vehicle_type_id":"4","last_reported":1685234413,"current_range_meters":13200,"station_id":"ce4bh0p2rcd13ifvqd80","pricing_plan_id":"free"},{"bike_id":"8ae055ea-8da8-4428-b95c-c1df54c2f6db","system_id":"levelo_inurba_marseille","lat":43.30585,"lon":5.3935,"is_reserved":false,"is_disabled":false,"rental_uris":{"android":"levelo://app?vid=8ae055ea-8da8-4428-b95c-c1df54c2f6db","ios":"levelo://app?vid=8ae055ea-8da8-4428-b95c-c1df54c2f6db"},"vehicle_type_id":"4","last_reported":1685234413,"current_range_meters":17600,"station_id":"ce4bh0p2rcd13ifvqd80","pricing_plan_id":"free"},{"bike_id":"51bf5376-7af0-4df9-b9fd-dfdd1add1681","system_id":"levelo_inurba_marseille","lat":43.30595,"lon":5.39356,"is_reserved":false,"is_disabled":false,"rental_uris":{"android":"levelo://app?vid=51bf5376-7af0-4df9-b9fd-dfdd1add1681","ios":"levelo://app?vid=51bf5376-7af0-4df9-b9fd-dfdd1add1681"},"vehicle_type_id":"4","last_reported":1685234413,"current_range_meters":17200,"station_id":"ce4bh0p2rcd13ifvqd80","pricing_plan_id":"free"},{"bike_id":"a6aad4b0-d997-4a7d-b36e-360d05e4421f","system_id":"levelo_inurba_marseille","lat":43.305994,"lon":5.393687,"is_reserved":false,"is_disabled":false,"rental_uris":{"android":"levelo://app?vid=a6aad4b0-d997-4a7d-b36e-360d05e4421f","ios":"levelo://app?vid=a6aad4b0-d997-4a7d-b36e-360d05e4421f"},"vehicle_type_id":"4","last_reported":1685234413,"current_range_meters":2800,"station_id":"ce4bh0p2rcd13ifvqd80","pricing_plan_id":"free"},{"bike_id":"06e7b996-f623-4919-8777-f5caa86902ca","system_id":"levelo_inurba_marseille","lat":43.30305,"lon":5.39204,"is_reserved":false,"is_disabled":false,"rental_uris":{"android":"levelo://app?vid=06e7b996-f623-4919-8777-f5caa86902ca","ios":"levelo://app?vid=06e7b996-f623-4919-8777-f5caa86902ca"},"vehicle_type_id":"4","last_reported":1685234413,"current_range_meters":4800,"station_id":"ce4bgkh2rcd13ifvqbk0","pricing_plan_id":"free"},{"bike_id":"ca79ae3f-35ba-49d3-8f21-359ff80b86ab","system_id":"levelo_inurba_marseille","lat":43.30291,"lon":5.39194,"is_reserved":false,"is_disabled":false,"rental_uris":{"android":"levelo://app?vid=ca79ae3f-35ba-49d3-8f21-359ff80b86ab","ios":"levelo://app?vid=ca79ae3f-35ba-49d3-8f21-359ff80b86ab"},"vehicle_type_id":"4","last_reported":1685234413,"current_range_meters":25600,"station_id":"ce4bgkh2rcd13ifvqbk0","pricing_plan_id":"free"},{"bike_id":"57bfb003-2427-450a-8eac-0bc5d91f0b39","system_id":"levelo_inurba_marseille","lat":43.303,"lon":5.39207,"is_reserved":false,"is_disabled":false,"rental_uris":{"android":"levelo://app?vid=57bfb003-2427-450a-8eac-0bc5d91f0b39","ios":"levelo://app?vid=57bfb003-2427-450a-8eac-0bc5d91f0b39"},"vehicle_type_id":"4","last_reported":1685234413,"current_range_meters":19200,"station_id":"ce4bgkh2rcd13ifvqbk0","pricing_plan_id":"free"},{"bike_id":"a3e454f6-9ffd-4a5d-ae4a-134367ba51ed","system_id":"levelo_inurba_marseille","lat":43.29226,"lon":5.36094,"is_reserved":false,"is_disabled":false,"rental_uris":{"android":"levelo://app?vid=a3e454f6-9ffd-4a5d-ae4a-134367ba51ed","ios":"levelo://app?vid=a3e454f6-9ffd-4a5d-ae4a-134367ba51ed"},"vehicle_type_id":"4","last_reported":1685234413,"current_range_meters":8800,"station_id":"ce4bhbh2rcd13ifvqeqg","pricing_plan_id":"free"},{"bike_id":"aff49b73-77a8-4083-956b-7b3c30042dac","system_id":"levelo_inurba_marseille","lat":43.2922,"lon":5.36083,"is_reserved":false,"is_disabled":false,"rental_uris":{"android":"levelo://app?vid=aff49b73-77a8-4083-956b-7b3c30042dac","ios":"levelo://app?vid=aff49b73-77a8-4083-956b-7b3c30042dac"},"vehicle_type_id":"4","last_reported":1685234413,"current_range_meters":24800,"station_id":"ce4bhbh2rcd13ifvqeqg","pricing_plan_id":"free"},{"bike_id":"5c19ecd3-be04-4c04-a715-987cb4690ac2","system_id":"levelo_inurba_marseille","lat":43.300852,"lon":5.390859,"is_reserved":false,"is_disabled":false,"rental_uris":{"android":"levelo://app?vid=5c19ecd3-be04-4c04-a715-987cb4690ac2","ios":"levelo://app?vid=5c19ecd3-be04-4c04-a715-987cb4690ac2"},"vehicle_type_id":"4","last_reported":1685234413,"current_range_meters":15600,"station_id":"ce4bh192rcd13ifvqdb0","pricing_plan_id":"free"},{"bike_id":"1e51bcd3-4f97-4241-add4-56dbf71f8493","system_id":"levelo_inurba_marseille","lat":43.2989,"lon":5.38897,"is_reserved":false,"is_disabled":false,"rental_uris":{"android":"levelo://app?vid=1e51bcd3-4f97-4241-add4-56dbf71f8493","ios":"levelo://app?vid=1e51bcd3-4f97-4241-add4-56dbf71f8493"},"vehicle_type_id":"4","last_reported":1685234413,"current_range_meters":2800,"station_id":"ce4bh392rcd13ifvqdl0","pricing_plan_id":"free"},{"bike_id":"045fb31f-fdbe-45ef-97f8-da2fe52fe096","system_id":"levelo_inurba_marseille","lat":43.309038,"lon":5.396546,"is_reserved":false,"is_disabled":false,"rental_uris":{"android":"levelo://app?vid=045fb31f-fdbe-45ef-97f8-da2fe52fe096","ios":"levelo://app?vid=045fb31f-fdbe-45ef-97f8-da2fe52fe096"},"vehicle_type_id":"4","last_reported":1685234413,"current_range_meters":10400,"station_id":"ce4bh012rcd13ifvqcv0","pricing_plan_id":"free"},{"bike_id":"ca757b97-e112-469e-80d3-323fd71d0f77","system_id":"levelo_inurba_marseille","lat":43.309038,"lon":5.396546,"is_reserved":false,"is_disabled":false,"rental_uris":{"android":"levelo://app?vid=ca757b97-e112-469e-80d3-323fd71d0f77","ios":"levelo://app?vid=ca757b97-e112-469e-80d3-323fd71d0f77"},"vehicle_type_id":"4","last_reported":1685234413,"current_range_meters":25600,"station_id":"ce4bh012rcd13ifvqcv0","pricing_plan_id":"free"},{"bike_id":"3691cd1e-0d53-4578-a97d-a834947cea1e","system_id":"levelo_inurba_marseille","lat":43.309038,"lon":5.396546,"is_reserved":false,"is_disabled":false,"rental_uris":{"android":"levelo://app?vid=3691cd1e-0d53-4578-a97d-a834947cea1e","ios":"levelo://app?vid=3691cd1e-0d53-4578-a97d-a834947cea1e"},"vehicle_type_id":"4","last_reported":1685234413,"current_range_meters":31200,"station_id":"ce4bh012rcd13ifvqcv0","pricing_plan_id":"free"},{"bike_id":"b41b3580-052d-4ad8-98f8-af97b014fd0e","system_id":"levelo_inurba_marseille","lat":43.309038,"lon":5.396546,"is_reserved":false,"is_disabled":false,"rental_uris":{"android":"levelo://app?vid=b41b3580-052d-4ad8-98f8-af97b014fd0e","ios":"levelo://app?vid=b41b3580-052d-4ad8-98f8-af97b014fd0e"},"vehicle_type_id":"4","last_reported":1685234413,"current_range_meters":27200,"station_id":"ce4bh012rcd13ifvqcv0","pricing_plan_id":"free"},{"bike_id":"e012fb04-139a-495a-8bfe-9d2cbdab4680","system_id":"levelo_inurba_marseille","lat":43.31322,"lon":5.39698,"is_reserved":false,"is_disabled":false,"rental_uris":{"android":"levelo://app?vid=e012fb04-139a-495a-8bfe-9d2cbdab4680","ios":"levelo://app?vid=e012fb04-139a-495a-8bfe-9d2cbdab4680"},"vehicle_type_id":"4","last_reported":1685234413,"current_range_meters":6400,"station_id":"ce4bgvp2rcd13ifvqcu0","pricing_plan_id":"free"},{"bike_id":"39d8afea-5d0c-4be1-b63f-a70222999e3b","system_id":"levelo_inurba_marseille","lat":43.309038,"lon":5.396546,"is_reserved":false,"is_disabled":false,"rental_uris":{"android":"levelo://app?vid=39d8afea-5d0c-4be1-b63f-a70222999e3b","ios":"levelo://app?vid=39d8afea-5d0c-4be1-b63f-a70222999e3b"},"vehicle_type_id":"4","last_reported":1685234413,"current_range_meters":26800,"station_id":"ce4bh012rcd13ifvqcv0","pricing_plan_id":"free"},{"bike_id":"3d4f3e62-609d-4631-9ec7-3f0cc7eca0d0","system_id":"levelo_inurba_marseille","lat":43.313291,"lon":5.396838,"is_reserved":false,"is_disabled":false,"rental_uris":{"android":"levelo://app?vid=3d4f3e62-609d-4631-9ec7-3f0cc7eca0d0","ios":"levelo://app?vid=3d4f3e62-609d-4631-9ec7-3f0cc7eca0d0"},"vehicle_type_id":"4","last_reported":1685234413,"current_range_meters":31200,"station_id":"ce4bgvp2rcd13ifvqcu0","pricing_plan_id":"free"},{"bike_id":"4707d1c9-9fd1-4741-bab7-13bd73b1e65d","system_id":"levelo_inurba_marseille","lat":43.309038,"lon":5.396546,"is_reserved":false,"is_disabled":false,"rental_uris":{"android":"levelo://app?vid=4707d1c9-9fd1-4741-bab7-13bd73b1e65d","ios":"levelo://app?vid=4707d1c9-9fd1-4741-bab7-13bd73b1e65d"},"vehicle_type_id":"4","last_reported":1685234413,"current_range_meters":22000,"station_id":"ce4bh012rcd13ifvqcv0","pricing_plan_id":"free"},{"bike_id":"3f5be88a-8d94-47d3-a74c-5cc139e20dd5","system_id":"levelo_inurba_marseille","lat":43.309038,"lon":5.396546,"is_reserved":false,"is_disabled":false,"rental_uris":{"android":"levelo://app?vid=3f5be88a-8d94-47d3-a74c-5cc139e20dd5","ios":"levelo://app?vid=3f5be88a-8d94-47d3-a74c-5cc139e20dd5"},"vehicle_type_id":"4","last_reported":1685234413,"current_range_meters":26000,"station_id":"ce4bh012rcd13ifvqcv0","pricing_plan_id":"free"},{"bike_id":"696ed10a-cb47-4091-b555-9ee7fd21ab82","system_id":"levelo_inurba_marseille","lat":43.289184,"lon":5.366408,"is_reserved":false,"is_disabled":false,"rental_uris":{"android":"levelo://app?vid=696ed10a-cb47-4091-b555-9ee7fd21ab82","ios":"levelo://app?vid=696ed10a-cb47-4091-b555-9ee7fd21ab82"},"vehicle_type_id":"4","last_reported":1685234413,"current_range_meters":31600,"station_id":"ce4bhap2rcd13ifvqek0","pricing_plan_id":"free"},{"bike_id":"0dc335d4-43f8-4d08-bfd1-b986c71964c1","system_id":"levelo_inurba_marseille","lat":43.289184,"lon":5.366408,"is_reserved":false,"is_disabled":false,"rental_uris":{"android":"levelo://app?vid=0dc335d4-43f8-4d08-bfd1-b986c71964c1","ios":"levelo://app?vid=0dc335d4-43f8-4d08-bfd1-b986c71964c1"},"vehicle_type_id":"4","last_reported":1685234413,"current_range_meters":31600,"station_id":"ce4bhap2rcd13ifvqek0","pricing_plan_id":"free"},{"bike_id":"f6605e77-ae8d-43eb-80c3-75614e90e69b","system_id":"levelo_inurba_marseille","lat":43.289184,"lon":5.366408,"is_reserved":false,"is_disabled":false,"rental_uris":{"android":"levelo://app?vid=f6605e77-ae8d-43eb-80c3-75614e90e69b","ios":"levelo://app?vid=f6605e77-ae8d-43eb-80c3-75614e90e69b"},"vehicle_type_id":"4","last_reported":1685234413,"current_range_meters":24800,"station_id":"ce4bhap2rcd13ifvqek0","pricing_plan_id":"free"},{"bike_id":"a43958b6-9c93-43de-9c2a-0d1eba810e94","system_id":"levelo_inurba_marseille","lat":43.289184,"lon":5.366408,"is_reserved":false,"is_disabled":false,"rental_uris":{"android":"levelo://app?vid=a43958b6-9c93-43de-9c2a-0d1eba810e94","ios":"levelo://app?vid=a43958b6-9c93-43de-9c2a-0d1eba810e94"},"vehicle_type_id":"4","last_reported":1685234413,"current_range_meters":19200,"station_id":"ce4bhap2rcd13ifvqek0","pricing_plan_id":"free"},{"bike_id":"7a396bcb-5dd7-4e05-b998-44a0244f9a70","system_id":"levelo_inurba_marseille","lat":43.289184,"lon":5.366408,"is_reserved":false,"is_disabled":false,"rental_uris":{"android":"levelo://app?vid=7a396bcb-5dd7-4e05-b998-44a0244f9a70","ios":"levelo://app?vid=7a396bcb-5dd7-4e05-b998-44a0244f9a70"},"vehicle_type_id":"4","last_reported":1685234413,"current_range_meters":31600,"station_id":"ce4bhap2rcd13ifvqek0","pricing_plan_id":"free"},{"bike_id":"07071898-0ef5-422c-80ca-a632a5ce20cc","system_id":"levelo_inurba_marseille","lat":43.292642,"lon":5.384254,"is_reserved":false,"is_disabled":false,"rental_uris":{"android":"levelo://app?vid=07071898-0ef5-422c-80ca-a632a5ce20cc","ios":"levelo://app?vid=07071898-0ef5-422c-80ca-a632a5ce20cc"},"vehicle_type_id":"4","last_reported":1685234413,"current_range_meters":30000,"station_id":"ce4bh692rcd13ifvqea0","pricing_plan_id":"free"},{"bike_id":"e90cb2f8-5ebb-423b-afc6-f3040335e831","system_id":"levelo_inurba_marseille","lat":43.30424,"lon":5.3975,"is_reserved":false,"is_disabled":false,"rental_uris":{"android":"levelo://app?vid=e90cb2f8-5ebb-423b-afc6-f3040335e831","ios":"levelo://app?vid=e90cb2f8-5ebb-423b-afc6-f3040335e831"},"vehicle_type_id":"4","last_reported":1685234413,"current_range_meters":27600,"station_id":"ce4bh092rcd13ifvqd20","pricing_plan_id":"free"},{"bike_id":"6ca6379a-c58e-4aec-a178-cf95434b607f","system_id":"levelo_inurba_marseille","lat":43.304274,"lon":5.397513,"is_reserved":false,"is_disabled":false,"rental_uris":{"android":"levelo://app?vid=6ca6379a-c58e-4aec-a178-cf95434b607f","ios":"levelo://app?vid=6ca6379a-c58e-4aec-a178-cf95434b607f"},"vehicle_type_id":"4","last_reported":1685234413,"current_range_meters":27200,"station_id":"ce4bh092rcd13ifvqd20","pricing_plan_id":"free"},{"bike_id":"8650c649-d933-4980-a23c-e8bd29834283","system_id":"levelo_inurba_marseille","lat":43.290104,"lon":5.356111,"is_reserved":false,"is_disabled":false,"rental_uris":{"android":"levelo://app?vid=8650c649-d933-4980-a23c-e8bd29834283","ios":"levelo://app?vid=8650c649-d933-4980-a23c-e8bd29834283"},"vehicle_type_id":"4","last_reported":1685234413,"current_range_meters":31200,"station_id":"ce4bhb92rcd13ifvqen0","pricing_plan_id":"free"},{"bike_id":"538a7ca9-7d68-4e4e-8da7-e8962a4eae05","system_id":"levelo_inurba_marseille","lat":43.297814,"lon":5.393513,"is_reserved":false,"is_disabled":false,"rental_uris":{"android":"levelo://app?vid=538a7ca9-7d68-4e4e-8da7-e8962a4eae05","ios":"levelo://app?vid=538a7ca9-7d68-4e4e-8da7-e8962a4eae05"},"vehicle_type_id":"4","last_reported":1685234413,"current_range_meters":0,"station_id":"chh1huq6cuj3fo74tm60","pricing_plan_id":"free"},{"bike_id":"c3e21d02-2e15-4b9e-8bd9-3bb28fd6eaf8","system_id":"levelo_inurba_marseille","lat":43.297814,"lon":5.393513,"is_reserved":false,"is_disabled":false,"rental_uris":{"android":"levelo://app?vid=c3e21d02-2e15-4b9e-8bd9-3bb28fd6eaf8","ios":"levelo://app?vid=c3e21d02-2e15-4b9e-8bd9-3bb28fd6eaf8"},"vehicle_type_id":"4","last_reported":1685234413,"current_range_meters":2000,"station_id":"chh1huq6cuj3fo74tm60","pricing_plan_id":"free"},{"bike_id":"1266e5b4-4dbc-4b57-a322-6dc430a4d3c6","system_id":"levelo_inurba_marseille","lat":43.297814,"lon":5.393513,"is_reserved":false,"is_disabled":false,"rental_uris":{"android":"levelo://app?vid=1266e5b4-4dbc-4b57-a322-6dc430a4d3c6","ios":"levelo://app?vid=1266e5b4-4dbc-4b57-a322-6dc430a4d3c6"},"vehicle_type_id":"4","last_reported":1685234413,"current_range_meters":25600,"station_id":"chh1huq6cuj3fo74tm60","pricing_plan_id":"free"},{"bike_id":"22215a0a-3557-473a-83a7-eca68f10ed30","system_id":"levelo_inurba_marseille","lat":43.28856,"lon":5.358371,"is_reserved":false,"is_disabled":false,"rental_uris":{"android":"levelo://app?vid=22215a0a-3557-473a-83a7-eca68f10ed30","ios":"levelo://app?vid=22215a0a-3557-473a-83a7-eca68f10ed30"},"vehicle_type_id":"4","last_reported":1685234413,"current_range_meters":31600,"station_id":"ce4bhb12rcd13ifvqem0","pricing_plan_id":"free"},{"bike_id":"fda2259f-75f4-40fc-b9bd-feea68406595","system_id":"levelo_inurba_marseille","lat":43.28856,"lon":5.358371,"is_reserved":false,"is_disabled":false,"rental_uris":{"android":"levelo://app?vid=fda2259f-75f4-40fc-b9bd-feea68406595","ios":"levelo://app?vid=fda2259f-75f4-40fc-b9bd-feea68406595"},"vehicle_type_id":"4","last_reported":1685234413,"current_range_meters":9600,"station_id":"ce4bhb12rcd13ifvqem0","pricing_plan_id":"free"},{"bike_id":"493860ce-e063-4684-ab33-c360eaf64153","system_id":"levelo_inurba_marseille","lat":43.33744,"lon":5.37451,"is_reserved":false,"is_disabled":false,"rental_uris":{"android":"levelo://app?vid=493860ce-e063-4684-ab33-c360eaf64153","ios":"levelo://app?vid=493860ce-e063-4684-ab33-c360eaf64153"},"vehicle_type_id":"4","last_reported":1685234413,"current_range_meters":20000,"station_id":"","pricing_plan_id":"free"},{"bike_id":"c67b547c-3fcb-4384-8614-e15f558fec55","system_id":"levelo_inurba_marseille","lat":43.33744,"lon":5.37451,"is_reserved":false,"is_disabled":false,"rental_uris":{"android":"levelo://app?vid=c67b547c-3fcb-4384-8614-e15f558fec55","ios":"levelo://app?vid=c67b547c-3fcb-4384-8614-e15f558fec55"},"vehicle_type_id":"4","last_reported":1685234413,"current_range_meters":29200,"station_id":"","pricing_plan_id":"free"},{"bike_id":"9fb8525b-543d-4336-b0a9-343654b54f59","system_id":"levelo_inurba_marseille","lat":43.30643,"lon":5.40069,"is_reserved":false,"is_disabled":false,"rental_uris":{"android":"levelo://app?vid=9fb8525b-543d-4336-b0a9-343654b54f59","ios":"levelo://app?vid=9fb8525b-543d-4336-b0a9-343654b54f59"},"vehicle_type_id":"4","last_reported":1685234413,"current_range_meters":26400,"station_id":"ce4bh112rcd13ifvqda0","pricing_plan_id":"free"},{"bike_id":"141c14ea-594b-43ee-894e-8c44af1dcd73","system_id":"levelo_inurba_marseille","lat":43.33754,"lon":5.37441,"is_reserved":false,"is_disabled":false,"rental_uris":{"android":"levelo://app?vid=141c14ea-594b-43ee-894e-8c44af1dcd73","ios":"levelo://app?vid=141c14ea-594b-43ee-894e-8c44af1dcd73"},"vehicle_type_id":"4","last_reported":1685234413,"current_range_meters":10000,"station_id":"","pricing_plan_id":"free"},{"bike_id":"556c6db1-2600-4c2b-9521-aae8453517c1","system_id":"levelo_inurba_marseille","lat":43.33754,"lon":5.37444,"is_reserved":false,"is_disabled":false,"rental_uris":{"android":"levelo://app?vid=556c6db1-2600-4c2b-9521-aae8453517c1","ios":"levelo://app?vid=556c6db1-2600-4c2b-9521-aae8453517c1"},"vehicle_type_id":"4","last_reported":1685234413,"current_range_meters":16000,"station_id":"","pricing_plan_id":"free"},{"bike_id":"21bebb90-bd37-4351-9ead-f26273aea005","system_id":"levelo_inurba_marseille","lat":43.33754,"lon":5.37445,"is_reserved":false,"is_disabled":false,"rental_uris":{"android":"levelo://app?vid=21bebb90-bd37-4351-9ead-f26273aea005","ios":"levelo://app?vid=21bebb90-bd37-4351-9ead-f26273aea005"},"vehicle_type_id":"4","last_reported":1685234413,"current_range_meters":13600,"station_id":"","pricing_plan_id":"free"},{"bike_id":"3014179c-f4ac-4029-ad8e-41449ecef94b","system_id":"levelo_inurba_marseille","lat":43.30642,"lon":5.401031,"is_reserved":false,"is_disabled":false,"rental_uris":{"android":"levelo://app?vid=3014179c-f4ac-4029-ad8e-41449ecef94b","ios":"levelo://app?vid=3014179c-f4ac-4029-ad8e-41449ecef94b"},"vehicle_type_id":"4","last_reported":1685234413,"current_range_meters":22000,"station_id":"ce4bh112rcd13ifvqda0","pricing_plan_id":"free"},{"bike_id":"f6de7211-1d9b-45db-8c5f-2a555978a7d3","system_id":"levelo_inurba_marseille","lat":43.30642,"lon":5.401031,"is_reserved":false,"is_disabled":false,"rental_uris":{"android":"levelo://app?vid=f6de7211-1d9b-45db-8c5f-2a555978a7d3","ios":"levelo://app?vid=f6de7211-1d9b-45db-8c5f-2a555978a7d3"},"vehicle_type_id":"4","last_reported":1685234413,"current_range_meters":16000,"station_id":"ce4bh112rcd13ifvqda0","pricing_plan_id":"free"},{"bike_id":"9f9caa61-1199-47e5-8389-775f97caf260","system_id":"levelo_inurba_marseille","lat":43.30642,"lon":5.401031,"is_reserved":false,"is_disabled":false,"rental_uris":{"android":"levelo://app?vid=9f9caa61-1199-47e5-8389-775f97caf260","ios":"levelo://app?vid=9f9caa61-1199-47e5-8389-775f97caf260"},"vehicle_type_id":"4","last_reported":1685234413,"current_range_meters":17600,"station_id":"ce4bh112rcd13ifvqda0","pricing_plan_id":"free"},{"bike_id":"5aaf445f-f097-4041-99e9-0b2edc8a39b1","system_id":"levelo_inurba_marseille","lat":43.33759,"lon":5.37443,"is_reserved":false,"is_disabled":false,"rental_uris":{"android":"levelo://app?vid=5aaf445f-f097-4041-99e9-0b2edc8a39b1","ios":"levelo://app?vid=5aaf445f-f097-4041-99e9-0b2edc8a39b1"},"vehicle_type_id":"4","last_reported":1685234413,"current_range_meters":22800,"station_id":"","pricing_plan_id":"free"},{"bike_id":"b644f69b-acc6-4746-80ec-d3f4847a33fc","system_id":"levelo_inurba_marseille","lat":43.30642,"lon":5.401031,"is_reserved":false,"is_disabled":false,"rental_uris":{"android":"levelo://app?vid=b644f69b-acc6-4746-80ec-d3f4847a33fc","ios":"levelo://app?vid=b644f69b-acc6-4746-80ec-d3f4847a33fc"},"vehicle_type_id":"4","last_reported":1685234413,"current_range_meters":30800,"station_id":"ce4bh112rcd13ifvqda0","pricing_plan_id":"free"},{"bike_id":"b9e3fd8b-5af9-433b-8337-97ca0b886f45","system_id":"levelo_inurba_marseille","lat":43.30642,"lon":5.401031,"is_reserved":false,"is_disabled":false,"rental_uris":{"android":"levelo://app?vid=b9e3fd8b-5af9-433b-8337-97ca0b886f45","ios":"levelo://app?vid=b9e3fd8b-5af9-433b-8337-97ca0b886f45"},"vehicle_type_id":"4","last_reported":1685234413,"current_range_meters":24800,"station_id":"ce4bh112rcd13ifvqda0","pricing_plan_id":"free"},{"bike_id":"5239c404-0071-46ec-8942-1a20b4702b8d","system_id":"levelo_inurba_marseille","lat":43.30648,"lon":5.40087,"is_reserved":false,"is_disabled":false,"rental_uris":{"android":"levelo://app?vid=5239c404-0071-46ec-8942-1a20b4702b8d","ios":"levelo://app?vid=5239c404-0071-46ec-8942-1a20b4702b8d"},"vehicle_type_id":"4","last_reported":1685234413,"current_range_meters":20800,"station_id":"ce4bh112rcd13ifvqda0","pricing_plan_id":"free"},{"bike_id":"a4deecbd-8c43-41e4-901c-3b6aa98e9100","system_id":"levelo_inurba_marseille","lat":43.30644,"lon":5.40087,"is_reserved":false,"is_disabled":false,"rental_uris":{"android":"levelo://app?vid=a4deecbd-8c43-41e4-901c-3b6aa98e9100","ios":"levelo://app?vid=a4deecbd-8c43-41e4-901c-3b6aa98e9100"},"vehicle_type_id":"4","last_reported":1685234413,"current_range_meters":31200,"station_id":"ce4bh112rcd13ifvqda0","pricing_plan_id":"free"},{"bike_id":"bb3c90e7-cf93-4d15-8128-febdcb13bbd5","system_id":"levelo_inurba_marseille","lat":43.30652,"lon":5.40091,"is_reserved":false,"is_disabled":false,"rental_uris":{"android":"levelo://app?vid=bb3c90e7-cf93-4d15-8128-febdcb13bbd5","ios":"levelo://app?vid=bb3c90e7-cf93-4d15-8128-febdcb13bbd5"},"vehicle_type_id":"4","last_reported":1685234413,"current_range_meters":18400,"station_id":"ce4bh112rcd13ifvqda0","pricing_plan_id":"free"},{"bike_id":"915c4707-613e-4625-b0aa-6650859eb4d1","system_id":"levelo_inurba_marseille","lat":43.30642,"lon":5.401031,"is_reserved":false,"is_disabled":false,"rental_uris":{"android":"levelo://app?vid=915c4707-613e-4625-b0aa-6650859eb4d1","ios":"levelo://app?vid=915c4707-613e-4625-b0aa-6650859eb4d1"},"vehicle_type_id":"4","last_reported":1685234413,"current_range_meters":31600,"station_id":"ce4bh112rcd13ifvqda0","pricing_plan_id":"free"},{"bike_id":"c622c08e-a260-4027-b92a-839107253eb5","system_id":"levelo_inurba_marseille","lat":43.33767,"lon":5.37457,"is_reserved":false,"is_disabled":false,"rental_uris":{"android":"levelo://app?vid=c622c08e-a260-4027-b92a-839107253eb5","ios":"levelo://app?vid=c622c08e-a260-4027-b92a-839107253eb5"},"vehicle_type_id":"4","last_reported":1685234413,"current_range_meters":28000,"station_id":"","pricing_plan_id":"free"},{"bike_id":"d0bf2688-9dad-48b2-b4a2-e4297307890c","system_id":"levelo_inurba_marseille","lat":43.30643,"lon":5.40097,"is_reserved":false,"is_disabled":false,"rental_uris":{"android":"levelo://app?vid=d0bf2688-9dad-48b2-b4a2-e4297307890c","ios":"levelo://app?vid=d0bf2688-9dad-48b2-b4a2-e4297307890c"},"vehicle_type_id":"4","last_reported":1685234413,"current_range_meters":0,"station_id":"ce4bh112rcd13ifvqda0","pricing_plan_id":"free"},{"bike_id":"7304294c-0657-444f-a612-66bc9d4e4857","system_id":"levelo_inurba_marseille","lat":43.301117,"lon":5.398795,"is_reserved":false,"is_disabled":false,"rental_uris":{"android":"levelo://app?vid=7304294c-0657-444f-a612-66bc9d4e4857","ios":"levelo://app?vid=7304294c-0657-444f-a612-66bc9d4e4857"},"vehicle_type_id":"4","last_reported":1685234413,"current_range_meters":24000,"station_id":"ce4bh0h2rcd13ifvqd40","pricing_plan_id":"free"},{"bike_id":"8ba9dd8b-d5de-4896-ac1b-2a3ad563d877","system_id":"levelo_inurba_marseille","lat":43.286591,"lon":5.363346,"is_reserved":false,"is_disabled":false,"rental_uris":{"android":"levelo://app?vid=8ba9dd8b-d5de-4896-ac1b-2a3ad563d877","ios":"levelo://app?vid=8ba9dd8b-d5de-4896-ac1b-2a3ad563d877"},"vehicle_type_id":"4","last_reported":1685234413,"current_range_meters":30400,"station_id":"ce4bhah2rcd13ifvqej0","pricing_plan_id":"free"},{"bike_id":"8d6f0d01-e11c-45c9-900a-9350a8df03c1","system_id":"levelo_inurba_marseille","lat":43.298681,"lon":5.397225,"is_reserved":false,"is_disabled":false,"rental_uris":{"android":"levelo://app?vid=8d6f0d01-e11c-45c9-900a-9350a8df03c1","ios":"levelo://app?vid=8d6f0d01-e11c-45c9-900a-9350a8df03c1"},"vehicle_type_id":"4","last_reported":1685234413,"current_range_meters":21600,"station_id":"ce4bh0h2rcd13ifvqd50","pricing_plan_id":"free"},{"bike_id":"63f19430-ee1c-4111-a25e-85ab58a1e665","system_id":"levelo_inurba_marseille","lat":43.298681,"lon":5.397225,"is_reserved":false,"is_disabled":false,"rental_uris":{"android":"levelo://app?vid=63f19430-ee1c-4111-a25e-85ab58a1e665","ios":"levelo://app?vid=63f19430-ee1c-4111-a25e-85ab58a1e665"},"vehicle_type_id":"4","last_reported":1685234413,"current_range_meters":28000,"station_id":"ce4bh0h2rcd13ifvqd50","pricing_plan_id":"free"},{"bike_id":"3e962e7e-ece7-4a3d-b151-778bb0c6a435","system_id":"levelo_inurba_marseille","lat":43.298681,"lon":5.397225,"is_reserved":false,"is_disabled":false,"rental_uris":{"android":"levelo://app?vid=3e962e7e-ece7-4a3d-b151-778bb0c6a435","ios":"levelo://app?vid=3e962e7e-ece7-4a3d-b151-778bb0c6a435"},"vehicle_type_id":"4","last_reported":1685234413,"current_range_meters":20000,"station_id":"ce4bh0h2rcd13ifvqd50","pricing_plan_id":"free"},{"bike_id":"5e525c30-9d68-4570-853e-cf5c784aceb8","system_id":"levelo_inurba_marseille","lat":43.286591,"lon":5.363346,"is_reserved":false,"is_disabled":false,"rental_uris":{"android":"levelo://app?vid=5e525c30-9d68-4570-853e-cf5c784aceb8","ios":"levelo://app?vid=5e525c30-9d68-4570-853e-cf5c784aceb8"},"vehicle_type_id":"4","last_reported":1685234413,"current_range_meters":18800,"station_id":"ce4bhah2rcd13ifvqej0","pricing_plan_id":"free"},{"bike_id":"832bdd1b-09ff-4311-8ff8-7c6751ecd1ac","system_id":"levelo_inurba_marseille","lat":43.298681,"lon":5.397225,"is_reserved":false,"is_disabled":false,"rental_uris":{"android":"levelo://app?vid=832bdd1b-09ff-4311-8ff8-7c6751ecd1ac","ios":"levelo://app?vid=832bdd1b-09ff-4311-8ff8-7c6751ecd1ac"},"vehicle_type_id":"4","last_reported":1685234413,"current_range_meters":27200,"station_id":"ce4bh0h2rcd13ifvqd50","pricing_plan_id":"free"},{"bike_id":"b9b6acb2-1cdc-438b-9818-d3f09a6ae833","system_id":"levelo_inurba_marseille","lat":43.286591,"lon":5.363346,"is_reserved":false,"is_disabled":false,"rental_uris":{"android":"levelo://app?vid=b9b6acb2-1cdc-438b-9818-d3f09a6ae833","ios":"levelo://app?vid=b9b6acb2-1cdc-438b-9818-d3f09a6ae833"},"vehicle_type_id":"4","last_reported":1685234413,"current_range_meters":28400,"station_id":"ce4bhah2rcd13ifvqej0","pricing_plan_id":"free"},{"bike_id":"ce5f6eb2-2a73-4e06-acbd-9ab29c81536b","system_id":"levelo_inurba_marseille","lat":43.28699,"lon":5.37391,"is_reserved":false,"is_disabled":false,"rental_uris":{"android":"levelo://app?vid=ce5f6eb2-2a73-4e06-acbd-9ab29c81536b","ios":"levelo://app?vid=ce5f6eb2-2a73-4e06-acbd-9ab29c81536b"},"vehicle_type_id":"4","last_reported":1685234413,"current_range_meters":0,"station_id":"","pricing_plan_id":"free"},{"bike_id":"b829aba6-cdc8-4be6-b941-bc59bc9afb17","system_id":"levelo_inurba_marseille","lat":43.286591,"lon":5.363346,"is_reserved":false,"is_disabled":false,"rental_uris":{"android":"levelo://app?vid=b829aba6-cdc8-4be6-b941-bc59bc9afb17","ios":"levelo://app?vid=b829aba6-cdc8-4be6-b941-bc59bc9afb17"},"vehicle_type_id":"4","last_reported":1685234413,"current_range_meters":16400,"station_id":"ce4bhah2rcd13ifvqej0","pricing_plan_id":"free"},{"bike_id":"ec3ff7d7-d58a-4b4b-bbde-b57ac7299b02","system_id":"levelo_inurba_marseille","lat":43.295196,"lon":5.39397,"is_reserved":false,"is_disabled":false,"rental_uris":{"android":"levelo://app?vid=ec3ff7d7-d58a-4b4b-bbde-b57ac7299b02","ios":"levelo://app?vid=ec3ff7d7-d58a-4b4b-bbde-b57ac7299b02"},"vehicle_type_id":"4","last_reported":1685234413,"current_range_meters":23200,"station_id":"ce4bh292rcd13ifvqdf0","pricing_plan_id":"free"},{"bike_id":"9242c829-9ecd-4337-af05-00c3cc394df5","system_id":"levelo_inurba_marseille","lat":43.286573,"lon":5.363524,"is_reserved":false,"is_disabled":false,"rental_uris":{"android":"levelo://app?vid=9242c829-9ecd-4337-af05-00c3cc394df5","ios":"levelo://app?vid=9242c829-9ecd-4337-af05-00c3cc394df5"},"vehicle_type_id":"4","last_reported":1685234413,"current_range_meters":17600,"station_id":"ce4bhah2rcd13ifvqej0","pricing_plan_id":"free"},{"bike_id":"49b0997a-731d-4bc2-9d6b-0525f82c4e50","system_id":"levelo_inurba_marseille","lat":43.286571,"lon":5.363424,"is_reserved":false,"is_disabled":false,"rental_uris":{"android":"levelo://app?vid=49b0997a-731d-4bc2-9d6b-0525f82c4e50","ios":"levelo://app?vid=49b0997a-731d-4bc2-9d6b-0525f82c4e50"},"vehicle_type_id":"4","last_reported":1685234413,"current_range_meters":30400,"station_id":"ce4bhah2rcd13ifvqej0","pricing_plan_id":"free"},{"bike_id":"603bbf7c-d30d-4606-a3a4-9ecd2e22c544","system_id":"levelo_inurba_marseille","lat":43.286564,"lon":5.363405,"is_reserved":false,"is_disabled":false,"rental_uris":{"android":"levelo://app?vid=603bbf7c-d30d-4606-a3a4-9ecd2e22c544","ios":"levelo://app?vid=603bbf7c-d30d-4606-a3a4-9ecd2e22c544"},"vehicle_type_id":"4","last_reported":1685234413,"current_range_meters":31200,"station_id":"ce4bhah2rcd13ifvqej0","pricing_plan_id":"free"},{"bike_id":"07a26f59-2d57-4f06-bbc3-bc39ca7e2930","system_id":"levelo_inurba_marseille","lat":43.295194,"lon":5.39397,"is_reserved":false,"is_disabled":false,"rental_uris":{"android":"levelo://app?vid=07a26f59-2d57-4f06-bbc3-bc39ca7e2930","ios":"levelo://app?vid=07a26f59-2d57-4f06-bbc3-bc39ca7e2930"},"vehicle_type_id":"4","last_reported":1685234413,"current_range_meters":31200,"station_id":"ce4bh292rcd13ifvqdf0","pricing_plan_id":"free"},{"bike_id":"a04ab49e-b67e-44ef-aedb-6275f444abd1","system_id":"levelo_inurba_marseille","lat":43.302759,"lon":5.400793,"is_reserved":false,"is_disabled":false,"rental_uris":{"android":"levelo://app?vid=a04ab49e-b67e-44ef-aedb-6275f444abd1","ios":"levelo://app?vid=a04ab49e-b67e-44ef-aedb-6275f444abd1"},"vehicle_type_id":"4","last_reported":1685234413,"current_range_meters":4800,"station_id":"ce4bgvh2rcd13ifvqcs0","pricing_plan_id":"free"},{"bike_id":"f31aa1c2-d5fc-48fc-9bc2-4c3de9c4ebba","system_id":"levelo_inurba_marseille","lat":43.302759,"lon":5.400793,"is_reserved":false,"is_disabled":false,"rental_uris":{"android":"levelo://app?vid=f31aa1c2-d5fc-48fc-9bc2-4c3de9c4ebba","ios":"levelo://app?vid=f31aa1c2-d5fc-48fc-9bc2-4c3de9c4ebba"},"vehicle_type_id":"4","last_reported":1685234413,"current_range_meters":20400,"station_id":"ce4bgvh2rcd13ifvqcs0","pricing_plan_id":"free"},{"bike_id":"29baa61a-3632-4c74-9794-474a66252774","system_id":"levelo_inurba_marseille","lat":43.302759,"lon":5.400793,"is_reserved":false,"is_disabled":false,"rental_uris":{"android":"levelo://app?vid=29baa61a-3632-4c74-9794-474a66252774","ios":"levelo://app?vid=29baa61a-3632-4c74-9794-474a66252774"},"vehicle_type_id":"4","last_reported":1685234413,"current_range_meters":0,"station_id":"ce4bgvh2rcd13ifvqcs0","pricing_plan_id":"free"},{"bike_id":"85a6f759-4add-4690-a534-14c49c8391af","system_id":"levelo_inurba_marseille","lat":43.302759,"lon":5.400793,"is_reserved":false,"is_disabled":false,"rental_uris":{"android":"levelo://app?vid=85a6f759-4add-4690-a534-14c49c8391af","ios":"levelo://app?vid=85a6f759-4add-4690-a534-14c49c8391af"},"vehicle_type_id":"4","last_reported":1685234413,"current_range_meters":14000,"station_id":"ce4bgvh2rcd13ifvqcs0","pricing_plan_id":"free"},{"bike_id":"ee2b3a24-f689-469e-bf9f-d887b269d511","system_id":"levelo_inurba_marseille","lat":43.30231,"lon":5.40046,"is_reserved":false,"is_disabled":false,"rental_uris":{"android":"levelo://app?vid=ee2b3a24-f689-469e-bf9f-d887b269d511","ios":"levelo://app?vid=ee2b3a24-f689-469e-bf9f-d887b269d511"},"vehicle_type_id":"4","last_reported":1685234413,"current_range_meters":20400,"station_id":"","pricing_plan_id":"free"},{"bike_id":"586e9410-86ce-4d73-8df3-0d2c31fc457d","system_id":"levelo_inurba_marseille","lat":43.302759,"lon":5.400793,"is_reserved":false,"is_disabled":false,"rental_uris":{"android":"levelo://app?vid=586e9410-86ce-4d73-8df3-0d2c31fc457d","ios":"levelo://app?vid=586e9410-86ce-4d73-8df3-0d2c31fc457d"},"vehicle_type_id":"4","last_reported":1685234413,"current_range_meters":20000,"station_id":"ce4bgvh2rcd13ifvqcs0","pricing_plan_id":"free"},{"bike_id":"defbafdc-4948-4965-8858-80d68e83e9e2","system_id":"levelo_inurba_marseille","lat":43.302759,"lon":5.400793,"is_reserved":false,"is_disabled":false,"rental_uris":{"android":"levelo://app?vid=defbafdc-4948-4965-8858-80d68e83e9e2","ios":"levelo://app?vid=defbafdc-4948-4965-8858-80d68e83e9e2"},"vehicle_type_id":"4","last_reported":1685234413,"current_range_meters":4800,"station_id":"ce4bgvh2rcd13ifvqcs0","pricing_plan_id":"free"},{"bike_id":"8a04ad65-8756-4979-8530-b78e15de914e","system_id":"levelo_inurba_marseille","lat":43.290336,"lon":5.386425,"is_reserved":false,"is_disabled":false,"rental_uris":{"android":"levelo://app?vid=8a04ad65-8756-4979-8530-b78e15de914e","ios":"levelo://app?vid=8a04ad65-8756-4979-8530-b78e15de914e"},"vehicle_type_id":"4","last_reported":1685234413,"current_range_meters":26000,"station_id":"ce4bh4p2rcd13ifvqe0g","pricing_plan_id":"free"},{"bike_id":"11a83a28-ae84-4dae-8f25-2b3bbaf8349c","system_id":"levelo_inurba_marseille","lat":43.302759,"lon":5.400793,"is_reserved":false,"is_disabled":false,"rental_uris":{"android":"levelo://app?vid=11a83a28-ae84-4dae-8f25-2b3bbaf8349c","ios":"levelo://app?vid=11a83a28-ae84-4dae-8f25-2b3bbaf8349c"},"vehicle_type_id":"4","last_reported":1685234413,"current_range_meters":31600,"station_id":"ce4bgvh2rcd13ifvqcs0","pricing_plan_id":"free"},{"bike_id":"5b82eba9-f348-4c2e-90a3-08976276926d","system_id":"levelo_inurba_marseille","lat":43.302759,"lon":5.400793,"is_reserved":false,"is_disabled":false,"rental_uris":{"android":"levelo://app?vid=5b82eba9-f348-4c2e-90a3-08976276926d","ios":"levelo://app?vid=5b82eba9-f348-4c2e-90a3-08976276926d"},"vehicle_type_id":"4","last_reported":1685234413,"current_range_meters":31600,"station_id":"ce4bgvh2rcd13ifvqcs0","pricing_plan_id":"free"},{"bike_id":"59f29e98-a144-404a-b788-cec616dd4f1c","system_id":"levelo_inurba_marseille","lat":43.302759,"lon":5.400793,"is_reserved":false,"is_disabled":false,"rental_uris":{"android":"levelo://app?vid=59f29e98-a144-404a-b788-cec616dd4f1c","ios":"levelo://app?vid=59f29e98-a144-404a-b788-cec616dd4f1c"},"vehicle_type_id":"4","last_reported":1685234413,"current_range_meters":24800,"station_id":"ce4bgvh2rcd13ifvqcs0","pricing_plan_id":"free"},{"bike_id":"1008f1f7-2e87-4180-9ac6-4ea9607446a1","system_id":"levelo_inurba_marseille","lat":43.302759,"lon":5.400793,"is_reserved":false,"is_disabled":false,"rental_uris":{"android":"levelo://app?vid=1008f1f7-2e87-4180-9ac6-4ea9607446a1","ios":"levelo://app?vid=1008f1f7-2e87-4180-9ac6-4ea9607446a1"},"vehicle_type_id":"4","last_reported":1685234413,"current_range_meters":29600,"station_id":"ce4bgvh2rcd13ifvqcs0","pricing_plan_id":"free"},{"bike_id":"fc2ae944-ecc7-4775-8b08-ebf8a0f1978f","system_id":"levelo_inurba_marseille","lat":43.286039,"lon":5.370681,"is_reserved":false,"is_disabled":false,"rental_uris":{"android":"levelo://app?vid=fc2ae944-ecc7-4775-8b08-ebf8a0f1978f","ios":"levelo://app?vid=fc2ae944-ecc7-4775-8b08-ebf8a0f1978f"},"vehicle_type_id":"4","last_reported":1685234413,"current_range_meters":6000,"station_id":"ce4bht12rcd13ifvqi60","pricing_plan_id":"free"},{"bike_id":"2627734b-a15c-4a04-be16-293ff1124176","system_id":"levelo_inurba_marseille","lat":43.28716,"lon":5.37941,"is_reserved":false,"is_disabled":false,"rental_uris":{"android":"levelo://app?vid=2627734b-a15c-4a04-be16-293ff1124176","ios":"levelo://app?vid=2627734b-a15c-4a04-be16-293ff1124176"},"vehicle_type_id":"4","last_reported":1685234413,"current_range_meters":8800,"station_id":"ce4bh9p2rcd13ifvqec0","pricing_plan_id":"free"},{"bike_id":"4ebe09ea-bbd9-477a-ad27-805daef49ec1","system_id":"levelo_inurba_marseille","lat":43.31643,"lon":5.40447,"is_reserved":false,"is_disabled":false,"rental_uris":{"android":"levelo://app?vid=4ebe09ea-bbd9-477a-ad27-805daef49ec1","ios":"levelo://app?vid=4ebe09ea-bbd9-477a-ad27-805daef49ec1"},"vehicle_type_id":"4","last_reported":1685234413,"current_range_meters":0,"station_id":"ce4bh012rcd13ifvqd00","pricing_plan_id":"free"},{"bike_id":"01a908e1-65ed-419c-9ac4-cc069f476374","system_id":"levelo_inurba_marseille","lat":43.291994,"lon":5.392907,"is_reserved":false,"is_disabled":false,"rental_uris":{"android":"levelo://app?vid=01a908e1-65ed-419c-9ac4-cc069f476374","ios":"levelo://app?vid=01a908e1-65ed-419c-9ac4-cc069f476374"},"vehicle_type_id":"4","last_reported":1685234413,"current_range_meters":24000,"station_id":"ce4bh192rcd13ifvqdd0","pricing_plan_id":"free"},{"bike_id":"9f5033e4-0f7d-42d0-8540-057e816c7d84","system_id":"levelo_inurba_marseille","lat":43.295713,"lon":5.399639,"is_reserved":false,"is_disabled":false,"rental_uris":{"android":"levelo://app?vid=9f5033e4-0f7d-42d0-8540-057e816c7d84","ios":"levelo://app?vid=9f5033e4-0f7d-42d0-8540-057e816c7d84"},"vehicle_type_id":"4","last_reported":1685234413,"current_range_meters":30800,"station_id":"ce4bh312rcd13ifvqdj0","pricing_plan_id":"free"},{"bike_id":"0bdc55da-2a44-4682-8170-b83b6f2fc2cb","system_id":"levelo_inurba_marseille","lat":43.28681,"lon":5.3867,"is_reserved":false,"is_disabled":false,"rental_uris":{"android":"levelo://app?vid=0bdc55da-2a44-4682-8170-b83b6f2fc2cb","ios":"levelo://app?vid=0bdc55da-2a44-4682-8170-b83b6f2fc2cb"},"vehicle_type_id":"4","last_reported":1685234413,"current_range_meters":31200,"station_id":"ce4bh492rcd13ifvqdug","pricing_plan_id":"free"},{"bike_id":"4437e0b8-5b1a-42af-b1b4-b081da194c7f","system_id":"levelo_inurba_marseille","lat":43.28673,"lon":5.3867,"is_reserved":false,"is_disabled":false,"rental_uris":{"android":"levelo://app?vid=4437e0b8-5b1a-42af-b1b4-b081da194c7f","ios":"levelo://app?vid=4437e0b8-5b1a-42af-b1b4-b081da194c7f"},"vehicle_type_id":"4","last_reported":1685234413,"current_range_meters":31200,"station_id":"ce4bh492rcd13ifvqdug","pricing_plan_id":"free"},{"bike_id":"571df919-e5f7-4591-b38b-27c58cdaf0cf","system_id":"levelo_inurba_marseille","lat":43.286595,"lon":5.386795,"is_reserved":false,"is_disabled":false,"rental_uris":{"android":"levelo://app?vid=571df919-e5f7-4591-b38b-27c58cdaf0cf","ios":"levelo://app?vid=571df919-e5f7-4591-b38b-27c58cdaf0cf"},"vehicle_type_id":"4","last_reported":1685234413,"current_range_meters":4400,"station_id":"ce4bh492rcd13ifvqdug","pricing_plan_id":"free"},{"bike_id":"98af337d-e2c5-4405-b0cd-9ff2e7c1786a","system_id":"levelo_inurba_marseille","lat":43.283502,"lon":5.386471,"is_reserved":false,"is_disabled":false,"rental_uris":{"android":"levelo://app?vid=98af337d-e2c5-4405-b0cd-9ff2e7c1786a","ios":"levelo://app?vid=98af337d-e2c5-4405-b0cd-9ff2e7c1786a"},"vehicle_type_id":"4","last_reported":1685234413,"current_range_meters":5200,"station_id":"ce4bh492rcd13ifvqdvg","pricing_plan_id":"free"},{"bike_id":"12b97231-b334-4083-9232-cac67a3556bb","system_id":"levelo_inurba_marseille","lat":43.32328,"lon":5.4062,"is_reserved":false,"is_disabled":false,"rental_uris":{"android":"levelo://app?vid=12b97231-b334-4083-9232-cac67a3556bb","ios":"levelo://app?vid=12b97231-b334-4083-9232-cac67a3556bb"},"vehicle_type_id":"4","last_reported":1685234413,"current_range_meters":13600,"station_id":"ce4bhq92rcd13ifvqhjg","pricing_plan_id":"free"},{"bike_id":"576b8e19-4dd9-4c05-9bf2-2b27cf8d4172","system_id":"levelo_inurba_marseille","lat":43.32338,"lon":5.4062,"is_reserved":false,"is_disabled":false,"rental_uris":{"android":"levelo://app?vid=576b8e19-4dd9-4c05-9bf2-2b27cf8d4172","ios":"levelo://app?vid=576b8e19-4dd9-4c05-9bf2-2b27cf8d4172"},"vehicle_type_id":"4","last_reported":1685234413,"current_range_meters":19200,"station_id":"ce4bhq92rcd13ifvqhjg","pricing_plan_id":"free"},{"bike_id":"6ac14e67-4aed-4d5e-b4b4-f7f8dd830d1d","system_id":"levelo_inurba_marseille","lat":43.288497,"lon":5.393089,"is_reserved":false,"is_disabled":false,"rental_uris":{"android":"levelo://app?vid=6ac14e67-4aed-4d5e-b4b4-f7f8dd830d1d","ios":"levelo://app?vid=6ac14e67-4aed-4d5e-b4b4-f7f8dd830d1d"},"vehicle_type_id":"4","last_reported":1685234413,"current_range_meters":28400,"station_id":"ce4bh2p2rcd13ifvqdi0","pricing_plan_id":"free"},{"bike_id":"17b0b653-c4f6-47d9-a006-c00a191a2551","system_id":"levelo_inurba_marseille","lat":43.283498,"lon":5.380948,"is_reserved":false,"is_disabled":false,"rental_uris":{"android":"levelo://app?vid=17b0b653-c4f6-47d9-a006-c00a191a2551","ios":"levelo://app?vid=17b0b653-c4f6-47d9-a006-c00a191a2551"},"vehicle_type_id":"4","last_reported":1685234413,"current_range_meters":31200,"station_id":"ce4bh412rcd13ifvqdr0","pricing_plan_id":"free"},{"bike_id":"18111293-cd5a-4582-b109-353f361b4498","system_id":"levelo_inurba_marseille","lat":43.284219,"lon":5.3497,"is_reserved":false,"is_disabled":false,"rental_uris":{"android":"levelo://app?vid=18111293-cd5a-4582-b109-353f361b4498","ios":"levelo://app?vid=18111293-cd5a-4582-b109-353f361b4498"},"vehicle_type_id":"4","last_reported":1685234413,"current_range_meters":29200,"station_id":"ce4bhbh2rcd13ifvqepg","pricing_plan_id":"free"},{"bike_id":"665e90c9-a033-4aca-a5fc-36ae90b07771","system_id":"levelo_inurba_marseille","lat":43.289363,"lon":5.396322,"is_reserved":false,"is_disabled":false,"rental_uris":{"android":"levelo://app?vid=665e90c9-a033-4aca-a5fc-36ae90b07771","ios":"levelo://app?vid=665e90c9-a033-4aca-a5fc-36ae90b07771"},"vehicle_type_id":"4","last_reported":1685234413,"current_range_meters":8800,"station_id":"ce4bh3h2rcd13ifvqdn0","pricing_plan_id":"free"},{"bike_id":"40f48054-b284-4db9-b517-0d7781806a7b","system_id":"levelo_inurba_marseille","lat":43.292724,"lon":5.401131,"is_reserved":false,"is_disabled":false,"rental_uris":{"android":"levelo://app?vid=40f48054-b284-4db9-b517-0d7781806a7b","ios":"levelo://app?vid=40f48054-b284-4db9-b517-0d7781806a7b"},"vehicle_type_id":"4","last_reported":1685234413,"current_range_meters":24400,"station_id":"ce4bh312rcd13ifvqdk0","pricing_plan_id":"free"},{"bike_id":"ba6d5a4a-06be-4782-b248-10d661fafee4","system_id":"levelo_inurba_marseille","lat":43.2927,"lon":5.40137,"is_reserved":false,"is_disabled":false,"rental_uris":{"android":"levelo://app?vid=ba6d5a4a-06be-4782-b248-10d661fafee4","ios":"levelo://app?vid=ba6d5a4a-06be-4782-b248-10d661fafee4"},"vehicle_type_id":"4","last_reported":1685234413,"current_range_meters":28000,"station_id":"","pricing_plan_id":"free"},{"bike_id":"d9745da3-fbea-4d10-83e9-3c0829417909","system_id":"levelo_inurba_marseille","lat":43.282754,"lon":5.350519,"is_reserved":false,"is_disabled":false,"rental_uris":{"android":"levelo://app?vid=d9745da3-fbea-4d10-83e9-3c0829417909","ios":"levelo://app?vid=d9745da3-fbea-4d10-83e9-3c0829417909"},"vehicle_type_id":"4","last_reported":1685234413,"current_range_meters":1200,"station_id":"ce4bhbp2rcd13ifvqerg","pricing_plan_id":"free"},{"bike_id":"719b55ff-dbca-45c7-a8b9-9bb0b46268da","system_id":"levelo_inurba_marseille","lat":43.283502,"lon":5.386471,"is_reserved":false,"is_disabled":false,"rental_uris":{"android":"levelo://app?vid=719b55ff-dbca-45c7-a8b9-9bb0b46268da","ios":"levelo://app?vid=719b55ff-dbca-45c7-a8b9-9bb0b46268da"},"vehicle_type_id":"4","last_reported":1685234413,"current_range_meters":4400,"station_id":"ce4bh492rcd13ifvqdvg","pricing_plan_id":"free"},{"bike_id":"d8f78abe-b9bf-4b61-89ec-f0124bd6d509","system_id":"levelo_inurba_marseille","lat":43.283502,"lon":5.386471,"is_reserved":false,"is_disabled":false,"rental_uris":{"android":"levelo://app?vid=d8f78abe-b9bf-4b61-89ec-f0124bd6d509","ios":"levelo://app?vid=d8f78abe-b9bf-4b61-89ec-f0124bd6d509"},"vehicle_type_id":"4","last_reported":1685234413,"current_range_meters":27600,"station_id":"ce4bh492rcd13ifvqdvg","pricing_plan_id":"free"},{"bike_id":"05088119-6a44-4d67-94d4-c15663e0e932","system_id":"levelo_inurba_marseille","lat":43.28266,"lon":5.35067,"is_reserved":false,"is_disabled":false,"rental_uris":{"android":"levelo://app?vid=05088119-6a44-4d67-94d4-c15663e0e932","ios":"levelo://app?vid=05088119-6a44-4d67-94d4-c15663e0e932"},"vehicle_type_id":"4","last_reported":1685234413,"current_range_meters":10000,"station_id":"ce4bhbp2rcd13ifvqerg","pricing_plan_id":"free"},{"bike_id":"e0b965ba-6f46-4df5-934f-67481943bc33","system_id":"levelo_inurba_marseille","lat":43.28366,"lon":5.38633,"is_reserved":false,"is_disabled":false,"rental_uris":{"android":"levelo://app?vid=e0b965ba-6f46-4df5-934f-67481943bc33","ios":"levelo://app?vid=e0b965ba-6f46-4df5-934f-67481943bc33"},"vehicle_type_id":"4","last_reported":1685234413,"current_range_meters":29600,"station_id":"ce4bh492rcd13ifvqdvg","pricing_plan_id":"free"},{"bike_id":"c91632a9-1e06-445c-8862-064d3db7a9ce","system_id":"levelo_inurba_marseille","lat":43.283502,"lon":5.386471,"is_reserved":false,"is_disabled":false,"rental_uris":{"android":"levelo://app?vid=c91632a9-1e06-445c-8862-064d3db7a9ce","ios":"levelo://app?vid=c91632a9-1e06-445c-8862-064d3db7a9ce"},"vehicle_type_id":"4","last_reported":1685234413,"current_range_meters":21200,"station_id":"ce4bh492rcd13ifvqdvg","pricing_plan_id":"free"},{"bike_id":"c05018c3-cf9a-4451-9b31-41068b8fe0e3","system_id":"levelo_inurba_marseille","lat":43.282744,"lon":5.350533,"is_reserved":false,"is_disabled":false,"rental_uris":{"android":"levelo://app?vid=c05018c3-cf9a-4451-9b31-41068b8fe0e3","ios":"levelo://app?vid=c05018c3-cf9a-4451-9b31-41068b8fe0e3"},"vehicle_type_id":"4","last_reported":1685234413,"current_range_meters":22000,"station_id":"ce4bhbp2rcd13ifvqerg","pricing_plan_id":"free"},{"bike_id":"0fdbadc0-f2ba-4e2e-b403-75ac992267ba","system_id":"levelo_inurba_marseille","lat":43.282754,"lon":5.350519,"is_reserved":false,"is_disabled":false,"rental_uris":{"android":"levelo://app?vid=0fdbadc0-f2ba-4e2e-b403-75ac992267ba","ios":"levelo://app?vid=0fdbadc0-f2ba-4e2e-b403-75ac992267ba"},"vehicle_type_id":"4","last_reported":1685234413,"current_range_meters":30400,"station_id":"ce4bhbp2rcd13ifvqerg","pricing_plan_id":"free"},{"bike_id":"8a642488-a261-4e15-8c6b-5764f8ffc024","system_id":"levelo_inurba_marseille","lat":43.28039,"lon":5.369297,"is_reserved":false,"is_disabled":false,"rental_uris":{"android":"levelo://app?vid=8a642488-a261-4e15-8c6b-5764f8ffc024","ios":"levelo://app?vid=8a642488-a261-4e15-8c6b-5764f8ffc024"},"vehicle_type_id":"4","last_reported":1685234413,"current_range_meters":2800,"station_id":"ce4bha12rcd13ifvqef0","pricing_plan_id":"free"},{"bike_id":"7a40110c-e19d-4bc6-a907-970e110cfb0f","system_id":"levelo_inurba_marseille","lat":43.28039,"lon":5.369297,"is_reserved":false,"is_disabled":false,"rental_uris":{"android":"levelo://app?vid=7a40110c-e19d-4bc6-a907-970e110cfb0f","ios":"levelo://app?vid=7a40110c-e19d-4bc6-a907-970e110cfb0f"},"vehicle_type_id":"4","last_reported":1685234413,"current_range_meters":31600,"station_id":"ce4bha12rcd13ifvqef0","pricing_plan_id":"free"},{"bike_id":"b2119253-5e25-4f9e-811b-dc8502abdef3","system_id":"levelo_inurba_marseille","lat":43.28039,"lon":5.369297,"is_reserved":false,"is_disabled":false,"rental_uris":{"android":"levelo://app?vid=b2119253-5e25-4f9e-811b-dc8502abdef3","ios":"levelo://app?vid=b2119253-5e25-4f9e-811b-dc8502abdef3"},"vehicle_type_id":"4","last_reported":1685234413,"current_range_meters":15200,"station_id":"ce4bha12rcd13ifvqef0","pricing_plan_id":"free"},{"bike_id":"4e714206-f604-4bc2-9215-bb3aeccde328","system_id":"levelo_inurba_marseille","lat":43.28033,"lon":5.36948,"is_reserved":false,"is_disabled":false,"rental_uris":{"android":"levelo://app?vid=4e714206-f604-4bc2-9215-bb3aeccde328","ios":"levelo://app?vid=4e714206-f604-4bc2-9215-bb3aeccde328"},"vehicle_type_id":"4","last_reported":1685234413,"current_range_meters":0,"station_id":"ce4bha12rcd13ifvqef0","pricing_plan_id":"free"},{"bike_id":"d3f28c7f-e8fb-42e6-b202-6146e8171b07","system_id":"levelo_inurba_marseille","lat":43.28032,"lon":5.36955,"is_reserved":false,"is_disabled":false,"rental_uris":{"android":"levelo://app?vid=d3f28c7f-e8fb-42e6-b202-6146e8171b07","ios":"levelo://app?vid=d3f28c7f-e8fb-42e6-b202-6146e8171b07"},"vehicle_type_id":"4","last_reported":1685234413,"current_range_meters":6400,"station_id":"ce4bha12rcd13ifvqef0","pricing_plan_id":"free"},{"bike_id":"c8d24052-0037-496f-b295-48b12e63801e","system_id":"levelo_inurba_marseille","lat":43.28039,"lon":5.369297,"is_reserved":false,"is_disabled":false,"rental_uris":{"android":"levelo://app?vid=c8d24052-0037-496f-b295-48b12e63801e","ios":"levelo://app?vid=c8d24052-0037-496f-b295-48b12e63801e"},"vehicle_type_id":"4","last_reported":1685234413,"current_range_meters":7200,"station_id":"ce4bha12rcd13ifvqef0","pricing_plan_id":"free"},{"bike_id":"031e88f5-e66b-4b4b-ade0-9f563103b8bf","system_id":"levelo_inurba_marseille","lat":43.28039,"lon":5.369297,"is_reserved":false,"is_disabled":false,"rental_uris":{"android":"levelo://app?vid=031e88f5-e66b-4b4b-ade0-9f563103b8bf","ios":"levelo://app?vid=031e88f5-e66b-4b4b-ade0-9f563103b8bf"},"vehicle_type_id":"4","last_reported":1685234413,"current_range_meters":400,"station_id":"ce4bha12rcd13ifvqef0","pricing_plan_id":"free"},{"bike_id":"4d86ce40-e406-44d0-9e2e-59dcfae65e59","system_id":"levelo_inurba_marseille","lat":43.29041,"lon":5.39947,"is_reserved":false,"is_disabled":false,"rental_uris":{"android":"levelo://app?vid=4d86ce40-e406-44d0-9e2e-59dcfae65e59","ios":"levelo://app?vid=4d86ce40-e406-44d0-9e2e-59dcfae65e59"},"vehicle_type_id":"4","last_reported":1685234413,"current_range_meters":0,"station_id":"ce4bh392rcd13ifvqdm0","pricing_plan_id":"free"},{"bike_id":"1052ec32-d708-4e45-abea-63155eaf120d","system_id":"levelo_inurba_marseille","lat":43.29038,"lon":5.39968,"is_reserved":false,"is_disabled":false,"rental_uris":{"android":"levelo://app?vid=1052ec32-d708-4e45-abea-63155eaf120d","ios":"levelo://app?vid=1052ec32-d708-4e45-abea-63155eaf120d"},"vehicle_type_id":"4","last_reported":1685234413,"current_range_meters":30800,"station_id":"ce4bh392rcd13ifvqdm0","pricing_plan_id":"free"},{"bike_id":"30cb7f99-69e4-4733-b127-902e692da291","system_id":"levelo_inurba_marseille","lat":43.281044,"lon":5.378308,"is_reserved":false,"is_disabled":false,"rental_uris":{"android":"levelo://app?vid=30cb7f99-69e4-4733-b127-902e692da291","ios":"levelo://app?vid=30cb7f99-69e4-4733-b127-902e692da291"},"vehicle_type_id":"4","last_reported":1685234413,"current_range_meters":26800,"station_id":"ce4bha12rcd13ifvqee0","pricing_plan_id":"free"},{"bike_id":"15d328b2-dd16-4a1c-8eb7-dc43a99d6626","system_id":"levelo_inurba_marseille","lat":43.29026,"lon":5.39985,"is_reserved":false,"is_disabled":false,"rental_uris":{"android":"levelo://app?vid=15d328b2-dd16-4a1c-8eb7-dc43a99d6626","ios":"levelo://app?vid=15d328b2-dd16-4a1c-8eb7-dc43a99d6626"},"vehicle_type_id":"4","last_reported":1685234413,"current_range_meters":31200,"station_id":"ce4bh392rcd13ifvqdm0","pricing_plan_id":"free"},{"bike_id":"50bbc843-8e09-491d-a217-d8f18e00a722","system_id":"levelo_inurba_marseille","lat":43.29029,"lon":5.3999,"is_reserved":false,"is_disabled":false,"rental_uris":{"android":"levelo://app?vid=50bbc843-8e09-491d-a217-d8f18e00a722","ios":"levelo://app?vid=50bbc843-8e09-491d-a217-d8f18e00a722"},"vehicle_type_id":"4","last_reported":1685234413,"current_range_meters":27600,"station_id":"ce4bh392rcd13ifvqdm0","pricing_plan_id":"free"},{"bike_id":"2ad73250-bf98-4d45-bda7-6b2a5e095668","system_id":"levelo_inurba_marseille","lat":43.284462,"lon":5.392121,"is_reserved":false,"is_disabled":false,"rental_uris":{"android":"levelo://app?vid=2ad73250-bf98-4d45-bda7-6b2a5e095668","ios":"levelo://app?vid=2ad73250-bf98-4d45-bda7-6b2a5e095668"},"vehicle_type_id":"4","last_reported":1685234413,"current_range_meters":31600,"station_id":"ce4bhoh2rcd13ifvqh5g","pricing_plan_id":"free"},{"bike_id":"b7359634-4f34-44bc-b754-b3ba7f866fad","system_id":"levelo_inurba_marseille","lat":43.284462,"lon":5.392121,"is_reserved":false,"is_disabled":false,"rental_uris":{"android":"levelo://app?vid=b7359634-4f34-44bc-b754-b3ba7f866fad","ios":"levelo://app?vid=b7359634-4f34-44bc-b754-b3ba7f866fad"},"vehicle_type_id":"4","last_reported":1685234413,"current_range_meters":8800,"station_id":"ce4bhoh2rcd13ifvqh5g","pricing_plan_id":"free"},{"bike_id":"dc8732d1-41c7-4b04-989d-e2b98a36e67a","system_id":"levelo_inurba_marseille","lat":43.284462,"lon":5.392121,"is_reserved":false,"is_disabled":false,"rental_uris":{"android":"levelo://app?vid=dc8732d1-41c7-4b04-989d-e2b98a36e67a","ios":"levelo://app?vid=dc8732d1-41c7-4b04-989d-e2b98a36e67a"},"vehicle_type_id":"4","last_reported":1685234413,"current_range_meters":11600,"station_id":"ce4bhoh2rcd13ifvqh5g","pricing_plan_id":"free"},{"bike_id":"a4a910f9-c6cd-4c62-b051-a8c473ea4f86","system_id":"levelo_inurba_marseille","lat":43.284462,"lon":5.392121,"is_reserved":false,"is_disabled":false,"rental_uris":{"android":"levelo://app?vid=a4a910f9-c6cd-4c62-b051-a8c473ea4f86","ios":"levelo://app?vid=a4a910f9-c6cd-4c62-b051-a8c473ea4f86"},"vehicle_type_id":"4","last_reported":1685234413,"current_range_meters":28400,"station_id":"ce4bhoh2rcd13ifvqh5g","pricing_plan_id":"free"},{"bike_id":"50cef31e-7db4-4f04-8674-0ace85d541d2","system_id":"levelo_inurba_marseille","lat":43.284462,"lon":5.392121,"is_reserved":false,"is_disabled":false,"rental_uris":{"android":"levelo://app?vid=50cef31e-7db4-4f04-8674-0ace85d541d2","ios":"levelo://app?vid=50cef31e-7db4-4f04-8674-0ace85d541d2"},"vehicle_type_id":"4","last_reported":1685234413,"current_range_meters":2800,"station_id":"ce4bhoh2rcd13ifvqh5g","pricing_plan_id":"free"},{"bike_id":"27958a27-fd38-4375-a20e-24a4c4ff82d7","system_id":"levelo_inurba_marseille","lat":43.284462,"lon":5.392121,"is_reserved":false,"is_disabled":false,"rental_uris":{"android":"levelo://app?vid=27958a27-fd38-4375-a20e-24a4c4ff82d7","ios":"levelo://app?vid=27958a27-fd38-4375-a20e-24a4c4ff82d7"},"vehicle_type_id":"4","last_reported":1685234413,"current_range_meters":14400,"station_id":"ce4bhoh2rcd13ifvqh5g","pricing_plan_id":"free"},{"bike_id":"12e3e85c-5986-4834-aff4-9a8cb9a53179","system_id":"levelo_inurba_marseille","lat":43.28573,"lon":5.394992,"is_reserved":false,"is_disabled":false,"rental_uris":{"android":"levelo://app?vid=12e3e85c-5986-4834-aff4-9a8cb9a53179","ios":"levelo://app?vid=12e3e85c-5986-4834-aff4-9a8cb9a53179"},"vehicle_type_id":"4","last_reported":1685234413,"current_range_meters":31600,"station_id":"ce4bh292rcd13ifvqdg0","pricing_plan_id":"free"},{"bike_id":"f44c3073-cef6-4ca2-8b57-ffa2b6f87e84","system_id":"levelo_inurba_marseille","lat":43.28572,"lon":5.39497,"is_reserved":false,"is_disabled":false,"rental_uris":{"android":"levelo://app?vid=f44c3073-cef6-4ca2-8b57-ffa2b6f87e84","ios":"levelo://app?vid=f44c3073-cef6-4ca2-8b57-ffa2b6f87e84"},"vehicle_type_id":"4","last_reported":1685234413,"current_range_meters":1600,"station_id":"ce4bh292rcd13ifvqdg0","pricing_plan_id":"free"},{"bike_id":"328248cd-c7f8-48c9-9404-e1ffc1513d6e","system_id":"levelo_inurba_marseille","lat":43.28573,"lon":5.394992,"is_reserved":false,"is_disabled":false,"rental_uris":{"android":"levelo://app?vid=328248cd-c7f8-48c9-9404-e1ffc1513d6e","ios":"levelo://app?vid=328248cd-c7f8-48c9-9404-e1ffc1513d6e"},"vehicle_type_id":"4","last_reported":1685234413,"current_range_meters":26400,"station_id":"ce4bh292rcd13ifvqdg0","pricing_plan_id":"free"},{"bike_id":"8b6df527-c4a9-4345-90fc-d722ddeac98e","system_id":"levelo_inurba_marseille","lat":43.285742,"lon":5.395004,"is_reserved":false,"is_disabled":false,"rental_uris":{"android":"levelo://app?vid=8b6df527-c4a9-4345-90fc-d722ddeac98e","ios":"levelo://app?vid=8b6df527-c4a9-4345-90fc-d722ddeac98e"},"vehicle_type_id":"4","last_reported":1685234413,"current_range_meters":28000,"station_id":"ce4bh292rcd13ifvqdg0","pricing_plan_id":"free"},{"bike_id":"8b051702-5376-4c5d-ba55-825af94e93a8","system_id":"levelo_inurba_marseille","lat":43.304188,"lon":5.412904,"is_reserved":false,"is_disabled":false,"rental_uris":{"android":"levelo://app?vid=8b051702-5376-4c5d-ba55-825af94e93a8","ios":"levelo://app?vid=8b051702-5376-4c5d-ba55-825af94e93a8"},"vehicle_type_id":"4","last_reported":1685234413,"current_range_meters":19200,"station_id":"ce4bhop2rcd13ifvqh8g","pricing_plan_id":"free"},{"bike_id":"03b878e1-5551-4fff-a552-858ab53079da","system_id":"levelo_inurba_marseille","lat":43.304188,"lon":5.412904,"is_reserved":false,"is_disabled":false,"rental_uris":{"android":"levelo://app?vid=03b878e1-5551-4fff-a552-858ab53079da","ios":"levelo://app?vid=03b878e1-5551-4fff-a552-858ab53079da"},"vehicle_type_id":"4","last_reported":1685234413,"current_range_meters":12000,"station_id":"ce4bhop2rcd13ifvqh8g","pricing_plan_id":"free"},{"bike_id":"8b0ddad6-0260-4e17-909f-585233334c0c","system_id":"levelo_inurba_marseille","lat":43.304188,"lon":5.412904,"is_reserved":false,"is_disabled":false,"rental_uris":{"android":"levelo://app?vid=8b0ddad6-0260-4e17-909f-585233334c0c","ios":"levelo://app?vid=8b0ddad6-0260-4e17-909f-585233334c0c"},"vehicle_type_id":"4","last_reported":1685234413,"current_range_meters":19600,"station_id":"ce4bhop2rcd13ifvqh8g","pricing_plan_id":"free"},{"bike_id":"830b275b-2e08-4010-a4e4-fbac8e84f916","system_id":"levelo_inurba_marseille","lat":43.304188,"lon":5.412904,"is_reserved":false,"is_disabled":false,"rental_uris":{"android":"levelo://app?vid=830b275b-2e08-4010-a4e4-fbac8e84f916","ios":"levelo://app?vid=830b275b-2e08-4010-a4e4-fbac8e84f916"},"vehicle_type_id":"4","last_reported":1685234413,"current_range_meters":0,"station_id":"ce4bhop2rcd13ifvqh8g","pricing_plan_id":"free"},{"bike_id":"dcd1483f-1601-422a-b224-c74d72e8f5c2","system_id":"levelo_inurba_marseille","lat":43.304188,"lon":5.412904,"is_reserved":false,"is_disabled":false,"rental_uris":{"android":"levelo://app?vid=dcd1483f-1601-422a-b224-c74d72e8f5c2","ios":"levelo://app?vid=dcd1483f-1601-422a-b224-c74d72e8f5c2"},"vehicle_type_id":"4","last_reported":1685234413,"current_range_meters":0,"station_id":"ce4bhop2rcd13ifvqh8g","pricing_plan_id":"free"},{"bike_id":"adb43494-9a12-46f1-aee1-15a4fdd92c56","system_id":"levelo_inurba_marseille","lat":43.28714,"lon":5.39991,"is_reserved":false,"is_disabled":false,"rental_uris":{"android":"levelo://app?vid=adb43494-9a12-46f1-aee1-15a4fdd92c56","ios":"levelo://app?vid=adb43494-9a12-46f1-aee1-15a4fdd92c56"},"vehicle_type_id":"4","last_reported":1685234413,"current_range_meters":29600,"station_id":"ce4bho92rcd13ifvqh3g","pricing_plan_id":"free"},