{"last_updated":1743631756,"ttl":60,"version":"2.2","data":{"bikes":[{"bike_id":"4bad1a14-420d-4d9f-b272-858e63170ab9","system_id":"levelo_inurba_marseille","lat":43.26214,"lon":5.37443,"is_reserved":false,"is_disabled":true,"rental_uris":{"android":"levelo://app?vid=4bad1a14-420d-4d9f-b272-858e63170ab9","ios":"levelo://app?vid=4bad1a14-420d-4d9f-b272-858e63170ab9"},"vehicle_type_id":"4","last_reported":1743631756,"current_range_meters":2800,"station_id":"ce4bhgp2rcd13ifvqfc0","pricing_plan_id":"cebpf4jnsgd1na2vs0mg"},{"bike_id":"26a6be4e-9c71-4305-8866-c10aa7a9595b","system_id":"levelo_inurba_marseille","lat":43.26739,"lon":5.3833,"is_reserved":false,"is_disabled":false,"rental_uris":{"android":"levelo://app?vid=26a6be4e-9c71-4305-8866-c10aa7a9595b","ios":"levelo://app?vid=26a6be4e-9c71-4305-8866-c10aa7a9595b"},"vehicle_type_id":"4","last_reported":1743631756,"current_range_meters":2800,"station_id":"","pricing_plan_id":"cebpf4jnsgd1na2vs0mg"},{"bike_id":"d10bd936-2fca-4607-82d0-6e154162cbfd","system_id":"levelo_inurba_marseille","lat":43.30892,"lon":5.3964,"is_reserved":false,"is_disabled":true,"rental_uris":{"android":"levelo://app?vid=d10bd936-2fca-4607-82d0-6e154162cbfd","ios":"levelo://app?vid=d10bd936-2fca-4607-82d0-6e154162cbfd"},"vehicle_type_id":"4","last_reported":1743631756,"current_range_meters":3200,"station_id":"ce4bh012rcd13ifvqcv0","pricing_plan_id":"cebpf4jnsgd1na2vs0mg"},{"bike_id":"5b020898-4c72-4804-86d1-3a40c4aa7ee2","system_id":"levelo_inurba_marseille","lat":43.2957,"lon":5.39973,"is_reserved":false,"is_disabled":false,"rental_uris":{"android":"levelo://app?vid=5b020898-4c72-4804-86d1-3a40c4aa7ee2","ios":"levelo://app?vid=5b020898-4c72-4804-86d1-3a40c4aa7ee2"},"vehicle_type_id":"4","last_reported":1743631756,"current_range_meters":3200,"station_id":"ce4bh312rcd13ifvqdj0","pricing_plan_id":"cebpf4jnsgd1na2vs0mg"},{"bike_id":"1167d76f-0701-42ca-9566-e6b8288b4501","system_id":"levelo_inurba_marseille","lat":43.28273,"lon":5.37864,"is_reserved":false,"is_disabled":false,"rental_uris":{"android":"levelo://app?vid=1167d76f-0701-42ca-9566-e6b8288b4501","ios":"levelo://app?vid=1167d76f-0701-42ca-9566-e6b8288b4501"},"vehicle_type_id":"4","last_reported":1743631756,"current_range_meters":3600,"station_id":"","pricing_plan_id":"cebpf4jnsgd1na2vs0mg"},{"bike_id":"ebaa89eb-9cf3-4ffa-91a5-8e3eb8931bec","system_id":"levelo_inurba_marseille","lat":43.24666,"lon":5.38172,"is_reserved":false,"is_disabled":true,"rental_uris":{"android":"levelo://app?vid=ebaa89eb-9cf3-4ffa-91a5-8e3eb8931bec","ios":"levelo://app?vid=ebaa89eb-9cf3-4ffa-91a5-8e3eb8931bec"},"vehicle_type_id":"4","last_reported":1743631756,"current_range_meters":3600,"station_id":"ce4bhih2rcd13ifvqfr0","pricing_plan_id":"cebpf4jnsgd1na2vs0mg"},{"bike_id":"c6c438e8-d3ab-4770-968b-7a1a93e8a8c6","system_id":"levelo_inurba_marseille","lat":43.28878,"lon":5.45876,"is_reserved":false,"is_disabled":false,"rental_uris":{"android":"levelo://app?vid=c6c438e8-d3ab-4770-968b-7a1a93e8a8c6","ios":"levelo://app?vid=c6c438e8-d3ab-4770-968b-7a1a93e8a8c6"},"vehicle_type_id":"4","last_reported":1743631756,"current_range_meters":3600,"station_id":"","pricing_plan_id":"cebpf4jnsgd1na2vs0mg"},{"bike_id":"63bb044e-fd05-4a43-97e1-effab21e1a61","system_id":"levelo_inurba_marseille","lat":43.26558,"lon":5.37284,"is_reserved":false,"is_disabled":false,"rental_uris":{"android":"levelo://app?vid=63bb044e-fd05-4a43-97e1-effab21e1a61","ios":"levelo://app?vid=63bb044e-fd05-4a43-97e1-effab21e1a61"},"vehicle_type_id":"4","last_reported":1743631756,"current_range_meters":3600,"station_id":"ce4bhg12rcd13ifvqf70","pricing_plan_id":"cebpf4jnsgd1na2vs0mg"},{"bike_id":"6293244a-a5ac-4bd3-abcc-130806d24645","system_id":"levelo_inurba_marseille","lat":43.26205,"lon":5.3743,"is_reserved":false,"is_disabled":false,"rental_uris":{"android":"levelo://app?vid=6293244a-a5ac-4bd3-abcc-130806d24645","ios":"levelo://app?vid=6293244a-a5ac-4bd3-abcc-130806d24645"},"vehicle_type_id":"4","last_reported":1743631756,"current_range_meters":4400,"station_id":"ce4bhgp2rcd13ifvqfc0","pricing_plan_id":"cebpf4jnsgd1na2vs0mg"},{"bike_id":"66a6759f-f104-404f-ba35-7dd5d87e6d0b","system_id":"levelo_inurba_marseille","lat":43.30144,"lon":5.3767,"is_reserved":false,"is_disabled":false,"rental_uris":{"android":"levelo://app?vid=66a6759f-f104-404f-ba35-7dd5d87e6d0b","ios":"levelo://app?vid=66a6759f-f104-404f-ba35-7dd5d87e6d0b"},"vehicle_type_id":"4","last_reported":1743631756,"current_range_meters":4400,"station_id":"","pricing_plan_id":"cebpf4jnsgd1na2vs0mg"},{"bike_id":"f19d09c0-c570-4160-b74e-ebb29dd15cfa","system_id":"levelo_inurba_marseille","lat":43.30589,"lon":5.39355,"is_reserved":false,"is_disabled":false,"rental_uris":{"android":"levelo://app?vid=f19d09c0-c570-4160-b74e-ebb29dd15cfa","ios":"levelo://app?vid=f19d09c0-c570-4160-b74e-ebb29dd15cfa"},"vehicle_type_id":"4","last_reported":1743631756,"current_range_meters":4800,"station_id":"ce4bh0p2rcd13ifvqd80","pricing_plan_id":"cebpf4jnsgd1na2vs0mg"},{"bike_id":"72a59223-7fbc-4af7-a727-ebdf00595f3e","system_id":"levelo_inurba_marseille","lat":43.24162,"lon":5.36403,"is_reserved":false,"is_disabled":false,"rental_uris":{"android":"levelo://app?vid=72a59223-7fbc-4af7-a727-ebdf00595f3e","ios":"levelo://app?vid=72a59223-7fbc-4af7-a727-ebdf00595f3e"},"vehicle_type_id":"4","last_reported":1743631756,"current_range_meters":4800,"station_id":"cpo36qri1sfpv3e86is0","pricing_plan_id":"cebpf4jnsgd1na2vs0mg"},{"bike_id":"e47bc61d-df2d-41b3-b26b-dd94e6e5e301","system_id":"levelo_inurba_marseille","lat":43.26222,"lon":5.42172,"is_reserved":false,"is_disabled":false,"rental_uris":{"android":"levelo://app?vid=e47bc61d-df2d-41b3-b26b-dd94e6e5e301","ios":"levelo://app?vid=e47bc61d-df2d-41b3-b26b-dd94e6e5e301"},"vehicle_type_id":"4","last_reported":1743631756,"current_range_meters":4800,"station_id":"","pricing_plan_id":"cebpf4jnsgd1na2vs0mg"},{"bike_id":"fdd74cea-2420-4f5e-97f2-a48b67190c4e","system_id":"levelo_inurba_marseille","lat":43.337444,"lon":5.374475,"is_reserved":false,"is_disabled":false,"rental_uris":{"android":"levelo://app?vid=fdd74cea-2420-4f5e-97f2-a48b67190c4e","ios":"levelo://app?vid=fdd74cea-2420-4f5e-97f2-a48b67190c4e"},"vehicle_type_id":"4","last_reported":1743631756,"current_range_meters":5600,"station_id":"","pricing_plan_id":"cebpf4jnsgd1na2vs0mg"},{"bike_id":"7bdf0d60-3026-4723-ac07-ebb25b9cf79f","system_id":"levelo_inurba_marseille","lat":43.28783,"lon":5.38698,"is_reserved":false,"is_disabled":false,"rental_uris":{"android":"levelo://app?vid=7bdf0d60-3026-4723-ac07-ebb25b9cf79f","ios":"levelo://app?vid=7bdf0d60-3026-4723-ac07-ebb25b9cf79f"},"vehicle_type_id":"4","last_reported":1743631756,"current_range_meters":5600,"station_id":"","pricing_plan_id":"cebpf4jnsgd1na2vs0mg"},{"bike_id":"8dd59c1b-0099-418f-9b93-35fc591d4892","system_id":"levelo_inurba_marseille","lat":43.29581,"lon":5.38689,"is_reserved":false,"is_disabled":false,"rental_uris":{"android":"levelo://app?vid=8dd59c1b-0099-418f-9b93-35fc591d4892","ios":"levelo://app?vid=8dd59c1b-0099-418f-9b93-35fc591d4892"},"vehicle_type_id":"4","last_reported":1743631756,"current_range_meters":6000,"station_id":"","pricing_plan_id":"cebpf4jnsgd1na2vs0mg"},{"bike_id":"6c7f2ff1-d1f0-42f5-98cd-7fc91304e2b7","system_id":"levelo_inurba_marseille","lat":43.29416,"lon":5.38611,"is_reserved":false,"is_disabled":false,"rental_uris":{"android":"levelo://app?vid=6c7f2ff1-d1f0-42f5-98cd-7fc91304e2b7","ios":"levelo://app?vid=6c7f2ff1-d1f0-42f5-98cd-7fc91304e2b7"},"vehicle_type_id":"4","last_reported":1743631756,"current_range_meters":6000,"station_id":"ce4bh2h2rcd13ifvqdh0","pricing_plan_id":"cebpf4jnsgd1na2vs0mg"},{"bike_id":"8d4d7060-dbb4-4036-b6c0-dfb11ba33d5a","system_id":"levelo_inurba_marseille","lat":43.30433,"lon":5.39759,"is_reserved":false,"is_disabled":false,"rental_uris":{"android":"levelo://app?vid=8d4d7060-dbb4-4036-b6c0-dfb11ba33d5a","ios":"levelo://app?vid=8d4d7060-dbb4-4036-b6c0-dfb11ba33d5a"},"vehicle_type_id":"4","last_reported":1743631756,"current_range_meters":6000,"station_id":"ce4bh092rcd13ifvqd20","pricing_plan_id":"cebpf4jnsgd1na2vs0mg"},{"bike_id":"4f1fb305-fdac-49af-98f8-e5ebaa4429a4","system_id":"levelo_inurba_marseille","lat":43.22936,"lon":5.35394,"is_reserved":false,"is_disabled":false,"rental_uris":{"android":"levelo://app?vid=4f1fb305-fdac-49af-98f8-e5ebaa4429a4","ios":"levelo://app?vid=4f1fb305-fdac-49af-98f8-e5ebaa4429a4"},"vehicle_type_id":"4","last_reported":1743631756,"current_range_meters":6000,"station_id":"cpo3532slgdg3j2ikp40","pricing_plan_id":"cebpf4jnsgd1na2vs0mg"},{"bike_id":"e84bef4c-cced-4cd0-b180-0053717ac75e","system_id":"levelo_inurba_marseille","lat":43.287258,"lon":5.399987,"is_reserved":false,"is_disabled":true,"rental_uris":{"android":"levelo://app?vid=e84bef4c-cced-4cd0-b180-0053717ac75e","ios":"levelo://app?vid=e84bef4c-cced-4cd0-b180-0053717ac75e"},"vehicle_type_id":"4","last_reported":1743631756,"current_range_meters":6000,"station_id":"ce4bho92rcd13ifvqh3g","pricing_plan_id":"cebpf4jnsgd1na2vs0mg"},{"bike_id":"c41c4557-4bdc-4a3b-a170-060b0c34288b","system_id":"levelo_inurba_marseille","lat":43.298008,"lon":5.381026,"is_reserved":false,"is_disabled":false,"rental_uris":{"android":"levelo://app?vid=c41c4557-4bdc-4a3b-a170-060b0c34288b","ios":"levelo://app?vid=c41c4557-4bdc-4a3b-a170-060b0c34288b"},"vehicle_type_id":"4","last_reported":1743631756,"current_range_meters":6400,"station_id":"ce4bgip2rcd13ifvqbb0","pricing_plan_id":"cebpf4jnsgd1na2vs0mg"},{"bike_id":"bb5f3859-0a76-41f0-b464-b3a2c78d4fe2","system_id":"levelo_inurba_marseille","lat":43.27944,"lon":5.41043,"is_reserved":false,"is_disabled":false,"rental_uris":{"android":"levelo://app?vid=bb5f3859-0a76-41f0-b464-b3a2c78d4fe2","ios":"levelo://app?vid=bb5f3859-0a76-41f0-b464-b3a2c78d4fe2"},"vehicle_type_id":"4","last_reported":1743631756,"current_range_meters":6400,"station_id":"ce4bhnp2rcd13ifvqh0g","pricing_plan_id":"cebpf4jnsgd1na2vs0mg"},{"bike_id":"f06067fe-c409-49ce-b995-b28658dd37fb","system_id":"levelo_inurba_marseille","lat":43.2866,"lon":5.37394,"is_reserved":false,"is_disabled":true,"rental_uris":{"android":"levelo://app?vid=f06067fe-c409-49ce-b995-b28658dd37fb","ios":"levelo://app?vid=f06067fe-c409-49ce-b995-b28658dd37fb"},"vehicle_type_id":"4","last_reported":1743631756,"current_range_meters":6800,"station_id":"ce4bh3p2rcd13ifvqdq0","pricing_plan_id":"cebpf4jnsgd1na2vs0mg"},{"bike_id":"21c2afe4-3c19-4612-91c1-bfbbde367a31","system_id":"levelo_inurba_marseille","lat":43.2512,"lon":5.40328,"is_reserved":false,"is_disabled":false,"rental_uris":{"android":"levelo://app?vid=21c2afe4-3c19-4612-91c1-bfbbde367a31","ios":"levelo://app?vid=21c2afe4-3c19-4612-91c1-bfbbde367a31"},"vehicle_type_id":"4","last_reported":1743631756,"current_range_meters":6800,"station_id":"ce4bhlh2rcd13ifvqgig","pricing_plan_id":"cebpf4jnsgd1na2vs0mg"},{"bike_id":"48302313-0890-44fb-97d4-f7f3b5d44fd5","system_id":"levelo_inurba_marseille","lat":43.33109,"lon":5.40004,"is_reserved":false,"is_disabled":false,"rental_uris":{"android":"levelo://app?vid=48302313-0890-44fb-97d4-f7f3b5d44fd5","ios":"levelo://app?vid=48302313-0890-44fb-97d4-f7f3b5d44fd5"},"vehicle_type_id":"4","last_reported":1743631756,"current_range_meters":6800,"station_id":"","pricing_plan_id":"cebpf4jnsgd1na2vs0mg"},{"bike_id":"54cd2af6-bcec-4248-a5dc-b48416f47647","system_id":"levelo_inurba_marseille","lat":43.31076,"lon":5.38368,"is_reserved":false,"is_disabled":false,"rental_uris":{"android":"levelo://app?vid=54cd2af6-bcec-4248-a5dc-b48416f47647","ios":"levelo://app?vid=54cd2af6-bcec-4248-a5dc-b48416f47647"},"vehicle_type_id":"4","last_reported":1743631756,"current_range_meters":6800,"station_id":"ce4bgv92rcd13ifvqcr0","pricing_plan_id":"cebpf4jnsgd1na2vs0mg"},{"bike_id":"e4daa68e-c153-4839-8fed-72a96b8154c5","system_id":"levelo_inurba_marseille","lat":43.25004,"lon":5.38925,"is_reserved":false,"is_disabled":false,"rental_uris":{"android":"levelo://app?vid=e4daa68e-c153-4839-8fed-72a96b8154c5","ios":"levelo://app?vid=e4daa68e-c153-4839-8fed-72a96b8154c5"},"vehicle_type_id":"4","last_reported":1743631756,"current_range_meters":6800,"station_id":"ce4bhgp2rcd13ifvqfd0","pricing_plan_id":"cebpf4jnsgd1na2vs0mg"},{"bike_id":"c7fed3df-9f92-4bd8-8a32-6e53e97269c2","system_id":"levelo_inurba_marseille","lat":43.30313,"lon":5.40451,"is_reserved":false,"is_disabled":false,"rental_uris":{"android":"levelo://app?vid=c7fed3df-9f92-4bd8-8a32-6e53e97269c2","ios":"levelo://app?vid=c7fed3df-9f92-4bd8-8a32-6e53e97269c2"},"vehicle_type_id":"4","last_reported":1743631756,"current_range_meters":7200,"station_id":"ce4bh012rcd13ifvqd10","pricing_plan_id":"cebpf4jnsgd1na2vs0mg"},{"bike_id":"e53f9db2-d75c-4594-8157-2926a2062b6f","system_id":"levelo_inurba_marseille","lat":43.28439,"lon":5.39193,"is_reserved":false,"is_disabled":true,"rental_uris":{"android":"levelo://app?vid=e53f9db2-d75c-4594-8157-2926a2062b6f","ios":"levelo://app?vid=e53f9db2-d75c-4594-8157-2926a2062b6f"},"vehicle_type_id":"4","last_reported":1743631756,"current_range_meters":7200,"station_id":"ce4bhoh2rcd13ifvqh5g","pricing_plan_id":"cebpf4jnsgd1na2vs0mg"},{"bike_id":"951bf505-d040-4448-9c96-153485f2e62d","system_id":"levelo_inurba_marseille","lat":43.28417,"lon":5.37523,"is_reserved":false,"is_disabled":false,"rental_uris":{"android":"levelo://app?vid=951bf505-d040-4448-9c96-153485f2e62d","ios":"levelo://app?vid=951bf505-d040-4448-9c96-153485f2e62d"},"vehicle_type_id":"4","last_reported":1743631756,"current_range_meters":7200,"station_id":"ce4bh412rcd13ifvqds0","pricing_plan_id":"cebpf4jnsgd1na2vs0mg"},{"bike_id":"1f1218d9-ebac-4975-84ee-2ba3e4d4bcb4","system_id":"levelo_inurba_marseille","lat":43.30861,"lon":5.37831,"is_reserved":false,"is_disabled":false,"rental_uris":{"android":"levelo://app?vid=1f1218d9-ebac-4975-84ee-2ba3e4d4bcb4","ios":"levelo://app?vid=1f1218d9-ebac-4975-84ee-2ba3e4d4bcb4"},"vehicle_type_id":"4","last_reported":1743631756,"current_range_meters":7200,"station_id":"","pricing_plan_id":"cebpf4jnsgd1na2vs0mg"},{"bike_id":"3e5329f3-c0cd-422c-afb1-2f46242590da","system_id":"levelo_inurba_marseille","lat":43.31918,"lon":5.37549,"is_reserved":false,"is_disabled":false,"rental_uris":{"android":"levelo://app?vid=3e5329f3-c0cd-422c-afb1-2f46242590da","ios":"levelo://app?vid=3e5329f3-c0cd-422c-afb1-2f46242590da"},"vehicle_type_id":"4","last_reported":1743631756,"current_range_meters":7200,"station_id":"","pricing_plan_id":"cebpf4jnsgd1na2vs0mg"},{"bike_id":"4f1c00e5-a79d-4f0b-ab4e-3bd2b06e7d2e","system_id":"levelo_inurba_marseille","lat":43.23068,"lon":5.35508,"is_reserved":false,"is_disabled":false,"rental_uris":{"android":"levelo://app?vid=4f1c00e5-a79d-4f0b-ab4e-3bd2b06e7d2e","ios":"levelo://app?vid=4f1c00e5-a79d-4f0b-ab4e-3bd2b06e7d2e"},"vehicle_type_id":"4","last_reported":1743631756,"current_range_meters":7200,"station_id":"cpo3342slgdg3j2ifvpg","pricing_plan_id":"cebpf4jnsgd1na2vs0mg"},{"bike_id":"d1e5f6b3-58a5-4429-be56-65e0d7cb2b95","system_id":"levelo_inurba_marseille","lat":43.30586,"lon":5.39355,"is_reserved":false,"is_disabled":false,"rental_uris":{"android":"levelo://app?vid=d1e5f6b3-58a5-4429-be56-65e0d7cb2b95","ios":"levelo://app?vid=d1e5f6b3-58a5-4429-be56-65e0d7cb2b95"},"vehicle_type_id":"4","last_reported":1743631756,"current_range_meters":7200,"station_id":"ce4bh0p2rcd13ifvqd80","pricing_plan_id":"cebpf4jnsgd1na2vs0mg"},{"bike_id":"9aa2396c-cf44-4f57-b912-002230e52c07","system_id":"levelo_inurba_marseille","lat":43.27641,"lon":5.39579,"is_reserved":false,"is_disabled":false,"rental_uris":{"android":"levelo://app?vid=9aa2396c-cf44-4f57-b912-002230e52c07","ios":"levelo://app?vid=9aa2396c-cf44-4f57-b912-002230e52c07"},"vehicle_type_id":"4","last_reported":1743631756,"current_range_meters":7200,"station_id":"","pricing_plan_id":"cebpf4jnsgd1na2vs0mg"},{"bike_id":"f9673cab-6059-41ca-ac23-c7c79ef400b8","system_id":"levelo_inurba_marseille","lat":43.26508,"lon":5.39018,"is_reserved":false,"is_disabled":false,"rental_uris":{"android":"levelo://app?vid=f9673cab-6059-41ca-ac23-c7c79ef400b8","ios":"levelo://app?vid=f9673cab-6059-41ca-ac23-c7c79ef400b8"},"vehicle_type_id":"4","last_reported":1743631756,"current_range_meters":8000,"station_id":"ce4bhe12rcd13ifvqf30","pricing_plan_id":"cebpf4jnsgd1na2vs0mg"},{"bike_id":"8d5b971e-28a3-40d2-975a-686cbf6dfadd","system_id":"levelo_inurba_marseille","lat":43.29554,"lon":5.42291,"is_reserved":false,"is_disabled":false,"rental_uris":{"android":"levelo://app?vid=8d5b971e-28a3-40d2-975a-686cbf6dfadd","ios":"levelo://app?vid=8d5b971e-28a3-40d2-975a-686cbf6dfadd"},"vehicle_type_id":"4","last_reported":1743631756,"current_range_meters":8000,"station_id":"ce4bhph2rcd13ifvqhdg","pricing_plan_id":"cebpf4jnsgd1na2vs0mg"},{"bike_id":"49775550-6b97-465e-b5f4-9eeea68a7b10","system_id":"levelo_inurba_marseille","lat":43.27921,"lon":5.39576,"is_reserved":false,"is_disabled":false,"rental_uris":{"android":"levelo://app?vid=49775550-6b97-465e-b5f4-9eeea68a7b10","ios":"levelo://app?vid=49775550-6b97-465e-b5f4-9eeea68a7b10"},"vehicle_type_id":"4","last_reported":1743631756,"current_range_meters":8000,"station_id":"ce4bhf92rcd13ifvqf40","pricing_plan_id":"cebpf4jnsgd1na2vs0mg"},{"bike_id":"d3345442-2654-4ddc-b869-fce22decea38","system_id":"levelo_inurba_marseille","lat":43.23136,"lon":5.35687,"is_reserved":false,"is_disabled":false,"rental_uris":{"android":"levelo://app?vid=d3345442-2654-4ddc-b869-fce22decea38","ios":"levelo://app?vid=d3345442-2654-4ddc-b869-fce22decea38"},"vehicle_type_id":"4","last_reported":1743631756,"current_range_meters":8000,"station_id":"ce4bhu92rcd13ifvqi70","pricing_plan_id":"cebpf4jnsgd1na2vs0mg"},{"bike_id":"d6c81a00-cf24-47bc-81aa-99e15d303460","system_id":"levelo_inurba_marseille","lat":43.27183,"lon":5.40987,"is_reserved":false,"is_disabled":false,"rental_uris":{"android":"levelo://app?vid=d6c81a00-cf24-47bc-81aa-99e15d303460","ios":"levelo://app?vid=d6c81a00-cf24-47bc-81aa-99e15d303460"},"vehicle_type_id":"4","last_reported":1743631756,"current_range_meters":8000,"station_id":"ce4bhl12rcd13ifvqgf0","pricing_plan_id":"cebpf4jnsgd1na2vs0mg"},{"bike_id":"1c7ea303-0f0b-477c-a6b0-56cc00a9de10","system_id":"levelo_inurba_marseille","lat":43.32358,"lon":5.38906,"is_reserved":false,"is_disabled":false,"rental_uris":{"android":"levelo://app?vid=1c7ea303-0f0b-477c-a6b0-56cc00a9de10","ios":"levelo://app?vid=1c7ea303-0f0b-477c-a6b0-56cc00a9de10"},"vehicle_type_id":"4","last_reported":1743631756,"current_range_meters":8000,"station_id":"ce4bhqp2rcd13ifvqhog","pricing_plan_id":"cebpf4jnsgd1na2vs0mg"},{"bike_id":"532dc3f2-cbe6-4b94-b3e5-30d510c1a2a8","system_id":"levelo_inurba_marseille","lat":43.30597,"lon":5.3936,"is_reserved":false,"is_disabled":false,"rental_uris":{"android":"levelo://app?vid=532dc3f2-cbe6-4b94-b3e5-30d510c1a2a8","ios":"levelo://app?vid=532dc3f2-cbe6-4b94-b3e5-30d510c1a2a8"},"vehicle_type_id":"4","last_reported":1743631756,"current_range_meters":8400,"station_id":"ce4bh0p2rcd13ifvqd80","pricing_plan_id":"cebpf4jnsgd1na2vs0mg"},{"bike_id":"b80ee275-2592-4659-b2e9-175feb839700","system_id":"levelo_inurba_marseille","lat":43.23221,"lon":5.35534,"is_reserved":false,"is_disabled":false,"rental_uris":{"android":"levelo://app?vid=b80ee275-2592-4659-b2e9-175feb839700","ios":"levelo://app?vid=b80ee275-2592-4659-b2e9-175feb839700"},"vehicle_type_id":"4","last_reported":1743631756,"current_range_meters":8400,"station_id":"ce4bhu92rcd13ifvqi70","pricing_plan_id":"cebpf4jnsgd1na2vs0mg"},{"bike_id":"4e8e0366-ced4-4bd3-8559-c7b58fbb6e6e","system_id":"levelo_inurba_marseille","lat":43.30326,"lon":5.40434,"is_reserved":false,"is_disabled":false,"rental_uris":{"android":"levelo://app?vid=4e8e0366-ced4-4bd3-8559-c7b58fbb6e6e","ios":"levelo://app?vid=4e8e0366-ced4-4bd3-8559-c7b58fbb6e6e"},"vehicle_type_id":"4","last_reported":1743631756,"current_range_meters":8400,"station_id":"ce4bh012rcd13ifvqd10","pricing_plan_id":"cebpf4jnsgd1na2vs0mg"},{"bike_id":"d95697ce-eb61-4237-997e-ce97956aff13","system_id":"levelo_inurba_marseille","lat":43.2294,"lon":5.35386,"is_reserved":false,"is_disabled":false,"rental_uris":{"android":"levelo://app?vid=d95697ce-eb61-4237-997e-ce97956aff13","ios":"levelo://app?vid=d95697ce-eb61-4237-997e-ce97956aff13"},"vehicle_type_id":"4","last_reported":1743631756,"current_range_meters":8400,"station_id":"cpo3532slgdg3j2ikp40","pricing_plan_id":"cebpf4jnsgd1na2vs0mg"},{"bike_id":"fceca0a0-ad17-4642-8ae5-4c5461974a5f","system_id":"levelo_inurba_marseille","lat":43.29283,"lon":5.40119,"is_reserved":false,"is_disabled":false,"rental_uris":{"android":"levelo://app?vid=fceca0a0-ad17-4642-8ae5-4c5461974a5f","ios":"levelo://app?vid=fceca0a0-ad17-4642-8ae5-4c5461974a5f"},"vehicle_type_id":"4","last_reported":1743631756,"current_range_meters":8400,"station_id":"ce4bh312rcd13ifvqdk0","pricing_plan_id":"cebpf4jnsgd1na2vs0mg"},{"bike_id":"1bf4a72f-168a-4a92-980e-4bdc109c902f","system_id":"levelo_inurba_marseille","lat":43.28098,"lon":5.37841,"is_reserved":false,"is_disabled":false,"rental_uris":{"android":"levelo://app?vid=1bf4a72f-168a-4a92-980e-4bdc109c902f","ios":"levelo://app?vid=1bf4a72f-168a-4a92-980e-4bdc109c902f"},"vehicle_type_id":"4","last_reported":1743631756,"current_range_meters":8400,"station_id":"ce4bha12rcd13ifvqee0","pricing_plan_id":"cebpf4jnsgd1na2vs0mg"},{"bike_id":"1e56f8b0-0569-43fd-956b-7c3d45c8ba02","system_id":"levelo_inurba_marseille","lat":43.29329,"lon":5.41164,"is_reserved":false,"is_disabled":false,"rental_uris":{"android":"levelo://app?vid=1e56f8b0-0569-43fd-956b-7c3d45c8ba02","ios":"levelo://app?vid=1e56f8b0-0569-43fd-956b-7c3d45c8ba02"},"vehicle_type_id":"4","last_reported":1743631756,"current_range_meters":8400,"station_id":"","pricing_plan_id":"cebpf4jnsgd1na2vs0mg"},{"bike_id":"a37ba079-4ccc-43bf-b918-b876a550e8db","system_id":"levelo_inurba_marseille","lat":43.25566,"lon":5.3825,"is_reserved":false,"is_disabled":false,"rental_uris":{"android":"levelo://app?vid=a37ba079-4ccc-43bf-b918-b876a550e8db","ios":"levelo://app?vid=a37ba079-4ccc-43bf-b918-b876a550e8db"},"vehicle_type_id":"4","last_reported":1743631756,"current_range_meters":8400,"station_id":"ce4bhih2rcd13ifvqfs0","pricing_plan_id":"cebpf4jnsgd1na2vs0mg"},{"bike_id":"270b1cda-2991-4f58-9004-8b028cb4ae2e","system_id":"levelo_inurba_marseille","lat":43.27907,"lon":5.37994,"is_reserved":false,"is_disabled":false,"rental_uris":{"android":"levelo://app?vid=270b1cda-2991-4f58-9004-8b028cb4ae2e","ios":"levelo://app?vid=270b1cda-2991-4f58-9004-8b028cb4ae2e"},"vehicle_type_id":"4","last_reported":1743631756,"current_range_meters":8400,"station_id":"ce4bhf92rcd13ifvqf50","pricing_plan_id":"cebpf4jnsgd1na2vs0mg"},{"bike_id":"d569352a-1078-43df-8ab1-6877d4e124ee","system_id":"levelo_inurba_marseille","lat":43.28079,"lon":5.39662,"is_reserved":false,"is_disabled":false,"rental_uris":{"android":"levelo://app?vid=d569352a-1078-43df-8ab1-6877d4e124ee","ios":"levelo://app?vid=d569352a-1078-43df-8ab1-6877d4e124ee"},"vehicle_type_id":"4","last_reported":1743631756,"current_range_meters":8400,"station_id":"ce4bho12rcd13ifvqh2g","pricing_plan_id":"cebpf4jnsgd1na2vs0mg"},{"bike_id":"f55695a6-b65f-4a30-99ab-94b2bfa63268","system_id":"levelo_inurba_marseille","lat":43.23185,"lon":5.35542,"is_reserved":false,"is_disabled":false,"rental_uris":{"android":"levelo://app?vid=f55695a6-b65f-4a30-99ab-94b2bfa63268","ios":"levelo://app?vid=f55695a6-b65f-4a30-99ab-94b2bfa63268"},"vehicle_type_id":"4","last_reported":1743631756,"current_range_meters":8400,"station_id":"ce4bhu92rcd13ifvqi70","pricing_plan_id":"cebpf4jnsgd1na2vs0mg"},{"bike_id":"e258b51d-06d4-4115-ae7c-be9e8e896a16","system_id":"levelo_inurba_marseille","lat":43.29282,"lon":5.40125,"is_reserved":false,"is_disabled":false,"rental_uris":{"android":"levelo://app?vid=e258b51d-06d4-4115-ae7c-be9e8e896a16","ios":"levelo://app?vid=e258b51d-06d4-4115-ae7c-be9e8e896a16"},"vehicle_type_id":"4","last_reported":1743631756,"current_range_meters":8400,"station_id":"ce4bh312rcd13ifvqdk0","pricing_plan_id":"cebpf4jnsgd1na2vs0mg"},{"bike_id":"bedb9418-da38-4799-a541-d6651335dd1d","system_id":"levelo_inurba_marseille","lat":43.27175,"lon":5.40994,"is_reserved":false,"is_disabled":false,"rental_uris":{"android":"levelo://app?vid=bedb9418-da38-4799-a541-d6651335dd1d","ios":"levelo://app?vid=bedb9418-da38-4799-a541-d6651335dd1d"},"vehicle_type_id":"4","last_reported":1743631756,"current_range_meters":8400,"station_id":"ce4bhl12rcd13ifvqgf0","pricing_plan_id":"cebpf4jnsgd1na2vs0mg"},{"bike_id":"5ac338a9-5dc2-4b4f-afba-1814cc6e9c23","system_id":"levelo_inurba_marseille","lat":43.2623,"lon":5.40439,"is_reserved":false,"is_disabled":false,"rental_uris":{"android":"levelo://app?vid=5ac338a9-5dc2-4b4f-afba-1814cc6e9c23","ios":"levelo://app?vid=5ac338a9-5dc2-4b4f-afba-1814cc6e9c23"},"vehicle_type_id":"4","last_reported":1743631756,"current_range_meters":8400,"station_id":"ce4bhmh2rcd13ifvqgmg","pricing_plan_id":"cebpf4jnsgd1na2vs0mg"},{"bike_id":"4b44f39c-5bb2-424a-891d-855ab4adfcfa","system_id":"levelo_inurba_marseille","lat":43.30127,"lon":5.38776,"is_reserved":false,"is_disabled":true,"rental_uris":{"android":"levelo://app?vid=4b44f39c-5bb2-424a-891d-855ab4adfcfa","ios":"levelo://app?vid=4b44f39c-5bb2-424a-891d-855ab4adfcfa"},"vehicle_type_id":"4","last_reported":1743631756,"current_range_meters":8400,"station_id":"ce4bghh2rcd13ifvqb60","pricing_plan_id":"cebpf4jnsgd1na2vs0mg"},{"bike_id":"ad0701ee-14d6-40ee-9cc0-de39a686153f","system_id":"levelo_inurba_marseille","lat":43.28725,"lon":5.39987,"is_reserved":false,"is_disabled":false,"rental_uris":{"android":"levelo://app?vid=ad0701ee-14d6-40ee-9cc0-de39a686153f","ios":"levelo://app?vid=ad0701ee-14d6-40ee-9cc0-de39a686153f"},"vehicle_type_id":"4","last_reported":1743631756,"current_range_meters":8400,"station_id":"ce4bho92rcd13ifvqh3g","pricing_plan_id":"cebpf4jnsgd1na2vs0mg"},{"bike_id":"620ba5da-f370-42b9-a07c-a3aa9a4ecc81","system_id":"levelo_inurba_marseille","lat":43.28418,"lon":5.37535,"is_reserved":false,"is_disabled":false,"rental_uris":{"android":"levelo://app?vid=620ba5da-f370-42b9-a07c-a3aa9a4ecc81","ios":"levelo://app?vid=620ba5da-f370-42b9-a07c-a3aa9a4ecc81"},"vehicle_type_id":"4","last_reported":1743631756,"current_range_meters":8400,"station_id":"ce4bh412rcd13ifvqds0","pricing_plan_id":"cebpf4jnsgd1na2vs0mg"},{"bike_id":"988a4b2a-1fca-4561-9342-57ad8b6adb1c","system_id":"levelo_inurba_marseille","lat":43.22933,"lon":5.35376,"is_reserved":false,"is_disabled":false,"rental_uris":{"android":"levelo://app?vid=988a4b2a-1fca-4561-9342-57ad8b6adb1c","ios":"levelo://app?vid=988a4b2a-1fca-4561-9342-57ad8b6adb1c"},"vehicle_type_id":"4","last_reported":1743631756,"current_range_meters":8800,"station_id":"cpo3532slgdg3j2ikp40","pricing_plan_id":"cebpf4jnsgd1na2vs0mg"},{"bike_id":"d157a8ac-f1ea-480a-a1ee-9ac00962bb01","system_id":"levelo_inurba_marseille","lat":43.2954,"lon":5.42291,"is_reserved":false,"is_disabled":false,"rental_uris":{"android":"levelo://app?vid=d157a8ac-f1ea-480a-a1ee-9ac00962bb01","ios":"levelo://app?vid=d157a8ac-f1ea-480a-a1ee-9ac00962bb01"},"vehicle_type_id":"4","last_reported":1743631756,"current_range_meters":8800,"station_id":"ce4bhph2rcd13ifvqhdg","pricing_plan_id":"cebpf4jnsgd1na2vs0mg"},{"bike_id":"f87e996c-206a-47d9-8697-84a2d463fdc3","system_id":"levelo_inurba_marseille","lat":43.23202,"lon":5.35555,"is_reserved":false,"is_disabled":false,"rental_uris":{"android":"levelo://app?vid=f87e996c-206a-47d9-8697-84a2d463fdc3","ios":"levelo://app?vid=f87e996c-206a-47d9-8697-84a2d463fdc3"},"vehicle_type_id":"4","last_reported":1743631756,"current_range_meters":8800,"station_id":"ce4bhu92rcd13ifvqi70","pricing_plan_id":"cebpf4jnsgd1na2vs0mg"},{"bike_id":"920f6ca0-0606-4d4f-8258-619f9f19df50","system_id":"levelo_inurba_marseille","lat":43.28919,"lon":5.38399,"is_reserved":false,"is_disabled":true,"rental_uris":{"android":"levelo://app?vid=920f6ca0-0606-4d4f-8258-619f9f19df50","ios":"levelo://app?vid=920f6ca0-0606-4d4f-8258-619f9f19df50"},"vehicle_type_id":"4","last_reported":1743631756,"current_range_meters":8800,"station_id":"ce4bh612rcd13ifvqe6g","pricing_plan_id":"cebpf4jnsgd1na2vs0mg"},{"bike_id":"778c1b11-df57-4d72-8926-0598c8f52364","system_id":"levelo_inurba_marseille","lat":43.29019,"lon":5.39987,"is_reserved":false,"is_disabled":false,"rental_uris":{"android":"levelo://app?vid=778c1b11-df57-4d72-8926-0598c8f52364","ios":"levelo://app?vid=778c1b11-df57-4d72-8926-0598c8f52364"},"vehicle_type_id":"4","last_reported":1743631756,"current_range_meters":8800,"station_id":"ce4bh392rcd13ifvqdm0","pricing_plan_id":"cebpf4jnsgd1na2vs0mg"},{"bike_id":"25ca8d82-bcbb-49e7-a72d-c5ab0e3f3626","system_id":"levelo_inurba_marseille","lat":43.30256,"lon":5.40064,"is_reserved":false,"is_disabled":false,"rental_uris":{"android":"levelo://app?vid=25ca8d82-bcbb-49e7-a72d-c5ab0e3f3626","ios":"levelo://app?vid=25ca8d82-bcbb-49e7-a72d-c5ab0e3f3626"},"vehicle_type_id":"4","last_reported":1743631756,"current_range_meters":8800,"station_id":"ce4bgvh2rcd13ifvqcs0","pricing_plan_id":"cebpf4jnsgd1na2vs0mg"},{"bike_id":"6e6a66e5-58ca-4db1-9695-b46ed5c28827","system_id":"levelo_inurba_marseille","lat":43.31808,"lon":5.36836,"is_reserved":false,"is_disabled":false,"rental_uris":{"android":"levelo://app?vid=6e6a66e5-58ca-4db1-9695-b46ed5c28827","ios":"levelo://app?vid=6e6a66e5-58ca-4db1-9695-b46ed5c28827"},"vehicle_type_id":"4","last_reported":1743631756,"current_range_meters":8800,"station_id":"","pricing_plan_id":"cebpf4jnsgd1na2vs0mg"},{"bike_id":"0a4f6da9-d692-4e1b-97e1-19cce7ff7176","system_id":"levelo_inurba_marseille","lat":43.30303,"lon":5.40454,"is_reserved":false,"is_disabled":false,"rental_uris":{"android":"levelo://app?vid=0a4f6da9-d692-4e1b-97e1-19cce7ff7176","ios":"levelo://app?vid=0a4f6da9-d692-4e1b-97e1-19cce7ff7176"},"vehicle_type_id":"4","last_reported":1743631756,"current_range_meters":8800,"station_id":"ce4bh012rcd13ifvqd10","pricing_plan_id":"cebpf4jnsgd1na2vs0mg"},{"bike_id":"a112ce08-6f4e-41f2-873e-94895f2e1506","system_id":"levelo_inurba_marseille","lat":43.27697,"lon":5.38874,"is_reserved":false,"is_disabled":true,"rental_uris":{"android":"levelo://app?vid=a112ce08-6f4e-41f2-873e-94895f2e1506","ios":"levelo://app?vid=a112ce08-6f4e-41f2-873e-94895f2e1506"},"vehicle_type_id":"4","last_reported":1743631756,"current_range_meters":8800,"station_id":"ce4bhi12rcd13ifvqfo0","pricing_plan_id":"cebpf4jnsgd1na2vs0mg"},{"bike_id":"49428efe-bbd8-4963-9aaf-ed822fd5c61b","system_id":"levelo_inurba_marseille","lat":43.29196,"lon":5.44377,"is_reserved":false,"is_disabled":false,"rental_uris":{"android":"levelo://app?vid=49428efe-bbd8-4963-9aaf-ed822fd5c61b","ios":"levelo://app?vid=49428efe-bbd8-4963-9aaf-ed822fd5c61b"},"vehicle_type_id":"4","last_reported":1743631756,"current_range_meters":8800,"station_id":"","pricing_plan_id":"cebpf4jnsgd1na2vs0mg"},{"bike_id":"546380d0-0813-4737-817f-a21e056e8d2e","system_id":"levelo_inurba_marseille","lat":43.32355,"lon":5.36753,"is_reserved":false,"is_disabled":false,"rental_uris":{"android":"levelo://app?vid=546380d0-0813-4737-817f-a21e056e8d2e","ios":"levelo://app?vid=546380d0-0813-4737-817f-a21e056e8d2e"},"vehicle_type_id":"4","last_reported":1743631756,"current_range_meters":8800,"station_id":"ce4bhsh2rcd13ifvqi2g","pricing_plan_id":"cebpf4jnsgd1na2vs0mg"},{"bike_id":"f103e6d0-67b4-446b-a81f-9e09dc680270","system_id":"levelo_inurba_marseille","lat":43.28093,"lon":5.37873,"is_reserved":false,"is_disabled":false,"rental_uris":{"android":"levelo://app?vid=f103e6d0-67b4-446b-a81f-9e09dc680270","ios":"levelo://app?vid=f103e6d0-67b4-446b-a81f-9e09dc680270"},"vehicle_type_id":"4","last_reported":1743631756,"current_range_meters":8800,"station_id":"ce4bha12rcd13ifvqee0","pricing_plan_id":"cebpf4jnsgd1na2vs0mg"},{"bike_id":"2e1d0491-8046-4a1c-910c-6d230f4ca468","system_id":"levelo_inurba_marseille","lat":43.30667,"lon":5.37335,"is_reserved":false,"is_disabled":false,"rental_uris":{"android":"levelo://app?vid=2e1d0491-8046-4a1c-910c-6d230f4ca468","ios":"levelo://app?vid=2e1d0491-8046-4a1c-910c-6d230f4ca468"},"vehicle_type_id":"4","last_reported":1743631756,"current_range_meters":8800,"station_id":"","pricing_plan_id":"cebpf4jnsgd1na2vs0mg"},{"bike_id":"04556df8-715f-45d8-b288-9c8fd51282f9","system_id":"levelo_inurba_marseille","lat":43.23193,"lon":5.35565,"is_reserved":false,"is_disabled":false,"rental_uris":{"android":"levelo://app?vid=04556df8-715f-45d8-b288-9c8fd51282f9","ios":"levelo://app?vid=04556df8-715f-45d8-b288-9c8fd51282f9"},"vehicle_type_id":"4","last_reported":1743631756,"current_range_meters":9200,"station_id":"ce4bhu92rcd13ifvqi70","pricing_plan_id":"cebpf4jnsgd1na2vs0mg"},{"bike_id":"b52eafbb-0fdc-487b-b3ce-3a3f8cf7e638","system_id":"levelo_inurba_marseille","lat":43.33083,"lon":5.39186,"is_reserved":false,"is_disabled":false,"rental_uris":{"android":"levelo://app?vid=b52eafbb-0fdc-487b-b3ce-3a3f8cf7e638","ios":"levelo://app?vid=b52eafbb-0fdc-487b-b3ce-3a3f8cf7e638"},"vehicle_type_id":"4","last_reported":1743631756,"current_range_meters":9200,"station_id":"","pricing_plan_id":"cebpf4jnsgd1na2vs0mg"},{"bike_id":"d97c6895-9a58-42bd-9edc-053f218b5b60","system_id":"levelo_inurba_marseille","lat":43.29506,"lon":5.36385,"is_reserved":false,"is_disabled":false,"rental_uris":{"android":"levelo://app?vid=d97c6895-9a58-42bd-9edc-053f218b5b60","ios":"levelo://app?vid=d97c6895-9a58-42bd-9edc-053f218b5b60"},"vehicle_type_id":"4","last_reported":1743631756,"current_range_meters":9200,"station_id":"","pricing_plan_id":"cebpf4jnsgd1na2vs0mg"},{"bike_id":"68907b43-53b6-4378-90a0-f0932ed718b2","system_id":"levelo_inurba_marseille","lat":43.29187,"lon":5.3931,"is_reserved":false,"is_disabled":false,"rental_uris":{"android":"levelo://app?vid=68907b43-53b6-4378-90a0-f0932ed718b2","ios":"levelo://app?vid=68907b43-53b6-4378-90a0-f0932ed718b2"},"vehicle_type_id":"4","last_reported":1743631756,"current_range_meters":9200,"station_id":"ce4bh192rcd13ifvqdd0","pricing_plan_id":"cebpf4jnsgd1na2vs0mg"},{"bike_id":"2cf61775-cb21-4b86-a7af-7925ef8f8bd8","system_id":"levelo_inurba_marseille","lat":43.22939,"lon":5.35393,"is_reserved":false,"is_disabled":false,"rental_uris":{"android":"levelo://app?vid=2cf61775-cb21-4b86-a7af-7925ef8f8bd8","ios":"levelo://app?vid=2cf61775-cb21-4b86-a7af-7925ef8f8bd8"},"vehicle_type_id":"4","last_reported":1743631756,"current_range_meters":9200,"station_id":"cpo3532slgdg3j2ikp40","pricing_plan_id":"cebpf4jnsgd1na2vs0mg"},{"bike_id":"1cc56aae-45a2-4fff-b1a7-9e957e7043f2","system_id":"levelo_inurba_marseille","lat":43.28686,"lon":5.37447,"is_reserved":false,"is_disabled":false,"rental_uris":{"android":"levelo://app?vid=1cc56aae-45a2-4fff-b1a7-9e957e7043f2","ios":"levelo://app?vid=1cc56aae-45a2-4fff-b1a7-9e957e7043f2"},"vehicle_type_id":"4","last_reported":1743631756,"current_range_meters":9200,"station_id":"","pricing_plan_id":"cebpf4jnsgd1na2vs0mg"},{"bike_id":"8d2c5831-5cdd-4f87-8589-2d34f0df351b","system_id":"levelo_inurba_marseille","lat":43.33008,"lon":5.39028,"is_reserved":false,"is_disabled":false,"rental_uris":{"android":"levelo://app?vid=8d2c5831-5cdd-4f87-8589-2d34f0df351b","ios":"levelo://app?vid=8d2c5831-5cdd-4f87-8589-2d34f0df351b"},"vehicle_type_id":"4","last_reported":1743631756,"current_range_meters":9200,"station_id":"ce4bhr92rcd13ifvqhrg","pricing_plan_id":"cebpf4jnsgd1na2vs0mg"},{"bike_id":"1006235b-1c25-4d94-97c7-b9bd84d28baf","system_id":"levelo_inurba_marseille","lat":43.31177,"lon":5.3823,"is_reserved":false,"is_disabled":false,"rental_uris":{"android":"levelo://app?vid=1006235b-1c25-4d94-97c7-b9bd84d28baf","ios":"levelo://app?vid=1006235b-1c25-4d94-97c7-b9bd84d28baf"},"vehicle_type_id":"4","last_reported":1743631756,"current_range_meters":9600,"station_id":"","pricing_plan_id":"cebpf4jnsgd1na2vs0mg"},{"bike_id":"10eecfcd-c20e-4fce-96f8-ccfc5e1d1600","system_id":"levelo_inurba_marseille","lat":43.28038,"lon":5.36945,"is_reserved":false,"is_disabled":false,"rental_uris":{"android":"levelo://app?vid=10eecfcd-c20e-4fce-96f8-ccfc5e1d1600","ios":"levelo://app?vid=10eecfcd-c20e-4fce-96f8-ccfc5e1d1600"},"vehicle_type_id":"4","last_reported":1743631756,"current_range_meters":9200,"station_id":"ce4bha12rcd13ifvqef0","pricing_plan_id":"cebpf4jnsgd1na2vs0mg"},{"bike_id":"f8dc6029-025c-47cd-8921-5ce023e19c20","system_id":"levelo_inurba_marseille","lat":43.31995,"lon":5.38158,"is_reserved":false,"is_disabled":false,"rental_uris":{"android":"levelo://app?vid=f8dc6029-025c-47cd-8921-5ce023e19c20","ios":"levelo://app?vid=f8dc6029-025c-47cd-8921-5ce023e19c20"},"vehicle_type_id":"4","last_reported":1743631756,"current_range_meters":9600,"station_id":"ce4bhr12rcd13ifvqhpg","pricing_plan_id":"cebpf4jnsgd1na2vs0mg"},{"bike_id":"b271bfbc-6326-463e-87a3-473344d58fd1","system_id":"levelo_inurba_marseille","lat":43.28436,"lon":5.39179,"is_reserved":false,"is_disabled":false,"rental_uris":{"android":"levelo://app?vid=b271bfbc-6326-463e-87a3-473344d58fd1","ios":"levelo://app?vid=b271bfbc-6326-463e-87a3-473344d58fd1"},"vehicle_type_id":"4","last_reported":1743631756,"current_range_meters":9600,"station_id":"ce4bhoh2rcd13ifvqh5g","pricing_plan_id":"cebpf4jnsgd1na2vs0mg"},{"bike_id":"75dae32f-059a-4b5b-a5e8-963c6eda2f66","system_id":"levelo_inurba_marseille","lat":43.27516,"lon":5.41008,"is_reserved":false,"is_disabled":false,"rental_uris":{"android":"levelo://app?vid=75dae32f-059a-4b5b-a5e8-963c6eda2f66","ios":"levelo://app?vid=75dae32f-059a-4b5b-a5e8-963c6eda2f66"},"vehicle_type_id":"4","last_reported":1743631756,"current_range_meters":9600,"station_id":"","pricing_plan_id":"cebpf4jnsgd1na2vs0mg"},{"bike_id":"cc48d5f7-d01f-4444-b9a7-452fba1c832b","system_id":"levelo_inurba_marseille","lat":43.28679,"lon":5.40018,"is_reserved":false,"is_disabled":false,"rental_uris":{"android":"levelo://app?vid=cc48d5f7-d01f-4444-b9a7-452fba1c832b","ios":"levelo://app?vid=cc48d5f7-d01f-4444-b9a7-452fba1c832b"},"vehicle_type_id":"4","last_reported":1743631756,"current_range_meters":10000,"station_id":"ce4bho92rcd13ifvqh3g","pricing_plan_id":"cebpf4jnsgd1na2vs0mg"},{"bike_id":"7ba67d0a-4dd2-434e-9233-c217be617343","system_id":"levelo_inurba_marseille","lat":43.33784,"lon":5.37471,"is_reserved":false,"is_disabled":false,"rental_uris":{"android":"levelo://app?vid=7ba67d0a-4dd2-434e-9233-c217be617343","ios":"levelo://app?vid=7ba67d0a-4dd2-434e-9233-c217be617343"},"vehicle_type_id":"4","last_reported":1743631756,"current_range_meters":10000,"station_id":"","pricing_plan_id":"cebpf4jnsgd1na2vs0mg"},{"bike_id":"b5fa61b4-55c0-4d0f-b518-f0583e71aca3","system_id":"levelo_inurba_marseille","lat":43.22919,"lon":5.35386,"is_reserved":false,"is_disabled":false,"rental_uris":{"android":"levelo://app?vid=b5fa61b4-55c0-4d0f-b518-f0583e71aca3","ios":"levelo://app?vid=b5fa61b4-55c0-4d0f-b518-f0583e71aca3"},"vehicle_type_id":"4","last_reported":1743631756,"current_range_meters":10000,"station_id":"cpo3532slgdg3j2ikp40","pricing_plan_id":"cebpf4jnsgd1na2vs0mg"},{"bike_id":"a4d6c0ce-d5fd-4ac9-98cc-4bef6acfd763","system_id":"levelo_inurba_marseille","lat":43.30862,"lon":5.39677,"is_reserved":false,"is_disabled":false,"rental_uris":{"android":"levelo://app?vid=a4d6c0ce-d5fd-4ac9-98cc-4bef6acfd763","ios":"levelo://app?vid=a4d6c0ce-d5fd-4ac9-98cc-4bef6acfd763"},"vehicle_type_id":"4","last_reported":1743631756,"current_range_meters":10000,"station_id":"ce4bh012rcd13ifvqcv0","pricing_plan_id":"cebpf4jnsgd1na2vs0mg"},{"bike_id":"7514852b-340a-4392-a4d2-9a84e0d03998","system_id":"levelo_inurba_marseille","lat":43.33296,"lon":5.39694,"is_reserved":false,"is_disabled":false,"rental_uris":{"android":"levelo://app?vid=7514852b-340a-4392-a4d2-9a84e0d03998","ios":"levelo://app?vid=7514852b-340a-4392-a4d2-9a84e0d03998"},"vehicle_type_id":"4","last_reported":1743631756,"current_range_meters":10000,"station_id":"","pricing_plan_id":"cebpf4jnsgd1na2vs0mg"},{"bike_id":"32a978e0-d0c2-43d4-9b03-19a5c41c27de","system_id":"levelo_inurba_marseille","lat":43.31066,"lon":5.38338,"is_reserved":false,"is_disabled":true,"rental_uris":{"android":"levelo://app?vid=32a978e0-d0c2-43d4-9b03-19a5c41c27de","ios":"levelo://app?vid=32a978e0-d0c2-43d4-9b03-19a5c41c27de"},"vehicle_type_id":"4","last_reported":1743631756,"current_range_meters":10000,"station_id":"ce4bgv92rcd13ifvqcr0","pricing_plan_id":"cebpf4jnsgd1na2vs0mg"},{"bike_id":"c7bcfcce-85fd-402f-9f72-d5775fbcd6d4","system_id":"levelo_inurba_marseille","lat":43.28465,"lon":5.35883,"is_reserved":false,"is_disabled":false,"rental_uris":{"android":"levelo://app?vid=c7bcfcce-85fd-402f-9f72-d5775fbcd6d4","ios":"levelo://app?vid=c7bcfcce-85fd-402f-9f72-d5775fbcd6d4"},"vehicle_type_id":"4","last_reported":1743631756,"current_range_meters":10000,"station_id":"ce4bhah2rcd13ifvqei0","pricing_plan_id":"cebpf4jnsgd1na2vs0mg"},{"bike_id":"3861a75e-b926-4425-8cdb-720b2581c0a9","system_id":"levelo_inurba_marseille","lat":43.28725,"lon":5.36111,"is_reserved":false,"is_disabled":false,"rental_uris":{"android":"levelo://app?vid=3861a75e-b926-4425-8cdb-720b2581c0a9","ios":"levelo://app?vid=3861a75e-b926-4425-8cdb-720b2581c0a9"},"vehicle_type_id":"4","last_reported":1743631756,"current_range_meters":10000,"station_id":"cki0cbj6b192h4jlfktg","pricing_plan_id":"cebpf4jnsgd1na2vs0mg"},{"bike_id":"f4b3c781-c46b-42d3-9ff9-fac436734dd4","system_id":"levelo_inurba_marseille","lat":43.3089,"lon":5.39655,"is_reserved":false,"is_disabled":false,"rental_uris":{"android":"levelo://app?vid=f4b3c781-c46b-42d3-9ff9-fac436734dd4","ios":"levelo://app?vid=f4b3c781-c46b-42d3-9ff9-fac436734dd4"},"vehicle_type_id":"4","last_reported":1743631756,"current_range_meters":10000,"station_id":"ce4bh012rcd13ifvqcv0","pricing_plan_id":"cebpf4jnsgd1na2vs0mg"},{"bike_id":"82be00d7-07cd-447f-a119-c8efb6be13a1","system_id":"levelo_inurba_marseille","lat":43.3235,"lon":5.38907,"is_reserved":false,"is_disabled":false,"rental_uris":{"android":"levelo://app?vid=82be00d7-07cd-447f-a119-c8efb6be13a1","ios":"levelo://app?vid=82be00d7-07cd-447f-a119-c8efb6be13a1"},"vehicle_type_id":"4","last_reported":1743631756,"current_range_meters":10000,"station_id":"ce4bhqp2rcd13ifvqhog","pricing_plan_id":"cebpf4jnsgd1na2vs0mg"},{"bike_id":"c7ccbf5d-ae1e-437e-897a-da5eaa465f76","system_id":"levelo_inurba_marseille","lat":43.284824,"lon":5.38412,"is_reserved":false,"is_disabled":false,"rental_uris":{"android":"levelo://app?vid=c7ccbf5d-ae1e-437e-897a-da5eaa465f76","ios":"levelo://app?vid=c7ccbf5d-ae1e-437e-897a-da5eaa465f76"},"vehicle_type_id":"4","last_reported":1743631756,"current_range_meters":10000,"station_id":"ce4bgn12rcd13ifvqbt0","pricing_plan_id":"cebpf4jnsgd1na2vs0mg"},{"bike_id":"b6c83da9-b3c4-4843-9a1d-36871e12515b","system_id":"levelo_inurba_marseille","lat":43.26126,"lon":5.41454,"is_reserved":false,"is_disabled":false,"rental_uris":{"android":"levelo://app?vid=b6c83da9-b3c4-4843-9a1d-36871e12515b","ios":"levelo://app?vid=b6c83da9-b3c4-4843-9a1d-36871e12515b"},"vehicle_type_id":"4","last_reported":1743631756,"current_range_meters":10000,"station_id":"","pricing_plan_id":"cebpf4jnsgd1na2vs0mg"},{"bike_id":"ea464bc9-6baf-477f-8592-2d7142958a22","system_id":"levelo_inurba_marseille","lat":43.26664,"lon":5.38254,"is_reserved":false,"is_disabled":true,"rental_uris":{"android":"levelo://app?vid=ea464bc9-6baf-477f-8592-2d7142958a22","ios":"levelo://app?vid=ea464bc9-6baf-477f-8592-2d7142958a22"},"vehicle_type_id":"4","last_reported":1743631756,"current_range_meters":10000,"station_id":"ce4bhg92rcd13ifvqf90","pricing_plan_id":"cebpf4jnsgd1na2vs0mg"},{"bike_id":"7f8a9668-212b-4215-8502-2b44c2f0d8a1","system_id":"levelo_inurba_marseille","lat":43.30801,"lon":5.38155,"is_reserved":false,"is_disabled":false,"rental_uris":{"android":"levelo://app?vid=7f8a9668-212b-4215-8502-2b44c2f0d8a1","ios":"levelo://app?vid=7f8a9668-212b-4215-8502-2b44c2f0d8a1"},"vehicle_type_id":"4","last_reported":1743631756,"current_range_meters":10000,"station_id":"ce4bgt12rcd13ifvqce0","pricing_plan_id":"cebpf4jnsgd1na2vs0mg"},{"bike_id":"e1b03b21-5eb0-483c-b4ac-ea8a29304382","system_id":"levelo_inurba_marseille","lat":43.23059,"lon":5.35494,"is_reserved":false,"is_disabled":false,"rental_uris":{"android":"levelo://app?vid=e1b03b21-5eb0-483c-b4ac-ea8a29304382","ios":"levelo://app?vid=e1b03b21-5eb0-483c-b4ac-ea8a29304382"},"vehicle_type_id":"4","last_reported":1743631756,"current_range_meters":10800,"station_id":"cpo3342slgdg3j2ifvpg","pricing_plan_id":"cebpf4jnsgd1na2vs0mg"},{"bike_id":"c2e6881a-04a3-4a38-9cc0-75cacf165e78","system_id":"levelo_inurba_marseille","lat":43.28832,"lon":5.364645,"is_reserved":false,"is_disabled":false,"rental_uris":{"android":"levelo://app?vid=c2e6881a-04a3-4a38-9cc0-75cacf165e78","ios":"levelo://app?vid=c2e6881a-04a3-4a38-9cc0-75cacf165e78"},"vehicle_type_id":"4","last_reported":1743631756,"current_range_meters":10800,"station_id":"","pricing_plan_id":"cebpf4jnsgd1na2vs0mg"},{"bike_id":"7e518bd1-a3c5-4718-b257-c0d50b977d20","system_id":"levelo_inurba_marseille","lat":43.25888,"lon":5.39894,"is_reserved":false,"is_disabled":true,"rental_uris":{"android":"levelo://app?vid=7e518bd1-a3c5-4718-b257-c0d50b977d20","ios":"levelo://app?vid=7e518bd1-a3c5-4718-b257-c0d50b977d20"},"vehicle_type_id":"4","last_reported":1743631756,"current_range_meters":10800,"station_id":"ce4bhl92rcd13ifvqghg","pricing_plan_id":"cebpf4jnsgd1na2vs0mg"},{"bike_id":"cf1e53ae-b855-4ff1-83cf-4764ba2133f9","system_id":"levelo_inurba_marseille","lat":43.28905,"lon":5.35835,"is_reserved":false,"is_disabled":false,"rental_uris":{"android":"levelo://app?vid=cf1e53ae-b855-4ff1-83cf-4764ba2133f9","ios":"levelo://app?vid=cf1e53ae-b855-4ff1-83cf-4764ba2133f9"},"vehicle_type_id":"4","last_reported":1743631756,"current_range_meters":10800,"station_id":"","pricing_plan_id":"cebpf4jnsgd1na2vs0mg"},{"bike_id":"6fd3d18f-c3b5-4d07-8160-12fc5c26448c","system_id":"levelo_inurba_marseille","lat":43.32347,"lon":5.38916,"is_reserved":false,"is_disabled":false,"rental_uris":{"android":"levelo://app?vid=6fd3d18f-c3b5-4d07-8160-12fc5c26448c","ios":"levelo://app?vid=6fd3d18f-c3b5-4d07-8160-12fc5c26448c"},"vehicle_type_id":"4","last_reported":1743631756,"current_range_meters":10800,"station_id":"ce4bhqp2rcd13ifvqhog","pricing_plan_id":"cebpf4jnsgd1na2vs0mg"},{"bike_id":"926561da-db54-48d9-b02a-5b2b2cebb62a","system_id":"levelo_inurba_marseille","lat":43.30312,"lon":5.39218,"is_reserved":false,"is_disabled":false,"rental_uris":{"android":"levelo://app?vid=926561da-db54-48d9-b02a-5b2b2cebb62a","ios":"levelo://app?vid=926561da-db54-48d9-b02a-5b2b2cebb62a"},"vehicle_type_id":"4","last_reported":1743631756,"current_range_meters":11200,"station_id":"ce4bgkh2rcd13ifvqbk0","pricing_plan_id":"cebpf4jnsgd1na2vs0mg"},{"bike_id":"09a8a7dc-25ab-48a6-ac8b-5ee88a884479","system_id":"levelo_inurba_marseille","lat":43.28623,"lon":5.38381,"is_reserved":false,"is_disabled":false,"rental_uris":{"android":"levelo://app?vid=09a8a7dc-25ab-48a6-ac8b-5ee88a884479","ios":"levelo://app?vid=09a8a7dc-25ab-48a6-ac8b-5ee88a884479"},"vehicle_type_id":"4","last_reported":1743631756,"current_range_meters":11200,"station_id":"","pricing_plan_id":"cebpf4jnsgd1na2vs0mg"},{"bike_id":"7d49898d-4c6e-4131-9fdb-37de62f2c79c","system_id":"levelo_inurba_marseille","lat":43.28906,"lon":5.37112,"is_reserved":false,"is_disabled":false,"rental_uris":{"android":"levelo://app?vid=7d49898d-4c6e-4131-9fdb-37de62f2c79c","ios":"levelo://app?vid=7d49898d-4c6e-4131-9fdb-37de62f2c79c"},"vehicle_type_id":"4","last_reported":1743631756,"current_range_meters":11200,"station_id":"","pricing_plan_id":"cebpf4jnsgd1na2vs0mg"},{"bike_id":"9e7c224b-9a67-4d10-89b5-39e81d5706d0","system_id":"levelo_inurba_marseille","lat":43.284604,"lon":5.358974,"is_reserved":false,"is_disabled":false,"rental_uris":{"android":"levelo://app?vid=9e7c224b-9a67-4d10-89b5-39e81d5706d0","ios":"levelo://app?vid=9e7c224b-9a67-4d10-89b5-39e81d5706d0"},"vehicle_type_id":"4","last_reported":1743631756,"current_range_meters":11200,"station_id":"ce4bhah2rcd13ifvqei0","pricing_plan_id":"cebpf4jnsgd1na2vs0mg"},{"bike_id":"e9b260c0-e2f7-4a0c-83f5-bfd4f16e7d61","system_id":"levelo_inurba_marseille","lat":43.24668,"lon":5.38158,"is_reserved":false,"is_disabled":false,"rental_uris":{"android":"levelo://app?vid=e9b260c0-e2f7-4a0c-83f5-bfd4f16e7d61","ios":"levelo://app?vid=e9b260c0-e2f7-4a0c-83f5-bfd4f16e7d61"},"vehicle_type_id":"4","last_reported":1743631756,"current_range_meters":11600,"station_id":"ce4bhih2rcd13ifvqfr0","pricing_plan_id":"cebpf4jnsgd1na2vs0mg"},{"bike_id":"fb2cc8bd-b22d-40b8-b6f2-355ed9038731","system_id":"levelo_inurba_marseille","lat":43.28417,"lon":5.37524,"is_reserved":false,"is_disabled":false,"rental_uris":{"android":"levelo://app?vid=fb2cc8bd-b22d-40b8-b6f2-355ed9038731","ios":"levelo://app?vid=fb2cc8bd-b22d-40b8-b6f2-355ed9038731"},"vehicle_type_id":"4","last_reported":1743631756,"current_range_meters":11600,"station_id":"ce4bh412rcd13ifvqds0","pricing_plan_id":"cebpf4jnsgd1na2vs0mg"},{"bike_id":"5fdf6bbd-574b-46fe-ad8c-7571318200a0","system_id":"levelo_inurba_marseille","lat":43.27893,"lon":5.37989,"is_reserved":false,"is_disabled":false,"rental_uris":{"android":"levelo://app?vid=5fdf6bbd-574b-46fe-ad8c-7571318200a0","ios":"levelo://app?vid=5fdf6bbd-574b-46fe-ad8c-7571318200a0"},"vehicle_type_id":"4","last_reported":1743631756,"current_range_meters":11600,"station_id":"ce4bhf92rcd13ifvqf50","pricing_plan_id":"cebpf4jnsgd1na2vs0mg"},{"bike_id":"c3ea01b8-4040-4ef1-841d-299febab1e04","system_id":"levelo_inurba_marseille","lat":43.288491,"lon":5.358466,"is_reserved":false,"is_disabled":false,"rental_uris":{"android":"levelo://app?vid=c3ea01b8-4040-4ef1-841d-299febab1e04","ios":"levelo://app?vid=c3ea01b8-4040-4ef1-841d-299febab1e04"},"vehicle_type_id":"4","last_reported":1743631756,"current_range_meters":11600,"station_id":"ce4bhb12rcd13ifvqem0","pricing_plan_id":"cebpf4jnsgd1na2vs0mg"},{"bike_id":"cd83c8ac-ed09-4369-9279-b6f36f2bbd3c","system_id":"levelo_inurba_marseille","lat":43.30797,"lon":5.38242,"is_reserved":false,"is_disabled":false,"rental_uris":{"android":"levelo://app?vid=cd83c8ac-ed09-4369-9279-b6f36f2bbd3c","ios":"levelo://app?vid=cd83c8ac-ed09-4369-9279-b6f36f2bbd3c"},"vehicle_type_id":"4","last_reported":1743631756,"current_range_meters":11600,"station_id":"","pricing_plan_id":"cebpf4jnsgd1na2vs0mg"},{"bike_id":"6347c314-d446-4b82-9678-4bdccf99acdf","system_id":"levelo_inurba_marseille","lat":43.31138,"lon":5.38752,"is_reserved":false,"is_disabled":false,"rental_uris":{"android":"levelo://app?vid=6347c314-d446-4b82-9678-4bdccf99acdf","ios":"levelo://app?vid=6347c314-d446-4b82-9678-4bdccf99acdf"},"vehicle_type_id":"4","last_reported":1743631756,"current_range_meters":11600,"station_id":"ce4bgv12rcd13ifvqcp0","pricing_plan_id":"cebpf4jnsgd1na2vs0mg"},{"bike_id":"8cc6c2ed-3e77-4cd4-b528-4be3c22c789b","system_id":"levelo_inurba_marseille","lat":43.28933,"lon":5.3663,"is_reserved":false,"is_disabled":false,"rental_uris":{"android":"levelo://app?vid=8cc6c2ed-3e77-4cd4-b528-4be3c22c789b","ios":"levelo://app?vid=8cc6c2ed-3e77-4cd4-b528-4be3c22c789b"},"vehicle_type_id":"4","last_reported":1743631756,"current_range_meters":11600,"station_id":"ce4bhap2rcd13ifvqek0","pricing_plan_id":"cebpf4jnsgd1na2vs0mg"},{"bike_id":"5e5f3c53-cbc7-4476-981d-f1688c439d3e","system_id":"levelo_inurba_marseille","lat":43.32345,"lon":5.40604,"is_reserved":false,"is_disabled":false,"rental_uris":{"android":"levelo://app?vid=5e5f3c53-cbc7-4476-981d-f1688c439d3e","ios":"levelo://app?vid=5e5f3c53-cbc7-4476-981d-f1688c439d3e"},"vehicle_type_id":"4","last_reported":1743631756,"current_range_meters":11600,"station_id":"ce4bhq92rcd13ifvqhjg","pricing_plan_id":"cebpf4jnsgd1na2vs0mg"},{"bike_id":"eca000f3-7adb-462c-b7ed-61fb5b2098fc","system_id":"levelo_inurba_marseille","lat":43.22937,"lon":5.35397,"is_reserved":false,"is_disabled":false,"rental_uris":{"android":"levelo://app?vid=eca000f3-7adb-462c-b7ed-61fb5b2098fc","ios":"levelo://app?vid=eca000f3-7adb-462c-b7ed-61fb5b2098fc"},"vehicle_type_id":"4","last_reported":1743631756,"current_range_meters":11600,"station_id":"cpo3532slgdg3j2ikp40","pricing_plan_id":"cebpf4jnsgd1na2vs0mg"},{"bike_id":"4ec8776c-c288-4c4c-ad31-ffeec3ec3373","system_id":"levelo_inurba_marseille","lat":43.29279,"lon":5.38731,"is_reserved":false,"is_disabled":false,"rental_uris":{"android":"levelo://app?vid=4ec8776c-c288-4c4c-ad31-ffeec3ec3373","ios":"levelo://app?vid=4ec8776c-c288-4c4c-ad31-ffeec3ec3373"},"vehicle_type_id":"4","last_reported":1743631756,"current_range_meters":12000,"station_id":"","pricing_plan_id":"cebpf4jnsgd1na2vs0mg"},{"bike_id":"67f98ed3-63bd-4595-b49d-0192231ba0ca","system_id":"levelo_inurba_marseille","lat":43.28107,"lon":5.37831,"is_reserved":false,"is_disabled":false,"rental_uris":{"android":"levelo://app?vid=67f98ed3-63bd-4595-b49d-0192231ba0ca","ios":"levelo://app?vid=67f98ed3-63bd-4595-b49d-0192231ba0ca"},"vehicle_type_id":"4","last_reported":1743631756,"current_range_meters":12000,"station_id":"ce4bha12rcd13ifvqee0","pricing_plan_id":"cebpf4jnsgd1na2vs0mg"},{"bike_id":"d7a5cbe6-d410-4dfd-a249-9ab28c371ce9","system_id":"levelo_inurba_marseille","lat":43.31378,"lon":5.38501,"is_reserved":false,"is_disabled":false,"rental_uris":{"android":"levelo://app?vid=d7a5cbe6-d410-4dfd-a249-9ab28c371ce9","ios":"levelo://app?vid=d7a5cbe6-d410-4dfd-a249-9ab28c371ce9"},"vehicle_type_id":"4","last_reported":1743631756,"current_range_meters":11600,"station_id":"ce4bgt92rcd13ifvqcf0","pricing_plan_id":"cebpf4jnsgd1na2vs0mg"},{"bike_id":"9f62f29e-b083-4314-9e82-a49e79ecd17d","system_id":"levelo_inurba_marseille","lat":43.22932,"lon":5.3537,"is_reserved":false,"is_disabled":false,"rental_uris":{"android":"levelo://app?vid=9f62f29e-b083-4314-9e82-a49e79ecd17d","ios":"levelo://app?vid=9f62f29e-b083-4314-9e82-a49e79ecd17d"},"vehicle_type_id":"4","last_reported":1743631756,"current_range_meters":12000,"station_id":"cpo3532slgdg3j2ikp40","pricing_plan_id":"cebpf4jnsgd1na2vs0mg"},{"bike_id":"0cfd3fd2-d703-47ff-9dea-8f4a337d85bc","system_id":"levelo_inurba_marseille","lat":43.29017,"lon":5.35951,"is_reserved":false,"is_disabled":false,"rental_uris":{"android":"levelo://app?vid=0cfd3fd2-d703-47ff-9dea-8f4a337d85bc","ios":"levelo://app?vid=0cfd3fd2-d703-47ff-9dea-8f4a337d85bc"},"vehicle_type_id":"4","last_reported":1743631756,"current_range_meters":12400,"station_id":"","pricing_plan_id":"cebpf4jnsgd1na2vs0mg"},{"bike_id":"8d37a5d5-e37d-48aa-bfb1-2eba8d2e5a93","system_id":"levelo_inurba_marseille","lat":43.30094,"lon":5.3907,"is_reserved":false,"is_disabled":false,"rental_uris":{"android":"levelo://app?vid=8d37a5d5-e37d-48aa-bfb1-2eba8d2e5a93","ios":"levelo://app?vid=8d37a5d5-e37d-48aa-bfb1-2eba8d2e5a93"},"vehicle_type_id":"4","last_reported":1743631756,"current_range_meters":12400,"station_id":"ce4bh192rcd13ifvqdb0","pricing_plan_id":"cebpf4jnsgd1na2vs0mg"},{"bike_id":"80e1cea3-1bbc-44a9-bf93-62277ab86138","system_id":"levelo_inurba_marseille","lat":43.30519,"lon":5.38438,"is_reserved":false,"is_disabled":false,"rental_uris":{"android":"levelo://app?vid=80e1cea3-1bbc-44a9-bf93-62277ab86138","ios":"levelo://app?vid=80e1cea3-1bbc-44a9-bf93-62277ab86138"},"vehicle_type_id":"4","last_reported":1743631756,"current_range_meters":12400,"station_id":"ce4bgg92rcd13ifvqb30","pricing_plan_id":"cebpf4jnsgd1na2vs0mg"},{"bike_id":"31d1ea3e-4624-4ef0-a5ac-098d466faa63","system_id":"levelo_inurba_marseille","lat":43.31162,"lon":5.38711,"is_reserved":false,"is_disabled":false,"rental_uris":{"android":"levelo://app?vid=31d1ea3e-4624-4ef0-a5ac-098d466faa63","ios":"levelo://app?vid=31d1ea3e-4624-4ef0-a5ac-098d466faa63"},"vehicle_type_id":"4","last_reported":1743631756,"current_range_meters":12400,"station_id":"ce4bgv12rcd13ifvqcp0","pricing_plan_id":"cebpf4jnsgd1na2vs0mg"},{"bike_id":"99ab5872-5ddf-4699-8978-2452dfb7fbfc","system_id":"levelo_inurba_marseille","lat":43.30287,"lon":5.36899,"is_reserved":false,"is_disabled":false,"rental_uris":{"android":"levelo://app?vid=99ab5872-5ddf-4699-8978-2452dfb7fbfc","ios":"levelo://app?vid=99ab5872-5ddf-4699-8978-2452dfb7fbfc"},"vehicle_type_id":"4","last_reported":1743631756,"current_range_meters":12400,"station_id":"ce4bgqh2rcd13ifvqc5g","pricing_plan_id":"cebpf4jnsgd1na2vs0mg"},{"bike_id":"5ce952a0-88c7-4883-a1fa-b2d514db1492","system_id":"levelo_inurba_marseille","lat":43.31321,"lon":5.39691,"is_reserved":false,"is_disabled":false,"rental_uris":{"android":"levelo://app?vid=5ce952a0-88c7-4883-a1fa-b2d514db1492","ios":"levelo://app?vid=5ce952a0-88c7-4883-a1fa-b2d514db1492"},"vehicle_type_id":"4","last_reported":1743631756,"current_range_meters":12400,"station_id":"ce4bgvp2rcd13ifvqcu0","pricing_plan_id":"cebpf4jnsgd1na2vs0mg"},{"bike_id":"97bbe8da-fc6b-453d-afdc-a90ca5b2eaf7","system_id":"levelo_inurba_marseille","lat":43.29253,"lon":5.37626,"is_reserved":false,"is_disabled":false,"rental_uris":{"android":"levelo://app?vid=97bbe8da-fc6b-453d-afdc-a90ca5b2eaf7","ios":"levelo://app?vid=97bbe8da-fc6b-453d-afdc-a90ca5b2eaf7"},"vehicle_type_id":"4","last_reported":1743631756,"current_range_meters":12400,"station_id":"ce4bgi12rcd13ifvqb80","pricing_plan_id":"cebpf4jnsgd1na2vs0mg"},{"bike_id":"02cea789-dff8-4a5e-b56d-a683c37ba019","system_id":"levelo_inurba_marseille","lat":43.31169,"lon":5.38716,"is_reserved":false,"is_disabled":false,"rental_uris":{"android":"levelo://app?vid=02cea789-dff8-4a5e-b56d-a683c37ba019","ios":"levelo://app?vid=02cea789-dff8-4a5e-b56d-a683c37ba019"},"vehicle_type_id":"4","last_reported":1743631756,"current_range_meters":12800,"station_id":"ce4bgv12rcd13ifvqcp0","pricing_plan_id":"cebpf4jnsgd1na2vs0mg"},{"bike_id":"b9446397-faf0-4b11-9333-873930df54ed","system_id":"levelo_inurba_marseille","lat":43.27981,"lon":5.38751,"is_reserved":false,"is_disabled":false,"rental_uris":{"android":"levelo://app?vid=b9446397-faf0-4b11-9333-873930df54ed","ios":"levelo://app?vid=b9446397-faf0-4b11-9333-873930df54ed"},"vehicle_type_id":"4","last_reported":1743631756,"current_range_meters":12800,"station_id":"ce4bhg12rcd13ifvqf80","pricing_plan_id":"cebpf4jnsgd1na2vs0mg"},{"bike_id":"fa43562c-40ea-4a05-b4fb-d020c793d9ba","system_id":"levelo_inurba_marseille","lat":43.289208,"lon":5.384032,"is_reserved":false,"is_disabled":false,"rental_uris":{"android":"levelo://app?vid=fa43562c-40ea-4a05-b4fb-d020c793d9ba","ios":"levelo://app?vid=fa43562c-40ea-4a05-b4fb-d020c793d9ba"},"vehicle_type_id":"4","last_reported":1743631756,"current_range_meters":12800,"station_id":"ce4bh612rcd13ifvqe6g","pricing_plan_id":"cebpf4jnsgd1na2vs0mg"},{"bike_id":"b86b5b87-f029-48ac-aa00-3a50d7e2c1d2","system_id":"levelo_inurba_marseille","lat":43.32367,"lon":5.36749,"is_reserved":false,"is_disabled":true,"rental_uris":{"android":"levelo://app?vid=b86b5b87-f029-48ac-aa00-3a50d7e2c1d2","ios":"levelo://app?vid=b86b5b87-f029-48ac-aa00-3a50d7e2c1d2"},"vehicle_type_id":"4","last_reported":1743631756,"current_range_meters":12800,"station_id":"ce4bhsh2rcd13ifvqi2g","pricing_plan_id":"cebpf4jnsgd1na2vs0mg"},{"bike_id":"70e5b39f-29e3-4ea9-aa83-5a60a8eec6f8","system_id":"levelo_inurba_marseille","lat":43.25067,"lon":5.41693,"is_reserved":false,"is_disabled":false,"rental_uris":{"android":"levelo://app?vid=70e5b39f-29e3-4ea9-aa83-5a60a8eec6f8","ios":"levelo://app?vid=70e5b39f-29e3-4ea9-aa83-5a60a8eec6f8"},"vehicle_type_id":"4","last_reported":1743631756,"current_range_meters":12800,"station_id":"","pricing_plan_id":"cebpf4jnsgd1na2vs0mg"},{"bike_id":"2b7563bf-72ce-4546-bdfe-0681f54925e9","system_id":"levelo_inurba_marseille","lat":43.29262,"lon":5.38421,"is_reserved":false,"is_disabled":true,"rental_uris":{"android":"levelo://app?vid=2b7563bf-72ce-4546-bdfe-0681f54925e9","ios":"levelo://app?vid=2b7563bf-72ce-4546-bdfe-0681f54925e9"},"vehicle_type_id":"4","last_reported":1743631756,"current_range_meters":13600,"station_id":"ce4bh692rcd13ifvqea0","pricing_plan_id":"cebpf4jnsgd1na2vs0mg"},{"bike_id":"65176d7e-a215-4479-a736-b11f75a62786","system_id":"levelo_inurba_marseille","lat":43.28454,"lon":5.35892,"is_reserved":false,"is_disabled":false,"rental_uris":{"android":"levelo://app?vid=65176d7e-a215-4479-a736-b11f75a62786","ios":"levelo://app?vid=65176d7e-a215-4479-a736-b11f75a62786"},"vehicle_type_id":"4","last_reported":1743631756,"current_range_meters":13600,"station_id":"ce4bhah2rcd13ifvqei0","pricing_plan_id":"cebpf4jnsgd1na2vs0mg"},{"bike_id":"2635283e-ffd4-4c1f-b9e8-1b146ac4c8cc","system_id":"levelo_inurba_marseille","lat":43.30208,"lon":5.41917,"is_reserved":false,"is_disabled":false,"rental_uris":{"android":"levelo://app?vid=2635283e-ffd4-4c1f-b9e8-1b146ac4c8cc","ios":"levelo://app?vid=2635283e-ffd4-4c1f-b9e8-1b146ac4c8cc"},"vehicle_type_id":"4","last_reported":1743631756,"current_range_meters":13600,"station_id":"","pricing_plan_id":"cebpf4jnsgd1na2vs0mg"},{"bike_id":"9d0457ef-48ad-4186-a488-7c51d10d0f62","system_id":"levelo_inurba_marseille","lat":43.31759,"lon":5.39016,"is_reserved":false,"is_disabled":false,"rental_uris":{"android":"levelo://app?vid=9d0457ef-48ad-4186-a488-7c51d10d0f62","ios":"levelo://app?vid=9d0457ef-48ad-4186-a488-7c51d10d0f62"},"vehicle_type_id":"4","last_reported":1743631756,"current_range_meters":13600,"station_id":"ce4bhqp2rcd13ifvqhng","pricing_plan_id":"cebpf4jnsgd1na2vs0mg"},{"bike_id":"43705df6-dad5-49b0-ba8b-f4f32b11172b","system_id":"levelo_inurba_marseille","lat":43.28699,"lon":5.37943,"is_reserved":false,"is_disabled":false,"rental_uris":{"android":"levelo://app?vid=43705df6-dad5-49b0-ba8b-f4f32b11172b","ios":"levelo://app?vid=43705df6-dad5-49b0-ba8b-f4f32b11172b"},"vehicle_type_id":"4","last_reported":1743631756,"current_range_meters":13600,"station_id":"ce4bh9p2rcd13ifvqec0","pricing_plan_id":"cebpf4jnsgd1na2vs0mg"},{"bike_id":"a8fc5e7b-59f1-425a-aa68-0e461a60dbc2","system_id":"levelo_inurba_marseille","lat":43.31076,"lon":5.38338,"is_reserved":false,"is_disabled":false,"rental_uris":{"android":"levelo://app?vid=a8fc5e7b-59f1-425a-aa68-0e461a60dbc2","ios":"levelo://app?vid=a8fc5e7b-59f1-425a-aa68-0e461a60dbc2"},"vehicle_type_id":"4","last_reported":1743631756,"current_range_meters":14000,"station_id":"ce4bgv92rcd13ifvqcr0","pricing_plan_id":"cebpf4jnsgd1na2vs0mg"},{"bike_id":"a014b36e-40fa-4c58-8432-84aa89c3694d","system_id":"levelo_inurba_marseille","lat":43.29215,"lon":5.39303,"is_reserved":false,"is_disabled":false,"rental_uris":{"android":"levelo://app?vid=a014b36e-40fa-4c58-8432-84aa89c3694d","ios":"levelo://app?vid=a014b36e-40fa-4c58-8432-84aa89c3694d"},"vehicle_type_id":"4","last_reported":1743631756,"current_range_meters":14000,"station_id":"ce4bh192rcd13ifvqdd0","pricing_plan_id":"cebpf4jnsgd1na2vs0mg"},{"bike_id":"1934dfbe-48e2-4e46-b626-7044b2520b84","system_id":"levelo_inurba_marseille","lat":43.30937,"lon":5.40142,"is_reserved":false,"is_disabled":false,"rental_uris":{"android":"levelo://app?vid=1934dfbe-48e2-4e46-b626-7044b2520b84","ios":"levelo://app?vid=1934dfbe-48e2-4e46-b626-7044b2520b84"},"vehicle_type_id":"4","last_reported":1743631756,"current_range_meters":14000,"station_id":"ce4bgvp2rcd13ifvqct0","pricing_plan_id":"cebpf4jnsgd1na2vs0mg"},{"bike_id":"c2814ac1-bbda-4565-afe5-c29611abff83","system_id":"levelo_inurba_marseille","lat":43.27812,"lon":5.40695,"is_reserved":false,"is_disabled":false,"rental_uris":{"android":"levelo://app?vid=c2814ac1-bbda-4565-afe5-c29611abff83","ios":"levelo://app?vid=c2814ac1-bbda-4565-afe5-c29611abff83"},"vehicle_type_id":"4","last_reported":1743631756,"current_range_meters":14000,"station_id":"ce4bhnh2rcd13ifvqgtg","pricing_plan_id":"cebpf4jnsgd1na2vs0mg"},{"bike_id":"e6f02e74-383c-4bae-b8c4-037430863270","system_id":"levelo_inurba_marseille","lat":43.23074,"lon":5.35491,"is_reserved":false,"is_disabled":false,"rental_uris":{"android":"levelo://app?vid=e6f02e74-383c-4bae-b8c4-037430863270","ios":"levelo://app?vid=e6f02e74-383c-4bae-b8c4-037430863270"},"vehicle_type_id":"4","last_reported":1743631756,"current_range_meters":14000,"station_id":"cpo3342slgdg3j2ifvpg","pricing_plan_id":"cebpf4jnsgd1na2vs0mg"},{"bike_id":"bb745ff7-e372-47cd-8e7a-5658e3435a0c","system_id":"levelo_inurba_marseille","lat":43.30261,"lon":5.400794,"is_reserved":false,"is_disabled":false,"rental_uris":{"android":"levelo://app?vid=bb745ff7-e372-47cd-8e7a-5658e3435a0c","ios":"levelo://app?vid=bb745ff7-e372-47cd-8e7a-5658e3435a0c"},"vehicle_type_id":"4","last_reported":1743631756,"current_range_meters":14000,"station_id":"","pricing_plan_id":"cebpf4jnsgd1na2vs0mg"},{"bike_id":"c1c63035-c83b-4419-8cbf-133778d95125","system_id":"levelo_inurba_marseille","lat":43.29777,"lon":5.39366,"is_reserved":false,"is_disabled":true,"rental_uris":{"android":"levelo://app?vid=c1c63035-c83b-4419-8cbf-133778d95125","ios":"levelo://app?vid=c1c63035-c83b-4419-8cbf-133778d95125"},"vehicle_type_id":"4","last_reported":1743631756,"current_range_meters":14000,"station_id":"chh1huq6cuj3fo74tm60","pricing_plan_id":"cebpf4jnsgd1na2vs0mg"},{"bike_id":"766c13bb-fbfd-4f91-ab06-106078444f50","system_id":"levelo_inurba_marseille","lat":43.30929,"lon":5.40136,"is_reserved":false,"is_disabled":false,"rental_uris":{"android":"levelo://app?vid=766c13bb-fbfd-4f91-ab06-106078444f50","ios":"levelo://app?vid=766c13bb-fbfd-4f91-ab06-106078444f50"},"vehicle_type_id":"4","last_reported":1743631756,"current_range_meters":14000,"station_id":"ce4bgvp2rcd13ifvqct0","pricing_plan_id":"cebpf4jnsgd1na2vs0mg"},{"bike_id":"ecb7b3ba-0fa1-4395-a641-b28b0c48f68c","system_id":"levelo_inurba_marseille","lat":43.2922,"lon":5.36071,"is_reserved":false,"is_disabled":false,"rental_uris":{"android":"levelo://app?vid=ecb7b3ba-0fa1-4395-a641-b28b0c48f68c","ios":"levelo://app?vid=ecb7b3ba-0fa1-4395-a641-b28b0c48f68c"},"vehicle_type_id":"4","last_reported":1743631756,"current_range_meters":14400,"station_id":"ce4bhbh2rcd13ifvqeqg","pricing_plan_id":"cebpf4jnsgd1na2vs0mg"},{"bike_id":"587dc5b4-f90b-49dd-b26a-e779672e1733","system_id":"levelo_inurba_marseille","lat":43.28415,"lon":5.39209,"is_reserved":false,"is_disabled":false,"rental_uris":{"android":"levelo://app?vid=587dc5b4-f90b-49dd-b26a-e779672e1733","ios":"levelo://app?vid=587dc5b4-f90b-49dd-b26a-e779672e1733"},"vehicle_type_id":"4","last_reported":1743631756,"current_range_meters":14000,"station_id":"ce4bhoh2rcd13ifvqh5g","pricing_plan_id":"cebpf4jnsgd1na2vs0mg"},{"bike_id":"97c0eecc-8787-4395-b6d9-f622fd6dd4ee","system_id":"levelo_inurba_marseille","lat":43.26141,"lon":5.40883,"is_reserved":false,"is_disabled":true,"rental_uris":{"android":"levelo://app?vid=97c0eecc-8787-4395-b6d9-f622fd6dd4ee","ios":"levelo://app?vid=97c0eecc-8787-4395-b6d9-f622fd6dd4ee"},"vehicle_type_id":"4","last_reported":1743631756,"current_range_meters":14400,"station_id":"","pricing_plan_id":"cebpf4jnsgd1na2vs0mg"},{"bike_id":"e3a29d38-a611-4b12-87ef-2fb8a21c41d5","system_id":"levelo_inurba_marseille","lat":43.22917,"lon":5.35375,"is_reserved":false,"is_disabled":false,"rental_uris":{"android":"levelo://app?vid=e3a29d38-a611-4b12-87ef-2fb8a21c41d5","ios":"levelo://app?vid=e3a29d38-a611-4b12-87ef-2fb8a21c41d5"},"vehicle_type_id":"4","last_reported":1743631756,"current_range_meters":14400,"station_id":"cpo3532slgdg3j2ikp40","pricing_plan_id":"cebpf4jnsgd1na2vs0mg"},{"bike_id":"78ca934a-98c9-4dbc-b5b6-c2ca906050d2","system_id":"levelo_inurba_marseille","lat":43.29737,"lon":5.38948,"is_reserved":false,"is_disabled":false,"rental_uris":{"android":"levelo://app?vid=78ca934a-98c9-4dbc-b5b6-c2ca906050d2","ios":"levelo://app?vid=78ca934a-98c9-4dbc-b5b6-c2ca906050d2"},"vehicle_type_id":"4","last_reported":1743631756,"current_range_meters":14400,"station_id":"","pricing_plan_id":"cebpf4jnsgd1na2vs0mg"},{"bike_id":"b61a33fe-6372-4bd4-9589-3bc407f2f2e1","system_id":"levelo_inurba_marseille","lat":43.29301,"lon":5.37436,"is_reserved":false,"is_disabled":true,"rental_uris":{"android":"levelo://app?vid=b61a33fe-6372-4bd4-9589-3bc407f2f2e1","ios":"levelo://app?vid=b61a33fe-6372-4bd4-9589-3bc407f2f2e1"},"vehicle_type_id":"4","last_reported":1743631756,"current_range_meters":14400,"station_id":"ce4bgi12rcd13ifvqb70","pricing_plan_id":"cebpf4jnsgd1na2vs0mg"},{"bike_id":"8a6bad32-61e7-4581-ac52-d4ad6e03dcb1","system_id":"levelo_inurba_marseille","lat":43.3061,"lon":5.39336,"is_reserved":false,"is_disabled":false,"rental_uris":{"android":"levelo://app?vid=8a6bad32-61e7-4581-ac52-d4ad6e03dcb1","ios":"levelo://app?vid=8a6bad32-61e7-4581-ac52-d4ad6e03dcb1"},"vehicle_type_id":"4","last_reported":1743631756,"current_range_meters":14800,"station_id":"ce4bh0p2rcd13ifvqd80","pricing_plan_id":"cebpf4jnsgd1na2vs0mg"},{"bike_id":"95019719-c74f-41a1-a986-f0fc3550d793","system_id":"levelo_inurba_marseille","lat":43.25084,"lon":5.39092,"is_reserved":false,"is_disabled":false,"rental_uris":{"android":"levelo://app?vid=95019719-c74f-41a1-a986-f0fc3550d793","ios":"levelo://app?vid=95019719-c74f-41a1-a986-f0fc3550d793"},"vehicle_type_id":"4","last_reported":1743631756,"current_range_meters":14800,"station_id":"","pricing_plan_id":"cebpf4jnsgd1na2vs0mg"},{"bike_id":"6bc493cc-6c90-4fc5-8b31-addf01b41bde","system_id":"levelo_inurba_marseille","lat":43.284338,"lon":5.391929,"is_reserved":false,"is_disabled":false,"rental_uris":{"android":"levelo://app?vid=6bc493cc-6c90-4fc5-8b31-addf01b41bde","ios":"levelo://app?vid=6bc493cc-6c90-4fc5-8b31-addf01b41bde"},"vehicle_type_id":"4","last_reported":1743631756,"current_range_meters":14800,"station_id":"ce4bhoh2rcd13ifvqh5g","pricing_plan_id":"cebpf4jnsgd1na2vs0mg"},{"bike_id":"7f961190-5cbc-4ecb-a9f8-5a6f9252eca2","system_id":"levelo_inurba_marseille","lat":43.29519,"lon":5.38558,"is_reserved":false,"is_disabled":false,"rental_uris":{"android":"levelo://app?vid=7f961190-5cbc-4ecb-a9f8-5a6f9252eca2","ios":"levelo://app?vid=7f961190-5cbc-4ecb-a9f8-5a6f9252eca2"},"vehicle_type_id":"4","last_reported":1743631756,"current_range_meters":14800,"station_id":"ce4bgih2rcd13ifvqba0","pricing_plan_id":"cebpf4jnsgd1na2vs0mg"},{"bike_id":"a648e5b1-1d57-4af3-a248-56f63e8381a9","system_id":"levelo_inurba_marseille","lat":43.30891,"lon":5.3964,"is_reserved":false,"is_disabled":false,"rental_uris":{"android":"levelo://app?vid=a648e5b1-1d57-4af3-a248-56f63e8381a9","ios":"levelo://app?vid=a648e5b1-1d57-4af3-a248-56f63e8381a9"},"vehicle_type_id":"4","last_reported":1743631756,"current_range_meters":14800,"station_id":"ce4bh012rcd13ifvqcv0","pricing_plan_id":"cebpf4jnsgd1na2vs0mg"},{"bike_id":"8bacb1e2-9303-4232-bbfb-d7586b7ade4d","system_id":"levelo_inurba_marseille","lat":43.30258,"lon":5.40083,"is_reserved":false,"is_disabled":false,"rental_uris":{"android":"levelo://app?vid=8bacb1e2-9303-4232-bbfb-d7586b7ade4d","ios":"levelo://app?vid=8bacb1e2-9303-4232-bbfb-d7586b7ade4d"},"vehicle_type_id":"4","last_reported":1743631756,"current_range_meters":14800,"station_id":"ce4bgvh2rcd13ifvqcs0","pricing_plan_id":"cebpf4jnsgd1na2vs0mg"},{"bike_id":"02759f5c-bea4-4728-b180-347da1c9de69","system_id":"levelo_inurba_marseille","lat":43.24683,"lon":5.38159,"is_reserved":false,"is_disabled":false,"rental_uris":{"android":"levelo://app?vid=02759f5c-bea4-4728-b180-347da1c9de69","ios":"levelo://app?vid=02759f5c-bea4-4728-b180-347da1c9de69"},"vehicle_type_id":"4","last_reported":1743631756,"current_range_meters":14800,"station_id":"ce4bhih2rcd13ifvqfr0","pricing_plan_id":"cebpf4jnsgd1na2vs0mg"},{"bike_id":"48f77b87-1f93-47ae-89de-38c2bac58866","system_id":"levelo_inurba_marseille","lat":43.30598,"lon":5.37239,"is_reserved":false,"is_disabled":false,"rental_uris":{"android":"levelo://app?vid=48f77b87-1f93-47ae-89de-38c2bac58866","ios":"levelo://app?vid=48f77b87-1f93-47ae-89de-38c2bac58866"},"vehicle_type_id":"4","last_reported":1743631756,"current_range_meters":14800,"station_id":"ce4bgqh2rcd13ifvqc4g","pricing_plan_id":"cebpf4jnsgd1na2vs0mg"},{"bike_id":"efddeda7-6eb2-4c14-868d-fa0ce0b35ef3","system_id":"levelo_inurba_marseille","lat":43.31306,"lon":5.38294,"is_reserved":false,"is_disabled":false,"rental_uris":{"android":"levelo://app?vid=efddeda7-6eb2-4c14-868d-fa0ce0b35ef3","ios":"levelo://app?vid=efddeda7-6eb2-4c14-868d-fa0ce0b35ef3"},"vehicle_type_id":"4","last_reported":1743631756,"current_range_meters":14800,"station_id":"","pricing_plan_id":"cebpf4jnsgd1na2vs0mg"},{"bike_id":"22bcfedc-fd1a-42ef-b4ce-f8cb0c81bc99","system_id":"levelo_inurba_marseille","lat":43.3014,"lon":5.38783,"is_reserved":false,"is_disabled":true,"rental_uris":{"android":"levelo://app?vid=22bcfedc-fd1a-42ef-b4ce-f8cb0c81bc99","ios":"levelo://app?vid=22bcfedc-fd1a-42ef-b4ce-f8cb0c81bc99"},"vehicle_type_id":"4","last_reported":1743631756,"current_range_meters":14800,"station_id":"ce4bghh2rcd13ifvqb60","pricing_plan_id":"cebpf4jnsgd1na2vs0mg"},{"bike_id":"111c2e2a-a599-4d28-8e54-5f08a37d6437","system_id":"levelo_inurba_marseille","lat":43.292015,"lon":5.39324,"is_reserved":false,"is_disabled":false,"rental_uris":{"android":"levelo://app?vid=111c2e2a-a599-4d28-8e54-5f08a37d6437","ios":"levelo://app?vid=111c2e2a-a599-4d28-8e54-5f08a37d6437"},"vehicle_type_id":"4","last_reported":1743631756,"current_range_meters":15200,"station_id":"ce4bh192rcd13ifvqdd0","pricing_plan_id":"cebpf4jnsgd1na2vs0mg"},{"bike_id":"7d1bfb2c-2a30-4324-867a-23a71218ecb7","system_id":"levelo_inurba_marseille","lat":43.28985,"lon":5.4004,"is_reserved":false,"is_disabled":false,"rental_uris":{"android":"levelo://app?vid=7d1bfb2c-2a30-4324-867a-23a71218ecb7","ios":"levelo://app?vid=7d1bfb2c-2a30-4324-867a-23a71218ecb7"},"vehicle_type_id":"4","last_reported":1743631756,"current_range_meters":14800,"station_id":"ce4bh392rcd13ifvqdm0","pricing_plan_id":"cebpf4jnsgd1na2vs0mg"},{"bike_id":"3dbc3d46-7777-4ee1-abe2-41ae010c9497","system_id":"levelo_inurba_marseille","lat":43.2952,"lon":5.3903,"is_reserved":false,"is_disabled":true,"rental_uris":{"android":"levelo://app?vid=3dbc3d46-7777-4ee1-abe2-41ae010c9497","ios":"levelo://app?vid=3dbc3d46-7777-4ee1-abe2-41ae010c9497"},"vehicle_type_id":"4","last_reported":1743631756,"current_range_meters":15200,"station_id":"ce4bh3p2rcd13ifvqdp0","pricing_plan_id":"cebpf4jnsgd1na2vs0mg"},{"bike_id":"bd3790b2-de01-409f-986d-d88a8a90008e","system_id":"levelo_inurba_marseille","lat":43.28454,"lon":5.35898,"is_reserved":false,"is_disabled":false,"rental_uris":{"android":"levelo://app?vid=bd3790b2-de01-409f-986d-d88a8a90008e","ios":"levelo://app?vid=bd3790b2-de01-409f-986d-d88a8a90008e"},"vehicle_type_id":"4","last_reported":1743631756,"current_range_meters":15200,"station_id":"ce4bhah2rcd13ifvqei0","pricing_plan_id":"cebpf4jnsgd1na2vs0mg"},{"bike_id":"1bd4c5e9-3479-4a34-bfb9-e556a3bbe8ed","system_id":"levelo_inurba_marseille","lat":43.230627,"lon":5.354899,"is_reserved":false,"is_disabled":false,"rental_uris":{"android":"levelo://app?vid=1bd4c5e9-3479-4a34-bfb9-e556a3bbe8ed","ios":"levelo://app?vid=1bd4c5e9-3479-4a34-bfb9-e556a3bbe8ed"},"vehicle_type_id":"4","last_reported":1743631756,"current_range_meters":15200,"station_id":"cpo3342slgdg3j2ifvpg","pricing_plan_id":"cebpf4jnsgd1na2vs0mg"},{"bike_id":"2060fbf6-627d-40f3-8117-ee6ba0767fd2","system_id":"levelo_inurba_marseille","lat":43.25122,"lon":5.40319,"is_reserved":false,"is_disabled":false,"rental_uris":{"android":"levelo://app?vid=2060fbf6-627d-40f3-8117-ee6ba0767fd2","ios":"levelo://app?vid=2060fbf6-627d-40f3-8117-ee6ba0767fd2"},"vehicle_type_id":"4","last_reported":1743631756,"current_range_meters":16000,"station_id":"ce4bhlh2rcd13ifvqgig","pricing_plan_id":"cebpf4jnsgd1na2vs0mg"},{"bike_id":"005283db-9aca-49eb-ae41-cbf0dc140b6c","system_id":"levelo_inurba_marseille","lat":43.30131,"lon":5.37274,"is_reserved":false,"is_disabled":false,"rental_uris":{"android":"levelo://app?vid=005283db-9aca-49eb-ae41-cbf0dc140b6c","ios":"levelo://app?vid=005283db-9aca-49eb-ae41-cbf0dc140b6c"},"vehicle_type_id":"4","last_reported":1743631756,"current_range_meters":16000,"station_id":"","pricing_plan_id":"cebpf4jnsgd1na2vs0mg"},{"bike_id":"2be94212-600c-4c4f-ba3b-fe750ec2d558","system_id":"levelo_inurba_marseille","lat":43.2813,"lon":5.37817,"is_reserved":false,"is_disabled":false,"rental_uris":{"android":"levelo://app?vid=2be94212-600c-4c4f-ba3b-fe750ec2d558","ios":"levelo://app?vid=2be94212-600c-4c4f-ba3b-fe750ec2d558"},"vehicle_type_id":"4","last_reported":1743631756,"current_range_meters":16000,"station_id":"ce4bha12rcd13ifvqee0","pricing_plan_id":"cebpf4jnsgd1na2vs0mg"},{"bike_id":"ac34fccd-2717-4101-8ba4-5acf05623170","system_id":"levelo_inurba_marseille","lat":43.32361,"lon":5.38889,"is_reserved":false,"is_disabled":false,"rental_uris":{"android":"levelo://app?vid=ac34fccd-2717-4101-8ba4-5acf05623170","ios":"levelo://app?vid=ac34fccd-2717-4101-8ba4-5acf05623170"},"vehicle_type_id":"4","last_reported":1743631756,"current_range_meters":16000,"station_id":"ce4bhqp2rcd13ifvqhog","pricing_plan_id":"cebpf4jnsgd1na2vs0mg"},{"bike_id":"c010083c-3d37-442b-bb01-af5ace56ca85","system_id":"levelo_inurba_marseille","lat":43.2882,"lon":5.35899,"is_reserved":false,"is_disabled":false,"rental_uris":{"android":"levelo://app?vid=c010083c-3d37-442b-bb01-af5ace56ca85","ios":"levelo://app?vid=c010083c-3d37-442b-bb01-af5ace56ca85"},"vehicle_type_id":"4","last_reported":1743631756,"current_range_meters":16000,"station_id":"ce4bhb12rcd13ifvqem0","pricing_plan_id":"cebpf4jnsgd1na2vs0mg"},{"bike_id":"a095eb29-6920-4d45-980a-143c25be8e8c","system_id":"levelo_inurba_marseille","lat":43.28108,"lon":5.3783,"is_reserved":false,"is_disabled":false,"rental_uris":{"android":"levelo://app?vid=a095eb29-6920-4d45-980a-143c25be8e8c","ios":"levelo://app?vid=a095eb29-6920-4d45-980a-143c25be8e8c"},"vehicle_type_id":"4","last_reported":1743631756,"current_range_meters":16000,"station_id":"ce4bha12rcd13ifvqee0","pricing_plan_id":"cebpf4jnsgd1na2vs0mg"},{"bike_id":"9f155b00-2d09-42a5-95f2-889c2287feef","system_id":"levelo_inurba_marseille","lat":43.28458,"lon":5.35882,"is_reserved":false,"is_disabled":false,"rental_uris":{"android":"levelo://app?vid=9f155b00-2d09-42a5-95f2-889c2287feef","ios":"levelo://app?vid=9f155b00-2d09-42a5-95f2-889c2287feef"},"vehicle_type_id":"4","last_reported":1743631756,"current_range_meters":16000,"station_id":"ce4bhah2rcd13ifvqei0","pricing_plan_id":"cebpf4jnsgd1na2vs0mg"},{"bike_id":"440db1a6-b3eb-4e79-9b32-5148980bdc31","system_id":"levelo_inurba_marseille","lat":43.28842,"lon":5.39343,"is_reserved":false,"is_disabled":false,"rental_uris":{"android":"levelo://app?vid=440db1a6-b3eb-4e79-9b32-5148980bdc31","ios":"levelo://app?vid=440db1a6-b3eb-4e79-9b32-5148980bdc31"},"vehicle_type_id":"4","last_reported":1743631756,"current_range_meters":16000,"station_id":"ce4bh2p2rcd13ifvqdi0","pricing_plan_id":"cebpf4jnsgd1na2vs0mg"},{"bike_id":"fdca0975-7551-47f9-9a40-e9f492efe588","system_id":"levelo_inurba_marseille","lat":43.28086,"lon":5.39652,"is_reserved":false,"is_disabled":false,"rental_uris":{"android":"levelo://app?vid=fdca0975-7551-47f9-9a40-e9f492efe588","ios":"levelo://app?vid=fdca0975-7551-47f9-9a40-e9f492efe588"},"vehicle_type_id":"4","last_reported":1743631756,"current_range_meters":16400,"station_id":"ce4bho12rcd13ifvqh2g","pricing_plan_id":"cebpf4jnsgd1na2vs0mg"},{"bike_id":"5569452f-e01d-4993-a384-ab1768b351d6","system_id":"levelo_inurba_marseille","lat":43.29422,"lon":5.3864,"is_reserved":false,"is_disabled":false,"rental_uris":{"android":"levelo://app?vid=5569452f-e01d-4993-a384-ab1768b351d6","ios":"levelo://app?vid=5569452f-e01d-4993-a384-ab1768b351d6"},"vehicle_type_id":"4","last_reported":1743631756,"current_range_meters":16400,"station_id":"ce4bh2h2rcd13ifvqdh0","pricing_plan_id":"cebpf4jnsgd1na2vs0mg"},{"bike_id":"cbadd818-61ef-4ba0-9294-9bb1e96d777f","system_id":"levelo_inurba_marseille","lat":43.28416,"lon":5.37508,"is_reserved":false,"is_disabled":false,"rental_uris":{"android":"levelo://app?vid=cbadd818-61ef-4ba0-9294-9bb1e96d777f","ios":"levelo://app?vid=cbadd818-61ef-4ba0-9294-9bb1e96d777f"},"vehicle_type_id":"4","last_reported":1743631756,"current_range_meters":16400,"station_id":"ce4bh412rcd13ifvqds0","pricing_plan_id":"cebpf4jnsgd1na2vs0mg"},{"bike_id":"d6120376-5471-42d2-a9ec-bd8ea7325d01","system_id":"levelo_inurba_marseille","lat":43.28566,"lon":5.39499,"is_reserved":false,"is_disabled":false,"rental_uris":{"android":"levelo://app?vid=d6120376-5471-42d2-a9ec-bd8ea7325d01","ios":"levelo://app?vid=d6120376-5471-42d2-a9ec-bd8ea7325d01"},"vehicle_type_id":"4","last_reported":1743631756,"current_range_meters":16400,"station_id":"ce4bh292rcd13ifvqdg0","pricing_plan_id":"cebpf4jnsgd1na2vs0mg"},{"bike_id":"8e2424bb-8c50-4583-b41b-a7e00143b6c2","system_id":"levelo_inurba_marseille","lat":43.24077,"lon":5.37741,"is_reserved":false,"is_disabled":false,"rental_uris":{"android":"levelo://app?vid=8e2424bb-8c50-4583-b41b-a7e00143b6c2","ios":"levelo://app?vid=8e2424bb-8c50-4583-b41b-a7e00143b6c2"},"vehicle_type_id":"4","last_reported":1743631756,"current_range_meters":16400,"station_id":"ce4bhnp2rcd13ifvqgvg","pricing_plan_id":"cebpf4jnsgd1na2vs0mg"},{"bike_id":"a22aae82-c352-4beb-8862-be98f37113c7","system_id":"levelo_inurba_marseille","lat":43.29279,"lon":5.40116,"is_reserved":false,"is_disabled":false,"rental_uris":{"android":"levelo://app?vid=a22aae82-c352-4beb-8862-be98f37113c7","ios":"levelo://app?vid=a22aae82-c352-4beb-8862-be98f37113c7"},"vehicle_type_id":"4","last_reported":1743631756,"current_range_meters":16400,"station_id":"ce4bh312rcd13ifvqdk0","pricing_plan_id":"cebpf4jnsgd1na2vs0mg"},{"bike_id":"aa7a418b-6fa7-4109-8d0f-efc0be0bcd1e","system_id":"levelo_inurba_marseille","lat":43.28945,"lon":5.3664,"is_reserved":false,"is_disabled":false,"rental_uris":{"android":"levelo://app?vid=aa7a418b-6fa7-4109-8d0f-efc0be0bcd1e","ios":"levelo://app?vid=aa7a418b-6fa7-4109-8d0f-efc0be0bcd1e"},"vehicle_type_id":"4","last_reported":1743631756,"current_range_meters":16400,"station_id":"ce4bhap2rcd13ifvqek0","pricing_plan_id":"cebpf4jnsgd1na2vs0mg"},{"bike_id":"63139285-137c-4e8d-8e95-6c2a275f8333","system_id":"levelo_inurba_marseille","lat":43.32097,"lon":5.36806,"is_reserved":false,"is_disabled":false,"rental_uris":{"android":"levelo://app?vid=63139285-137c-4e8d-8e95-6c2a275f8333","ios":"levelo://app?vid=63139285-137c-4e8d-8e95-6c2a275f8333"},"vehicle_type_id":"4","last_reported":1743631756,"current_range_meters":16400,"station_id":"ce4bhrh2rcd13ifvqhug","pricing_plan_id":"cebpf4jnsgd1na2vs0mg"},{"bike_id":"704d09f1-37d1-4c7c-b83b-d9079afff1ad","system_id":"levelo_inurba_marseille","lat":43.2863,"lon":5.3637,"is_reserved":false,"is_disabled":true,"rental_uris":{"android":"levelo://app?vid=704d09f1-37d1-4c7c-b83b-d9079afff1ad","ios":"levelo://app?vid=704d09f1-37d1-4c7c-b83b-d9079afff1ad"},"vehicle_type_id":"4","last_reported":1743631756,"current_range_meters":16400,"station_id":"ce4bhah2rcd13ifvqej0","pricing_plan_id":"cebpf4jnsgd1na2vs0mg"},{"bike_id":"3f6039ee-705a-4b8d-bd88-8b9593591f8d","system_id":"levelo_inurba_marseille","lat":43.28936,"lon":5.36625,"is_reserved":false,"is_disabled":false,"rental_uris":{"android":"levelo://app?vid=3f6039ee-705a-4b8d-bd88-8b9593591f8d","ios":"levelo://app?vid=3f6039ee-705a-4b8d-bd88-8b9593591f8d"},"vehicle_type_id":"4","last_reported":1743631756,"current_range_meters":16400,"station_id":"ce4bhap2rcd13ifvqek0","pricing_plan_id":"cebpf4jnsgd1na2vs0mg"},{"bike_id":"f1e5f20d-e5bb-4349-9a72-f7ab8a004414","system_id":"levelo_inurba_marseille","lat":43.30315,"lon":5.40454,"is_reserved":false,"is_disabled":true,"rental_uris":{"android":"levelo://app?vid=f1e5f20d-e5bb-4349-9a72-f7ab8a004414","ios":"levelo://app?vid=f1e5f20d-e5bb-4349-9a72-f7ab8a004414"},"vehicle_type_id":"4","last_reported":1743631756,"current_range_meters":16400,"station_id":"ce4bh012rcd13ifvqd10","pricing_plan_id":"cebpf4jnsgd1na2vs0mg"},{"bike_id":"4dc2e017-2338-4c8e-8c49-115d78626747","system_id":"levelo_inurba_marseille","lat":43.307382,"lon":5.424345,"is_reserved":false,"is_disabled":false,"rental_uris":{"android":"levelo://app?vid=4dc2e017-2338-4c8e-8c49-115d78626747","ios":"levelo://app?vid=4dc2e017-2338-4c8e-8c49-115d78626747"},"vehicle_type_id":"4","last_reported":1743631756,"current_range_meters":16400,"station_id":"st_cvj6ca6bvosntc0bfgr0","pricing_plan_id":"cebpf4jnsgd1na2vs0mg"},{"bike_id":"2c1b962c-5437-417f-a06d-d90e67a40b65","system_id":"levelo_inurba_marseille","lat":43.3127,"lon":5.40176,"is_reserved":false,"is_disabled":false,"rental_uris":{"android":"levelo://app?vid=2c1b962c-5437-417f-a06d-d90e67a40b65","ios":"levelo://app?vid=2c1b962c-5437-417f-a06d-d90e67a40b65"},"vehicle_type_id":"4","last_reported":1743631756,"current_range_meters":16400,"station_id":"ce4bh092rcd13ifvqd30","pricing_plan_id":"cebpf4jnsgd1na2vs0mg"},{"bike_id":"c89a2250-663c-4df1-b70a-e96153cd67e6","system_id":"levelo_inurba_marseille","lat":43.28822,"lon":5.35884,"is_reserved":false,"is_disabled":false,"rental_uris":{"android":"levelo://app?vid=c89a2250-663c-4df1-b70a-e96153cd67e6","ios":"levelo://app?vid=c89a2250-663c-4df1-b70a-e96153cd67e6"},"vehicle_type_id":"4","last_reported":1743631756,"current_range_meters":16400,"station_id":"ce4bhb12rcd13ifvqem0","pricing_plan_id":"cebpf4jnsgd1na2vs0mg"},{"bike_id":"f88cdea8-f6f7-42dd-8067-42c3c697a2c7","system_id":"levelo_inurba_marseille","lat":43.28341,"lon":5.43119,"is_reserved":false,"is_disabled":false,"rental_uris":{"android":"levelo://app?vid=f88cdea8-f6f7-42dd-8067-42c3c697a2c7","ios":"levelo://app?vid=f88cdea8-f6f7-42dd-8067-42c3c697a2c7"},"vehicle_type_id":"4","last_reported":1743631756,"current_range_meters":16800,"station_id":"","pricing_plan_id":"cebpf4jnsgd1na2vs0mg"},{"bike_id":"4c5af6eb-9f3a-429a-a9a5-908f23088311","system_id":"levelo_inurba_marseille","lat":43.27369,"lon":5.36256,"is_reserved":false,"is_disabled":false,"rental_uris":{"android":"levelo://app?vid=4c5af6eb-9f3a-429a-a9a5-908f23088311","ios":"levelo://app?vid=4c5af6eb-9f3a-429a-a9a5-908f23088311"},"vehicle_type_id":"4","last_reported":1743631756,"current_range_meters":16800,"station_id":"ce4bhbh2rcd13ifvqeo0","pricing_plan_id":"cebpf4jnsgd1na2vs0mg"},{"bike_id":"15022e62-c525-4818-a522-6f3f1c518ca7","system_id":"levelo_inurba_marseille","lat":43.27962,"lon":5.38726,"is_reserved":false,"is_disabled":false,"rental_uris":{"android":"levelo://app?vid=15022e62-c525-4818-a522-6f3f1c518ca7","ios":"levelo://app?vid=15022e62-c525-4818-a522-6f3f1c518ca7"},"vehicle_type_id":"4","last_reported":1743631756,"current_range_meters":16800,"station_id":"ce4bhg12rcd13ifvqf80","pricing_plan_id":"cebpf4jnsgd1na2vs0mg"},{"bike_id":"a6303451-5b45-435c-bf0e-748f94cc010d","system_id":"levelo_inurba_marseille","lat":43.23205,"lon":5.35545,"is_reserved":false,"is_disabled":false,"rental_uris":{"android":"levelo://app?vid=a6303451-5b45-435c-bf0e-748f94cc010d","ios":"levelo://app?vid=a6303451-5b45-435c-bf0e-748f94cc010d"},"vehicle_type_id":"4","last_reported":1743631756,"current_range_meters":16800,"station_id":"ce4bhu92rcd13ifvqi70","pricing_plan_id":"cebpf4jnsgd1na2vs0mg"},{"bike_id":"3715be15-8bf7-4e4e-9f23-8441fced00d1","system_id":"levelo_inurba_marseille","lat":43.30891,"lon":5.39645,"is_reserved":false,"is_disabled":false,"rental_uris":{"android":"levelo://app?vid=3715be15-8bf7-4e4e-9f23-8441fced00d1","ios":"levelo://app?vid=3715be15-8bf7-4e4e-9f23-8441fced00d1"},"vehicle_type_id":"4","last_reported":1743631756,"current_range_meters":16800,"station_id":"ce4bh012rcd13ifvqcv0","pricing_plan_id":"cebpf4jnsgd1na2vs0mg"},{"bike_id":"575cc4c9-8511-4037-9ea6-8c165089755d","system_id":"levelo_inurba_marseille","lat":43.246523,"lon":5.388934,"is_reserved":false,"is_disabled":false,"rental_uris":{"android":"levelo://app?vid=575cc4c9-8511-4037-9ea6-8c165089755d","ios":"levelo://app?vid=575cc4c9-8511-4037-9ea6-8c165089755d"},"vehicle_type_id":"4","last_reported":1743631756,"current_range_meters":16800,"station_id":"ce4bhg12rcd13ifvqf60","pricing_plan_id":"cebpf4jnsgd1na2vs0mg"},{"bike_id":"841946bd-6940-4794-9af4-41cbe287891a","system_id":"levelo_inurba_marseille","lat":43.2737,"lon":5.36255,"is_reserved":false,"is_disabled":false,"rental_uris":{"android":"levelo://app?vid=841946bd-6940-4794-9af4-41cbe287891a","ios":"levelo://app?vid=841946bd-6940-4794-9af4-41cbe287891a"},"vehicle_type_id":"4","last_reported":1743631756,"current_range_meters":16800,"station_id":"ce4bhbh2rcd13ifvqeo0","pricing_plan_id":"cebpf4jnsgd1na2vs0mg"},{"bike_id":"5f46717b-05d1-4f34-a220-8087932d755b","system_id":"levelo_inurba_marseille","lat":43.30091,"lon":5.36943,"is_reserved":false,"is_disabled":false,"rental_uris":{"android":"levelo://app?vid=5f46717b-05d1-4f34-a220-8087932d755b","ios":"levelo://app?vid=5f46717b-05d1-4f34-a220-8087932d755b"},"vehicle_type_id":"4","last_reported":1743631756,"current_range_meters":16800,"station_id":"","pricing_plan_id":"cebpf4jnsgd1na2vs0mg"},{"bike_id":"67e363b9-d0cd-4cb0-84ba-532612286109","system_id":"levelo_inurba_marseille","lat":43.30535,"lon":5.38437,"is_reserved":false,"is_disabled":false,"rental_uris":{"android":"levelo://app?vid=67e363b9-d0cd-4cb0-84ba-532612286109","ios":"levelo://app?vid=67e363b9-d0cd-4cb0-84ba-532612286109"},"vehicle_type_id":"4","last_reported":1743631756,"current_range_meters":16800,"station_id":"ce4bgg92rcd13ifvqb30","pricing_plan_id":"cebpf4jnsgd1na2vs0mg"},{"bike_id":"0da307f0-a737-4f3f-8786-4dd451d57e79","system_id":"levelo_inurba_marseille","lat":43.30824,"lon":5.36762,"is_reserved":false,"is_disabled":false,"rental_uris":{"android":"levelo://app?vid=0da307f0-a737-4f3f-8786-4dd451d57e79","ios":"levelo://app?vid=0da307f0-a737-4f3f-8786-4dd451d57e79"},"vehicle_type_id":"4","last_reported":1743631756,"current_range_meters":17200,"station_id":"","pricing_plan_id":"cebpf4jnsgd1na2vs0mg"},{"bike_id":"a862f149-fd7e-4307-acdc-55dc73d7ecfc","system_id":"levelo_inurba_marseille","lat":43.24074,"lon":5.37741,"is_reserved":false,"is_disabled":false,"rental_uris":{"android":"levelo://app?vid=a862f149-fd7e-4307-acdc-55dc73d7ecfc","ios":"levelo://app?vid=a862f149-fd7e-4307-acdc-55dc73d7ecfc"},"vehicle_type_id":"4","last_reported":1743631756,"current_range_meters":17200,"station_id":"ce4bhnp2rcd13ifvqgvg","pricing_plan_id":"cebpf4jnsgd1na2vs0mg"},{"bike_id":"5082ad62-22db-44da-9183-6e41173c6111","system_id":"levelo_inurba_marseille","lat":43.30258,"lon":5.40069,"is_reserved":false,"is_disabled":false,"rental_uris":{"android":"levelo://app?vid=5082ad62-22db-44da-9183-6e41173c6111","ios":"levelo://app?vid=5082ad62-22db-44da-9183-6e41173c6111"},"vehicle_type_id":"4","last_reported":1743631756,"current_range_meters":17200,"station_id":"ce4bgvh2rcd13ifvqcs0","pricing_plan_id":"cebpf4jnsgd1na2vs0mg"},{"bike_id":"dccfd6b3-7a5c-431a-b3eb-84684973dd89","system_id":"levelo_inurba_marseille","lat":43.30609,"lon":5.39329,"is_reserved":false,"is_disabled":false,"rental_uris":{"android":"levelo://app?vid=dccfd6b3-7a5c-431a-b3eb-84684973dd89","ios":"levelo://app?vid=dccfd6b3-7a5c-431a-b3eb-84684973dd89"},"vehicle_type_id":"4","last_reported":1743631756,"current_range_meters":17200,"station_id":"ce4bh0p2rcd13ifvqd80","pricing_plan_id":"cebpf4jnsgd1na2vs0mg"},{"bike_id":"3b3c8f4c-69b9-4842-9094-27e12fd26d9a","system_id":"levelo_inurba_marseille","lat":43.28468,"lon":5.35895,"is_reserved":false,"is_disabled":false,"rental_uris":{"android":"levelo://app?vid=3b3c8f4c-69b9-4842-9094-27e12fd26d9a","ios":"levelo://app?vid=3b3c8f4c-69b9-4842-9094-27e12fd26d9a"},"vehicle_type_id":"4","last_reported":1743631756,"current_range_meters":17200,"station_id":"ce4bhah2rcd13ifvqei0","pricing_plan_id":"cebpf4jnsgd1na2vs0mg"},{"bike_id":"527f9a0b-df09-4b77-952d-95f97b46e052","system_id":"levelo_inurba_marseille","lat":43.28086,"lon":5.3964,"is_reserved":false,"is_disabled":false,"rental_uris":{"android":"levelo://app?vid=527f9a0b-df09-4b77-952d-95f97b46e052","ios":"levelo://app?vid=527f9a0b-df09-4b77-952d-95f97b46e052"},"vehicle_type_id":"4","last_reported":1743631756,"current_range_meters":17200,"station_id":"ce4bho12rcd13ifvqh2g","pricing_plan_id":"cebpf4jnsgd1na2vs0mg"},{"bike_id":"09e23c45-a004-4c4b-8720-ddc858867151","system_id":"levelo_inurba_marseille","lat":43.28433,"lon":5.39176,"is_reserved":false,"is_disabled":false,"rental_uris":{"android":"levelo://app?vid=09e23c45-a004-4c4b-8720-ddc858867151","ios":"levelo://app?vid=09e23c45-a004-4c4b-8720-ddc858867151"},"vehicle_type_id":"4","last_reported":1743631756,"current_range_meters":17200,"station_id":"ce4bhoh2rcd13ifvqh5g","pricing_plan_id":"cebpf4jnsgd1na2vs0mg"},{"bike_id":"687fa82c-7dab-434d-aabb-f26c7225148a","system_id":"levelo_inurba_marseille","lat":43.28703,"lon":5.39987,"is_reserved":false,"is_disabled":false,"rental_uris":{"android":"levelo://app?vid=687fa82c-7dab-434d-aabb-f26c7225148a","ios":"levelo://app?vid=687fa82c-7dab-434d-aabb-f26c7225148a"},"vehicle_type_id":"4","last_reported":1743631756,"current_range_meters":17200,"station_id":"ce4bho92rcd13ifvqh3g","pricing_plan_id":"cebpf4jnsgd1na2vs0mg"},{"bike_id":"93cbb798-f822-4f3d-aae2-19ec45d0ddc0","system_id":"levelo_inurba_marseille","lat":43.32288,"lon":5.3827,"is_reserved":false,"is_disabled":false,"rental_uris":{"android":"levelo://app?vid=93cbb798-f822-4f3d-aae2-19ec45d0ddc0","ios":"levelo://app?vid=93cbb798-f822-4f3d-aae2-19ec45d0ddc0"},"vehicle_type_id":"4","last_reported":1743631756,"current_range_meters":17200,"station_id":"ce4bhr12rcd13ifvqhqg","pricing_plan_id":"cebpf4jnsgd1na2vs0mg"},{"bike_id":"6a4eb193-2dbd-4626-a587-67f550cd628d","system_id":"levelo_inurba_marseille","lat":43.29883,"lon":5.3891,"is_reserved":false,"is_disabled":false,"rental_uris":{"android":"levelo://app?vid=6a4eb193-2dbd-4626-a587-67f550cd628d","ios":"levelo://app?vid=6a4eb193-2dbd-4626-a587-67f550cd628d"},"vehicle_type_id":"4","last_reported":1743631756,"current_range_meters":17200,"station_id":"ce4bh392rcd13ifvqdl0","pricing_plan_id":"cebpf4jnsgd1na2vs0mg"},{"bike_id":"e9947125-e4b1-4977-bee9-fb031515997e","system_id":"levelo_inurba_marseille","lat":43.24549,"lon":5.39516,"is_reserved":false,"is_disabled":false,"rental_uris":{"android":"levelo://app?vid=e9947125-e4b1-4977-bee9-fb031515997e","ios":"levelo://app?vid=e9947125-e4b1-4977-bee9-fb031515997e"},"vehicle_type_id":"4","last_reported":1743631756,"current_range_meters":17200,"station_id":"ce4bhlp2rcd13ifvqgjg","pricing_plan_id":"cebpf4jnsgd1na2vs0mg"},{"bike_id":"a24c9f8e-385e-4174-be15-3b7ce293d1b7","system_id":"levelo_inurba_marseille","lat":43.309262,"lon":5.401496,"is_reserved":false,"is_disabled":true,"rental_uris":{"android":"levelo://app?vid=a24c9f8e-385e-4174-be15-3b7ce293d1b7","ios":"levelo://app?vid=a24c9f8e-385e-4174-be15-3b7ce293d1b7"},"vehicle_type_id":"4","last_reported":1743631756,"current_range_meters":17200,"station_id":"ce4bgvp2rcd13ifvqct0","pricing_plan_id":"cebpf4jnsgd1na2vs0mg"},{"bike_id":"15ad6368-8314-452d-9a3b-ecf66197a4e0","system_id":"levelo_inurba_marseille","lat":43.30252,"lon":5.40065,"is_reserved":false,"is_disabled":false,"rental_uris":{"android":"levelo://app?vid=15ad6368-8314-452d-9a3b-ecf66197a4e0","ios":"levelo://app?vid=15ad6368-8314-452d-9a3b-ecf66197a4e0"},"vehicle_type_id":"4","last_reported":1743631756,"current_range_meters":17200,"station_id":"ce4bgvh2rcd13ifvqcs0","pricing_plan_id":"cebpf4jnsgd1na2vs0mg"},{"bike_id":"a50ace2d-e999-4f31-812f-fa1237ed2e21","system_id":"levelo_inurba_marseille","lat":43.30923,"lon":5.40145,"is_reserved":false,"is_disabled":false,"rental_uris":{"android":"levelo://app?vid=a50ace2d-e999-4f31-812f-fa1237ed2e21","ios":"levelo://app?vid=a50ace2d-e999-4f31-812f-fa1237ed2e21"},"vehicle_type_id":"4","last_reported":1743631756,"current_range_meters":17200,"station_id":"ce4bgvp2rcd13ifvqct0","pricing_plan_id":"cebpf4jnsgd1na2vs0mg"},{"bike_id":"7a592e53-04fc-4c6e-a70e-ecb97981534e","system_id":"levelo_inurba_marseille","lat":43.28871,"lon":5.39289,"is_reserved":false,"is_disabled":false,"rental_uris":{"android":"levelo://app?vid=7a592e53-04fc-4c6e-a70e-ecb97981534e","ios":"levelo://app?vid=7a592e53-04fc-4c6e-a70e-ecb97981534e"},"vehicle_type_id":"4","last_reported":1743631756,"current_range_meters":17600,"station_id":"ce4bh2p2rcd13ifvqdi0","pricing_plan_id":"cebpf4jnsgd1na2vs0mg"},{"bike_id":"b6c5d762-66b7-4648-86ae-ad8964e3a2c7","system_id":"levelo_inurba_marseille","lat":43.292542,"lon":5.376171,"is_reserved":false,"is_disabled":false,"rental_uris":{"android":"levelo://app?vid=b6c5d762-66b7-4648-86ae-ad8964e3a2c7","ios":"levelo://app?vid=b6c5d762-66b7-4648-86ae-ad8964e3a2c7"},"vehicle_type_id":"4","last_reported":1743631756,"current_range_meters":17600,"station_id":"ce4bgi12rcd13ifvqb80","pricing_plan_id":"cebpf4jnsgd1na2vs0mg"},{"bike_id":"3164e6ee-ae26-4d9b-aeda-7cce2e02a336","system_id":"levelo_inurba_marseille","lat":43.31367,"lon":5.385,"is_reserved":false,"is_disabled":false,"rental_uris":{"android":"levelo://app?vid=3164e6ee-ae26-4d9b-aeda-7cce2e02a336","ios":"levelo://app?vid=3164e6ee-ae26-4d9b-aeda-7cce2e02a336"},"vehicle_type_id":"4","last_reported":1743631756,"current_range_meters":17600,"station_id":"ce4bgt92rcd13ifvqcf0","pricing_plan_id":"cebpf4jnsgd1na2vs0mg"},{"bike_id":"099ddcc8-7d43-4dc0-931b-9ccfb56dd6ba","system_id":"levelo_inurba_marseille","lat":43.27061,"lon":5.42279,"is_reserved":false,"is_disabled":false,"rental_uris":{"android":"levelo://app?vid=099ddcc8-7d43-4dc0-931b-9ccfb56dd6ba","ios":"levelo://app?vid=099ddcc8-7d43-4dc0-931b-9ccfb56dd6ba"},"vehicle_type_id":"4","last_reported":1743631756,"current_range_meters":17600,"station_id":"ce4bhk92rcd13ifvqgb0","pricing_plan_id":"cebpf4jnsgd1na2vs0mg"},{"bike_id":"c52761fb-1cd6-4c59-b94e-42d833b42944","system_id":"levelo_inurba_marseille","lat":43.2926,"lon":5.40908,"is_reserved":false,"is_disabled":false,"rental_uris":{"android":"levelo://app?vid=c52761fb-1cd6-4c59-b94e-42d833b42944","ios":"levelo://app?vid=c52761fb-1cd6-4c59-b94e-42d833b42944"},"vehicle_type_id":"4","last_reported":1743631756,"current_range_meters":17600,"station_id":"ce4bh192rcd13ifvqdc0","pricing_plan_id":"cebpf4jnsgd1na2vs0mg"},{"bike_id":"c5b61614-1a18-4698-a31f-63056a2f64b1","system_id":"levelo_inurba_marseille","lat":43.2512,"lon":5.40369,"is_reserved":false,"is_disabled":false,"rental_uris":{"android":"levelo://app?vid=c5b61614-1a18-4698-a31f-63056a2f64b1","ios":"levelo://app?vid=c5b61614-1a18-4698-a31f-63056a2f64b1"},"vehicle_type_id":"4","last_reported":1743631756,"current_range_meters":17600,"station_id":"ce4bhlh2rcd13ifvqgig","pricing_plan_id":"cebpf4jnsgd1na2vs0mg"},{"bike_id":"1587455f-0e6c-4f39-bf9a-7add03da8547","system_id":"levelo_inurba_marseille","lat":43.30414,"lon":5.39762,"is_reserved":false,"is_disabled":false,"rental_uris":{"android":"levelo://app?vid=1587455f-0e6c-4f39-bf9a-7add03da8547","ios":"levelo://app?vid=1587455f-0e6c-4f39-bf9a-7add03da8547"},"vehicle_type_id":"4","last_reported":1743631756,"current_range_meters":17600,"station_id":"ce4bh092rcd13ifvqd20","pricing_plan_id":"cebpf4jnsgd1na2vs0mg"},{"bike_id":"31582a22-11d1-437d-8c3a-380f94d1feec","system_id":"levelo_inurba_marseille","lat":43.31068,"lon":5.38348,"is_reserved":false,"is_disabled":false,"rental_uris":{"android":"levelo://app?vid=31582a22-11d1-437d-8c3a-380f94d1feec","ios":"levelo://app?vid=31582a22-11d1-437d-8c3a-380f94d1feec"},"vehicle_type_id":"4","last_reported":1743631756,"current_range_meters":17600,"station_id":"ce4bgv92rcd13ifvqcr0","pricing_plan_id":"cebpf4jnsgd1na2vs0mg"},{"bike_id":"78c70aa3-ce72-4c7c-ba07-7fa69a7239f0","system_id":"levelo_inurba_marseille","lat":43.31259,"lon":5.40169,"is_reserved":false,"is_disabled":false,"rental_uris":{"android":"levelo://app?vid=78c70aa3-ce72-4c7c-ba07-7fa69a7239f0","ios":"levelo://app?vid=78c70aa3-ce72-4c7c-ba07-7fa69a7239f0"},"vehicle_type_id":"4","last_reported":1743631756,"current_range_meters":18000,"station_id":"ce4bh092rcd13ifvqd30","pricing_plan_id":"cebpf4jnsgd1na2vs0mg"},{"bike_id":"911887f9-af40-484f-b1c7-4ba2097422cf","system_id":"levelo_inurba_marseille","lat":43.318163,"lon":5.368948,"is_reserved":false,"is_disabled":false,"rental_uris":{"android":"levelo://app?vid=911887f9-af40-484f-b1c7-4ba2097422cf","ios":"levelo://app?vid=911887f9-af40-484f-b1c7-4ba2097422cf"},"vehicle_type_id":"4","last_reported":1743631756,"current_range_meters":18000,"station_id":"","pricing_plan_id":"cebpf4jnsgd1na2vs0mg"},{"bike_id":"11b4cfb3-f050-4609-bf5a-8f0b078f8eb2","system_id":"levelo_inurba_marseille","lat":43.29553,"lon":5.42279,"is_reserved":false,"is_disabled":false,"rental_uris":{"android":"levelo://app?vid=11b4cfb3-f050-4609-bf5a-8f0b078f8eb2","ios":"levelo://app?vid=11b4cfb3-f050-4609-bf5a-8f0b078f8eb2"},