{"last_updated":1761139605,"ttl":60,"version":"2.2","data":{"bikes":[{"bike_id":"2406b198-dd3f-4ddd-b6c7-d4567739c5c7","system_id":"levelo_inurba_marseille","lat":43.30545,"lon":5.36549,"is_reserved":false,"is_disabled":false,"rental_uris":{"android":"levelo://app?vid=2406b198-dd3f-4ddd-b6c7-d4567739c5c7","ios":"levelo://app?vid=2406b198-dd3f-4ddd-b6c7-d4567739c5c7"},"vehicle_type_id":"4","last_reported":1761139605,"current_range_meters":2800,"station_id":"ce4bgs12rcd13ifvqcag","pricing_plan_id":"cebpf4jnsgd1na2vs0mg"},{"bike_id":"8f2699cb-2b41-460c-b965-cd891704cba8","system_id":"levelo_inurba_marseille","lat":43.27326,"lon":5.39087,"is_reserved":false,"is_disabled":false,"rental_uris":{"android":"levelo://app?vid=8f2699cb-2b41-460c-b965-cd891704cba8","ios":"levelo://app?vid=8f2699cb-2b41-460c-b965-cd891704cba8"},"vehicle_type_id":"4","last_reported":1761139605,"current_range_meters":2800,"station_id":"ce4bhgp2rcd13ifvqfe0","pricing_plan_id":"cebpf4jnsgd1na2vs0mg"},{"bike_id":"d848bf54-708d-48de-a593-da7f2cd3b576","system_id":"levelo_inurba_marseille","lat":43.27812,"lon":5.407058,"is_reserved":false,"is_disabled":false,"rental_uris":{"android":"levelo://app?vid=d848bf54-708d-48de-a593-da7f2cd3b576","ios":"levelo://app?vid=d848bf54-708d-48de-a593-da7f2cd3b576"},"vehicle_type_id":"4","last_reported":1761139605,"current_range_meters":2800,"station_id":"","pricing_plan_id":"cebpf4jnsgd1na2vs0mg"},{"bike_id":"163f1c6c-98e0-4365-ad77-f0d5d98ce2d8","system_id":"levelo_inurba_marseille","lat":43.211908,"lon":5.350735,"is_reserved":false,"is_disabled":false,"rental_uris":{"android":"levelo://app?vid=163f1c6c-98e0-4365-ad77-f0d5d98ce2d8","ios":"levelo://app?vid=163f1c6c-98e0-4365-ad77-f0d5d98ce2d8"},"vehicle_type_id":"4","last_reported":1761139605,"current_range_meters":2800,"station_id":"","pricing_plan_id":"cebpf4jnsgd1na2vs0mg"},{"bike_id":"0fb592fd-3f78-4f98-ab62-728dc976fa7c","system_id":"levelo_inurba_marseille","lat":43.29803,"lon":5.40405,"is_reserved":false,"is_disabled":false,"rental_uris":{"android":"levelo://app?vid=0fb592fd-3f78-4f98-ab62-728dc976fa7c","ios":"levelo://app?vid=0fb592fd-3f78-4f98-ab62-728dc976fa7c"},"vehicle_type_id":"4","last_reported":1761139605,"current_range_meters":2800,"station_id":"ce4bh112rcd13ifvqd90","pricing_plan_id":"cebpf4jnsgd1na2vs0mg"},{"bike_id":"f924d615-0c64-4489-912b-36b25410f3a7","system_id":"levelo_inurba_marseille","lat":43.296251,"lon":5.371625,"is_reserved":false,"is_disabled":false,"rental_uris":{"android":"levelo://app?vid=f924d615-0c64-4489-912b-36b25410f3a7","ios":"levelo://app?vid=f924d615-0c64-4489-912b-36b25410f3a7"},"vehicle_type_id":"4","last_reported":1761139605,"current_range_meters":3200,"station_id":"ce4bgnh2rcd13ifvqc0g","pricing_plan_id":"cebpf4jnsgd1na2vs0mg"},{"bike_id":"d124ea6b-ae35-448a-8d72-fe072d348816","system_id":"levelo_inurba_marseille","lat":43.225303,"lon":5.348308,"is_reserved":false,"is_disabled":false,"rental_uris":{"android":"levelo://app?vid=d124ea6b-ae35-448a-8d72-fe072d348816","ios":"levelo://app?vid=d124ea6b-ae35-448a-8d72-fe072d348816"},"vehicle_type_id":"4","last_reported":1761139605,"current_range_meters":3200,"station_id":"","pricing_plan_id":"cebpf4jnsgd1na2vs0mg"},{"bike_id":"56808f09-5a62-403b-b8e3-97d89aaf3152","system_id":"levelo_inurba_marseille","lat":43.29787,"lon":5.37901,"is_reserved":false,"is_disabled":false,"rental_uris":{"android":"levelo://app?vid=56808f09-5a62-403b-b8e3-97d89aaf3152","ios":"levelo://app?vid=56808f09-5a62-403b-b8e3-97d89aaf3152"},"vehicle_type_id":"4","last_reported":1761139605,"current_range_meters":3200,"station_id":"","pricing_plan_id":"cebpf4jnsgd1na2vs0mg"},{"bike_id":"98490d11-db71-4361-ab96-f0addd49d050","system_id":"levelo_inurba_marseille","lat":43.30008,"lon":5.37339,"is_reserved":false,"is_disabled":false,"rental_uris":{"android":"levelo://app?vid=98490d11-db71-4361-ab96-f0addd49d050","ios":"levelo://app?vid=98490d11-db71-4361-ab96-f0addd49d050"},"vehicle_type_id":"4","last_reported":1761139605,"current_range_meters":3200,"station_id":"","pricing_plan_id":"cebpf4jnsgd1na2vs0mg"},{"bike_id":"9ac1fc2b-7d88-46a4-b565-5615fc983157","system_id":"levelo_inurba_marseille","lat":43.31997,"lon":5.38171,"is_reserved":false,"is_disabled":false,"rental_uris":{"android":"levelo://app?vid=9ac1fc2b-7d88-46a4-b565-5615fc983157","ios":"levelo://app?vid=9ac1fc2b-7d88-46a4-b565-5615fc983157"},"vehicle_type_id":"4","last_reported":1761139605,"current_range_meters":3600,"station_id":"ce4bhr12rcd13ifvqhpg","pricing_plan_id":"cebpf4jnsgd1na2vs0mg"},{"bike_id":"261f1f06-594c-4088-a338-f41e134318ce","system_id":"levelo_inurba_marseille","lat":43.27376,"lon":5.36254,"is_reserved":false,"is_disabled":false,"rental_uris":{"android":"levelo://app?vid=261f1f06-594c-4088-a338-f41e134318ce","ios":"levelo://app?vid=261f1f06-594c-4088-a338-f41e134318ce"},"vehicle_type_id":"4","last_reported":1761139605,"current_range_meters":3600,"station_id":"ce4bhbh2rcd13ifvqeo0","pricing_plan_id":"cebpf4jnsgd1na2vs0mg"},{"bike_id":"ef27cb27-e8f6-40e3-8142-35cc49ad8cf2","system_id":"levelo_inurba_marseille","lat":43.2964,"lon":5.37204,"is_reserved":false,"is_disabled":false,"rental_uris":{"android":"levelo://app?vid=ef27cb27-e8f6-40e3-8142-35cc49ad8cf2","ios":"levelo://app?vid=ef27cb27-e8f6-40e3-8142-35cc49ad8cf2"},"vehicle_type_id":"4","last_reported":1761139605,"current_range_meters":3600,"station_id":"ce4bgk12rcd13ifvqbj0","pricing_plan_id":"cebpf4jnsgd1na2vs0mg"},{"bike_id":"b8d26fda-9464-4b98-90d4-1787a8de7242","system_id":"levelo_inurba_marseille","lat":43.30307,"lon":5.3921,"is_reserved":false,"is_disabled":false,"rental_uris":{"android":"levelo://app?vid=b8d26fda-9464-4b98-90d4-1787a8de7242","ios":"levelo://app?vid=b8d26fda-9464-4b98-90d4-1787a8de7242"},"vehicle_type_id":"4","last_reported":1761139605,"current_range_meters":4000,"station_id":"ce4bgkh2rcd13ifvqbk0","pricing_plan_id":"cebpf4jnsgd1na2vs0mg"},{"bike_id":"8952652d-181d-4647-99e0-dd7c8dc8f72d","system_id":"levelo_inurba_marseille","lat":43.2852,"lon":5.4411,"is_reserved":false,"is_disabled":false,"rental_uris":{"android":"levelo://app?vid=8952652d-181d-4647-99e0-dd7c8dc8f72d","ios":"levelo://app?vid=8952652d-181d-4647-99e0-dd7c8dc8f72d"},"vehicle_type_id":"4","last_reported":1761139605,"current_range_meters":4800,"station_id":"st_d3j3df2ikq2c7380ej80","pricing_plan_id":"cebpf4jnsgd1na2vs0mg"},{"bike_id":"d0870aac-5eeb-4fde-bee0-5d2c802d2f8e","system_id":"levelo_inurba_marseille","lat":43.30932,"lon":5.40156,"is_reserved":false,"is_disabled":false,"rental_uris":{"android":"levelo://app?vid=d0870aac-5eeb-4fde-bee0-5d2c802d2f8e","ios":"levelo://app?vid=d0870aac-5eeb-4fde-bee0-5d2c802d2f8e"},"vehicle_type_id":"4","last_reported":1761139605,"current_range_meters":4800,"station_id":"ce4bgvp2rcd13ifvqct0","pricing_plan_id":"cebpf4jnsgd1na2vs0mg"},{"bike_id":"a870d8c4-d388-4bd8-a292-a2b1665e7e0e","system_id":"levelo_inurba_marseille","lat":43.304308,"lon":5.405861,"is_reserved":false,"is_disabled":false,"rental_uris":{"android":"levelo://app?vid=a870d8c4-d388-4bd8-a292-a2b1665e7e0e","ios":"levelo://app?vid=a870d8c4-d388-4bd8-a292-a2b1665e7e0e"},"vehicle_type_id":"4","last_reported":1761139605,"current_range_meters":4800,"station_id":"","pricing_plan_id":"cebpf4jnsgd1na2vs0mg"},{"bike_id":"d5d9bf61-252d-4b3c-bf16-89d44f1e7fea","system_id":"levelo_inurba_marseille","lat":43.30445,"lon":5.38896,"is_reserved":false,"is_disabled":false,"rental_uris":{"android":"levelo://app?vid=d5d9bf61-252d-4b3c-bf16-89d44f1e7fea","ios":"levelo://app?vid=d5d9bf61-252d-4b3c-bf16-89d44f1e7fea"},"vehicle_type_id":"4","last_reported":1761139605,"current_range_meters":4800,"station_id":"ce4bgk12rcd13ifvqbi0","pricing_plan_id":"cebpf4jnsgd1na2vs0mg"},{"bike_id":"43743f56-d59b-4990-b06a-44ae26d2f530","system_id":"levelo_inurba_marseille","lat":43.21727,"lon":5.34619,"is_reserved":false,"is_disabled":false,"rental_uris":{"android":"levelo://app?vid=43743f56-d59b-4990-b06a-44ae26d2f530","ios":"levelo://app?vid=43743f56-d59b-4990-b06a-44ae26d2f530"},"vehicle_type_id":"4","last_reported":1761139605,"current_range_meters":4800,"station_id":"","pricing_plan_id":"cebpf4jnsgd1na2vs0mg"},{"bike_id":"4154d683-e72a-4592-9e60-2a3872848698","system_id":"levelo_inurba_marseille","lat":43.28475,"lon":5.48401,"is_reserved":false,"is_disabled":false,"rental_uris":{"android":"levelo://app?vid=4154d683-e72a-4592-9e60-2a3872848698","ios":"levelo://app?vid=4154d683-e72a-4592-9e60-2a3872848698"},"vehicle_type_id":"4","last_reported":1761139605,"current_range_meters":5600,"station_id":"st_d3jp68qikq2c7381ktn0","pricing_plan_id":"cebpf4jnsgd1na2vs0mg"},{"bike_id":"a2e131f8-3c9f-478a-b394-6a9db5f46a7a","system_id":"levelo_inurba_marseille","lat":43.30131,"lon":5.37428,"is_reserved":false,"is_disabled":true,"rental_uris":{"android":"levelo://app?vid=a2e131f8-3c9f-478a-b394-6a9db5f46a7a","ios":"levelo://app?vid=a2e131f8-3c9f-478a-b394-6a9db5f46a7a"},"vehicle_type_id":"4","last_reported":1761139605,"current_range_meters":5600,"station_id":"ce4bgs92rcd13ifvqcc0","pricing_plan_id":"cebpf4jnsgd1na2vs0mg"},{"bike_id":"04ff0268-0c4e-4f79-adce-0bdbfa18537f","system_id":"levelo_inurba_marseille","lat":43.2846,"lon":5.35888,"is_reserved":false,"is_disabled":false,"rental_uris":{"android":"levelo://app?vid=04ff0268-0c4e-4f79-adce-0bdbfa18537f","ios":"levelo://app?vid=04ff0268-0c4e-4f79-adce-0bdbfa18537f"},"vehicle_type_id":"4","last_reported":1761139605,"current_range_meters":5600,"station_id":"ce4bhah2rcd13ifvqei0","pricing_plan_id":"cebpf4jnsgd1na2vs0mg"},{"bike_id":"bec655fe-5e64-467c-897f-2129c6fa2cb3","system_id":"levelo_inurba_marseille","lat":43.29803,"lon":5.40398,"is_reserved":false,"is_disabled":false,"rental_uris":{"android":"levelo://app?vid=bec655fe-5e64-467c-897f-2129c6fa2cb3","ios":"levelo://app?vid=bec655fe-5e64-467c-897f-2129c6fa2cb3"},"vehicle_type_id":"4","last_reported":1761139605,"current_range_meters":5600,"station_id":"ce4bh112rcd13ifvqd90","pricing_plan_id":"cebpf4jnsgd1na2vs0mg"},{"bike_id":"9d4f8f12-dafb-4c23-b744-ae823cb2a838","system_id":"levelo_inurba_marseille","lat":43.288545,"lon":5.358559,"is_reserved":false,"is_disabled":false,"rental_uris":{"android":"levelo://app?vid=9d4f8f12-dafb-4c23-b744-ae823cb2a838","ios":"levelo://app?vid=9d4f8f12-dafb-4c23-b744-ae823cb2a838"},"vehicle_type_id":"4","last_reported":1761139605,"current_range_meters":5600,"station_id":"ce4bhb12rcd13ifvqem0","pricing_plan_id":"cebpf4jnsgd1na2vs0mg"},{"bike_id":"e7cb61d9-84d9-41c0-8427-00fc6a9e436b","system_id":"levelo_inurba_marseille","lat":43.31049,"lon":5.37571,"is_reserved":false,"is_disabled":false,"rental_uris":{"android":"levelo://app?vid=e7cb61d9-84d9-41c0-8427-00fc6a9e436b","ios":"levelo://app?vid=e7cb61d9-84d9-41c0-8427-00fc6a9e436b"},"vehicle_type_id":"4","last_reported":1761139605,"current_range_meters":5600,"station_id":"","pricing_plan_id":"cebpf4jnsgd1na2vs0mg"},{"bike_id":"1417f083-d621-4e0a-bdc0-f68ec4e7a339","system_id":"levelo_inurba_marseille","lat":43.2721,"lon":5.39191,"is_reserved":false,"is_disabled":false,"rental_uris":{"android":"levelo://app?vid=1417f083-d621-4e0a-bdc0-f68ec4e7a339","ios":"levelo://app?vid=1417f083-d621-4e0a-bdc0-f68ec4e7a339"},"vehicle_type_id":"4","last_reported":1761139605,"current_range_meters":6000,"station_id":"ce4bhhp2rcd13ifvqfm0","pricing_plan_id":"cebpf4jnsgd1na2vs0mg"},{"bike_id":"805cc412-434c-4829-8363-1954f7f430fd","system_id":"levelo_inurba_marseille","lat":43.29891,"lon":5.38372,"is_reserved":false,"is_disabled":false,"rental_uris":{"android":"levelo://app?vid=805cc412-434c-4829-8363-1954f7f430fd","ios":"levelo://app?vid=805cc412-434c-4829-8363-1954f7f430fd"},"vehicle_type_id":"4","last_reported":1761139605,"current_range_meters":6000,"station_id":"","pricing_plan_id":"cebpf4jnsgd1na2vs0mg"},{"bike_id":"cabec919-03a0-4b34-bf87-345ea1075063","system_id":"levelo_inurba_marseille","lat":43.24066,"lon":5.3776,"is_reserved":false,"is_disabled":false,"rental_uris":{"android":"levelo://app?vid=cabec919-03a0-4b34-bf87-345ea1075063","ios":"levelo://app?vid=cabec919-03a0-4b34-bf87-345ea1075063"},"vehicle_type_id":"4","last_reported":1761139605,"current_range_meters":6400,"station_id":"ce4bhnp2rcd13ifvqgvg","pricing_plan_id":"cebpf4jnsgd1na2vs0mg"},{"bike_id":"27a0a5b8-bb02-4a68-83d8-ad971dc33659","system_id":"levelo_inurba_marseille","lat":43.29757,"lon":5.37915,"is_reserved":false,"is_disabled":false,"rental_uris":{"android":"levelo://app?vid=27a0a5b8-bb02-4a68-83d8-ad971dc33659","ios":"levelo://app?vid=27a0a5b8-bb02-4a68-83d8-ad971dc33659"},"vehicle_type_id":"4","last_reported":1761139605,"current_range_meters":6400,"station_id":"","pricing_plan_id":"cebpf4jnsgd1na2vs0mg"},{"bike_id":"b8fe5ba6-978c-4940-a741-9a0b4f8fae19","system_id":"levelo_inurba_marseille","lat":43.30291,"lon":5.37698,"is_reserved":false,"is_disabled":false,"rental_uris":{"android":"levelo://app?vid=b8fe5ba6-978c-4940-a741-9a0b4f8fae19","ios":"levelo://app?vid=b8fe5ba6-978c-4940-a741-9a0b4f8fae19"},"vehicle_type_id":"4","last_reported":1761139605,"current_range_meters":6800,"station_id":"ce4bguh2rcd13ifvqcj0","pricing_plan_id":"cebpf4jnsgd1na2vs0mg"},{"bike_id":"04c59f8c-cce6-4e1e-a8b5-5ab5a6d673d2","system_id":"levelo_inurba_marseille","lat":43.2681,"lon":5.4027,"is_reserved":false,"is_disabled":false,"rental_uris":{"android":"levelo://app?vid=04c59f8c-cce6-4e1e-a8b5-5ab5a6d673d2","ios":"levelo://app?vid=04c59f8c-cce6-4e1e-a8b5-5ab5a6d673d2"},"vehicle_type_id":"4","last_reported":1761139605,"current_range_meters":6800,"station_id":"ce501612rcd8frsf0b60","pricing_plan_id":"cebpf4jnsgd1na2vs0mg"},{"bike_id":"66bec76d-d7e9-4a1e-a715-39e56334bf96","system_id":"levelo_inurba_marseille","lat":43.2828,"lon":5.39652,"is_reserved":false,"is_disabled":false,"rental_uris":{"android":"levelo://app?vid=66bec76d-d7e9-4a1e-a715-39e56334bf96","ios":"levelo://app?vid=66bec76d-d7e9-4a1e-a715-39e56334bf96"},"vehicle_type_id":"4","last_reported":1761139605,"current_range_meters":7200,"station_id":"","pricing_plan_id":"cebpf4jnsgd1na2vs0mg"},{"bike_id":"382324ec-dc87-4e79-b430-ea0518088ca4","system_id":"levelo_inurba_marseille","lat":43.29788,"lon":5.39336,"is_reserved":false,"is_disabled":false,"rental_uris":{"android":"levelo://app?vid=382324ec-dc87-4e79-b430-ea0518088ca4","ios":"levelo://app?vid=382324ec-dc87-4e79-b430-ea0518088ca4"},"vehicle_type_id":"4","last_reported":1761139605,"current_range_meters":7200,"station_id":"chh1huq6cuj3fo74tm60","pricing_plan_id":"cebpf4jnsgd1na2vs0mg"},{"bike_id":"304191d1-ed57-4850-a881-5b8236c27c00","system_id":"levelo_inurba_marseille","lat":43.29782,"lon":5.37103,"is_reserved":false,"is_disabled":false,"rental_uris":{"android":"levelo://app?vid=304191d1-ed57-4850-a881-5b8236c27c00","ios":"levelo://app?vid=304191d1-ed57-4850-a881-5b8236c27c00"},"vehicle_type_id":"4","last_reported":1761139605,"current_range_meters":7200,"station_id":"ce4bgop2rcd13ifvqc1g","pricing_plan_id":"cebpf4jnsgd1na2vs0mg"},{"bike_id":"3d068a7d-8c2c-4f97-8d7d-54140fa95800","system_id":"levelo_inurba_marseille","lat":43.273583,"lon":5.39879,"is_reserved":false,"is_disabled":false,"rental_uris":{"android":"levelo://app?vid=3d068a7d-8c2c-4f97-8d7d-54140fa95800","ios":"levelo://app?vid=3d068a7d-8c2c-4f97-8d7d-54140fa95800"},"vehicle_type_id":"4","last_reported":1761139605,"current_range_meters":7200,"station_id":"","pricing_plan_id":"cebpf4jnsgd1na2vs0mg"},{"bike_id":"6809ecf9-fb17-4ae2-bd19-1659dceff134","system_id":"levelo_inurba_marseille","lat":43.28695,"lon":5.39985,"is_reserved":false,"is_disabled":false,"rental_uris":{"android":"levelo://app?vid=6809ecf9-fb17-4ae2-bd19-1659dceff134","ios":"levelo://app?vid=6809ecf9-fb17-4ae2-bd19-1659dceff134"},"vehicle_type_id":"4","last_reported":1761139605,"current_range_meters":7200,"station_id":"ce4bho92rcd13ifvqh3g","pricing_plan_id":"cebpf4jnsgd1na2vs0mg"},{"bike_id":"08f884e1-40bf-4382-9b87-338ee53fe904","system_id":"levelo_inurba_marseille","lat":43.29903,"lon":5.43653,"is_reserved":false,"is_disabled":false,"rental_uris":{"android":"levelo://app?vid=08f884e1-40bf-4382-9b87-338ee53fe904","ios":"levelo://app?vid=08f884e1-40bf-4382-9b87-338ee53fe904"},"vehicle_type_id":"4","last_reported":1761139605,"current_range_meters":7200,"station_id":"ce4bhpp2rcd13ifvqhfg","pricing_plan_id":"cebpf4jnsgd1na2vs0mg"},{"bike_id":"dcfe4c7d-fa08-4534-a005-f6bb49a14da3","system_id":"levelo_inurba_marseille","lat":43.28466,"lon":5.35883,"is_reserved":false,"is_disabled":false,"rental_uris":{"android":"levelo://app?vid=dcfe4c7d-fa08-4534-a005-f6bb49a14da3","ios":"levelo://app?vid=dcfe4c7d-fa08-4534-a005-f6bb49a14da3"},"vehicle_type_id":"4","last_reported":1761139605,"current_range_meters":7200,"station_id":"ce4bhah2rcd13ifvqei0","pricing_plan_id":"cebpf4jnsgd1na2vs0mg"},{"bike_id":"1cf29320-94d1-4e8b-8a19-7eeabc28b894","system_id":"levelo_inurba_marseille","lat":43.231983,"lon":5.355529,"is_reserved":false,"is_disabled":false,"rental_uris":{"android":"levelo://app?vid=1cf29320-94d1-4e8b-8a19-7eeabc28b894","ios":"levelo://app?vid=1cf29320-94d1-4e8b-8a19-7eeabc28b894"},"vehicle_type_id":"4","last_reported":1761139605,"current_range_meters":7200,"station_id":"ce4bhu92rcd13ifvqi70","pricing_plan_id":"cebpf4jnsgd1na2vs0mg"},{"bike_id":"34bf6c9f-1ec2-4e35-a3bc-e7018c2b54f2","system_id":"levelo_inurba_marseille","lat":43.24649,"lon":5.389,"is_reserved":false,"is_disabled":false,"rental_uris":{"android":"levelo://app?vid=34bf6c9f-1ec2-4e35-a3bc-e7018c2b54f2","ios":"levelo://app?vid=34bf6c9f-1ec2-4e35-a3bc-e7018c2b54f2"},"vehicle_type_id":"4","last_reported":1761139605,"current_range_meters":8000,"station_id":"ce4bhg12rcd13ifvqf60","pricing_plan_id":"cebpf4jnsgd1na2vs0mg"},{"bike_id":"b96678da-3351-41e4-b597-6579a362ad6b","system_id":"levelo_inurba_marseille","lat":43.26212,"lon":5.37444,"is_reserved":false,"is_disabled":false,"rental_uris":{"android":"levelo://app?vid=b96678da-3351-41e4-b597-6579a362ad6b","ios":"levelo://app?vid=b96678da-3351-41e4-b597-6579a362ad6b"},"vehicle_type_id":"4","last_reported":1761139605,"current_range_meters":8000,"station_id":"ce4bhgp2rcd13ifvqfc0","pricing_plan_id":"cebpf4jnsgd1na2vs0mg"},{"bike_id":"21a770c2-7850-4b78-ba2c-c68039fc32e3","system_id":"levelo_inurba_marseille","lat":43.31236,"lon":5.36864,"is_reserved":false,"is_disabled":false,"rental_uris":{"android":"levelo://app?vid=21a770c2-7850-4b78-ba2c-c68039fc32e3","ios":"levelo://app?vid=21a770c2-7850-4b78-ba2c-c68039fc32e3"},"vehicle_type_id":"4","last_reported":1761139605,"current_range_meters":8000,"station_id":"ce4bgl92rcd13ifvqbq0","pricing_plan_id":"cebpf4jnsgd1na2vs0mg"},{"bike_id":"afda3e05-f87f-408c-8e60-be67dfec1a06","system_id":"levelo_inurba_marseille","lat":43.307373,"lon":5.395547,"is_reserved":false,"is_disabled":false,"rental_uris":{"android":"levelo://app?vid=afda3e05-f87f-408c-8e60-be67dfec1a06","ios":"levelo://app?vid=afda3e05-f87f-408c-8e60-be67dfec1a06"},"vehicle_type_id":"4","last_reported":1761139605,"current_range_meters":8000,"station_id":"ce4bh012rcd13ifvqcv0","pricing_plan_id":"cebpf4jnsgd1na2vs0mg"},{"bike_id":"97585d63-cae0-46a3-8fec-9651d52b3156","system_id":"levelo_inurba_marseille","lat":43.279,"lon":5.38013,"is_reserved":false,"is_disabled":true,"rental_uris":{"android":"levelo://app?vid=97585d63-cae0-46a3-8fec-9651d52b3156","ios":"levelo://app?vid=97585d63-cae0-46a3-8fec-9651d52b3156"},"vehicle_type_id":"4","last_reported":1761139605,"current_range_meters":8000,"station_id":"ce4bhf92rcd13ifvqf50","pricing_plan_id":"cebpf4jnsgd1na2vs0mg"},{"bike_id":"5136f5d4-eb3d-4509-b631-96fbfae507ef","system_id":"levelo_inurba_marseille","lat":43.26201,"lon":5.37937,"is_reserved":false,"is_disabled":false,"rental_uris":{"android":"levelo://app?vid=5136f5d4-eb3d-4509-b631-96fbfae507ef","ios":"levelo://app?vid=5136f5d4-eb3d-4509-b631-96fbfae507ef"},"vehicle_type_id":"4","last_reported":1761139605,"current_range_meters":8000,"station_id":"ce4bhjp2rcd13ifvqg90","pricing_plan_id":"cebpf4jnsgd1na2vs0mg"},{"bike_id":"e8bdbffe-f39c-4a32-858b-65df71956b31","system_id":"levelo_inurba_marseille","lat":43.21192,"lon":5.35075,"is_reserved":false,"is_disabled":false,"rental_uris":{"android":"levelo://app?vid=e8bdbffe-f39c-4a32-858b-65df71956b31","ios":"levelo://app?vid=e8bdbffe-f39c-4a32-858b-65df71956b31"},"vehicle_type_id":"4","last_reported":1761139605,"current_range_meters":8000,"station_id":"","pricing_plan_id":"cebpf4jnsgd1na2vs0mg"},{"bike_id":"da3c5d5d-639d-4a11-88e1-f7b9c2ad220a","system_id":"levelo_inurba_marseille","lat":43.31724,"lon":5.37762,"is_reserved":false,"is_disabled":true,"rental_uris":{"android":"levelo://app?vid=da3c5d5d-639d-4a11-88e1-f7b9c2ad220a","ios":"levelo://app?vid=da3c5d5d-639d-4a11-88e1-f7b9c2ad220a"},"vehicle_type_id":"4","last_reported":1761139605,"current_range_meters":8000,"station_id":"ce4bgth2rcd13ifvqch0","pricing_plan_id":"cebpf4jnsgd1na2vs0mg"},{"bike_id":"690aee8a-7713-4db8-8306-51864ad49f61","system_id":"levelo_inurba_marseille","lat":43.23122,"lon":5.43765,"is_reserved":false,"is_disabled":false,"rental_uris":{"android":"levelo://app?vid=690aee8a-7713-4db8-8306-51864ad49f61","ios":"levelo://app?vid=690aee8a-7713-4db8-8306-51864ad49f61"},"vehicle_type_id":"4","last_reported":1761139605,"current_range_meters":8000,"station_id":"","pricing_plan_id":"cebpf4jnsgd1na2vs0mg"},{"bike_id":"945e67fb-a679-4d26-9e50-c2f1918a4662","system_id":"levelo_inurba_marseille","lat":43.27569,"lon":5.38408,"is_reserved":false,"is_disabled":false,"rental_uris":{"android":"levelo://app?vid=945e67fb-a679-4d26-9e50-c2f1918a4662","ios":"levelo://app?vid=945e67fb-a679-4d26-9e50-c2f1918a4662"},"vehicle_type_id":"4","last_reported":1761139605,"current_range_meters":8000,"station_id":"ce4bhh92rcd13ifvqfi0","pricing_plan_id":"cebpf4jnsgd1na2vs0mg"},{"bike_id":"b7e41c34-cad5-468c-aadc-3ef8a1845b5a","system_id":"levelo_inurba_marseille","lat":43.28167,"lon":5.36115,"is_reserved":false,"is_disabled":false,"rental_uris":{"android":"levelo://app?vid=b7e41c34-cad5-468c-aadc-3ef8a1845b5a","ios":"levelo://app?vid=b7e41c34-cad5-468c-aadc-3ef8a1845b5a"},"vehicle_type_id":"4","last_reported":1761139605,"current_range_meters":8400,"station_id":"","pricing_plan_id":"cebpf4jnsgd1na2vs0mg"},{"bike_id":"fa7494b5-a251-4d7e-8c76-663406cc9143","system_id":"levelo_inurba_marseille","lat":43.28937,"lon":5.36633,"is_reserved":false,"is_disabled":false,"rental_uris":{"android":"levelo://app?vid=fa7494b5-a251-4d7e-8c76-663406cc9143","ios":"levelo://app?vid=fa7494b5-a251-4d7e-8c76-663406cc9143"},"vehicle_type_id":"4","last_reported":1761139605,"current_range_meters":8400,"station_id":"ce4bhap2rcd13ifvqek0","pricing_plan_id":"cebpf4jnsgd1na2vs0mg"},{"bike_id":"82d0701d-3e92-441b-89aa-9a409348bdd4","system_id":"levelo_inurba_marseille","lat":43.31878,"lon":5.40738,"is_reserved":false,"is_disabled":false,"rental_uris":{"android":"levelo://app?vid=82d0701d-3e92-441b-89aa-9a409348bdd4","ios":"levelo://app?vid=82d0701d-3e92-441b-89aa-9a409348bdd4"},"vehicle_type_id":"4","last_reported":1761139605,"current_range_meters":8400,"station_id":"ce4bhq12rcd13ifvqhig","pricing_plan_id":"cebpf4jnsgd1na2vs0mg"},{"bike_id":"c4432b73-0adb-475d-83b3-18f6e7bba483","system_id":"levelo_inurba_marseille","lat":43.32802,"lon":5.40083,"is_reserved":false,"is_disabled":false,"rental_uris":{"android":"levelo://app?vid=c4432b73-0adb-475d-83b3-18f6e7bba483","ios":"levelo://app?vid=c4432b73-0adb-475d-83b3-18f6e7bba483"},"vehicle_type_id":"4","last_reported":1761139605,"current_range_meters":8400,"station_id":"","pricing_plan_id":"cebpf4jnsgd1na2vs0mg"},{"bike_id":"3201e625-69d5-420e-838c-f4c3f44666ef","system_id":"levelo_inurba_marseille","lat":43.33819,"lon":5.37426,"is_reserved":false,"is_disabled":false,"rental_uris":{"android":"levelo://app?vid=3201e625-69d5-420e-838c-f4c3f44666ef","ios":"levelo://app?vid=3201e625-69d5-420e-838c-f4c3f44666ef"},"vehicle_type_id":"4","last_reported":1761139605,"current_range_meters":8800,"station_id":"","pricing_plan_id":"cebpf4jnsgd1na2vs0mg"},{"bike_id":"b8457e49-45d1-4539-8d31-1eb0283df508","system_id":"levelo_inurba_marseille","lat":43.33162,"lon":5.35505,"is_reserved":false,"is_disabled":false,"rental_uris":{"android":"levelo://app?vid=b8457e49-45d1-4539-8d31-1eb0283df508","ios":"levelo://app?vid=b8457e49-45d1-4539-8d31-1eb0283df508"},"vehicle_type_id":"4","last_reported":1761139605,"current_range_meters":8800,"station_id":"","pricing_plan_id":"cebpf4jnsgd1na2vs0mg"},{"bike_id":"7538e8e7-6d4c-4479-ad4d-99db5cd16907","system_id":"levelo_inurba_marseille","lat":43.2901,"lon":5.35608,"is_reserved":false,"is_disabled":false,"rental_uris":{"android":"levelo://app?vid=7538e8e7-6d4c-4479-ad4d-99db5cd16907","ios":"levelo://app?vid=7538e8e7-6d4c-4479-ad4d-99db5cd16907"},"vehicle_type_id":"4","last_reported":1761139605,"current_range_meters":8800,"station_id":"ce4bhb92rcd13ifvqen0","pricing_plan_id":"cebpf4jnsgd1na2vs0mg"},{"bike_id":"8f1ad650-9385-4d31-b3ba-12a291144940","system_id":"levelo_inurba_marseille","lat":43.21747,"lon":5.34599,"is_reserved":false,"is_disabled":false,"rental_uris":{"android":"levelo://app?vid=8f1ad650-9385-4d31-b3ba-12a291144940","ios":"levelo://app?vid=8f1ad650-9385-4d31-b3ba-12a291144940"},"vehicle_type_id":"4","last_reported":1761139605,"current_range_meters":8800,"station_id":"st_cvj6r9ubvosntc0bgbag","pricing_plan_id":"cebpf4jnsgd1na2vs0mg"},{"bike_id":"0082def4-c674-48f8-b94e-e8a41c399abe","system_id":"levelo_inurba_marseille","lat":43.28,"lon":5.39999,"is_reserved":false,"is_disabled":false,"rental_uris":{"android":"levelo://app?vid=0082def4-c674-48f8-b94e-e8a41c399abe","ios":"levelo://app?vid=0082def4-c674-48f8-b94e-e8a41c399abe"},"vehicle_type_id":"4","last_reported":1761139605,"current_range_meters":9200,"station_id":"ce4bho92rcd13ifvqh4g","pricing_plan_id":"cebpf4jnsgd1na2vs0mg"},{"bike_id":"8c5dcd4d-8d96-4190-a3f7-5d7bc1b6e8c5","system_id":"levelo_inurba_marseille","lat":43.28945,"lon":5.36645,"is_reserved":false,"is_disabled":false,"rental_uris":{"android":"levelo://app?vid=8c5dcd4d-8d96-4190-a3f7-5d7bc1b6e8c5","ios":"levelo://app?vid=8c5dcd4d-8d96-4190-a3f7-5d7bc1b6e8c5"},"vehicle_type_id":"4","last_reported":1761139605,"current_range_meters":9200,"station_id":"ce4bhap2rcd13ifvqek0","pricing_plan_id":"cebpf4jnsgd1na2vs0mg"},{"bike_id":"1e828d29-9ce3-4620-8df4-1dbcabd64cc3","system_id":"levelo_inurba_marseille","lat":43.212,"lon":5.35065,"is_reserved":false,"is_disabled":false,"rental_uris":{"android":"levelo://app?vid=1e828d29-9ce3-4620-8df4-1dbcabd64cc3","ios":"levelo://app?vid=1e828d29-9ce3-4620-8df4-1dbcabd64cc3"},"vehicle_type_id":"4","last_reported":1761139605,"current_range_meters":9200,"station_id":"st_cvj6sg6p6f1abm77japg","pricing_plan_id":"cebpf4jnsgd1na2vs0mg"},{"bike_id":"ad352b0d-ba73-4153-b54c-8b54a1c930ff","system_id":"levelo_inurba_marseille","lat":43.29271,"lon":5.38456,"is_reserved":false,"is_disabled":false,"rental_uris":{"android":"levelo://app?vid=ad352b0d-ba73-4153-b54c-8b54a1c930ff","ios":"levelo://app?vid=ad352b0d-ba73-4153-b54c-8b54a1c930ff"},"vehicle_type_id":"4","last_reported":1761139605,"current_range_meters":9200,"station_id":"ce4bh692rcd13ifvqea0","pricing_plan_id":"cebpf4jnsgd1na2vs0mg"},{"bike_id":"e3f03a4b-79e8-4c86-8b60-dae37cb49b4e","system_id":"levelo_inurba_marseille","lat":43.21745,"lon":5.34605,"is_reserved":false,"is_disabled":false,"rental_uris":{"android":"levelo://app?vid=e3f03a4b-79e8-4c86-8b60-dae37cb49b4e","ios":"levelo://app?vid=e3f03a4b-79e8-4c86-8b60-dae37cb49b4e"},"vehicle_type_id":"4","last_reported":1761139605,"current_range_meters":9600,"station_id":"st_cvj6r9ubvosntc0bgbag","pricing_plan_id":"cebpf4jnsgd1na2vs0mg"},{"bike_id":"e1d480c6-ce99-4ef5-afe8-872bac785608","system_id":"levelo_inurba_marseille","lat":43.29711,"lon":5.3769,"is_reserved":false,"is_disabled":false,"rental_uris":{"android":"levelo://app?vid=e1d480c6-ce99-4ef5-afe8-872bac785608","ios":"levelo://app?vid=e1d480c6-ce99-4ef5-afe8-872bac785608"},"vehicle_type_id":"4","last_reported":1761139605,"current_range_meters":9600,"station_id":"ce4bgkh2rcd13ifvqbl0","pricing_plan_id":"cebpf4jnsgd1na2vs0mg"},{"bike_id":"d83ba3b5-f05f-4b3f-995a-05ad1a505367","system_id":"levelo_inurba_marseille","lat":43.31723,"lon":5.42394,"is_reserved":false,"is_disabled":false,"rental_uris":{"android":"levelo://app?vid=d83ba3b5-f05f-4b3f-995a-05ad1a505367","ios":"levelo://app?vid=d83ba3b5-f05f-4b3f-995a-05ad1a505367"},"vehicle_type_id":"4","last_reported":1761139605,"current_range_meters":10000,"station_id":"ce4bhp92rcd13ifvqhbg","pricing_plan_id":"cebpf4jnsgd1na2vs0mg"},{"bike_id":"dac46a03-a053-41f2-b44f-fe18b5243cf4","system_id":"levelo_inurba_marseille","lat":43.21742,"lon":5.34614,"is_reserved":false,"is_disabled":false,"rental_uris":{"android":"levelo://app?vid=dac46a03-a053-41f2-b44f-fe18b5243cf4","ios":"levelo://app?vid=dac46a03-a053-41f2-b44f-fe18b5243cf4"},"vehicle_type_id":"4","last_reported":1761139605,"current_range_meters":10000,"station_id":"","pricing_plan_id":"cebpf4jnsgd1na2vs0mg"},{"bike_id":"d38bb17a-4ac6-4da6-829b-fc2ffe260364","system_id":"levelo_inurba_marseille","lat":43.31897,"lon":5.40739,"is_reserved":false,"is_disabled":true,"rental_uris":{"android":"levelo://app?vid=d38bb17a-4ac6-4da6-829b-fc2ffe260364","ios":"levelo://app?vid=d38bb17a-4ac6-4da6-829b-fc2ffe260364"},"vehicle_type_id":"4","last_reported":1761139605,"current_range_meters":10000,"station_id":"ce4bhq12rcd13ifvqhig","pricing_plan_id":"cebpf4jnsgd1na2vs0mg"},{"bike_id":"323bf2de-3bb4-4b4c-b330-b19ea807dbf5","system_id":"levelo_inurba_marseille","lat":43.310654,"lon":5.383455,"is_reserved":false,"is_disabled":true,"rental_uris":{"android":"levelo://app?vid=323bf2de-3bb4-4b4c-b330-b19ea807dbf5","ios":"levelo://app?vid=323bf2de-3bb4-4b4c-b330-b19ea807dbf5"},"vehicle_type_id":"4","last_reported":1761139605,"current_range_meters":10000,"station_id":"ce4bgv92rcd13ifvqcr0","pricing_plan_id":"cebpf4jnsgd1na2vs0mg"},{"bike_id":"398b6093-c936-4db1-9316-7fca309e626d","system_id":"levelo_inurba_marseille","lat":43.27572,"lon":5.38419,"is_reserved":false,"is_disabled":false,"rental_uris":{"android":"levelo://app?vid=398b6093-c936-4db1-9316-7fca309e626d","ios":"levelo://app?vid=398b6093-c936-4db1-9316-7fca309e626d"},"vehicle_type_id":"4","last_reported":1761139605,"current_range_meters":10000,"station_id":"ce4bhh92rcd13ifvqfi0","pricing_plan_id":"cebpf4jnsgd1na2vs0mg"},{"bike_id":"77492919-8e7b-4f28-a850-47fdbd4cb71e","system_id":"levelo_inurba_marseille","lat":43.21196,"lon":5.35068,"is_reserved":false,"is_disabled":false,"rental_uris":{"android":"levelo://app?vid=77492919-8e7b-4f28-a850-47fdbd4cb71e","ios":"levelo://app?vid=77492919-8e7b-4f28-a850-47fdbd4cb71e"},"vehicle_type_id":"4","last_reported":1761139605,"current_range_meters":10800,"station_id":"st_cvj6sg6p6f1abm77japg","pricing_plan_id":"cebpf4jnsgd1na2vs0mg"},{"bike_id":"65ca89ed-18fd-4e7e-9247-025e55d1ba89","system_id":"levelo_inurba_marseille","lat":43.21746,"lon":5.34615,"is_reserved":false,"is_disabled":false,"rental_uris":{"android":"levelo://app?vid=65ca89ed-18fd-4e7e-9247-025e55d1ba89","ios":"levelo://app?vid=65ca89ed-18fd-4e7e-9247-025e55d1ba89"},"vehicle_type_id":"4","last_reported":1761139605,"current_range_meters":10800,"station_id":"st_cvj6r9ubvosntc0bgbag","pricing_plan_id":"cebpf4jnsgd1na2vs0mg"},{"bike_id":"9969dc89-b3da-432d-a478-1a7bf655bb81","system_id":"levelo_inurba_marseille","lat":43.32349,"lon":5.36763,"is_reserved":false,"is_disabled":false,"rental_uris":{"android":"levelo://app?vid=9969dc89-b3da-432d-a478-1a7bf655bb81","ios":"levelo://app?vid=9969dc89-b3da-432d-a478-1a7bf655bb81"},"vehicle_type_id":"4","last_reported":1761139605,"current_range_meters":10800,"station_id":"ce4bhsh2rcd13ifvqi2g","pricing_plan_id":"cebpf4jnsgd1na2vs0mg"},{"bike_id":"4e7e8f57-06ea-4923-b3c1-ea91802d5920","system_id":"levelo_inurba_marseille","lat":43.27993,"lon":5.4164,"is_reserved":false,"is_disabled":false,"rental_uris":{"android":"levelo://app?vid=4e7e8f57-06ea-4923-b3c1-ea91802d5920","ios":"levelo://app?vid=4e7e8f57-06ea-4923-b3c1-ea91802d5920"},"vehicle_type_id":"4","last_reported":1761139605,"current_range_meters":10800,"station_id":"ce4bho12rcd13ifvqh1g","pricing_plan_id":"cebpf4jnsgd1na2vs0mg"},{"bike_id":"02f7835e-8895-43db-bc46-dc0659a292d5","system_id":"levelo_inurba_marseille","lat":43.29331,"lon":5.3707,"is_reserved":false,"is_disabled":false,"rental_uris":{"android":"levelo://app?vid=02f7835e-8895-43db-bc46-dc0659a292d5","ios":"levelo://app?vid=02f7835e-8895-43db-bc46-dc0659a292d5"},"vehicle_type_id":"4","last_reported":1761139605,"current_range_meters":10800,"station_id":"","pricing_plan_id":"cebpf4jnsgd1na2vs0mg"},{"bike_id":"146c2516-bef0-44a7-b04d-fb80b55a97f2","system_id":"levelo_inurba_marseille","lat":43.30125,"lon":5.43113,"is_reserved":false,"is_disabled":false,"rental_uris":{"android":"levelo://app?vid=146c2516-bef0-44a7-b04d-fb80b55a97f2","ios":"levelo://app?vid=146c2516-bef0-44a7-b04d-fb80b55a97f2"},"vehicle_type_id":"4","last_reported":1761139605,"current_range_meters":11200,"station_id":"st_d3js3co5814s73ftftug","pricing_plan_id":"cebpf4jnsgd1na2vs0mg"},{"bike_id":"8d8f6a12-fc40-468d-a40c-e869dc2889ea","system_id":"levelo_inurba_marseille","lat":43.27377,"lon":5.36251,"is_reserved":false,"is_disabled":false,"rental_uris":{"android":"levelo://app?vid=8d8f6a12-fc40-468d-a40c-e869dc2889ea","ios":"levelo://app?vid=8d8f6a12-fc40-468d-a40c-e869dc2889ea"},"vehicle_type_id":"4","last_reported":1761139605,"current_range_meters":11200,"station_id":"ce4bhbh2rcd13ifvqeo0","pricing_plan_id":"cebpf4jnsgd1na2vs0mg"},{"bike_id":"3b7c3b5c-0290-4026-b758-6cdbf06eaedd","system_id":"levelo_inurba_marseille","lat":43.31726,"lon":5.42393,"is_reserved":false,"is_disabled":false,"rental_uris":{"android":"levelo://app?vid=3b7c3b5c-0290-4026-b758-6cdbf06eaedd","ios":"levelo://app?vid=3b7c3b5c-0290-4026-b758-6cdbf06eaedd"},"vehicle_type_id":"4","last_reported":1761139605,"current_range_meters":11200,"station_id":"ce4bhp92rcd13ifvqhbg","pricing_plan_id":"cebpf4jnsgd1na2vs0mg"},{"bike_id":"40e17525-0511-4786-8546-896444b0c93b","system_id":"levelo_inurba_marseille","lat":43.21188,"lon":5.35075,"is_reserved":false,"is_disabled":false,"rental_uris":{"android":"levelo://app?vid=40e17525-0511-4786-8546-896444b0c93b","ios":"levelo://app?vid=40e17525-0511-4786-8546-896444b0c93b"},"vehicle_type_id":"4","last_reported":1761139605,"current_range_meters":11200,"station_id":"st_cvj6sg6p6f1abm77japg","pricing_plan_id":"cebpf4jnsgd1na2vs0mg"},{"bike_id":"4010250f-6a1e-4c14-a48c-f6af023594cc","system_id":"levelo_inurba_marseille","lat":43.2988,"lon":5.43662,"is_reserved":false,"is_disabled":false,"rental_uris":{"android":"levelo://app?vid=4010250f-6a1e-4c14-a48c-f6af023594cc","ios":"levelo://app?vid=4010250f-6a1e-4c14-a48c-f6af023594cc"},"vehicle_type_id":"4","last_reported":1761139605,"current_range_meters":11600,"station_id":"ce4bhpp2rcd13ifvqhfg","pricing_plan_id":"cebpf4jnsgd1na2vs0mg"},{"bike_id":"d2dd40b6-b656-4f7f-8227-3d65dab6eeee","system_id":"levelo_inurba_marseille","lat":43.27379,"lon":5.3626,"is_reserved":false,"is_disabled":false,"rental_uris":{"android":"levelo://app?vid=d2dd40b6-b656-4f7f-8227-3d65dab6eeee","ios":"levelo://app?vid=d2dd40b6-b656-4f7f-8227-3d65dab6eeee"},"vehicle_type_id":"4","last_reported":1761139605,"current_range_meters":11600,"station_id":"ce4bhbh2rcd13ifvqeo0","pricing_plan_id":"cebpf4jnsgd1na2vs0mg"},{"bike_id":"89dd87c4-c8d0-4de7-8902-2b0447e67475","system_id":"levelo_inurba_marseille","lat":43.31232,"lon":5.36877,"is_reserved":false,"is_disabled":false,"rental_uris":{"android":"levelo://app?vid=89dd87c4-c8d0-4de7-8902-2b0447e67475","ios":"levelo://app?vid=89dd87c4-c8d0-4de7-8902-2b0447e67475"},"vehicle_type_id":"4","last_reported":1761139605,"current_range_meters":11600,"station_id":"","pricing_plan_id":"cebpf4jnsgd1na2vs0mg"},{"bike_id":"027b5216-0be3-4305-9f75-81fde0a8497b","system_id":"levelo_inurba_marseille","lat":43.28459,"lon":5.3589,"is_reserved":false,"is_disabled":false,"rental_uris":{"android":"levelo://app?vid=027b5216-0be3-4305-9f75-81fde0a8497b","ios":"levelo://app?vid=027b5216-0be3-4305-9f75-81fde0a8497b"},"vehicle_type_id":"4","last_reported":1761139605,"current_range_meters":11600,"station_id":"ce4bhah2rcd13ifvqei0","pricing_plan_id":"cebpf4jnsgd1na2vs0mg"},{"bike_id":"b869754e-ab30-4b29-93e2-c3b579cde905","system_id":"levelo_inurba_marseille","lat":43.270542,"lon":5.383055,"is_reserved":false,"is_disabled":false,"rental_uris":{"android":"levelo://app?vid=b869754e-ab30-4b29-93e2-c3b579cde905","ios":"levelo://app?vid=b869754e-ab30-4b29-93e2-c3b579cde905"},"vehicle_type_id":"4","last_reported":1761139605,"current_range_meters":11600,"station_id":"st_d3n2fo6cfp8s73cte1j0","pricing_plan_id":"cebpf4jnsgd1na2vs0mg"},{"bike_id":"ac1df8dc-41e5-4954-977f-6f21ed12d11a","system_id":"levelo_inurba_marseille","lat":43.217495,"lon":5.346019,"is_reserved":false,"is_disabled":false,"rental_uris":{"android":"levelo://app?vid=ac1df8dc-41e5-4954-977f-6f21ed12d11a","ios":"levelo://app?vid=ac1df8dc-41e5-4954-977f-6f21ed12d11a"},"vehicle_type_id":"4","last_reported":1761139605,"current_range_meters":12000,"station_id":"ce4bh692rcd13ifvqea0","pricing_plan_id":"cebpf4jnsgd1na2vs0mg"},{"bike_id":"7a6f32e9-4536-488d-9229-955825286ecb","system_id":"levelo_inurba_marseille","lat":43.32352,"lon":5.36752,"is_reserved":false,"is_disabled":false,"rental_uris":{"android":"levelo://app?vid=7a6f32e9-4536-488d-9229-955825286ecb","ios":"levelo://app?vid=7a6f32e9-4536-488d-9229-955825286ecb"},"vehicle_type_id":"4","last_reported":1761139605,"current_range_meters":12000,"station_id":"ce4bhsh2rcd13ifvqi2g","pricing_plan_id":"cebpf4jnsgd1na2vs0mg"},{"bike_id":"6ea4db1a-bb11-46d4-bc50-dfb3b45ad0dc","system_id":"levelo_inurba_marseille","lat":43.23201,"lon":5.35545,"is_reserved":false,"is_disabled":false,"rental_uris":{"android":"levelo://app?vid=6ea4db1a-bb11-46d4-bc50-dfb3b45ad0dc","ios":"levelo://app?vid=6ea4db1a-bb11-46d4-bc50-dfb3b45ad0dc"},"vehicle_type_id":"4","last_reported":1761139605,"current_range_meters":12000,"station_id":"ce4bhu92rcd13ifvqi70","pricing_plan_id":"cebpf4jnsgd1na2vs0mg"},{"bike_id":"82576c51-8b9b-43eb-aa43-fc4a18c9ea5b","system_id":"levelo_inurba_marseille","lat":43.21746,"lon":5.34609,"is_reserved":false,"is_disabled":false,"rental_uris":{"android":"levelo://app?vid=82576c51-8b9b-43eb-aa43-fc4a18c9ea5b","ios":"levelo://app?vid=82576c51-8b9b-43eb-aa43-fc4a18c9ea5b"},"vehicle_type_id":"4","last_reported":1761139605,"current_range_meters":12000,"station_id":"st_cvj6r9ubvosntc0bgbag","pricing_plan_id":"cebpf4jnsgd1na2vs0mg"},{"bike_id":"8019ec39-0894-4bd0-b05a-e74768265a39","system_id":"levelo_inurba_marseille","lat":43.299219,"lon":5.365281,"is_reserved":false,"is_disabled":false,"rental_uris":{"android":"levelo://app?vid=8019ec39-0894-4bd0-b05a-e74768265a39","ios":"levelo://app?vid=8019ec39-0894-4bd0-b05a-e74768265a39"},"vehicle_type_id":"4","last_reported":1761139605,"current_range_meters":12000,"station_id":"ce4bgj92rcd13ifvqbd0","pricing_plan_id":"cebpf4jnsgd1na2vs0mg"},{"bike_id":"bbf0e5b3-61ac-473b-99b0-cf0316df431b","system_id":"levelo_inurba_marseille","lat":43.29985,"lon":5.37168,"is_reserved":false,"is_disabled":true,"rental_uris":{"android":"levelo://app?vid=bbf0e5b3-61ac-473b-99b0-cf0316df431b","ios":"levelo://app?vid=bbf0e5b3-61ac-473b-99b0-cf0316df431b"},"vehicle_type_id":"4","last_reported":1761139605,"current_range_meters":12000,"station_id":"ce4bgr92rcd13ifvqc7g","pricing_plan_id":"cebpf4jnsgd1na2vs0mg"},{"bike_id":"829ad942-fd55-4fc4-863c-ed3ab8fe0923","system_id":"levelo_inurba_marseille","lat":43.28482,"lon":5.38405,"is_reserved":false,"is_disabled":false,"rental_uris":{"android":"levelo://app?vid=829ad942-fd55-4fc4-863c-ed3ab8fe0923","ios":"levelo://app?vid=829ad942-fd55-4fc4-863c-ed3ab8fe0923"},"vehicle_type_id":"4","last_reported":1761139605,"current_range_meters":12000,"station_id":"ce4bh512rcd13ifvqe3g","pricing_plan_id":"cebpf4jnsgd1na2vs0mg"},{"bike_id":"6146b6a3-a2f0-4083-b0dd-fa6ecd5a65f0","system_id":"levelo_inurba_marseille","lat":43.27372,"lon":5.36244,"is_reserved":false,"is_disabled":false,"rental_uris":{"android":"levelo://app?vid=6146b6a3-a2f0-4083-b0dd-fa6ecd5a65f0","ios":"levelo://app?vid=6146b6a3-a2f0-4083-b0dd-fa6ecd5a65f0"},"vehicle_type_id":"4","last_reported":1761139605,"current_range_meters":12400,"station_id":"ce4bhbh2rcd13ifvqeo0","pricing_plan_id":"cebpf4jnsgd1na2vs0mg"},{"bike_id":"c191d281-8b60-4dfb-ad22-a0125150ccca","system_id":"levelo_inurba_marseille","lat":43.30138,"lon":5.38063,"is_reserved":false,"is_disabled":false,"rental_uris":{"android":"levelo://app?vid=c191d281-8b60-4dfb-ad22-a0125150ccca","ios":"levelo://app?vid=c191d281-8b60-4dfb-ad22-a0125150ccca"},"vehicle_type_id":"4","last_reported":1761139605,"current_range_meters":12400,"station_id":"ce4bgjp2rcd13ifvqbh0","pricing_plan_id":"cebpf4jnsgd1na2vs0mg"},{"bike_id":"279cf070-5787-4a6a-b750-889129ac6c93","system_id":"levelo_inurba_marseille","lat":43.29573,"lon":5.37504,"is_reserved":false,"is_disabled":false,"rental_uris":{"android":"levelo://app?vid=279cf070-5787-4a6a-b750-889129ac6c93","ios":"levelo://app?vid=279cf070-5787-4a6a-b750-889129ac6c93"},"vehicle_type_id":"4","last_reported":1761139605,"current_range_meters":12400,"station_id":"ce4bgh92rcd13ifvqb50","pricing_plan_id":"cebpf4jnsgd1na2vs0mg"},{"bike_id":"46e71a08-7e6c-4660-87ec-495dba3c6628","system_id":"levelo_inurba_marseille","lat":43.296735,"lon":5.362232,"is_reserved":false,"is_disabled":false,"rental_uris":{"android":"levelo://app?vid=46e71a08-7e6c-4660-87ec-495dba3c6628","ios":"levelo://app?vid=46e71a08-7e6c-4660-87ec-495dba3c6628"},"vehicle_type_id":"4","last_reported":1761139605,"current_range_meters":12400,"station_id":"","pricing_plan_id":"cebpf4jnsgd1na2vs0mg"},{"bike_id":"27e4da55-03ac-4a27-9cbb-4218c6a866bf","system_id":"levelo_inurba_marseille","lat":43.280642,"lon":5.352788,"is_reserved":false,"is_disabled":false,"rental_uris":{"android":"levelo://app?vid=27e4da55-03ac-4a27-9cbb-4218c6a866bf","ios":"levelo://app?vid=27e4da55-03ac-4a27-9cbb-4218c6a866bf"},"vehicle_type_id":"4","last_reported":1761139605,"current_range_meters":12400,"station_id":"","pricing_plan_id":"cebpf4jnsgd1na2vs0mg"},{"bike_id":"59fe87bd-e551-4d1c-a50a-25a1820df673","system_id":"levelo_inurba_marseille","lat":43.30585,"lon":5.3941,"is_reserved":false,"is_disabled":false,"rental_uris":{"android":"levelo://app?vid=59fe87bd-e551-4d1c-a50a-25a1820df673","ios":"levelo://app?vid=59fe87bd-e551-4d1c-a50a-25a1820df673"},"vehicle_type_id":"4","last_reported":1761139605,"current_range_meters":12800,"station_id":"ce4bh0p2rcd13ifvqd80","pricing_plan_id":"cebpf4jnsgd1na2vs0mg"},{"bike_id":"381a96b1-c7cb-4a01-abd4-ba79c50a70f9","system_id":"levelo_inurba_marseille","lat":43.31186,"lon":5.38715,"is_reserved":false,"is_disabled":false,"rental_uris":{"android":"levelo://app?vid=381a96b1-c7cb-4a01-abd4-ba79c50a70f9","ios":"levelo://app?vid=381a96b1-c7cb-4a01-abd4-ba79c50a70f9"},"vehicle_type_id":"4","last_reported":1761139605,"current_range_meters":12800,"station_id":"ce4bgv12rcd13ifvqcp0","pricing_plan_id":"cebpf4jnsgd1na2vs0mg"},{"bike_id":"396aaa55-c35f-41fc-8337-93bac25c9dde","system_id":"levelo_inurba_marseille","lat":43.29223,"lon":5.35524,"is_reserved":false,"is_disabled":false,"rental_uris":{"android":"levelo://app?vid=396aaa55-c35f-41fc-8337-93bac25c9dde","ios":"levelo://app?vid=396aaa55-c35f-41fc-8337-93bac25c9dde"},"vehicle_type_id":"4","last_reported":1761139605,"current_range_meters":12800,"station_id":"","pricing_plan_id":"cebpf4jnsgd1na2vs0mg"},{"bike_id":"71472b1e-3f72-4443-83bd-f996a2a27bfa","system_id":"levelo_inurba_marseille","lat":43.24392,"lon":5.37068,"is_reserved":false,"is_disabled":false,"rental_uris":{"android":"levelo://app?vid=71472b1e-3f72-4443-83bd-f996a2a27bfa","ios":"levelo://app?vid=71472b1e-3f72-4443-83bd-f996a2a27bfa"},"vehicle_type_id":"4","last_reported":1761139605,"current_range_meters":12800,"station_id":"ce4bhhh2rcd13ifvqfk0","pricing_plan_id":"cebpf4jnsgd1na2vs0mg"},{"bike_id":"37d01fc8-4b4d-4652-a489-1254eb9d4c80","system_id":"levelo_inurba_marseille","lat":43.34076,"lon":5.40411,"is_reserved":false,"is_disabled":false,"rental_uris":{"android":"levelo://app?vid=37d01fc8-4b4d-4652-a489-1254eb9d4c80","ios":"levelo://app?vid=37d01fc8-4b4d-4652-a489-1254eb9d4c80"},"vehicle_type_id":"4","last_reported":1761139605,"current_range_meters":12800,"station_id":"","pricing_plan_id":"cebpf4jnsgd1na2vs0mg"},{"bike_id":"bfc74a83-ac65-4da0-a000-74f18054fde2","system_id":"levelo_inurba_marseille","lat":43.30185,"lon":5.3662,"is_reserved":false,"is_disabled":false,"rental_uris":{"android":"levelo://app?vid=bfc74a83-ac65-4da0-a000-74f18054fde2","ios":"levelo://app?vid=bfc74a83-ac65-4da0-a000-74f18054fde2"},"vehicle_type_id":"4","last_reported":1761139605,"current_range_meters":12800,"station_id":"ce4bgrh2rcd13ifvqc8g","pricing_plan_id":"cebpf4jnsgd1na2vs0mg"},{"bike_id":"23bce893-d4c3-4504-ab50-a8fa9f346bbb","system_id":"levelo_inurba_marseille","lat":43.2978,"lon":5.38104,"is_reserved":false,"is_disabled":false,"rental_uris":{"android":"levelo://app?vid=23bce893-d4c3-4504-ab50-a8fa9f346bbb","ios":"levelo://app?vid=23bce893-d4c3-4504-ab50-a8fa9f346bbb"},"vehicle_type_id":"4","last_reported":1761139605,"current_range_meters":13600,"station_id":"ce4bgip2rcd13ifvqbb0","pricing_plan_id":"cebpf4jnsgd1na2vs0mg"},{"bike_id":"39e44f93-d800-41b1-b71a-943ebf966360","system_id":"levelo_inurba_marseille","lat":43.29624,"lon":5.37715,"is_reserved":false,"is_disabled":false,"rental_uris":{"android":"levelo://app?vid=39e44f93-d800-41b1-b71a-943ebf966360","ios":"levelo://app?vid=39e44f93-d800-41b1-b71a-943ebf966360"},"vehicle_type_id":"4","last_reported":1761139605,"current_range_meters":13600,"station_id":"ce4bgi92rcd13ifvqb90","pricing_plan_id":"cebpf4jnsgd1na2vs0mg"},{"bike_id":"11150be9-5ed2-4a43-ae5f-0ea95444cf9a","system_id":"levelo_inurba_marseille","lat":43.23196,"lon":5.3555,"is_reserved":false,"is_disabled":false,"rental_uris":{"android":"levelo://app?vid=11150be9-5ed2-4a43-ae5f-0ea95444cf9a","ios":"levelo://app?vid=11150be9-5ed2-4a43-ae5f-0ea95444cf9a"},"vehicle_type_id":"4","last_reported":1761139605,"current_range_meters":14000,"station_id":"ce4bhu92rcd13ifvqi70","pricing_plan_id":"cebpf4jnsgd1na2vs0mg"},{"bike_id":"9ea5bc72-825b-41bc-beaf-784ef1b47a9c","system_id":"levelo_inurba_marseille","lat":43.284942,"lon":5.385594,"is_reserved":false,"is_disabled":false,"rental_uris":{"android":"levelo://app?vid=9ea5bc72-825b-41bc-beaf-784ef1b47a9c","ios":"levelo://app?vid=9ea5bc72-825b-41bc-beaf-784ef1b47a9c"},"vehicle_type_id":"4","last_reported":1761139605,"current_range_meters":14000,"station_id":"ce4bhg12rcd13ifvqf80","pricing_plan_id":"cebpf4jnsgd1na2vs0mg"},{"bike_id":"f47f8ff7-e96a-4edf-bc1d-20bc35c3ef9e","system_id":"levelo_inurba_marseille","lat":43.27217,"lon":5.39179,"is_reserved":false,"is_disabled":false,"rental_uris":{"android":"levelo://app?vid=f47f8ff7-e96a-4edf-bc1d-20bc35c3ef9e","ios":"levelo://app?vid=f47f8ff7-e96a-4edf-bc1d-20bc35c3ef9e"},"vehicle_type_id":"4","last_reported":1761139605,"current_range_meters":14000,"station_id":"ce4bhhp2rcd13ifvqfm0","pricing_plan_id":"cebpf4jnsgd1na2vs0mg"},{"bike_id":"49925036-1b8c-43d9-9946-a7e75d88720c","system_id":"levelo_inurba_marseille","lat":43.286229,"lon":5.362115,"is_reserved":false,"is_disabled":false,"rental_uris":{"android":"levelo://app?vid=49925036-1b8c-43d9-9946-a7e75d88720c","ios":"levelo://app?vid=49925036-1b8c-43d9-9946-a7e75d88720c"},"vehicle_type_id":"4","last_reported":1761139605,"current_range_meters":14000,"station_id":"ce4bhah2rcd13ifvqej0","pricing_plan_id":"cebpf4jnsgd1na2vs0mg"},{"bike_id":"c43d994a-bb2c-4800-a7ce-153e83cd51ae","system_id":"levelo_inurba_marseille","lat":43.274451,"lon":5.390878,"is_reserved":false,"is_disabled":true,"rental_uris":{"android":"levelo://app?vid=c43d994a-bb2c-4800-a7ce-153e83cd51ae","ios":"levelo://app?vid=c43d994a-bb2c-4800-a7ce-153e83cd51ae"},"vehicle_type_id":"4","last_reported":1761139605,"current_range_meters":14000,"station_id":"ce4bhg12rcd13ifvqf80","pricing_plan_id":"cebpf4jnsgd1na2vs0mg"},{"bike_id":"8517d2ad-4627-4d5c-b43d-563f1cd29009","system_id":"levelo_inurba_marseille","lat":43.304536,"lon":5.369021,"is_reserved":false,"is_disabled":false,"rental_uris":{"android":"levelo://app?vid=8517d2ad-4627-4d5c-b43d-563f1cd29009","ios":"levelo://app?vid=8517d2ad-4627-4d5c-b43d-563f1cd29009"},"vehicle_type_id":"4","last_reported":1761139605,"current_range_meters":14400,"station_id":"","pricing_plan_id":"cebpf4jnsgd1na2vs0mg"},{"bike_id":"810d63c4-6cdb-4cc8-9c6c-0ce71c73c04b","system_id":"levelo_inurba_marseille","lat":43.29624,"lon":5.37164,"is_reserved":false,"is_disabled":false,"rental_uris":{"android":"levelo://app?vid=810d63c4-6cdb-4cc8-9c6c-0ce71c73c04b","ios":"levelo://app?vid=810d63c4-6cdb-4cc8-9c6c-0ce71c73c04b"},"vehicle_type_id":"4","last_reported":1761139605,"current_range_meters":14400,"station_id":"ce4bgnh2rcd13ifvqc0g","pricing_plan_id":"cebpf4jnsgd1na2vs0mg"},{"bike_id":"5b2fb394-b654-4cda-abea-19d87e1a4938","system_id":"levelo_inurba_marseille","lat":43.240822,"lon":5.377519,"is_reserved":false,"is_disabled":false,"rental_uris":{"android":"levelo://app?vid=5b2fb394-b654-4cda-abea-19d87e1a4938","ios":"levelo://app?vid=5b2fb394-b654-4cda-abea-19d87e1a4938"},"vehicle_type_id":"4","last_reported":1761139605,"current_range_meters":14400,"station_id":"ce4bhnp2rcd13ifvqgvg","pricing_plan_id":"cebpf4jnsgd1na2vs0mg"},{"bike_id":"65aad121-cea7-4731-852b-6b709cdf1c89","system_id":"levelo_inurba_marseille","lat":43.337444,"lon":5.374475,"is_reserved":false,"is_disabled":false,"rental_uris":{"android":"levelo://app?vid=65aad121-cea7-4731-852b-6b709cdf1c89","ios":"levelo://app?vid=65aad121-cea7-4731-852b-6b709cdf1c89"},"vehicle_type_id":"4","last_reported":1761139605,"current_range_meters":14400,"station_id":"","pricing_plan_id":"cebpf4jnsgd1na2vs0mg"},{"bike_id":"3d7013be-dfe4-430a-97e8-197a834810ee","system_id":"levelo_inurba_marseille","lat":43.24651,"lon":5.38872,"is_reserved":false,"is_disabled":false,"rental_uris":{"android":"levelo://app?vid=3d7013be-dfe4-430a-97e8-197a834810ee","ios":"levelo://app?vid=3d7013be-dfe4-430a-97e8-197a834810ee"},"vehicle_type_id":"4","last_reported":1761139605,"current_range_meters":14800,"station_id":"ce4bhg12rcd13ifvqf60","pricing_plan_id":"cebpf4jnsgd1na2vs0mg"},{"bike_id":"27abb83e-41b9-44dd-8179-d72d6dde274c","system_id":"levelo_inurba_marseille","lat":43.284908,"lon":5.385626,"is_reserved":false,"is_disabled":false,"rental_uris":{"android":"levelo://app?vid=27abb83e-41b9-44dd-8179-d72d6dde274c","ios":"levelo://app?vid=27abb83e-41b9-44dd-8179-d72d6dde274c"},"vehicle_type_id":"4","last_reported":1761139605,"current_range_meters":14800,"station_id":"ce4bh8p2rcd13ifvqeb0","pricing_plan_id":"cebpf4jnsgd1na2vs0mg"},{"bike_id":"b61e6817-4496-4ad7-ab43-b524af2e26e5","system_id":"levelo_inurba_marseille","lat":43.2866,"lon":5.38661,"is_reserved":false,"is_disabled":false,"rental_uris":{"android":"levelo://app?vid=b61e6817-4496-4ad7-ab43-b524af2e26e5","ios":"levelo://app?vid=b61e6817-4496-4ad7-ab43-b524af2e26e5"},"vehicle_type_id":"4","last_reported":1761139605,"current_range_meters":14800,"station_id":"","pricing_plan_id":"cebpf4jnsgd1na2vs0mg"},{"bike_id":"07e992db-48e1-481b-a50e-3b491cfc1455","system_id":"levelo_inurba_marseille","lat":43.31991,"lon":5.41291,"is_reserved":false,"is_disabled":false,"rental_uris":{"android":"levelo://app?vid=07e992db-48e1-481b-a50e-3b491cfc1455","ios":"levelo://app?vid=07e992db-48e1-481b-a50e-3b491cfc1455"},"vehicle_type_id":"4","last_reported":1761139605,"current_range_meters":14800,"station_id":"","pricing_plan_id":"cebpf4jnsgd1na2vs0mg"},{"bike_id":"e05cf6fe-17e9-4d13-abcc-bccc2d26988e","system_id":"levelo_inurba_marseille","lat":43.28682,"lon":5.38668,"is_reserved":false,"is_disabled":false,"rental_uris":{"android":"levelo://app?vid=e05cf6fe-17e9-4d13-abcc-bccc2d26988e","ios":"levelo://app?vid=e05cf6fe-17e9-4d13-abcc-bccc2d26988e"},"vehicle_type_id":"4","last_reported":1761139605,"current_range_meters":14800,"station_id":"ce4bh492rcd13ifvqdug","pricing_plan_id":"cebpf4jnsgd1na2vs0mg"},{"bike_id":"57d2cb7f-a78d-45e9-a8da-8b95e41c2362","system_id":"levelo_inurba_marseille","lat":43.29069,"lon":5.37155,"is_reserved":false,"is_disabled":false,"rental_uris":{"android":"levelo://app?vid=57d2cb7f-a78d-45e9-a8da-8b95e41c2362","ios":"levelo://app?vid=57d2cb7f-a78d-45e9-a8da-8b95e41c2362"},"vehicle_type_id":"4","last_reported":1761139605,"current_range_meters":15200,"station_id":"ce4bh5p2rcd13ifvqe4g","pricing_plan_id":"cebpf4jnsgd1na2vs0mg"},{"bike_id":"e01c0407-9fea-4afc-844a-8e1d738fcda5","system_id":"levelo_inurba_marseille","lat":43.241706,"lon":5.36396,"is_reserved":false,"is_disabled":false,"rental_uris":{"android":"levelo://app?vid=e01c0407-9fea-4afc-844a-8e1d738fcda5","ios":"levelo://app?vid=e01c0407-9fea-4afc-844a-8e1d738fcda5"},"vehicle_type_id":"4","last_reported":1761139605,"current_range_meters":15200,"station_id":"cpo36qri1sfpv3e86is0","pricing_plan_id":"cebpf4jnsgd1na2vs0mg"},{"bike_id":"0529bcda-9068-46b1-a2d9-aaf824a26d2e","system_id":"levelo_inurba_marseille","lat":43.22566,"lon":5.41625,"is_reserved":false,"is_disabled":false,"rental_uris":{"android":"levelo://app?vid=0529bcda-9068-46b1-a2d9-aaf824a26d2e","ios":"levelo://app?vid=0529bcda-9068-46b1-a2d9-aaf824a26d2e"},"vehicle_type_id":"4","last_reported":1761139605,"current_range_meters":15200,"station_id":"st_d2o4gvlbi1j2169b742g","pricing_plan_id":"cebpf4jnsgd1na2vs0mg"},{"bike_id":"e7709aff-f080-4c40-b225-77642ea3c5cc","system_id":"levelo_inurba_marseille","lat":43.241653,"lon":5.364009,"is_reserved":false,"is_disabled":false,"rental_uris":{"android":"levelo://app?vid=e7709aff-f080-4c40-b225-77642ea3c5cc","ios":"levelo://app?vid=e7709aff-f080-4c40-b225-77642ea3c5cc"},"vehicle_type_id":"4","last_reported":1761139605,"current_range_meters":15200,"station_id":"cpo36qri1sfpv3e86is0","pricing_plan_id":"cebpf4jnsgd1na2vs0mg"},{"bike_id":"9870a68d-ae62-4bec-82c3-a7443a850bdc","system_id":"levelo_inurba_marseille","lat":43.31289,"lon":5.37776,"is_reserved":false,"is_disabled":false,"rental_uris":{"android":"levelo://app?vid=9870a68d-ae62-4bec-82c3-a7443a850bdc","ios":"levelo://app?vid=9870a68d-ae62-4bec-82c3-a7443a850bdc"},"vehicle_type_id":"4","last_reported":1761139605,"current_range_meters":16000,"station_id":"","pricing_plan_id":"cebpf4jnsgd1na2vs0mg"},{"bike_id":"9d8bcd8e-8ecf-425f-98ef-b7c9398172e2","system_id":"levelo_inurba_marseille","lat":43.32355,"lon":5.36759,"is_reserved":false,"is_disabled":false,"rental_uris":{"android":"levelo://app?vid=9d8bcd8e-8ecf-425f-98ef-b7c9398172e2","ios":"levelo://app?vid=9d8bcd8e-8ecf-425f-98ef-b7c9398172e2"},"vehicle_type_id":"4","last_reported":1761139605,"current_range_meters":16000,"station_id":"ce4bhsh2rcd13ifvqi2g","pricing_plan_id":"cebpf4jnsgd1na2vs0mg"},{"bike_id":"dc9944ee-02b2-4bc9-a8c7-ea6b7f3ef928","system_id":"levelo_inurba_marseille","lat":43.29217,"lon":5.36081,"is_reserved":false,"is_disabled":false,"rental_uris":{"android":"levelo://app?vid=dc9944ee-02b2-4bc9-a8c7-ea6b7f3ef928","ios":"levelo://app?vid=dc9944ee-02b2-4bc9-a8c7-ea6b7f3ef928"},"vehicle_type_id":"4","last_reported":1761139605,"current_range_meters":16000,"station_id":"ce4bhbh2rcd13ifvqeqg","pricing_plan_id":"cebpf4jnsgd1na2vs0mg"},{"bike_id":"c6c2dba1-db81-4cd1-9c62-d4db3c03abcc","system_id":"levelo_inurba_marseille","lat":43.255768,"lon":5.382393,"is_reserved":false,"is_disabled":false,"rental_uris":{"android":"levelo://app?vid=c6c2dba1-db81-4cd1-9c62-d4db3c03abcc","ios":"levelo://app?vid=c6c2dba1-db81-4cd1-9c62-d4db3c03abcc"},"vehicle_type_id":"4","last_reported":1761139605,"current_range_meters":16000,"station_id":"ce4bhih2rcd13ifvqfs0","pricing_plan_id":"cebpf4jnsgd1na2vs0mg"},{"bike_id":"f3651d3a-f86a-4516-b809-c7120ffdfa2f","system_id":"levelo_inurba_marseille","lat":43.280165,"lon":5.36952,"is_reserved":false,"is_disabled":false,"rental_uris":{"android":"levelo://app?vid=f3651d3a-f86a-4516-b809-c7120ffdfa2f","ios":"levelo://app?vid=f3651d3a-f86a-4516-b809-c7120ffdfa2f"},"vehicle_type_id":"4","last_reported":1761139605,"current_range_meters":16400,"station_id":"ce4bha12rcd13ifvqef0","pricing_plan_id":"cebpf4jnsgd1na2vs0mg"},{"bike_id":"618a9c44-e479-45b6-b144-58d3228e3132","system_id":"levelo_inurba_marseille","lat":43.2464,"lon":5.38891,"is_reserved":false,"is_disabled":false,"rental_uris":{"android":"levelo://app?vid=618a9c44-e479-45b6-b144-58d3228e3132","ios":"levelo://app?vid=618a9c44-e479-45b6-b144-58d3228e3132"},"vehicle_type_id":"4","last_reported":1761139605,"current_range_meters":16400,"station_id":"ce4bhg12rcd13ifvqf60","pricing_plan_id":"cebpf4jnsgd1na2vs0mg"},{"bike_id":"042b51df-71d2-40e9-9102-008e9be6293c","system_id":"levelo_inurba_marseille","lat":43.3173,"lon":5.40443,"is_reserved":false,"is_disabled":false,"rental_uris":{"android":"levelo://app?vid=042b51df-71d2-40e9-9102-008e9be6293c","ios":"levelo://app?vid=042b51df-71d2-40e9-9102-008e9be6293c"},"vehicle_type_id":"4","last_reported":1761139605,"current_range_meters":16400,"station_id":"","pricing_plan_id":"cebpf4jnsgd1na2vs0mg"},{"bike_id":"b3b13e92-d401-45af-ad84-a41c7bbeb5fe","system_id":"levelo_inurba_marseille","lat":43.30976,"lon":5.37493,"is_reserved":false,"is_disabled":false,"rental_uris":{"android":"levelo://app?vid=b3b13e92-d401-45af-ad84-a41c7bbeb5fe","ios":"levelo://app?vid=b3b13e92-d401-45af-ad84-a41c7bbeb5fe"},"vehicle_type_id":"4","last_reported":1761139605,"current_range_meters":16400,"station_id":"","pricing_plan_id":"cebpf4jnsgd1na2vs0mg"},{"bike_id":"4eae2ec4-8862-466e-a3d9-395cca4276d0","system_id":"levelo_inurba_marseille","lat":43.303186,"lon":5.375239,"is_reserved":false,"is_disabled":false,"rental_uris":{"android":"levelo://app?vid=4eae2ec4-8862-466e-a3d9-395cca4276d0","ios":"levelo://app?vid=4eae2ec4-8862-466e-a3d9-395cca4276d0"},"vehicle_type_id":"4","last_reported":1761139605,"current_range_meters":16400,"station_id":"","pricing_plan_id":"cebpf4jnsgd1na2vs0mg"},{"bike_id":"3abbd900-1b74-4506-b88f-92a5e11ace75","system_id":"levelo_inurba_marseille","lat":43.26955,"lon":5.38633,"is_reserved":false,"is_disabled":false,"rental_uris":{"android":"levelo://app?vid=3abbd900-1b74-4506-b88f-92a5e11ace75","ios":"levelo://app?vid=3abbd900-1b74-4506-b88f-92a5e11ace75"},"vehicle_type_id":"4","last_reported":1761139605,"current_range_meters":16400,"station_id":"ce4bhh92rcd13ifvqfh0","pricing_plan_id":"cebpf4jnsgd1na2vs0mg"},{"bike_id":"fdd755e3-5e07-4406-bd14-e9d9fe22e2ff","system_id":"levelo_inurba_marseille","lat":43.21194,"lon":5.35074,"is_reserved":false,"is_disabled":false,"rental_uris":{"android":"levelo://app?vid=fdd755e3-5e07-4406-bd14-e9d9fe22e2ff","ios":"levelo://app?vid=fdd755e3-5e07-4406-bd14-e9d9fe22e2ff"},"vehicle_type_id":"4","last_reported":1761139605,"current_range_meters":16400,"station_id":"","pricing_plan_id":"cebpf4jnsgd1na2vs0mg"},{"bike_id":"a79c6bd1-700c-48dd-854c-b0af28c99022","system_id":"levelo_inurba_marseille","lat":43.24645,"lon":5.43158,"is_reserved":false,"is_disabled":false,"rental_uris":{"android":"levelo://app?vid=a79c6bd1-700c-48dd-854c-b0af28c99022","ios":"levelo://app?vid=a79c6bd1-700c-48dd-854c-b0af28c99022"},"vehicle_type_id":"4","last_reported":1761139605,"current_range_meters":16400,"station_id":"st_d2m6c4gdas8pm72e190g","pricing_plan_id":"cebpf4jnsgd1na2vs0mg"},{"bike_id":"0ec4ef5d-d495-417b-9bb4-a7234e30b1f5","system_id":"levelo_inurba_marseille","lat":43.245428,"lon":5.395212,"is_reserved":false,"is_disabled":false,"rental_uris":{"android":"levelo://app?vid=0ec4ef5d-d495-417b-9bb4-a7234e30b1f5","ios":"levelo://app?vid=0ec4ef5d-d495-417b-9bb4-a7234e30b1f5"},"vehicle_type_id":"4","last_reported":1761139605,"current_range_meters":16800,"station_id":"ce4bhlp2rcd13ifvqgjg","pricing_plan_id":"cebpf4jnsgd1na2vs0mg"},{"bike_id":"2ff2319d-129a-4d22-a25d-01d96c2dcbc1","system_id":"levelo_inurba_marseille","lat":43.24648,"lon":5.38884,"is_reserved":false,"is_disabled":false,"rental_uris":{"android":"levelo://app?vid=2ff2319d-129a-4d22-a25d-01d96c2dcbc1","ios":"levelo://app?vid=2ff2319d-129a-4d22-a25d-01d96c2dcbc1"},"vehicle_type_id":"4","last_reported":1761139605,"current_range_meters":16800,"station_id":"ce4bhg12rcd13ifvqf60","pricing_plan_id":"cebpf4jnsgd1na2vs0mg"},{"bike_id":"0cf9e2b8-85c8-4cfa-8657-8b253a599faf","system_id":"levelo_inurba_marseille","lat":43.29279,"lon":5.36852,"is_reserved":false,"is_disabled":false,"rental_uris":{"android":"levelo://app?vid=0cf9e2b8-85c8-4cfa-8657-8b253a599faf","ios":"levelo://app?vid=0cf9e2b8-85c8-4cfa-8657-8b253a599faf"},"vehicle_type_id":"4","last_reported":1761139605,"current_range_meters":16800,"station_id":"ce4bhbp2rcd13ifvqesg","pricing_plan_id":"cebpf4jnsgd1na2vs0mg"},{"bike_id":"c6df92e6-442a-4f75-9a45-f2766c4a930c","system_id":"levelo_inurba_marseille","lat":43.22559,"lon":5.41633,"is_reserved":false,"is_disabled":false,"rental_uris":{"android":"levelo://app?vid=c6df92e6-442a-4f75-9a45-f2766c4a930c","ios":"levelo://app?vid=c6df92e6-442a-4f75-9a45-f2766c4a930c"},"vehicle_type_id":"4","last_reported":1761139605,"current_range_meters":17200,"station_id":"st_d2o4gvlbi1j2169b742g","pricing_plan_id":"cebpf4jnsgd1na2vs0mg"},{"bike_id":"c8c0fa58-a519-4343-9887-b0c694f93aef","system_id":"levelo_inurba_marseille","lat":43.28868,"lon":5.42515,"is_reserved":false,"is_disabled":false,"rental_uris":{"android":"levelo://app?vid=c8c0fa58-a519-4343-9887-b0c694f93aef","ios":"levelo://app?vid=c8c0fa58-a519-4343-9887-b0c694f93aef"},"vehicle_type_id":"4","last_reported":1761139605,"current_range_meters":17200,"station_id":"st_d3b462108ojc7389ooeg","pricing_plan_id":"cebpf4jnsgd1na2vs0mg"},{"bike_id":"612b7784-911c-4890-a540-330f9d5f4992","system_id":"levelo_inurba_marseille","lat":43.24167,"lon":5.36413,"is_reserved":false,"is_disabled":false,"rental_uris":{"android":"levelo://app?vid=612b7784-911c-4890-a540-330f9d5f4992","ios":"levelo://app?vid=612b7784-911c-4890-a540-330f9d5f4992"},"vehicle_type_id":"4","last_reported":1761139605,"current_range_meters":17200,"station_id":"cpo36qri1sfpv3e86is0","pricing_plan_id":"cebpf4jnsgd1na2vs0mg"},{"bike_id":"564a64b9-b25b-424e-83ad-05539958ef64","system_id":"levelo_inurba_marseille","lat":43.27495,"lon":5.42457,"is_reserved":false,"is_disabled":false,"rental_uris":{"android":"levelo://app?vid=564a64b9-b25b-424e-83ad-05539958ef64","ios":"levelo://app?vid=564a64b9-b25b-424e-83ad-05539958ef64"},"vehicle_type_id":"4","last_reported":1761139605,"current_range_meters":17200,"station_id":"ce4bhn92rcd13ifvqgrg","pricing_plan_id":"cebpf4jnsgd1na2vs0mg"},{"bike_id":"1db58ee4-5c7d-4ef1-8a33-4047f3a1feb6","system_id":"levelo_inurba_marseille","lat":43.32536,"lon":5.41471,"is_reserved":false,"is_disabled":false,"rental_uris":{"android":"levelo://app?vid=1db58ee4-5c7d-4ef1-8a33-4047f3a1feb6","ios":"levelo://app?vid=1db58ee4-5c7d-4ef1-8a33-4047f3a1feb6"},"vehicle_type_id":"4","last_reported":1761139605,"current_range_meters":17200,"station_id":"ce4bhq12rcd13ifvqhhg","pricing_plan_id":"cebpf4jnsgd1na2vs0mg"},{"bike_id":"f038f9cf-03b9-482c-b99c-1dd91d8a8091","system_id":"levelo_inurba_marseille","lat":43.298023,"lon":5.381016,"is_reserved":false,"is_disabled":false,"rental_uris":{"android":"levelo://app?vid=f038f9cf-03b9-482c-b99c-1dd91d8a8091","ios":"levelo://app?vid=f038f9cf-03b9-482c-b99c-1dd91d8a8091"},"vehicle_type_id":"4","last_reported":1761139605,"current_range_meters":17600,"station_id":"ce4bgip2rcd13ifvqbb0","pricing_plan_id":"cebpf4jnsgd1na2vs0mg"},{"bike_id":"61525fe3-26d4-4c5c-a075-e59599c296c4","system_id":"levelo_inurba_marseille","lat":43.31443,"lon":5.39295,"is_reserved":false,"is_disabled":false,"rental_uris":{"android":"levelo://app?vid=61525fe3-26d4-4c5c-a075-e59599c296c4","ios":"levelo://app?vid=61525fe3-26d4-4c5c-a075-e59599c296c4"},"vehicle_type_id":"4","last_reported":1761139605,"current_range_meters":17600,"station_id":"","pricing_plan_id":"cebpf4jnsgd1na2vs0mg"},{"bike_id":"d4da7a79-ca5e-4367-bfbd-cf0176fdbd36","system_id":"levelo_inurba_marseille","lat":43.30527,"lon":5.36558,"is_reserved":false,"is_disabled":false,"rental_uris":{"android":"levelo://app?vid=d4da7a79-ca5e-4367-bfbd-cf0176fdbd36","ios":"levelo://app?vid=d4da7a79-ca5e-4367-bfbd-cf0176fdbd36"},"vehicle_type_id":"4","last_reported":1761139605,"current_range_meters":17600,"station_id":"","pricing_plan_id":"cebpf4jnsgd1na2vs0mg"},{"bike_id":"c1cb0066-3084-49ff-ac5b-14713d88e12a","system_id":"levelo_inurba_marseille","lat":43.29285,"lon":5.40106,"is_reserved":false,"is_disabled":false,"rental_uris":{"android":"levelo://app?vid=c1cb0066-3084-49ff-ac5b-14713d88e12a","ios":"levelo://app?vid=c1cb0066-3084-49ff-ac5b-14713d88e12a"},"vehicle_type_id":"4","last_reported":1761139605,"current_range_meters":17600,"station_id":"ce4bh312rcd13ifvqdk0","pricing_plan_id":"cebpf4jnsgd1na2vs0mg"},{"bike_id":"f7d56753-2272-46c2-8241-b58356af4f88","system_id":"levelo_inurba_marseille","lat":43.26554,"lon":5.37284,"is_reserved":false,"is_disabled":false,"rental_uris":{"android":"levelo://app?vid=f7d56753-2272-46c2-8241-b58356af4f88","ios":"levelo://app?vid=f7d56753-2272-46c2-8241-b58356af4f88"},"vehicle_type_id":"4","last_reported":1761139605,"current_range_meters":17600,"station_id":"ce4bhg12rcd13ifvqf70","pricing_plan_id":"cebpf4jnsgd1na2vs0mg"},{"bike_id":"d9336592-cd04-410a-9218-86cdf933169a","system_id":"levelo_inurba_marseille","lat":43.28687,"lon":5.38666,"is_reserved":false,"is_disabled":false,"rental_uris":{"android":"levelo://app?vid=d9336592-cd04-410a-9218-86cdf933169a","ios":"levelo://app?vid=d9336592-cd04-410a-9218-86cdf933169a"},"vehicle_type_id":"4","last_reported":1761139605,"current_range_meters":17600,"station_id":"ce4bh492rcd13ifvqdug","pricing_plan_id":"cebpf4jnsgd1na2vs0mg"},{"bike_id":"55e90a26-98e4-4248-854f-c415996cafea","system_id":"levelo_inurba_marseille","lat":43.33769,"lon":5.37429,"is_reserved":false,"is_disabled":false,"rental_uris":{"android":"levelo://app?vid=55e90a26-98e4-4248-854f-c415996cafea","ios":"levelo://app?vid=55e90a26-98e4-4248-854f-c415996cafea"},"vehicle_type_id":"4","last_reported":1761139605,"current_range_meters":17600,"station_id":"","pricing_plan_id":"cebpf4jnsgd1na2vs0mg"},{"bike_id":"d2ce0a78-587a-4e24-8b00-2094e297eb58","system_id":"levelo_inurba_marseille","lat":43.26945,"lon":5.38626,"is_reserved":false,"is_disabled":false,"rental_uris":{"android":"levelo://app?vid=d2ce0a78-587a-4e24-8b00-2094e297eb58","ios":"levelo://app?vid=d2ce0a78-587a-4e24-8b00-2094e297eb58"},"vehicle_type_id":"4","last_reported":1761139605,"current_range_meters":18000,"station_id":"ce4bhh92rcd13ifvqfh0","pricing_plan_id":"cebpf4jnsgd1na2vs0mg"},{"bike_id":"a7b3f518-6d8d-49e1-adf7-716a6afb422e","system_id":"levelo_inurba_marseille","lat":43.29709,"lon":5.3661,"is_reserved":false,"is_disabled":false,"rental_uris":{"android":"levelo://app?vid=a7b3f518-6d8d-49e1-adf7-716a6afb422e","ios":"levelo://app?vid=a7b3f518-6d8d-49e1-adf7-716a6afb422e"},"vehicle_type_id":"4","last_reported":1761139605,"current_range_meters":18000,"station_id":"ce4bgn12rcd13ifvqbt0","pricing_plan_id":"cebpf4jnsgd1na2vs0mg"},{"bike_id":"4c2b5c5f-ac7a-43d4-a4ed-480a42d5e982","system_id":"levelo_inurba_marseille","lat":43.33921,"lon":5.39762,"is_reserved":false,"is_disabled":false,"rental_uris":{"android":"levelo://app?vid=4c2b5c5f-ac7a-43d4-a4ed-480a42d5e982","ios":"levelo://app?vid=4c2b5c5f-ac7a-43d4-a4ed-480a42d5e982"},"vehicle_type_id":"4","last_reported":1761139605,"current_range_meters":18000,"station_id":"","pricing_plan_id":"cebpf4jnsgd1na2vs0mg"},{"bike_id":"907b3256-3d6e-4fd7-9070-a59275cdd532","system_id":"levelo_inurba_marseille","lat":43.3043,"lon":5.3974,"is_reserved":false,"is_disabled":false,"rental_uris":{"android":"levelo://app?vid=907b3256-3d6e-4fd7-9070-a59275cdd532","ios":"levelo://app?vid=907b3256-3d6e-4fd7-9070-a59275cdd532"},"vehicle_type_id":"4","last_reported":1761139605,"current_range_meters":18000,"station_id":"ce4bh092rcd13ifvqd20","pricing_plan_id":"cebpf4jnsgd1na2vs0mg"},{"bike_id":"fc088b50-e903-4413-b68e-3a2b8a695866","system_id":"levelo_inurba_marseille","lat":43.24629,"lon":5.43132,"is_reserved":false,"is_disabled":false,"rental_uris":{"android":"levelo://app?vid=fc088b50-e903-4413-b68e-3a2b8a695866","ios":"levelo://app?vid=fc088b50-e903-4413-b68e-3a2b8a695866"},"vehicle_type_id":"4","last_reported":1761139605,"current_range_meters":18000,"station_id":"st_d2m6c4gdas8pm72e190g","pricing_plan_id":"cebpf4jnsgd1na2vs0mg"},{"bike_id":"622a446d-7aa9-48f8-a28a-4bdb017917b6","system_id":"levelo_inurba_marseille","lat":43.30171,"lon":5.38098,"is_reserved":false,"is_disabled":false,"rental_uris":{"android":"levelo://app?vid=622a446d-7aa9-48f8-a28a-4bdb017917b6","ios":"levelo://app?vid=622a446d-7aa9-48f8-a28a-4bdb017917b6"},"vehicle_type_id":"4","last_reported":1761139605,"current_range_meters":18000,"station_id":"ce4bgjp2rcd13ifvqbh0","pricing_plan_id":"cebpf4jnsgd1na2vs0mg"},{"bike_id":"bda3ed1a-3199-4eb8-8229-577855d09dbb","system_id":"levelo_inurba_marseille","lat":43.3163,"lon":5.37876,"is_reserved":false,"is_disabled":false,"rental_uris":{"android":"levelo://app?vid=bda3ed1a-3199-4eb8-8229-577855d09dbb","ios":"levelo://app?vid=bda3ed1a-3199-4eb8-8229-577855d09dbb"},"vehicle_type_id":"4","last_reported":1761139605,"current_range_meters":18000,"station_id":"","pricing_plan_id":"cebpf4jnsgd1na2vs0mg"},{"bike_id":"09f2ac65-5a04-431a-a5cc-cb096a1f815f","system_id":"levelo_inurba_marseille","lat":43.292,"lon":5.3604,"is_reserved":false,"is_disabled":true,"rental_uris":{"android":"levelo://app?vid=09f2ac65-5a04-431a-a5cc-cb096a1f815f","ios":"levelo://app?vid=09f2ac65-5a04-431a-a5cc-cb096a1f815f"},"vehicle_type_id":"4","last_reported":1761139605,"current_range_meters":18000,"station_id":"ce4bhbh2rcd13ifvqeqg","pricing_plan_id":"cebpf4jnsgd1na2vs0mg"},{"bike_id":"9393f9ef-7253-457f-bdcb-e284d908af29","system_id":"levelo_inurba_marseille","lat":43.28852,"lon":5.35839,"is_reserved":false,"is_disabled":false,"rental_uris":{"android":"levelo://app?vid=9393f9ef-7253-457f-bdcb-e284d908af29","ios":"levelo://app?vid=9393f9ef-7253-457f-bdcb-e284d908af29"},"vehicle_type_id":"4","last_reported":1761139605,"current_range_meters":18000,"station_id":"ce4bhb12rcd13ifvqem0","pricing_plan_id":"cebpf4jnsgd1na2vs0mg"},{"bike_id":"d9247930-f477-4727-872b-24c5b02f6614","system_id":"levelo_inurba_marseille","lat":43.27166,"lon":5.41005,"is_reserved":false,"is_disabled":false,"rental_uris":{"android":"levelo://app?vid=d9247930-f477-4727-872b-24c5b02f6614","ios":"levelo://app?vid=d9247930-f477-4727-872b-24c5b02f6614"},"vehicle_type_id":"4","last_reported":1761139605,"current_range_meters":18000,"station_id":"ce4bhl12rcd13ifvqgf0","pricing_plan_id":"cebpf4jnsgd1na2vs0mg"},{"bike_id":"add8595b-d59c-4c23-8a84-db3391c93ebd","system_id":"levelo_inurba_marseille","lat":43.27902,"lon":5.38009,"is_reserved":false,"is_disabled":false,"rental_uris":{"android":"levelo://app?vid=add8595b-d59c-4c23-8a84-db3391c93ebd","ios":"levelo://app?vid=add8595b-d59c-4c23-8a84-db3391c93ebd"},"vehicle_type_id":"4","last_reported":1761139605,"current_range_meters":18800,"station_id":"ce4bhf92rcd13ifvqf50","pricing_plan_id":"cebpf4jnsgd1na2vs0mg"},{"bike_id":"e3ca91a6-cfea-4ecc-af81-039b2e89a9d4","system_id":"levelo_inurba_marseille","lat":43.24383,"lon":5.37058,"is_reserved":false,"is_disabled":false,"rental_uris":{"android":"levelo://app?vid=e3ca91a6-cfea-4ecc-af81-039b2e89a9d4","ios":"levelo://app?vid=e3ca91a6-cfea-4ecc-af81-039b2e89a9d4"},"vehicle_type_id":"4","last_reported":1761139605,"current_range_meters":18800,"station_id":"ce4bhhh2rcd13ifvqfk0","pricing_plan_id":"cebpf4jnsgd1na2vs0mg"},{"bike_id":"2a22829e-2bd6-41ec-a3e5-ef826e7425d3","system_id":"levelo_inurba_marseille","lat":43.32091,"lon":5.36795,"is_reserved":false,"is_disabled":false,"rental_uris":{"android":"levelo://app?vid=2a22829e-2bd6-41ec-a3e5-ef826e7425d3","ios":"levelo://app?vid=2a22829e-2bd6-41ec-a3e5-ef826e7425d3"},"vehicle_type_id":"4","last_reported":1761139605,"current_range_meters":18800,"station_id":"ce4bhrh2rcd13ifvqhug","pricing_plan_id":"cebpf4jnsgd1na2vs0mg"},{"bike_id":"bc1ce556-4f70-40b2-a104-08b26a535c74","system_id":"levelo_inurba_marseille","lat":43.22564,"lon":5.41634,"is_reserved":false,"is_disabled":false,"rental_uris":{"android":"levelo://app?vid=bc1ce556-4f70-40b2-a104-08b26a535c74","ios":"levelo://app?vid=bc1ce556-4f70-40b2-a104-08b26a535c74"},"vehicle_type_id":"4","last_reported":1761139605,"current_range_meters":18800,"station_id":"st_d2o4gvlbi1j2169b742g","pricing_plan_id":"cebpf4jnsgd1na2vs0mg"},{"bike_id":"900512a2-14c6-421d-969e-c3dc812fd854","system_id":"levelo_inurba_marseille","lat":43.290305,"lon":5.372418,"is_reserved":false,"is_disabled":false,"rental_uris":{"android":"levelo://app?vid=900512a2-14c6-421d-969e-c3dc812fd854","ios":"levelo://app?vid=900512a2-14c6-421d-969e-c3dc812fd854"},"vehicle_type_id":"4","last_reported":1761139605,"current_range_meters":18800,"station_id":"","pricing_plan_id":"cebpf4jnsgd1na2vs0mg"},{"bike_id":"3845b435-b44c-4d46-b19f-33c89d81e372","system_id":"levelo_inurba_marseille","lat":43.263548,"lon":5.396411,"is_reserved":false,"is_disabled":false,"rental_uris":{"android":"levelo://app?vid=3845b435-b44c-4d46-b19f-33c89d81e372","ios":"levelo://app?vid=3845b435-b44c-4d46-b19f-33c89d81e372"},"vehicle_type_id":"4","last_reported":1761139605,"current_range_meters":18800,"station_id":"ce4bhi12rcd13ifvqfq0","pricing_plan_id":"cebpf4jnsgd1na2vs0mg"},{"bike_id":"ed210678-a2a0-494b-bc7d-51247be12ed0","system_id":"levelo_inurba_marseille","lat":43.29632,"lon":5.37711,"is_reserved":false,"is_disabled":false,"rental_uris":{"android":"levelo://app?vid=ed210678-a2a0-494b-bc7d-51247be12ed0","ios":"levelo://app?vid=ed210678-a2a0-494b-bc7d-51247be12ed0"},"vehicle_type_id":"4","last_reported":1761139605,"current_range_meters":19200,"station_id":"ce4bgi92rcd13ifvqb90","pricing_plan_id":"cebpf4jnsgd1na2vs0mg"},{"bike_id":"5b9f2b11-68fa-452c-8220-caca93cb8cbe","system_id":"levelo_inurba_marseille","lat":43.31119,"lon":5.37769,"is_reserved":false,"is_disabled":false,"rental_uris":{"android":"levelo://app?vid=5b9f2b11-68fa-452c-8220-caca93cb8cbe","ios":"levelo://app?vid=5b9f2b11-68fa-452c-8220-caca93cb8cbe"},"vehicle_type_id":"4","last_reported":1761139605,"current_range_meters":19200,"station_id":"ce4bgt92rcd13ifvqcg0","pricing_plan_id":"cebpf4jnsgd1na2vs0mg"},{"bike_id":"75eebb0f-2447-4bf8-b846-45b5b359059b","system_id":"levelo_inurba_marseille","lat":43.337572,"lon":5.374903,"is_reserved":false,"is_disabled":false,"rental_uris":{"android":"levelo://app?vid=75eebb0f-2447-4bf8-b846-45b5b359059b","ios":"levelo://app?vid=75eebb0f-2447-4bf8-b846-45b5b359059b"},"vehicle_type_id":"4","last_reported":1761139605,"current_range_meters":19200,"station_id":"","pricing_plan_id":"cebpf4jnsgd1na2vs0mg"},{"bike_id":"626ccd4e-cb9a-4d24-9bb6-0db488c92934","system_id":"levelo_inurba_marseille","lat":43.28458,"lon":5.35877,"is_reserved":false,"is_disabled":false,"rental_uris":{"android":"levelo://app?vid=626ccd4e-cb9a-4d24-9bb6-0db488c92934","ios":"levelo://app?vid=626ccd4e-cb9a-4d24-9bb6-0db488c92934"},"vehicle_type_id":"4","last_reported":1761139605,"current_range_meters":19200,"station_id":"ce4bhah2rcd13ifvqei0","pricing_plan_id":"cebpf4jnsgd1na2vs0mg"},{"bike_id":"a72f33d4-c8c3-41c7-9f2f-0c59907fcbba","system_id":"levelo_inurba_marseille","lat":43.273751,"lon":5.362626,"is_reserved":false,"is_disabled":false,"rental_uris":{"android":"levelo://app?vid=a72f33d4-c8c3-41c7-9f2f-0c59907fcbba","ios":"levelo://app?vid=a72f33d4-c8c3-41c7-9f2f-0c59907fcbba"},"vehicle_type_id":"4","last_reported":1761139605,"current_range_meters":19200,"station_id":"ce4bhbh2rcd13ifvqeo0","pricing_plan_id":"cebpf4jnsgd1na2vs0mg"},{"bike_id":"692a999f-f646-43fe-b949-d58fd32447f4","system_id":"levelo_inurba_marseille","lat":43.32551,"lon":5.39007,"is_reserved":false,"is_disabled":false,"rental_uris":{"android":"levelo://app?vid=692a999f-f646-43fe-b949-d58fd32447f4","ios":"levelo://app?vid=692a999f-f646-43fe-b949-d58fd32447f4"},"vehicle_type_id":"4","last_reported":1761139605,"current_range_meters":19200,"station_id":"","pricing_plan_id":"cebpf4jnsgd1na2vs0mg"},{"bike_id":"13ffca06-ecc4-46ee-aa82-6818647126c8","system_id":"levelo_inurba_marseille","lat":43.299055,"lon":5.436718,"is_reserved":false,"is_disabled":false,"rental_uris":{"android":"levelo://app?vid=13ffca06-ecc4-46ee-aa82-6818647126c8","ios":"levelo://app?vid=13ffca06-ecc4-46ee-aa82-6818647126c8"},"vehicle_type_id":"4","last_reported":1761139605,"current_range_meters":19200,"station_id":"ce4bhpp2rcd13ifvqhfg","pricing_plan_id":"cebpf4jnsgd1na2vs0mg"},{"bike_id":"39c546bc-5d21-4b74-b9a1-0393fbd8f209","system_id":"levelo_inurba_marseille","lat":43.25336,"lon":5.42173,"is_reserved":false,"is_disabled":false,"rental_uris":{"android":"levelo://app?vid=39c546bc-5d21-4b74-b9a1-0393fbd8f209","ios":"levelo://app?vid=39c546bc-5d21-4b74-b9a1-0393fbd8f209"},"vehicle_type_id":"4","last_reported":1761139605,"current_range_meters":19600,"station_id":"st_d2m65c5bi1j21697t3ng","pricing_plan_id":"cebpf4jnsgd1na2vs0mg"},{"bike_id":"3b139051-8b17-4e6a-9c9e-0ba0ddb720db","system_id":"levelo_inurba_marseille","lat":43.24384,"lon":5.37053,"is_reserved":false,"is_disabled":false,"rental_uris":{"android":"levelo://app?vid=3b139051-8b17-4e6a-9c9e-0ba0ddb720db","ios":"levelo://app?vid=3b139051-8b17-4e6a-9c9e-0ba0ddb720db"},"vehicle_type_id":"4","last_reported":1761139605,"current_range_meters":19600,"station_id":"ce4bhhh2rcd13ifvqfk0","pricing_plan_id":"cebpf4jnsgd1na2vs0mg"},{"bike_id":"7e29b7b2-0f9f-45d3-8c19-2b59c104f08b","system_id":"levelo_inurba_marseille","lat":43.30313,"lon":5.36895,"is_reserved":false,"is_disabled":false,"rental_uris":{"android":"levelo://app?vid=7e29b7b2-0f9f-45d3-8c19-2b59c104f08b","ios":"levelo://app?vid=7e29b7b2-0f9f-45d3-8c19-2b59c104f08b"},"vehicle_type_id":"4","last_reported":1761139605,"current_range_meters":19600,"station_id":"ce4bgqh2rcd13ifvqc5g","pricing_plan_id":"cebpf4jnsgd1na2vs0mg"},{"bike_id":"8e083eb0-8e91-489f-9872-e07db6032d2c","system_id":"levelo_inurba_marseille","lat":43.24812,"lon":5.37462,"is_reserved":false,"is_disabled":false,"rental_uris":{"android":"levelo://app?vid=8e083eb0-8e91-489f-9872-e07db6032d2c","ios":"levelo://app?vid=8e083eb0-8e91-489f-9872-e07db6032d2c"},"vehicle_type_id":"4","last_reported":1761139605,"current_range_meters":19600,"station_id":"ce4bhgh2rcd13ifvqfb0","pricing_plan_id":"cebpf4jnsgd1na2vs0mg"},{"bike_id":"1dc5babf-690c-4c68-8e7c-b6a54d9a46f4","system_id":"levelo_inurba_marseille","lat":43.276301,"lon":5.397064,"is_reserved":false,"is_disabled":false,"rental_uris":{"android":"levelo://app?vid=1dc5babf-690c-4c68-8e7c-b6a54d9a46f4","ios":"levelo://app?vid=1dc5babf-690c-4c68-8e7c-b6a54d9a46f4"},"vehicle_type_id":"4","last_reported":1761139605,"current_range_meters":19600,"station_id":"","pricing_plan_id":"cebpf4jnsgd1na2vs0mg"},{"bike_id":"0b5bc8ec-291a-4c82-a7f6-edb070266845","system_id":"levelo_inurba_marseille","lat":43.26569,"lon":5.38996,"is_reserved":false,"is_disabled":false,"rental_uris":{"android":"levelo://app?vid=0b5bc8ec-291a-4c82-a7f6-edb070266845","ios":"levelo://app?vid=0b5bc8ec-291a-4c82-a7f6-edb070266845"},"vehicle_type_id":"4","last_reported":1761139605,"current_range_meters":19600,"station_id":"ce4bhe12rcd13ifvqf30","pricing_plan_id":"cebpf4jnsgd1na2vs0mg"},{"bike_id":"4152fdc6-a5d5-4cc3-8541-f6f2eb623b6c","system_id":"levelo_inurba_marseille","lat":43.29011,"lon":5.35608,"is_reserved":false,"is_disabled":false,"rental_uris":{"android":"levelo://app?vid=4152fdc6-a5d5-4cc3-8541-f6f2eb623b6c","ios":"levelo://app?vid=4152fdc6-a5d5-4cc3-8541-f6f2eb623b6c"},"vehicle_type_id":"4","last_reported":1761139605,"current_range_meters":19600,"station_id":"ce4bhb92rcd13ifvqen0","pricing_plan_id":"cebpf4jnsgd1na2vs0mg"},{"bike_id":"4de5a3a5-3b6e-4ce7-8372-1db61e216cbe","system_id":"levelo_inurba_marseille","lat":43.246283,"lon":5.431468,"is_reserved":false,"is_disabled":false,"rental_uris":{"android":"levelo://app?vid=4de5a3a5-3b6e-4ce7-8372-1db61e216cbe","ios":"levelo://app?vid=4de5a3a5-3b6e-4ce7-8372-1db61e216cbe"},"vehicle_type_id":"4","last_reported":1761139605,"current_range_meters":19600,"station_id":"st_d2m6c4gdas8pm72e190g","pricing_plan_id":"cebpf4jnsgd1na2vs0mg"},{"bike_id":"9c023054-f387-47db-bf1d-2774b5d6d642","system_id":"levelo_inurba_marseille","lat":43.31708,"lon":5.38182,"is_reserved":false,"is_disabled":false,"rental_uris":{"android":"levelo://app?vid=9c023054-f387-47db-bf1d-2774b5d6d642","ios":"levelo://app?vid=9c023054-f387-47db-bf1d-2774b5d6d642"},"vehicle_type_id":"4","last_reported":1761139605,"current_range_meters":19600,"station_id":"","pricing_plan_id":"cebpf4jnsgd1na2vs0mg"},{"bike_id":"86181e2a-9af6-447f-b0e1-1836af49734a","system_id":"levelo_inurba_marseille","lat":43.25919,"lon":5.40872,"is_reserved":false,"is_disabled":false,"rental_uris":{"android":"levelo://app?vid=86181e2a-9af6-447f-b0e1-1836af49734a","ios":"levelo://app?vid=86181e2a-9af6-447f-b0e1-1836af49734a"},"vehicle_type_id":"4","last_reported":1761139605,"current_range_meters":19600,"station_id":"ce4bhm92rcd13ifvqglg","pricing_plan_id":"cebpf4jnsgd1na2vs0mg"},{"bike_id":"053ec618-1ba9-47eb-85ad-1fe219cf954b","system_id":"levelo_inurba_marseille","lat":43.285643,"lon":5.371032,"is_reserved":false,"is_disabled":false,"rental_uris":{"android":"levelo://app?vid=053ec618-1ba9-47eb-85ad-1fe219cf954b","ios":"levelo://app?vid=053ec618-1ba9-47eb-85ad-1fe219cf954b"},"vehicle_type_id":"4","last_reported":1761139605,"current_range_meters":19600,"station_id":"ce4bht12rcd13ifvqi60","pricing_plan_id":"cebpf4jnsgd1na2vs0mg"},{"bike_id":"6eb9cec2-9853-41d7-ad07-81e478775a6f","system_id":"levelo_inurba_marseille","lat":43.317147,"lon":5.424003,"is_reserved":false,"is_disabled":false,"rental_uris":{"android":"levelo://app?vid=6eb9cec2-9853-41d7-ad07-81e478775a6f","ios":"levelo://app?vid=6eb9cec2-9853-41d7-ad07-81e478775a6f"},"vehicle_type_id":"4","last_reported":1761139605,"current_range_meters":20000,"station_id":"ce4bhp92rcd13ifvqhbg","pricing_plan_id":"cebpf4jnsgd1na2vs0mg"},{"bike_id":"3c5bffd8-322f-4631-a714-0972e4530d4b","system_id":"levelo_inurba_marseille","lat":43.27372,"lon":5.36259,"is_reserved":false,"is_disabled":false,"rental_uris":{"android":"levelo://app?vid=3c5bffd8-322f-4631-a714-0972e4530d4b","ios":"levelo://app?vid=3c5bffd8-322f-4631-a714-0972e4530d4b"},"vehicle_type_id":"4","last_reported":1761139605,"current_range_meters":20000,"station_id":"ce4bhbh2rcd13ifvqeo0","pricing_plan_id":"cebpf4jnsgd1na2vs0mg"},{"bike_id":"26ecfd90-2879-4ffd-b3cb-633752b421a5","system_id":"levelo_inurba_marseille","lat":43.26547,"lon":5.37313,"is_reserved":false,"is_disabled":false,"rental_uris":{"android":"levelo://app?vid=26ecfd90-2879-4ffd-b3cb-633752b421a5","ios":"levelo://app?vid=26ecfd90-2879-4ffd-b3cb-633752b421a5"},"vehicle_type_id":"4","last_reported":1761139605,"current_range_meters":20000,"station_id":"ce4bhg12rcd13ifvqf70","pricing_plan_id":"cebpf4jnsgd1na2vs0mg"},{"bike_id":"79db06a8-8d0b-4f68-a2e3-4948c01bcef4","system_id":"levelo_inurba_marseille","lat":43.255916,"lon":5.382336,"is_reserved":false,"is_disabled":false,"rental_uris":{"android":"levelo://app?vid=79db06a8-8d0b-4f68-a2e3-4948c01bcef4","ios":"levelo://app?vid=79db06a8-8d0b-4f68-a2e3-4948c01bcef4"},"vehicle_type_id":"4","last_reported":1761139605,"current_range_meters":20000,"station_id":"ce4bhih2rcd13ifvqfs0","pricing_plan_id":"cebpf4jnsgd1na2vs0mg"},{"bike_id":"035ca1d7-233f-4f69-9569-4f3393764361","system_id":"levelo_inurba_marseille","lat":43.30838,"lon":5.37364,"is_reserved":false,"is_disabled":false,"rental_uris":{"android":"levelo://app?vid=035ca1d7-233f-4f69-9569-4f3393764361","ios":"levelo://app?vid=035ca1d7-233f-4f69-9569-4f3393764361"},"vehicle_type_id":"4","last_reported":1761139605,"current_range_meters":20000,"station_id":"","pricing_plan_id":"cebpf4jnsgd1na2vs0mg"},{"bike_id":"88b2962d-442b-480d-a54f-7ba286a29a00","system_id":"levelo_inurba_marseille","lat":43.31226,"lon":5.36845,"is_reserved":false,"is_disabled":false,"rental_uris":{"android":"levelo://app?vid=88b2962d-442b-480d-a54f-7ba286a29a00","ios":"levelo://app?vid=88b2962d-442b-480d-a54f-7ba286a29a00"},"vehicle_type_id":"4","last_reported":1761139605,"current_range_meters":20000,"station_id":"ce4bgl92rcd13ifvqbq0","pricing_plan_id":"cebpf4jnsgd1na2vs0mg"},{"bike_id":"8bcacd78-80de-4026-af75-b37ebe3030fe","system_id":"levelo_inurba_marseille","lat":43.334756,"lon":5.404255,"is_reserved":false,"is_disabled":false,"rental_uris":{"android":"levelo://app?vid=8bcacd78-80de-4026-af75-b37ebe3030fe","ios":"levelo://app?vid=8bcacd78-80de-4026-af75-b37ebe3030fe"},"vehicle_type_id":"4","last_reported":1761139605,"current_range_meters":20000,"station_id":"","pricing_plan_id":"cebpf4jnsgd1na2vs0mg"},{"bike_id":"f152e168-155a-435c-987f-2a8a35b715a8","system_id":"levelo_inurba_marseille","lat":43.24998,"lon":5.38943,"is_reserved":false,"is_disabled":false,"rental_uris":{"android":"levelo://app?vid=f152e168-155a-435c-987f-2a8a35b715a8","ios":"levelo://app?vid=f152e168-155a-435c-987f-2a8a35b715a8"},"vehicle_type_id":"4","last_reported":1761139605,"current_range_meters":20000,"station_id":"ce4bhgp2rcd13ifvqfd0","pricing_plan_id":"cebpf4jnsgd1na2vs0mg"},{"bike_id":"dc33fbe1-6751-494b-83b2-472acb8fa793","system_id":"levelo_inurba_marseille","lat":43.28927,"lon":5.3664,"is_reserved":false,"is_disabled":false,"rental_uris":{"android":"levelo://app?vid=dc33fbe1-6751-494b-83b2-472acb8fa793","ios":"levelo://app?vid=dc33fbe1-6751-494b-83b2-472acb8fa793"},"vehicle_type_id":"4","last_reported":1761139605,"current_range_meters":20000,"station_id":"ce4bhap2rcd13ifvqek0","pricing_plan_id":"cebpf4jnsgd1na2vs0mg"},{"bike_id":"c64df4fb-a3bf-4a60-be65-ee32dc7426f6","system_id":"levelo_inurba_marseille","lat":43.29201,"lon":5.35818,"is_reserved":false,"is_disabled":false,"rental_uris":{"android":"levelo://app?vid=c64df4fb-a3bf-4a60-be65-ee32dc7426f6","ios":"levelo://app?vid=c64df4fb-a3bf-4a60-be65-ee32dc7426f6"},"vehicle_type_id":"4","last_reported":1761139605,"current_range_meters":20400,"station_id":"ce4bhb12rcd13ifvqel0","pricing_plan_id":"cebpf4jnsgd1na2vs0mg"},{"bike_id":"642db917-5c8b-4e8d-9ef5-47fe9ef8bc7a","system_id":"levelo_inurba_marseille","lat":43.29622,"lon":5.37682,"is_reserved":false,"is_disabled":false,"rental_uris":{"android":"levelo://app?vid=642db917-5c8b-4e8d-9ef5-47fe9ef8bc7a","ios":"levelo://app?vid=642db917-5c8b-4e8d-9ef5-47fe9ef8bc7a"},"vehicle_type_id":"4","last_reported":1761139605,"current_range_meters":20400,"station_id":"ce4bgi92rcd13ifvqb90","pricing_plan_id":"cebpf4jnsgd1na2vs0mg"},{"bike_id":"e437460d-805d-4c07-9b55-237013e207ed","system_id":"levelo_inurba_marseille","lat":43.307962,"lon":5.381422,"is_reserved":false,"is_disabled":true,"rental_uris":{"android":"levelo://app?vid=e437460d-805d-4c07-9b55-237013e207ed","ios":"levelo://app?vid=e437460d-805d-4c07-9b55-237013e207ed"},"vehicle_type_id":"4","last_reported":1761139605,"current_range_meters":20400,"station_id":"ce4bgt12rcd13ifvqce0","pricing_plan_id":"cebpf4jnsgd1na2vs0mg"},{"bike_id":"d5235ab2-e60f-409d-9c34-ed5056a10518","system_id":"levelo_inurba_marseille","lat":43.28421,"lon":5.34981,"is_reserved":false,"is_disabled":false,"rental_uris":{"android":"levelo://app?vid=d5235ab2-e60f-409d-9c34-ed5056a10518","ios":"levelo://app?vid=d5235ab2-e60f-409d-9c34-ed5056a10518"},"vehicle_type_id":"4","last_reported":1761139605,"current_range_meters":20400,"station_id":"ce4bhbh2rcd13ifvqepg","pricing_plan_id":"cebpf4jnsgd1na2vs0mg"},{"bike_id":"715c3c6f-36f0-40b0-9dc1-9a0103071b2d","system_id":"levelo_inurba_marseille","lat":43.25884,"lon":5.39905,"is_reserved":false,"is_disabled":false,"rental_uris":{"android":"levelo://app?vid=715c3c6f-36f0-40b0-9dc1-9a0103071b2d","ios":"levelo://app?vid=715c3c6f-36f0-40b0-9dc1-9a0103071b2d"},"vehicle_type_id":"4","last_reported":1761139605,"current_range_meters":20400,"station_id":"ce4bhl92rcd13ifvqghg","pricing_plan_id":"cebpf4jnsgd1na2vs0mg"},{"bike_id":"5bdb4f27-eafd-4915-acde-561e7b5d30e2","system_id":"levelo_inurba_marseille","lat":43.296287,"lon":5.377192,"is_reserved":false,"is_disabled":false,"rental_uris":{"android":"levelo://app?vid=5bdb4f27-eafd-4915-acde-561e7b5d30e2","ios":"levelo://app?vid=5bdb4f27-eafd-4915-acde-561e7b5d30e2"},"vehicle_type_id":"4","last_reported":1761139605,"current_range_meters":20400,"station_id":"ce4bgi92rcd13ifvqb90","pricing_plan_id":"cebpf4jnsgd1na2vs0mg"},{"bike_id":"8b568fab-e273-49f6-bdca-e47680ec431f","system_id":"levelo_inurba_marseille","lat":43.337959,"lon":5.374369,"is_reserved":false,"is_disabled":false,"rental_uris":{"android":"levelo://app?vid=8b568fab-e273-49f6-bdca-e47680ec431f","ios":"levelo://app?vid=8b568fab-e273-49f6-bdca-e47680ec431f"},"vehicle_type_id":"4","last_reported":1761139605,"current_range_meters":20800,"station_id":"","pricing_plan_id":"cebpf4jnsgd1na2vs0mg"},{"bike_id":"aebfc526-84c9-4d2c-a1d9-ef1d2a5d03d8","system_id":"levelo_inurba_marseille","lat":43.297068,"lon":5.376884,"is_reserved":false,"is_disabled":false,"rental_uris":{"android":"levelo://app?vid=aebfc526-84c9-4d2c-a1d9-ef1d2a5d03d8","ios":"levelo://app?vid=aebfc526-84c9-4d2c-a1d9-ef1d2a5d03d8"},"vehicle_type_id":"4","last_reported":1761139605,"current_range_meters":20800,"station_id":"ce4bgkh2rcd13ifvqbl0","pricing_plan_id":"cebpf4jnsgd1na2vs0mg"},{"bike_id":"bd38ac37-a773-4a3d-af0f-c9eb0aba0be9","system_id":"levelo_inurba_marseille","lat":43.27051,"lon":5.40277,"is_reserved":false,"is_disabled":false,"rental_uris":{"android":"levelo://app?vid=bd38ac37-a773-4a3d-af0f-c9eb0aba0be9","ios":"levelo://app?vid=bd38ac37-a773-4a3d-af0f-c9eb0aba0be9"},"vehicle_type_id":"4","last_reported":1761139605,"current_range_meters":20800,"station_id":"ce4bhk92rcd13ifvqgc0","pricing_plan_id":"cebpf4jnsgd1na2vs0mg"},{"bike_id":"1996ea89-9471-4d12-8066-1a9d0b7c69da","system_id":"levelo_inurba_marseille","lat":43.24397,"lon":5.37053,"is_reserved":false,"is_disabled":false,"rental_uris":{"android":"levelo://app?vid=1996ea89-9471-4d12-8066-1a9d0b7c69da","ios":"levelo://app?vid=1996ea89-9471-4d12-8066-1a9d0b7c69da"},"vehicle_type_id":"4","last_reported":1761139605,"current_range_meters":20800,"station_id":"ce4bhhh2rcd13ifvqfk0","pricing_plan_id":"cebpf4jnsgd1na2vs0mg"},{"bike_id":"745eb1d9-36e7-43e9-ab13-378f0c560a0c","system_id":"levelo_inurba_marseille","lat":43.337361,"lon":5.391853,"is_reserved":false,"is_disabled":true,"rental_uris":{"android":"levelo://app?vid=745eb1d9-36e7-43e9-ab13-378f0c560a0c","ios":"levelo://app?vid=745eb1d9-36e7-43e9-ab13-378f0c560a0c"},"vehicle_type_id":"4","last_reported":1761139605,"current_range_meters":20800,"station_id":"ce4bhr92rcd13ifvqhsg","pricing_plan_id":"cebpf4jnsgd1na2vs0mg"},{"bike_id":"86b05bd7-4ed8-437b-80cc-ef0613c5fed8","system_id":"levelo_inurba_marseille","lat":43.29583,"lon":5.39957,"is_reserved":false,"is_disabled":false,"rental_uris":{"android":"levelo://app?vid=86b05bd7-4ed8-437b-80cc-ef0613c5fed8","ios":"levelo://app?vid=86b05bd7-4ed8-437b-80cc-ef0613c5fed8"},"vehicle_type_id":"4","last_reported":1761139605,"current_range_meters":20800,"station_id":"ce4bh312rcd13ifvqdj0","pricing_plan_id":"cebpf4jnsgd1na2vs0mg"},{"bike_id":"3f39f326-54eb-4aae-a58b-8646f373029d","system_id":"levelo_inurba_marseille","lat":43.24399,"lon":5.37059,"is_reserved":false,"is_disabled":false,"rental_uris":{"android":"levelo://app?vid=3f39f326-54eb-4aae-a58b-8646f373029d","ios":"levelo://app?vid=3f39f326-54eb-4aae-a58b-8646f373029d"},"vehicle_type_id":"4","last_reported":1761139605,"current_range_meters":20800,"station_id":"ce4bhhh2rcd13ifvqfk0","pricing_plan_id":"cebpf4jnsgd1na2vs0mg"},{"bike_id":"f1767e8c-7fb7-4f51-b9bb-5ad11a10d1fc","system_id":"levelo_inurba_marseille","lat":43.315275,"lon":5.380351,"is_reserved":false,"is_disabled":false,"rental_uris":{"android":"levelo://app?vid=f1767e8c-7fb7-4f51-b9bb-5ad11a10d1fc","ios":"levelo://app?vid=f1767e8c-7fb7-4f51-b9bb-5ad11a10d1fc"},"vehicle_type_id":"4","last_reported":1761139605,"current_range_meters":20800,"station_id":"ce4bhsp2rcd13ifvqi50","pricing_plan_id":"cebpf4jnsgd1na2vs0mg"},{"bike_id":"e89cca6b-776a-482a-ab8e-97bb39a3bd9f","system_id":"levelo_inurba_marseille","lat":43.3009,"lon":5.39069,"is_reserved":false,"is_disabled":false,"rental_uris":{"android":"levelo://app?vid=e89cca6b-776a-482a-ab8e-97bb39a3bd9f","ios":"levelo://app?vid=e89cca6b-776a-482a-ab8e-97bb39a3bd9f"},"vehicle_type_id":"4","last_reported":1761139605,"current_range_meters":20800,"station_id":"ce4bh192rcd13ifvqdb0","pricing_plan_id":"cebpf4jnsgd1na2vs0mg"},{"bike_id":"71052498-a647-479a-9767-ecac29e810e7","system_id":"levelo_inurba_marseille","lat":43.287082,"lon":5.399901,"is_reserved":false,"is_disabled":false,"rental_uris":{"android":"levelo://app?vid=71052498-a647-479a-9767-ecac29e810e7","ios":"levelo://app?vid=71052498-a647-479a-9767-ecac29e810e7"},"vehicle_type_id":"4","last_reported":1761139605,"current_range_meters":20800,"station_id":"ce4bho92rcd13ifvqh3g","pricing_plan_id":"cebpf4jnsgd1na2vs0mg"},{"bike_id":"473c074d-a2e0-4d12-9fb6-94a7f9584eb4","system_id":"levelo_inurba_marseille","lat":43.23062,"lon":5.35487,"is_reserved":false,"is_disabled":false,"rental_uris":{"android":"levelo://app?vid=473c074d-a2e0-4d12-9fb6-94a7f9584eb4","ios":"levelo://app?vid=473c074d-a2e0-4d12-9fb6-94a7f9584eb4"},"vehicle_type_id":"4","last_reported":1761139605,"current_range_meters":20800,"station_id":"cpo3342slgdg3j2ifvpg","pricing_plan_id":"cebpf4jnsgd1na2vs0mg"},{"bike_id":"2172ef7f-240b-4c72-bf8d-26c79cc1f73d","system_id":"levelo_inurba_marseille","lat":43.29905,"lon":5.43671,"is_reserved":false,"is_disabled":false,"rental_uris":{"android":"levelo://app?vid=2172ef7f-240b-4c72-bf8d-26c79cc1f73d","ios":"levelo://app?vid=2172ef7f-240b-4c72-bf8d-26c79cc1f73d"},"vehicle_type_id":"4","last_reported":1761139605,"current_range_meters":21600,"station_id":"ce4bhpp2rcd13ifvqhfg","pricing_plan_id":"cebpf4jnsgd1na2vs0mg"},{"bike_id":"9a1972b5-72a6-4763-9884-2f966099622e","system_id":"levelo_inurba_marseille","lat":43.30013,"lon":5.37673,"is_reserved":false,"is_disabled":false,"rental_uris":{"android":"levelo://app?vid=9a1972b5-72a6-4763-9884-2f966099622e","ios":"levelo://app?vid=9a1972b5-72a6-4763-9884-2f966099622e"},"vehicle_type_id":"4","last_reported":1761139605,"current_range_meters":21600,"station_id":"","pricing_plan_id":"cebpf4jnsgd1na2vs0mg"},{"bike_id":"ac1cb474-c925-40d8-b4e4-efbb5f66921b","system_id":"levelo_inurba_marseille","lat":43.30604,"lon":5.39354,"is_reserved":false,"is_disabled":false,"rental_uris":{"android":"levelo://app?vid=ac1cb474-c925-40d8-b4e4-efbb5f66921b","ios":"levelo://app?vid=ac1cb474-c925-40d8-b4e4-efbb5f66921b"},"vehicle_type_id":"4","last_reported":1761139605,"current_range_meters":21600,"station_id":"ce4bh0p2rcd13ifvqd80","pricing_plan_id":"cebpf4jnsgd1na2vs0mg"},{"bike_id":"9d3ee974-fef4-4beb-b4c9-4df0516693a8","system_id":"levelo_inurba_marseille","lat":43.296241,"lon":5.377181,"is_reserved":false,"is_disabled":false,"rental_uris":{"android":"levelo://app?vid=9d3ee974-fef4-4beb-b4c9-4df0516693a8","ios":"levelo://app?vid=9d3ee974-fef4-4beb-b4c9-4df0516693a8"},"vehicle_type_id":"4","last_reported":1761139605,"current_range_meters":21600,"station_id":"ce4bgih2rcd13ifvqba0","pricing_plan_id":"cebpf4jnsgd1na2vs0mg"},{"bike_id":"088fafca-bb49-415a-8c81-5041fa87acef","system_id":"levelo_inurba_marseille","lat":43.30328,"lon":5.36911,"is_reserved":false,"is_disabled":false,"rental_uris":{"android":"levelo://app?vid=088fafca-bb49-415a-8c81-5041fa87acef","ios":"levelo://app?vid=088fafca-bb49-415a-8c81-5041fa87acef"},"vehicle_type_id":"4","last_reported":1761139605,"current_range_meters":21600,"station_id":"ce4bgqh2rcd13ifvqc5g","pricing_plan_id":"cebpf4jnsgd1na2vs0mg"},{"bike_id":"ea418a9e-00a4-4180-856c-feac78f9a5ff","system_id":"levelo_inurba_marseille","lat":43.29556,"lon":5.42277,"is_reserved":false,"is_disabled":false,"rental_uris":{"android":"levelo://app?vid=ea418a9e-00a4-4180-856c-feac78f9a5ff","ios":"levelo://app?vid=ea418a9e-00a4-4180-856c-feac78f9a5ff"},"vehicle_type_id":"4","last_reported":1761139605,"current_range_meters":21600,"station_id":"ce4bhph2rcd13ifvqhdg","pricing_plan_id":"cebpf4jnsgd1na2vs0mg"},{"bike_id":"437d536f-722f-42ed-8cb3-2ccda4743100","system_id":"levelo_inurba_marseille","lat":43.26948,"lon":5.40254,"is_reserved":false,"is_disabled":false,"rental_uris":{"android":"levelo://app?vid=437d536f-722f-42ed-8cb3-2ccda4743100","ios":"levelo://app?vid=437d536f-722f-42ed-8cb3-2ccda4743100"},"vehicle_type_id":"4","last_reported":1761139605,"current_range_meters":21600,"station_id":"cjm6bp8fraef2m0cb0m0","pricing_plan_id":"cebpf4jnsgd1na2vs0mg"},{"bike_id":"9ddc7a21-954c-46ca-9cd7-5a137598fb12","system_id":"levelo_inurba_marseille","lat":43.27377,"lon":5.36259,"is_reserved":false,"is_disabled":false,"rental_uris":{"android":"levelo://app?vid=9ddc7a21-954c-46ca-9cd7-5a137598fb12","ios":"levelo://app?vid=9ddc7a21-954c-46ca-9cd7-5a137598fb12"},"vehicle_type_id":"4","last_reported":1761139605,"current_range_meters":21600,"station_id":"ce4bhbh2rcd13ifvqeo0","pricing_plan_id":"cebpf4jnsgd1na2vs0mg"},{"bike_id":"0e43da16-2c8e-4c93-a62a-67d5aa734234","system_id":"levelo_inurba_marseille","lat":43.31706,"lon":5.43712,"is_reserved":false,"is_disabled":false,"rental_uris":{"android":"levelo://app?vid=0e43da16-2c8e-4c93-a62a-67d5aa734234","ios":"levelo://app?vid=0e43da16-2c8e-4c93-a62a-67d5aa734234"},"vehicle_type_id":"4","last_reported":1761139605,"current_range_meters":21600,"station_id":"ce4bhp92rcd13ifvqhcg","pricing_plan_id":"cebpf4jnsgd1na2vs0mg"},{"bike_id":"6e62cf1c-40f3-4230-ba3a-611416a731d6","system_id":"levelo_inurba_marseille","lat":43.21194,"lon":5.35069,"is_reserved":false,"is_disabled":false,"rental_uris":{"android":"levelo://app?vid=6e62cf1c-40f3-4230-ba3a-611416a731d6","ios":"levelo://app?vid=6e62cf1c-40f3-4230-ba3a-611416a731d6"},"vehicle_type_id":"4","last_reported":1761139605,"current_range_meters":22000,"station_id":"st_cvj6sg6p6f1abm77japg","pricing_plan_id":"cebpf4jnsgd1na2vs0mg"},{"bike_id":"bc5270d3-d28a-4a8c-82f0-1f1b8b07ccf0","system_id":"levelo_inurba_marseille","lat":43.30318,"lon":5.36899,"is_reserved":false,"is_disabled":false,"rental_uris":{"android":"levelo://app?vid=bc5270d3-d28a-4a8c-82f0-1f1b8b07ccf0","ios":"levelo://app?vid=bc5270d3-d28a-4a8c-82f0-1f1b8b07ccf0"},"vehicle_type_id":"4","last_reported":1761139605,"current_range_meters":22000,"station_id":"ce4bgqh2rcd13ifvqc5g","pricing_plan_id":"cebpf4jnsgd1na2vs0mg"},{"bike_id":"c70734ba-c68d-4646-8fb8-e8d10746f578","system_id":"levelo_inurba_marseille","lat":43.24168,"lon":5.3639,"is_reserved":false,"is_disabled":false,"rental_uris":{"android":"levelo://app?vid=c70734ba-c68d-4646-8fb8-e8d10746f578","ios":"levelo://app?vid=c70734ba-c68d-4646-8fb8-e8d10746f578"},"vehicle_type_id":"4","last_reported":1761139605,"current_range_meters":22000,"station_id":"cpo36qri1sfpv3e86is0","pricing_plan_id":"cebpf4jnsgd1na2vs0mg"},{"bike_id":"bedae016-bdfa-4b6f-b5bd-c90538b6ed75","system_id":"levelo_inurba_marseille","lat":43.27175,"lon":5.409898,"is_reserved":false,"is_disabled":false,"rental_uris":{"android":"levelo://app?vid=bedae016-bdfa-4b6f-b5bd-c90538b6ed75","ios":"levelo://app?vid=bedae016-bdfa-4b6f-b5bd-c90538b6ed75"},"vehicle_type_id":"4","last_reported":1761139605,"current_range_meters":22000,"station_id":"ce4bhl12rcd13ifvqgf0","pricing_plan_id":"cebpf4jnsgd1na2vs0mg"},{"bike_id":"9514162b-54b7-4e5c-9ab8-d3862d9a0c79","system_id":"levelo_inurba_marseille","lat":43.30491,"lon":5.37904,"is_reserved":false,"is_disabled":false,"rental_uris":{"android":"levelo://app?vid=9514162b-54b7-4e5c-9ab8-d3862d9a0c79","ios":"levelo://app?vid=9514162b-54b7-4e5c-9ab8-d3862d9a0c79"},"vehicle_type_id":"4","last_reported":1761139605,"current_range_meters":22000,"station_id":"ce4bgup2rcd13ifvqcn0","pricing_plan_id":"cebpf4jnsgd1na2vs0mg"},{"bike_id":"f05f1499-2581-4d57-b54c-03f6765f35a0","system_id":"levelo_inurba_marseille","lat":43.259517,"lon":5.408754,"is_reserved":false,"is_disabled":false,"rental_uris":{"android":"levelo://app?vid=f05f1499-2581-4d57-b54c-03f6765f35a0","ios":"levelo://app?vid=f05f1499-2581-4d57-b54c-03f6765f35a0"},