{"last_updated":1739193423,"ttl":60,"version":"2.2","data":{"bikes":[{"bike_id":"5cda301b-bce8-41d3-abea-2e981f99524e","system_id":"levelo_inurba_marseille","lat":43.298596,"lon":5.362972,"is_reserved":false,"is_disabled":false,"rental_uris":{"android":"levelo://app?vid=5cda301b-bce8-41d3-abea-2e981f99524e","ios":"levelo://app?vid=5cda301b-bce8-41d3-abea-2e981f99524e"},"vehicle_type_id":"4","last_reported":1739193424,"current_range_meters":29600,"station_id":"ce4bgpp2rcd13ifvqc3g","pricing_plan_id":"cebpf4jnsgd1na2vs0mg"},{"bike_id":"45f35071-e55b-495f-8271-b01b07c1e210","system_id":"levelo_inurba_marseille","lat":43.30591,"lon":5.39362,"is_reserved":false,"is_disabled":false,"rental_uris":{"android":"levelo://app?vid=45f35071-e55b-495f-8271-b01b07c1e210","ios":"levelo://app?vid=45f35071-e55b-495f-8271-b01b07c1e210"},"vehicle_type_id":"4","last_reported":1739193424,"current_range_meters":10800,"station_id":"ce4bh0p2rcd13ifvqd80","pricing_plan_id":"cebpf4jnsgd1na2vs0mg"},{"bike_id":"e7d8ed8c-85a3-44c3-8805-56fbe310205d","system_id":"levelo_inurba_marseille","lat":43.28414,"lon":5.37522,"is_reserved":false,"is_disabled":false,"rental_uris":{"android":"levelo://app?vid=e7d8ed8c-85a3-44c3-8805-56fbe310205d","ios":"levelo://app?vid=e7d8ed8c-85a3-44c3-8805-56fbe310205d"},"vehicle_type_id":"4","last_reported":1739193424,"current_range_meters":8000,"station_id":"ce4bh412rcd13ifvqds0","pricing_plan_id":"cebpf4jnsgd1na2vs0mg"},{"bike_id":"7d836d2d-c58d-4b58-979b-16543b991174","system_id":"levelo_inurba_marseille","lat":43.2696,"lon":5.38632,"is_reserved":false,"is_disabled":false,"rental_uris":{"android":"levelo://app?vid=7d836d2d-c58d-4b58-979b-16543b991174","ios":"levelo://app?vid=7d836d2d-c58d-4b58-979b-16543b991174"},"vehicle_type_id":"4","last_reported":1739193424,"current_range_meters":25200,"station_id":"ce4bhh92rcd13ifvqfh0","pricing_plan_id":"cebpf4jnsgd1na2vs0mg"},{"bike_id":"1a028648-d965-4243-a1e8-5f650ec8b4aa","system_id":"levelo_inurba_marseille","lat":43.26488,"lon":5.39554,"is_reserved":false,"is_disabled":false,"rental_uris":{"android":"levelo://app?vid=1a028648-d965-4243-a1e8-5f650ec8b4aa","ios":"levelo://app?vid=1a028648-d965-4243-a1e8-5f650ec8b4aa"},"vehicle_type_id":"4","last_reported":1739193424,"current_range_meters":4400,"station_id":"ce4bhi12rcd13ifvqfq0","pricing_plan_id":"cebpf4jnsgd1na2vs0mg"},{"bike_id":"9857501a-9c64-4e8c-bbab-22c968b3d40f","system_id":"levelo_inurba_marseille","lat":43.30138,"lon":5.37425,"is_reserved":false,"is_disabled":false,"rental_uris":{"android":"levelo://app?vid=9857501a-9c64-4e8c-bbab-22c968b3d40f","ios":"levelo://app?vid=9857501a-9c64-4e8c-bbab-22c968b3d40f"},"vehicle_type_id":"4","last_reported":1739193424,"current_range_meters":37600,"station_id":"ce4bgs92rcd13ifvqcc0","pricing_plan_id":"cebpf4jnsgd1na2vs0mg"},{"bike_id":"6623929f-870b-4f30-916e-699083be349f","system_id":"levelo_inurba_marseille","lat":43.27216,"lon":5.39181,"is_reserved":false,"is_disabled":false,"rental_uris":{"android":"levelo://app?vid=6623929f-870b-4f30-916e-699083be349f","ios":"levelo://app?vid=6623929f-870b-4f30-916e-699083be349f"},"vehicle_type_id":"4","last_reported":1739193424,"current_range_meters":38400,"station_id":"ce4bhhp2rcd13ifvqfm0","pricing_plan_id":"cebpf4jnsgd1na2vs0mg"},{"bike_id":"e59de84b-d6d0-4a15-852b-e1f506f60856","system_id":"levelo_inurba_marseille","lat":43.32053,"lon":5.41563,"is_reserved":false,"is_disabled":false,"rental_uris":{"android":"levelo://app?vid=e59de84b-d6d0-4a15-852b-e1f506f60856","ios":"levelo://app?vid=e59de84b-d6d0-4a15-852b-e1f506f60856"},"vehicle_type_id":"4","last_reported":1739193424,"current_range_meters":38800,"station_id":"ce4bhq92rcd13ifvqhkg","pricing_plan_id":"cebpf4jnsgd1na2vs0mg"},{"bike_id":"52bbfaa2-b8ac-4136-9dbb-460affee02ed","system_id":"levelo_inurba_marseille","lat":43.26037,"lon":5.37563,"is_reserved":false,"is_disabled":false,"rental_uris":{"android":"levelo://app?vid=52bbfaa2-b8ac-4136-9dbb-460affee02ed","ios":"levelo://app?vid=52bbfaa2-b8ac-4136-9dbb-460affee02ed"},"vehicle_type_id":"4","last_reported":1739193424,"current_range_meters":39200,"station_id":"ce4bhgh2rcd13ifvqfa0","pricing_plan_id":"cebpf4jnsgd1na2vs0mg"},{"bike_id":"cd43b8b3-9bce-4582-844f-517531c1058f","system_id":"levelo_inurba_marseille","lat":43.2827,"lon":5.38546,"is_reserved":false,"is_disabled":false,"rental_uris":{"android":"levelo://app?vid=cd43b8b3-9bce-4582-844f-517531c1058f","ios":"levelo://app?vid=cd43b8b3-9bce-4582-844f-517531c1058f"},"vehicle_type_id":"4","last_reported":1739193424,"current_range_meters":17600,"station_id":"","pricing_plan_id":"cebpf4jnsgd1na2vs0mg"},{"bike_id":"51b9a729-fd90-485f-a462-351308296e2e","system_id":"levelo_inurba_marseille","lat":43.27948,"lon":5.41044,"is_reserved":false,"is_disabled":true,"rental_uris":{"android":"levelo://app?vid=51b9a729-fd90-485f-a462-351308296e2e","ios":"levelo://app?vid=51b9a729-fd90-485f-a462-351308296e2e"},"vehicle_type_id":"4","last_reported":1739193424,"current_range_meters":0,"station_id":"ce4bhnp2rcd13ifvqh0g","pricing_plan_id":"cebpf4jnsgd1na2vs0mg"},{"bike_id":"8440a93c-9f0d-494a-8d04-da2f83d7ddb3","system_id":"levelo_inurba_marseille","lat":43.33609,"lon":5.4102,"is_reserved":false,"is_disabled":false,"rental_uris":{"android":"levelo://app?vid=8440a93c-9f0d-494a-8d04-da2f83d7ddb3","ios":"levelo://app?vid=8440a93c-9f0d-494a-8d04-da2f83d7ddb3"},"vehicle_type_id":"4","last_reported":1739193424,"current_range_meters":18000,"station_id":"ce4bhqh2rcd13ifvqhmg","pricing_plan_id":"cebpf4jnsgd1na2vs0mg"},{"bike_id":"037c679a-98bd-40a4-9941-fce0441d2613","system_id":"levelo_inurba_marseille","lat":43.30139,"lon":5.37376,"is_reserved":false,"is_disabled":false,"rental_uris":{"android":"levelo://app?vid=037c679a-98bd-40a4-9941-fce0441d2613","ios":"levelo://app?vid=037c679a-98bd-40a4-9941-fce0441d2613"},"vehicle_type_id":"4","last_reported":1739193424,"current_range_meters":38800,"station_id":"ce4bgs92rcd13ifvqcc0","pricing_plan_id":"cebpf4jnsgd1na2vs0mg"},{"bike_id":"4d2aff9d-39d9-4084-a4b3-cca120d88439","system_id":"levelo_inurba_marseille","lat":43.31706,"lon":5.40451,"is_reserved":false,"is_disabled":false,"rental_uris":{"android":"levelo://app?vid=4d2aff9d-39d9-4084-a4b3-cca120d88439","ios":"levelo://app?vid=4d2aff9d-39d9-4084-a4b3-cca120d88439"},"vehicle_type_id":"4","last_reported":1739193424,"current_range_meters":38800,"station_id":"ce4bh012rcd13ifvqd00","pricing_plan_id":"cebpf4jnsgd1na2vs0mg"},{"bike_id":"9ed55573-1e8a-4561-9944-fe25f584b287","system_id":"levelo_inurba_marseille","lat":43.24038,"lon":5.37737,"is_reserved":false,"is_disabled":false,"rental_uris":{"android":"levelo://app?vid=9ed55573-1e8a-4561-9944-fe25f584b287","ios":"levelo://app?vid=9ed55573-1e8a-4561-9944-fe25f584b287"},"vehicle_type_id":"4","last_reported":1739193424,"current_range_meters":38000,"station_id":"ce4bhnp2rcd13ifvqgvg","pricing_plan_id":"cebpf4jnsgd1na2vs0mg"},{"bike_id":"6d65ae34-2ff7-46e5-b87e-38814047fdee","system_id":"levelo_inurba_marseille","lat":43.31713,"lon":5.40466,"is_reserved":false,"is_disabled":false,"rental_uris":{"android":"levelo://app?vid=6d65ae34-2ff7-46e5-b87e-38814047fdee","ios":"levelo://app?vid=6d65ae34-2ff7-46e5-b87e-38814047fdee"},"vehicle_type_id":"4","last_reported":1739193424,"current_range_meters":38800,"station_id":"ce4bh012rcd13ifvqd00","pricing_plan_id":"cebpf4jnsgd1na2vs0mg"},{"bike_id":"c284b620-fd86-42a1-af12-3d851dc80a3f","system_id":"levelo_inurba_marseille","lat":43.23191,"lon":5.39999,"is_reserved":false,"is_disabled":false,"rental_uris":{"android":"levelo://app?vid=c284b620-fd86-42a1-af12-3d851dc80a3f","ios":"levelo://app?vid=c284b620-fd86-42a1-af12-3d851dc80a3f"},"vehicle_type_id":"4","last_reported":1739193424,"current_range_meters":8800,"station_id":"ce4bhn12rcd13ifvqgqg","pricing_plan_id":"cebpf4jnsgd1na2vs0mg"},{"bike_id":"737649a9-8fca-4752-8359-c3bbba21b8c6","system_id":"levelo_inurba_marseille","lat":43.30924,"lon":5.39074,"is_reserved":false,"is_disabled":false,"rental_uris":{"android":"levelo://app?vid=737649a9-8fca-4752-8359-c3bbba21b8c6","ios":"levelo://app?vid=737649a9-8fca-4752-8359-c3bbba21b8c6"},"vehicle_type_id":"4","last_reported":1739193424,"current_range_meters":10800,"station_id":"","pricing_plan_id":"cebpf4jnsgd1na2vs0mg"},{"bike_id":"fea52798-e931-45ae-a156-233e5c832d95","system_id":"levelo_inurba_marseille","lat":43.30563,"lon":5.36691,"is_reserved":false,"is_disabled":false,"rental_uris":{"android":"levelo://app?vid=fea52798-e931-45ae-a156-233e5c832d95","ios":"levelo://app?vid=fea52798-e931-45ae-a156-233e5c832d95"},"vehicle_type_id":"4","last_reported":1739193424,"current_range_meters":28400,"station_id":"ce4bgrp2rcd13ifvqc9g","pricing_plan_id":"cebpf4jnsgd1na2vs0mg"},{"bike_id":"4a55a8c0-1718-4c6e-893d-a5db1cfa18b0","system_id":"levelo_inurba_marseille","lat":43.28172,"lon":5.42669,"is_reserved":false,"is_disabled":false,"rental_uris":{"android":"levelo://app?vid=4a55a8c0-1718-4c6e-893d-a5db1cfa18b0","ios":"levelo://app?vid=4a55a8c0-1718-4c6e-893d-a5db1cfa18b0"},"vehicle_type_id":"4","last_reported":1739193424,"current_range_meters":38800,"station_id":"ce4bhnh2rcd13ifvqgug","pricing_plan_id":"cebpf4jnsgd1na2vs0mg"},{"bike_id":"ca62490e-1209-4d5b-b694-89bacead5861","system_id":"levelo_inurba_marseille","lat":43.28586,"lon":5.36723,"is_reserved":false,"is_disabled":false,"rental_uris":{"android":"levelo://app?vid=ca62490e-1209-4d5b-b694-89bacead5861","ios":"levelo://app?vid=ca62490e-1209-4d5b-b694-89bacead5861"},"vehicle_type_id":"4","last_reported":1739193424,"current_range_meters":18800,"station_id":"","pricing_plan_id":"cebpf4jnsgd1na2vs0mg"},{"bike_id":"f504ae25-f5a4-4b38-b42e-3a30562fb7f9","system_id":"levelo_inurba_marseille","lat":43.29596,"lon":5.36755,"is_reserved":false,"is_disabled":false,"rental_uris":{"android":"levelo://app?vid=f504ae25-f5a4-4b38-b42e-3a30562fb7f9","ios":"levelo://app?vid=f504ae25-f5a4-4b38-b42e-3a30562fb7f9"},"vehicle_type_id":"4","last_reported":1739193424,"current_range_meters":12000,"station_id":"ce4bgph2rcd13ifvqc2g","pricing_plan_id":"cebpf4jnsgd1na2vs0mg"},{"bike_id":"78af5c8d-2f5e-4a60-a218-6efcadbeb850","system_id":"levelo_inurba_marseille","lat":43.298446,"lon":5.362786,"is_reserved":false,"is_disabled":false,"rental_uris":{"android":"levelo://app?vid=78af5c8d-2f5e-4a60-a218-6efcadbeb850","ios":"levelo://app?vid=78af5c8d-2f5e-4a60-a218-6efcadbeb850"},"vehicle_type_id":"4","last_reported":1739193424,"current_range_meters":38800,"station_id":"ce4bgpp2rcd13ifvqc3g","pricing_plan_id":"cebpf4jnsgd1na2vs0mg"},{"bike_id":"0ec10906-ace0-4c24-9f95-c37ad07c9817","system_id":"levelo_inurba_marseille","lat":43.2397,"lon":5.36634,"is_reserved":false,"is_disabled":false,"rental_uris":{"android":"levelo://app?vid=0ec10906-ace0-4c24-9f95-c37ad07c9817","ios":"levelo://app?vid=0ec10906-ace0-4c24-9f95-c37ad07c9817"},"vehicle_type_id":"4","last_reported":1739193424,"current_range_meters":37600,"station_id":"ce4bhi12rcd13ifvqfp0","pricing_plan_id":"cebpf4jnsgd1na2vs0mg"},{"bike_id":"5391c93c-7685-48ea-9c51-32eb81a76c53","system_id":"levelo_inurba_marseille","lat":43.26199,"lon":5.37461,"is_reserved":false,"is_disabled":false,"rental_uris":{"android":"levelo://app?vid=5391c93c-7685-48ea-9c51-32eb81a76c53","ios":"levelo://app?vid=5391c93c-7685-48ea-9c51-32eb81a76c53"},"vehicle_type_id":"4","last_reported":1739193424,"current_range_meters":23200,"station_id":"ce4bhgp2rcd13ifvqfc0","pricing_plan_id":"cebpf4jnsgd1na2vs0mg"},{"bike_id":"74ed2df1-3204-44d2-a51d-efa564d7ab0d","system_id":"levelo_inurba_marseille","lat":43.26199,"lon":5.37934,"is_reserved":false,"is_disabled":false,"rental_uris":{"android":"levelo://app?vid=74ed2df1-3204-44d2-a51d-efa564d7ab0d","ios":"levelo://app?vid=74ed2df1-3204-44d2-a51d-efa564d7ab0d"},"vehicle_type_id":"4","last_reported":1739193424,"current_range_meters":28000,"station_id":"ce4bhjp2rcd13ifvqg90","pricing_plan_id":"cebpf4jnsgd1na2vs0mg"},{"bike_id":"ec577290-415e-4adf-bee8-70a702854fd7","system_id":"levelo_inurba_marseille","lat":43.2846,"lon":5.35883,"is_reserved":false,"is_disabled":false,"rental_uris":{"android":"levelo://app?vid=ec577290-415e-4adf-bee8-70a702854fd7","ios":"levelo://app?vid=ec577290-415e-4adf-bee8-70a702854fd7"},"vehicle_type_id":"4","last_reported":1739193424,"current_range_meters":38800,"station_id":"ce4bhah2rcd13ifvqei0","pricing_plan_id":"cebpf4jnsgd1na2vs0mg"},{"bike_id":"e999cb9c-f2fa-41ac-90e8-4a39e4b280bb","system_id":"levelo_inurba_marseille","lat":43.29607,"lon":5.37723,"is_reserved":false,"is_disabled":false,"rental_uris":{"android":"levelo://app?vid=e999cb9c-f2fa-41ac-90e8-4a39e4b280bb","ios":"levelo://app?vid=e999cb9c-f2fa-41ac-90e8-4a39e4b280bb"},"vehicle_type_id":"4","last_reported":1739193424,"current_range_meters":35200,"station_id":"ce4bgi92rcd13ifvqb90","pricing_plan_id":"cebpf4jnsgd1na2vs0mg"},{"bike_id":"f798cbc4-a869-471f-bce8-f64397eebe81","system_id":"levelo_inurba_marseille","lat":43.239623,"lon":5.366373,"is_reserved":false,"is_disabled":false,"rental_uris":{"android":"levelo://app?vid=f798cbc4-a869-471f-bce8-f64397eebe81","ios":"levelo://app?vid=f798cbc4-a869-471f-bce8-f64397eebe81"},"vehicle_type_id":"4","last_reported":1739193424,"current_range_meters":26000,"station_id":"ce4bhi12rcd13ifvqfp0","pricing_plan_id":"cebpf4jnsgd1na2vs0mg"},{"bike_id":"b021e1a2-bb30-4956-b0f1-62e84c7a74e2","system_id":"levelo_inurba_marseille","lat":43.323716,"lon":5.367741,"is_reserved":false,"is_disabled":false,"rental_uris":{"android":"levelo://app?vid=b021e1a2-bb30-4956-b0f1-62e84c7a74e2","ios":"levelo://app?vid=b021e1a2-bb30-4956-b0f1-62e84c7a74e2"},"vehicle_type_id":"4","last_reported":1739193424,"current_range_meters":32800,"station_id":"ce4bhsh2rcd13ifvqi2g","pricing_plan_id":"cebpf4jnsgd1na2vs0mg"},{"bike_id":"28a47fb1-cfd8-458a-9d02-867dcc69b64f","system_id":"levelo_inurba_marseille","lat":43.27678,"lon":5.38899,"is_reserved":false,"is_disabled":false,"rental_uris":{"android":"levelo://app?vid=28a47fb1-cfd8-458a-9d02-867dcc69b64f","ios":"levelo://app?vid=28a47fb1-cfd8-458a-9d02-867dcc69b64f"},"vehicle_type_id":"4","last_reported":1739193424,"current_range_meters":30400,"station_id":"ce4bhi12rcd13ifvqfo0","pricing_plan_id":"cebpf4jnsgd1na2vs0mg"},{"bike_id":"25bf116c-0024-4817-9d47-940d396a5826","system_id":"levelo_inurba_marseille","lat":43.278458,"lon":5.392144,"is_reserved":false,"is_disabled":false,"rental_uris":{"android":"levelo://app?vid=25bf116c-0024-4817-9d47-940d396a5826","ios":"levelo://app?vid=25bf116c-0024-4817-9d47-940d396a5826"},"vehicle_type_id":"4","last_reported":1739193424,"current_range_meters":35200,"station_id":"ce4bhjp2rcd13ifvqga0","pricing_plan_id":"cebpf4jnsgd1na2vs0mg"},{"bike_id":"776c444e-ae69-4270-af0f-40003d483afe","system_id":"levelo_inurba_marseille","lat":43.23964,"lon":5.36645,"is_reserved":false,"is_disabled":false,"rental_uris":{"android":"levelo://app?vid=776c444e-ae69-4270-af0f-40003d483afe","ios":"levelo://app?vid=776c444e-ae69-4270-af0f-40003d483afe"},"vehicle_type_id":"4","last_reported":1739193424,"current_range_meters":37600,"station_id":"ce4bhi12rcd13ifvqfp0","pricing_plan_id":"cebpf4jnsgd1na2vs0mg"},{"bike_id":"91cd1f1c-4098-4197-a885-7ec0a0f22781","system_id":"levelo_inurba_marseille","lat":43.25491,"lon":5.37666,"is_reserved":false,"is_disabled":false,"rental_uris":{"android":"levelo://app?vid=91cd1f1c-4098-4197-a885-7ec0a0f22781","ios":"levelo://app?vid=91cd1f1c-4098-4197-a885-7ec0a0f22781"},"vehicle_type_id":"4","last_reported":1739193424,"current_range_meters":14400,"station_id":"ce4bhh12rcd13ifvqff0","pricing_plan_id":"cebpf4jnsgd1na2vs0mg"},{"bike_id":"5f1810ce-b4e4-4628-ba80-bf2fad9d6656","system_id":"levelo_inurba_marseille","lat":43.29537,"lon":5.39037,"is_reserved":false,"is_disabled":false,"rental_uris":{"android":"levelo://app?vid=5f1810ce-b4e4-4628-ba80-bf2fad9d6656","ios":"levelo://app?vid=5f1810ce-b4e4-4628-ba80-bf2fad9d6656"},"vehicle_type_id":"4","last_reported":1739193424,"current_range_meters":16800,"station_id":"ce4bh3p2rcd13ifvqdp0","pricing_plan_id":"cebpf4jnsgd1na2vs0mg"},{"bike_id":"41aa0ef7-6d33-4f36-a9a6-ba3c18da23bd","system_id":"levelo_inurba_marseille","lat":43.32488,"lon":5.36571,"is_reserved":false,"is_disabled":false,"rental_uris":{"android":"levelo://app?vid=41aa0ef7-6d33-4f36-a9a6-ba3c18da23bd","ios":"levelo://app?vid=41aa0ef7-6d33-4f36-a9a6-ba3c18da23bd"},"vehicle_type_id":"4","last_reported":1739193424,"current_range_meters":39200,"station_id":"ce4bhs12rcd13ifvqhvg","pricing_plan_id":"cebpf4jnsgd1na2vs0mg"},{"bike_id":"1d372f93-b8e6-4f13-9d33-813b3a0ab7b3","system_id":"levelo_inurba_marseille","lat":43.29369,"lon":5.37857,"is_reserved":false,"is_disabled":true,"rental_uris":{"android":"levelo://app?vid=1d372f93-b8e6-4f13-9d33-813b3a0ab7b3","ios":"levelo://app?vid=1d372f93-b8e6-4f13-9d33-813b3a0ab7b3"},"vehicle_type_id":"4","last_reported":1739193424,"current_range_meters":36800,"station_id":"ce4bgjh2rcd13ifvqbf0","pricing_plan_id":"cebpf4jnsgd1na2vs0mg"},{"bike_id":"c93ba4b5-809f-42a1-951f-4f195f9c3735","system_id":"levelo_inurba_marseille","lat":43.29189,"lon":5.35805,"is_reserved":false,"is_disabled":false,"rental_uris":{"android":"levelo://app?vid=c93ba4b5-809f-42a1-951f-4f195f9c3735","ios":"levelo://app?vid=c93ba4b5-809f-42a1-951f-4f195f9c3735"},"vehicle_type_id":"4","last_reported":1739193424,"current_range_meters":38000,"station_id":"ce4bhb12rcd13ifvqel0","pricing_plan_id":"cebpf4jnsgd1na2vs0mg"},{"bike_id":"45f5e89f-f774-40f7-9cd2-319f3482a7b5","system_id":"levelo_inurba_marseille","lat":43.279067,"lon":5.380033,"is_reserved":false,"is_disabled":false,"rental_uris":{"android":"levelo://app?vid=45f5e89f-f774-40f7-9cd2-319f3482a7b5","ios":"levelo://app?vid=45f5e89f-f774-40f7-9cd2-319f3482a7b5"},"vehicle_type_id":"4","last_reported":1739193424,"current_range_meters":37600,"station_id":"ce4bhf92rcd13ifvqf50","pricing_plan_id":"cebpf4jnsgd1na2vs0mg"},{"bike_id":"1bc015b8-9198-435e-b40c-dc7d8a347d15","system_id":"levelo_inurba_marseille","lat":43.30915,"lon":5.36853,"is_reserved":false,"is_disabled":false,"rental_uris":{"android":"levelo://app?vid=1bc015b8-9198-435e-b40c-dc7d8a347d15","ios":"levelo://app?vid=1bc015b8-9198-435e-b40c-dc7d8a347d15"},"vehicle_type_id":"4","last_reported":1739193424,"current_range_meters":38800,"station_id":"ce4bgn92rcd13ifvqbvg","pricing_plan_id":"cebpf4jnsgd1na2vs0mg"},{"bike_id":"d212e68a-3cfa-4ec1-9e3e-b3c68830363d","system_id":"levelo_inurba_marseille","lat":43.26217,"lon":5.37448,"is_reserved":false,"is_disabled":false,"rental_uris":{"android":"levelo://app?vid=d212e68a-3cfa-4ec1-9e3e-b3c68830363d","ios":"levelo://app?vid=d212e68a-3cfa-4ec1-9e3e-b3c68830363d"},"vehicle_type_id":"4","last_reported":1739193424,"current_range_meters":30000,"station_id":"ce4bhgp2rcd13ifvqfc0","pricing_plan_id":"cebpf4jnsgd1na2vs0mg"},{"bike_id":"30a04f13-fea8-4b77-992f-0b729af72960","system_id":"levelo_inurba_marseille","lat":43.28111,"lon":5.37831,"is_reserved":false,"is_disabled":false,"rental_uris":{"android":"levelo://app?vid=30a04f13-fea8-4b77-992f-0b729af72960","ios":"levelo://app?vid=30a04f13-fea8-4b77-992f-0b729af72960"},"vehicle_type_id":"4","last_reported":1739193424,"current_range_meters":25600,"station_id":"ce4bha12rcd13ifvqee0","pricing_plan_id":"cebpf4jnsgd1na2vs0mg"},{"bike_id":"a1e1c154-9e5a-4afc-9a7e-cedaf38d9921","system_id":"levelo_inurba_marseille","lat":43.29003,"lon":5.35619,"is_reserved":false,"is_disabled":true,"rental_uris":{"android":"levelo://app?vid=a1e1c154-9e5a-4afc-9a7e-cedaf38d9921","ios":"levelo://app?vid=a1e1c154-9e5a-4afc-9a7e-cedaf38d9921"},"vehicle_type_id":"4","last_reported":1739193424,"current_range_meters":35200,"station_id":"ce4bhb92rcd13ifvqen0","pricing_plan_id":"cebpf4jnsgd1na2vs0mg"},{"bike_id":"40a11d40-79c5-4e1c-961c-09e7115c0945","system_id":"levelo_inurba_marseille","lat":43.33613,"lon":5.41032,"is_reserved":false,"is_disabled":false,"rental_uris":{"android":"levelo://app?vid=40a11d40-79c5-4e1c-961c-09e7115c0945","ios":"levelo://app?vid=40a11d40-79c5-4e1c-961c-09e7115c0945"},"vehicle_type_id":"4","last_reported":1739193424,"current_range_meters":35600,"station_id":"ce4bhqh2rcd13ifvqhmg","pricing_plan_id":"cebpf4jnsgd1na2vs0mg"},{"bike_id":"726fb099-c3d7-4106-beb8-89951bfba46d","system_id":"levelo_inurba_marseille","lat":43.29574,"lon":5.37508,"is_reserved":false,"is_disabled":false,"rental_uris":{"android":"levelo://app?vid=726fb099-c3d7-4106-beb8-89951bfba46d","ios":"levelo://app?vid=726fb099-c3d7-4106-beb8-89951bfba46d"},"vehicle_type_id":"4","last_reported":1739193424,"current_range_meters":34800,"station_id":"ce4bgh92rcd13ifvqb50","pricing_plan_id":"cebpf4jnsgd1na2vs0mg"},{"bike_id":"a0786387-34cb-41ee-a124-76dad3f46db5","system_id":"levelo_inurba_marseille","lat":43.30546,"lon":5.37918,"is_reserved":false,"is_disabled":false,"rental_uris":{"android":"levelo://app?vid=a0786387-34cb-41ee-a124-76dad3f46db5","ios":"levelo://app?vid=a0786387-34cb-41ee-a124-76dad3f46db5"},"vehicle_type_id":"4","last_reported":1739193424,"current_range_meters":28400,"station_id":"ce4bgup2rcd13ifvqcn0","pricing_plan_id":"cebpf4jnsgd1na2vs0mg"},{"bike_id":"74b73069-a7be-4c88-84ba-e843e5884b3e","system_id":"levelo_inurba_marseille","lat":43.27922,"lon":5.39581,"is_reserved":false,"is_disabled":false,"rental_uris":{"android":"levelo://app?vid=74b73069-a7be-4c88-84ba-e843e5884b3e","ios":"levelo://app?vid=74b73069-a7be-4c88-84ba-e843e5884b3e"},"vehicle_type_id":"4","last_reported":1739193424,"current_range_meters":37600,"station_id":"ce4bhf92rcd13ifvqf40","pricing_plan_id":"cebpf4jnsgd1na2vs0mg"},{"bike_id":"0ea7df2b-f2f2-4a9f-9d1b-75556d026d53","system_id":"levelo_inurba_marseille","lat":43.29015,"lon":5.35611,"is_reserved":false,"is_disabled":false,"rental_uris":{"android":"levelo://app?vid=0ea7df2b-f2f2-4a9f-9d1b-75556d026d53","ios":"levelo://app?vid=0ea7df2b-f2f2-4a9f-9d1b-75556d026d53"},"vehicle_type_id":"4","last_reported":1739193424,"current_range_meters":12400,"station_id":"ce4bhb92rcd13ifvqen0","pricing_plan_id":"cebpf4jnsgd1na2vs0mg"},{"bike_id":"5728af05-01f3-4c14-afd6-c4ebe0f65611","system_id":"levelo_inurba_marseille","lat":43.249946,"lon":5.38934,"is_reserved":false,"is_disabled":false,"rental_uris":{"android":"levelo://app?vid=5728af05-01f3-4c14-afd6-c4ebe0f65611","ios":"levelo://app?vid=5728af05-01f3-4c14-afd6-c4ebe0f65611"},"vehicle_type_id":"4","last_reported":1739193424,"current_range_meters":8000,"station_id":"ce4bhgp2rcd13ifvqfd0","pricing_plan_id":"cebpf4jnsgd1na2vs0mg"},{"bike_id":"c589096b-2f0f-4a04-810c-5a98686a2581","system_id":"levelo_inurba_marseille","lat":43.28105,"lon":5.37839,"is_reserved":false,"is_disabled":false,"rental_uris":{"android":"levelo://app?vid=c589096b-2f0f-4a04-810c-5a98686a2581","ios":"levelo://app?vid=c589096b-2f0f-4a04-810c-5a98686a2581"},"vehicle_type_id":"4","last_reported":1739193424,"current_range_meters":28400,"station_id":"ce4bha12rcd13ifvqee0","pricing_plan_id":"cebpf4jnsgd1na2vs0mg"},{"bike_id":"b57c3c52-f51a-4e18-bdaf-76e91ccd9395","system_id":"levelo_inurba_marseille","lat":43.24178,"lon":5.39727,"is_reserved":false,"is_disabled":false,"rental_uris":{"android":"levelo://app?vid=b57c3c52-f51a-4e18-bdaf-76e91ccd9395","ios":"levelo://app?vid=b57c3c52-f51a-4e18-bdaf-76e91ccd9395"},"vehicle_type_id":"4","last_reported":1739193424,"current_range_meters":38800,"station_id":"ce4bhn12rcd13ifvqgpg","pricing_plan_id":"cebpf4jnsgd1na2vs0mg"},{"bike_id":"3441c74a-282b-45aa-b329-9e43a88c8a80","system_id":"levelo_inurba_marseille","lat":43.24807,"lon":5.37446,"is_reserved":false,"is_disabled":false,"rental_uris":{"android":"levelo://app?vid=3441c74a-282b-45aa-b329-9e43a88c8a80","ios":"levelo://app?vid=3441c74a-282b-45aa-b329-9e43a88c8a80"},"vehicle_type_id":"4","last_reported":1739193424,"current_range_meters":19600,"station_id":"ce4bhgh2rcd13ifvqfb0","pricing_plan_id":"cebpf4jnsgd1na2vs0mg"},{"bike_id":"e00cd517-4a6d-40d8-b46e-27fb98e2bb39","system_id":"levelo_inurba_marseille","lat":43.2845,"lon":5.35899,"is_reserved":false,"is_disabled":false,"rental_uris":{"android":"levelo://app?vid=e00cd517-4a6d-40d8-b46e-27fb98e2bb39","ios":"levelo://app?vid=e00cd517-4a6d-40d8-b46e-27fb98e2bb39"},"vehicle_type_id":"4","last_reported":1739193424,"current_range_meters":39200,"station_id":"ce4bhah2rcd13ifvqei0","pricing_plan_id":"cebpf4jnsgd1na2vs0mg"},{"bike_id":"6d35baf6-b40a-4254-a7f5-d19098690ec0","system_id":"levelo_inurba_marseille","lat":43.30531,"lon":5.36714,"is_reserved":false,"is_disabled":false,"rental_uris":{"android":"levelo://app?vid=6d35baf6-b40a-4254-a7f5-d19098690ec0","ios":"levelo://app?vid=6d35baf6-b40a-4254-a7f5-d19098690ec0"},"vehicle_type_id":"4","last_reported":1739193424,"current_range_meters":30000,"station_id":"ce4bgrp2rcd13ifvqc9g","pricing_plan_id":"cebpf4jnsgd1na2vs0mg"},{"bike_id":"ff7a2a59-7301-40ff-8498-3236d4a83429","system_id":"levelo_inurba_marseille","lat":43.28148,"lon":5.39866,"is_reserved":false,"is_disabled":false,"rental_uris":{"android":"levelo://app?vid=ff7a2a59-7301-40ff-8498-3236d4a83429","ios":"levelo://app?vid=ff7a2a59-7301-40ff-8498-3236d4a83429"},"vehicle_type_id":"4","last_reported":1739193424,"current_range_meters":20400,"station_id":"","pricing_plan_id":"cebpf4jnsgd1na2vs0mg"},{"bike_id":"8e2f681c-56b3-4dbe-acf6-d95949b97842","system_id":"levelo_inurba_marseille","lat":43.301561,"lon":5.380922,"is_reserved":false,"is_disabled":true,"rental_uris":{"android":"levelo://app?vid=8e2f681c-56b3-4dbe-acf6-d95949b97842","ios":"levelo://app?vid=8e2f681c-56b3-4dbe-acf6-d95949b97842"},"vehicle_type_id":"4","last_reported":1739193424,"current_range_meters":27200,"station_id":"","pricing_plan_id":"cebpf4jnsgd1na2vs0mg"},{"bike_id":"fa2aa83b-ea8e-4382-8883-daf1d30785d3","system_id":"levelo_inurba_marseille","lat":43.27073,"lon":5.42281,"is_reserved":false,"is_disabled":false,"rental_uris":{"android":"levelo://app?vid=fa2aa83b-ea8e-4382-8883-daf1d30785d3","ios":"levelo://app?vid=fa2aa83b-ea8e-4382-8883-daf1d30785d3"},"vehicle_type_id":"4","last_reported":1739193424,"current_range_meters":24400,"station_id":"ce4bhk92rcd13ifvqgb0","pricing_plan_id":"cebpf4jnsgd1na2vs0mg"},{"bike_id":"cadf3aa2-6f3e-4c91-b6a3-a66239a3c28a","system_id":"levelo_inurba_marseille","lat":43.32472,"lon":5.36567,"is_reserved":false,"is_disabled":false,"rental_uris":{"android":"levelo://app?vid=cadf3aa2-6f3e-4c91-b6a3-a66239a3c28a","ios":"levelo://app?vid=cadf3aa2-6f3e-4c91-b6a3-a66239a3c28a"},"vehicle_type_id":"4","last_reported":1739193424,"current_range_meters":22800,"station_id":"ce4bhs12rcd13ifvqhvg","pricing_plan_id":"cebpf4jnsgd1na2vs0mg"},{"bike_id":"aee8f912-450c-4494-aedd-b59191e32c78","system_id":"levelo_inurba_marseille","lat":43.24183,"lon":5.3972,"is_reserved":false,"is_disabled":false,"rental_uris":{"android":"levelo://app?vid=aee8f912-450c-4494-aedd-b59191e32c78","ios":"levelo://app?vid=aee8f912-450c-4494-aedd-b59191e32c78"},"vehicle_type_id":"4","last_reported":1739193424,"current_range_meters":27600,"station_id":"ce4bhn12rcd13ifvqgpg","pricing_plan_id":"cebpf4jnsgd1na2vs0mg"},{"bike_id":"b41d8475-1b61-4022-b648-2777adae10ea","system_id":"levelo_inurba_marseille","lat":43.24167,"lon":5.36407,"is_reserved":false,"is_disabled":false,"rental_uris":{"android":"levelo://app?vid=b41d8475-1b61-4022-b648-2777adae10ea","ios":"levelo://app?vid=b41d8475-1b61-4022-b648-2777adae10ea"},"vehicle_type_id":"4","last_reported":1739193424,"current_range_meters":29600,"station_id":"cpo36qri1sfpv3e86is0","pricing_plan_id":"cebpf4jnsgd1na2vs0mg"},{"bike_id":"05435f90-6ca0-445f-8e65-a2fa4d4b2154","system_id":"levelo_inurba_marseille","lat":43.29576,"lon":5.39985,"is_reserved":false,"is_disabled":false,"rental_uris":{"android":"levelo://app?vid=05435f90-6ca0-445f-8e65-a2fa4d4b2154","ios":"levelo://app?vid=05435f90-6ca0-445f-8e65-a2fa4d4b2154"},"vehicle_type_id":"4","last_reported":1739193424,"current_range_meters":7200,"station_id":"ce4bh312rcd13ifvqdj0","pricing_plan_id":"cebpf4jnsgd1na2vs0mg"},{"bike_id":"fdb98918-9302-46a9-a96e-ba658613dc9a","system_id":"levelo_inurba_marseille","lat":43.30191,"lon":5.36604,"is_reserved":false,"is_disabled":false,"rental_uris":{"android":"levelo://app?vid=fdb98918-9302-46a9-a96e-ba658613dc9a","ios":"levelo://app?vid=fdb98918-9302-46a9-a96e-ba658613dc9a"},"vehicle_type_id":"4","last_reported":1739193424,"current_range_meters":26800,"station_id":"ce4bgrh2rcd13ifvqc8g","pricing_plan_id":"cebpf4jnsgd1na2vs0mg"},{"bike_id":"d2073a62-16cd-40e9-bcc5-59550ac04715","system_id":"levelo_inurba_marseille","lat":43.26466,"lon":5.39576,"is_reserved":false,"is_disabled":false,"rental_uris":{"android":"levelo://app?vid=d2073a62-16cd-40e9-bcc5-59550ac04715","ios":"levelo://app?vid=d2073a62-16cd-40e9-bcc5-59550ac04715"},"vehicle_type_id":"4","last_reported":1739193424,"current_range_meters":38800,"station_id":"ce4bhi12rcd13ifvqfq0","pricing_plan_id":"cebpf4jnsgd1na2vs0mg"},{"bike_id":"bed1d796-5dfd-41a0-adca-82db978b7695","system_id":"levelo_inurba_marseille","lat":43.29439,"lon":5.38608,"is_reserved":false,"is_disabled":true,"rental_uris":{"android":"levelo://app?vid=bed1d796-5dfd-41a0-adca-82db978b7695","ios":"levelo://app?vid=bed1d796-5dfd-41a0-adca-82db978b7695"},"vehicle_type_id":"4","last_reported":1739193424,"current_range_meters":33600,"station_id":"ce4bh2h2rcd13ifvqdh0","pricing_plan_id":"cebpf4jnsgd1na2vs0mg"},{"bike_id":"d3591e02-e841-4886-88af-8db6004e794b","system_id":"levelo_inurba_marseille","lat":43.30528,"lon":5.36717,"is_reserved":false,"is_disabled":false,"rental_uris":{"android":"levelo://app?vid=d3591e02-e841-4886-88af-8db6004e794b","ios":"levelo://app?vid=d3591e02-e841-4886-88af-8db6004e794b"},"vehicle_type_id":"4","last_reported":1739193424,"current_range_meters":39200,"station_id":"ce4bgrp2rcd13ifvqc9g","pricing_plan_id":"cebpf4jnsgd1na2vs0mg"},{"bike_id":"51ab7186-5043-4bed-baca-73708608a302","system_id":"levelo_inurba_marseille","lat":43.29584,"lon":5.37026,"is_reserved":false,"is_disabled":true,"rental_uris":{"android":"levelo://app?vid=51ab7186-5043-4bed-baca-73708608a302","ios":"levelo://app?vid=51ab7186-5043-4bed-baca-73708608a302"},"vehicle_type_id":"4","last_reported":1739193424,"current_range_meters":11600,"station_id":"","pricing_plan_id":"cebpf4jnsgd1na2vs0mg"},{"bike_id":"70478788-e3d0-4c62-88f0-f0f33b97aa7e","system_id":"levelo_inurba_marseille","lat":43.27205,"lon":5.39196,"is_reserved":false,"is_disabled":false,"rental_uris":{"android":"levelo://app?vid=70478788-e3d0-4c62-88f0-f0f33b97aa7e","ios":"levelo://app?vid=70478788-e3d0-4c62-88f0-f0f33b97aa7e"},"vehicle_type_id":"4","last_reported":1739193424,"current_range_meters":38800,"station_id":"ce4bhhp2rcd13ifvqfm0","pricing_plan_id":"cebpf4jnsgd1na2vs0mg"},{"bike_id":"18e2ee96-ba19-4748-909f-e879ca84f5b5","system_id":"levelo_inurba_marseille","lat":43.27812,"lon":5.407294,"is_reserved":false,"is_disabled":false,"rental_uris":{"android":"levelo://app?vid=18e2ee96-ba19-4748-909f-e879ca84f5b5","ios":"levelo://app?vid=18e2ee96-ba19-4748-909f-e879ca84f5b5"},"vehicle_type_id":"4","last_reported":1739193424,"current_range_meters":38000,"station_id":"ce4bhnh2rcd13ifvqgtg","pricing_plan_id":"cebpf4jnsgd1na2vs0mg"},{"bike_id":"6bf584aa-4c4f-4f88-a9b6-6d0eb0dcbbb2","system_id":"levelo_inurba_marseille","lat":43.31392,"lon":5.36677,"is_reserved":false,"is_disabled":false,"rental_uris":{"android":"levelo://app?vid=6bf584aa-4c4f-4f88-a9b6-6d0eb0dcbbb2","ios":"levelo://app?vid=6bf584aa-4c4f-4f88-a9b6-6d0eb0dcbbb2"},"vehicle_type_id":"4","last_reported":1739193424,"current_range_meters":39200,"station_id":"ce4bgr92rcd13ifvqc6g","pricing_plan_id":"cebpf4jnsgd1na2vs0mg"},{"bike_id":"6786f0a6-4038-4cb8-ac65-e731d74f4379","system_id":"levelo_inurba_marseille","lat":43.27424,"lon":5.3942,"is_reserved":false,"is_disabled":false,"rental_uris":{"android":"levelo://app?vid=6786f0a6-4038-4cb8-ac65-e731d74f4379","ios":"levelo://app?vid=6786f0a6-4038-4cb8-ac65-e731d74f4379"},"vehicle_type_id":"4","last_reported":1739193424,"current_range_meters":22000,"station_id":"ce4bhdp2rcd13ifvqf20","pricing_plan_id":"cebpf4jnsgd1na2vs0mg"},{"bike_id":"c0de218c-7f00-4b8c-b10d-6f705528c625","system_id":"levelo_inurba_marseille","lat":43.29932,"lon":5.36554,"is_reserved":false,"is_disabled":false,"rental_uris":{"android":"levelo://app?vid=c0de218c-7f00-4b8c-b10d-6f705528c625","ios":"levelo://app?vid=c0de218c-7f00-4b8c-b10d-6f705528c625"},"vehicle_type_id":"4","last_reported":1739193424,"current_range_meters":36800,"station_id":"ce4bgm92rcd13ifvqbr0","pricing_plan_id":"cebpf4jnsgd1na2vs0mg"},{"bike_id":"14f83f93-1c84-46be-a879-d5ef2af23a46","system_id":"levelo_inurba_marseille","lat":43.23953,"lon":5.36614,"is_reserved":false,"is_disabled":false,"rental_uris":{"android":"levelo://app?vid=14f83f93-1c84-46be-a879-d5ef2af23a46","ios":"levelo://app?vid=14f83f93-1c84-46be-a879-d5ef2af23a46"},"vehicle_type_id":"4","last_reported":1739193424,"current_range_meters":12800,"station_id":"ce4bhi12rcd13ifvqfp0","pricing_plan_id":"cebpf4jnsgd1na2vs0mg"},{"bike_id":"cfaf55cc-98e0-4b5b-a060-c1d4662467a4","system_id":"levelo_inurba_marseille","lat":43.33602,"lon":5.4097,"is_reserved":false,"is_disabled":false,"rental_uris":{"android":"levelo://app?vid=cfaf55cc-98e0-4b5b-a060-c1d4662467a4","ios":"levelo://app?vid=cfaf55cc-98e0-4b5b-a060-c1d4662467a4"},"vehicle_type_id":"4","last_reported":1739193424,"current_range_meters":30400,"station_id":"ce4bhqh2rcd13ifvqhmg","pricing_plan_id":"cebpf4jnsgd1na2vs0mg"},{"bike_id":"0cdcc8f7-f674-43f1-9b73-0f1949650402","system_id":"levelo_inurba_marseille","lat":43.23962,"lon":5.366297,"is_reserved":false,"is_disabled":false,"rental_uris":{"android":"levelo://app?vid=0cdcc8f7-f674-43f1-9b73-0f1949650402","ios":"levelo://app?vid=0cdcc8f7-f674-43f1-9b73-0f1949650402"},"vehicle_type_id":"4","last_reported":1739193424,"current_range_meters":38000,"station_id":"ce4bhi12rcd13ifvqfp0","pricing_plan_id":"cebpf4jnsgd1na2vs0mg"},{"bike_id":"34bb1c38-a48a-4f88-b8db-bfdd613d1995","system_id":"levelo_inurba_marseille","lat":43.26219,"lon":5.40455,"is_reserved":false,"is_disabled":false,"rental_uris":{"android":"levelo://app?vid=34bb1c38-a48a-4f88-b8db-bfdd613d1995","ios":"levelo://app?vid=34bb1c38-a48a-4f88-b8db-bfdd613d1995"},"vehicle_type_id":"4","last_reported":1739193424,"current_range_meters":18000,"station_id":"ce4bhmh2rcd13ifvqgmg","pricing_plan_id":"cebpf4jnsgd1na2vs0mg"},{"bike_id":"bd9fee3b-f26e-4b06-a6d2-4bd87faa47b9","system_id":"levelo_inurba_marseille","lat":43.30097,"lon":5.39077,"is_reserved":false,"is_disabled":false,"rental_uris":{"android":"levelo://app?vid=bd9fee3b-f26e-4b06-a6d2-4bd87faa47b9","ios":"levelo://app?vid=bd9fee3b-f26e-4b06-a6d2-4bd87faa47b9"},"vehicle_type_id":"4","last_reported":1739193424,"current_range_meters":34000,"station_id":"ce4bh192rcd13ifvqdb0","pricing_plan_id":"cebpf4jnsgd1na2vs0mg"},{"bike_id":"68fe6afb-db20-4a45-9dea-853aa87dc6cc","system_id":"levelo_inurba_marseille","lat":43.337444,"lon":5.374475,"is_reserved":false,"is_disabled":false,"rental_uris":{"android":"levelo://app?vid=68fe6afb-db20-4a45-9dea-853aa87dc6cc","ios":"levelo://app?vid=68fe6afb-db20-4a45-9dea-853aa87dc6cc"},"vehicle_type_id":"4","last_reported":1739193424,"current_range_meters":38800,"station_id":"","pricing_plan_id":"cebpf4jnsgd1na2vs0mg"},{"bike_id":"66776b49-5a24-4829-aa64-d290023efbe7","system_id":"levelo_inurba_marseille","lat":43.31901,"lon":5.40734,"is_reserved":false,"is_disabled":false,"rental_uris":{"android":"levelo://app?vid=66776b49-5a24-4829-aa64-d290023efbe7","ios":"levelo://app?vid=66776b49-5a24-4829-aa64-d290023efbe7"},"vehicle_type_id":"4","last_reported":1739193424,"current_range_meters":38800,"station_id":"ce4bhq12rcd13ifvqhig","pricing_plan_id":"cebpf4jnsgd1na2vs0mg"},{"bike_id":"ee079ffa-4416-4a91-bc98-3bd665acea3b","system_id":"levelo_inurba_marseille","lat":43.337279,"lon":5.391885,"is_reserved":false,"is_disabled":false,"rental_uris":{"android":"levelo://app?vid=ee079ffa-4416-4a91-bc98-3bd665acea3b","ios":"levelo://app?vid=ee079ffa-4416-4a91-bc98-3bd665acea3b"},"vehicle_type_id":"4","last_reported":1739193424,"current_range_meters":39200,"station_id":"ce4bhr92rcd13ifvqhsg","pricing_plan_id":"cebpf4jnsgd1na2vs0mg"},{"bike_id":"1fa82dc6-47d4-4356-bbca-393bf4461726","system_id":"levelo_inurba_marseille","lat":43.23961,"lon":5.36626,"is_reserved":false,"is_disabled":false,"rental_uris":{"android":"levelo://app?vid=1fa82dc6-47d4-4356-bbca-393bf4461726","ios":"levelo://app?vid=1fa82dc6-47d4-4356-bbca-393bf4461726"},"vehicle_type_id":"4","last_reported":1739193424,"current_range_meters":24000,"station_id":"ce4bhi12rcd13ifvqfp0","pricing_plan_id":"cebpf4jnsgd1na2vs0mg"},{"bike_id":"98754fe9-cb55-4db3-ac06-4ba83f0ae895","system_id":"levelo_inurba_marseille","lat":43.30473,"lon":5.37911,"is_reserved":false,"is_disabled":false,"rental_uris":{"android":"levelo://app?vid=98754fe9-cb55-4db3-ac06-4ba83f0ae895","ios":"levelo://app?vid=98754fe9-cb55-4db3-ac06-4ba83f0ae895"},"vehicle_type_id":"4","last_reported":1739193424,"current_range_meters":28400,"station_id":"ce4bgup2rcd13ifvqcn0","pricing_plan_id":"cebpf4jnsgd1na2vs0mg"},{"bike_id":"6e0a8eb8-1830-4586-9cf6-125e1f050f96","system_id":"levelo_inurba_marseille","lat":43.26207,"lon":5.374407,"is_reserved":false,"is_disabled":false,"rental_uris":{"android":"levelo://app?vid=6e0a8eb8-1830-4586-9cf6-125e1f050f96","ios":"levelo://app?vid=6e0a8eb8-1830-4586-9cf6-125e1f050f96"},"vehicle_type_id":"4","last_reported":1739193424,"current_range_meters":14000,"station_id":"ce4bhgp2rcd13ifvqfc0","pricing_plan_id":"cebpf4jnsgd1na2vs0mg"},{"bike_id":"b463dfee-0d20-4ab9-819a-c7b4ad766bca","system_id":"levelo_inurba_marseille","lat":43.23155,"lon":5.43723,"is_reserved":false,"is_disabled":false,"rental_uris":{"android":"levelo://app?vid=b463dfee-0d20-4ab9-819a-c7b4ad766bca","ios":"levelo://app?vid=b463dfee-0d20-4ab9-819a-c7b4ad766bca"},"vehicle_type_id":"4","last_reported":1739193424,"current_range_meters":19600,"station_id":"ce4bhmp2rcd13ifvqgog","pricing_plan_id":"cebpf4jnsgd1na2vs0mg"},{"bike_id":"8538082d-d32f-4abb-b19f-d0a609e586ba","system_id":"levelo_inurba_marseille","lat":43.34115,"lon":5.4089,"is_reserved":false,"is_disabled":false,"rental_uris":{"android":"levelo://app?vid=8538082d-d32f-4abb-b19f-d0a609e586ba","ios":"levelo://app?vid=8538082d-d32f-4abb-b19f-d0a609e586ba"},"vehicle_type_id":"4","last_reported":1739193424,"current_range_meters":38800,"station_id":"ce4bhqh2rcd13ifvqhlg","pricing_plan_id":"cebpf4jnsgd1na2vs0mg"},{"bike_id":"67c77a93-95e0-4dde-b030-1b6a0f65cf9a","system_id":"levelo_inurba_marseille","lat":43.27186,"lon":5.410054,"is_reserved":false,"is_disabled":false,"rental_uris":{"android":"levelo://app?vid=67c77a93-95e0-4dde-b030-1b6a0f65cf9a","ios":"levelo://app?vid=67c77a93-95e0-4dde-b030-1b6a0f65cf9a"},"vehicle_type_id":"4","last_reported":1739193424,"current_range_meters":12800,"station_id":"ce4bhl12rcd13ifvqgf0","pricing_plan_id":"cebpf4jnsgd1na2vs0mg"},{"bike_id":"a19c1ced-506b-4c8a-b5bd-15fe6933ad7c","system_id":"levelo_inurba_marseille","lat":43.257138,"lon":5.411108,"is_reserved":false,"is_disabled":false,"rental_uris":{"android":"levelo://app?vid=a19c1ced-506b-4c8a-b5bd-15fe6933ad7c","ios":"levelo://app?vid=a19c1ced-506b-4c8a-b5bd-15fe6933ad7c"},"vehicle_type_id":"4","last_reported":1739193424,"current_range_meters":38800,"station_id":"ce4bhkp2rcd13ifvqgd0","pricing_plan_id":"cebpf4jnsgd1na2vs0mg"},{"bike_id":"2b224cb5-81d2-4fae-9b53-9e89b202ec4a","system_id":"levelo_inurba_marseille","lat":43.27407,"lon":5.39401,"is_reserved":false,"is_disabled":false,"rental_uris":{"android":"levelo://app?vid=2b224cb5-81d2-4fae-9b53-9e89b202ec4a","ios":"levelo://app?vid=2b224cb5-81d2-4fae-9b53-9e89b202ec4a"},"vehicle_type_id":"4","last_reported":1739193424,"current_range_meters":38800,"station_id":"ce4bhdp2rcd13ifvqf20","pricing_plan_id":"cebpf4jnsgd1na2vs0mg"},{"bike_id":"f53564a4-cbf9-4b55-bb72-8eda8cad3a05","system_id":"levelo_inurba_marseille","lat":43.27062,"lon":5.42258,"is_reserved":false,"is_disabled":false,"rental_uris":{"android":"levelo://app?vid=f53564a4-cbf9-4b55-bb72-8eda8cad3a05","ios":"levelo://app?vid=f53564a4-cbf9-4b55-bb72-8eda8cad3a05"},"vehicle_type_id":"4","last_reported":1739193424,"current_range_meters":23200,"station_id":"ce4bhk92rcd13ifvqgb0","pricing_plan_id":"cebpf4jnsgd1na2vs0mg"},{"bike_id":"094ce0d3-0869-4a4e-bc44-e588765eb895","system_id":"levelo_inurba_marseille","lat":43.27559,"lon":5.3842,"is_reserved":false,"is_disabled":false,"rental_uris":{"android":"levelo://app?vid=094ce0d3-0869-4a4e-bc44-e588765eb895","ios":"levelo://app?vid=094ce0d3-0869-4a4e-bc44-e588765eb895"},"vehicle_type_id":"4","last_reported":1739193424,"current_range_meters":15200,"station_id":"ce4bhh92rcd13ifvqfi0","pricing_plan_id":"cebpf4jnsgd1na2vs0mg"},{"bike_id":"05f6ac8f-0127-4e39-bd11-d53a74225ef8","system_id":"levelo_inurba_marseille","lat":43.27874,"lon":5.40597,"is_reserved":false,"is_disabled":true,"rental_uris":{"android":"levelo://app?vid=05f6ac8f-0127-4e39-bd11-d53a74225ef8","ios":"levelo://app?vid=05f6ac8f-0127-4e39-bd11-d53a74225ef8"},"vehicle_type_id":"4","last_reported":1739193424,"current_range_meters":0,"station_id":"","pricing_plan_id":"cebpf4jnsgd1na2vs0mg"},{"bike_id":"ae573ce6-0d15-4e2b-abc8-f4b1d60833fb","system_id":"levelo_inurba_marseille","lat":43.30188,"lon":5.36609,"is_reserved":false,"is_disabled":false,"rental_uris":{"android":"levelo://app?vid=ae573ce6-0d15-4e2b-abc8-f4b1d60833fb","ios":"levelo://app?vid=ae573ce6-0d15-4e2b-abc8-f4b1d60833fb"},"vehicle_type_id":"4","last_reported":1739193424,"current_range_meters":38400,"station_id":"ce4bgrh2rcd13ifvqc8g","pricing_plan_id":"cebpf4jnsgd1na2vs0mg"},{"bike_id":"efe7637c-9f55-4017-a969-c371bd5e3a3b","system_id":"levelo_inurba_marseille","lat":43.24078,"lon":5.37754,"is_reserved":false,"is_disabled":false,"rental_uris":{"android":"levelo://app?vid=efe7637c-9f55-4017-a969-c371bd5e3a3b","ios":"levelo://app?vid=efe7637c-9f55-4017-a969-c371bd5e3a3b"},"vehicle_type_id":"4","last_reported":1739193424,"current_range_meters":38000,"station_id":"ce4bhnp2rcd13ifvqgvg","pricing_plan_id":"cebpf4jnsgd1na2vs0mg"},{"bike_id":"a00481ec-02ea-49dc-8d55-5199fc7162d1","system_id":"levelo_inurba_marseille","lat":43.27208,"lon":5.39188,"is_reserved":false,"is_disabled":false,"rental_uris":{"android":"levelo://app?vid=a00481ec-02ea-49dc-8d55-5199fc7162d1","ios":"levelo://app?vid=a00481ec-02ea-49dc-8d55-5199fc7162d1"},"vehicle_type_id":"4","last_reported":1739193424,"current_range_meters":36800,"station_id":"ce4bhhp2rcd13ifvqfm0","pricing_plan_id":"cebpf4jnsgd1na2vs0mg"},{"bike_id":"e712b90a-1ebf-47ac-9657-5976c46b547b","system_id":"levelo_inurba_marseille","lat":43.3033,"lon":5.3925,"is_reserved":false,"is_disabled":false,"rental_uris":{"android":"levelo://app?vid=e712b90a-1ebf-47ac-9657-5976c46b547b","ios":"levelo://app?vid=e712b90a-1ebf-47ac-9657-5976c46b547b"},"vehicle_type_id":"4","last_reported":1739193424,"current_range_meters":33200,"station_id":"ce4bgkh2rcd13ifvqbk0","pricing_plan_id":"cebpf4jnsgd1na2vs0mg"},{"bike_id":"2eea4c91-5e17-44e1-aca2-005fa23f7a0c","system_id":"levelo_inurba_marseille","lat":43.31219,"lon":5.36851,"is_reserved":false,"is_disabled":false,"rental_uris":{"android":"levelo://app?vid=2eea4c91-5e17-44e1-aca2-005fa23f7a0c","ios":"levelo://app?vid=2eea4c91-5e17-44e1-aca2-005fa23f7a0c"},"vehicle_type_id":"4","last_reported":1739193424,"current_range_meters":22800,"station_id":"ce4bgl92rcd13ifvqbq0","pricing_plan_id":"cebpf4jnsgd1na2vs0mg"},{"bike_id":"f4b26390-acd7-49a5-b9ae-eb2e2296da89","system_id":"levelo_inurba_marseille","lat":43.32479,"lon":5.36559,"is_reserved":false,"is_disabled":false,"rental_uris":{"android":"levelo://app?vid=f4b26390-acd7-49a5-b9ae-eb2e2296da89","ios":"levelo://app?vid=f4b26390-acd7-49a5-b9ae-eb2e2296da89"},"vehicle_type_id":"4","last_reported":1739193424,"current_range_meters":38800,"station_id":"ce4bhs12rcd13ifvqhvg","pricing_plan_id":"cebpf4jnsgd1na2vs0mg"},{"bike_id":"fd7cd6eb-8023-4160-9061-39fa556cf25c","system_id":"levelo_inurba_marseille","lat":43.30315,"lon":5.40448,"is_reserved":false,"is_disabled":true,"rental_uris":{"android":"levelo://app?vid=fd7cd6eb-8023-4160-9061-39fa556cf25c","ios":"levelo://app?vid=fd7cd6eb-8023-4160-9061-39fa556cf25c"},"vehicle_type_id":"4","last_reported":1739193424,"current_range_meters":32800,"station_id":"ce4bh012rcd13ifvqd10","pricing_plan_id":"cebpf4jnsgd1na2vs0mg"},{"bike_id":"0e21f7aa-06e5-493f-93a8-8a8d203cf3cf","system_id":"levelo_inurba_marseille","lat":43.31709,"lon":5.40476,"is_reserved":false,"is_disabled":false,"rental_uris":{"android":"levelo://app?vid=0e21f7aa-06e5-493f-93a8-8a8d203cf3cf","ios":"levelo://app?vid=0e21f7aa-06e5-493f-93a8-8a8d203cf3cf"},"vehicle_type_id":"4","last_reported":1739193424,"current_range_meters":21600,"station_id":"ce4bh012rcd13ifvqd00","pricing_plan_id":"cebpf4jnsgd1na2vs0mg"},{"bike_id":"d32849cf-4c14-4032-9063-172d06d3f04f","system_id":"levelo_inurba_marseille","lat":43.23191,"lon":5.355654,"is_reserved":false,"is_disabled":false,"rental_uris":{"android":"levelo://app?vid=d32849cf-4c14-4032-9063-172d06d3f04f","ios":"levelo://app?vid=d32849cf-4c14-4032-9063-172d06d3f04f"},"vehicle_type_id":"4","last_reported":1739193424,"current_range_meters":37600,"station_id":"ce4bhu92rcd13ifvqi70","pricing_plan_id":"cebpf4jnsgd1na2vs0mg"},{"bike_id":"69060a9d-ce79-4e24-8c56-417c8b6293b7","system_id":"levelo_inurba_marseille","lat":43.25145,"lon":5.40342,"is_reserved":false,"is_disabled":false,"rental_uris":{"android":"levelo://app?vid=69060a9d-ce79-4e24-8c56-417c8b6293b7","ios":"levelo://app?vid=69060a9d-ce79-4e24-8c56-417c8b6293b7"},"vehicle_type_id":"4","last_reported":1739193424,"current_range_meters":30000,"station_id":"ce4bhlh2rcd13ifvqgig","pricing_plan_id":"cebpf4jnsgd1na2vs0mg"},{"bike_id":"d6a11c08-1c14-42b6-afce-3c3919b42b0d","system_id":"levelo_inurba_marseille","lat":43.29584,"lon":5.37517,"is_reserved":false,"is_disabled":false,"rental_uris":{"android":"levelo://app?vid=d6a11c08-1c14-42b6-afce-3c3919b42b0d","ios":"levelo://app?vid=d6a11c08-1c14-42b6-afce-3c3919b42b0d"},"vehicle_type_id":"4","last_reported":1739193424,"current_range_meters":38800,"station_id":"ce4bgh92rcd13ifvqb50","pricing_plan_id":"cebpf4jnsgd1na2vs0mg"},{"bike_id":"c9183c5f-2c06-4142-9ef2-1b55015ec229","system_id":"levelo_inurba_marseille","lat":43.27209,"lon":5.39185,"is_reserved":false,"is_disabled":false,"rental_uris":{"android":"levelo://app?vid=c9183c5f-2c06-4142-9ef2-1b55015ec229","ios":"levelo://app?vid=c9183c5f-2c06-4142-9ef2-1b55015ec229"},"vehicle_type_id":"4","last_reported":1739193424,"current_range_meters":38800,"station_id":"ce4bhhp2rcd13ifvqfm0","pricing_plan_id":"cebpf4jnsgd1na2vs0mg"},{"bike_id":"9a61f1b5-e674-471c-bc9c-e7e7fd89df11","system_id":"levelo_inurba_marseille","lat":43.27054,"lon":5.40263,"is_reserved":false,"is_disabled":false,"rental_uris":{"android":"levelo://app?vid=9a61f1b5-e674-471c-bc9c-e7e7fd89df11","ios":"levelo://app?vid=9a61f1b5-e674-471c-bc9c-e7e7fd89df11"},"vehicle_type_id":"4","last_reported":1739193424,"current_range_meters":24400,"station_id":"ce4bhk92rcd13ifvqgc0","pricing_plan_id":"cebpf4jnsgd1na2vs0mg"},{"bike_id":"b7cfafc0-fba3-47fa-8c3d-d96c6bee1f7a","system_id":"levelo_inurba_marseille","lat":43.24396,"lon":5.37057,"is_reserved":false,"is_disabled":false,"rental_uris":{"android":"levelo://app?vid=b7cfafc0-fba3-47fa-8c3d-d96c6bee1f7a","ios":"levelo://app?vid=b7cfafc0-fba3-47fa-8c3d-d96c6bee1f7a"},"vehicle_type_id":"4","last_reported":1739193424,"current_range_meters":36400,"station_id":"ce4bhhh2rcd13ifvqfk0","pricing_plan_id":"cebpf4jnsgd1na2vs0mg"},{"bike_id":"8017650e-fddd-4161-8c1a-75916b0435b9","system_id":"levelo_inurba_marseille","lat":43.2418,"lon":5.39739,"is_reserved":false,"is_disabled":false,"rental_uris":{"android":"levelo://app?vid=8017650e-fddd-4161-8c1a-75916b0435b9","ios":"levelo://app?vid=8017650e-fddd-4161-8c1a-75916b0435b9"},"vehicle_type_id":"4","last_reported":1739193424,"current_range_meters":38400,"station_id":"ce4bhn12rcd13ifvqgpg","pricing_plan_id":"cebpf4jnsgd1na2vs0mg"},{"bike_id":"61c2d911-dd8e-486d-a0bf-4941c2e96fee","system_id":"levelo_inurba_marseille","lat":43.29184,"lon":5.3716,"is_reserved":false,"is_disabled":false,"rental_uris":{"android":"levelo://app?vid=61c2d911-dd8e-486d-a0bf-4941c2e96fee","ios":"levelo://app?vid=61c2d911-dd8e-486d-a0bf-4941c2e96fee"},"vehicle_type_id":"4","last_reported":1739193424,"current_range_meters":37600,"station_id":"ce4bha92rcd13ifvqeh0","pricing_plan_id":"cebpf4jnsgd1na2vs0mg"},{"bike_id":"8c6282ff-cc19-4b4a-a5da-222818127f79","system_id":"levelo_inurba_marseille","lat":43.29918,"lon":5.37492,"is_reserved":false,"is_disabled":true,"rental_uris":{"android":"levelo://app?vid=8c6282ff-cc19-4b4a-a5da-222818127f79","ios":"levelo://app?vid=8c6282ff-cc19-4b4a-a5da-222818127f79"},"vehicle_type_id":"4","last_reported":1739193424,"current_range_meters":800,"station_id":"ce4bgjh2rcd13ifvqbg0","pricing_plan_id":"cebpf4jnsgd1na2vs0mg"},{"bike_id":"386a5c6b-0374-40ee-8fee-068f2ec38f9b","system_id":"levelo_inurba_marseille","lat":43.23964,"lon":5.36622,"is_reserved":false,"is_disabled":false,"rental_uris":{"android":"levelo://app?vid=386a5c6b-0374-40ee-8fee-068f2ec38f9b","ios":"levelo://app?vid=386a5c6b-0374-40ee-8fee-068f2ec38f9b"},"vehicle_type_id":"4","last_reported":1739193424,"current_range_meters":16400,"station_id":"ce4bhi12rcd13ifvqfp0","pricing_plan_id":"cebpf4jnsgd1na2vs0mg"},{"bike_id":"d4897387-d94a-4836-8801-67bff7723442","system_id":"levelo_inurba_marseille","lat":43.23192,"lon":5.39984,"is_reserved":false,"is_disabled":true,"rental_uris":{"android":"levelo://app?vid=d4897387-d94a-4836-8801-67bff7723442","ios":"levelo://app?vid=d4897387-d94a-4836-8801-67bff7723442"},"vehicle_type_id":"4","last_reported":1739193424,"current_range_meters":0,"station_id":"ce4bhn12rcd13ifvqgqg","pricing_plan_id":"cebpf4jnsgd1na2vs0mg"},{"bike_id":"9ed77109-43e5-441b-b7a7-20bb19a32601","system_id":"levelo_inurba_marseille","lat":43.290624,"lon":5.371618,"is_reserved":false,"is_disabled":false,"rental_uris":{"android":"levelo://app?vid=9ed77109-43e5-441b-b7a7-20bb19a32601","ios":"levelo://app?vid=9ed77109-43e5-441b-b7a7-20bb19a32601"},"vehicle_type_id":"4","last_reported":1739193424,"current_range_meters":35200,"station_id":"ce4bh5p2rcd13ifvqe4g","pricing_plan_id":"cebpf4jnsgd1na2vs0mg"},{"bike_id":"cb0f8030-7612-42fa-b557-e3d6b3c0424b","system_id":"levelo_inurba_marseille","lat":43.27991,"lon":5.40018,"is_reserved":false,"is_disabled":false,"rental_uris":{"android":"levelo://app?vid=cb0f8030-7612-42fa-b557-e3d6b3c0424b","ios":"levelo://app?vid=cb0f8030-7612-42fa-b557-e3d6b3c0424b"},"vehicle_type_id":"4","last_reported":1739193424,"current_range_meters":36400,"station_id":"ce4bho92rcd13ifvqh4g","pricing_plan_id":"cebpf4jnsgd1na2vs0mg"},{"bike_id":"5204b727-c44d-4ec6-8ea2-acfda2c12272","system_id":"levelo_inurba_marseille","lat":43.32472,"lon":5.3657,"is_reserved":false,"is_disabled":false,"rental_uris":{"android":"levelo://app?vid=5204b727-c44d-4ec6-8ea2-acfda2c12272","ios":"levelo://app?vid=5204b727-c44d-4ec6-8ea2-acfda2c12272"},"vehicle_type_id":"4","last_reported":1739193424,"current_range_meters":26000,"station_id":"ce4bhs12rcd13ifvqhvg","pricing_plan_id":"cebpf4jnsgd1na2vs0mg"},{"bike_id":"6d6c1a71-cbc1-478c-b892-05b3c8cff896","system_id":"levelo_inurba_marseille","lat":43.30546,"lon":5.36517,"is_reserved":false,"is_disabled":false,"rental_uris":{"android":"levelo://app?vid=6d6c1a71-cbc1-478c-b892-05b3c8cff896","ios":"levelo://app?vid=6d6c1a71-cbc1-478c-b892-05b3c8cff896"},"vehicle_type_id":"4","last_reported":1739193424,"current_range_meters":38000,"station_id":"ce4bgs12rcd13ifvqcag","pricing_plan_id":"cebpf4jnsgd1na2vs0mg"},{"bike_id":"73b39d6d-d0cd-4a6f-b640-00ba01cd5a86","system_id":"levelo_inurba_marseille","lat":43.31166,"lon":5.38716,"is_reserved":false,"is_disabled":false,"rental_uris":{"android":"levelo://app?vid=73b39d6d-d0cd-4a6f-b640-00ba01cd5a86","ios":"levelo://app?vid=73b39d6d-d0cd-4a6f-b640-00ba01cd5a86"},"vehicle_type_id":"4","last_reported":1739193424,"current_range_meters":30400,"station_id":"ce4bgv12rcd13ifvqcp0","pricing_plan_id":"cebpf4jnsgd1na2vs0mg"},{"bike_id":"f59f75bc-7716-45c9-b882-54be64749457","system_id":"levelo_inurba_marseille","lat":43.29203,"lon":5.39325,"is_reserved":false,"is_disabled":false,"rental_uris":{"android":"levelo://app?vid=f59f75bc-7716-45c9-b882-54be64749457","ios":"levelo://app?vid=f59f75bc-7716-45c9-b882-54be64749457"},"vehicle_type_id":"4","last_reported":1739193424,"current_range_meters":29600,"station_id":"ce4bh192rcd13ifvqdd0","pricing_plan_id":"cebpf4jnsgd1na2vs0mg"},{"bike_id":"5597fbbe-01c0-4c46-9be1-fdc8f64b8f5c","system_id":"levelo_inurba_marseille","lat":43.30943,"lon":5.38999,"is_reserved":false,"is_disabled":false,"rental_uris":{"android":"levelo://app?vid=5597fbbe-01c0-4c46-9be1-fdc8f64b8f5c","ios":"levelo://app?vid=5597fbbe-01c0-4c46-9be1-fdc8f64b8f5c"},"vehicle_type_id":"4","last_reported":1739193424,"current_range_meters":36800,"station_id":"ce4bgup2rcd13ifvqco0","pricing_plan_id":"cebpf4jnsgd1na2vs0mg"},{"bike_id":"444df73d-d66d-4ef2-9b59-6e409b523fa0","system_id":"levelo_inurba_marseille","lat":43.27998,"lon":5.39995,"is_reserved":false,"is_disabled":false,"rental_uris":{"android":"levelo://app?vid=444df73d-d66d-4ef2-9b59-6e409b523fa0","ios":"levelo://app?vid=444df73d-d66d-4ef2-9b59-6e409b523fa0"},"vehicle_type_id":"4","last_reported":1739193424,"current_range_meters":38800,"station_id":"ce4bho92rcd13ifvqh4g","pricing_plan_id":"cebpf4jnsgd1na2vs0mg"},{"bike_id":"f2c1f718-908f-4e45-ab14-588547e3dffd","system_id":"levelo_inurba_marseille","lat":43.27312,"lon":5.39067,"is_reserved":false,"is_disabled":false,"rental_uris":{"android":"levelo://app?vid=f2c1f718-908f-4e45-ab14-588547e3dffd","ios":"levelo://app?vid=f2c1f718-908f-4e45-ab14-588547e3dffd"},"vehicle_type_id":"4","last_reported":1739193424,"current_range_meters":38800,"station_id":"ce4bhgp2rcd13ifvqfe0","pricing_plan_id":"cebpf4jnsgd1na2vs0mg"},{"bike_id":"747290f5-d9dd-4c4e-88dc-043a24163afe","system_id":"levelo_inurba_marseille","lat":43.246462,"lon":5.389199,"is_reserved":false,"is_disabled":false,"rental_uris":{"android":"levelo://app?vid=747290f5-d9dd-4c4e-88dc-043a24163afe","ios":"levelo://app?vid=747290f5-d9dd-4c4e-88dc-043a24163afe"},"vehicle_type_id":"4","last_reported":1739193424,"current_range_meters":38800,"station_id":"ce4bhg12rcd13ifvqf60","pricing_plan_id":"cebpf4jnsgd1na2vs0mg"},{"bike_id":"29cac0d6-e0de-4b5c-ab01-5ab56535b15a","system_id":"levelo_inurba_marseille","lat":43.28707,"lon":5.39981,"is_reserved":false,"is_disabled":true,"rental_uris":{"android":"levelo://app?vid=29cac0d6-e0de-4b5c-ab01-5ab56535b15a","ios":"levelo://app?vid=29cac0d6-e0de-4b5c-ab01-5ab56535b15a"},"vehicle_type_id":"4","last_reported":1739193424,"current_range_meters":38800,"station_id":"ce4bho92rcd13ifvqh3g","pricing_plan_id":"cebpf4jnsgd1na2vs0mg"},{"bike_id":"ad624044-36c8-4e6b-bed4-a1b1869f98c7","system_id":"levelo_inurba_marseille","lat":43.29975,"lon":5.37166,"is_reserved":false,"is_disabled":false,"rental_uris":{"android":"levelo://app?vid=ad624044-36c8-4e6b-bed4-a1b1869f98c7","ios":"levelo://app?vid=ad624044-36c8-4e6b-bed4-a1b1869f98c7"},"vehicle_type_id":"4","last_reported":1739193424,"current_range_meters":38800,"station_id":"ce4bgr92rcd13ifvqc7g","pricing_plan_id":"cebpf4jnsgd1na2vs0mg"},{"bike_id":"9571229b-d1f4-46a1-804f-ae5b773e1183","system_id":"levelo_inurba_marseille","lat":43.29982,"lon":5.38481,"is_reserved":false,"is_disabled":false,"rental_uris":{"android":"levelo://app?vid=9571229b-d1f4-46a1-804f-ae5b773e1183","ios":"levelo://app?vid=9571229b-d1f4-46a1-804f-ae5b773e1183"},"vehicle_type_id":"4","last_reported":1739193424,"current_range_meters":38400,"station_id":"ce4bgj92rcd13ifvqbd0","pricing_plan_id":"cebpf4jnsgd1na2vs0mg"},{"bike_id":"9f443121-e8ff-4aac-bc9a-d9077c8e664b","system_id":"levelo_inurba_marseille","lat":43.27069,"lon":5.42278,"is_reserved":false,"is_disabled":false,"rental_uris":{"android":"levelo://app?vid=9f443121-e8ff-4aac-bc9a-d9077c8e664b","ios":"levelo://app?vid=9f443121-e8ff-4aac-bc9a-d9077c8e664b"},"vehicle_type_id":"4","last_reported":1739193424,"current_range_meters":29600,"station_id":"ce4bhk92rcd13ifvqgb0","pricing_plan_id":"cebpf4jnsgd1na2vs0mg"},{"bike_id":"884a79a4-1be4-4683-907e-3b58cc9cbf1f","system_id":"levelo_inurba_marseille","lat":43.28708,"lon":5.40004,"is_reserved":false,"is_disabled":false,"rental_uris":{"android":"levelo://app?vid=884a79a4-1be4-4683-907e-3b58cc9cbf1f","ios":"levelo://app?vid=884a79a4-1be4-4683-907e-3b58cc9cbf1f"},"vehicle_type_id":"4","last_reported":1739193424,"current_range_meters":9600,"station_id":"ce4bho92rcd13ifvqh3g","pricing_plan_id":"cebpf4jnsgd1na2vs0mg"},{"bike_id":"211c0d46-4839-4c96-b8ab-c09d36a56029","system_id":"levelo_inurba_marseille","lat":43.31214,"lon":5.36836,"is_reserved":false,"is_disabled":false,"rental_uris":{"android":"levelo://app?vid=211c0d46-4839-4c96-b8ab-c09d36a56029","ios":"levelo://app?vid=211c0d46-4839-4c96-b8ab-c09d36a56029"},"vehicle_type_id":"4","last_reported":1739193424,"current_range_meters":15200,"station_id":"ce4bgl92rcd13ifvqbq0","pricing_plan_id":"cebpf4jnsgd1na2vs0mg"},{"bike_id":"78cb014a-357c-4243-a62d-9a84b7f9d4da","system_id":"levelo_inurba_marseille","lat":43.26554,"lon":5.37285,"is_reserved":false,"is_disabled":false,"rental_uris":{"android":"levelo://app?vid=78cb014a-357c-4243-a62d-9a84b7f9d4da","ios":"levelo://app?vid=78cb014a-357c-4243-a62d-9a84b7f9d4da"},"vehicle_type_id":"4","last_reported":1739193424,"current_range_meters":33600,"station_id":"ce4bhg12rcd13ifvqf70","pricing_plan_id":"cebpf4jnsgd1na2vs0mg"},{"bike_id":"058b0f00-e5ce-47c6-9bbe-71cbfc68df54","system_id":"levelo_inurba_marseille","lat":43.31313,"lon":5.36711,"is_reserved":false,"is_disabled":false,"rental_uris":{"android":"levelo://app?vid=058b0f00-e5ce-47c6-9bbe-71cbfc68df54","ios":"levelo://app?vid=058b0f00-e5ce-47c6-9bbe-71cbfc68df54"},"vehicle_type_id":"4","last_reported":1739193424,"current_range_meters":23200,"station_id":"ce4bgr92rcd13ifvqc6g","pricing_plan_id":"cebpf4jnsgd1na2vs0mg"},{"bike_id":"a69dfcd0-86b4-4dd1-9d00-ba466809ccef","system_id":"levelo_inurba_marseille","lat":43.25007,"lon":5.3892,"is_reserved":false,"is_disabled":false,"rental_uris":{"android":"levelo://app?vid=a69dfcd0-86b4-4dd1-9d00-ba466809ccef","ios":"levelo://app?vid=a69dfcd0-86b4-4dd1-9d00-ba466809ccef"},"vehicle_type_id":"4","last_reported":1739193424,"current_range_meters":34800,"station_id":"ce4bhgp2rcd13ifvqfd0","pricing_plan_id":"cebpf4jnsgd1na2vs0mg"},{"bike_id":"02128d67-5f9b-4a69-8ea5-5b3b92b99958","system_id":"levelo_inurba_marseille","lat":43.30427,"lon":5.39751,"is_reserved":false,"is_disabled":false,"rental_uris":{"android":"levelo://app?vid=02128d67-5f9b-4a69-8ea5-5b3b92b99958","ios":"levelo://app?vid=02128d67-5f9b-4a69-8ea5-5b3b92b99958"},"vehicle_type_id":"4","last_reported":1739193424,"current_range_meters":38800,"station_id":"ce4bh092rcd13ifvqd20","pricing_plan_id":"cebpf4jnsgd1na2vs0mg"},{"bike_id":"a6010152-cf4d-4273-a1c3-ce79d7d04c48","system_id":"levelo_inurba_marseille","lat":43.29282,"lon":5.4012,"is_reserved":false,"is_disabled":false,"rental_uris":{"android":"levelo://app?vid=a6010152-cf4d-4273-a1c3-ce79d7d04c48","ios":"levelo://app?vid=a6010152-cf4d-4273-a1c3-ce79d7d04c48"},"vehicle_type_id":"4","last_reported":1739193424,"current_range_meters":36800,"station_id":"ce4bh312rcd13ifvqdk0","pricing_plan_id":"cebpf4jnsgd1na2vs0mg"},{"bike_id":"ee5aa6cf-294a-4e12-97e6-371ed6d833ce","system_id":"levelo_inurba_marseille","lat":43.3053,"lon":5.36707,"is_reserved":false,"is_disabled":false,"rental_uris":{"android":"levelo://app?vid=ee5aa6cf-294a-4e12-97e6-371ed6d833ce","ios":"levelo://app?vid=ee5aa6cf-294a-4e12-97e6-371ed6d833ce"},"vehicle_type_id":"4","last_reported":1739193424,"current_range_meters":38800,"station_id":"ce4bgrp2rcd13ifvqc9g","pricing_plan_id":"cebpf4jnsgd1na2vs0mg"},{"bike_id":"b24af449-2c4e-4b20-b914-56c2b7f42882","system_id":"levelo_inurba_marseille","lat":43.23158,"lon":5.43716,"is_reserved":false,"is_disabled":false,"rental_uris":{"android":"levelo://app?vid=b24af449-2c4e-4b20-b914-56c2b7f42882","ios":"levelo://app?vid=b24af449-2c4e-4b20-b914-56c2b7f42882"},"vehicle_type_id":"4","last_reported":1739193424,"current_range_meters":28000,"station_id":"ce4bhmp2rcd13ifvqgog","pricing_plan_id":"cebpf4jnsgd1na2vs0mg"},{"bike_id":"478c89b1-a385-4b91-b040-dd8278ec907a","system_id":"levelo_inurba_marseille","lat":43.27218,"lon":5.39185,"is_reserved":false,"is_disabled":false,"rental_uris":{"android":"levelo://app?vid=478c89b1-a385-4b91-b040-dd8278ec907a","ios":"levelo://app?vid=478c89b1-a385-4b91-b040-dd8278ec907a"},"vehicle_type_id":"4","last_reported":1739193424,"current_range_meters":39200,"station_id":"ce4bhhp2rcd13ifvqfm0","pricing_plan_id":"cebpf4jnsgd1na2vs0mg"},{"bike_id":"ebfe9b19-a020-4e42-9515-d839082cd818","system_id":"levelo_inurba_marseille","lat":43.27988,"lon":5.40012,"is_reserved":false,"is_disabled":false,"rental_uris":{"android":"levelo://app?vid=ebfe9b19-a020-4e42-9515-d839082cd818","ios":"levelo://app?vid=ebfe9b19-a020-4e42-9515-d839082cd818"},"vehicle_type_id":"4","last_reported":1739193424,"current_range_meters":36800,"station_id":"ce4bho92rcd13ifvqh4g","pricing_plan_id":"cebpf4jnsgd1na2vs0mg"},{"bike_id":"353ce63f-cd6f-448b-8254-86b70bad0905","system_id":"levelo_inurba_marseille","lat":43.26786,"lon":5.39416,"is_reserved":false,"is_disabled":false,"rental_uris":{"android":"levelo://app?vid=353ce63f-cd6f-448b-8254-86b70bad0905","ios":"levelo://app?vid=353ce63f-cd6f-448b-8254-86b70bad0905"},"vehicle_type_id":"4","last_reported":1739193424,"current_range_meters":38800,"station_id":"ce4bhh12rcd13ifvqfg0","pricing_plan_id":"cebpf4jnsgd1na2vs0mg"},{"bike_id":"cf69b181-bd19-42f9-acbf-ada463db8bb5","system_id":"levelo_inurba_marseille","lat":43.29039,"lon":5.37574,"is_reserved":false,"is_disabled":false,"rental_uris":{"android":"levelo://app?vid=cf69b181-bd19-42f9-acbf-ada463db8bb5","ios":"levelo://app?vid=cf69b181-bd19-42f9-acbf-ada463db8bb5"},"vehicle_type_id":"4","last_reported":1739193424,"current_range_meters":35600,"station_id":"ce4bh692rcd13ifvqe90","pricing_plan_id":"cebpf4jnsgd1na2vs0mg"},{"bike_id":"1f73100a-8043-44a4-bb6d-ffbbbec4b48b","system_id":"levelo_inurba_marseille","lat":43.2922,"lon":5.3747,"is_reserved":false,"is_disabled":false,"rental_uris":{"android":"levelo://app?vid=1f73100a-8043-44a4-bb6d-ffbbbec4b48b","ios":"levelo://app?vid=1f73100a-8043-44a4-bb6d-ffbbbec4b48b"},"vehicle_type_id":"4","last_reported":1739193424,"current_range_meters":32000,"station_id":"","pricing_plan_id":"cebpf4jnsgd1na2vs0mg"},{"bike_id":"f4a09ce6-52ba-4f33-a1c4-2ffe4c5b70bb","system_id":"levelo_inurba_marseille","lat":43.30312,"lon":5.37733,"is_reserved":false,"is_disabled":false,"rental_uris":{"android":"levelo://app?vid=f4a09ce6-52ba-4f33-a1c4-2ffe4c5b70bb","ios":"levelo://app?vid=f4a09ce6-52ba-4f33-a1c4-2ffe4c5b70bb"},"vehicle_type_id":"4","last_reported":1739193424,"current_range_meters":38800,"station_id":"ce4bguh2rcd13ifvqcj0","pricing_plan_id":"cebpf4jnsgd1na2vs0mg"},{"bike_id":"37013ad9-dda1-4aaa-bc03-0fecfc70eba5","system_id":"levelo_inurba_marseille","lat":43.26944,"lon":5.38652,"is_reserved":false,"is_disabled":false,"rental_uris":{"android":"levelo://app?vid=37013ad9-dda1-4aaa-bc03-0fecfc70eba5","ios":"levelo://app?vid=37013ad9-dda1-4aaa-bc03-0fecfc70eba5"},"vehicle_type_id":"4","last_reported":1739193424,"current_range_meters":37600,"station_id":"ce4bhh92rcd13ifvqfh0","pricing_plan_id":"cebpf4jnsgd1na2vs0mg"},{"bike_id":"68dd7ae6-ae22-4ac2-a52c-8efd8ec0250e","system_id":"levelo_inurba_marseille","lat":43.30088,"lon":5.39077,"is_reserved":false,"is_disabled":false,"rental_uris":{"android":"levelo://app?vid=68dd7ae6-ae22-4ac2-a52c-8efd8ec0250e","ios":"levelo://app?vid=68dd7ae6-ae22-4ac2-a52c-8efd8ec0250e"},"vehicle_type_id":"4","last_reported":1739193424,"current_range_meters":28400,"station_id":"ce4bh192rcd13ifvqdb0","pricing_plan_id":"cebpf4jnsgd1na2vs0mg"},{"bike_id":"23237db2-becc-4762-a4c6-f2d975d0a3e8","system_id":"levelo_inurba_marseille","lat":43.28005,"lon":5.40012,"is_reserved":false,"is_disabled":false,"rental_uris":{"android":"levelo://app?vid=23237db2-becc-4762-a4c6-f2d975d0a3e8","ios":"levelo://app?vid=23237db2-becc-4762-a4c6-f2d975d0a3e8"},"vehicle_type_id":"4","last_reported":1739193424,"current_range_meters":14800,"station_id":"ce4bho92rcd13ifvqh4g","pricing_plan_id":"cebpf4jnsgd1na2vs0mg"},{"bike_id":"8a3a96d2-a723-4c74-9997-337854f4533b","system_id":"levelo_inurba_marseille","lat":43.23149,"lon":5.4372,"is_reserved":false,"is_disabled":false,"rental_uris":{"android":"levelo://app?vid=8a3a96d2-a723-4c74-9997-337854f4533b","ios":"levelo://app?vid=8a3a96d2-a723-4c74-9997-337854f4533b"},"vehicle_type_id":"4","last_reported":1739193424,"current_range_meters":39200,"station_id":"ce4bhmp2rcd13ifvqgog","pricing_plan_id":"cebpf4jnsgd1na2vs0mg"},{"bike_id":"2ba4a153-d10b-4099-9146-9c3fddba3f73","system_id":"levelo_inurba_marseille","lat":43.31083,"lon":5.42428,"is_reserved":false,"is_disabled":false,"rental_uris":{"android":"levelo://app?vid=2ba4a153-d10b-4099-9146-9c3fddba3f73","ios":"levelo://app?vid=2ba4a153-d10b-4099-9146-9c3fddba3f73"},"vehicle_type_id":"4","last_reported":1739193424,"current_range_meters":36400,"station_id":"ce4bhp92rcd13ifvqhag","pricing_plan_id":"cebpf4jnsgd1na2vs0mg"},{"bike_id":"ef180100-0ad6-49a3-a92f-3dc3e7233bbf","system_id":"levelo_inurba_marseille","lat":43.27062,"lon":5.4026,"is_reserved":false,"is_disabled":false,"rental_uris":{"android":"levelo://app?vid=ef180100-0ad6-49a3-a92f-3dc3e7233bbf","ios":"levelo://app?vid=ef180100-0ad6-49a3-a92f-3dc3e7233bbf"},"vehicle_type_id":"4","last_reported":1739193424,"current_range_meters":22000,"station_id":"ce4bhk92rcd13ifvqgc0","pricing_plan_id":"cebpf4jnsgd1na2vs0mg"},{"bike_id":"979c4eb0-4545-4010-a320-fd3c7d1e38fc","system_id":"levelo_inurba_marseille","lat":43.26774,"lon":5.39358,"is_reserved":false,"is_disabled":false,"rental_uris":{"android":"levelo://app?vid=979c4eb0-4545-4010-a320-fd3c7d1e38fc","ios":"levelo://app?vid=979c4eb0-4545-4010-a320-fd3c7d1e38fc"},"vehicle_type_id":"4","last_reported":1739193424,"current_range_meters":18000,"station_id":"ce4bhh12rcd13ifvqfg0","pricing_plan_id":"cebpf4jnsgd1na2vs0mg"},{"bike_id":"1d2000e3-6e82-4c8d-9a0a-5d8181e36eb3","system_id":"levelo_inurba_marseille","lat":43.25009,"lon":5.38919,"is_reserved":false,"is_disabled":false,"rental_uris":{"android":"levelo://app?vid=1d2000e3-6e82-4c8d-9a0a-5d8181e36eb3","ios":"levelo://app?vid=1d2000e3-6e82-4c8d-9a0a-5d8181e36eb3"},"vehicle_type_id":"4","last_reported":1739193424,"current_range_meters":38400,"station_id":"ce4bhgp2rcd13ifvqfd0","pricing_plan_id":"cebpf4jnsgd1na2vs0mg"},{"bike_id":"64f7c304-9688-44f2-a78b-47eb6176aa77","system_id":"levelo_inurba_marseille","lat":43.31171,"lon":5.36894,"is_reserved":false,"is_disabled":false,"rental_uris":{"android":"levelo://app?vid=64f7c304-9688-44f2-a78b-47eb6176aa77","ios":"levelo://app?vid=64f7c304-9688-44f2-a78b-47eb6176aa77"},"vehicle_type_id":"4","last_reported":1739193424,"current_range_meters":39200,"station_id":"ce4bgl92rcd13ifvqbq0","pricing_plan_id":"cebpf4jnsgd1na2vs0mg"},{"bike_id":"6998168a-02ed-49b8-bc0c-4b81f2baa47a","system_id":"levelo_inurba_marseille","lat":43.337374,"lon":5.391949,"is_reserved":false,"is_disabled":false,"rental_uris":{"android":"levelo://app?vid=6998168a-02ed-49b8-bc0c-4b81f2baa47a","ios":"levelo://app?vid=6998168a-02ed-49b8-bc0c-4b81f2baa47a"},"vehicle_type_id":"4","last_reported":1739193424,"current_range_meters":38800,"station_id":"ce4bhr92rcd13ifvqhsg","pricing_plan_id":"cebpf4jnsgd1na2vs0mg"},{"bike_id":"ffb9f143-4b48-44b1-a496-c14960ce9c00","system_id":"levelo_inurba_marseille","lat":43.30142,"lon":5.37417,"is_reserved":false,"is_disabled":true,"rental_uris":{"android":"levelo://app?vid=ffb9f143-4b48-44b1-a496-c14960ce9c00","ios":"levelo://app?vid=ffb9f143-4b48-44b1-a496-c14960ce9c00"},"vehicle_type_id":"4","last_reported":1739193424,"current_range_meters":36800,"station_id":"ce4bgs92rcd13ifvqcc0","pricing_plan_id":"cebpf4jnsgd1na2vs0mg"},{"bike_id":"8cf52a42-0f98-4e8c-8ebb-2ee7a6a03a92","system_id":"levelo_inurba_marseille","lat":43.28002,"lon":5.40014,"is_reserved":false,"is_disabled":false,"rental_uris":{"android":"levelo://app?vid=8cf52a42-0f98-4e8c-8ebb-2ee7a6a03a92","ios":"levelo://app?vid=8cf52a42-0f98-4e8c-8ebb-2ee7a6a03a92"},"vehicle_type_id":"4","last_reported":1739193424,"current_range_meters":28800,"station_id":"ce4bho92rcd13ifvqh4g","pricing_plan_id":"cebpf4jnsgd1na2vs0mg"},{"bike_id":"9822b2ae-52c3-4719-90d2-ce97f6ea354c","system_id":"levelo_inurba_marseille","lat":43.299757,"lon":5.371743,"is_reserved":false,"is_disabled":false,"rental_uris":{"android":"levelo://app?vid=9822b2ae-52c3-4719-90d2-ce97f6ea354c","ios":"levelo://app?vid=9822b2ae-52c3-4719-90d2-ce97f6ea354c"},"vehicle_type_id":"4","last_reported":1739193424,"current_range_meters":39200,"station_id":"ce4bgr92rcd13ifvqc7g","pricing_plan_id":"cebpf4jnsgd1na2vs0mg"},{"bike_id":"4a2c6af9-855e-47b4-bb65-c81f32d69e5c","system_id":"levelo_inurba_marseille","lat":43.30549,"lon":5.38415,"is_reserved":false,"is_disabled":false,"rental_uris":{"android":"levelo://app?vid=4a2c6af9-855e-47b4-bb65-c81f32d69e5c","ios":"levelo://app?vid=4a2c6af9-855e-47b4-bb65-c81f32d69e5c"},"vehicle_type_id":"4","last_reported":1739193424,"current_range_meters":28400,"station_id":"ce4bgg92rcd13ifvqb30","pricing_plan_id":"cebpf4jnsgd1na2vs0mg"},{"bike_id":"e1df2cc6-341b-4196-9448-5532d87e7d5c","system_id":"levelo_inurba_marseille","lat":43.27814,"lon":5.40711,"is_reserved":false,"is_disabled":false,"rental_uris":{"android":"levelo://app?vid=e1df2cc6-341b-4196-9448-5532d87e7d5c","ios":"levelo://app?vid=e1df2cc6-341b-4196-9448-5532d87e7d5c"},"vehicle_type_id":"4","last_reported":1739193424,"current_range_meters":38800,"station_id":"ce4bhnh2rcd13ifvqgtg","pricing_plan_id":"cebpf4jnsgd1na2vs0mg"},{"bike_id":"97bc350a-c76f-4a75-bb98-14870bdf39e5","system_id":"levelo_inurba_marseille","lat":43.27672,"lon":5.38874,"is_reserved":false,"is_disabled":false,"rental_uris":{"android":"levelo://app?vid=97bc350a-c76f-4a75-bb98-14870bdf39e5","ios":"levelo://app?vid=97bc350a-c76f-4a75-bb98-14870bdf39e5"},"vehicle_type_id":"4","last_reported":1739193424,"current_range_meters":9600,"station_id":"ce4bhi12rcd13ifvqfo0","pricing_plan_id":"cebpf4jnsgd1na2vs0mg"},{"bike_id":"8aecd9f7-adb6-4881-9553-405df2813725","system_id":"levelo_inurba_marseille","lat":43.31726,"lon":5.40459,"is_reserved":false,"is_disabled":false,"rental_uris":{"android":"levelo://app?vid=8aecd9f7-adb6-4881-9553-405df2813725","ios":"levelo://app?vid=8aecd9f7-adb6-4881-9553-405df2813725"},"vehicle_type_id":"4","last_reported":1739193424,"current_range_meters":38800,"station_id":"ce4bh012rcd13ifvqd00","pricing_plan_id":"cebpf4jnsgd1na2vs0mg"},{"bike_id":"b9ae1c04-8b49-41fe-a1ca-cc17035aadbe","system_id":"levelo_inurba_marseille","lat":43.292581,"lon":5.384427,"is_reserved":false,"is_disabled":true,"rental_uris":{"android":"levelo://app?vid=b9ae1c04-8b49-41fe-a1ca-cc17035aadbe","ios":"levelo://app?vid=b9ae1c04-8b49-41fe-a1ca-cc17035aadbe"},"vehicle_type_id":"4","last_reported":1739193424,"current_range_meters":14000,"station_id":"ce4bh692rcd13ifvqea0","pricing_plan_id":"cebpf4jnsgd1na2vs0mg"},{"bike_id":"e8ac4fbd-cc8c-4152-95db-0021dd737969","system_id":"levelo_inurba_marseille","lat":43.24173,"lon":5.39714,"is_reserved":false,"is_disabled":false,"rental_uris":{"android":"levelo://app?vid=e8ac4fbd-cc8c-4152-95db-0021dd737969","ios":"levelo://app?vid=e8ac4fbd-cc8c-4152-95db-0021dd737969"},"vehicle_type_id":"4","last_reported":1739193424,"current_range_meters":16800,"station_id":"ce4bhn12rcd13ifvqgpg","pricing_plan_id":"cebpf4jnsgd1na2vs0mg"},{"bike_id":"97d6f0b2-848e-471f-93d1-5d3a1ec2b71f","system_id":"levelo_inurba_marseille","lat":43.27315,"lon":5.39067,"is_reserved":false,"is_disabled":false,"rental_uris":{"android":"levelo://app?vid=97d6f0b2-848e-471f-93d1-5d3a1ec2b71f","ios":"levelo://app?vid=97d6f0b2-848e-471f-93d1-5d3a1ec2b71f"},"vehicle_type_id":"4","last_reported":1739193424,"current_range_meters":37600,"station_id":"ce4bhgp2rcd13ifvqfe0","pricing_plan_id":"cebpf4jnsgd1na2vs0mg"},{"bike_id":"a1d644be-809f-462f-ac59-2d1b9607cc93","system_id":"levelo_inurba_marseille","lat":43.27555,"lon":5.38433,"is_reserved":false,"is_disabled":false,"rental_uris":{"android":"levelo://app?vid=a1d644be-809f-462f-ac59-2d1b9607cc93","ios":"levelo://app?vid=a1d644be-809f-462f-ac59-2d1b9607cc93"},"vehicle_type_id":"4","last_reported":1739193424,"current_range_meters":8000,"station_id":"ce4bhh92rcd13ifvqfi0","pricing_plan_id":"cebpf4jnsgd1na2vs0mg"},{"bike_id":"37ed81d0-065c-4a1d-948f-ddfd03cd968b","system_id":"levelo_inurba_marseille","lat":43.24809,"lon":5.3746,"is_reserved":false,"is_disabled":false,"rental_uris":{"android":"levelo://app?vid=37ed81d0-065c-4a1d-948f-ddfd03cd968b","ios":"levelo://app?vid=37ed81d0-065c-4a1d-948f-ddfd03cd968b"},"vehicle_type_id":"4","last_reported":1739193424,"current_range_meters":24800,"station_id":"ce4bhgh2rcd13ifvqfb0","pricing_plan_id":"cebpf4jnsgd1na2vs0mg"},{"bike_id":"6d104768-018b-46ab-b7c2-e97432232072","system_id":"levelo_inurba_marseille","lat":43.28397,"lon":5.37506,"is_reserved":false,"is_disabled":false,"rental_uris":{"android":"levelo://app?vid=6d104768-018b-46ab-b7c2-e97432232072","ios":"levelo://app?vid=6d104768-018b-46ab-b7c2-e97432232072"},"vehicle_type_id":"4","last_reported":1739193424,"current_range_meters":38800,"station_id":"ce4bh412rcd13ifvqds0","pricing_plan_id":"cebpf4jnsgd1na2vs0mg"},{"bike_id":"ee139c19-6a57-4a81-93d8-e4201d47d2e9","system_id":"levelo_inurba_marseille","lat":43.31707,"lon":5.37762,"is_reserved":false,"is_disabled":false,"rental_uris":{"android":"levelo://app?vid=ee139c19-6a57-4a81-93d8-e4201d47d2e9","ios":"levelo://app?vid=ee139c19-6a57-4a81-93d8-e4201d47d2e9"},"vehicle_type_id":"4","last_reported":1739193424,"current_range_meters":25200,"station_id":"ce4bgth2rcd13ifvqch0","pricing_plan_id":"cebpf4jnsgd1na2vs0mg"},{"bike_id":"38486539-d96a-43e4-8ce7-751a9dd2906a","system_id":"levelo_inurba_marseille","lat":43.32466,"lon":5.36566,"is_reserved":false,"is_disabled":false,"rental_uris":{"android":"levelo://app?vid=38486539-d96a-43e4-8ce7-751a9dd2906a","ios":"levelo://app?vid=38486539-d96a-43e4-8ce7-751a9dd2906a"},"vehicle_type_id":"4","last_reported":1739193424,"current_range_meters":30800,"station_id":"ce4bhs12rcd13ifvqhvg","pricing_plan_id":"cebpf4jnsgd1na2vs0mg"},{"bike_id":"e0e1d68e-498c-4482-87e9-d5f5bdf80bab","system_id":"levelo_inurba_marseille","lat":43.29629,"lon":5.40596,"is_reserved":false,"is_disabled":false,"rental_uris":{"android":"levelo://app?vid=e0e1d68e-498c-4482-87e9-d5f5bdf80bab","ios":"levelo://app?vid=e0e1d68e-498c-4482-87e9-d5f5bdf80bab"},"vehicle_type_id":"4","last_reported":1739193424,"current_range_meters":36000,"station_id":"ce4bh0h2rcd13ifvqd60","pricing_plan_id":"cebpf4jnsgd1na2vs0mg"},{"bike_id":"129bce69-007c-4238-ae32-d8a0b16aba8e","system_id":"levelo_inurba_marseille","lat":43.269552,"lon":5.38627,"is_reserved":false,"is_disabled":false,"rental_uris":{"android":"levelo://app?vid=129bce69-007c-4238-ae32-d8a0b16aba8e","ios":"levelo://app?vid=129bce69-007c-4238-ae32-d8a0b16aba8e"},"vehicle_type_id":"4","last_reported":1739193424,"current_range_meters":38800,"station_id":"ce4bhh92rcd13ifvqfh0","pricing_plan_id":"cebpf4jnsgd1na2vs0mg"},{"bike_id":"320b3191-eb18-4301-8558-bb943518dca8","system_id":"levelo_inurba_marseille","lat":43.259308,"lon":5.409131,"is_reserved":false,"is_disabled":false,"rental_uris":{"android":"levelo://app?vid=320b3191-eb18-4301-8558-bb943518dca8","ios":"levelo://app?vid=320b3191-eb18-4301-8558-bb943518dca8"},"vehicle_type_id":"4","last_reported":1739193424,"current_range_meters":36800,"station_id":"ce4bho92rcd13ifvqh3g","pricing_plan_id":"cebpf4jnsgd1na2vs0mg"},{"bike_id":"2eb20ed4-0ec3-4346-833d-adf129ea9c3a","system_id":"levelo_inurba_marseille","lat":43.30142,"lon":5.37414,"is_reserved":false,"is_disabled":true,"rental_uris":{"android":"levelo://app?vid=2eb20ed4-0ec3-4346-833d-adf129ea9c3a","ios":"levelo://app?vid=2eb20ed4-0ec3-4346-833d-adf129ea9c3a"},"vehicle_type_id":"4","last_reported":1739193424,"current_range_meters":36800,"station_id":"ce4bgs92rcd13ifvqcc0","pricing_plan_id":"cebpf4jnsgd1na2vs0mg"},{"bike_id":"b5d972a2-6ca5-4a4a-896f-9eeccc401858","system_id":"levelo_inurba_marseille","lat":43.30454,"lon":5.3791,"is_reserved":false,"is_disabled":false,"rental_uris":{"android":"levelo://app?vid=b5d972a2-6ca5-4a4a-896f-9eeccc401858","ios":"levelo://app?vid=b5d972a2-6ca5-4a4a-896f-9eeccc401858"},"vehicle_type_id":"4","last_reported":1739193424,"current_range_meters":21600,"station_id":"ce4bgup2rcd13ifvqcn0","pricing_plan_id":"cebpf4jnsgd1na2vs0mg"},{"bike_id":"86de48da-0ee2-4b92-bd9e-9b817eb5eb31","system_id":"levelo_inurba_marseille","lat":43.28409,"lon":5.37518,"is_reserved":false,"is_disabled":false,"rental_uris":{"android":"levelo://app?vid=86de48da-0ee2-4b92-bd9e-9b817eb5eb31","ios":"levelo://app?vid=86de48da-0ee2-4b92-bd9e-9b817eb5eb31"},"vehicle_type_id":"4","last_reported":1739193424,"current_range_meters":34000,"station_id":"ce4bh412rcd13ifvqds0","pricing_plan_id":"cebpf4jnsgd1na2vs0mg"},{"bike_id":"e1b46f7e-f734-4452-a34f-bad2f8b6b48d","system_id":"levelo_inurba_marseille","lat":43.29667,"lon":5.37298,"is_reserved":false,"is_disabled":false,"rental_uris":{"android":"levelo://app?vid=e1b46f7e-f734-4452-a34f-bad2f8b6b48d","ios":"levelo://app?vid=e1b46f7e-f734-4452-a34f-bad2f8b6b48d"},"vehicle_type_id":"4","last_reported":1739193424,"current_range_meters":38800,"station_id":"ce4bgk12rcd13ifvqbj0","pricing_plan_id":"cebpf4jnsgd1na2vs0mg"},{"bike_id":"db2cb8ba-850b-4646-be66-57100750f4fe","system_id":"levelo_inurba_marseille","lat":43.2321,"lon":5.35569,"is_reserved":false,"is_disabled":false,"rental_uris":{"android":"levelo://app?vid=db2cb8ba-850b-4646-be66-57100750f4fe","ios":"levelo://app?vid=db2cb8ba-850b-4646-be66-57100750f4fe"},"vehicle_type_id":"4","last_reported":1739193424,"current_range_meters":9600,"station_id":"ce4bhu92rcd13ifvqi70","pricing_plan_id":"cebpf4jnsgd1na2vs0mg"},{"bike_id":"841e0f04-b00a-44de-83b7-b9b92c40d93b","system_id":"levelo_inurba_marseille","lat":43.2816,"lon":5.42642,"is_reserved":false,"is_disabled":false,"rental_uris":{"android":"levelo://app?vid=841e0f04-b00a-44de-83b7-b9b92c40d93b","ios":"levelo://app?vid=841e0f04-b00a-44de-83b7-b9b92c40d93b"},"vehicle_type_id":"4","last_reported":1739193424,"current_range_meters":18800,"station_id":"ce4bhnh2rcd13ifvqgug","pricing_plan_id":"cebpf4jnsgd1na2vs0mg"},{"bike_id":"9b7ca2fd-d268-46be-b6a0-5af9bbbbf916","system_id":"levelo_inurba_marseille","lat":43.31499,"lon":5.37308,"is_reserved":false,"is_disabled":false,"rental_uris":{"android":"levelo://app?vid=9b7ca2fd-d268-46be-b6a0-5af9bbbbf916","ios":"levelo://app?vid=9b7ca2fd-d268-46be-b6a0-5af9bbbbf916"},"vehicle_type_id":"4","last_reported":1739193424,"current_range_meters":33200,"station_id":"ce4bgt12rcd13ifvqcd0","pricing_plan_id":"cebpf4jnsgd1na2vs0mg"},{"bike_id":"4cb3f6eb-b56e-40bd-a28e-0b16ec697f98","system_id":"levelo_inurba_marseille","lat":43.31709,"lon":5.37761,"is_reserved":false,"is_disabled":false,"rental_uris":{"android":"levelo://app?vid=4cb3f6eb-b56e-40bd-a28e-0b16ec697f98","ios":"levelo://app?vid=4cb3f6eb-b56e-40bd-a28e-0b16ec697f98"},"vehicle_type_id":"4","last_reported":1739193424,"current_range_meters":38800,"station_id":"ce4bgth2rcd13ifvqch0","pricing_plan_id":"cebpf4jnsgd1na2vs0mg"},{"bike_id":"d41686db-873b-4c14-844f-246429f5c965","system_id":"levelo_inurba_marseille","lat":43.29027,"lon":5.37569,"is_reserved":false,"is_disabled":false,"rental_uris":{"android":"levelo://app?vid=d41686db-873b-4c14-844f-246429f5c965","ios":"levelo://app?vid=d41686db-873b-4c14-844f-246429f5c965"},"vehicle_type_id":"4","last_reported":1739193424,"current_range_meters":34000,"station_id":"ce4bh692rcd13ifvqe90","pricing_plan_id":"cebpf4jnsgd1na2vs0mg"},{"bike_id":"477f0ad2-c480-485f-aceb-1a49a0ad8389","system_id":"levelo_inurba_marseille","lat":43.2796,"lon":5.41055,"is_reserved":false,"is_disabled":false,"rental_uris":{"android":"levelo://app?vid=477f0ad2-c480-485f-aceb-1a49a0ad8389","ios":"levelo://app?vid=477f0ad2-c480-485f-aceb-1a49a0ad8389"},"vehicle_type_id":"4","last_reported":1739193424,"current_range_meters":38800,"station_id":"ce4bhnp2rcd13ifvqh0g","pricing_plan_id":"cebpf4jnsgd1na2vs0mg"},{"bike_id":"0cecdddc-cc1b-4b0d-91ba-48d6e978a29c","system_id":"levelo_inurba_marseille","lat":43.27978,"lon":5.38753,"is_reserved":false,"is_disabled":false,"rental_uris":{"android":"levelo://app?vid=0cecdddc-cc1b-4b0d-91ba-48d6e978a29c","ios":"levelo://app?vid=0cecdddc-cc1b-4b0d-91ba-48d6e978a29c"},"vehicle_type_id":"4","last_reported":1739193424,"current_range_meters":39200,"station_id":"ce4bhg12rcd13ifvqf80","pricing_plan_id":"cebpf4jnsgd1na2vs0mg"},{"bike_id":"1ec14052-2d33-4aa1-9ab8-58cc71db74d1","system_id":"levelo_inurba_marseille","lat":43.24173,"lon":5.36409,"is_reserved":false,"is_disabled":false,"rental_uris":{"android":"levelo://app?vid=1ec14052-2d33-4aa1-9ab8-58cc71db74d1","ios":"levelo://app?vid=1ec14052-2d33-4aa1-9ab8-58cc71db74d1"},"vehicle_type_id":"4","last_reported":1739193424,"current_range_meters":19200,"station_id":"cpo36qri1sfpv3e86is0","pricing_plan_id":"cebpf4jnsgd1na2vs0mg"},{"bike_id":"ae0dbd03-494d-4ce6-8b36-e3fa998daab3","system_id":"levelo_inurba_marseille","lat":43.27979,"lon":5.38765,"is_reserved":false,"is_disabled":false,"rental_uris":{"android":"levelo://app?vid=ae0dbd03-494d-4ce6-8b36-e3fa998daab3","ios":"levelo://app?vid=ae0dbd03-494d-4ce6-8b36-e3fa998daab3"},"vehicle_type_id":"4","last_reported":1739193424,"current_range_meters":38800,"station_id":"ce4bhg12rcd13ifvqf80","pricing_plan_id":"cebpf4jnsgd1na2vs0mg"},{"bike_id":"cfdc74e0-c746-422f-a518-2e9a6c2ffbda","system_id":"levelo_inurba_marseille","lat":43.29977,"lon":5.37168,"is_reserved":false,"is_disabled":false,"rental_uris":{"android":"levelo://app?vid=cfdc74e0-c746-422f-a518-2e9a6c2ffbda","ios":"levelo://app?vid=cfdc74e0-c746-422f-a518-2e9a6c2ffbda"},"vehicle_type_id":"4","last_reported":1739193424,"current_range_meters":37600,"station_id":"ce4bgr92rcd13ifvqc7g","pricing_plan_id":"cebpf4jnsgd1na2vs0mg"},{"bike_id":"d7bcfe9a-113a-4771-9ea3-6e06fd1f393f","system_id":"levelo_inurba_marseille","lat":43.29942,"lon":5.36548,"is_reserved":false,"is_disabled":false,"rental_uris":{"android":"levelo://app?vid=d7bcfe9a-113a-4771-9ea3-6e06fd1f393f","ios":"levelo://app?vid=d7bcfe9a-113a-4771-9ea3-6e06fd1f393f"},"vehicle_type_id":"4","last_reported":1739193424,"current_range_meters":32000,"station_id":"ce4bgm92rcd13ifvqbr0","pricing_plan_id":"cebpf4jnsgd1na2vs0mg"},{"bike_id":"62898948-34e9-450e-acfc-07459e2fc8ff","system_id":"levelo_inurba_marseille","lat":43.30133,"lon":5.38778,"is_reserved":false,"is_disabled":false,"rental_uris":{"android":"levelo://app?vid=62898948-34e9-450e-acfc-07459e2fc8ff","ios":"levelo://app?vid=62898948-34e9-450e-acfc-07459e2fc8ff"},"vehicle_type_id":"4","last_reported":1739193424,"current_range_meters":34000,"station_id":"ce4bghh2rcd13ifvqb60","pricing_plan_id":"cebpf4jnsgd1na2vs0mg"},{"bike_id":"77951dd4-9fa9-4454-957e-09cb573a3a88","system_id":"levelo_inurba_marseille","lat":43.34138,"lon":5.40902,"is_reserved":false,"is_disabled":false,"rental_uris":{"android":"levelo://app?vid=77951dd4-9fa9-4454-957e-09cb573a3a88","ios":"levelo://app?vid=77951dd4-9fa9-4454-957e-09cb573a3a88"},"vehicle_type_id":"4","last_reported":1739193424,"current_range_meters":32400,"station_id":"ce4bhqh2rcd13ifvqhlg","pricing_plan_id":"cebpf4jnsgd1na2vs0mg"},{"bike_id":"c522bc34-78f2-4b55-8486-c69b4e7c03c2","system_id":"levelo_inurba_marseille","lat":43.29665,"lon":5.37289,"is_reserved":false,"is_disabled":false,"rental_uris":{"android":"levelo://app?vid=c522bc34-78f2-4b55-8486-c69b4e7c03c2","ios":"levelo://app?vid=c522bc34-78f2-4b55-8486-c69b4e7c03c2"},"vehicle_type_id":"4","last_reported":1739193424,"current_range_meters":38800,"station_id":"ce4bgk12rcd13ifvqbj0","pricing_plan_id":"cebpf4jnsgd1na2vs0mg"},{"bike_id":"c52b27f8-f65c-455d-8c05-8cca2fd7d5e3","system_id":"levelo_inurba_marseille","lat":43.2696,"lon":5.38635,"is_reserved":false,"is_disabled":false,"rental_uris":{"android":"levelo://app?vid=c52b27f8-f65c-455d-8c05-8cca2fd7d5e3","ios":"levelo://app?vid=c52b27f8-f65c-455d-8c05-8cca2fd7d5e3"},"vehicle_type_id":"4","last_reported":1739193424,"current_range_meters":3200,"station_id":"ce4bhh92rcd13ifvqfh0","pricing_plan_id":"cebpf4jnsgd1na2vs0mg"},{"bike_id":"9f524422-b086-4500-8eb2-ec86aa84d162","system_id":"levelo_inurba_marseille","lat":43.29632,"lon":5.37149,"is_reserved":false,"is_disabled":false,"rental_uris":{"android":"levelo://app?vid=9f524422-b086-4500-8eb2-ec86aa84d162","ios":"levelo://app?vid=9f524422-b086-4500-8eb2-ec86aa84d162"},"vehicle_type_id":"4","last_reported":1739193424,"current_range_meters":38800,"station_id":"ce4bgnh2rcd13ifvqc0g","pricing_plan_id":"cebpf4jnsgd1na2vs0mg"},{"bike_id":"fbb98623-bd6f-4427-9463-8f7fc3b3bd20","system_id":"levelo_inurba_marseille","lat":43.28037,"lon":5.36948,"is_reserved":false,"is_disabled":false,"rental_uris":{"android":"levelo://app?vid=fbb98623-bd6f-4427-9463-8f7fc3b3bd20","ios":"levelo://app?vid=fbb98623-bd6f-4427-9463-8f7fc3b3bd20"},"vehicle_type_id":"4","last_reported":1739193424,"current_range_meters":33200,"station_id":"ce4bha12rcd13ifvqef0","pricing_plan_id":"cebpf4jnsgd1na2vs0mg"},{"bike_id":"c96f92a7-f6aa-4b72-bfcc-b3fd0520d382","system_id":"levelo_inurba_marseille","lat":43.261943,"lon":5.374577,"is_reserved":false,"is_disabled":false,"rental_uris":{"android":"levelo://app?vid=c96f92a7-f6aa-4b72-bfcc-b3fd0520d382","ios":"levelo://app?vid=c96f92a7-f6aa-4b72-bfcc-b3fd0520d382"},"vehicle_type_id":"4","last_reported":1739193424,"current_range_meters":38800,"station_id":"ce4bhgp2rcd13ifvqfc0","pricing_plan_id":"cebpf4jnsgd1na2vs0mg"},{"bike_id":"acd83fce-20d7-4fc5-b658-519f5e83fe17","system_id":"levelo_inurba_marseille","lat":43.28412,"lon":5.3751,"is_reserved":false,"is_disabled":false,"rental_uris":{"android":"levelo://app?vid=acd83fce-20d7-4fc5-b658-519f5e83fe17","ios":"levelo://app?vid=acd83fce-20d7-4fc5-b658-519f5e83fe17"},"vehicle_type_id":"4","last_reported":1739193424,"current_range_meters":11200,"station_id":"ce4bh412rcd13ifvqds0","pricing_plan_id":"cebpf4jnsgd1na2vs0mg"},{"bike_id":"53dedc30-10cb-4cf6-aa3e-119646708c08","system_id":"levelo_inurba_marseille","lat":43.26036,"lon":5.37554,"is_reserved":false,"is_disabled":false,"rental_uris":{"android":"levelo://app?vid=53dedc30-10cb-4cf6-aa3e-119646708c08","ios":"levelo://app?vid=53dedc30-10cb-4cf6-aa3e-119646708c08"},"vehicle_type_id":"4","last_reported":1739193424,"current_range_meters":38800,"station_id":"ce4bhgh2rcd13ifvqfa0","pricing_plan_id":"cebpf4jnsgd1na2vs0mg"},{"bike_id":"704860c4-e0ba-415a-912d-ace1adcca0f9","system_id":"levelo_inurba_marseille","lat":43.29042,"lon":5.39961,"is_reserved":false,"is_disabled":false,"rental_uris":{"android":"levelo://app?vid=704860c4-e0ba-415a-912d-ace1adcca0f9","ios":"levelo://app?vid=704860c4-e0ba-415a-912d-ace1adcca0f9"},"vehicle_type_id":"4","last_reported":1739193424,"current_range_meters":4800,"station_id":"ce4bh392rcd13ifvqdm0","pricing_plan_id":"cebpf4jnsgd1na2vs0mg"},{"bike_id":"6346b15c-70b1-45a6-ab7f-3ff943557ebf","system_id":"levelo_inurba_marseille","lat":43.24073,"lon":5.37768,"is_reserved":false,"is_disabled":false,"rental_uris":{"android":"levelo://app?vid=6346b15c-70b1-45a6-ab7f-3ff943557ebf","ios":"levelo://app?vid=6346b15c-70b1-45a6-ab7f-3ff943557ebf"},"vehicle_type_id":"4","last_reported":1739193424,"current_range_meters":30400,"station_id":"ce4bhnp2rcd13ifvqgvg","pricing_plan_id":"cebpf4jnsgd1na2vs0mg"},{"bike_id":"d65a14c4-ecf3-4048-b05f-9a757ce2f182","system_id":"levelo_inurba_marseille","lat":43.2467,"lon":5.38171,"is_reserved":false,"is_disabled":false,"rental_uris":{"android":"levelo://app?vid=d65a14c4-ecf3-4048-b05f-9a757ce2f182","ios":"levelo://app?vid=d65a14c4-ecf3-4048-b05f-9a757ce2f182"},"vehicle_type_id":"4","last_reported":1739193424,"current_range_meters":38800,"station_id":"ce4bhih2rcd13ifvqfr0","pricing_plan_id":"cebpf4jnsgd1na2vs0mg"},{"bike_id":"879d2030-c51b-4298-a606-cfdd56d5ce64","system_id":"levelo_inurba_marseille","lat":43.24175,"lon":5.3973,"is_reserved":false,"is_disabled":false,"rental_uris":{"android":"levelo://app?vid=879d2030-c51b-4298-a606-cfdd56d5ce64","ios":"levelo://app?vid=879d2030-c51b-4298-a606-cfdd56d5ce64"},"vehicle_type_id":"4","last_reported":1739193424,"current_range_meters":29600,"station_id":"ce4bhn12rcd13ifvqgpg","pricing_plan_id":"cebpf4jnsgd1na2vs0mg"},{"bike_id":"3dfe5b63-54d7-487d-a9b3-142683790d76","system_id":"levelo_inurba_marseille","lat":43.28107,"lon":5.37849,"is_reserved":false,"is_disabled":false,"rental_uris":{"android":"levelo://app?vid=3dfe5b63-54d7-487d-a9b3-142683790d76","ios":"levelo://app?vid=3dfe5b63-54d7-487d-a9b3-142683790d76"},"vehicle_type_id":"4","last_reported":1739193424,"current_range_meters":38000,"station_id":"ce4bha12rcd13ifvqee0","pricing_plan_id":"cebpf4jnsgd1na2vs0mg"},{"bike_id":"0580eb58-e6b1-4e7b-a86c-47b05cf37565","system_id":"levelo_inurba_marseille","lat":43.27327,"lon":5.39072,"is_reserved":false,"is_disabled":false,"rental_uris":{"android":"levelo://app?vid=0580eb58-e6b1-4e7b-a86c-47b05cf37565","ios":"levelo://app?vid=0580eb58-e6b1-4e7b-a86c-47b05cf37565"},"vehicle_type_id":"4","last_reported":1739193424,"current_range_meters":24800,"station_id":"ce4bhgp2rcd13ifvqfe0","pricing_plan_id":"cebpf4jnsgd1na2vs0mg"},{"bike_id":"c294ebf1-014c-434d-aad4-0983614af0f7","system_id":"levelo_inurba_marseille","lat":43.23186,"lon":5.39976,"is_reserved":false,"is_disabled":false,"rental_uris":{"android":"levelo://app?vid=c294ebf1-014c-434d-aad4-0983614af0f7","ios":"levelo://app?vid=c294ebf1-014c-434d-aad4-0983614af0f7"},"vehicle_type_id":"4","last_reported":1739193424,"current_range_meters":28400,"station_id":"ce4bhn12rcd13ifvqgqg","pricing_plan_id":"cebpf4jnsgd1na2vs0mg"},{"bike_id":"c76b1a82-9a76-4e87-885e-db6737c7c086","system_id":"levelo_inurba_marseille","lat":43.29904,"lon":5.3815,"is_reserved":false,"is_disabled":false,"rental_uris":{"android":"levelo://app?vid=c76b1a82-9a76-4e87-885e-db6737c7c086","ios":"levelo://app?vid=c76b1a82-9a76-4e87-885e-db6737c7c086"},"vehicle_type_id":"4","last_reported":1739193424,"current_range_meters":37600,"station_id":"ce4bgj12rcd13ifvqbc0","pricing_plan_id":"cebpf4jnsgd1na2vs0mg"},{"bike_id":"926bb083-61d8-472f-b120-ca3b18e6070d","system_id":"levelo_inurba_marseille","lat":43.31887,"lon":5.407315,"is_reserved":false,"is_disabled":false,"rental_uris":{"android":"levelo://app?vid=926bb083-61d8-472f-b120-ca3b18e6070d","ios":"levelo://app?vid=926bb083-61d8-472f-b120-ca3b18e6070d"},"vehicle_type_id":"4","last_reported":1739193424,"current_range_meters":13600,"station_id":"ce4bhq12rcd13ifvqhig","pricing_plan_id":"cebpf4jnsgd1na2vs0mg"},{"bike_id":"26f106cf-8738-422f-bcb0-d7879a047329","system_id":"levelo_inurba_marseille","lat":43.29852,"lon":5.36274,"is_reserved":false,"is_disabled":false,"rental_uris":{"android":"levelo://app?vid=26f106cf-8738-422f-bcb0-d7879a047329","ios":"levelo://app?vid=26f106cf-8738-422f-bcb0-d7879a047329"},"vehicle_type_id":"4","last_reported":1739193424,"current_range_meters":38800,"station_id":"ce4bgpp2rcd13ifvqc3g","pricing_plan_id":"cebpf4jnsgd1na2vs0mg"},{"bike_id":"298c778e-f8af-4f07-ae08-dfc52b415e13","system_id":"levelo_inurba_marseille","lat":43.30151,"lon":5.38082,"is_reserved":false,"is_disabled":false,"rental_uris":{"android":"levelo://app?vid=298c778e-f8af-4f07-ae08-dfc52b415e13","ios":"levelo://app?vid=298c778e-f8af-4f07-ae08-dfc52b415e13"},"vehicle_type_id":"4","last_reported":1739193424,"current_range_meters":33600,"station_id":"ce4bgjp2rcd13ifvqbh0","pricing_plan_id":"cebpf4jnsgd1na2vs0mg"},{"bike_id":"2d8712e2-66fe-4c27-a470-a821be3d3d2a","system_id":"levelo_inurba_marseille","lat":43.30913,"lon":5.36852,"is_reserved":false,"is_disabled":false,"rental_uris":{"android":"levelo://app?vid=2d8712e2-66fe-4c27-a470-a821be3d3d2a","ios":"levelo://app?vid=2d8712e2-66fe-4c27-a470-a821be3d3d2a"},"vehicle_type_id":"4","last_reported":1739193424,"current_range_meters":36400,"station_id":"ce4bgn92rcd13ifvqbvg","pricing_plan_id":"cebpf4jnsgd1na2vs0mg"},{"bike_id":"2727597f-79bf-412c-a174-29206f2c1253","system_id":"levelo_inurba_marseille","lat":43.29605,"lon":5.37716,"is_reserved":false,"is_disabled":false,"rental_uris":{"android":"levelo://app?vid=2727597f-79bf-412c-a174-29206f2c1253","ios":"levelo://app?vid=2727597f-79bf-412c-a174-29206f2c1253"},"vehicle_type_id":"4","last_reported":1739193424,"current_range_meters":34000,"station_id":"ce4bgi92rcd13ifvqb90","pricing_plan_id":"cebpf4jnsgd1na2vs0mg"},{"bike_id":"118acaa8-c377-4759-a8f9-c3303973ef34","system_id":"levelo_inurba_marseille","lat":43.298815,"lon":5.38902,"is_reserved":false,"is_disabled":false,"rental_uris":{"android":"levelo://app?vid=118acaa8-c377-4759-a8f9-c3303973ef34","ios":"levelo://app?vid=118acaa8-c377-4759-a8f9-c3303973ef34"},"vehicle_type_id":"4","last_reported":1739193424,"current_range_meters":28800,"station_id":"ce4bh392rcd13ifvqdl0","pricing_plan_id":"cebpf4jnsgd1na2vs0mg"},{"bike_id":"34262e96-987c-4fc3-975f-8c9abba81a43","system_id":"levelo_inurba_marseille","lat":43.27078,"lon":5.42284,"is_reserved":false,"is_disabled":false,"rental_uris":{"android":"levelo://app?vid=34262e96-987c-4fc3-975f-8c9abba81a43","ios":"levelo://app?vid=34262e96-987c-4fc3-975f-8c9abba81a43"},"vehicle_type_id":"4","last_reported":1739193424,"current_range_meters":39200,"station_id":"ce4bhk92rcd13ifvqgb0","pricing_plan_id":"cebpf4jnsgd1na2vs0mg"},{"bike_id":"ece6e495-7b3e-4851-9a8e-b0a8f9b1243e","system_id":"levelo_inurba_marseille","lat":43.29606,"lon":5.37708,"is_reserved":false,"is_disabled":false,"rental_uris":{"android":"levelo://app?vid=ece6e495-7b3e-4851-9a8e-b0a8f9b1243e","ios":"levelo://app?vid=ece6e495-7b3e-4851-9a8e-b0a8f9b1243e"},"vehicle_type_id":"4","last_reported":1739193424,"current_range_meters":8000,"station_id":"ce4bgi92rcd13ifvqb90","pricing_plan_id":"cebpf4jnsgd1na2vs0mg"},{"bike_id":"c8284eb2-c14e-4314-acdb-ff222905a9d3","system_id":"levelo_inurba_marseille","lat":43.31338,"lon":5.36717,"is_reserved":false,"is_disabled":false,"rental_uris":{"android":"levelo://app?vid=c8284eb2-c14e-4314-acdb-ff222905a9d3","ios":"levelo://app?vid=c8284eb2-c14e-4314-acdb-ff222905a9d3"},"vehicle_type_id":"4","last_reported":1739193424,"current_range_meters":22400,"station_id":"ce4bgr92rcd13ifvqc6g","pricing_plan_id":"cebpf4jnsgd1na2vs0mg"},{"bike_id":"c2b10c21-fda5-4071-adec-660ac85050e8","system_id":"levelo_inurba_marseille","lat":43.30604,"lon":5.39355,"is_reserved":false,"is_disabled":false,"rental_uris":{"android":"levelo://app?vid=c2b10c21-fda5-4071-adec-660ac85050e8","ios":"levelo://app?vid=c2b10c21-fda5-4071-adec-660ac85050e8"},"vehicle_type_id":"4","last_reported":1739193424,"current_range_meters":22800,"station_id":"ce4bh0p2rcd13ifvqd80","pricing_plan_id":"cebpf4jnsgd1na2vs0mg"},{"bike_id":"10a8aa0e-b281-454d-8c08-561faec463d8","system_id":"levelo_inurba_marseille","lat":43.29216,"lon":5.36084,"is_reserved":false,"is_disabled":false,"rental_uris":{"android":"levelo://app?vid=10a8aa0e-b281-454d-8c08-561faec463d8","ios":"levelo://app?vid=10a8aa0e-b281-454d-8c08-561faec463d8"},"vehicle_type_id":"4","last_reported":1739193424,"current_range_meters":36800,"station_id":"ce4bhbh2rcd13ifvqeqg","pricing_plan_id":"cebpf4jnsgd1na2vs0mg"},{"bike_id":"54ce597b-1ca1-4d62-923d-d4b29eec04b3","system_id":"levelo_inurba_marseille","lat":43.31131,"lon":5.38261,"is_reserved":false,"is_disabled":false,"rental_uris":{"android":"levelo://app?vid=54ce597b-1ca1-4d62-923d-d4b29eec04b3","ios":"levelo://app?vid=54ce597b-1ca1-4d62-923d-d4b29eec04b3"},"vehicle_type_id":"4","last_reported":1739193424,"current_range_meters":25600,"station_id":"","pricing_plan_id":"cebpf4jnsgd1na2vs0mg"},{"bike_id":"b4765ae2-b7fb-4718-bf68-ce7ba2c817f9","system_id":"levelo_inurba_marseille","lat":43.27074,"lon":5.42297,"is_reserved":false,"is_disabled":false,"rental_uris":{"android":"levelo://app?vid=b4765ae2-b7fb-4718-bf68-ce7ba2c817f9","ios":"levelo://app?vid=b4765ae2-b7fb-4718-bf68-ce7ba2c817f9"},"vehicle_type_id":"4","last_reported":1739193424,"current_range_meters":28000,"station_id":"ce4bhk92rcd13ifvqgb0","pricing_plan_id":"cebpf4jnsgd1na2vs0mg"},{"bike_id":"90d1a8a8-5350-4d94-9502-14ac9fc62935","system_id":"levelo_inurba_marseille","lat":43.30209,"lon":5.39461,"is_reserved":false,"is_disabled":false,"rental_uris":{"android":"levelo://app?vid=90d1a8a8-5350-4d94-9502-14ac9fc62935","ios":"levelo://app?vid=90d1a8a8-5350-4d94-9502-14ac9fc62935"},"vehicle_type_id":"4","last_reported":1739193424,"current_range_meters":27200,"station_id":"ce4bh0p2rcd13ifvqd70","pricing_plan_id":"cebpf4jnsgd1na2vs0mg"},{"bike_id":"7783bfa8-41a8-4647-9723-689c49bd3c6a","system_id":"levelo_inurba_marseille","lat":43.28274,"lon":5.35072,"is_reserved":false,"is_disabled":false,"rental_uris":{"android":"levelo://app?vid=7783bfa8-41a8-4647-9723-689c49bd3c6a","ios":"levelo://app?vid=7783bfa8-41a8-4647-9723-689c49bd3c6a"},"vehicle_type_id":"4","last_reported":1739193424,"current_range_meters":26000,"station_id":"ce4bhbp2rcd13ifvqerg","pricing_plan_id":"cebpf4jnsgd1na2vs0mg"},{"bike_id":"86f01d3f-c958-40f4-9286-4ab127e94120","system_id":"levelo_inurba_marseille","lat":43.29858,"lon":5.36305,"is_reserved":false,"is_disabled":true,"rental_uris":{"android":"levelo://app?vid=86f01d3f-c958-40f4-9286-4ab127e94120","ios":"levelo://app?vid=86f01d3f-c958-40f4-9286-4ab127e94120"},"vehicle_type_id":"4","last_reported":1739193424,"current_range_meters":11200,"station_id":"ce4bgpp2rcd13ifvqc3g","pricing_plan_id":"cebpf4jnsgd1na2vs0mg"},{"bike_id":"f6032093-acba-469c-87fb-29d8d78369ea","system_id":"levelo_inurba_marseille","lat":43.28611,"lon":5.35107,"is_reserved":false,"is_disabled":false,"rental_uris":{"android":"levelo://app?vid=f6032093-acba-469c-87fb-29d8d78369ea","ios":"levelo://app?vid=f6032093-acba-469c-87fb-29d8d78369ea"},"vehicle_type_id":"4","last_reported":1739193424,"current_range_meters":29600,"station_id":"ce4bhch2rcd13ifvqeug","pricing_plan_id":"cebpf4jnsgd1na2vs0mg"},{"bike_id":"55811019-cad8-4b02-9878-e207e257fb4e","system_id":"levelo_inurba_marseille","lat":43.31224,"lon":5.36853,"is_reserved":false,"is_disabled":false,"rental_uris":{"android":"levelo://app?vid=55811019-cad8-4b02-9878-e207e257fb4e","ios":"levelo://app?vid=55811019-cad8-4b02-9878-e207e257fb4e"},"vehicle_type_id":"4","last_reported":1739193424,"current_range_meters":22800,"station_id":"ce4bgl92rcd13ifvqbq0","pricing_plan_id":"cebpf4jnsgd1na2vs0mg"},{"bike_id":"5434f5ed-2ed8-4d70-9d2f-9801ce79a174","system_id":"levelo_inurba_marseille","lat":43.28464,"lon":5.35878,"is_reserved":false,"is_disabled":false,"rental_uris":{"android":"levelo://app?vid=5434f5ed-2ed8-4d70-9d2f-9801ce79a174","ios":"levelo://app?vid=5434f5ed-2ed8-4d70-9d2f-9801ce79a174"},"vehicle_type_id":"4","last_reported":1739193424,"current_range_meters":26000,"station_id":"ce4bhah2rcd13ifvqei0","pricing_plan_id":"cebpf4jnsgd1na2vs0mg"},{"bike_id":"1172baa7-5fa5-4ab2-9047-6d3d9ecae58e","system_id":"levelo_inurba_marseille","lat":43.2573,"lon":5.41088,"is_reserved":false,"is_disabled":false,"rental_uris":{"android":"levelo://app?vid=1172baa7-5fa5-4ab2-9047-6d3d9ecae58e","ios":"levelo://app?vid=1172baa7-5fa5-4ab2-9047-6d3d9ecae58e"},"vehicle_type_id":"4","last_reported":1739193424,"current_range_meters":38800,"station_id":"ce4bhkp2rcd13ifvqgd0","pricing_plan_id":"cebpf4jnsgd1na2vs0mg"},{"bike_id":"38bc75e2-a397-4b63-995f-245fe151a8f9","system_id":"levelo_inurba_marseille","lat":43.232178,"lon":5.400106,"is_reserved":false,"is_disabled":false,"rental_uris":{"android":"levelo://app?vid=38bc75e2-a397-4b63-995f-245fe151a8f9","ios":"levelo://app?vid=38bc75e2-a397-4b63-995f-245fe151a8f9"},"vehicle_type_id":"4","last_reported":1739193424,"current_range_meters":36800,"station_id":"ce4bhn12rcd13ifvqgqg","pricing_plan_id":"cebpf4jnsgd1na2vs0mg"},