{"last_updated":1726251110,"ttl":30,"version":"2.2","data":{"bikes":[{"bike_id":"bc35aeaa-3e4d-43e6-9935-c8f1110a4b4c","system_id":"levelo_inurba_marseille","lat":43.30507,"lon":5.36712,"is_reserved":false,"is_disabled":false,"rental_uris":{"android":"levelo://app?vid=bc35aeaa-3e4d-43e6-9935-c8f1110a4b4c","ios":"levelo://app?vid=bc35aeaa-3e4d-43e6-9935-c8f1110a4b4c"},"vehicle_type_id":"4","last_reported":1726251110,"current_range_meters":36800,"station_id":"ce4bgrp2rcd13ifvqc9g","pricing_plan_id":"cebpf4jnsgd1na2vs0mg"},{"bike_id":"2ca2fd52-6283-4397-ac7e-8db28b0c8f78","system_id":"levelo_inurba_marseille","lat":43.23196,"lon":5.35555,"is_reserved":false,"is_disabled":false,"rental_uris":{"android":"levelo://app?vid=2ca2fd52-6283-4397-ac7e-8db28b0c8f78","ios":"levelo://app?vid=2ca2fd52-6283-4397-ac7e-8db28b0c8f78"},"vehicle_type_id":"4","last_reported":1726251110,"current_range_meters":10800,"station_id":"ce4bhu92rcd13ifvqi70","pricing_plan_id":"cebpf4jnsgd1na2vs0mg"},{"bike_id":"bc7c698c-70a7-4d45-8de4-c94801319b35","system_id":"levelo_inurba_marseille","lat":43.32345,"lon":5.38893,"is_reserved":false,"is_disabled":false,"rental_uris":{"android":"levelo://app?vid=bc7c698c-70a7-4d45-8de4-c94801319b35","ios":"levelo://app?vid=bc7c698c-70a7-4d45-8de4-c94801319b35"},"vehicle_type_id":"4","last_reported":1726251110,"current_range_meters":7200,"station_id":"ce4bhqp2rcd13ifvqhog","pricing_plan_id":"cebpf4jnsgd1na2vs0mg"},{"bike_id":"ec923868-dfb0-48cc-87e4-ae4784762d92","system_id":"levelo_inurba_marseille","lat":43.28674,"lon":5.38687,"is_reserved":false,"is_disabled":false,"rental_uris":{"android":"levelo://app?vid=ec923868-dfb0-48cc-87e4-ae4784762d92","ios":"levelo://app?vid=ec923868-dfb0-48cc-87e4-ae4784762d92"},"vehicle_type_id":"4","last_reported":1726251110,"current_range_meters":3200,"station_id":"ce4bh492rcd13ifvqdug","pricing_plan_id":"cebpf4jnsgd1na2vs0mg"},{"bike_id":"ab249b05-ab61-49ea-b34e-df8db57712d1","system_id":"levelo_inurba_marseille","lat":43.30887,"lon":5.37201,"is_reserved":false,"is_disabled":false,"rental_uris":{"android":"levelo://app?vid=ab249b05-ab61-49ea-b34e-df8db57712d1","ios":"levelo://app?vid=ab249b05-ab61-49ea-b34e-df8db57712d1"},"vehicle_type_id":"4","last_reported":1726251110,"current_range_meters":39200,"station_id":"ce4bguh2rcd13ifvqckg","pricing_plan_id":"cebpf4jnsgd1na2vs0mg"},{"bike_id":"1433cc86-19c5-4d38-a0b5-c5c087739e0a","system_id":"levelo_inurba_marseille","lat":43.22932,"lon":5.35374,"is_reserved":false,"is_disabled":false,"rental_uris":{"android":"levelo://app?vid=1433cc86-19c5-4d38-a0b5-c5c087739e0a","ios":"levelo://app?vid=1433cc86-19c5-4d38-a0b5-c5c087739e0a"},"vehicle_type_id":"4","last_reported":1726251110,"current_range_meters":29600,"station_id":"cpo3532slgdg3j2ikp40","pricing_plan_id":"cebpf4jnsgd1na2vs0mg"},{"bike_id":"67468702-002a-4df5-9012-9c567f0d2e31","system_id":"levelo_inurba_marseille","lat":43.31768,"lon":5.39017,"is_reserved":false,"is_disabled":false,"rental_uris":{"android":"levelo://app?vid=67468702-002a-4df5-9012-9c567f0d2e31","ios":"levelo://app?vid=67468702-002a-4df5-9012-9c567f0d2e31"},"vehicle_type_id":"4","last_reported":1726251110,"current_range_meters":36000,"station_id":"ce4bhqp2rcd13ifvqhng","pricing_plan_id":"cebpf4jnsgd1na2vs0mg"},{"bike_id":"083984dd-1abd-4a7d-84c6-e8ceb7b63abe","system_id":"levelo_inurba_marseille","lat":43.31094,"lon":5.37789,"is_reserved":false,"is_disabled":false,"rental_uris":{"android":"levelo://app?vid=083984dd-1abd-4a7d-84c6-e8ceb7b63abe","ios":"levelo://app?vid=083984dd-1abd-4a7d-84c6-e8ceb7b63abe"},"vehicle_type_id":"4","last_reported":1726251110,"current_range_meters":36800,"station_id":"ce4bgt92rcd13ifvqcg0","pricing_plan_id":"cebpf4jnsgd1na2vs0mg"},{"bike_id":"f2aab370-6e0a-414f-a9aa-b82870be9ba4","system_id":"levelo_inurba_marseille","lat":43.28619,"lon":5.35108,"is_reserved":false,"is_disabled":false,"rental_uris":{"android":"levelo://app?vid=f2aab370-6e0a-414f-a9aa-b82870be9ba4","ios":"levelo://app?vid=f2aab370-6e0a-414f-a9aa-b82870be9ba4"},"vehicle_type_id":"4","last_reported":1726251110,"current_range_meters":20800,"station_id":"ce4bhch2rcd13ifvqeug","pricing_plan_id":"cebpf4jnsgd1na2vs0mg"},{"bike_id":"447739f7-3179-4413-9e99-3ae95807c9ae","system_id":"levelo_inurba_marseille","lat":43.3013,"lon":5.3986,"is_reserved":false,"is_disabled":false,"rental_uris":{"android":"levelo://app?vid=447739f7-3179-4413-9e99-3ae95807c9ae","ios":"levelo://app?vid=447739f7-3179-4413-9e99-3ae95807c9ae"},"vehicle_type_id":"4","last_reported":1726251110,"current_range_meters":24000,"station_id":"ce4bh0h2rcd13ifvqd40","pricing_plan_id":"cebpf4jnsgd1na2vs0mg"},{"bike_id":"1921db88-c961-4c6d-96b7-1f3c25950a8b","system_id":"levelo_inurba_marseille","lat":43.31435,"lon":5.37049,"is_reserved":false,"is_disabled":false,"rental_uris":{"android":"levelo://app?vid=1921db88-c961-4c6d-96b7-1f3c25950a8b","ios":"levelo://app?vid=1921db88-c961-4c6d-96b7-1f3c25950a8b"},"vehicle_type_id":"4","last_reported":1726251110,"current_range_meters":14000,"station_id":"","pricing_plan_id":"cebpf4jnsgd1na2vs0mg"},{"bike_id":"73b7f41b-b846-48e2-9a9f-863df96db269","system_id":"levelo_inurba_marseille","lat":43.25114,"lon":5.40324,"is_reserved":false,"is_disabled":false,"rental_uris":{"android":"levelo://app?vid=73b7f41b-b846-48e2-9a9f-863df96db269","ios":"levelo://app?vid=73b7f41b-b846-48e2-9a9f-863df96db269"},"vehicle_type_id":"4","last_reported":1726251110,"current_range_meters":13600,"station_id":"ce4bhlh2rcd13ifvqgig","pricing_plan_id":"cebpf4jnsgd1na2vs0mg"},{"bike_id":"c5ed8bab-12e3-4101-81bb-39350c57310d","system_id":"levelo_inurba_marseille","lat":43.24166,"lon":5.364,"is_reserved":false,"is_disabled":false,"rental_uris":{"android":"levelo://app?vid=c5ed8bab-12e3-4101-81bb-39350c57310d","ios":"levelo://app?vid=c5ed8bab-12e3-4101-81bb-39350c57310d"},"vehicle_type_id":"4","last_reported":1726251110,"current_range_meters":3600,"station_id":"cpo36qri1sfpv3e86is0","pricing_plan_id":"cebpf4jnsgd1na2vs0mg"},{"bike_id":"82312ba3-1909-43d2-8fa2-46ed386ca4fb","system_id":"levelo_inurba_marseille","lat":43.31688,"lon":5.4048,"is_reserved":false,"is_disabled":false,"rental_uris":{"android":"levelo://app?vid=82312ba3-1909-43d2-8fa2-46ed386ca4fb","ios":"levelo://app?vid=82312ba3-1909-43d2-8fa2-46ed386ca4fb"},"vehicle_type_id":"4","last_reported":1726251110,"current_range_meters":38400,"station_id":"ce4bh012rcd13ifvqd00","pricing_plan_id":"cebpf4jnsgd1na2vs0mg"},{"bike_id":"bf19e154-3671-47b7-a39a-0390017f4471","system_id":"levelo_inurba_marseille","lat":43.2928,"lon":5.40117,"is_reserved":false,"is_disabled":false,"rental_uris":{"android":"levelo://app?vid=bf19e154-3671-47b7-a39a-0390017f4471","ios":"levelo://app?vid=bf19e154-3671-47b7-a39a-0390017f4471"},"vehicle_type_id":"4","last_reported":1726251110,"current_range_meters":28800,"station_id":"ce4bh312rcd13ifvqdk0","pricing_plan_id":"cebpf4jnsgd1na2vs0mg"},{"bike_id":"bfcab7f4-1226-480a-a27b-8740e896fb3a","system_id":"levelo_inurba_marseille","lat":43.271698,"lon":5.409914,"is_reserved":false,"is_disabled":false,"rental_uris":{"android":"levelo://app?vid=bfcab7f4-1226-480a-a27b-8740e896fb3a","ios":"levelo://app?vid=bfcab7f4-1226-480a-a27b-8740e896fb3a"},"vehicle_type_id":"4","last_reported":1726251110,"current_range_meters":25600,"station_id":"ce4bhl12rcd13ifvqgf0","pricing_plan_id":"cebpf4jnsgd1na2vs0mg"},{"bike_id":"71cfdf38-6255-4c8d-939e-598374708148","system_id":"levelo_inurba_marseille","lat":43.313532,"lon":5.367167,"is_reserved":false,"is_disabled":false,"rental_uris":{"android":"levelo://app?vid=71cfdf38-6255-4c8d-939e-598374708148","ios":"levelo://app?vid=71cfdf38-6255-4c8d-939e-598374708148"},"vehicle_type_id":"4","last_reported":1726251110,"current_range_meters":16400,"station_id":"ce4bgr92rcd13ifvqc6g","pricing_plan_id":"cebpf4jnsgd1na2vs0mg"},{"bike_id":"41ba70eb-93e1-4582-b978-0024b782a594","system_id":"levelo_inurba_marseille","lat":43.26958,"lon":5.38632,"is_reserved":false,"is_disabled":false,"rental_uris":{"android":"levelo://app?vid=41ba70eb-93e1-4582-b978-0024b782a594","ios":"levelo://app?vid=41ba70eb-93e1-4582-b978-0024b782a594"},"vehicle_type_id":"4","last_reported":1726251110,"current_range_meters":2800,"station_id":"ce4bhh92rcd13ifvqfh0","pricing_plan_id":"cebpf4jnsgd1na2vs0mg"},{"bike_id":"13ec4916-f0ea-4897-8afc-596425b42c42","system_id":"levelo_inurba_marseille","lat":43.23191,"lon":5.35553,"is_reserved":false,"is_disabled":false,"rental_uris":{"android":"levelo://app?vid=13ec4916-f0ea-4897-8afc-596425b42c42","ios":"levelo://app?vid=13ec4916-f0ea-4897-8afc-596425b42c42"},"vehicle_type_id":"4","last_reported":1726251110,"current_range_meters":30400,"station_id":"ce4bhu92rcd13ifvqi70","pricing_plan_id":"cebpf4jnsgd1na2vs0mg"},{"bike_id":"3f1e932a-540c-4c5d-a4f8-ac49240977b8","system_id":"levelo_inurba_marseille","lat":43.24386,"lon":5.3706,"is_reserved":false,"is_disabled":false,"rental_uris":{"android":"levelo://app?vid=3f1e932a-540c-4c5d-a4f8-ac49240977b8","ios":"levelo://app?vid=3f1e932a-540c-4c5d-a4f8-ac49240977b8"},"vehicle_type_id":"4","last_reported":1726251110,"current_range_meters":11200,"station_id":"ce4bhhh2rcd13ifvqfk0","pricing_plan_id":"cebpf4jnsgd1na2vs0mg"},{"bike_id":"1b69e28d-b657-4802-b5dd-aa17fb5a768b","system_id":"levelo_inurba_marseille","lat":43.27136,"lon":5.42793,"is_reserved":false,"is_disabled":false,"rental_uris":{"android":"levelo://app?vid=1b69e28d-b657-4802-b5dd-aa17fb5a768b","ios":"levelo://app?vid=1b69e28d-b657-4802-b5dd-aa17fb5a768b"},"vehicle_type_id":"4","last_reported":1726251110,"current_range_meters":30000,"station_id":"","pricing_plan_id":"cebpf4jnsgd1na2vs0mg"},{"bike_id":"cedf15cb-b781-4542-8c70-b087dc011ede","system_id":"levelo_inurba_marseille","lat":43.2985,"lon":5.36289,"is_reserved":false,"is_disabled":false,"rental_uris":{"android":"levelo://app?vid=cedf15cb-b781-4542-8c70-b087dc011ede","ios":"levelo://app?vid=cedf15cb-b781-4542-8c70-b087dc011ede"},"vehicle_type_id":"4","last_reported":1726251110,"current_range_meters":39200,"station_id":"ce4bgpp2rcd13ifvqc3g","pricing_plan_id":"cebpf4jnsgd1na2vs0mg"},{"bike_id":"995d3a7e-289e-4ebd-b785-9d2da426ad57","system_id":"levelo_inurba_marseille","lat":43.23195,"lon":5.35546,"is_reserved":false,"is_disabled":false,"rental_uris":{"android":"levelo://app?vid=995d3a7e-289e-4ebd-b785-9d2da426ad57","ios":"levelo://app?vid=995d3a7e-289e-4ebd-b785-9d2da426ad57"},"vehicle_type_id":"4","last_reported":1726251110,"current_range_meters":25200,"station_id":"ce4bhu92rcd13ifvqi70","pricing_plan_id":"cebpf4jnsgd1na2vs0mg"},{"bike_id":"74c67d55-8a5f-40c9-8066-d68354718f8c","system_id":"levelo_inurba_marseille","lat":43.23192,"lon":5.35558,"is_reserved":false,"is_disabled":false,"rental_uris":{"android":"levelo://app?vid=74c67d55-8a5f-40c9-8066-d68354718f8c","ios":"levelo://app?vid=74c67d55-8a5f-40c9-8066-d68354718f8c"},"vehicle_type_id":"4","last_reported":1726251110,"current_range_meters":28800,"station_id":"ce4bhu92rcd13ifvqi70","pricing_plan_id":"cebpf4jnsgd1na2vs0mg"},{"bike_id":"3a682143-5882-41f6-b2df-ee8b5940827b","system_id":"levelo_inurba_marseille","lat":43.27567,"lon":5.38418,"is_reserved":false,"is_disabled":false,"rental_uris":{"android":"levelo://app?vid=3a682143-5882-41f6-b2df-ee8b5940827b","ios":"levelo://app?vid=3a682143-5882-41f6-b2df-ee8b5940827b"},"vehicle_type_id":"4","last_reported":1726251110,"current_range_meters":21600,"station_id":"ce4bhh92rcd13ifvqfi0","pricing_plan_id":"cebpf4jnsgd1na2vs0mg"},{"bike_id":"e2be0aea-67dc-4dc6-b46f-e2412631f2dd","system_id":"levelo_inurba_marseille","lat":43.24998,"lon":5.38934,"is_reserved":false,"is_disabled":false,"rental_uris":{"android":"levelo://app?vid=e2be0aea-67dc-4dc6-b46f-e2412631f2dd","ios":"levelo://app?vid=e2be0aea-67dc-4dc6-b46f-e2412631f2dd"},"vehicle_type_id":"4","last_reported":1726251110,"current_range_meters":7200,"station_id":"ce4bhgp2rcd13ifvqfd0","pricing_plan_id":"cebpf4jnsgd1na2vs0mg"},{"bike_id":"dbcf613e-233e-4496-a7e9-4c361cbe1f45","system_id":"levelo_inurba_marseille","lat":43.29418,"lon":5.38623,"is_reserved":false,"is_disabled":false,"rental_uris":{"android":"levelo://app?vid=dbcf613e-233e-4496-a7e9-4c361cbe1f45","ios":"levelo://app?vid=dbcf613e-233e-4496-a7e9-4c361cbe1f45"},"vehicle_type_id":"4","last_reported":1726251110,"current_range_meters":38800,"station_id":"ce4bh2h2rcd13ifvqdh0","pricing_plan_id":"cebpf4jnsgd1na2vs0mg"},{"bike_id":"5308ed4f-0729-4a51-a832-6b17f8ec76e9","system_id":"levelo_inurba_marseille","lat":43.24078,"lon":5.37748,"is_reserved":false,"is_disabled":false,"rental_uris":{"android":"levelo://app?vid=5308ed4f-0729-4a51-a832-6b17f8ec76e9","ios":"levelo://app?vid=5308ed4f-0729-4a51-a832-6b17f8ec76e9"},"vehicle_type_id":"4","last_reported":1726251110,"current_range_meters":24800,"station_id":"ce4bhnp2rcd13ifvqgvg","pricing_plan_id":"cebpf4jnsgd1na2vs0mg"},{"bike_id":"6267baa5-f35c-4311-91c4-71f926f47f2c","system_id":"levelo_inurba_marseille","lat":43.29747,"lon":5.37908,"is_reserved":false,"is_disabled":false,"rental_uris":{"android":"levelo://app?vid=6267baa5-f35c-4311-91c4-71f926f47f2c","ios":"levelo://app?vid=6267baa5-f35c-4311-91c4-71f926f47f2c"},"vehicle_type_id":"4","last_reported":1726251110,"current_range_meters":6800,"station_id":"","pricing_plan_id":"cebpf4jnsgd1na2vs0mg"},{"bike_id":"561879c5-d2ab-4f1c-afb3-b8ddbca5daf2","system_id":"levelo_inurba_marseille","lat":43.28262,"lon":5.35063,"is_reserved":false,"is_disabled":false,"rental_uris":{"android":"levelo://app?vid=561879c5-d2ab-4f1c-afb3-b8ddbca5daf2","ios":"levelo://app?vid=561879c5-d2ab-4f1c-afb3-b8ddbca5daf2"},"vehicle_type_id":"4","last_reported":1726251110,"current_range_meters":6400,"station_id":"ce4bhbp2rcd13ifvqerg","pricing_plan_id":"cebpf4jnsgd1na2vs0mg"},{"bike_id":"89d0db6d-fc67-438b-9dad-27c1e8860a3c","system_id":"levelo_inurba_marseille","lat":43.30248,"lon":5.40058,"is_reserved":false,"is_disabled":false,"rental_uris":{"android":"levelo://app?vid=89d0db6d-fc67-438b-9dad-27c1e8860a3c","ios":"levelo://app?vid=89d0db6d-fc67-438b-9dad-27c1e8860a3c"},"vehicle_type_id":"4","last_reported":1726251110,"current_range_meters":2800,"station_id":"ce4bgvh2rcd13ifvqcs0","pricing_plan_id":"cebpf4jnsgd1na2vs0mg"},{"bike_id":"cf261571-092e-466a-abdf-d366c756cfa4","system_id":"levelo_inurba_marseille","lat":43.290211,"lon":5.386355,"is_reserved":false,"is_disabled":false,"rental_uris":{"android":"levelo://app?vid=cf261571-092e-466a-abdf-d366c756cfa4","ios":"levelo://app?vid=cf261571-092e-466a-abdf-d366c756cfa4"},"vehicle_type_id":"4","last_reported":1726251110,"current_range_meters":9600,"station_id":"ce4bh4p2rcd13ifvqe0g","pricing_plan_id":"cebpf4jnsgd1na2vs0mg"},{"bike_id":"e6bea8cd-bd1a-48c2-8a52-de5e2a98c0f4","system_id":"levelo_inurba_marseille","lat":43.2594,"lon":5.40903,"is_reserved":false,"is_disabled":false,"rental_uris":{"android":"levelo://app?vid=e6bea8cd-bd1a-48c2-8a52-de5e2a98c0f4","ios":"levelo://app?vid=e6bea8cd-bd1a-48c2-8a52-de5e2a98c0f4"},"vehicle_type_id":"4","last_reported":1726251110,"current_range_meters":36800,"station_id":"ce4bhm92rcd13ifvqglg","pricing_plan_id":"cebpf4jnsgd1na2vs0mg"},{"bike_id":"68bffa0a-5b91-4439-8697-195e1b9cefbe","system_id":"levelo_inurba_marseille","lat":43.29033,"lon":5.38646,"is_reserved":false,"is_disabled":false,"rental_uris":{"android":"levelo://app?vid=68bffa0a-5b91-4439-8697-195e1b9cefbe","ios":"levelo://app?vid=68bffa0a-5b91-4439-8697-195e1b9cefbe"},"vehicle_type_id":"4","last_reported":1726251110,"current_range_meters":28800,"station_id":"ce4bh4p2rcd13ifvqe0g","pricing_plan_id":"cebpf4jnsgd1na2vs0mg"},{"bike_id":"44f09c39-e560-4787-855a-6c24192c7f7b","system_id":"levelo_inurba_marseille","lat":43.33024,"lon":5.39038,"is_reserved":false,"is_disabled":false,"rental_uris":{"android":"levelo://app?vid=44f09c39-e560-4787-855a-6c24192c7f7b","ios":"levelo://app?vid=44f09c39-e560-4787-855a-6c24192c7f7b"},"vehicle_type_id":"4","last_reported":1726251110,"current_range_meters":25200,"station_id":"ce4bhr92rcd13ifvqhrg","pricing_plan_id":"cebpf4jnsgd1na2vs0mg"},{"bike_id":"9a16598d-77d1-4b75-91bd-79143238a975","system_id":"levelo_inurba_marseille","lat":43.31883,"lon":5.40737,"is_reserved":false,"is_disabled":false,"rental_uris":{"android":"levelo://app?vid=9a16598d-77d1-4b75-91bd-79143238a975","ios":"levelo://app?vid=9a16598d-77d1-4b75-91bd-79143238a975"},"vehicle_type_id":"4","last_reported":1726251110,"current_range_meters":4800,"station_id":"ce4bhq12rcd13ifvqhig","pricing_plan_id":"cebpf4jnsgd1na2vs0mg"},{"bike_id":"af535742-2c29-4a75-aba4-bfe02b811be0","system_id":"levelo_inurba_marseille","lat":43.25583,"lon":5.38242,"is_reserved":false,"is_disabled":false,"rental_uris":{"android":"levelo://app?vid=af535742-2c29-4a75-aba4-bfe02b811be0","ios":"levelo://app?vid=af535742-2c29-4a75-aba4-bfe02b811be0"},"vehicle_type_id":"4","last_reported":1726251110,"current_range_meters":8000,"station_id":"ce4bhih2rcd13ifvqfs0","pricing_plan_id":"cebpf4jnsgd1na2vs0mg"},{"bike_id":"2a089944-b1a6-45af-99d1-9b70add064d3","system_id":"levelo_inurba_marseille","lat":43.24812,"lon":5.37461,"is_reserved":false,"is_disabled":false,"rental_uris":{"android":"levelo://app?vid=2a089944-b1a6-45af-99d1-9b70add064d3","ios":"levelo://app?vid=2a089944-b1a6-45af-99d1-9b70add064d3"},"vehicle_type_id":"4","last_reported":1726251110,"current_range_meters":16000,"station_id":"ce4bhgh2rcd13ifvqfb0","pricing_plan_id":"cebpf4jnsgd1na2vs0mg"},{"bike_id":"34721204-9cc8-4128-8304-5b698c26b1e6","system_id":"levelo_inurba_marseille","lat":43.23187,"lon":5.39985,"is_reserved":false,"is_disabled":false,"rental_uris":{"android":"levelo://app?vid=34721204-9cc8-4128-8304-5b698c26b1e6","ios":"levelo://app?vid=34721204-9cc8-4128-8304-5b698c26b1e6"},"vehicle_type_id":"4","last_reported":1726251110,"current_range_meters":39200,"station_id":"ce4bhn12rcd13ifvqgqg","pricing_plan_id":"cebpf4jnsgd1na2vs0mg"},{"bike_id":"a526ada8-a67a-4a96-8415-ef3e9c17fda7","system_id":"levelo_inurba_marseille","lat":43.24184,"lon":5.39722,"is_reserved":false,"is_disabled":false,"rental_uris":{"android":"levelo://app?vid=a526ada8-a67a-4a96-8415-ef3e9c17fda7","ios":"levelo://app?vid=a526ada8-a67a-4a96-8415-ef3e9c17fda7"},"vehicle_type_id":"4","last_reported":1726251110,"current_range_meters":11200,"station_id":"ce4bhn12rcd13ifvqgpg","pricing_plan_id":"cebpf4jnsgd1na2vs0mg"},{"bike_id":"0124e22a-940d-4592-a669-5febf603375d","system_id":"levelo_inurba_marseille","lat":43.28078,"lon":5.39665,"is_reserved":false,"is_disabled":false,"rental_uris":{"android":"levelo://app?vid=0124e22a-940d-4592-a669-5febf603375d","ios":"levelo://app?vid=0124e22a-940d-4592-a669-5febf603375d"},"vehicle_type_id":"4","last_reported":1726251110,"current_range_meters":7200,"station_id":"ce4bho12rcd13ifvqh2g","pricing_plan_id":"cebpf4jnsgd1na2vs0mg"},{"bike_id":"39b86749-80ef-4310-953b-c60370086942","system_id":"levelo_inurba_marseille","lat":43.24545,"lon":5.39525,"is_reserved":false,"is_disabled":false,"rental_uris":{"android":"levelo://app?vid=39b86749-80ef-4310-953b-c60370086942","ios":"levelo://app?vid=39b86749-80ef-4310-953b-c60370086942"},"vehicle_type_id":"4","last_reported":1726251110,"current_range_meters":29600,"station_id":"ce4bhlp2rcd13ifvqgjg","pricing_plan_id":"cebpf4jnsgd1na2vs0mg"},{"bike_id":"6a8f2f10-9a94-4930-acf4-9d3abaa17531","system_id":"levelo_inurba_marseille","lat":43.255,"lon":5.37651,"is_reserved":false,"is_disabled":false,"rental_uris":{"android":"levelo://app?vid=6a8f2f10-9a94-4930-acf4-9d3abaa17531","ios":"levelo://app?vid=6a8f2f10-9a94-4930-acf4-9d3abaa17531"},"vehicle_type_id":"4","last_reported":1726251110,"current_range_meters":35600,"station_id":"ce4bhh12rcd13ifvqff0","pricing_plan_id":"cebpf4jnsgd1na2vs0mg"},{"bike_id":"4cad2379-f22f-4bf0-a45e-a36b3b61dd30","system_id":"levelo_inurba_marseille","lat":43.25585,"lon":5.38241,"is_reserved":false,"is_disabled":false,"rental_uris":{"android":"levelo://app?vid=4cad2379-f22f-4bf0-a45e-a36b3b61dd30","ios":"levelo://app?vid=4cad2379-f22f-4bf0-a45e-a36b3b61dd30"},"vehicle_type_id":"4","last_reported":1726251110,"current_range_meters":38800,"station_id":"ce4bhih2rcd13ifvqfs0","pricing_plan_id":"cebpf4jnsgd1na2vs0mg"},{"bike_id":"10bd8d29-eae5-4783-a0ff-cd095049b41d","system_id":"levelo_inurba_marseille","lat":43.28272,"lon":5.35077,"is_reserved":false,"is_disabled":false,"rental_uris":{"android":"levelo://app?vid=10bd8d29-eae5-4783-a0ff-cd095049b41d","ios":"levelo://app?vid=10bd8d29-eae5-4783-a0ff-cd095049b41d"},"vehicle_type_id":"4","last_reported":1726251110,"current_range_meters":28800,"station_id":"ce4bhbp2rcd13ifvqerg","pricing_plan_id":"cebpf4jnsgd1na2vs0mg"},{"bike_id":"acb4473c-f793-440a-9c76-0eca7b03c7c3","system_id":"levelo_inurba_marseille","lat":43.27659,"lon":5.38137,"is_reserved":false,"is_disabled":false,"rental_uris":{"android":"levelo://app?vid=acb4473c-f793-440a-9c76-0eca7b03c7c3","ios":"levelo://app?vid=acb4473c-f793-440a-9c76-0eca7b03c7c3"},"vehicle_type_id":"4","last_reported":1726251110,"current_range_meters":5600,"station_id":"","pricing_plan_id":"cebpf4jnsgd1na2vs0mg"},{"bike_id":"067b9eee-20d5-42e8-81f8-0e0a79f5a06b","system_id":"levelo_inurba_marseille","lat":43.28005,"lon":5.40009,"is_reserved":false,"is_disabled":false,"rental_uris":{"android":"levelo://app?vid=067b9eee-20d5-42e8-81f8-0e0a79f5a06b","ios":"levelo://app?vid=067b9eee-20d5-42e8-81f8-0e0a79f5a06b"},"vehicle_type_id":"4","last_reported":1726251110,"current_range_meters":11600,"station_id":"ce4bho92rcd13ifvqh4g","pricing_plan_id":"cebpf4jnsgd1na2vs0mg"},{"bike_id":"e6c9a1d3-3ef0-440b-a649-557dc05e1ae2","system_id":"levelo_inurba_marseille","lat":43.26194,"lon":5.3745,"is_reserved":false,"is_disabled":false,"rental_uris":{"android":"levelo://app?vid=e6c9a1d3-3ef0-440b-a649-557dc05e1ae2","ios":"levelo://app?vid=e6c9a1d3-3ef0-440b-a649-557dc05e1ae2"},"vehicle_type_id":"4","last_reported":1726251110,"current_range_meters":4000,"station_id":"ce4bhgp2rcd13ifvqfc0","pricing_plan_id":"cebpf4jnsgd1na2vs0mg"},{"bike_id":"2599aa4a-256f-42cc-a153-354014413cfd","system_id":"levelo_inurba_marseille","lat":43.2885,"lon":5.35851,"is_reserved":false,"is_disabled":false,"rental_uris":{"android":"levelo://app?vid=2599aa4a-256f-42cc-a153-354014413cfd","ios":"levelo://app?vid=2599aa4a-256f-42cc-a153-354014413cfd"},"vehicle_type_id":"4","last_reported":1726251110,"current_range_meters":24400,"station_id":"ce4bhb12rcd13ifvqem0","pricing_plan_id":"cebpf4jnsgd1na2vs0mg"},{"bike_id":"b4f01525-8f47-4aed-8c91-da688cc1debf","system_id":"levelo_inurba_marseille","lat":43.31167,"lon":5.38714,"is_reserved":false,"is_disabled":false,"rental_uris":{"android":"levelo://app?vid=b4f01525-8f47-4aed-8c91-da688cc1debf","ios":"levelo://app?vid=b4f01525-8f47-4aed-8c91-da688cc1debf"},"vehicle_type_id":"4","last_reported":1726251110,"current_range_meters":28400,"station_id":"ce4bgv12rcd13ifvqcp0","pricing_plan_id":"cebpf4jnsgd1na2vs0mg"},{"bike_id":"f8777a22-68f4-4119-8382-61cf74935595","system_id":"levelo_inurba_marseille","lat":43.29296,"lon":5.37466,"is_reserved":false,"is_disabled":false,"rental_uris":{"android":"levelo://app?vid=f8777a22-68f4-4119-8382-61cf74935595","ios":"levelo://app?vid=f8777a22-68f4-4119-8382-61cf74935595"},"vehicle_type_id":"4","last_reported":1726251110,"current_range_meters":38000,"station_id":"ce4bgi12rcd13ifvqb70","pricing_plan_id":"cebpf4jnsgd1na2vs0mg"},{"bike_id":"5b739ee2-236a-4d43-bfb4-0c8f65a1c9d2","system_id":"levelo_inurba_marseille","lat":43.25832,"lon":5.3944,"is_reserved":false,"is_disabled":false,"rental_uris":{"android":"levelo://app?vid=5b739ee2-236a-4d43-bfb4-0c8f65a1c9d2","ios":"levelo://app?vid=5b739ee2-236a-4d43-bfb4-0c8f65a1c9d2"},"vehicle_type_id":"4","last_reported":1726251110,"current_range_meters":24000,"station_id":"ce4bhip2rcd13ifvqft0","pricing_plan_id":"cebpf4jnsgd1na2vs0mg"},{"bike_id":"16015b88-d7e7-4d26-8fae-947eb8ed0741","system_id":"levelo_inurba_marseille","lat":43.26953,"lon":5.38635,"is_reserved":false,"is_disabled":false,"rental_uris":{"android":"levelo://app?vid=16015b88-d7e7-4d26-8fae-947eb8ed0741","ios":"levelo://app?vid=16015b88-d7e7-4d26-8fae-947eb8ed0741"},"vehicle_type_id":"4","last_reported":1726251110,"current_range_meters":38000,"station_id":"ce4bhh92rcd13ifvqfh0","pricing_plan_id":"cebpf4jnsgd1na2vs0mg"},{"bike_id":"eaf3218e-3b2a-4dde-9c15-99a6c4254e56","system_id":"levelo_inurba_marseille","lat":43.299,"lon":5.43657,"is_reserved":false,"is_disabled":false,"rental_uris":{"android":"levelo://app?vid=eaf3218e-3b2a-4dde-9c15-99a6c4254e56","ios":"levelo://app?vid=eaf3218e-3b2a-4dde-9c15-99a6c4254e56"},"vehicle_type_id":"4","last_reported":1726251110,"current_range_meters":38800,"station_id":"ce4bhpp2rcd13ifvqhfg","pricing_plan_id":"cebpf4jnsgd1na2vs0mg"},{"bike_id":"676c7699-a014-4fe7-ac52-a42350a8fe68","system_id":"levelo_inurba_marseille","lat":43.30585,"lon":5.39357,"is_reserved":false,"is_disabled":false,"rental_uris":{"android":"levelo://app?vid=676c7699-a014-4fe7-ac52-a42350a8fe68","ios":"levelo://app?vid=676c7699-a014-4fe7-ac52-a42350a8fe68"},"vehicle_type_id":"4","last_reported":1726251110,"current_range_meters":7200,"station_id":"ce4bh0p2rcd13ifvqd80","pricing_plan_id":"cebpf4jnsgd1na2vs0mg"},{"bike_id":"578fe535-1ca5-46e4-9e6c-f0e8aa8560bc","system_id":"levelo_inurba_marseille","lat":43.32367,"lon":5.38885,"is_reserved":false,"is_disabled":false,"rental_uris":{"android":"levelo://app?vid=578fe535-1ca5-46e4-9e6c-f0e8aa8560bc","ios":"levelo://app?vid=578fe535-1ca5-46e4-9e6c-f0e8aa8560bc"},"vehicle_type_id":"4","last_reported":1726251110,"current_range_meters":16000,"station_id":"ce4bhqp2rcd13ifvqhog","pricing_plan_id":"cebpf4jnsgd1na2vs0mg"},{"bike_id":"6dfe49f4-83e2-40d0-8865-0920a4415a17","system_id":"levelo_inurba_marseille","lat":43.29693,"lon":5.37697,"is_reserved":false,"is_disabled":false,"rental_uris":{"android":"levelo://app?vid=6dfe49f4-83e2-40d0-8865-0920a4415a17","ios":"levelo://app?vid=6dfe49f4-83e2-40d0-8865-0920a4415a17"},"vehicle_type_id":"4","last_reported":1726251110,"current_range_meters":38400,"station_id":"ce4bgkh2rcd13ifvqbl0","pricing_plan_id":"cebpf4jnsgd1na2vs0mg"},{"bike_id":"16ca6d91-7513-415c-9a61-5d33eb8ad677","system_id":"levelo_inurba_marseille","lat":43.22935,"lon":5.35387,"is_reserved":false,"is_disabled":false,"rental_uris":{"android":"levelo://app?vid=16ca6d91-7513-415c-9a61-5d33eb8ad677","ios":"levelo://app?vid=16ca6d91-7513-415c-9a61-5d33eb8ad677"},"vehicle_type_id":"4","last_reported":1726251110,"current_range_meters":25600,"station_id":"cpo3532slgdg3j2ikp40","pricing_plan_id":"cebpf4jnsgd1na2vs0mg"},{"bike_id":"4b0ffb76-72ae-4f18-90a7-1873c3004871","system_id":"levelo_inurba_marseille","lat":43.3028,"lon":5.37693,"is_reserved":false,"is_disabled":false,"rental_uris":{"android":"levelo://app?vid=4b0ffb76-72ae-4f18-90a7-1873c3004871","ios":"levelo://app?vid=4b0ffb76-72ae-4f18-90a7-1873c3004871"},"vehicle_type_id":"4","last_reported":1726251110,"current_range_meters":38000,"station_id":"ce4bguh2rcd13ifvqcj0","pricing_plan_id":"cebpf4jnsgd1na2vs0mg"},{"bike_id":"ff95ec7b-00ba-4439-ae11-90a716bb7b31","system_id":"levelo_inurba_marseille","lat":43.28709,"lon":5.37932,"is_reserved":false,"is_disabled":false,"rental_uris":{"android":"levelo://app?vid=ff95ec7b-00ba-4439-ae11-90a716bb7b31","ios":"levelo://app?vid=ff95ec7b-00ba-4439-ae11-90a716bb7b31"},"vehicle_type_id":"4","last_reported":1726251110,"current_range_meters":18800,"station_id":"ce4bh9p2rcd13ifvqec0","pricing_plan_id":"cebpf4jnsgd1na2vs0mg"},{"bike_id":"92101611-57ac-40bd-81f9-9e6acd5327c3","system_id":"levelo_inurba_marseille","lat":43.24654,"lon":5.38894,"is_reserved":false,"is_disabled":false,"rental_uris":{"android":"levelo://app?vid=92101611-57ac-40bd-81f9-9e6acd5327c3","ios":"levelo://app?vid=92101611-57ac-40bd-81f9-9e6acd5327c3"},"vehicle_type_id":"4","last_reported":1726251110,"current_range_meters":38000,"station_id":"ce4bhg12rcd13ifvqf60","pricing_plan_id":"cebpf4jnsgd1na2vs0mg"},{"bike_id":"c5465ea1-4e69-4539-880b-a7ffba1e41db","system_id":"levelo_inurba_marseille","lat":43.25726,"lon":5.41111,"is_reserved":false,"is_disabled":false,"rental_uris":{"android":"levelo://app?vid=c5465ea1-4e69-4539-880b-a7ffba1e41db","ios":"levelo://app?vid=c5465ea1-4e69-4539-880b-a7ffba1e41db"},"vehicle_type_id":"4","last_reported":1726251110,"current_range_meters":38400,"station_id":"ce4bhkp2rcd13ifvqgd0","pricing_plan_id":"cebpf4jnsgd1na2vs0mg"},{"bike_id":"06e519a2-d5ed-4403-ba20-a99d83f12ab5","system_id":"levelo_inurba_marseille","lat":43.292472,"lon":5.384578,"is_reserved":false,"is_disabled":false,"rental_uris":{"android":"levelo://app?vid=06e519a2-d5ed-4403-ba20-a99d83f12ab5","ios":"levelo://app?vid=06e519a2-d5ed-4403-ba20-a99d83f12ab5"},"vehicle_type_id":"4","last_reported":1726251110,"current_range_meters":35200,"station_id":"ce4bgkh2rcd13ifvqbk0","pricing_plan_id":"cebpf4jnsgd1na2vs0mg"},{"bike_id":"142fa8a2-bd84-443b-9028-44d878cfab7c","system_id":"levelo_inurba_marseille","lat":43.29198,"lon":5.39332,"is_reserved":false,"is_disabled":false,"rental_uris":{"android":"levelo://app?vid=142fa8a2-bd84-443b-9028-44d878cfab7c","ios":"levelo://app?vid=142fa8a2-bd84-443b-9028-44d878cfab7c"},"vehicle_type_id":"4","last_reported":1726251110,"current_range_meters":38800,"station_id":"ce4bh192rcd13ifvqdd0","pricing_plan_id":"cebpf4jnsgd1na2vs0mg"},{"bike_id":"5073ac9d-6df3-45f0-9ba5-d1015aede9a9","system_id":"levelo_inurba_marseille","lat":43.31682,"lon":5.40473,"is_reserved":false,"is_disabled":false,"rental_uris":{"android":"levelo://app?vid=5073ac9d-6df3-45f0-9ba5-d1015aede9a9","ios":"levelo://app?vid=5073ac9d-6df3-45f0-9ba5-d1015aede9a9"},"vehicle_type_id":"4","last_reported":1726251110,"current_range_meters":38400,"station_id":"ce4bh012rcd13ifvqd00","pricing_plan_id":"cebpf4jnsgd1na2vs0mg"},{"bike_id":"4d04e6d2-3943-42a0-8945-c4b04539c7fc","system_id":"levelo_inurba_marseille","lat":43.29528,"lon":5.37507,"is_reserved":false,"is_disabled":false,"rental_uris":{"android":"levelo://app?vid=4d04e6d2-3943-42a0-8945-c4b04539c7fc","ios":"levelo://app?vid=4d04e6d2-3943-42a0-8945-c4b04539c7fc"},"vehicle_type_id":"4","last_reported":1726251110,"current_range_meters":38000,"station_id":"ce4bgkp2rcd13ifvqbmg","pricing_plan_id":"cebpf4jnsgd1na2vs0mg"},{"bike_id":"98211fdd-55f8-4aac-8d0d-86f8807528b7","system_id":"levelo_inurba_marseille","lat":43.30325,"lon":5.40443,"is_reserved":false,"is_disabled":false,"rental_uris":{"android":"levelo://app?vid=98211fdd-55f8-4aac-8d0d-86f8807528b7","ios":"levelo://app?vid=98211fdd-55f8-4aac-8d0d-86f8807528b7"},"vehicle_type_id":"4","last_reported":1726251110,"current_range_meters":14800,"station_id":"ce4bh012rcd13ifvqd10","pricing_plan_id":"cebpf4jnsgd1na2vs0mg"},{"bike_id":"9b49fc06-69dc-4375-9bc8-2ab31283d424","system_id":"levelo_inurba_marseille","lat":43.29905,"lon":5.43668,"is_reserved":false,"is_disabled":false,"rental_uris":{"android":"levelo://app?vid=9b49fc06-69dc-4375-9bc8-2ab31283d424","ios":"levelo://app?vid=9b49fc06-69dc-4375-9bc8-2ab31283d424"},"vehicle_type_id":"4","last_reported":1726251110,"current_range_meters":36800,"station_id":"ce4bhpp2rcd13ifvqhfg","pricing_plan_id":"cebpf4jnsgd1na2vs0mg"},{"bike_id":"c6d56cc6-8f39-491f-9320-5e5bfa5fbbf4","system_id":"levelo_inurba_marseille","lat":43.27173,"lon":5.40988,"is_reserved":false,"is_disabled":false,"rental_uris":{"android":"levelo://app?vid=c6d56cc6-8f39-491f-9320-5e5bfa5fbbf4","ios":"levelo://app?vid=c6d56cc6-8f39-491f-9320-5e5bfa5fbbf4"},"vehicle_type_id":"4","last_reported":1726251110,"current_range_meters":3200,"station_id":"ce4bhl12rcd13ifvqgf0","pricing_plan_id":"cebpf4jnsgd1na2vs0mg"},{"bike_id":"d7fc3448-5a36-401d-95ad-38916b34237f","system_id":"levelo_inurba_marseille","lat":43.26805,"lon":5.40274,"is_reserved":false,"is_disabled":false,"rental_uris":{"android":"levelo://app?vid=d7fc3448-5a36-401d-95ad-38916b34237f","ios":"levelo://app?vid=d7fc3448-5a36-401d-95ad-38916b34237f"},"vehicle_type_id":"4","last_reported":1726251110,"current_range_meters":1600,"station_id":"ce501612rcd8frsf0b60","pricing_plan_id":"cebpf4jnsgd1na2vs0mg"},{"bike_id":"29837eeb-b7c7-4529-a27b-ae67c40a21e3","system_id":"levelo_inurba_marseille","lat":43.30896,"lon":5.36858,"is_reserved":false,"is_disabled":false,"rental_uris":{"android":"levelo://app?vid=29837eeb-b7c7-4529-a27b-ae67c40a21e3","ios":"levelo://app?vid=29837eeb-b7c7-4529-a27b-ae67c40a21e3"},"vehicle_type_id":"4","last_reported":1726251110,"current_range_meters":39200,"station_id":"ce4bgn92rcd13ifvqbvg","pricing_plan_id":"cebpf4jnsgd1na2vs0mg"},{"bike_id":"79b7950d-90c8-4e3c-a243-1a31b18cd68e","system_id":"levelo_inurba_marseille","lat":43.23969,"lon":5.36643,"is_reserved":false,"is_disabled":false,"rental_uris":{"android":"levelo://app?vid=79b7950d-90c8-4e3c-a243-1a31b18cd68e","ios":"levelo://app?vid=79b7950d-90c8-4e3c-a243-1a31b18cd68e"},"vehicle_type_id":"4","last_reported":1726251110,"current_range_meters":9600,"station_id":"ce4bhi12rcd13ifvqfp0","pricing_plan_id":"cebpf4jnsgd1na2vs0mg"},{"bike_id":"4d0f967e-c81f-46ed-91db-75a0d012fc0f","system_id":"levelo_inurba_marseille","lat":43.2558,"lon":5.38242,"is_reserved":false,"is_disabled":false,"rental_uris":{"android":"levelo://app?vid=4d0f967e-c81f-46ed-91db-75a0d012fc0f","ios":"levelo://app?vid=4d0f967e-c81f-46ed-91db-75a0d012fc0f"},"vehicle_type_id":"4","last_reported":1726251110,"current_range_meters":19600,"station_id":"ce4bhih2rcd13ifvqfs0","pricing_plan_id":"cebpf4jnsgd1na2vs0mg"},{"bike_id":"e8587eeb-faf5-4068-be69-4cccad3b2f57","system_id":"levelo_inurba_marseille","lat":43.292777,"lon":5.373193,"is_reserved":false,"is_disabled":false,"rental_uris":{"android":"levelo://app?vid=e8587eeb-faf5-4068-be69-4cccad3b2f57","ios":"levelo://app?vid=e8587eeb-faf5-4068-be69-4cccad3b2f57"},"vehicle_type_id":"4","last_reported":1726251110,"current_range_meters":9200,"station_id":"ce4bh492rcd13ifvqdug","pricing_plan_id":"cebpf4jnsgd1na2vs0mg"},{"bike_id":"9e6b05d9-5b9e-4e8c-a7ed-a6aa23fe9a42","system_id":"levelo_inurba_marseille","lat":43.28617,"lon":5.35098,"is_reserved":false,"is_disabled":false,"rental_uris":{"android":"levelo://app?vid=9e6b05d9-5b9e-4e8c-a7ed-a6aa23fe9a42","ios":"levelo://app?vid=9e6b05d9-5b9e-4e8c-a7ed-a6aa23fe9a42"},"vehicle_type_id":"4","last_reported":1726251110,"current_range_meters":32400,"station_id":"ce4bhch2rcd13ifvqeug","pricing_plan_id":"cebpf4jnsgd1na2vs0mg"},{"bike_id":"1e6b833d-2708-4bb5-b4a2-5a395b77411d","system_id":"levelo_inurba_marseille","lat":43.24656,"lon":5.38896,"is_reserved":false,"is_disabled":false,"rental_uris":{"android":"levelo://app?vid=1e6b833d-2708-4bb5-b4a2-5a395b77411d","ios":"levelo://app?vid=1e6b833d-2708-4bb5-b4a2-5a395b77411d"},"vehicle_type_id":"4","last_reported":1726251110,"current_range_meters":12400,"station_id":"ce4bhg12rcd13ifvqf60","pricing_plan_id":"cebpf4jnsgd1na2vs0mg"},{"bike_id":"d237cecd-8ee6-4a24-ad40-e388fc0e0e15","system_id":"levelo_inurba_marseille","lat":43.27196,"lon":5.40992,"is_reserved":false,"is_disabled":false,"rental_uris":{"android":"levelo://app?vid=d237cecd-8ee6-4a24-ad40-e388fc0e0e15","ios":"levelo://app?vid=d237cecd-8ee6-4a24-ad40-e388fc0e0e15"},"vehicle_type_id":"4","last_reported":1726251110,"current_range_meters":30000,"station_id":"ce4bhl12rcd13ifvqgf0","pricing_plan_id":"cebpf4jnsgd1na2vs0mg"},{"bike_id":"c2f97207-3c28-4fdc-982d-e06641e3926c","system_id":"levelo_inurba_marseille","lat":43.29271,"lon":5.38455,"is_reserved":false,"is_disabled":false,"rental_uris":{"android":"levelo://app?vid=c2f97207-3c28-4fdc-982d-e06641e3926c","ios":"levelo://app?vid=c2f97207-3c28-4fdc-982d-e06641e3926c"},"vehicle_type_id":"4","last_reported":1726251110,"current_range_meters":30400,"station_id":"ce4bh692rcd13ifvqea0","pricing_plan_id":"cebpf4jnsgd1na2vs0mg"},{"bike_id":"60d5bda9-f640-405a-935d-62d1314e50fa","system_id":"levelo_inurba_marseille","lat":43.23968,"lon":5.36637,"is_reserved":false,"is_disabled":false,"rental_uris":{"android":"levelo://app?vid=60d5bda9-f640-405a-935d-62d1314e50fa","ios":"levelo://app?vid=60d5bda9-f640-405a-935d-62d1314e50fa"},"vehicle_type_id":"4","last_reported":1726251110,"current_range_meters":26800,"station_id":"ce4bhi12rcd13ifvqfp0","pricing_plan_id":"cebpf4jnsgd1na2vs0mg"},{"bike_id":"8d569a04-84e8-4c81-b2ee-40bf9568ebcd","system_id":"levelo_inurba_marseille","lat":43.27992,"lon":5.40005,"is_reserved":false,"is_disabled":false,"rental_uris":{"android":"levelo://app?vid=8d569a04-84e8-4c81-b2ee-40bf9568ebcd","ios":"levelo://app?vid=8d569a04-84e8-4c81-b2ee-40bf9568ebcd"},"vehicle_type_id":"4","last_reported":1726251110,"current_range_meters":17600,"station_id":"ce4bho92rcd13ifvqh4g","pricing_plan_id":"cebpf4jnsgd1na2vs0mg"},{"bike_id":"51efaa28-be78-438d-9593-a5c65646c0fd","system_id":"levelo_inurba_marseille","lat":43.25933,"lon":5.4091,"is_reserved":false,"is_disabled":false,"rental_uris":{"android":"levelo://app?vid=51efaa28-be78-438d-9593-a5c65646c0fd","ios":"levelo://app?vid=51efaa28-be78-438d-9593-a5c65646c0fd"},"vehicle_type_id":"4","last_reported":1726251110,"current_range_meters":38000,"station_id":"ce4bhm92rcd13ifvqglg","pricing_plan_id":"cebpf4jnsgd1na2vs0mg"},{"bike_id":"3a40eab9-fee4-4d5c-970b-39d096697f95","system_id":"levelo_inurba_marseille","lat":43.23964,"lon":5.36632,"is_reserved":false,"is_disabled":false,"rental_uris":{"android":"levelo://app?vid=3a40eab9-fee4-4d5c-970b-39d096697f95","ios":"levelo://app?vid=3a40eab9-fee4-4d5c-970b-39d096697f95"},"vehicle_type_id":"4","last_reported":1726251110,"current_range_meters":2000,"station_id":"ce4bhi12rcd13ifvqfp0","pricing_plan_id":"cebpf4jnsgd1na2vs0mg"},{"bike_id":"1238613a-5efd-4b1b-b7cc-529d0a2a4cc8","system_id":"levelo_inurba_marseille","lat":43.28364,"lon":5.38635,"is_reserved":false,"is_disabled":false,"rental_uris":{"android":"levelo://app?vid=1238613a-5efd-4b1b-b7cc-529d0a2a4cc8","ios":"levelo://app?vid=1238613a-5efd-4b1b-b7cc-529d0a2a4cc8"},"vehicle_type_id":"4","last_reported":1726251110,"current_range_meters":27200,"station_id":"ce4bh492rcd13ifvqdvg","pricing_plan_id":"cebpf4jnsgd1na2vs0mg"},{"bike_id":"37eddef0-a362-449d-9103-016296f1ceff","system_id":"levelo_inurba_marseille","lat":43.31721,"lon":5.42409,"is_reserved":false,"is_disabled":false,"rental_uris":{"android":"levelo://app?vid=37eddef0-a362-449d-9103-016296f1ceff","ios":"levelo://app?vid=37eddef0-a362-449d-9103-016296f1ceff"},"vehicle_type_id":"4","last_reported":1726251110,"current_range_meters":12800,"station_id":"ce4bhp92rcd13ifvqhbg","pricing_plan_id":"cebpf4jnsgd1na2vs0mg"},{"bike_id":"01397819-866a-466e-b7a8-fb1eaee03617","system_id":"levelo_inurba_marseille","lat":43.26948,"lon":5.40249,"is_reserved":false,"is_disabled":false,"rental_uris":{"android":"levelo://app?vid=01397819-866a-466e-b7a8-fb1eaee03617","ios":"levelo://app?vid=01397819-866a-466e-b7a8-fb1eaee03617"},"vehicle_type_id":"4","last_reported":1726251110,"current_range_meters":37600,"station_id":"cjm6bp8fraef2m0cb0m0","pricing_plan_id":"cebpf4jnsgd1na2vs0mg"},{"bike_id":"4c1757ff-943d-4b2d-b015-db17bec9b9b4","system_id":"levelo_inurba_marseille","lat":43.278152,"lon":5.407089,"is_reserved":false,"is_disabled":false,"rental_uris":{"android":"levelo://app?vid=4c1757ff-943d-4b2d-b015-db17bec9b9b4","ios":"levelo://app?vid=4c1757ff-943d-4b2d-b015-db17bec9b9b4"},"vehicle_type_id":"4","last_reported":1726251110,"current_range_meters":35600,"station_id":"ce4bhnh2rcd13ifvqgtg","pricing_plan_id":"cebpf4jnsgd1na2vs0mg"},{"bike_id":"8a15822d-8433-4637-9f8f-45829767d964","system_id":"levelo_inurba_marseille","lat":43.309532,"lon":5.390273,"is_reserved":false,"is_disabled":false,"rental_uris":{"android":"levelo://app?vid=8a15822d-8433-4637-9f8f-45829767d964","ios":"levelo://app?vid=8a15822d-8433-4637-9f8f-45829767d964"},"vehicle_type_id":"4","last_reported":1726251110,"current_range_meters":16400,"station_id":"ce4bgup2rcd13ifvqco0","pricing_plan_id":"cebpf4jnsgd1na2vs0mg"},{"bike_id":"2d9f6a36-1e8d-46ce-8819-b2bb04006d43","system_id":"levelo_inurba_marseille","lat":43.25584,"lon":5.38223,"is_reserved":false,"is_disabled":false,"rental_uris":{"android":"levelo://app?vid=2d9f6a36-1e8d-46ce-8819-b2bb04006d43","ios":"levelo://app?vid=2d9f6a36-1e8d-46ce-8819-b2bb04006d43"},"vehicle_type_id":"4","last_reported":1726251110,"current_range_meters":28400,"station_id":"ce4bhih2rcd13ifvqfs0","pricing_plan_id":"cebpf4jnsgd1na2vs0mg"},{"bike_id":"75c35499-0de6-41a0-acf5-7c9b58381038","system_id":"levelo_inurba_marseille","lat":43.23191,"lon":5.39986,"is_reserved":false,"is_disabled":false,"rental_uris":{"android":"levelo://app?vid=75c35499-0de6-41a0-acf5-7c9b58381038","ios":"levelo://app?vid=75c35499-0de6-41a0-acf5-7c9b58381038"},"vehicle_type_id":"4","last_reported":1726251110,"current_range_meters":24800,"station_id":"ce4bhn12rcd13ifvqgqg","pricing_plan_id":"cebpf4jnsgd1na2vs0mg"},{"bike_id":"e62c8c71-b14f-4c94-8aa4-e0afcaaf93b6","system_id":"levelo_inurba_marseille","lat":43.24816,"lon":5.37461,"is_reserved":false,"is_disabled":false,"rental_uris":{"android":"levelo://app?vid=e62c8c71-b14f-4c94-8aa4-e0afcaaf93b6","ios":"levelo://app?vid=e62c8c71-b14f-4c94-8aa4-e0afcaaf93b6"},"vehicle_type_id":"4","last_reported":1726251110,"current_range_meters":30800,"station_id":"ce4bhgh2rcd13ifvqfb0","pricing_plan_id":"cebpf4jnsgd1na2vs0mg"},{"bike_id":"ad231067-759c-4221-b094-424ec91ca926","system_id":"levelo_inurba_marseille","lat":43.3064,"lon":5.40099,"is_reserved":false,"is_disabled":false,"rental_uris":{"android":"levelo://app?vid=ad231067-759c-4221-b094-424ec91ca926","ios":"levelo://app?vid=ad231067-759c-4221-b094-424ec91ca926"},"vehicle_type_id":"4","last_reported":1726251110,"current_range_meters":11600,"station_id":"ce4bh112rcd13ifvqda0","pricing_plan_id":"cebpf4jnsgd1na2vs0mg"},{"bike_id":"748308dc-6a7b-4f93-815f-cbef956a054d","system_id":"levelo_inurba_marseille","lat":43.29568,"lon":5.3998,"is_reserved":false,"is_disabled":false,"rental_uris":{"android":"levelo://app?vid=748308dc-6a7b-4f93-815f-cbef956a054d","ios":"levelo://app?vid=748308dc-6a7b-4f93-815f-cbef956a054d"},"vehicle_type_id":"4","last_reported":1726251110,"current_range_meters":30800,"station_id":"ce4bh312rcd13ifvqdj0","pricing_plan_id":"cebpf4jnsgd1na2vs0mg"},{"bike_id":"2cba75f9-b67b-42a9-8f4a-b24c5ff2b32f","system_id":"levelo_inurba_marseille","lat":43.23157,"lon":5.43717,"is_reserved":false,"is_disabled":false,"rental_uris":{"android":"levelo://app?vid=2cba75f9-b67b-42a9-8f4a-b24c5ff2b32f","ios":"levelo://app?vid=2cba75f9-b67b-42a9-8f4a-b24c5ff2b32f"},"vehicle_type_id":"4","last_reported":1726251110,"current_range_meters":38000,"station_id":"ce4bhmp2rcd13ifvqgog","pricing_plan_id":"cebpf4jnsgd1na2vs0mg"},{"bike_id":"b506159f-a775-4733-b310-23093ca74a69","system_id":"levelo_inurba_marseille","lat":43.33021,"lon":5.39049,"is_reserved":false,"is_disabled":false,"rental_uris":{"android":"levelo://app?vid=b506159f-a775-4733-b310-23093ca74a69","ios":"levelo://app?vid=b506159f-a775-4733-b310-23093ca74a69"},"vehicle_type_id":"4","last_reported":1726251110,"current_range_meters":17200,"station_id":"ce4bhr92rcd13ifvqhrg","pricing_plan_id":"cebpf4jnsgd1na2vs0mg"},{"bike_id":"bfecbd15-2d19-4641-9233-f24f0817f561","system_id":"levelo_inurba_marseille","lat":43.29007,"lon":5.35622,"is_reserved":false,"is_disabled":false,"rental_uris":{"android":"levelo://app?vid=bfecbd15-2d19-4641-9233-f24f0817f561","ios":"levelo://app?vid=bfecbd15-2d19-4641-9233-f24f0817f561"},"vehicle_type_id":"4","last_reported":1726251110,"current_range_meters":16400,"station_id":"ce4bhb92rcd13ifvqen0","pricing_plan_id":"cebpf4jnsgd1na2vs0mg"},{"bike_id":"4593efc2-84bd-44ed-9d11-4e2acecb1107","system_id":"levelo_inurba_marseille","lat":43.29521,"lon":5.39032,"is_reserved":false,"is_disabled":false,"rental_uris":{"android":"levelo://app?vid=4593efc2-84bd-44ed-9d11-4e2acecb1107","ios":"levelo://app?vid=4593efc2-84bd-44ed-9d11-4e2acecb1107"},"vehicle_type_id":"4","last_reported":1726251110,"current_range_meters":4400,"station_id":"ce4bh3p2rcd13ifvqdp0","pricing_plan_id":"cebpf4jnsgd1na2vs0mg"},{"bike_id":"91d155a1-0e95-42f4-9cf2-24e586735a13","system_id":"levelo_inurba_marseille","lat":43.33718,"lon":5.39184,"is_reserved":false,"is_disabled":false,"rental_uris":{"android":"levelo://app?vid=91d155a1-0e95-42f4-9cf2-24e586735a13","ios":"levelo://app?vid=91d155a1-0e95-42f4-9cf2-24e586735a13"},"vehicle_type_id":"4","last_reported":1726251110,"current_range_meters":28000,"station_id":"ce4bhr92rcd13ifvqhsg","pricing_plan_id":"cebpf4jnsgd1na2vs0mg"},{"bike_id":"93fc536b-8b6f-4c19-bc9e-911325e13bc5","system_id":"levelo_inurba_marseille","lat":43.31767,"lon":5.4057,"is_reserved":false,"is_disabled":false,"rental_uris":{"android":"levelo://app?vid=93fc536b-8b6f-4c19-bc9e-911325e13bc5","ios":"levelo://app?vid=93fc536b-8b6f-4c19-bc9e-911325e13bc5"},"vehicle_type_id":"4","last_reported":1726251110,"current_range_meters":14400,"station_id":"ce4bh012rcd13ifvqd00","pricing_plan_id":"cebpf4jnsgd1na2vs0mg"},{"bike_id":"049e2fd0-c644-4d6d-89a0-de0771076600","system_id":"levelo_inurba_marseille","lat":43.29525,"lon":5.3854,"is_reserved":false,"is_disabled":false,"rental_uris":{"android":"levelo://app?vid=049e2fd0-c644-4d6d-89a0-de0771076600","ios":"levelo://app?vid=049e2fd0-c644-4d6d-89a0-de0771076600"},"vehicle_type_id":"4","last_reported":1726251110,"current_range_meters":2800,"station_id":"ce4bgih2rcd13ifvqba0","pricing_plan_id":"cebpf4jnsgd1na2vs0mg"},{"bike_id":"9368e81d-9d41-40d8-9614-e043ff6b63f3","system_id":"levelo_inurba_marseille","lat":43.31349,"lon":5.38493,"is_reserved":false,"is_disabled":false,"rental_uris":{"android":"levelo://app?vid=9368e81d-9d41-40d8-9614-e043ff6b63f3","ios":"levelo://app?vid=9368e81d-9d41-40d8-9614-e043ff6b63f3"},"vehicle_type_id":"4","last_reported":1726251110,"current_range_meters":23200,"station_id":"ce4bgt92rcd13ifvqcf0","pricing_plan_id":"cebpf4jnsgd1na2vs0mg"},{"bike_id":"907b695e-94dd-463e-aa15-f64dc51ac1b3","system_id":"levelo_inurba_marseille","lat":43.28937,"lon":5.36395,"is_reserved":false,"is_disabled":false,"rental_uris":{"android":"levelo://app?vid=907b695e-94dd-463e-aa15-f64dc51ac1b3","ios":"levelo://app?vid=907b695e-94dd-463e-aa15-f64dc51ac1b3"},"vehicle_type_id":"4","last_reported":1726251110,"current_range_meters":31200,"station_id":"ce4bhc92rcd13ifvqetg","pricing_plan_id":"cebpf4jnsgd1na2vs0mg"},{"bike_id":"a8408bc0-1ad0-4261-92e7-4324637d7c82","system_id":"levelo_inurba_marseille","lat":43.28999,"lon":5.35618,"is_reserved":false,"is_disabled":false,"rental_uris":{"android":"levelo://app?vid=a8408bc0-1ad0-4261-92e7-4324637d7c82","ios":"levelo://app?vid=a8408bc0-1ad0-4261-92e7-4324637d7c82"},"vehicle_type_id":"4","last_reported":1726251110,"current_range_meters":38800,"station_id":"ce4bhb92rcd13ifvqen0","pricing_plan_id":"cebpf4jnsgd1na2vs0mg"},{"bike_id":"0d9f035c-8e47-426d-8593-e2bc7f05f235","system_id":"levelo_inurba_marseille","lat":43.30438,"lon":5.36522,"is_reserved":false,"is_disabled":false,"rental_uris":{"android":"levelo://app?vid=0d9f035c-8e47-426d-8593-e2bc7f05f235","ios":"levelo://app?vid=0d9f035c-8e47-426d-8593-e2bc7f05f235"},"vehicle_type_id":"4","last_reported":1726251110,"current_range_meters":12000,"station_id":"","pricing_plan_id":"cebpf4jnsgd1na2vs0mg"},{"bike_id":"8c62f686-14cb-40aa-b8fc-08528235ab4f","system_id":"levelo_inurba_marseille","lat":43.33029,"lon":5.39045,"is_reserved":false,"is_disabled":false,"rental_uris":{"android":"levelo://app?vid=8c62f686-14cb-40aa-b8fc-08528235ab4f","ios":"levelo://app?vid=8c62f686-14cb-40aa-b8fc-08528235ab4f"},"vehicle_type_id":"4","last_reported":1726251110,"current_range_meters":2000,"station_id":"ce4bhr92rcd13ifvqhrg","pricing_plan_id":"cebpf4jnsgd1na2vs0mg"},{"bike_id":"b18a5ee9-e9a5-431a-b0be-05e68682ee4b","system_id":"levelo_inurba_marseille","lat":43.30146,"lon":5.3805,"is_reserved":false,"is_disabled":false,"rental_uris":{"android":"levelo://app?vid=b18a5ee9-e9a5-431a-b0be-05e68682ee4b","ios":"levelo://app?vid=b18a5ee9-e9a5-431a-b0be-05e68682ee4b"},"vehicle_type_id":"4","last_reported":1726251110,"current_range_meters":30000,"station_id":"ce4bgjp2rcd13ifvqbh0","pricing_plan_id":"cebpf4jnsgd1na2vs0mg"},{"bike_id":"30511c47-6578-4b76-8334-c4e95f74a947","system_id":"levelo_inurba_marseille","lat":43.268,"lon":5.392439,"is_reserved":false,"is_disabled":false,"rental_uris":{"android":"levelo://app?vid=30511c47-6578-4b76-8334-c4e95f74a947","ios":"levelo://app?vid=30511c47-6578-4b76-8334-c4e95f74a947"},"vehicle_type_id":"4","last_reported":1726251110,"current_range_meters":30400,"station_id":"ce4bhh12rcd13ifvqfg0","pricing_plan_id":"cebpf4jnsgd1na2vs0mg"},{"bike_id":"37184572-3177-49c4-9ea8-254d038e54c7","system_id":"levelo_inurba_marseille","lat":43.28338,"lon":5.43355,"is_reserved":false,"is_disabled":false,"rental_uris":{"android":"levelo://app?vid=37184572-3177-49c4-9ea8-254d038e54c7","ios":"levelo://app?vid=37184572-3177-49c4-9ea8-254d038e54c7"},"vehicle_type_id":"4","last_reported":1726251110,"current_range_meters":20800,"station_id":"ce4bhnh2rcd13ifvqgtg","pricing_plan_id":"cebpf4jnsgd1na2vs0mg"},{"bike_id":"c9f2a0a5-6a04-4a31-9199-b618be6e6ac7","system_id":"levelo_inurba_marseille","lat":43.29797,"lon":5.40399,"is_reserved":false,"is_disabled":false,"rental_uris":{"android":"levelo://app?vid=c9f2a0a5-6a04-4a31-9199-b618be6e6ac7","ios":"levelo://app?vid=c9f2a0a5-6a04-4a31-9199-b618be6e6ac7"},"vehicle_type_id":"4","last_reported":1726251110,"current_range_meters":8800,"station_id":"ce4bh112rcd13ifvqd90","pricing_plan_id":"cebpf4jnsgd1na2vs0mg"},{"bike_id":"4df0ff5d-8ffb-4c3b-9370-fe7629454674","system_id":"levelo_inurba_marseille","lat":43.304108,"lon":5.365215,"is_reserved":false,"is_disabled":false,"rental_uris":{"android":"levelo://app?vid=4df0ff5d-8ffb-4c3b-9370-fe7629454674","ios":"levelo://app?vid=4df0ff5d-8ffb-4c3b-9370-fe7629454674"},"vehicle_type_id":"4","last_reported":1726251110,"current_range_meters":3600,"station_id":"ce4bgpp2rcd13ifvqc3g","pricing_plan_id":"cebpf4jnsgd1na2vs0mg"},{"bike_id":"d57407f8-bf56-4fd3-a5c0-9daedd1527be","system_id":"levelo_inurba_marseille","lat":43.31274,"lon":5.40168,"is_reserved":false,"is_disabled":false,"rental_uris":{"android":"levelo://app?vid=d57407f8-bf56-4fd3-a5c0-9daedd1527be","ios":"levelo://app?vid=d57407f8-bf56-4fd3-a5c0-9daedd1527be"},"vehicle_type_id":"4","last_reported":1726251110,"current_range_meters":10000,"station_id":"ce4bh092rcd13ifvqd30","pricing_plan_id":"cebpf4jnsgd1na2vs0mg"},{"bike_id":"552ccea4-a0ab-4fa2-9015-1ea8da64cd61","system_id":"levelo_inurba_marseille","lat":43.25583,"lon":5.3824,"is_reserved":false,"is_disabled":false,"rental_uris":{"android":"levelo://app?vid=552ccea4-a0ab-4fa2-9015-1ea8da64cd61","ios":"levelo://app?vid=552ccea4-a0ab-4fa2-9015-1ea8da64cd61"},"vehicle_type_id":"4","last_reported":1726251110,"current_range_meters":8800,"station_id":"ce4bhih2rcd13ifvqfs0","pricing_plan_id":"cebpf4jnsgd1na2vs0mg"},{"bike_id":"7c0ae92f-06d0-4ab8-bbd8-831a5ec57f08","system_id":"levelo_inurba_marseille","lat":43.24669,"lon":5.38598,"is_reserved":false,"is_disabled":false,"rental_uris":{"android":"levelo://app?vid=7c0ae92f-06d0-4ab8-bbd8-831a5ec57f08","ios":"levelo://app?vid=7c0ae92f-06d0-4ab8-bbd8-831a5ec57f08"},"vehicle_type_id":"4","last_reported":1726251110,"current_range_meters":3200,"station_id":"","pricing_plan_id":"cebpf4jnsgd1na2vs0mg"},{"bike_id":"da90b804-a184-422c-8a15-8360d365fa57","system_id":"levelo_inurba_marseille","lat":43.25496,"lon":5.37648,"is_reserved":false,"is_disabled":false,"rental_uris":{"android":"levelo://app?vid=da90b804-a184-422c-8a15-8360d365fa57","ios":"levelo://app?vid=da90b804-a184-422c-8a15-8360d365fa57"},"vehicle_type_id":"4","last_reported":1726251110,"current_range_meters":10000,"station_id":"ce4bhh12rcd13ifvqff0","pricing_plan_id":"cebpf4jnsgd1na2vs0mg"},{"bike_id":"a58bec3a-2a9b-4b38-ba25-908ec2e5b167","system_id":"levelo_inurba_marseille","lat":43.31726,"lon":5.42401,"is_reserved":false,"is_disabled":false,"rental_uris":{"android":"levelo://app?vid=a58bec3a-2a9b-4b38-ba25-908ec2e5b167","ios":"levelo://app?vid=a58bec3a-2a9b-4b38-ba25-908ec2e5b167"},"vehicle_type_id":"4","last_reported":1726251110,"current_range_meters":11200,"station_id":"ce4bhp92rcd13ifvqhbg","pricing_plan_id":"cebpf4jnsgd1na2vs0mg"},{"bike_id":"301e1dfe-4693-4459-870f-795354c0db39","system_id":"levelo_inurba_marseille","lat":43.29418,"lon":5.38628,"is_reserved":false,"is_disabled":false,"rental_uris":{"android":"levelo://app?vid=301e1dfe-4693-4459-870f-795354c0db39","ios":"levelo://app?vid=301e1dfe-4693-4459-870f-795354c0db39"},"vehicle_type_id":"4","last_reported":1726251110,"current_range_meters":32400,"station_id":"ce4bh2h2rcd13ifvqdh0","pricing_plan_id":"cebpf4jnsgd1na2vs0mg"},{"bike_id":"c2fffdea-fea6-4584-bd0b-df4cf5a5c761","system_id":"levelo_inurba_marseille","lat":43.24668,"lon":5.38171,"is_reserved":false,"is_disabled":false,"rental_uris":{"android":"levelo://app?vid=c2fffdea-fea6-4584-bd0b-df4cf5a5c761","ios":"levelo://app?vid=c2fffdea-fea6-4584-bd0b-df4cf5a5c761"},"vehicle_type_id":"4","last_reported":1726251110,"current_range_meters":9200,"station_id":"ce4bhih2rcd13ifvqfr0","pricing_plan_id":"cebpf4jnsgd1na2vs0mg"},{"bike_id":"82c0c6a5-b733-407b-8add-3604b3233b0c","system_id":"levelo_inurba_marseille","lat":43.30909,"lon":5.36847,"is_reserved":false,"is_disabled":false,"rental_uris":{"android":"levelo://app?vid=82c0c6a5-b733-407b-8add-3604b3233b0c","ios":"levelo://app?vid=82c0c6a5-b733-407b-8add-3604b3233b0c"},"vehicle_type_id":"4","last_reported":1726251110,"current_range_meters":16800,"station_id":"ce4bgn92rcd13ifvqbvg","pricing_plan_id":"cebpf4jnsgd1na2vs0mg"},{"bike_id":"8261ace5-2139-442c-b15a-c46a7ca49df2","system_id":"levelo_inurba_marseille","lat":43.299,"lon":5.43668,"is_reserved":false,"is_disabled":false,"rental_uris":{"android":"levelo://app?vid=8261ace5-2139-442c-b15a-c46a7ca49df2","ios":"levelo://app?vid=8261ace5-2139-442c-b15a-c46a7ca49df2"},"vehicle_type_id":"4","last_reported":1726251110,"current_range_meters":30000,"station_id":"ce4bhpp2rcd13ifvqhfg","pricing_plan_id":"cebpf4jnsgd1na2vs0mg"},{"bike_id":"4afb8b00-be3a-4d15-9b8b-47916e625762","system_id":"levelo_inurba_marseille","lat":43.28527,"lon":5.4424,"is_reserved":false,"is_disabled":false,"rental_uris":{"android":"levelo://app?vid=4afb8b00-be3a-4d15-9b8b-47916e625762","ios":"levelo://app?vid=4afb8b00-be3a-4d15-9b8b-47916e625762"},"vehicle_type_id":"4","last_reported":1726251110,"current_range_meters":26800,"station_id":"","pricing_plan_id":"cebpf4jnsgd1na2vs0mg"},{"bike_id":"bb7acf50-b6bc-4b2d-adf4-833abc23b24c","system_id":"levelo_inurba_marseille","lat":43.23196,"lon":5.35557,"is_reserved":false,"is_disabled":false,"rental_uris":{"android":"levelo://app?vid=bb7acf50-b6bc-4b2d-adf4-833abc23b24c","ios":"levelo://app?vid=bb7acf50-b6bc-4b2d-adf4-833abc23b24c"},"vehicle_type_id":"4","last_reported":1726251110,"current_range_meters":39200,"station_id":"ce4bhu92rcd13ifvqi70","pricing_plan_id":"cebpf4jnsgd1na2vs0mg"},{"bike_id":"7cc6d29d-c295-440b-b6f4-1d0bea195bc5","system_id":"levelo_inurba_marseille","lat":43.29529,"lon":5.39039,"is_reserved":false,"is_disabled":false,"rental_uris":{"android":"levelo://app?vid=7cc6d29d-c295-440b-b6f4-1d0bea195bc5","ios":"levelo://app?vid=7cc6d29d-c295-440b-b6f4-1d0bea195bc5"},"vehicle_type_id":"4","last_reported":1726251110,"current_range_meters":28800,"station_id":"ce4bh3p2rcd13ifvqdp0","pricing_plan_id":"cebpf4jnsgd1na2vs0mg"},{"bike_id":"bc8be1fd-7bee-49c5-817c-184bdd69b536","system_id":"levelo_inurba_marseille","lat":43.27374,"lon":5.41959,"is_reserved":false,"is_disabled":false,"rental_uris":{"android":"levelo://app?vid=bc8be1fd-7bee-49c5-817c-184bdd69b536","ios":"levelo://app?vid=bc8be1fd-7bee-49c5-817c-184bdd69b536"},"vehicle_type_id":"4","last_reported":1726251110,"current_range_meters":29600,"station_id":"","pricing_plan_id":"cebpf4jnsgd1na2vs0mg"},{"bike_id":"fc678a54-aaba-4dbd-ad03-803d9a1ab323","system_id":"levelo_inurba_marseille","lat":43.28936,"lon":5.36642,"is_reserved":false,"is_disabled":false,"rental_uris":{"android":"levelo://app?vid=fc678a54-aaba-4dbd-ad03-803d9a1ab323","ios":"levelo://app?vid=fc678a54-aaba-4dbd-ad03-803d9a1ab323"},"vehicle_type_id":"4","last_reported":1726251110,"current_range_meters":37600,"station_id":"ce4bhap2rcd13ifvqek0","pricing_plan_id":"cebpf4jnsgd1na2vs0mg"},{"bike_id":"bacbd85c-71dc-4ea1-8e8c-762e4476b5b0","system_id":"levelo_inurba_marseille","lat":43.32373,"lon":5.38893,"is_reserved":false,"is_disabled":false,"rental_uris":{"android":"levelo://app?vid=bacbd85c-71dc-4ea1-8e8c-762e4476b5b0","ios":"levelo://app?vid=bacbd85c-71dc-4ea1-8e8c-762e4476b5b0"},"vehicle_type_id":"4","last_reported":1726251110,"current_range_meters":33200,"station_id":"ce4bhqp2rcd13ifvqhog","pricing_plan_id":"cebpf4jnsgd1na2vs0mg"},{"bike_id":"5a75a31f-8e2e-4038-bc87-77f8ff9cf512","system_id":"levelo_inurba_marseille","lat":43.29031,"lon":5.38634,"is_reserved":false,"is_disabled":false,"rental_uris":{"android":"levelo://app?vid=5a75a31f-8e2e-4038-bc87-77f8ff9cf512","ios":"levelo://app?vid=5a75a31f-8e2e-4038-bc87-77f8ff9cf512"},"vehicle_type_id":"4","last_reported":1726251110,"current_range_meters":36000,"station_id":"ce4bh4p2rcd13ifvqe0g","pricing_plan_id":"cebpf4jnsgd1na2vs0mg"},{"bike_id":"ed98b8c2-35cf-41e3-a455-60bcc6aa97ea","system_id":"levelo_inurba_marseille","lat":43.302,"lon":5.36624,"is_reserved":false,"is_disabled":false,"rental_uris":{"android":"levelo://app?vid=ed98b8c2-35cf-41e3-a455-60bcc6aa97ea","ios":"levelo://app?vid=ed98b8c2-35cf-41e3-a455-60bcc6aa97ea"},"vehicle_type_id":"4","last_reported":1726251110,"current_range_meters":36400,"station_id":"ce4bgrh2rcd13ifvqc8g","pricing_plan_id":"cebpf4jnsgd1na2vs0mg"},{"bike_id":"a44de18e-f901-4f2d-a44a-183364b6e9d0","system_id":"levelo_inurba_marseille","lat":43.29975,"lon":5.38493,"is_reserved":false,"is_disabled":false,"rental_uris":{"android":"levelo://app?vid=a44de18e-f901-4f2d-a44a-183364b6e9d0","ios":"levelo://app?vid=a44de18e-f901-4f2d-a44a-183364b6e9d0"},"vehicle_type_id":"4","last_reported":1726251110,"current_range_meters":19200,"station_id":"ce4bgj92rcd13ifvqbd0","pricing_plan_id":"cebpf4jnsgd1na2vs0mg"},{"bike_id":"6da9e460-f0cd-43d6-9f6b-761aceccaf26","system_id":"levelo_inurba_marseille","lat":43.24648,"lon":5.38893,"is_reserved":false,"is_disabled":false,"rental_uris":{"android":"levelo://app?vid=6da9e460-f0cd-43d6-9f6b-761aceccaf26","ios":"levelo://app?vid=6da9e460-f0cd-43d6-9f6b-761aceccaf26"},"vehicle_type_id":"4","last_reported":1726251110,"current_range_meters":16400,"station_id":"ce4bhg12rcd13ifvqf60","pricing_plan_id":"cebpf4jnsgd1na2vs0mg"},{"bike_id":"e4debdcd-e5a0-41c3-8643-60f4e52276d3","system_id":"levelo_inurba_marseille","lat":43.3026,"lon":5.40079,"is_reserved":false,"is_disabled":false,"rental_uris":{"android":"levelo://app?vid=e4debdcd-e5a0-41c3-8643-60f4e52276d3","ios":"levelo://app?vid=e4debdcd-e5a0-41c3-8643-60f4e52276d3"},"vehicle_type_id":"4","last_reported":1726251110,"current_range_meters":12800,"station_id":"ce4bgvh2rcd13ifvqcs0","pricing_plan_id":"cebpf4jnsgd1na2vs0mg"},{"bike_id":"81f1a965-ff8b-4d74-9682-ff18567684f9","system_id":"levelo_inurba_marseille","lat":43.33023,"lon":5.39042,"is_reserved":false,"is_disabled":false,"rental_uris":{"android":"levelo://app?vid=81f1a965-ff8b-4d74-9682-ff18567684f9","ios":"levelo://app?vid=81f1a965-ff8b-4d74-9682-ff18567684f9"},"vehicle_type_id":"4","last_reported":1726251110,"current_range_meters":7200,"station_id":"ce4bhr92rcd13ifvqhrg","pricing_plan_id":"cebpf4jnsgd1na2vs0mg"},{"bike_id":"06444ed7-cf13-4c1e-9077-801c8a8ef5c3","system_id":"levelo_inurba_marseille","lat":43.29525,"lon":5.39043,"is_reserved":false,"is_disabled":false,"rental_uris":{"android":"levelo://app?vid=06444ed7-cf13-4c1e-9077-801c8a8ef5c3","ios":"levelo://app?vid=06444ed7-cf13-4c1e-9077-801c8a8ef5c3"},"vehicle_type_id":"4","last_reported":1726251110,"current_range_meters":24000,"station_id":"ce4bh3p2rcd13ifvqdp0","pricing_plan_id":"cebpf4jnsgd1na2vs0mg"},{"bike_id":"c28ff0f1-1713-431a-bccf-4e7a21e8e39b","system_id":"levelo_inurba_marseille","lat":43.25501,"lon":5.37651,"is_reserved":false,"is_disabled":false,"rental_uris":{"android":"levelo://app?vid=c28ff0f1-1713-431a-bccf-4e7a21e8e39b","ios":"levelo://app?vid=c28ff0f1-1713-431a-bccf-4e7a21e8e39b"},"vehicle_type_id":"4","last_reported":1726251110,"current_range_meters":39200,"station_id":"ce4bhh12rcd13ifvqff0","pricing_plan_id":"cebpf4jnsgd1na2vs0mg"},{"bike_id":"987fbd42-8bd6-4072-861f-a5c41ece6ba9","system_id":"levelo_inurba_marseille","lat":43.28406,"lon":5.37505,"is_reserved":false,"is_disabled":false,"rental_uris":{"android":"levelo://app?vid=987fbd42-8bd6-4072-861f-a5c41ece6ba9","ios":"levelo://app?vid=987fbd42-8bd6-4072-861f-a5c41ece6ba9"},"vehicle_type_id":"4","last_reported":1726251110,"current_range_meters":9200,"station_id":"ce4bh412rcd13ifvqds0","pricing_plan_id":"cebpf4jnsgd1na2vs0mg"},{"bike_id":"6f8e19ad-ae5a-4b87-9fad-eb78cf77478a","system_id":"levelo_inurba_marseille","lat":43.2893,"lon":5.38762,"is_reserved":false,"is_disabled":false,"rental_uris":{"android":"levelo://app?vid=6f8e19ad-ae5a-4b87-9fad-eb78cf77478a","ios":"levelo://app?vid=6f8e19ad-ae5a-4b87-9fad-eb78cf77478a"},"vehicle_type_id":"4","last_reported":1726251110,"current_range_meters":6800,"station_id":"","pricing_plan_id":"cebpf4jnsgd1na2vs0mg"},{"bike_id":"aa97dd0b-47d6-43b0-84d7-2019e3b9c274","system_id":"levelo_inurba_marseille","lat":43.29531,"lon":5.39033,"is_reserved":false,"is_disabled":false,"rental_uris":{"android":"levelo://app?vid=aa97dd0b-47d6-43b0-84d7-2019e3b9c274","ios":"levelo://app?vid=aa97dd0b-47d6-43b0-84d7-2019e3b9c274"},"vehicle_type_id":"4","last_reported":1726251110,"current_range_meters":16800,"station_id":"ce4bh3p2rcd13ifvqdp0","pricing_plan_id":"cebpf4jnsgd1na2vs0mg"},{"bike_id":"d63b08fd-7716-422a-94e4-8f1dfff5bb11","system_id":"levelo_inurba_marseille","lat":43.28615,"lon":5.35097,"is_reserved":false,"is_disabled":false,"rental_uris":{"android":"levelo://app?vid=d63b08fd-7716-422a-94e4-8f1dfff5bb11","ios":"levelo://app?vid=d63b08fd-7716-422a-94e4-8f1dfff5bb11"},"vehicle_type_id":"4","last_reported":1726251110,"current_range_meters":38000,"station_id":"ce4bhch2rcd13ifvqeug","pricing_plan_id":"cebpf4jnsgd1na2vs0mg"},{"bike_id":"ec70d30b-37ec-4b5c-b10c-9617e30c7fa0","system_id":"levelo_inurba_marseille","lat":43.29897,"lon":5.36622,"is_reserved":false,"is_disabled":false,"rental_uris":{"android":"levelo://app?vid=ec70d30b-37ec-4b5c-b10c-9617e30c7fa0","ios":"levelo://app?vid=ec70d30b-37ec-4b5c-b10c-9617e30c7fa0"},"vehicle_type_id":"4","last_reported":1726251110,"current_range_meters":16000,"station_id":"","pricing_plan_id":"cebpf4jnsgd1na2vs0mg"},{"bike_id":"5ebb3643-75a1-4e6f-bcf9-2c6bc6dfd5a5","system_id":"levelo_inurba_marseille","lat":43.297987,"lon":5.397654,"is_reserved":false,"is_disabled":false,"rental_uris":{"android":"levelo://app?vid=5ebb3643-75a1-4e6f-bcf9-2c6bc6dfd5a5","ios":"levelo://app?vid=5ebb3643-75a1-4e6f-bcf9-2c6bc6dfd5a5"},"vehicle_type_id":"4","last_reported":1726251110,"current_range_meters":34000,"station_id":"ce4bh0h2rcd13ifvqd50","pricing_plan_id":"cebpf4jnsgd1na2vs0mg"},{"bike_id":"c14be822-28f2-474d-bc9b-8a476fcfbc24","system_id":"levelo_inurba_marseille","lat":43.28937,"lon":5.36634,"is_reserved":false,"is_disabled":false,"rental_uris":{"android":"levelo://app?vid=c14be822-28f2-474d-bc9b-8a476fcfbc24","ios":"levelo://app?vid=c14be822-28f2-474d-bc9b-8a476fcfbc24"},"vehicle_type_id":"4","last_reported":1726251110,"current_range_meters":12400,"station_id":"ce4bhap2rcd13ifvqek0","pricing_plan_id":"cebpf4jnsgd1na2vs0mg"},{"bike_id":"415d3c4f-5242-4572-8d05-9e1bd45eae7f","system_id":"levelo_inurba_marseille","lat":43.25583,"lon":5.38239,"is_reserved":false,"is_disabled":false,"rental_uris":{"android":"levelo://app?vid=415d3c4f-5242-4572-8d05-9e1bd45eae7f","ios":"levelo://app?vid=415d3c4f-5242-4572-8d05-9e1bd45eae7f"},"vehicle_type_id":"4","last_reported":1726251110,"current_range_meters":32000,"station_id":"ce4bhih2rcd13ifvqfs0","pricing_plan_id":"cebpf4jnsgd1na2vs0mg"},{"bike_id":"5f373dd4-8418-4897-b64a-204bbd41374b","system_id":"levelo_inurba_marseille","lat":43.2681,"lon":5.40274,"is_reserved":false,"is_disabled":false,"rental_uris":{"android":"levelo://app?vid=5f373dd4-8418-4897-b64a-204bbd41374b","ios":"levelo://app?vid=5f373dd4-8418-4897-b64a-204bbd41374b"},"vehicle_type_id":"4","last_reported":1726251110,"current_range_meters":16800,"station_id":"ce501612rcd8frsf0b60","pricing_plan_id":"cebpf4jnsgd1na2vs0mg"},{"bike_id":"9378e46c-90ff-48e5-9112-f5aafd156a5f","system_id":"levelo_inurba_marseille","lat":43.29554,"lon":5.42296,"is_reserved":false,"is_disabled":false,"rental_uris":{"android":"levelo://app?vid=9378e46c-90ff-48e5-9112-f5aafd156a5f","ios":"levelo://app?vid=9378e46c-90ff-48e5-9112-f5aafd156a5f"},"vehicle_type_id":"4","last_reported":1726251110,"current_range_meters":28400,"station_id":"ce4bhph2rcd13ifvqhdg","pricing_plan_id":"cebpf4jnsgd1na2vs0mg"},{"bike_id":"0f84d9e7-cf9d-4a4f-9c93-098b8611ec7e","system_id":"levelo_inurba_marseille","lat":43.30878,"lon":5.37189,"is_reserved":false,"is_disabled":false,"rental_uris":{"android":"levelo://app?vid=0f84d9e7-cf9d-4a4f-9c93-098b8611ec7e","ios":"levelo://app?vid=0f84d9e7-cf9d-4a4f-9c93-098b8611ec7e"},"vehicle_type_id":"4","last_reported":1726251110,"current_range_meters":39200,"station_id":"ce4bguh2rcd13ifvqckg","pricing_plan_id":"cebpf4jnsgd1na2vs0mg"},{"bike_id":"b5b5287e-b66f-4f19-b47a-1f428d9f1b49","system_id":"levelo_inurba_marseille","lat":43.23169,"lon":5.43756,"is_reserved":false,"is_disabled":false,"rental_uris":{"android":"levelo://app?vid=b5b5287e-b66f-4f19-b47a-1f428d9f1b49","ios":"levelo://app?vid=b5b5287e-b66f-4f19-b47a-1f428d9f1b49"},"vehicle_type_id":"4","last_reported":1726251110,"current_range_meters":36800,"station_id":"","pricing_plan_id":"cebpf4jnsgd1na2vs0mg"},{"bike_id":"42e84e6d-33b9-4c46-830b-ea91b25f5838","system_id":"levelo_inurba_marseille","lat":43.30644,"lon":5.40087,"is_reserved":false,"is_disabled":false,"rental_uris":{"android":"levelo://app?vid=42e84e6d-33b9-4c46-830b-ea91b25f5838","ios":"levelo://app?vid=42e84e6d-33b9-4c46-830b-ea91b25f5838"},"vehicle_type_id":"4","last_reported":1726251110,"current_range_meters":38400,"station_id":"ce4bh112rcd13ifvqda0","pricing_plan_id":"cebpf4jnsgd1na2vs0mg"},{"bike_id":"41e83769-f173-4f36-99b6-9936561fc522","system_id":"levelo_inurba_marseille","lat":43.301014,"lon":5.39083,"is_reserved":false,"is_disabled":false,"rental_uris":{"android":"levelo://app?vid=41e83769-f173-4f36-99b6-9936561fc522","ios":"levelo://app?vid=41e83769-f173-4f36-99b6-9936561fc522"},"vehicle_type_id":"4","last_reported":1726251110,"current_range_meters":25200,"station_id":"ce4bgt92rcd13ifvqcf0","pricing_plan_id":"cebpf4jnsgd1na2vs0mg"},{"bike_id":"eef991f3-491b-40b9-99d7-1de70c081759","system_id":"levelo_inurba_marseille","lat":43.28669,"lon":5.3867,"is_reserved":false,"is_disabled":false,"rental_uris":{"android":"levelo://app?vid=eef991f3-491b-40b9-99d7-1de70c081759","ios":"levelo://app?vid=eef991f3-491b-40b9-99d7-1de70c081759"},"vehicle_type_id":"4","last_reported":1726251110,"current_range_meters":8800,"station_id":"ce4bh492rcd13ifvqdug","pricing_plan_id":"cebpf4jnsgd1na2vs0mg"},{"bike_id":"a71ade37-705a-48c5-8693-8659689a5617","system_id":"levelo_inurba_marseille","lat":43.2418,"lon":5.3973,"is_reserved":false,"is_disabled":false,"rental_uris":{"android":"levelo://app?vid=a71ade37-705a-48c5-8693-8659689a5617","ios":"levelo://app?vid=a71ade37-705a-48c5-8693-8659689a5617"},"vehicle_type_id":"4","last_reported":1726251110,"current_range_meters":4800,"station_id":"ce4bhn12rcd13ifvqgpg","pricing_plan_id":"cebpf4jnsgd1na2vs0mg"},{"bike_id":"791478ad-77fc-41af-8e4c-3c106eae8fe6","system_id":"levelo_inurba_marseille","lat":43.280053,"lon":5.40008,"is_reserved":false,"is_disabled":false,"rental_uris":{"android":"levelo://app?vid=791478ad-77fc-41af-8e4c-3c106eae8fe6","ios":"levelo://app?vid=791478ad-77fc-41af-8e4c-3c106eae8fe6"},"vehicle_type_id":"4","last_reported":1726251110,"current_range_meters":27600,"station_id":"ce4bho92rcd13ifvqh4g","pricing_plan_id":"cebpf4jnsgd1na2vs0mg"},{"bike_id":"554fb644-5d02-4a19-9560-2741aabbae64","system_id":"levelo_inurba_marseille","lat":43.28935,"lon":5.38392,"is_reserved":false,"is_disabled":false,"rental_uris":{"android":"levelo://app?vid=554fb644-5d02-4a19-9560-2741aabbae64","ios":"levelo://app?vid=554fb644-5d02-4a19-9560-2741aabbae64"},"vehicle_type_id":"4","last_reported":1726251110,"current_range_meters":22000,"station_id":"ce4bh612rcd13ifvqe6g","pricing_plan_id":"cebpf4jnsgd1na2vs0mg"},{"bike_id":"1e9ab519-e28c-400f-aecb-cbc58f39def2","system_id":"levelo_inurba_marseille","lat":43.29782,"lon":5.37896,"is_reserved":false,"is_disabled":false,"rental_uris":{"android":"levelo://app?vid=1e9ab519-e28c-400f-aecb-cbc58f39def2","ios":"levelo://app?vid=1e9ab519-e28c-400f-aecb-cbc58f39def2"},"vehicle_type_id":"4","last_reported":1726251110,"current_range_meters":7200,"station_id":"","pricing_plan_id":"cebpf4jnsgd1na2vs0mg"},{"bike_id":"03200ce1-e816-4485-a9db-29a204ad97d8","system_id":"levelo_inurba_marseille","lat":43.23967,"lon":5.36625,"is_reserved":false,"is_disabled":false,"rental_uris":{"android":"levelo://app?vid=03200ce1-e816-4485-a9db-29a204ad97d8","ios":"levelo://app?vid=03200ce1-e816-4485-a9db-29a204ad97d8"},"vehicle_type_id":"4","last_reported":1726251110,"current_range_meters":39200,"station_id":"ce4bhi12rcd13ifvqfp0","pricing_plan_id":"cebpf4jnsgd1na2vs0mg"},{"bike_id":"954d2b54-362e-442e-bcaa-d17939d90e2d","system_id":"levelo_inurba_marseille","lat":43.25495,"lon":5.37653,"is_reserved":false,"is_disabled":false,"rental_uris":{"android":"levelo://app?vid=954d2b54-362e-442e-bcaa-d17939d90e2d","ios":"levelo://app?vid=954d2b54-362e-442e-bcaa-d17939d90e2d"},"vehicle_type_id":"4","last_reported":1726251110,"current_range_meters":39200,"station_id":"ce4bhh12rcd13ifvqff0","pricing_plan_id":"cebpf4jnsgd1na2vs0mg"},{"bike_id":"82dec1e1-c024-4a59-b080-1ca526441f94","system_id":"levelo_inurba_marseille","lat":43.337612,"lon":5.374504,"is_reserved":false,"is_disabled":false,"rental_uris":{"android":"levelo://app?vid=82dec1e1-c024-4a59-b080-1ca526441f94","ios":"levelo://app?vid=82dec1e1-c024-4a59-b080-1ca526441f94"},"vehicle_type_id":"4","last_reported":1726251110,"current_range_meters":13600,"station_id":"","pricing_plan_id":"cebpf4jnsgd1na2vs0mg"},{"bike_id":"02269f0e-1758-473f-8a5c-764f1ddf9ddc","system_id":"levelo_inurba_marseille","lat":43.23193,"lon":5.39979,"is_reserved":false,"is_disabled":false,"rental_uris":{"android":"levelo://app?vid=02269f0e-1758-473f-8a5c-764f1ddf9ddc","ios":"levelo://app?vid=02269f0e-1758-473f-8a5c-764f1ddf9ddc"},"vehicle_type_id":"4","last_reported":1726251110,"current_range_meters":39200,"station_id":"ce4bhn12rcd13ifvqgqg","pricing_plan_id":"cebpf4jnsgd1na2vs0mg"},{"bike_id":"baf7d0fc-eae3-4f0c-99fc-59a5573e709f","system_id":"levelo_inurba_marseille","lat":43.29846,"lon":5.36284,"is_reserved":false,"is_disabled":false,"rental_uris":{"android":"levelo://app?vid=baf7d0fc-eae3-4f0c-99fc-59a5573e709f","ios":"levelo://app?vid=baf7d0fc-eae3-4f0c-99fc-59a5573e709f"},"vehicle_type_id":"4","last_reported":1726251110,"current_range_meters":39200,"station_id":"ce4bgpp2rcd13ifvqc3g","pricing_plan_id":"cebpf4jnsgd1na2vs0mg"},{"bike_id":"08bfcbbc-d623-466d-a917-cd4f3d7378b6","system_id":"levelo_inurba_marseille","lat":43.2928,"lon":5.36845,"is_reserved":false,"is_disabled":false,"rental_uris":{"android":"levelo://app?vid=08bfcbbc-d623-466d-a917-cd4f3d7378b6","ios":"levelo://app?vid=08bfcbbc-d623-466d-a917-cd4f3d7378b6"},"vehicle_type_id":"4","last_reported":1726251110,"current_range_meters":23200,"station_id":"ce4bhbp2rcd13ifvqesg","pricing_plan_id":"cebpf4jnsgd1na2vs0mg"},{"bike_id":"6be21217-09c4-44c6-8934-8f8f3ca988ea","system_id":"levelo_inurba_marseille","lat":43.25501,"lon":5.3765,"is_reserved":false,"is_disabled":false,"rental_uris":{"android":"levelo://app?vid=6be21217-09c4-44c6-8934-8f8f3ca988ea","ios":"levelo://app?vid=6be21217-09c4-44c6-8934-8f8f3ca988ea"},"vehicle_type_id":"4","last_reported":1726251110,"current_range_meters":25600,"station_id":"ce4bhh12rcd13ifvqff0","pricing_plan_id":"cebpf4jnsgd1na2vs0mg"},{"bike_id":"be36093d-a39a-4de6-bf04-bdf655f32d11","system_id":"levelo_inurba_marseille","lat":43.312308,"lon":5.368482,"is_reserved":false,"is_disabled":false,"rental_uris":{"android":"levelo://app?vid=be36093d-a39a-4de6-bf04-bdf655f32d11","ios":"levelo://app?vid=be36093d-a39a-4de6-bf04-bdf655f32d11"},"vehicle_type_id":"4","last_reported":1726251110,"current_range_meters":26800,"station_id":"ce4bh4p2rcd13ifvqe1g","pricing_plan_id":"cebpf4jnsgd1na2vs0mg"},{"bike_id":"5bcea731-d4da-414e-b204-cc827bfa12b3","system_id":"levelo_inurba_marseille","lat":43.27615,"lon":5.36109,"is_reserved":false,"is_disabled":false,"rental_uris":{"android":"levelo://app?vid=5bcea731-d4da-414e-b204-cc827bfa12b3","ios":"levelo://app?vid=5bcea731-d4da-414e-b204-cc827bfa12b3"},"vehicle_type_id":"4","last_reported":1726251110,"current_range_meters":22400,"station_id":"ce4bgj92rcd13ifvqbe0","pricing_plan_id":"cebpf4jnsgd1na2vs0mg"},{"bike_id":"c1c5e7a8-1f75-41e0-b3f3-1646ae709d09","system_id":"levelo_inurba_marseille","lat":43.27999,"lon":5.41672,"is_reserved":false,"is_disabled":false,"rental_uris":{"android":"levelo://app?vid=c1c5e7a8-1f75-41e0-b3f3-1646ae709d09","ios":"levelo://app?vid=c1c5e7a8-1f75-41e0-b3f3-1646ae709d09"},"vehicle_type_id":"4","last_reported":1726251110,"current_range_meters":33200,"station_id":"ce4bho12rcd13ifvqh1g","pricing_plan_id":"cebpf4jnsgd1na2vs0mg"},{"bike_id":"61e00977-be43-400f-99ea-3c33330f7657","system_id":"levelo_inurba_marseille","lat":43.25019,"lon":5.3892,"is_reserved":false,"is_disabled":false,"rental_uris":{"android":"levelo://app?vid=61e00977-be43-400f-99ea-3c33330f7657","ios":"levelo://app?vid=61e00977-be43-400f-99ea-3c33330f7657"},"vehicle_type_id":"4","last_reported":1726251110,"current_range_meters":24400,"station_id":"ce4bhgp2rcd13ifvqfd0","pricing_plan_id":"cebpf4jnsgd1na2vs0mg"},{"bike_id":"c3680b2a-4d82-427c-ac30-a0672bed5029","system_id":"levelo_inurba_marseille","lat":43.2408,"lon":5.37764,"is_reserved":false,"is_disabled":false,"rental_uris":{"android":"levelo://app?vid=c3680b2a-4d82-427c-ac30-a0672bed5029","ios":"levelo://app?vid=c3680b2a-4d82-427c-ac30-a0672bed5029"},"vehicle_type_id":"4","last_reported":1726251110,"current_range_meters":12000,"station_id":"ce4bhnp2rcd13ifvqgvg","pricing_plan_id":"cebpf4jnsgd1na2vs0mg"},{"bike_id":"06dbf983-860f-4ca0-80be-c158afedb364","system_id":"levelo_inurba_marseille","lat":43.29701,"lon":5.36619,"is_reserved":false,"is_disabled":false,"rental_uris":{"android":"levelo://app?vid=06dbf983-860f-4ca0-80be-c158afedb364","ios":"levelo://app?vid=06dbf983-860f-4ca0-80be-c158afedb364"},"vehicle_type_id":"4","last_reported":1726251110,"current_range_meters":36800,"station_id":"ce4bgn12rcd13ifvqbt0","pricing_plan_id":"cebpf4jnsgd1na2vs0mg"},{"bike_id":"68afa358-9d85-43a5-b190-18d7bccfd7f8","system_id":"levelo_inurba_marseille","lat":43.29612,"lon":5.37731,"is_reserved":false,"is_disabled":false,"rental_uris":{"android":"levelo://app?vid=68afa358-9d85-43a5-b190-18d7bccfd7f8","ios":"levelo://app?vid=68afa358-9d85-43a5-b190-18d7bccfd7f8"},"vehicle_type_id":"4","last_reported":1726251110,"current_range_meters":25600,"station_id":"ce4bgi92rcd13ifvqb90","pricing_plan_id":"cebpf4jnsgd1na2vs0mg"},{"bike_id":"7cc5cc5c-b0d6-4d34-b5ca-8ffa2c1f3694","system_id":"levelo_inurba_marseille","lat":43.24806,"lon":5.37455,"is_reserved":false,"is_disabled":false,"rental_uris":{"android":"levelo://app?vid=7cc5cc5c-b0d6-4d34-b5ca-8ffa2c1f3694","ios":"levelo://app?vid=7cc5cc5c-b0d6-4d34-b5ca-8ffa2c1f3694"},"vehicle_type_id":"4","last_reported":1726251110,"current_range_meters":29600,"station_id":"ce4bhgh2rcd13ifvqfb0","pricing_plan_id":"cebpf4jnsgd1na2vs0mg"},{"bike_id":"b2da9a97-036f-430b-9a28-ce5649018aef","system_id":"levelo_inurba_marseille","lat":43.26211,"lon":5.37929,"is_reserved":false,"is_disabled":false,"rental_uris":{"android":"levelo://app?vid=b2da9a97-036f-430b-9a28-ce5649018aef","ios":"levelo://app?vid=b2da9a97-036f-430b-9a28-ce5649018aef"},"vehicle_type_id":"4","last_reported":1726251110,"current_range_meters":34000,"station_id":"ce4bhjp2rcd13ifvqg90","pricing_plan_id":"cebpf4jnsgd1na2vs0mg"},{"bike_id":"98533307-ae8e-435e-87ce-a4bb89941d13","system_id":"levelo_inurba_marseille","lat":43.25874,"lon":5.39907,"is_reserved":false,"is_disabled":false,"rental_uris":{"android":"levelo://app?vid=98533307-ae8e-435e-87ce-a4bb89941d13","ios":"levelo://app?vid=98533307-ae8e-435e-87ce-a4bb89941d13"},"vehicle_type_id":"4","last_reported":1726251110,"current_range_meters":32000,"station_id":"ce4bh612rcd13ifvqe6g","pricing_plan_id":"cebpf4jnsgd1na2vs0mg"},{"bike_id":"b2f15906-55f9-435e-8932-0ac1604929c5","system_id":"levelo_inurba_marseille","lat":43.23191,"lon":5.39981,"is_reserved":false,"is_disabled":false,"rental_uris":{"android":"levelo://app?vid=b2f15906-55f9-435e-8932-0ac1604929c5","ios":"levelo://app?vid=b2f15906-55f9-435e-8932-0ac1604929c5"},"vehicle_type_id":"4","last_reported":1726251110,"current_range_meters":10000,"station_id":"ce4bhn12rcd13ifvqgqg","pricing_plan_id":"cebpf4jnsgd1na2vs0mg"},{"bike_id":"8375304b-8959-48b9-88d3-f98e6b2b9263","system_id":"levelo_inurba_marseille","lat":43.30188,"lon":5.36611,"is_reserved":false,"is_disabled":false,"rental_uris":{"android":"levelo://app?vid=8375304b-8959-48b9-88d3-f98e6b2b9263","ios":"levelo://app?vid=8375304b-8959-48b9-88d3-f98e6b2b9263"},"vehicle_type_id":"4","last_reported":1726251110,"current_range_meters":24800,"station_id":"ce4bgrh2rcd13ifvqc8g","pricing_plan_id":"cebpf4jnsgd1na2vs0mg"},{"bike_id":"3b4631f1-0e73-4449-be64-c1cdece0b434","system_id":"levelo_inurba_marseille","lat":43.28277,"lon":5.35085,"is_reserved":false,"is_disabled":false,"rental_uris":{"android":"levelo://app?vid=3b4631f1-0e73-4449-be64-c1cdece0b434","ios":"levelo://app?vid=3b4631f1-0e73-4449-be64-c1cdece0b434"},"vehicle_type_id":"4","last_reported":1726251110,"current_range_meters":39200,"station_id":"ce4bhbp2rcd13ifvqerg","pricing_plan_id":"cebpf4jnsgd1na2vs0mg"},{"bike_id":"aef09fda-9467-42e2-98fc-34612831dc7c","system_id":"levelo_inurba_marseille","lat":43.25093,"lon":5.39526,"is_reserved":false,"is_disabled":false,"rental_uris":{"android":"levelo://app?vid=aef09fda-9467-42e2-98fc-34612831dc7c","ios":"levelo://app?vid=aef09fda-9467-42e2-98fc-34612831dc7c"},"vehicle_type_id":"4","last_reported":1726251110,"current_range_meters":39200,"station_id":"ce4bhm12rcd13ifvqgkg","pricing_plan_id":"cebpf4jnsgd1na2vs0mg"},{"bike_id":"5338c9a0-5e79-4690-a521-3e1a7a393000","system_id":"levelo_inurba_marseille","lat":43.31224,"lon":5.36861,"is_reserved":false,"is_disabled":false,"rental_uris":{"android":"levelo://app?vid=5338c9a0-5e79-4690-a521-3e1a7a393000","ios":"levelo://app?vid=5338c9a0-5e79-4690-a521-3e1a7a393000"},"vehicle_type_id":"4","last_reported":1726251110,"current_range_meters":24000,"station_id":"ce4bgl92rcd13ifvqbq0","pricing_plan_id":"cebpf4jnsgd1na2vs0mg"},{"bike_id":"1d004851-c08b-4a01-aec6-6340c8507935","system_id":"levelo_inurba_marseille","lat":43.24178,"lon":5.39736,"is_reserved":false,"is_disabled":false,"rental_uris":{"android":"levelo://app?vid=1d004851-c08b-4a01-aec6-6340c8507935","ios":"levelo://app?vid=1d004851-c08b-4a01-aec6-6340c8507935"},"vehicle_type_id":"4","last_reported":1726251110,"current_range_meters":32400,"station_id":"ce4bhn12rcd13ifvqgpg","pricing_plan_id":"cebpf4jnsgd1na2vs0mg"},{"bike_id":"f20f613d-77b3-4abc-847d-4abd98073b48","system_id":"levelo_inurba_marseille","lat":43.28621,"lon":5.35104,"is_reserved":false,"is_disabled":false,"rental_uris":{"android":"levelo://app?vid=f20f613d-77b3-4abc-847d-4abd98073b48","ios":"levelo://app?vid=f20f613d-77b3-4abc-847d-4abd98073b48"},"vehicle_type_id":"4","last_reported":1726251110,"current_range_meters":30000,"station_id":"ce4bhch2rcd13ifvqeug","pricing_plan_id":"cebpf4jnsgd1na2vs0mg"},{"bike_id":"e109314d-faf3-4639-8702-9ced09dbe755","system_id":"levelo_inurba_marseille","lat":43.29531,"lon":5.3855,"is_reserved":false,"is_disabled":false,"rental_uris":{"android":"levelo://app?vid=e109314d-faf3-4639-8702-9ced09dbe755","ios":"levelo://app?vid=e109314d-faf3-4639-8702-9ced09dbe755"},"vehicle_type_id":"4","last_reported":1726251110,"current_range_meters":32800,"station_id":"ce4bgih2rcd13ifvqba0","pricing_plan_id":"cebpf4jnsgd1na2vs0mg"},{"bike_id":"52ef493d-112f-4c68-8662-3bb1cdb9cb18","system_id":"levelo_inurba_marseille","lat":43.23153,"lon":5.43724,"is_reserved":false,"is_disabled":false,"rental_uris":{"android":"levelo://app?vid=52ef493d-112f-4c68-8662-3bb1cdb9cb18","ios":"levelo://app?vid=52ef493d-112f-4c68-8662-3bb1cdb9cb18"},"vehicle_type_id":"4","last_reported":1726251110,"current_range_meters":34800,"station_id":"ce4bhmp2rcd13ifvqgog","pricing_plan_id":"cebpf4jnsgd1na2vs0mg"},{"bike_id":"23cd236e-22be-48e0-900f-6de94745a3f4","system_id":"levelo_inurba_marseille","lat":43.27422,"lon":5.39417,"is_reserved":false,"is_disabled":false,"rental_uris":{"android":"levelo://app?vid=23cd236e-22be-48e0-900f-6de94745a3f4","ios":"levelo://app?vid=23cd236e-22be-48e0-900f-6de94745a3f4"},"vehicle_type_id":"4","last_reported":1726251110,"current_range_meters":38800,"station_id":"ce4bhdp2rcd13ifvqf20","pricing_plan_id":"cebpf4jnsgd1na2vs0mg"},{"bike_id":"e2a9ef80-b0c6-4e8a-a032-3e6634094c93","system_id":"levelo_inurba_marseille","lat":43.28615,"lon":5.35099,"is_reserved":false,"is_disabled":false,"rental_uris":{"android":"levelo://app?vid=e2a9ef80-b0c6-4e8a-a032-3e6634094c93","ios":"levelo://app?vid=e2a9ef80-b0c6-4e8a-a032-3e6634094c93"},"vehicle_type_id":"4","last_reported":1726251110,"current_range_meters":3200,"station_id":"ce4bhch2rcd13ifvqeug","pricing_plan_id":"cebpf4jnsgd1na2vs0mg"},{"bike_id":"4b4bec50-4d63-4000-aaf2-4bb8196fda2a","system_id":"levelo_inurba_marseille","lat":43.29787,"lon":5.38101,"is_reserved":false,"is_disabled":false,"rental_uris":{"android":"levelo://app?vid=4b4bec50-4d63-4000-aaf2-4bb8196fda2a","ios":"levelo://app?vid=4b4bec50-4d63-4000-aaf2-4bb8196fda2a"},"vehicle_type_id":"4","last_reported":1726251110,"current_range_meters":14800,"station_id":"ce4bgip2rcd13ifvqbb0","pricing_plan_id":"cebpf4jnsgd1na2vs0mg"},{"bike_id":"cf6c9917-4a0d-445e-9fb1-543afd2c0e87","system_id":"levelo_inurba_marseille","lat":43.23155,"lon":5.43701,"is_reserved":false,"is_disabled":false,"rental_uris":{"android":"levelo://app?vid=cf6c9917-4a0d-445e-9fb1-543afd2c0e87","ios":"levelo://app?vid=cf6c9917-4a0d-445e-9fb1-543afd2c0e87"},"vehicle_type_id":"4","last_reported":1726251110,"current_range_meters":38800,"station_id":"ce4bhmp2rcd13ifvqgog","pricing_plan_id":"cebpf4jnsgd1na2vs0mg"},{"bike_id":"5c69ab67-8359-43fe-a191-f1b4c93b8062","system_id":"levelo_inurba_marseille","lat":43.32341,"lon":5.40623,"is_reserved":false,"is_disabled":false,"rental_uris":{"android":"levelo://app?vid=5c69ab67-8359-43fe-a191-f1b4c93b8062","ios":"levelo://app?vid=5c69ab67-8359-43fe-a191-f1b4c93b8062"},"vehicle_type_id":"4","last_reported":1726251110,"current_range_meters":5600,"station_id":"ce4bhq92rcd13ifvqhjg","pricing_plan_id":"cebpf4jnsgd1na2vs0mg"},{"bike_id":"22111152-b310-4249-b4df-b0c7af273cef","system_id":"levelo_inurba_marseille","lat":43.24807,"lon":5.37455,"is_reserved":false,"is_disabled":false,"rental_uris":{"android":"levelo://app?vid=22111152-b310-4249-b4df-b0c7af273cef","ios":"levelo://app?vid=22111152-b310-4249-b4df-b0c7af273cef"},"vehicle_type_id":"4","last_reported":1726251110,"current_range_meters":19600,"station_id":"ce4bhgh2rcd13ifvqfb0","pricing_plan_id":"cebpf4jnsgd1na2vs0mg"},{"bike_id":"b8842ea2-ab2d-4b52-b429-382a81c1a7d1","system_id":"levelo_inurba_marseille","lat":43.27997,"lon":5.40011,"is_reserved":false,"is_disabled":false,"rental_uris":{"android":"levelo://app?vid=b8842ea2-ab2d-4b52-b429-382a81c1a7d1","ios":"levelo://app?vid=b8842ea2-ab2d-4b52-b429-382a81c1a7d1"},"vehicle_type_id":"4","last_reported":1726251110,"current_range_meters":38800,"station_id":"ce4bho92rcd13ifvqh4g","pricing_plan_id":"cebpf4jnsgd1na2vs0mg"},{"bike_id":"da1c08a2-1464-4f1c-9ae8-cdf52d30514d","system_id":"levelo_inurba_marseille","lat":43.303412,"lon":5.404451,"is_reserved":false,"is_disabled":false,"rental_uris":{"android":"levelo://app?vid=da1c08a2-1464-4f1c-9ae8-cdf52d30514d","ios":"levelo://app?vid=da1c08a2-1464-4f1c-9ae8-cdf52d30514d"},"vehicle_type_id":"4","last_reported":1726251110,"current_range_meters":20400,"station_id":"","pricing_plan_id":"cebpf4jnsgd1na2vs0mg"},{"bike_id":"600c1028-55f0-40ed-9003-e8760819c224","system_id":"levelo_inurba_marseille","lat":43.29082,"lon":5.37176,"is_reserved":false,"is_disabled":false,"rental_uris":{"android":"levelo://app?vid=600c1028-55f0-40ed-9003-e8760819c224","ios":"levelo://app?vid=600c1028-55f0-40ed-9003-e8760819c224"},"vehicle_type_id":"4","last_reported":1726251110,"current_range_meters":9200,"station_id":"ce4bh5p2rcd13ifvqe4g","pricing_plan_id":"cebpf4jnsgd1na2vs0mg"},{"bike_id":"0ce9d47b-9014-4941-b0d2-f63159d4efed","system_id":"levelo_inurba_marseille","lat":43.31718,"lon":5.43709,"is_reserved":false,"is_disabled":false,"rental_uris":{"android":"levelo://app?vid=0ce9d47b-9014-4941-b0d2-f63159d4efed","ios":"levelo://app?vid=0ce9d47b-9014-4941-b0d2-f63159d4efed"},"vehicle_type_id":"4","last_reported":1726251110,"current_range_meters":2800,"station_id":"ce4bhp92rcd13ifvqhcg","pricing_plan_id":"cebpf4jnsgd1na2vs0mg"},{"bike_id":"296f3244-fc20-49e7-9946-4e09136207f2","system_id":"levelo_inurba_marseille","lat":43.29617,"lon":5.37162,"is_reserved":false,"is_disabled":false,"rental_uris":{"android":"levelo://app?vid=296f3244-fc20-49e7-9946-4e09136207f2","ios":"levelo://app?vid=296f3244-fc20-49e7-9946-4e09136207f2"},"vehicle_type_id":"4","last_reported":1726251110,"current_range_meters":38800,"station_id":"ce4bgnh2rcd13ifvqc0g","pricing_plan_id":"cebpf4jnsgd1na2vs0mg"},{"bike_id":"f400d370-a20e-4ced-86f0-64f62510749c","system_id":"levelo_inurba_marseille","lat":43.3237,"lon":5.38926,"is_reserved":false,"is_disabled":false,"rental_uris":{"android":"levelo://app?vid=f400d370-a20e-4ced-86f0-64f62510749c","ios":"levelo://app?vid=f400d370-a20e-4ced-86f0-64f62510749c"},"vehicle_type_id":"4","last_reported":1726251110,"current_range_meters":4000,"station_id":"","pricing_plan_id":"cebpf4jnsgd1na2vs0mg"},{"bike_id":"8578940c-55cb-4da5-a5e8-95031a7a0872","system_id":"levelo_inurba_marseille","lat":43.2586,"lon":5.39915,"is_reserved":false,"is_disabled":false,"rental_uris":{"android":"levelo://app?vid=8578940c-55cb-4da5-a5e8-95031a7a0872","ios":"levelo://app?vid=8578940c-55cb-4da5-a5e8-95031a7a0872"},"vehicle_type_id":"4","last_reported":1726251110,"current_range_meters":35200,"station_id":"ce4bhl92rcd13ifvqghg","pricing_plan_id":"cebpf4jnsgd1na2vs0mg"},{"bike_id":"29cde858-91d6-4fe7-8095-73bb300eeeb0","system_id":"levelo_inurba_marseille","lat":43.31758,"lon":5.39017,"is_reserved":false,"is_disabled":false,"rental_uris":{"android":"levelo://app?vid=29cde858-91d6-4fe7-8095-73bb300eeeb0","ios":"levelo://app?vid=29cde858-91d6-4fe7-8095-73bb300eeeb0"},"vehicle_type_id":"4","last_reported":1726251110,"current_range_meters":30000,"station_id":"ce4bhqp2rcd13ifvqhng","pricing_plan_id":"cebpf4jnsgd1na2vs0mg"},{"bike_id":"2d245df7-48c5-41a1-9011-b27281ffc8f8","system_id":"levelo_inurba_marseille","lat":43.25582,"lon":5.38227,"is_reserved":false,"is_disabled":false,"rental_uris":{"android":"levelo://app?vid=2d245df7-48c5-41a1-9011-b27281ffc8f8","ios":"levelo://app?vid=2d245df7-48c5-41a1-9011-b27281ffc8f8"},"vehicle_type_id":"4","last_reported":1726251110,"current_range_meters":8000,"station_id":"ce4bhih2rcd13ifvqfs0","pricing_plan_id":"cebpf4jnsgd1na2vs0mg"},{"bike_id":"70f82102-d4fa-42bf-87ff-b84cf0b4fe6b","system_id":"levelo_inurba_marseille","lat":43.25083,"lon":5.39522,"is_reserved":false,"is_disabled":false,"rental_uris":{"android":"levelo://app?vid=70f82102-d4fa-42bf-87ff-b84cf0b4fe6b","ios":"levelo://app?vid=70f82102-d4fa-42bf-87ff-b84cf0b4fe6b"},"vehicle_type_id":"4","last_reported":1726251110,"current_range_meters":6800,"station_id":"ce4bhm12rcd13ifvqgkg","pricing_plan_id":"cebpf4jnsgd1na2vs0mg"},{"bike_id":"fc61066f-06d8-4a2f-adcf-8c083d39053f","system_id":"levelo_inurba_marseille","lat":43.25579,"lon":5.38239,"is_reserved":false,"is_disabled":false,"rental_uris":{"android":"levelo://app?vid=fc61066f-06d8-4a2f-adcf-8c083d39053f","ios":"levelo://app?vid=fc61066f-06d8-4a2f-adcf-8c083d39053f"},"vehicle_type_id":"4","last_reported":1726251110,"current_range_meters":12000,"station_id":"ce4bhih2rcd13ifvqfs0","pricing_plan_id":"cebpf4jnsgd1na2vs0mg"},{"bike_id":"328d45f9-980e-4811-97c0-47d761861509","system_id":"levelo_inurba_marseille","lat":43.29863,"lon":5.37843,"is_reserved":false,"is_disabled":false,"rental_uris":{"android":"levelo://app?vid=328d45f9-980e-4811-97c0-47d761861509","ios":"levelo://app?vid=328d45f9-980e-4811-97c0-47d761861509"},"vehicle_type_id":"4","last_reported":1726251110,"current_range_meters":36400,"station_id":"ce4bgkh2rcd13ifvqbl0","pricing_plan_id":"cebpf4jnsgd1na2vs0mg"},{"bike_id":"b4428f9b-3e1a-49cb-9129-9e8b56a5dfa5","system_id":"levelo_inurba_marseille","lat":43.31685,"lon":5.40475,"is_reserved":false,"is_disabled":false,"rental_uris":{"android":"levelo://app?vid=b4428f9b-3e1a-49cb-9129-9e8b56a5dfa5","ios":"levelo://app?vid=b4428f9b-3e1a-49cb-9129-9e8b56a5dfa5"},"vehicle_type_id":"4","last_reported":1726251110,"current_range_meters":27200,"station_id":"ce4bh012rcd13ifvqd00","pricing_plan_id":"cebpf4jnsgd1na2vs0mg"},{"bike_id":"439ce068-90f6-4bff-826e-5c676dfdced2","system_id":"levelo_inurba_marseille","lat":43.23155,"lon":5.43712,"is_reserved":false,"is_disabled":false,"rental_uris":{"android":"levelo://app?vid=439ce068-90f6-4bff-826e-5c676dfdced2","ios":"levelo://app?vid=439ce068-90f6-4bff-826e-5c676dfdced2"},"vehicle_type_id":"4","last_reported":1726251110,"current_range_meters":38800,"station_id":"ce4bhmp2rcd13ifvqgog","pricing_plan_id":"cebpf4jnsgd1na2vs0mg"},{"bike_id":"08af7560-af1c-4280-9213-6cf3c8b0b6f1","system_id":"levelo_inurba_marseille","lat":43.29281,"lon":5.38455,"is_reserved":false,"is_disabled":false,"rental_uris":{"android":"levelo://app?vid=08af7560-af1c-4280-9213-6cf3c8b0b6f1","ios":"levelo://app?vid=08af7560-af1c-4280-9213-6cf3c8b0b6f1"},"vehicle_type_id":"4","last_reported":1726251110,"current_range_meters":17200,"station_id":"ce4bh692rcd13ifvqea0","pricing_plan_id":"cebpf4jnsgd1na2vs0mg"},{"bike_id":"63b79cae-8738-43b3-8da9-ab7ada18a6bc","system_id":"levelo_inurba_marseille","lat":43.31359,"lon":5.38503,"is_reserved":false,"is_disabled":false,"rental_uris":{"android":"levelo://app?vid=63b79cae-8738-43b3-8da9-ab7ada18a6bc","ios":"levelo://app?vid=63b79cae-8738-43b3-8da9-ab7ada18a6bc"},"vehicle_type_id":"4","last_reported":1726251110,"current_range_meters":14000,"station_id":"ce4bgt92rcd13ifvqcf0","pricing_plan_id":"cebpf4jnsgd1na2vs0mg"},{"bike_id":"3aaf23df-ab45-4cad-bb64-d814895b7209","system_id":"levelo_inurba_marseille","lat":43.28442,"lon":5.392075,"is_reserved":false,"is_disabled":false,"rental_uris":{"android":"levelo://app?vid=3aaf23df-ab45-4cad-bb64-d814895b7209","ios":"levelo://app?vid=3aaf23df-ab45-4cad-bb64-d814895b7209"},"vehicle_type_id":"4","last_reported":1726251110,"current_range_meters":12800,"station_id":"ce4bhoh2rcd13ifvqh5g","pricing_plan_id":"cebpf4jnsgd1na2vs0mg"},{"bike_id":"fe89e6fb-759f-4d01-bfc4-162b3afd11ac","system_id":"levelo_inurba_marseille","lat":43.27179,"lon":5.40988,"is_reserved":false,"is_disabled":false,"rental_uris":{"android":"levelo://app?vid=fe89e6fb-759f-4d01-bfc4-162b3afd11ac","ios":"levelo://app?vid=fe89e6fb-759f-4d01-bfc4-162b3afd11ac"},"vehicle_type_id":"4","last_reported":1726251110,"current_range_meters":20800,"station_id":"ce4bhl12rcd13ifvqgf0","pricing_plan_id":"cebpf4jnsgd1na2vs0mg"},{"bike_id":"e683b8a3-fa6e-463c-8558-c310679783ad","system_id":"levelo_inurba_marseille","lat":43.29265,"lon":5.38445,"is_reserved":false,"is_disabled":false,"rental_uris":{"android":"levelo://app?vid=e683b8a3-fa6e-463c-8558-c310679783ad","ios":"levelo://app?vid=e683b8a3-fa6e-463c-8558-c310679783ad"},"vehicle_type_id":"4","last_reported":1726251110,"current_range_meters":34800,"station_id":"ce4bh692rcd13ifvqea0","pricing_plan_id":"cebpf4jnsgd1na2vs0mg"},{"bike_id":"c5077791-24e6-4d82-8fb2-88a121fc7f3d","system_id":"levelo_inurba_marseille","lat":43.278381,"lon":5.392018,"is_reserved":false,"is_disabled":false,"rental_uris":{"android":"levelo://app?vid=c5077791-24e6-4d82-8fb2-88a121fc7f3d","ios":"levelo://app?vid=c5077791-24e6-4d82-8fb2-88a121fc7f3d"},"vehicle_type_id":"4","last_reported":1726251110,"current_range_meters":6800,"station_id":"ce4bhjp2rcd13ifvqga0","pricing_plan_id":"cebpf4jnsgd1na2vs0mg"},{"bike_id":"b610de34-0f16-4641-88fd-0afbc16b22a5","system_id":"levelo_inurba_marseille","lat":43.28169,"lon":5.42648,"is_reserved":false,"is_disabled":false,"rental_uris":{"android":"levelo://app?vid=b610de34-0f16-4641-88fd-0afbc16b22a5","ios":"levelo://app?vid=b610de34-0f16-4641-88fd-0afbc16b22a5"},"vehicle_type_id":"4","last_reported":1726251110,"current_range_meters":19600,"station_id":"ce4bhnh2rcd13ifvqgug","pricing_plan_id":"cebpf4jnsgd1na2vs0mg"},{"bike_id":"0a79b86d-b693-4299-8dc2-128f7a49bf0f","system_id":"levelo_inurba_marseille","lat":43.24552,"lon":5.39535,"is_reserved":false,"is_disabled":false,"rental_uris":{"android":"levelo://app?vid=0a79b86d-b693-4299-8dc2-128f7a49bf0f","ios":"levelo://app?vid=0a79b86d-b693-4299-8dc2-128f7a49bf0f"},"vehicle_type_id":"4","last_reported":1726251110,"current_range_meters":11200,"station_id":"ce4bhlp2rcd13ifvqgjg","pricing_plan_id":"cebpf4jnsgd1na2vs0mg"},{"bike_id":"ef43a975-391f-4dac-9815-f28eb4eda430","system_id":"levelo_inurba_marseille","lat":43.28159,"lon":5.42645,"is_reserved":false,"is_disabled":false,"rental_uris":{"android":"levelo://app?vid=ef43a975-391f-4dac-9815-f28eb4eda430","ios":"levelo://app?vid=ef43a975-391f-4dac-9815-f28eb4eda430"},"vehicle_type_id":"4","last_reported":1726251110,"current_range_meters":38800,"station_id":"ce4bhnh2rcd13ifvqgug","pricing_plan_id":"cebpf4jnsgd1na2vs0mg"},{"bike_id":"26afe759-2001-4462-84aa-106146ecbe64","system_id":"levelo_inurba_marseille","lat":43.25011,"lon":5.38934,"is_reserved":false,"is_disabled":false,"rental_uris":{"android":"levelo://app?vid=26afe759-2001-4462-84aa-106146ecbe64","ios":"levelo://app?vid=26afe759-2001-4462-84aa-106146ecbe64"},"vehicle_type_id":"4","last_reported":1726251110,"current_range_meters":38800,"station_id":"ce4bhgp2rcd13ifvqfd0","pricing_plan_id":"cebpf4jnsgd1na2vs0mg"},{"bike_id":"58900521-f788-4090-90d4-8129e5641ef0","system_id":"levelo_inurba_marseille","lat":43.28619,"lon":5.35102,"is_reserved":false,"is_disabled":false,"rental_uris":{"android":"levelo://app?vid=58900521-f788-4090-90d4-8129e5641ef0","ios":"levelo://app?vid=58900521-f788-4090-90d4-8129e5641ef0"},"vehicle_type_id":"4","last_reported":1726251110,"current_range_meters":26800,"station_id":"ce4bhch2rcd13ifvqeug","pricing_plan_id":"cebpf4jnsgd1na2vs0mg"},{"bike_id":"ead487be-7728-45bb-a346-58e3c6b707ce","system_id":"levelo_inurba_marseille","lat":43.2707,"lon":5.42277,"is_reserved":false,"is_disabled":false,"rental_uris":{"android":"levelo://app?vid=ead487be-7728-45bb-a346-58e3c6b707ce","ios":"levelo://app?vid=ead487be-7728-45bb-a346-58e3c6b707ce"},"vehicle_type_id":"4","last_reported":1726251110,"current_range_meters":4800,"station_id":"ce4bhk92rcd13ifvqgb0","pricing_plan_id":"cebpf4jnsgd1na2vs0mg"},{"bike_id":"d0108df0-44aa-4ec3-a393-64bc3498694e","system_id":"levelo_inurba_marseille","lat":43.25086,"lon":5.3952,"is_reserved":false,"is_disabled":false,"rental_uris":{"android":"levelo://app?vid=d0108df0-44aa-4ec3-a393-64bc3498694e","ios":"levelo://app?vid=d0108df0-44aa-4ec3-a393-64bc3498694e"},"vehicle_type_id":"4","last_reported":1726251110,"current_range_meters":22400,"station_id":"ce4bhm12rcd13ifvqgkg","pricing_plan_id":"cebpf4jnsgd1na2vs0mg"},{"bike_id":"3f12e812-178c-4f68-b24c-9a13e7ee0557","system_id":"levelo_inurba_marseille","lat":43.27071,"lon":5.42275,"is_reserved":false,"is_disabled":false,"rental_uris":{"android":"levelo://app?vid=3f12e812-178c-4f68-b24c-9a13e7ee0557","ios":"levelo://app?vid=3f12e812-178c-4f68-b24c-9a13e7ee0557"},"vehicle_type_id":"4","last_reported":1726251110,"current_range_meters":38800,"station_id":"ce4bhk92rcd13ifvqgb0","pricing_plan_id":"cebpf4jnsgd1na2vs0mg"},{"bike_id":"0c2d2508-ae01-4c37-b02f-a70afe888c48","system_id":"levelo_inurba_marseille","lat":43.30945,"lon":5.39023,"is_reserved":false,"is_disabled":false,"rental_uris":{"android":"levelo://app?vid=0c2d2508-ae01-4c37-b02f-a70afe888c48","ios":"levelo://app?vid=0c2d2508-ae01-4c37-b02f-a70afe888c48"},"vehicle_type_id":"4","last_reported":1726251110,"current_range_meters":28000,"station_id":"ce4bgup2rcd13ifvqco0","pricing_plan_id":"cebpf4jnsgd1na2vs0mg"},{"bike_id":"784578b7-14c5-4169-822a-f33c376cf7ff","system_id":"levelo_inurba_marseille","lat":43.28932,"lon":5.38409,"is_reserved":false,"is_disabled":false,"rental_uris":{"android":"levelo://app?vid=784578b7-14c5-4169-822a-f33c376cf7ff","ios":"levelo://app?vid=784578b7-14c5-4169-822a-f33c376cf7ff"},"vehicle_type_id":"4","last_reported":1726251110,"current_range_meters":11200,"station_id":"ce4bh612rcd13ifvqe6g","pricing_plan_id":"cebpf4jnsgd1na2vs0mg"},{"bike_id":"b87e871b-ed1c-4253-b1f1-06b8c4c6810f","system_id":"levelo_inurba_marseille","lat":43.29558,"lon":5.42294,"is_reserved":false,"is_disabled":false,"rental_uris":{"android":"levelo://app?vid=b87e871b-ed1c-4253-b1f1-06b8c4c6810f","ios":"levelo://app?vid=b87e871b-ed1c-4253-b1f1-06b8c4c6810f"},"vehicle_type_id":"4","last_reported":1726251110,"current_range_meters":9200,"station_id":"ce4bhph2rcd13ifvqheg","pricing_plan_id":"cebpf4jnsgd1na2vs0mg"},{"bike_id":"681bf72c-9439-40a1-ae22-c00f051d940d","system_id":"levelo_inurba_marseille","lat":43.30195,"lon":5.36628,"is_reserved":false,"is_disabled":false,"rental_uris":{"android":"levelo://app?vid=681bf72c-9439-40a1-ae22-c00f051d940d","ios":"levelo://app?vid=681bf72c-9439-40a1-ae22-c00f051d940d"},"vehicle_type_id":"4","last_reported":1726251110,"current_range_meters":24400,"station_id":"ce4bgrh2rcd13ifvqc8g","pricing_plan_id":"cebpf4jnsgd1na2vs0mg"},{"bike_id":"df3646cf-db27-47e6-8351-fb246d7c6f44","system_id":"levelo_inurba_marseille","lat":43.23192,"lon":5.35556,"is_reserved":false,"is_disabled":false,"rental_uris":{"android":"levelo://app?vid=df3646cf-db27-47e6-8351-fb246d7c6f44","ios":"levelo://app?vid=df3646cf-db27-47e6-8351-fb246d7c6f44"},"vehicle_type_id":"4","last_reported":1726251110,"current_range_meters":2000,"station_id":"ce4bhu92rcd13ifvqi70","pricing_plan_id":"cebpf4jnsgd1na2vs0mg"},{"bike_id":"9a12ba05-461d-45f8-9475-481b65dac75d","system_id":"levelo_inurba_marseille","lat":43.23157,"lon":5.43713,"is_reserved":false,"is_disabled":false,"rental_uris":{"android":"levelo://app?vid=9a12ba05-461d-45f8-9475-481b65dac75d","ios":"levelo://app?vid=9a12ba05-461d-45f8-9475-481b65dac75d"},"vehicle_type_id":"4","last_reported":1726251110,"current_range_meters":28800,"station_id":"ce4bhn12rcd13ifvqgqg","pricing_plan_id":"cebpf4jnsgd1na2vs0mg"},{"bike_id":"7d09dcd1-5083-4ea0-99f8-9498346e71c4","system_id":"levelo_inurba_marseille","lat":43.289703,"lon":5.365481,"is_reserved":false,"is_disabled":false,"rental_uris":{"android":"levelo://app?vid=7d09dcd1-5083-4ea0-99f8-9498346e71c4","ios":"levelo://app?vid=7d09dcd1-5083-4ea0-99f8-9498346e71c4"},"vehicle_type_id":"4","last_reported":1726251110,"current_range_meters":29600,"station_id":"ce4bhc92rcd13ifvqetg","pricing_plan_id":"cebpf4jnsgd1na2vs0mg"},{"bike_id":"e804a032-9e0b-42e4-8044-fd66eb3e673c","system_id":"levelo_inurba_marseille","lat":43.29417,"lon":5.38636,"is_reserved":false,"is_disabled":false,"rental_uris":{"android":"levelo://app?vid=e804a032-9e0b-42e4-8044-fd66eb3e673c","ios":"levelo://app?vid=e804a032-9e0b-42e4-8044-fd66eb3e673c"},"vehicle_type_id":"4","last_reported":1726251110,"current_range_meters":38000,"station_id":"ce4bh2h2rcd13ifvqdh0","pricing_plan_id":"cebpf4jnsgd1na2vs0mg"},