{"last_updated":1700384789,"ttl":30,"version":"2.2","data":{"bikes":[{"bike_id":"10e0837a-c91d-4312-ac05-b696b4b9e22e","system_id":"levelo_inurba_marseille","lat":43.312239,"lon":5.368562,"is_reserved":false,"is_disabled":false,"rental_uris":{"android":"levelo://app?vid=10e0837a-c91d-4312-ac05-b696b4b9e22e","ios":"levelo://app?vid=10e0837a-c91d-4312-ac05-b696b4b9e22e"},"vehicle_type_id":"4","last_reported":1700384789,"current_range_meters":12000,"station_id":"ce4bgl92rcd13ifvqbq0","pricing_plan_id":"free"},{"bike_id":"799fa044-789d-4cdf-b347-a3909665b9d5","system_id":"levelo_inurba_marseille","lat":43.314811,"lon":5.373103,"is_reserved":false,"is_disabled":false,"rental_uris":{"android":"levelo://app?vid=799fa044-789d-4cdf-b347-a3909665b9d5","ios":"levelo://app?vid=799fa044-789d-4cdf-b347-a3909665b9d5"},"vehicle_type_id":"4","last_reported":1700384789,"current_range_meters":24000,"station_id":"ce4bgt12rcd13ifvqcd0","pricing_plan_id":"free"},{"bike_id":"3475d204-43b6-43d9-b615-ca1d0d58200e","system_id":"levelo_inurba_marseille","lat":43.30679,"lon":5.3679,"is_reserved":false,"is_disabled":false,"rental_uris":{"android":"levelo://app?vid=3475d204-43b6-43d9-b615-ca1d0d58200e","ios":"levelo://app?vid=3475d204-43b6-43d9-b615-ca1d0d58200e"},"vehicle_type_id":"4","last_reported":1700384789,"current_range_meters":11600,"station_id":"","pricing_plan_id":"free"},{"bike_id":"d4b8beac-e21d-4a32-bc13-6a5c65e2b33e","system_id":"levelo_inurba_marseille","lat":43.319935,"lon":5.381699,"is_reserved":false,"is_disabled":false,"rental_uris":{"android":"levelo://app?vid=d4b8beac-e21d-4a32-bc13-6a5c65e2b33e","ios":"levelo://app?vid=d4b8beac-e21d-4a32-bc13-6a5c65e2b33e"},"vehicle_type_id":"4","last_reported":1700384789,"current_range_meters":25200,"station_id":"ce4bhr12rcd13ifvqhpg","pricing_plan_id":"free"},{"bike_id":"607819cf-a4fa-4b55-885d-29b97af7d346","system_id":"levelo_inurba_marseille","lat":43.30553,"lon":5.36697,"is_reserved":false,"is_disabled":false,"rental_uris":{"android":"levelo://app?vid=607819cf-a4fa-4b55-885d-29b97af7d346","ios":"levelo://app?vid=607819cf-a4fa-4b55-885d-29b97af7d346"},"vehicle_type_id":"4","last_reported":1700384789,"current_range_meters":0,"station_id":"ce4bgrp2rcd13ifvqc9g","pricing_plan_id":"free"},{"bike_id":"09ccbac6-0f01-4cfb-8bb8-da5484277d5c","system_id":"levelo_inurba_marseille","lat":43.31952,"lon":5.371,"is_reserved":false,"is_disabled":false,"rental_uris":{"android":"levelo://app?vid=09ccbac6-0f01-4cfb-8bb8-da5484277d5c","ios":"levelo://app?vid=09ccbac6-0f01-4cfb-8bb8-da5484277d5c"},"vehicle_type_id":"4","last_reported":1700384789,"current_range_meters":1200,"station_id":"","pricing_plan_id":"free"},{"bike_id":"719d0f62-26e0-43a6-9b68-0589c5ea14c8","system_id":"levelo_inurba_marseille","lat":43.305706,"lon":5.365654,"is_reserved":false,"is_disabled":false,"rental_uris":{"android":"levelo://app?vid=719d0f62-26e0-43a6-9b68-0589c5ea14c8","ios":"levelo://app?vid=719d0f62-26e0-43a6-9b68-0589c5ea14c8"},"vehicle_type_id":"4","last_reported":1700384789,"current_range_meters":4400,"station_id":"ce4bgs12rcd13ifvqcag","pricing_plan_id":"free"},{"bike_id":"14cbc7f4-48b9-447b-916a-617e037a97d3","system_id":"levelo_inurba_marseille","lat":43.305989,"lon":5.37225,"is_reserved":false,"is_disabled":false,"rental_uris":{"android":"levelo://app?vid=14cbc7f4-48b9-447b-916a-617e037a97d3","ios":"levelo://app?vid=14cbc7f4-48b9-447b-916a-617e037a97d3"},"vehicle_type_id":"4","last_reported":1700384789,"current_range_meters":15600,"station_id":"ce4bgqh2rcd13ifvqc4g","pricing_plan_id":"free"},{"bike_id":"bb470fd6-a73a-4ec9-bacf-ed403c683c67","system_id":"levelo_inurba_marseille","lat":43.305989,"lon":5.37225,"is_reserved":false,"is_disabled":false,"rental_uris":{"android":"levelo://app?vid=bb470fd6-a73a-4ec9-bacf-ed403c683c67","ios":"levelo://app?vid=bb470fd6-a73a-4ec9-bacf-ed403c683c67"},"vehicle_type_id":"4","last_reported":1700384789,"current_range_meters":2000,"station_id":"ce4bgqh2rcd13ifvqc4g","pricing_plan_id":"free"},{"bike_id":"3eb74c67-99eb-4ab3-bef1-4f9fbde77b5a","system_id":"levelo_inurba_marseille","lat":43.305989,"lon":5.37225,"is_reserved":false,"is_disabled":false,"rental_uris":{"android":"levelo://app?vid=3eb74c67-99eb-4ab3-bef1-4f9fbde77b5a","ios":"levelo://app?vid=3eb74c67-99eb-4ab3-bef1-4f9fbde77b5a"},"vehicle_type_id":"4","last_reported":1700384789,"current_range_meters":31200,"station_id":"ce4bgqh2rcd13ifvqc4g","pricing_plan_id":"free"},{"bike_id":"dcbf9c93-0758-41cf-8699-4ede01d69428","system_id":"levelo_inurba_marseille","lat":43.30816,"lon":5.376504,"is_reserved":false,"is_disabled":false,"rental_uris":{"android":"levelo://app?vid=dcbf9c93-0758-41cf-8699-4ede01d69428","ios":"levelo://app?vid=dcbf9c93-0758-41cf-8699-4ede01d69428"},"vehicle_type_id":"4","last_reported":1700384789,"current_range_meters":12000,"station_id":"ce4bgv92rcd13ifvqcq0","pricing_plan_id":"free"},{"bike_id":"184737ea-30ec-475d-964a-e94f53249e42","system_id":"levelo_inurba_marseille","lat":43.307945,"lon":5.376487,"is_reserved":false,"is_disabled":false,"rental_uris":{"android":"levelo://app?vid=184737ea-30ec-475d-964a-e94f53249e42","ios":"levelo://app?vid=184737ea-30ec-475d-964a-e94f53249e42"},"vehicle_type_id":"4","last_reported":1700384789,"current_range_meters":28400,"station_id":"ce4bgv92rcd13ifvqcq0","pricing_plan_id":"free"},{"bike_id":"68149713-0167-4f17-95ab-db14393f9d1a","system_id":"levelo_inurba_marseille","lat":43.307945,"lon":5.376487,"is_reserved":false,"is_disabled":false,"rental_uris":{"android":"levelo://app?vid=68149713-0167-4f17-95ab-db14393f9d1a","ios":"levelo://app?vid=68149713-0167-4f17-95ab-db14393f9d1a"},"vehicle_type_id":"4","last_reported":1700384789,"current_range_meters":30800,"station_id":"ce4bgv92rcd13ifvqcq0","pricing_plan_id":"free"},{"bike_id":"2b4fc9a2-1c6c-4ec5-a190-61f63ffc5492","system_id":"levelo_inurba_marseille","lat":43.307945,"lon":5.376487,"is_reserved":false,"is_disabled":false,"rental_uris":{"android":"levelo://app?vid=2b4fc9a2-1c6c-4ec5-a190-61f63ffc5492","ios":"levelo://app?vid=2b4fc9a2-1c6c-4ec5-a190-61f63ffc5492"},"vehicle_type_id":"4","last_reported":1700384789,"current_range_meters":22400,"station_id":"ce4bgv92rcd13ifvqcq0","pricing_plan_id":"free"},{"bike_id":"1e04415b-3b52-4cfa-88c9-3795153e0d28","system_id":"levelo_inurba_marseille","lat":43.307945,"lon":5.376487,"is_reserved":false,"is_disabled":false,"rental_uris":{"android":"levelo://app?vid=1e04415b-3b52-4cfa-88c9-3795153e0d28","ios":"levelo://app?vid=1e04415b-3b52-4cfa-88c9-3795153e0d28"},"vehicle_type_id":"4","last_reported":1700384789,"current_range_meters":26800,"station_id":"ce4bgv92rcd13ifvqcq0","pricing_plan_id":"free"},{"bike_id":"621c6813-1569-4a9e-8f10-4a24632f0f5f","system_id":"levelo_inurba_marseille","lat":43.30774,"lon":5.37651,"is_reserved":false,"is_disabled":false,"rental_uris":{"android":"levelo://app?vid=621c6813-1569-4a9e-8f10-4a24632f0f5f","ios":"levelo://app?vid=621c6813-1569-4a9e-8f10-4a24632f0f5f"},"vehicle_type_id":"4","last_reported":1700384789,"current_range_meters":29200,"station_id":"ce4bgv92rcd13ifvqcq0","pricing_plan_id":"free"},{"bike_id":"54b29839-14db-4da8-80cb-74ee93185d65","system_id":"levelo_inurba_marseille","lat":43.307945,"lon":5.376487,"is_reserved":false,"is_disabled":false,"rental_uris":{"android":"levelo://app?vid=54b29839-14db-4da8-80cb-74ee93185d65","ios":"levelo://app?vid=54b29839-14db-4da8-80cb-74ee93185d65"},"vehicle_type_id":"4","last_reported":1700384789,"current_range_meters":31600,"station_id":"ce4bgv92rcd13ifvqcq0","pricing_plan_id":"free"},{"bike_id":"ebf2bb86-5bd7-4f58-ae9f-d2f3659a0918","system_id":"levelo_inurba_marseille","lat":43.317075,"lon":5.377367,"is_reserved":false,"is_disabled":false,"rental_uris":{"android":"levelo://app?vid=ebf2bb86-5bd7-4f58-ae9f-d2f3659a0918","ios":"levelo://app?vid=ebf2bb86-5bd7-4f58-ae9f-d2f3659a0918"},"vehicle_type_id":"4","last_reported":1700384789,"current_range_meters":14800,"station_id":"ce4bgth2rcd13ifvqch0","pricing_plan_id":"free"},{"bike_id":"c2086012-8044-4ee2-8c5b-f5d147b13b4f","system_id":"levelo_inurba_marseille","lat":43.30304,"lon":5.368987,"is_reserved":false,"is_disabled":false,"rental_uris":{"android":"levelo://app?vid=c2086012-8044-4ee2-8c5b-f5d147b13b4f","ios":"levelo://app?vid=c2086012-8044-4ee2-8c5b-f5d147b13b4f"},"vehicle_type_id":"4","last_reported":1700384789,"current_range_meters":26800,"station_id":"ce4bgqh2rcd13ifvqc5g","pricing_plan_id":"free"},{"bike_id":"4b8fd497-8a8e-403e-aad1-ba5832ca1ec6","system_id":"levelo_inurba_marseille","lat":43.304606,"lon":5.379026,"is_reserved":false,"is_disabled":false,"rental_uris":{"android":"levelo://app?vid=4b8fd497-8a8e-403e-aad1-ba5832ca1ec6","ios":"levelo://app?vid=4b8fd497-8a8e-403e-aad1-ba5832ca1ec6"},"vehicle_type_id":"4","last_reported":1700384789,"current_range_meters":17600,"station_id":"ce4bgup2rcd13ifvqcn0","pricing_plan_id":"free"},{"bike_id":"c89d295a-85f6-4918-bcca-c3e343b8514b","system_id":"levelo_inurba_marseille","lat":43.304606,"lon":5.379026,"is_reserved":false,"is_disabled":false,"rental_uris":{"android":"levelo://app?vid=c89d295a-85f6-4918-bcca-c3e343b8514b","ios":"levelo://app?vid=c89d295a-85f6-4918-bcca-c3e343b8514b"},"vehicle_type_id":"4","last_reported":1700384789,"current_range_meters":31200,"station_id":"ce4bgup2rcd13ifvqcn0","pricing_plan_id":"free"},{"bike_id":"98e8b6d6-7502-4ab9-918c-c2b3b1bde9be","system_id":"levelo_inurba_marseille","lat":43.304606,"lon":5.379026,"is_reserved":false,"is_disabled":false,"rental_uris":{"android":"levelo://app?vid=98e8b6d6-7502-4ab9-918c-c2b3b1bde9be","ios":"levelo://app?vid=98e8b6d6-7502-4ab9-918c-c2b3b1bde9be"},"vehicle_type_id":"4","last_reported":1700384789,"current_range_meters":31200,"station_id":"ce4bgup2rcd13ifvqcn0","pricing_plan_id":"free"},{"bike_id":"e21c2867-58fe-412d-804f-e18a1cea66e7","system_id":"levelo_inurba_marseille","lat":43.304606,"lon":5.379026,"is_reserved":false,"is_disabled":false,"rental_uris":{"android":"levelo://app?vid=e21c2867-58fe-412d-804f-e18a1cea66e7","ios":"levelo://app?vid=e21c2867-58fe-412d-804f-e18a1cea66e7"},"vehicle_type_id":"4","last_reported":1700384789,"current_range_meters":30400,"station_id":"ce4bgup2rcd13ifvqcn0","pricing_plan_id":"free"},{"bike_id":"793bd78b-5063-4793-9678-c60d77847e13","system_id":"levelo_inurba_marseille","lat":43.302784,"lon":5.377158,"is_reserved":false,"is_disabled":false,"rental_uris":{"android":"levelo://app?vid=793bd78b-5063-4793-9678-c60d77847e13","ios":"levelo://app?vid=793bd78b-5063-4793-9678-c60d77847e13"},"vehicle_type_id":"4","last_reported":1700384789,"current_range_meters":25600,"station_id":"ce4bguh2rcd13ifvqcj0","pricing_plan_id":"free"},{"bike_id":"8ff88adf-5ea2-4f0b-b773-361ffa633484","system_id":"levelo_inurba_marseille","lat":43.302784,"lon":5.377158,"is_reserved":false,"is_disabled":false,"rental_uris":{"android":"levelo://app?vid=8ff88adf-5ea2-4f0b-b773-361ffa633484","ios":"levelo://app?vid=8ff88adf-5ea2-4f0b-b773-361ffa633484"},"vehicle_type_id":"4","last_reported":1700384789,"current_range_meters":24800,"station_id":"ce4bguh2rcd13ifvqcj0","pricing_plan_id":"free"},{"bike_id":"752146dd-b916-4cde-a656-1d7537983ebe","system_id":"levelo_inurba_marseille","lat":43.302784,"lon":5.377158,"is_reserved":false,"is_disabled":false,"rental_uris":{"android":"levelo://app?vid=752146dd-b916-4cde-a656-1d7537983ebe","ios":"levelo://app?vid=752146dd-b916-4cde-a656-1d7537983ebe"},"vehicle_type_id":"4","last_reported":1700384789,"current_range_meters":26800,"station_id":"ce4bguh2rcd13ifvqcj0","pricing_plan_id":"free"},{"bike_id":"5da9dea2-bd9f-4746-b637-56e44ea9e587","system_id":"levelo_inurba_marseille","lat":43.298489,"lon":5.362942,"is_reserved":false,"is_disabled":false,"rental_uris":{"android":"levelo://app?vid=5da9dea2-bd9f-4746-b637-56e44ea9e587","ios":"levelo://app?vid=5da9dea2-bd9f-4746-b637-56e44ea9e587"},"vehicle_type_id":"4","last_reported":1700384789,"current_range_meters":0,"station_id":"","pricing_plan_id":"free"},{"bike_id":"5e6e75b6-7e48-465e-9a25-74236abaa939","system_id":"levelo_inurba_marseille","lat":43.298433,"lon":5.362774,"is_reserved":false,"is_disabled":false,"rental_uris":{"android":"levelo://app?vid=5e6e75b6-7e48-465e-9a25-74236abaa939","ios":"levelo://app?vid=5e6e75b6-7e48-465e-9a25-74236abaa939"},"vehicle_type_id":"4","last_reported":1700384789,"current_range_meters":26400,"station_id":"ce4bgpp2rcd13ifvqc3g","pricing_plan_id":"free"},{"bike_id":"22e3ead1-8760-477f-ac72-dbef755bd087","system_id":"levelo_inurba_marseille","lat":43.311722,"lon":5.387247,"is_reserved":false,"is_disabled":false,"rental_uris":{"android":"levelo://app?vid=22e3ead1-8760-477f-ac72-dbef755bd087","ios":"levelo://app?vid=22e3ead1-8760-477f-ac72-dbef755bd087"},"vehicle_type_id":"4","last_reported":1700384789,"current_range_meters":29200,"station_id":"ce4bgv12rcd13ifvqcp0","pricing_plan_id":"free"},{"bike_id":"478752d1-9aa7-4c56-bf90-4563b97f5f63","system_id":"levelo_inurba_marseille","lat":43.311722,"lon":5.387247,"is_reserved":false,"is_disabled":false,"rental_uris":{"android":"levelo://app?vid=478752d1-9aa7-4c56-bf90-4563b97f5f63","ios":"levelo://app?vid=478752d1-9aa7-4c56-bf90-4563b97f5f63"},"vehicle_type_id":"4","last_reported":1700384789,"current_range_meters":31200,"station_id":"ce4bgv12rcd13ifvqcp0","pricing_plan_id":"free"},{"bike_id":"842acf58-fbe4-45bd-8672-072917e8c3b0","system_id":"levelo_inurba_marseille","lat":43.311722,"lon":5.387247,"is_reserved":false,"is_disabled":false,"rental_uris":{"android":"levelo://app?vid=842acf58-fbe4-45bd-8672-072917e8c3b0","ios":"levelo://app?vid=842acf58-fbe4-45bd-8672-072917e8c3b0"},"vehicle_type_id":"4","last_reported":1700384789,"current_range_meters":27200,"station_id":"ce4bgv12rcd13ifvqcp0","pricing_plan_id":"free"},{"bike_id":"5f835015-76f3-4c40-8496-53d498110d81","system_id":"levelo_inurba_marseille","lat":43.297794,"lon":5.370888,"is_reserved":false,"is_disabled":false,"rental_uris":{"android":"levelo://app?vid=5f835015-76f3-4c40-8496-53d498110d81","ios":"levelo://app?vid=5f835015-76f3-4c40-8496-53d498110d81"},"vehicle_type_id":"4","last_reported":1700384789,"current_range_meters":17600,"station_id":"ce4bgop2rcd13ifvqc1g","pricing_plan_id":"free"},{"bike_id":"a0a82ed8-52c0-4e04-9f16-b09fb5a0691d","system_id":"levelo_inurba_marseille","lat":43.297794,"lon":5.370888,"is_reserved":false,"is_disabled":false,"rental_uris":{"android":"levelo://app?vid=a0a82ed8-52c0-4e04-9f16-b09fb5a0691d","ios":"levelo://app?vid=a0a82ed8-52c0-4e04-9f16-b09fb5a0691d"},"vehicle_type_id":"4","last_reported":1700384789,"current_range_meters":23200,"station_id":"ce4bgop2rcd13ifvqc1g","pricing_plan_id":"free"},{"bike_id":"963c6f82-1a37-49eb-8d96-1c051a8be679","system_id":"levelo_inurba_marseille","lat":43.297774,"lon":5.370875,"is_reserved":false,"is_disabled":false,"rental_uris":{"android":"levelo://app?vid=963c6f82-1a37-49eb-8d96-1c051a8be679","ios":"levelo://app?vid=963c6f82-1a37-49eb-8d96-1c051a8be679"},"vehicle_type_id":"4","last_reported":1700384789,"current_range_meters":28800,"station_id":"ce4bgop2rcd13ifvqc1g","pricing_plan_id":"free"},{"bike_id":"24429ee1-e7cc-41ae-a6e3-a93efcb14ac2","system_id":"levelo_inurba_marseille","lat":43.297163,"lon":5.365866,"is_reserved":false,"is_disabled":false,"rental_uris":{"android":"levelo://app?vid=24429ee1-e7cc-41ae-a6e3-a93efcb14ac2","ios":"levelo://app?vid=24429ee1-e7cc-41ae-a6e3-a93efcb14ac2"},"vehicle_type_id":"4","last_reported":1700384789,"current_range_meters":22800,"station_id":"ce4bgn12rcd13ifvqbt0","pricing_plan_id":"free"},{"bike_id":"bc26d6ef-b731-4787-8a8c-1ce8f6da8c79","system_id":"levelo_inurba_marseille","lat":43.297163,"lon":5.365866,"is_reserved":false,"is_disabled":false,"rental_uris":{"android":"levelo://app?vid=bc26d6ef-b731-4787-8a8c-1ce8f6da8c79","ios":"levelo://app?vid=bc26d6ef-b731-4787-8a8c-1ce8f6da8c79"},"vehicle_type_id":"4","last_reported":1700384789,"current_range_meters":23600,"station_id":"ce4bgn12rcd13ifvqbt0","pricing_plan_id":"free"},{"bike_id":"67d514fe-3911-466e-ab43-79e107183d7e","system_id":"levelo_inurba_marseille","lat":43.297163,"lon":5.365866,"is_reserved":false,"is_disabled":false,"rental_uris":{"android":"levelo://app?vid=67d514fe-3911-466e-ab43-79e107183d7e","ios":"levelo://app?vid=67d514fe-3911-466e-ab43-79e107183d7e"},"vehicle_type_id":"4","last_reported":1700384789,"current_range_meters":28800,"station_id":"ce4bgn12rcd13ifvqbt0","pricing_plan_id":"free"},{"bike_id":"60a7f6f9-6212-4e51-9320-5917a061ab53","system_id":"levelo_inurba_marseille","lat":43.296843,"lon":5.372883,"is_reserved":false,"is_disabled":false,"rental_uris":{"android":"levelo://app?vid=60a7f6f9-6212-4e51-9320-5917a061ab53","ios":"levelo://app?vid=60a7f6f9-6212-4e51-9320-5917a061ab53"},"vehicle_type_id":"4","last_reported":1700384789,"current_range_meters":3200,"station_id":"ce4bgk12rcd13ifvqbj0","pricing_plan_id":"free"},{"bike_id":"2a07802c-16d5-4104-9ab3-93ca6dd62601","system_id":"levelo_inurba_marseille","lat":43.29601,"lon":5.368027,"is_reserved":false,"is_disabled":false,"rental_uris":{"android":"levelo://app?vid=2a07802c-16d5-4104-9ab3-93ca6dd62601","ios":"levelo://app?vid=2a07802c-16d5-4104-9ab3-93ca6dd62601"},"vehicle_type_id":"4","last_reported":1700384789,"current_range_meters":27200,"station_id":"","pricing_plan_id":"free"},{"bike_id":"ef8ce7f4-d60a-48a6-8437-beb11e462419","system_id":"levelo_inurba_marseille","lat":43.296129,"lon":5.370777,"is_reserved":false,"is_disabled":false,"rental_uris":{"android":"levelo://app?vid=ef8ce7f4-d60a-48a6-8437-beb11e462419","ios":"levelo://app?vid=ef8ce7f4-d60a-48a6-8437-beb11e462419"},"vehicle_type_id":"4","last_reported":1700384789,"current_range_meters":23600,"station_id":"ce4bgnh2rcd13ifvqc0g","pricing_plan_id":"free"},{"bike_id":"28b40847-df91-44cd-aa2a-340a22fb6ffb","system_id":"levelo_inurba_marseille","lat":43.296131,"lon":5.370791,"is_reserved":false,"is_disabled":false,"rental_uris":{"android":"levelo://app?vid=28b40847-df91-44cd-aa2a-340a22fb6ffb","ios":"levelo://app?vid=28b40847-df91-44cd-aa2a-340a22fb6ffb"},"vehicle_type_id":"4","last_reported":1700384789,"current_range_meters":26400,"station_id":"ce4bgnh2rcd13ifvqc0g","pricing_plan_id":"free"},{"bike_id":"e7a37e8f-98cc-4c1d-b0fb-6436caf50ad3","system_id":"levelo_inurba_marseille","lat":43.296131,"lon":5.370773,"is_reserved":false,"is_disabled":false,"rental_uris":{"android":"levelo://app?vid=e7a37e8f-98cc-4c1d-b0fb-6436caf50ad3","ios":"levelo://app?vid=e7a37e8f-98cc-4c1d-b0fb-6436caf50ad3"},"vehicle_type_id":"4","last_reported":1700384789,"current_range_meters":26800,"station_id":"ce4bgnh2rcd13ifvqc0g","pricing_plan_id":"free"},{"bike_id":"d738e043-b6ff-4c2a-b463-60846861260e","system_id":"levelo_inurba_marseille","lat":43.29582,"lon":5.36748,"is_reserved":false,"is_disabled":false,"rental_uris":{"android":"levelo://app?vid=d738e043-b6ff-4c2a-b463-60846861260e","ios":"levelo://app?vid=d738e043-b6ff-4c2a-b463-60846861260e"},"vehicle_type_id":"4","last_reported":1700384789,"current_range_meters":16800,"station_id":"ce4bgph2rcd13ifvqc2g","pricing_plan_id":"free"},{"bike_id":"b8d19ce1-ccac-403a-aad8-682f4a86e250","system_id":"levelo_inurba_marseille","lat":43.296935,"lon":5.376544,"is_reserved":false,"is_disabled":false,"rental_uris":{"android":"levelo://app?vid=b8d19ce1-ccac-403a-aad8-682f4a86e250","ios":"levelo://app?vid=b8d19ce1-ccac-403a-aad8-682f4a86e250"},"vehicle_type_id":"4","last_reported":1700384789,"current_range_meters":28000,"station_id":"ce4bgkh2rcd13ifvqbl0","pricing_plan_id":"free"},{"bike_id":"54ee601d-24e3-4d05-adb5-5fe7f73b9eca","system_id":"levelo_inurba_marseille","lat":43.299028,"lon":5.381509,"is_reserved":false,"is_disabled":false,"rental_uris":{"android":"levelo://app?vid=54ee601d-24e3-4d05-adb5-5fe7f73b9eca","ios":"levelo://app?vid=54ee601d-24e3-4d05-adb5-5fe7f73b9eca"},"vehicle_type_id":"4","last_reported":1700384789,"current_range_meters":22800,"station_id":"ce4bgj12rcd13ifvqbc0","pricing_plan_id":"free"},{"bike_id":"94b837f2-5edb-4118-92be-19dd0d5317d5","system_id":"levelo_inurba_marseille","lat":43.299028,"lon":5.381509,"is_reserved":false,"is_disabled":false,"rental_uris":{"android":"levelo://app?vid=94b837f2-5edb-4118-92be-19dd0d5317d5","ios":"levelo://app?vid=94b837f2-5edb-4118-92be-19dd0d5317d5"},"vehicle_type_id":"4","last_reported":1700384789,"current_range_meters":31200,"station_id":"ce4bgj12rcd13ifvqbc0","pricing_plan_id":"free"},{"bike_id":"ddf71169-21f6-43b6-8e5f-58e917f9b1f7","system_id":"levelo_inurba_marseille","lat":43.299028,"lon":5.381509,"is_reserved":false,"is_disabled":false,"rental_uris":{"android":"levelo://app?vid=ddf71169-21f6-43b6-8e5f-58e917f9b1f7","ios":"levelo://app?vid=ddf71169-21f6-43b6-8e5f-58e917f9b1f7"},"vehicle_type_id":"4","last_reported":1700384789,"current_range_meters":25600,"station_id":"ce4bgj12rcd13ifvqbc0","pricing_plan_id":"free"},{"bike_id":"73a816a6-4719-4da5-9e5c-646de574676e","system_id":"levelo_inurba_marseille","lat":43.299028,"lon":5.381509,"is_reserved":false,"is_disabled":false,"rental_uris":{"android":"levelo://app?vid=73a816a6-4719-4da5-9e5c-646de574676e","ios":"levelo://app?vid=73a816a6-4719-4da5-9e5c-646de574676e"},"vehicle_type_id":"4","last_reported":1700384789,"current_range_meters":29600,"station_id":"ce4bgj12rcd13ifvqbc0","pricing_plan_id":"free"},{"bike_id":"0ac073e8-f3c8-4065-8eaa-8ab1ae03a3a6","system_id":"levelo_inurba_marseille","lat":43.309589,"lon":5.390258,"is_reserved":false,"is_disabled":false,"rental_uris":{"android":"levelo://app?vid=0ac073e8-f3c8-4065-8eaa-8ab1ae03a3a6","ios":"levelo://app?vid=0ac073e8-f3c8-4065-8eaa-8ab1ae03a3a6"},"vehicle_type_id":"4","last_reported":1700384789,"current_range_meters":7200,"station_id":"ce4bgup2rcd13ifvqco0","pricing_plan_id":"free"},{"bike_id":"8edb6020-1aa1-4df4-939c-891ee0a801fb","system_id":"levelo_inurba_marseille","lat":43.309589,"lon":5.390258,"is_reserved":false,"is_disabled":false,"rental_uris":{"android":"levelo://app?vid=8edb6020-1aa1-4df4-939c-891ee0a801fb","ios":"levelo://app?vid=8edb6020-1aa1-4df4-939c-891ee0a801fb"},"vehicle_type_id":"4","last_reported":1700384789,"current_range_meters":7600,"station_id":"ce4bgup2rcd13ifvqco0","pricing_plan_id":"free"},{"bike_id":"ca02bab2-4d25-47a1-afae-96c3f766ab2b","system_id":"levelo_inurba_marseille","lat":43.309589,"lon":5.390258,"is_reserved":false,"is_disabled":false,"rental_uris":{"android":"levelo://app?vid=ca02bab2-4d25-47a1-afae-96c3f766ab2b","ios":"levelo://app?vid=ca02bab2-4d25-47a1-afae-96c3f766ab2b"},"vehicle_type_id":"4","last_reported":1700384789,"current_range_meters":19200,"station_id":"ce4bgup2rcd13ifvqco0","pricing_plan_id":"free"},{"bike_id":"f1cf567a-2b65-44cf-812f-8690a7110496","system_id":"levelo_inurba_marseille","lat":43.295748,"lon":5.37522,"is_reserved":false,"is_disabled":false,"rental_uris":{"android":"levelo://app?vid=f1cf567a-2b65-44cf-812f-8690a7110496","ios":"levelo://app?vid=f1cf567a-2b65-44cf-812f-8690a7110496"},"vehicle_type_id":"4","last_reported":1700384789,"current_range_meters":30000,"station_id":"ce4bgh92rcd13ifvqb50","pricing_plan_id":"free"},{"bike_id":"67ffd28a-0325-489b-a10f-d90500122751","system_id":"levelo_inurba_marseille","lat":43.295748,"lon":5.37522,"is_reserved":false,"is_disabled":false,"rental_uris":{"android":"levelo://app?vid=67ffd28a-0325-489b-a10f-d90500122751","ios":"levelo://app?vid=67ffd28a-0325-489b-a10f-d90500122751"},"vehicle_type_id":"4","last_reported":1700384789,"current_range_meters":30400,"station_id":"ce4bgh92rcd13ifvqb50","pricing_plan_id":"free"},{"bike_id":"3e3e92fe-39b7-4933-99ff-3747b28b5d69","system_id":"levelo_inurba_marseille","lat":43.328154,"lon":5.380034,"is_reserved":false,"is_disabled":false,"rental_uris":{"android":"levelo://app?vid=3e3e92fe-39b7-4933-99ff-3747b28b5d69","ios":"levelo://app?vid=3e3e92fe-39b7-4933-99ff-3747b28b5d69"},"vehicle_type_id":"4","last_reported":1700384789,"current_range_meters":6800,"station_id":"","pricing_plan_id":"free"},{"bike_id":"cbd2bd05-2f4b-4386-928b-921274c0b105","system_id":"levelo_inurba_marseille","lat":43.296263,"lon":5.377094,"is_reserved":false,"is_disabled":false,"rental_uris":{"android":"levelo://app?vid=cbd2bd05-2f4b-4386-928b-921274c0b105","ios":"levelo://app?vid=cbd2bd05-2f4b-4386-928b-921274c0b105"},"vehicle_type_id":"4","last_reported":1700384789,"current_range_meters":800,"station_id":"ce4bgi92rcd13ifvqb90","pricing_plan_id":"free"},{"bike_id":"0fc6d203-9569-4949-8616-dadb6a3d762c","system_id":"levelo_inurba_marseille","lat":43.296263,"lon":5.377094,"is_reserved":false,"is_disabled":false,"rental_uris":{"android":"levelo://app?vid=0fc6d203-9569-4949-8616-dadb6a3d762c","ios":"levelo://app?vid=0fc6d203-9569-4949-8616-dadb6a3d762c"},"vehicle_type_id":"4","last_reported":1700384789,"current_range_meters":24000,"station_id":"ce4bgi92rcd13ifvqb90","pricing_plan_id":"free"},{"bike_id":"b5040dee-1e96-4bf7-b417-f6f0be499157","system_id":"levelo_inurba_marseille","lat":43.29609,"lon":5.37717,"is_reserved":false,"is_disabled":false,"rental_uris":{"android":"levelo://app?vid=b5040dee-1e96-4bf7-b417-f6f0be499157","ios":"levelo://app?vid=b5040dee-1e96-4bf7-b417-f6f0be499157"},"vehicle_type_id":"4","last_reported":1700384789,"current_range_meters":28400,"station_id":"ce4bgi92rcd13ifvqb90","pricing_plan_id":"free"},{"bike_id":"55ced206-3dd8-4767-bd2a-0d9ab879e673","system_id":"levelo_inurba_marseille","lat":43.2961,"lon":5.37725,"is_reserved":false,"is_disabled":false,"rental_uris":{"android":"levelo://app?vid=55ced206-3dd8-4767-bd2a-0d9ab879e673","ios":"levelo://app?vid=55ced206-3dd8-4767-bd2a-0d9ab879e673"},"vehicle_type_id":"4","last_reported":1700384789,"current_range_meters":26800,"station_id":"","pricing_plan_id":"free"},{"bike_id":"0efd73c1-ea36-4e21-a85e-c6f676d06c2f","system_id":"levelo_inurba_marseille","lat":43.299707,"lon":5.384859,"is_reserved":false,"is_disabled":false,"rental_uris":{"android":"levelo://app?vid=0efd73c1-ea36-4e21-a85e-c6f676d06c2f","ios":"levelo://app?vid=0efd73c1-ea36-4e21-a85e-c6f676d06c2f"},"vehicle_type_id":"4","last_reported":1700384789,"current_range_meters":30800,"station_id":"ce4bgj92rcd13ifvqbd0","pricing_plan_id":"free"},{"bike_id":"81a177fa-5230-4133-8d30-9db13e551351","system_id":"levelo_inurba_marseille","lat":43.29972,"lon":5.38482,"is_reserved":false,"is_disabled":false,"rental_uris":{"android":"levelo://app?vid=81a177fa-5230-4133-8d30-9db13e551351","ios":"levelo://app?vid=81a177fa-5230-4133-8d30-9db13e551351"},"vehicle_type_id":"4","last_reported":1700384789,"current_range_meters":28400,"station_id":"ce4bgj92rcd13ifvqbd0","pricing_plan_id":"free"},{"bike_id":"f10dfecb-ce6c-4985-ac2f-62b404aa214e","system_id":"levelo_inurba_marseille","lat":43.299717,"lon":5.384845,"is_reserved":false,"is_disabled":false,"rental_uris":{"android":"levelo://app?vid=f10dfecb-ce6c-4985-ac2f-62b404aa214e","ios":"levelo://app?vid=f10dfecb-ce6c-4985-ac2f-62b404aa214e"},"vehicle_type_id":"4","last_reported":1700384789,"current_range_meters":29600,"station_id":"ce4bgj92rcd13ifvqbd0","pricing_plan_id":"free"},{"bike_id":"602c9ecf-908f-4943-a49b-2ef4b6ccfa71","system_id":"levelo_inurba_marseille","lat":43.299717,"lon":5.384845,"is_reserved":false,"is_disabled":false,"rental_uris":{"android":"levelo://app?vid=602c9ecf-908f-4943-a49b-2ef4b6ccfa71","ios":"levelo://app?vid=602c9ecf-908f-4943-a49b-2ef4b6ccfa71"},"vehicle_type_id":"4","last_reported":1700384789,"current_range_meters":28400,"station_id":"ce4bgj92rcd13ifvqbd0","pricing_plan_id":"free"},{"bike_id":"bd872382-a632-4606-8043-1c92fe1f0a13","system_id":"levelo_inurba_marseille","lat":43.295279,"lon":5.375048,"is_reserved":false,"is_disabled":false,"rental_uris":{"android":"levelo://app?vid=bd872382-a632-4606-8043-1c92fe1f0a13","ios":"levelo://app?vid=bd872382-a632-4606-8043-1c92fe1f0a13"},"vehicle_type_id":"4","last_reported":1700384789,"current_range_meters":28400,"station_id":"ce4bgkp2rcd13ifvqbmg","pricing_plan_id":"free"},{"bike_id":"e145a3f7-00ac-4f8f-bfe5-435bc38ccaf7","system_id":"levelo_inurba_marseille","lat":43.293801,"lon":5.363066,"is_reserved":false,"is_disabled":false,"rental_uris":{"android":"levelo://app?vid=e145a3f7-00ac-4f8f-bfe5-435bc38ccaf7","ios":"levelo://app?vid=e145a3f7-00ac-4f8f-bfe5-435bc38ccaf7"},"vehicle_type_id":"4","last_reported":1700384789,"current_range_meters":24400,"station_id":"","pricing_plan_id":"free"},{"bike_id":"4eef38cc-64cf-4f4d-8d5b-99bd9d3b1b37","system_id":"levelo_inurba_marseille","lat":43.293209,"lon":5.371109,"is_reserved":false,"is_disabled":false,"rental_uris":{"android":"levelo://app?vid=4eef38cc-64cf-4f4d-8d5b-99bd9d3b1b37","ios":"levelo://app?vid=4eef38cc-64cf-4f4d-8d5b-99bd9d3b1b37"},"vehicle_type_id":"4","last_reported":1700384789,"current_range_meters":25200,"station_id":"","pricing_plan_id":"free"},{"bike_id":"c06b8511-e132-44fc-a8b8-3426464752df","system_id":"levelo_inurba_marseille","lat":43.292749,"lon":5.368402,"is_reserved":false,"is_disabled":false,"rental_uris":{"android":"levelo://app?vid=c06b8511-e132-44fc-a8b8-3426464752df","ios":"levelo://app?vid=c06b8511-e132-44fc-a8b8-3426464752df"},"vehicle_type_id":"4","last_reported":1700384789,"current_range_meters":31200,"station_id":"ce4bhbp2rcd13ifvqesg","pricing_plan_id":"free"},{"bike_id":"56be962e-e98f-4d47-83bc-1182b3e9b93c","system_id":"levelo_inurba_marseille","lat":43.292978,"lon":5.371698,"is_reserved":false,"is_disabled":false,"rental_uris":{"android":"levelo://app?vid=56be962e-e98f-4d47-83bc-1182b3e9b93c","ios":"levelo://app?vid=56be962e-e98f-4d47-83bc-1182b3e9b93c"},"vehicle_type_id":"4","last_reported":1700384789,"current_range_meters":24800,"station_id":"ce4bgh92rcd13ifvqb40","pricing_plan_id":"free"},{"bike_id":"2880a9a6-6e77-4cac-83b5-6c395804f18e","system_id":"levelo_inurba_marseille","lat":43.293742,"lon":5.378526,"is_reserved":false,"is_disabled":false,"rental_uris":{"android":"levelo://app?vid=2880a9a6-6e77-4cac-83b5-6c395804f18e","ios":"levelo://app?vid=2880a9a6-6e77-4cac-83b5-6c395804f18e"},"vehicle_type_id":"4","last_reported":1700384789,"current_range_meters":16400,"station_id":"ce4bgjh2rcd13ifvqbf0","pricing_plan_id":"free"},{"bike_id":"ef2afc53-7205-4aca-9b10-473961ed9f50","system_id":"levelo_inurba_marseille","lat":43.29371,"lon":5.37849,"is_reserved":false,"is_disabled":false,"rental_uris":{"android":"levelo://app?vid=ef2afc53-7205-4aca-9b10-473961ed9f50","ios":"levelo://app?vid=ef2afc53-7205-4aca-9b10-473961ed9f50"},"vehicle_type_id":"4","last_reported":1700384789,"current_range_meters":0,"station_id":"","pricing_plan_id":"free"},{"bike_id":"6d63702f-b0f7-4dc9-94e3-982cfdc26e8f","system_id":"levelo_inurba_marseille","lat":43.29368,"lon":5.37861,"is_reserved":false,"is_disabled":false,"rental_uris":{"android":"levelo://app?vid=6d63702f-b0f7-4dc9-94e3-982cfdc26e8f","ios":"levelo://app?vid=6d63702f-b0f7-4dc9-94e3-982cfdc26e8f"},"vehicle_type_id":"4","last_reported":1700384789,"current_range_meters":29600,"station_id":"ce4bgjh2rcd13ifvqbf0","pricing_plan_id":"free"},{"bike_id":"6310aac1-166e-4292-a513-1ccb3d7d95a3","system_id":"levelo_inurba_marseille","lat":43.291675,"lon":5.371583,"is_reserved":false,"is_disabled":false,"rental_uris":{"android":"levelo://app?vid=6310aac1-166e-4292-a513-1ccb3d7d95a3","ios":"levelo://app?vid=6310aac1-166e-4292-a513-1ccb3d7d95a3"},"vehicle_type_id":"4","last_reported":1700384789,"current_range_meters":31200,"station_id":"ce4bha92rcd13ifvqeh0","pricing_plan_id":"free"},{"bike_id":"33075253-836e-4ba1-8e89-8aa665059210","system_id":"levelo_inurba_marseille","lat":43.291672,"lon":5.371403,"is_reserved":false,"is_disabled":false,"rental_uris":{"android":"levelo://app?vid=33075253-836e-4ba1-8e89-8aa665059210","ios":"levelo://app?vid=33075253-836e-4ba1-8e89-8aa665059210"},"vehicle_type_id":"4","last_reported":1700384789,"current_range_meters":12800,"station_id":"ce4bha92rcd13ifvqeh0","pricing_plan_id":"free"},{"bike_id":"6f6e311c-d648-4cb5-9c08-480c7bfccbcf","system_id":"levelo_inurba_marseille","lat":43.298764,"lon":5.388973,"is_reserved":false,"is_disabled":false,"rental_uris":{"android":"levelo://app?vid=6f6e311c-d648-4cb5-9c08-480c7bfccbcf","ios":"levelo://app?vid=6f6e311c-d648-4cb5-9c08-480c7bfccbcf"},"vehicle_type_id":"4","last_reported":1700384789,"current_range_meters":19200,"station_id":"ce4bh392rcd13ifvqdl0","pricing_plan_id":"free"},{"bike_id":"eea591e9-b30f-4ce7-a7fb-d958fa8e2b1c","system_id":"levelo_inurba_marseille","lat":43.298764,"lon":5.388973,"is_reserved":false,"is_disabled":false,"rental_uris":{"android":"levelo://app?vid=eea591e9-b30f-4ce7-a7fb-d958fa8e2b1c","ios":"levelo://app?vid=eea591e9-b30f-4ce7-a7fb-d958fa8e2b1c"},"vehicle_type_id":"4","last_reported":1700384789,"current_range_meters":30000,"station_id":"ce4bh392rcd13ifvqdl0","pricing_plan_id":"free"},{"bike_id":"467e80f6-265e-486b-8e2c-7f71db1215d5","system_id":"levelo_inurba_marseille","lat":43.298764,"lon":5.388973,"is_reserved":false,"is_disabled":false,"rental_uris":{"android":"levelo://app?vid=467e80f6-265e-486b-8e2c-7f71db1215d5","ios":"levelo://app?vid=467e80f6-265e-486b-8e2c-7f71db1215d5"},"vehicle_type_id":"4","last_reported":1700384789,"current_range_meters":31200,"station_id":"ce4bh392rcd13ifvqdl0","pricing_plan_id":"free"},{"bike_id":"46429514-9d87-4911-8fbc-f0eb0137767d","system_id":"levelo_inurba_marseille","lat":43.309047,"lon":5.396551,"is_reserved":false,"is_disabled":false,"rental_uris":{"android":"levelo://app?vid=46429514-9d87-4911-8fbc-f0eb0137767d","ios":"levelo://app?vid=46429514-9d87-4911-8fbc-f0eb0137767d"},"vehicle_type_id":"4","last_reported":1700384789,"current_range_meters":29600,"station_id":"ce4bh012rcd13ifvqcv0","pricing_plan_id":"free"},{"bike_id":"2958b1fb-4b1c-4e52-9a5b-2d20f8f9506e","system_id":"levelo_inurba_marseille","lat":43.309038,"lon":5.396546,"is_reserved":false,"is_disabled":false,"rental_uris":{"android":"levelo://app?vid=2958b1fb-4b1c-4e52-9a5b-2d20f8f9506e","ios":"levelo://app?vid=2958b1fb-4b1c-4e52-9a5b-2d20f8f9506e"},"vehicle_type_id":"4","last_reported":1700384789,"current_range_meters":31200,"station_id":"ce4bh012rcd13ifvqcv0","pricing_plan_id":"free"},{"bike_id":"4a033192-1d0b-4496-989f-de9078ffaa36","system_id":"levelo_inurba_marseille","lat":43.309047,"lon":5.396551,"is_reserved":false,"is_disabled":false,"rental_uris":{"android":"levelo://app?vid=4a033192-1d0b-4496-989f-de9078ffaa36","ios":"levelo://app?vid=4a033192-1d0b-4496-989f-de9078ffaa36"},"vehicle_type_id":"4","last_reported":1700384789,"current_range_meters":24800,"station_id":"ce4bh012rcd13ifvqcv0","pricing_plan_id":"free"},{"bike_id":"3fdeda8b-81e4-449f-8880-52fb050994b9","system_id":"levelo_inurba_marseille","lat":43.309038,"lon":5.396546,"is_reserved":false,"is_disabled":false,"rental_uris":{"android":"levelo://app?vid=3fdeda8b-81e4-449f-8880-52fb050994b9","ios":"levelo://app?vid=3fdeda8b-81e4-449f-8880-52fb050994b9"},"vehicle_type_id":"4","last_reported":1700384789,"current_range_meters":31200,"station_id":"ce4bh012rcd13ifvqcv0","pricing_plan_id":"free"},{"bike_id":"0de747ba-d827-4bc2-8d9f-f961b891b941","system_id":"levelo_inurba_marseille","lat":43.309038,"lon":5.396546,"is_reserved":false,"is_disabled":false,"rental_uris":{"android":"levelo://app?vid=0de747ba-d827-4bc2-8d9f-f961b891b941","ios":"levelo://app?vid=0de747ba-d827-4bc2-8d9f-f961b891b941"},"vehicle_type_id":"4","last_reported":1700384789,"current_range_meters":31200,"station_id":"ce4bh012rcd13ifvqcv0","pricing_plan_id":"free"},{"bike_id":"b59fa648-a532-4e8b-89b9-f9c57314c2e0","system_id":"levelo_inurba_marseille","lat":43.290631,"lon":5.359244,"is_reserved":false,"is_disabled":false,"rental_uris":{"android":"levelo://app?vid=b59fa648-a532-4e8b-89b9-f9c57314c2e0","ios":"levelo://app?vid=b59fa648-a532-4e8b-89b9-f9c57314c2e0"},"vehicle_type_id":"4","last_reported":1700384789,"current_range_meters":27600,"station_id":"ce4bha92rcd13ifvqeg0","pricing_plan_id":"free"},{"bike_id":"07202f70-50d7-46f0-a5bd-59712659d6a0","system_id":"levelo_inurba_marseille","lat":43.31251,"lon":5.40162,"is_reserved":false,"is_disabled":false,"rental_uris":{"android":"levelo://app?vid=07202f70-50d7-46f0-a5bd-59712659d6a0","ios":"levelo://app?vid=07202f70-50d7-46f0-a5bd-59712659d6a0"},"vehicle_type_id":"4","last_reported":1700384789,"current_range_meters":11600,"station_id":"","pricing_plan_id":"free"},{"bike_id":"4b839fc0-878b-4eed-9fc2-f5225b4f213c","system_id":"levelo_inurba_marseille","lat":43.31273,"lon":5.40167,"is_reserved":false,"is_disabled":false,"rental_uris":{"android":"levelo://app?vid=4b839fc0-878b-4eed-9fc2-f5225b4f213c","ios":"levelo://app?vid=4b839fc0-878b-4eed-9fc2-f5225b4f213c"},"vehicle_type_id":"4","last_reported":1700384789,"current_range_meters":0,"station_id":"ce4bh092rcd13ifvqd30","pricing_plan_id":"free"},{"bike_id":"55e03788-2a8a-437b-b98d-eddedafa78d8","system_id":"levelo_inurba_marseille","lat":43.312765,"lon":5.401672,"is_reserved":false,"is_disabled":false,"rental_uris":{"android":"levelo://app?vid=55e03788-2a8a-437b-b98d-eddedafa78d8","ios":"levelo://app?vid=55e03788-2a8a-437b-b98d-eddedafa78d8"},"vehicle_type_id":"4","last_reported":1700384789,"current_range_meters":30400,"station_id":"ce4bh092rcd13ifvqd30","pricing_plan_id":"free"},{"bike_id":"e7150089-9d6d-41fd-9e10-330e1e4530dc","system_id":"levelo_inurba_marseille","lat":43.309226,"lon":5.401442,"is_reserved":false,"is_disabled":false,"rental_uris":{"android":"levelo://app?vid=e7150089-9d6d-41fd-9e10-330e1e4530dc","ios":"levelo://app?vid=e7150089-9d6d-41fd-9e10-330e1e4530dc"},"vehicle_type_id":"4","last_reported":1700384789,"current_range_meters":11200,"station_id":"ce4bgvp2rcd13ifvqct0","pricing_plan_id":"free"},{"bike_id":"46509513-12f0-4bae-91ab-3b5bb7ed22cf","system_id":"levelo_inurba_marseille","lat":43.337808,"lon":5.374229,"is_reserved":false,"is_disabled":false,"rental_uris":{"android":"levelo://app?vid=46509513-12f0-4bae-91ab-3b5bb7ed22cf","ios":"levelo://app?vid=46509513-12f0-4bae-91ab-3b5bb7ed22cf"},"vehicle_type_id":"4","last_reported":1700384789,"current_range_meters":19600,"station_id":"","pricing_plan_id":"free"},{"bike_id":"9f4738b9-fbe7-4f8b-9c92-a28d7ece1707","system_id":"levelo_inurba_marseille","lat":43.286591,"lon":5.363346,"is_reserved":false,"is_disabled":false,"rental_uris":{"android":"levelo://app?vid=9f4738b9-fbe7-4f8b-9c92-a28d7ece1707","ios":"levelo://app?vid=9f4738b9-fbe7-4f8b-9c92-a28d7ece1707"},"vehicle_type_id":"4","last_reported":1700384789,"current_range_meters":22800,"station_id":"ce4bhah2rcd13ifvqej0","pricing_plan_id":"free"},{"bike_id":"9d1ec09f-2c38-4b13-8d18-272ab80407e0","system_id":"levelo_inurba_marseille","lat":43.289307,"lon":5.38406,"is_reserved":false,"is_disabled":false,"rental_uris":{"android":"levelo://app?vid=9d1ec09f-2c38-4b13-8d18-272ab80407e0","ios":"levelo://app?vid=9d1ec09f-2c38-4b13-8d18-272ab80407e0"},"vehicle_type_id":"4","last_reported":1700384789,"current_range_meters":26400,"station_id":"ce4bh612rcd13ifvqe6g","pricing_plan_id":"free"},{"bike_id":"439692e6-b001-4d04-b220-4008a162c66c","system_id":"levelo_inurba_marseille","lat":43.302759,"lon":5.400793,"is_reserved":false,"is_disabled":false,"rental_uris":{"android":"levelo://app?vid=439692e6-b001-4d04-b220-4008a162c66c","ios":"levelo://app?vid=439692e6-b001-4d04-b220-4008a162c66c"},"vehicle_type_id":"4","last_reported":1700384789,"current_range_meters":28400,"station_id":"ce4bgvh2rcd13ifvqcs0","pricing_plan_id":"free"},{"bike_id":"11da9b45-26cc-4b09-8151-244ce97768b3","system_id":"levelo_inurba_marseille","lat":43.287042,"lon":5.379442,"is_reserved":false,"is_disabled":false,"rental_uris":{"android":"levelo://app?vid=11da9b45-26cc-4b09-8151-244ce97768b3","ios":"levelo://app?vid=11da9b45-26cc-4b09-8151-244ce97768b3"},"vehicle_type_id":"4","last_reported":1700384789,"current_range_meters":23200,"station_id":"ce4bh9p2rcd13ifvqec0","pricing_plan_id":"free"},{"bike_id":"1bbabb7f-526c-4127-8124-22b20bb7c170","system_id":"levelo_inurba_marseille","lat":43.316517,"lon":5.404375,"is_reserved":false,"is_disabled":false,"rental_uris":{"android":"levelo://app?vid=1bbabb7f-526c-4127-8124-22b20bb7c170","ios":"levelo://app?vid=1bbabb7f-526c-4127-8124-22b20bb7c170"},"vehicle_type_id":"4","last_reported":1700384789,"current_range_meters":31200,"station_id":"ce4bh012rcd13ifvqd00","pricing_plan_id":"free"},{"bike_id":"589d687e-daf3-44d5-9b83-9d923d9d3a0d","system_id":"levelo_inurba_marseille","lat":43.291994,"lon":5.392907,"is_reserved":false,"is_disabled":false,"rental_uris":{"android":"levelo://app?vid=589d687e-daf3-44d5-9b83-9d923d9d3a0d","ios":"levelo://app?vid=589d687e-daf3-44d5-9b83-9d923d9d3a0d"},"vehicle_type_id":"4","last_reported":1700384789,"current_range_meters":23200,"station_id":"ce4bh192rcd13ifvqdd0","pricing_plan_id":"free"},{"bike_id":"8e97f5fb-a60c-4e25-b639-ac381da6844e","system_id":"levelo_inurba_marseille","lat":43.284644,"lon":5.358912,"is_reserved":false,"is_disabled":false,"rental_uris":{"android":"levelo://app?vid=8e97f5fb-a60c-4e25-b639-ac381da6844e","ios":"levelo://app?vid=8e97f5fb-a60c-4e25-b639-ac381da6844e"},"vehicle_type_id":"4","last_reported":1700384789,"current_range_meters":16000,"station_id":"ce4bhah2rcd13ifvqei0","pricing_plan_id":"free"},{"bike_id":"c5702630-2c8d-47e5-8918-d2cea553181f","system_id":"levelo_inurba_marseille","lat":43.28621,"lon":5.35101,"is_reserved":false,"is_disabled":false,"rental_uris":{"android":"levelo://app?vid=c5702630-2c8d-47e5-8918-d2cea553181f","ios":"levelo://app?vid=c5702630-2c8d-47e5-8918-d2cea553181f"},"vehicle_type_id":"4","last_reported":1700384789,"current_range_meters":30400,"station_id":"ce4bhch2rcd13ifvqeug","pricing_plan_id":"free"},{"bike_id":"e1b1f4d8-0beb-4ae5-8f02-57dd3b320a3c","system_id":"levelo_inurba_marseille","lat":43.28617,"lon":5.35102,"is_reserved":false,"is_disabled":false,"rental_uris":{"android":"levelo://app?vid=e1b1f4d8-0beb-4ae5-8f02-57dd3b320a3c","ios":"levelo://app?vid=e1b1f4d8-0beb-4ae5-8f02-57dd3b320a3c"},"vehicle_type_id":"4","last_reported":1700384789,"current_range_meters":29200,"station_id":"ce4bhch2rcd13ifvqeug","pricing_plan_id":"free"},{"bike_id":"d94dfb15-e572-4e59-af3c-ee7cbd62cef5","system_id":"levelo_inurba_marseille","lat":43.295717,"lon":5.399697,"is_reserved":false,"is_disabled":false,"rental_uris":{"android":"levelo://app?vid=d94dfb15-e572-4e59-af3c-ee7cbd62cef5","ios":"levelo://app?vid=d94dfb15-e572-4e59-af3c-ee7cbd62cef5"},"vehicle_type_id":"4","last_reported":1700384789,"current_range_meters":10800,"station_id":"","pricing_plan_id":"free"},{"bike_id":"8ea4d595-0e85-412a-a574-6a086b52c3f2","system_id":"levelo_inurba_marseille","lat":43.319179,"lon":5.407725,"is_reserved":false,"is_disabled":false,"rental_uris":{"android":"levelo://app?vid=8ea4d595-0e85-412a-a574-6a086b52c3f2","ios":"levelo://app?vid=8ea4d595-0e85-412a-a574-6a086b52c3f2"},"vehicle_type_id":"4","last_reported":1700384789,"current_range_meters":29600,"station_id":"ce4bhq12rcd13ifvqhig","pricing_plan_id":"free"},{"bike_id":"5974ad3b-da81-42ca-a08b-1b3632a47afa","system_id":"levelo_inurba_marseille","lat":43.33237,"lon":5.3985,"is_reserved":false,"is_disabled":false,"rental_uris":{"android":"levelo://app?vid=5974ad3b-da81-42ca-a08b-1b3632a47afa","ios":"levelo://app?vid=5974ad3b-da81-42ca-a08b-1b3632a47afa"},"vehicle_type_id":"4","last_reported":1700384789,"current_range_meters":2000,"station_id":"","pricing_plan_id":"free"},{"bike_id":"69dea16a-46ca-4ecf-9a18-aec792baa921","system_id":"levelo_inurba_marseille","lat":43.323464,"lon":5.406297,"is_reserved":false,"is_disabled":false,"rental_uris":{"android":"levelo://app?vid=69dea16a-46ca-4ecf-9a18-aec792baa921","ios":"levelo://app?vid=69dea16a-46ca-4ecf-9a18-aec792baa921"},"vehicle_type_id":"4","last_reported":1700384789,"current_range_meters":27600,"station_id":"ce4bhq92rcd13ifvqhjg","pricing_plan_id":"free"},{"bike_id":"a08607c1-816a-491b-a085-3077fb7fb178","system_id":"levelo_inurba_marseille","lat":43.323464,"lon":5.406297,"is_reserved":false,"is_disabled":false,"rental_uris":{"android":"levelo://app?vid=a08607c1-816a-491b-a085-3077fb7fb178","ios":"levelo://app?vid=a08607c1-816a-491b-a085-3077fb7fb178"},"vehicle_type_id":"4","last_reported":1700384789,"current_range_meters":30000,"station_id":"ce4bhq92rcd13ifvqhjg","pricing_plan_id":"free"},{"bike_id":"b331e2db-e4fa-4486-8221-f87b5bc48efe","system_id":"levelo_inurba_marseille","lat":43.284793,"lon":5.384113,"is_reserved":false,"is_disabled":false,"rental_uris":{"android":"levelo://app?vid=b331e2db-e4fa-4486-8221-f87b5bc48efe","ios":"levelo://app?vid=b331e2db-e4fa-4486-8221-f87b5bc48efe"},"vehicle_type_id":"4","last_reported":1700384789,"current_range_meters":0,"station_id":"ce4bh512rcd13ifvqe3g","pricing_plan_id":"free"},{"bike_id":"d3dd3e3d-57b0-4c9e-949f-fddd56c2349c","system_id":"levelo_inurba_marseille","lat":43.32521,"lon":5.40575,"is_reserved":false,"is_disabled":false,"rental_uris":{"android":"levelo://app?vid=d3dd3e3d-57b0-4c9e-949f-fddd56c2349c","ios":"levelo://app?vid=d3dd3e3d-57b0-4c9e-949f-fddd56c2349c"},"vehicle_type_id":"4","last_reported":1700384789,"current_range_meters":0,"station_id":"","pricing_plan_id":"free"},{"bike_id":"db6c6c1b-cc54-4be6-8b0d-7997173745b5","system_id":"levelo_inurba_marseille","lat":43.283494,"lon":5.380945,"is_reserved":false,"is_disabled":false,"rental_uris":{"android":"levelo://app?vid=db6c6c1b-cc54-4be6-8b0d-7997173745b5","ios":"levelo://app?vid=db6c6c1b-cc54-4be6-8b0d-7997173745b5"},"vehicle_type_id":"4","last_reported":1700384789,"current_range_meters":0,"station_id":"ce4bh412rcd13ifvqdr0","pricing_plan_id":"free"},{"bike_id":"07bf0ef5-ece1-4ae1-88ea-cde2aa7227ab","system_id":"levelo_inurba_marseille","lat":43.28415,"lon":5.34978,"is_reserved":false,"is_disabled":false,"rental_uris":{"android":"levelo://app?vid=07bf0ef5-ece1-4ae1-88ea-cde2aa7227ab","ios":"levelo://app?vid=07bf0ef5-ece1-4ae1-88ea-cde2aa7227ab"},"vehicle_type_id":"4","last_reported":1700384789,"current_range_meters":20400,"station_id":"ce4bhbh2rcd13ifvqepg","pricing_plan_id":"free"},{"bike_id":"46c7c8f3-095f-41dc-a09f-2c8ea3ec63e7","system_id":"levelo_inurba_marseille","lat":43.284217,"lon":5.349697,"is_reserved":false,"is_disabled":false,"rental_uris":{"android":"levelo://app?vid=46c7c8f3-095f-41dc-a09f-2c8ea3ec63e7","ios":"levelo://app?vid=46c7c8f3-095f-41dc-a09f-2c8ea3ec63e7"},"vehicle_type_id":"4","last_reported":1700384789,"current_range_meters":22000,"station_id":"ce4bhbh2rcd13ifvqepg","pricing_plan_id":"free"},{"bike_id":"d9013e91-e799-477f-8a83-5eee9e87f7a9","system_id":"levelo_inurba_marseille","lat":43.28408,"lon":5.34988,"is_reserved":false,"is_disabled":false,"rental_uris":{"android":"levelo://app?vid=d9013e91-e799-477f-8a83-5eee9e87f7a9","ios":"levelo://app?vid=d9013e91-e799-477f-8a83-5eee9e87f7a9"},"vehicle_type_id":"4","last_reported":1700384789,"current_range_meters":28000,"station_id":"ce4bhbh2rcd13ifvqepg","pricing_plan_id":"free"},{"bike_id":"935fa649-98c1-4667-8a7b-39f43709a9aa","system_id":"levelo_inurba_marseille","lat":43.282755,"lon":5.35066,"is_reserved":false,"is_disabled":false,"rental_uris":{"android":"levelo://app?vid=935fa649-98c1-4667-8a7b-39f43709a9aa","ios":"levelo://app?vid=935fa649-98c1-4667-8a7b-39f43709a9aa"},"vehicle_type_id":"4","last_reported":1700384789,"current_range_meters":8000,"station_id":"ce4bhbp2rcd13ifvqerg","pricing_plan_id":"free"},{"bike_id":"7a1b707c-0456-43af-a93b-6ba1c14178b9","system_id":"levelo_inurba_marseille","lat":43.28271,"lon":5.35073,"is_reserved":false,"is_disabled":false,"rental_uris":{"android":"levelo://app?vid=7a1b707c-0456-43af-a93b-6ba1c14178b9","ios":"levelo://app?vid=7a1b707c-0456-43af-a93b-6ba1c14178b9"},"vehicle_type_id":"4","last_reported":1700384789,"current_range_meters":23600,"station_id":"ce4bhbp2rcd13ifvqerg","pricing_plan_id":"free"},{"bike_id":"f1c4bd7f-15f5-4508-840c-51adf6c86080","system_id":"levelo_inurba_marseille","lat":43.28268,"lon":5.35068,"is_reserved":false,"is_disabled":false,"rental_uris":{"android":"levelo://app?vid=f1c4bd7f-15f5-4508-840c-51adf6c86080","ios":"levelo://app?vid=f1c4bd7f-15f5-4508-840c-51adf6c86080"},"vehicle_type_id":"4","last_reported":1700384789,"current_range_meters":28400,"station_id":"ce4bhbp2rcd13ifvqerg","pricing_plan_id":"free"},{"bike_id":"b6364394-f19a-4f6b-aecf-b7b3486706a0","system_id":"levelo_inurba_marseille","lat":43.282695,"lon":5.350615,"is_reserved":false,"is_disabled":false,"rental_uris":{"android":"levelo://app?vid=b6364394-f19a-4f6b-aecf-b7b3486706a0","ios":"levelo://app?vid=b6364394-f19a-4f6b-aecf-b7b3486706a0"},"vehicle_type_id":"4","last_reported":1700384789,"current_range_meters":22800,"station_id":"ce4bhbp2rcd13ifvqerg","pricing_plan_id":"free"},{"bike_id":"8e7fa64a-a6ee-492d-8092-e8a9451e338b","system_id":"levelo_inurba_marseille","lat":43.2827,"lon":5.35059,"is_reserved":false,"is_disabled":false,"rental_uris":{"android":"levelo://app?vid=8e7fa64a-a6ee-492d-8092-e8a9451e338b","ios":"levelo://app?vid=8e7fa64a-a6ee-492d-8092-e8a9451e338b"},"vehicle_type_id":"4","last_reported":1700384789,"current_range_meters":7200,"station_id":"ce4bhbp2rcd13ifvqerg","pricing_plan_id":"free"},{"bike_id":"e4f60c70-f537-40b2-af6a-63d3bd4014cc","system_id":"levelo_inurba_marseille","lat":43.29041,"lon":5.399634,"is_reserved":false,"is_disabled":false,"rental_uris":{"android":"levelo://app?vid=e4f60c70-f537-40b2-af6a-63d3bd4014cc","ios":"levelo://app?vid=e4f60c70-f537-40b2-af6a-63d3bd4014cc"},"vehicle_type_id":"4","last_reported":1700384789,"current_range_meters":29600,"station_id":"ce4bh392rcd13ifvqdm0","pricing_plan_id":"free"},{"bike_id":"8112b1a8-d3e4-48c2-b429-b703a1c121cd","system_id":"levelo_inurba_marseille","lat":43.296263,"lon":5.40601,"is_reserved":false,"is_disabled":false,"rental_uris":{"android":"levelo://app?vid=8112b1a8-d3e4-48c2-b429-b703a1c121cd","ios":"levelo://app?vid=8112b1a8-d3e4-48c2-b429-b703a1c121cd"},"vehicle_type_id":"4","last_reported":1700384789,"current_range_meters":12000,"station_id":"ce4bh0h2rcd13ifvqd60","pricing_plan_id":"free"},{"bike_id":"59ce318f-66fb-46f4-9992-b93a6a5cdee3","system_id":"levelo_inurba_marseille","lat":43.281044,"lon":5.378308,"is_reserved":false,"is_disabled":false,"rental_uris":{"android":"levelo://app?vid=59ce318f-66fb-46f4-9992-b93a6a5cdee3","ios":"levelo://app?vid=59ce318f-66fb-46f4-9992-b93a6a5cdee3"},"vehicle_type_id":"4","last_reported":1700384789,"current_range_meters":0,"station_id":"ce4bha12rcd13ifvqee0","pricing_plan_id":"free"},{"bike_id":"cea45467-b65f-4456-b1c2-7a2ff6c22702","system_id":"levelo_inurba_marseille","lat":43.284439,"lon":5.391776,"is_reserved":false,"is_disabled":false,"rental_uris":{"android":"levelo://app?vid=cea45467-b65f-4456-b1c2-7a2ff6c22702","ios":"levelo://app?vid=cea45467-b65f-4456-b1c2-7a2ff6c22702"},"vehicle_type_id":"4","last_reported":1700384789,"current_range_meters":30000,"station_id":"ce4bhoh2rcd13ifvqh5g","pricing_plan_id":"free"},{"bike_id":"20afe71b-e308-4e10-96d1-c6ba9740cfcc","system_id":"levelo_inurba_marseille","lat":43.28045,"lon":5.35332,"is_reserved":false,"is_disabled":false,"rental_uris":{"android":"levelo://app?vid=20afe71b-e308-4e10-96d1-c6ba9740cfcc","ios":"levelo://app?vid=20afe71b-e308-4e10-96d1-c6ba9740cfcc"},"vehicle_type_id":"4","last_reported":1700384789,"current_range_meters":26800,"station_id":"","pricing_plan_id":"free"},{"bike_id":"ccf9b17e-2fb6-47d5-b5cb-73ea08fcb6e5","system_id":"levelo_inurba_marseille","lat":43.28575,"lon":5.39498,"is_reserved":false,"is_disabled":false,"rental_uris":{"android":"levelo://app?vid=ccf9b17e-2fb6-47d5-b5cb-73ea08fcb6e5","ios":"levelo://app?vid=ccf9b17e-2fb6-47d5-b5cb-73ea08fcb6e5"},"vehicle_type_id":"4","last_reported":1700384789,"current_range_meters":0,"station_id":"ce4bh292rcd13ifvqdg0","pricing_plan_id":"free"},{"bike_id":"e85470cc-66fb-41ae-9ddd-acb075ca7542","system_id":"levelo_inurba_marseille","lat":43.28772,"lon":5.39856,"is_reserved":false,"is_disabled":false,"rental_uris":{"android":"levelo://app?vid=e85470cc-66fb-41ae-9ddd-acb075ca7542","ios":"levelo://app?vid=e85470cc-66fb-41ae-9ddd-acb075ca7542"},"vehicle_type_id":"4","last_reported":1700384789,"current_range_meters":2400,"station_id":"","pricing_plan_id":"free"},{"bike_id":"e05860e3-01ce-4b1f-86c7-9f839ae165cc","system_id":"levelo_inurba_marseille","lat":43.304188,"lon":5.412904,"is_reserved":false,"is_disabled":false,"rental_uris":{"android":"levelo://app?vid=e05860e3-01ce-4b1f-86c7-9f839ae165cc","ios":"levelo://app?vid=e05860e3-01ce-4b1f-86c7-9f839ae165cc"},"vehicle_type_id":"4","last_reported":1700384789,"current_range_meters":31200,"station_id":"ce4bhop2rcd13ifvqh8g","pricing_plan_id":"free"},{"bike_id":"1a66ec51-8872-4bc4-b87a-d78c086073cf","system_id":"levelo_inurba_marseille","lat":43.292648,"lon":5.408155,"is_reserved":false,"is_disabled":false,"rental_uris":{"android":"levelo://app?vid=1a66ec51-8872-4bc4-b87a-d78c086073cf","ios":"levelo://app?vid=1a66ec51-8872-4bc4-b87a-d78c086073cf"},"vehicle_type_id":"4","last_reported":1700384789,"current_range_meters":7600,"station_id":"","pricing_plan_id":"free"},{"bike_id":"d02b66a4-db86-4514-b235-9c8d6eedac22","system_id":"levelo_inurba_marseille","lat":43.299577,"lon":5.413277,"is_reserved":false,"is_disabled":false,"rental_uris":{"android":"levelo://app?vid=d02b66a4-db86-4514-b235-9c8d6eedac22","ios":"levelo://app?vid=d02b66a4-db86-4514-b235-9c8d6eedac22"},"vehicle_type_id":"4","last_reported":1700384789,"current_range_meters":30000,"station_id":"ce4bhp12rcd13ifvqh9g","pricing_plan_id":"free"},{"bike_id":"edaa77fc-57ef-428f-9572-e05adf32894e","system_id":"levelo_inurba_marseille","lat":43.299579,"lon":5.413255,"is_reserved":false,"is_disabled":false,"rental_uris":{"android":"levelo://app?vid=edaa77fc-57ef-428f-9572-e05adf32894e","ios":"levelo://app?vid=edaa77fc-57ef-428f-9572-e05adf32894e"},"vehicle_type_id":"4","last_reported":1700384789,"current_range_meters":27600,"station_id":"ce4bhp12rcd13ifvqh9g","pricing_plan_id":"free"},{"bike_id":"920101ac-8686-4ee2-8f25-e4bd699a78bc","system_id":"levelo_inurba_marseille","lat":43.292571,"lon":5.409107,"is_reserved":false,"is_disabled":false,"rental_uris":{"android":"levelo://app?vid=920101ac-8686-4ee2-8f25-e4bd699a78bc","ios":"levelo://app?vid=920101ac-8686-4ee2-8f25-e4bd699a78bc"},"vehicle_type_id":"4","last_reported":1700384789,"current_range_meters":22000,"station_id":"ce4bh192rcd13ifvqdc0","pricing_plan_id":"free"},{"bike_id":"c6788832-3bc0-41bc-81e7-c86f322cdccc","system_id":"levelo_inurba_marseille","lat":43.30356,"lon":5.4188,"is_reserved":false,"is_disabled":false,"rental_uris":{"android":"levelo://app?vid=c6788832-3bc0-41bc-81e7-c86f322cdccc","ios":"levelo://app?vid=c6788832-3bc0-41bc-81e7-c86f322cdccc"},"vehicle_type_id":"4","last_reported":1700384789,"current_range_meters":0,"station_id":"ce4bhop2rcd13ifvqh7g","pricing_plan_id":"free"},{"bike_id":"7f6a2f6a-93c2-4727-a7ef-a790fd787a8a","system_id":"levelo_inurba_marseille","lat":43.278401,"lon":5.392152,"is_reserved":false,"is_disabled":false,"rental_uris":{"android":"levelo://app?vid=7f6a2f6a-93c2-4727-a7ef-a790fd787a8a","ios":"levelo://app?vid=7f6a2f6a-93c2-4727-a7ef-a790fd787a8a"},"vehicle_type_id":"4","last_reported":1700384789,"current_range_meters":30400,"station_id":"ce4bhjp2rcd13ifvqga0","pricing_plan_id":"free"},{"bike_id":"1dd0634e-b222-4750-81ed-d3ebd76e14ed","system_id":"levelo_inurba_marseille","lat":43.278401,"lon":5.392152,"is_reserved":false,"is_disabled":false,"rental_uris":{"android":"levelo://app?vid=1dd0634e-b222-4750-81ed-d3ebd76e14ed","ios":"levelo://app?vid=1dd0634e-b222-4750-81ed-d3ebd76e14ed"},"vehicle_type_id":"4","last_reported":1700384789,"current_range_meters":10400,"station_id":"ce4bhjp2rcd13ifvqga0","pricing_plan_id":"free"},{"bike_id":"29caab89-965c-4ed0-a878-714d3fe39485","system_id":"levelo_inurba_marseille","lat":43.273807,"lon":5.362463,"is_reserved":false,"is_disabled":false,"rental_uris":{"android":"levelo://app?vid=29caab89-965c-4ed0-a878-714d3fe39485","ios":"levelo://app?vid=29caab89-965c-4ed0-a878-714d3fe39485"},"vehicle_type_id":"4","last_reported":1700384789,"current_range_meters":26000,"station_id":"ce4bhbh2rcd13ifvqeo0","pricing_plan_id":"free"},{"bike_id":"b0a8836e-2f87-4143-972c-aab2a0e5f3b2","system_id":"levelo_inurba_marseille","lat":43.273613,"lon":5.362705,"is_reserved":false,"is_disabled":false,"rental_uris":{"android":"levelo://app?vid=b0a8836e-2f87-4143-972c-aab2a0e5f3b2","ios":"levelo://app?vid=b0a8836e-2f87-4143-972c-aab2a0e5f3b2"},"vehicle_type_id":"4","last_reported":1700384789,"current_range_meters":28800,"station_id":"ce4bhbh2rcd13ifvqeo0","pricing_plan_id":"free"},{"bike_id":"68b6c5dd-0e43-4de2-a5f5-36d86c68dd66","system_id":"levelo_inurba_marseille","lat":43.273613,"lon":5.362705,"is_reserved":false,"is_disabled":false,"rental_uris":{"android":"levelo://app?vid=68b6c5dd-0e43-4de2-a5f5-36d86c68dd66","ios":"levelo://app?vid=68b6c5dd-0e43-4de2-a5f5-36d86c68dd66"},"vehicle_type_id":"4","last_reported":1700384789,"current_range_meters":30400,"station_id":"ce4bhbh2rcd13ifvqeo0","pricing_plan_id":"free"},{"bike_id":"4abef48a-ed21-4100-bb4e-b1d4d026b9a9","system_id":"levelo_inurba_marseille","lat":43.273609,"lon":5.362708,"is_reserved":false,"is_disabled":false,"rental_uris":{"android":"levelo://app?vid=4abef48a-ed21-4100-bb4e-b1d4d026b9a9","ios":"levelo://app?vid=4abef48a-ed21-4100-bb4e-b1d4d026b9a9"},"vehicle_type_id":"4","last_reported":1700384789,"current_range_meters":22400,"station_id":"ce4bhbh2rcd13ifvqeo0","pricing_plan_id":"free"},{"bike_id":"d69994bb-c32a-48c3-9c4a-3b835490a2ba","system_id":"levelo_inurba_marseille","lat":43.279952,"lon":5.400085,"is_reserved":false,"is_disabled":false,"rental_uris":{"android":"levelo://app?vid=d69994bb-c32a-48c3-9c4a-3b835490a2ba","ios":"levelo://app?vid=d69994bb-c32a-48c3-9c4a-3b835490a2ba"},"vehicle_type_id":"4","last_reported":1700384789,"current_range_meters":28400,"station_id":"ce4bho92rcd13ifvqh4g","pricing_plan_id":"free"},{"bike_id":"781ae6eb-3597-43d0-afe4-b37e8d7744e8","system_id":"levelo_inurba_marseille","lat":43.279952,"lon":5.400085,"is_reserved":false,"is_disabled":false,"rental_uris":{"android":"levelo://app?vid=781ae6eb-3597-43d0-afe4-b37e8d7744e8","ios":"levelo://app?vid=781ae6eb-3597-43d0-afe4-b37e8d7744e8"},"vehicle_type_id":"4","last_reported":1700384789,"current_range_meters":25200,"station_id":"ce4bho92rcd13ifvqh4g","pricing_plan_id":"free"},{"bike_id":"eafeb385-8734-4d6e-872f-817338dfdd8c","system_id":"levelo_inurba_marseille","lat":43.317121,"lon":5.423936,"is_reserved":false,"is_disabled":false,"rental_uris":{"android":"levelo://app?vid=eafeb385-8734-4d6e-872f-817338dfdd8c","ios":"levelo://app?vid=eafeb385-8734-4d6e-872f-817338dfdd8c"},"vehicle_type_id":"4","last_reported":1700384789,"current_range_meters":20800,"station_id":"ce4bhp92rcd13ifvqhbg","pricing_plan_id":"free"},{"bike_id":"2b211598-c6f8-4e22-9ff6-5fa6873b8d02","system_id":"levelo_inurba_marseille","lat":43.317121,"lon":5.423936,"is_reserved":false,"is_disabled":false,"rental_uris":{"android":"levelo://app?vid=2b211598-c6f8-4e22-9ff6-5fa6873b8d02","ios":"levelo://app?vid=2b211598-c6f8-4e22-9ff6-5fa6873b8d02"},"vehicle_type_id":"4","last_reported":1700384789,"current_range_meters":29200,"station_id":"ce4bhp92rcd13ifvqhbg","pricing_plan_id":"free"},{"bike_id":"78f714bb-7753-4b90-962b-ecf24cce775c","system_id":"levelo_inurba_marseille","lat":43.310785,"lon":5.424305,"is_reserved":false,"is_disabled":false,"rental_uris":{"android":"levelo://app?vid=78f714bb-7753-4b90-962b-ecf24cce775c","ios":"levelo://app?vid=78f714bb-7753-4b90-962b-ecf24cce775c"},"vehicle_type_id":"4","last_reported":1700384789,"current_range_meters":21200,"station_id":"ce4bhp92rcd13ifvqhag","pricing_plan_id":"free"},{"bike_id":"f1682c53-c82a-4992-b79b-bff87445594c","system_id":"levelo_inurba_marseille","lat":43.310785,"lon":5.424305,"is_reserved":false,"is_disabled":false,"rental_uris":{"android":"levelo://app?vid=f1682c53-c82a-4992-b79b-bff87445594c","ios":"levelo://app?vid=f1682c53-c82a-4992-b79b-bff87445594c"},"vehicle_type_id":"4","last_reported":1700384789,"current_range_meters":13200,"station_id":"ce4bhp92rcd13ifvqhag","pricing_plan_id":"free"},{"bike_id":"71451a6c-a8ba-4acc-970f-5c7bd5edb629","system_id":"levelo_inurba_marseille","lat":43.274099,"lon":5.394019,"is_reserved":false,"is_disabled":false,"rental_uris":{"android":"levelo://app?vid=71451a6c-a8ba-4acc-970f-5c7bd5edb629","ios":"levelo://app?vid=71451a6c-a8ba-4acc-970f-5c7bd5edb629"},"vehicle_type_id":"4","last_reported":1700384789,"current_range_meters":24800,"station_id":"ce4bhdp2rcd13ifvqf20","pricing_plan_id":"free"},{"bike_id":"ce542890-8717-4995-89d1-bfd21ca58cd1","system_id":"levelo_inurba_marseille","lat":43.304096,"lon":5.425385,"is_reserved":false,"is_disabled":false,"rental_uris":{"android":"levelo://app?vid=ce542890-8717-4995-89d1-bfd21ca58cd1","ios":"levelo://app?vid=ce542890-8717-4995-89d1-bfd21ca58cd1"},"vehicle_type_id":"4","last_reported":1700384789,"current_range_meters":11200,"station_id":"ce4bhoh2rcd13ifvqh6g","pricing_plan_id":"free"},{"bike_id":"2a7cc644-8f22-4c4c-a64e-ab107532e50a","system_id":"levelo_inurba_marseille","lat":43.295511,"lon":5.422926,"is_reserved":false,"is_disabled":false,"rental_uris":{"android":"levelo://app?vid=2a7cc644-8f22-4c4c-a64e-ab107532e50a","ios":"levelo://app?vid=2a7cc644-8f22-4c4c-a64e-ab107532e50a"},"vehicle_type_id":"4","last_reported":1700384789,"current_range_meters":7200,"station_id":"ce4bhph2rcd13ifvqhdg","pricing_plan_id":"free"},{"bike_id":"f8f5619a-a183-461d-b100-453fb972fcd4","system_id":"levelo_inurba_marseille","lat":43.272118,"lon":5.391758,"is_reserved":false,"is_disabled":false,"rental_uris":{"android":"levelo://app?vid=f8f5619a-a183-461d-b100-453fb972fcd4","ios":"levelo://app?vid=f8f5619a-a183-461d-b100-453fb972fcd4"},"vehicle_type_id":"4","last_reported":1700384789,"current_range_meters":21600,"station_id":"ce4bhhp2rcd13ifvqfm0","pricing_plan_id":"free"},{"bike_id":"316bdd05-6c7a-47ef-844c-3f6369ddbed2","system_id":"levelo_inurba_marseille","lat":43.272116,"lon":5.391747,"is_reserved":false,"is_disabled":false,"rental_uris":{"android":"levelo://app?vid=316bdd05-6c7a-47ef-844c-3f6369ddbed2","ios":"levelo://app?vid=316bdd05-6c7a-47ef-844c-3f6369ddbed2"},"vehicle_type_id":"4","last_reported":1700384789,"current_range_meters":9600,"station_id":"ce4bhhp2rcd13ifvqfm0","pricing_plan_id":"free"},{"bike_id":"139753b1-0b83-4c3a-80f1-5052bac15461","system_id":"levelo_inurba_marseille","lat":43.272144,"lon":5.392654,"is_reserved":false,"is_disabled":false,"rental_uris":{"android":"levelo://app?vid=139753b1-0b83-4c3a-80f1-5052bac15461","ios":"levelo://app?vid=139753b1-0b83-4c3a-80f1-5052bac15461"},"vehicle_type_id":"4","last_reported":1700384789,"current_range_meters":8800,"station_id":"","pricing_plan_id":"free"},{"bike_id":"fe139271-7817-4645-9ec4-f7eee743e805","system_id":"levelo_inurba_marseille","lat":43.271896,"lon":5.392307,"is_reserved":false,"is_disabled":false,"rental_uris":{"android":"levelo://app?vid=fe139271-7817-4645-9ec4-f7eee743e805","ios":"levelo://app?vid=fe139271-7817-4645-9ec4-f7eee743e805"},"vehicle_type_id":"4","last_reported":1700384789,"current_range_meters":0,"station_id":"","pricing_plan_id":"free"},{"bike_id":"f0ed4531-078e-42fb-a007-3ed80505eb54","system_id":"levelo_inurba_marseille","lat":43.271891,"lon":5.392412,"is_reserved":false,"is_disabled":false,"rental_uris":{"android":"levelo://app?vid=f0ed4531-078e-42fb-a007-3ed80505eb54","ios":"levelo://app?vid=f0ed4531-078e-42fb-a007-3ed80505eb54"},"vehicle_type_id":"4","last_reported":1700384789,"current_range_meters":4000,"station_id":"","pricing_plan_id":"free"},{"bike_id":"d014ac82-9fc2-4787-8f9f-f220edd62d69","system_id":"levelo_inurba_marseille","lat":43.269467,"lon":5.386439,"is_reserved":false,"is_disabled":false,"rental_uris":{"android":"levelo://app?vid=d014ac82-9fc2-4787-8f9f-f220edd62d69","ios":"levelo://app?vid=d014ac82-9fc2-4787-8f9f-f220edd62d69"},"vehicle_type_id":"4","last_reported":1700384789,"current_range_meters":0,"station_id":"ce4bhh92rcd13ifvqfh0","pricing_plan_id":"free"},{"bike_id":"2135a2e8-2617-4184-8765-6c1a1c8f1616","system_id":"levelo_inurba_marseille","lat":43.26681,"lon":5.382694,"is_reserved":false,"is_disabled":false,"rental_uris":{"android":"levelo://app?vid=2135a2e8-2617-4184-8765-6c1a1c8f1616","ios":"levelo://app?vid=2135a2e8-2617-4184-8765-6c1a1c8f1616"},"vehicle_type_id":"4","last_reported":1700384789,"current_range_meters":26000,"station_id":"ce4bhg92rcd13ifvqf90","pricing_plan_id":"free"},{"bike_id":"875af01b-d3ae-4784-840c-2df39061230d","system_id":"levelo_inurba_marseille","lat":43.26681,"lon":5.382694,"is_reserved":false,"is_disabled":false,"rental_uris":{"android":"levelo://app?vid=875af01b-d3ae-4784-840c-2df39061230d","ios":"levelo://app?vid=875af01b-d3ae-4784-840c-2df39061230d"},"vehicle_type_id":"4","last_reported":1700384789,"current_range_meters":27600,"station_id":"ce4bhg92rcd13ifvqf90","pricing_plan_id":"free"},{"bike_id":"0316c25a-a26d-46b3-a487-a675e1b81ef4","system_id":"levelo_inurba_marseille","lat":43.265714,"lon":5.372891,"is_reserved":false,"is_disabled":false,"rental_uris":{"android":"levelo://app?vid=0316c25a-a26d-46b3-a487-a675e1b81ef4","ios":"levelo://app?vid=0316c25a-a26d-46b3-a487-a675e1b81ef4"},"vehicle_type_id":"4","last_reported":1700384789,"current_range_meters":26000,"station_id":"ce4bhg12rcd13ifvqf70","pricing_plan_id":"free"},{"bike_id":"20755df7-5028-4c6d-8d0e-1b7b17ebc0fa","system_id":"levelo_inurba_marseille","lat":43.265498,"lon":5.372859,"is_reserved":false,"is_disabled":false,"rental_uris":{"android":"levelo://app?vid=20755df7-5028-4c6d-8d0e-1b7b17ebc0fa","ios":"levelo://app?vid=20755df7-5028-4c6d-8d0e-1b7b17ebc0fa"},"vehicle_type_id":"4","last_reported":1700384789,"current_range_meters":21200,"station_id":"ce4bhg12rcd13ifvqf70","pricing_plan_id":"free"},{"bike_id":"c7758cb2-2a45-4f89-aa5c-0e391d845c76","system_id":"levelo_inurba_marseille","lat":43.326053,"lon":5.429943,"is_reserved":false,"is_disabled":false,"rental_uris":{"android":"levelo://app?vid=c7758cb2-2a45-4f89-aa5c-0e391d845c76","ios":"levelo://app?vid=c7758cb2-2a45-4f89-aa5c-0e391d845c76"},"vehicle_type_id":"4","last_reported":1700384789,"current_range_meters":1200,"station_id":"","pricing_plan_id":"free"},{"bike_id":"42871d3b-8c03-490f-baf1-f4b57c44a331","system_id":"levelo_inurba_marseille","lat":43.326569,"lon":5.430586,"is_reserved":false,"is_disabled":false,"rental_uris":{"android":"levelo://app?vid=42871d3b-8c03-490f-baf1-f4b57c44a331","ios":"levelo://app?vid=42871d3b-8c03-490f-baf1-f4b57c44a331"},"vehicle_type_id":"4","last_reported":1700384789,"current_range_meters":16400,"station_id":"","pricing_plan_id":"free"},{"bike_id":"5af7c6fa-1320-4022-851d-dc96f0fd6172","system_id":"levelo_inurba_marseille","lat":43.265714,"lon":5.372891,"is_reserved":false,"is_disabled":false,"rental_uris":{"android":"levelo://app?vid=5af7c6fa-1320-4022-851d-dc96f0fd6172","ios":"levelo://app?vid=5af7c6fa-1320-4022-851d-dc96f0fd6172"},"vehicle_type_id":"4","last_reported":1700384789,"current_range_meters":30400,"station_id":"ce4bhg12rcd13ifvqf70","pricing_plan_id":"free"},{"bike_id":"dcfbf680-a092-4d66-82c7-e8ea7bb5f967","system_id":"levelo_inurba_marseille","lat":43.267966,"lon":5.393976,"is_reserved":false,"is_disabled":false,"rental_uris":{"android":"levelo://app?vid=dcfbf680-a092-4d66-82c7-e8ea7bb5f967","ios":"levelo://app?vid=dcfbf680-a092-4d66-82c7-e8ea7bb5f967"},"vehicle_type_id":"4","last_reported":1700384789,"current_range_meters":31200,"station_id":"ce4bhh12rcd13ifvqfg0","pricing_plan_id":"free"},{"bike_id":"572febf1-f7cb-450e-9a87-e1a25a6cd70b","system_id":"levelo_inurba_marseille","lat":43.308051,"lon":5.43527,"is_reserved":false,"is_disabled":false,"rental_uris":{"android":"levelo://app?vid=572febf1-f7cb-450e-9a87-e1a25a6cd70b","ios":"levelo://app?vid=572febf1-f7cb-450e-9a87-e1a25a6cd70b"},"vehicle_type_id":"4","last_reported":1700384789,"current_range_meters":28400,"station_id":"ce4bhph2rcd13ifvqheg","pricing_plan_id":"free"},{"bike_id":"a6f6a22b-b7cd-4c39-afd9-e9671d1c31e5","system_id":"levelo_inurba_marseille","lat":43.26563,"lon":5.39005,"is_reserved":false,"is_disabled":false,"rental_uris":{"android":"levelo://app?vid=a6f6a22b-b7cd-4c39-afd9-e9671d1c31e5","ios":"levelo://app?vid=a6f6a22b-b7cd-4c39-afd9-e9671d1c31e5"},"vehicle_type_id":"4","last_reported":1700384789,"current_range_meters":26000,"station_id":"ce4bhe12rcd13ifvqf30","pricing_plan_id":"free"},{"bike_id":"c8493734-954e-4d55-82b2-5c0c406b53e5","system_id":"levelo_inurba_marseille","lat":43.26556,"lon":5.39004,"is_reserved":false,"is_disabled":false,"rental_uris":{"android":"levelo://app?vid=c8493734-954e-4d55-82b2-5c0c406b53e5","ios":"levelo://app?vid=c8493734-954e-4d55-82b2-5c0c406b53e5"},"vehicle_type_id":"4","last_reported":1700384789,"current_range_meters":28800,"station_id":"ce4bhe12rcd13ifvqf30","pricing_plan_id":"free"},{"bike_id":"1523bf02-e29b-42d5-870c-891a911a8938","system_id":"levelo_inurba_marseille","lat":43.261782,"lon":5.374515,"is_reserved":false,"is_disabled":false,"rental_uris":{"android":"levelo://app?vid=1523bf02-e29b-42d5-870c-891a911a8938","ios":"levelo://app?vid=1523bf02-e29b-42d5-870c-891a911a8938"},"vehicle_type_id":"4","last_reported":1700384789,"current_range_meters":25200,"station_id":"ce4bhgp2rcd13ifvqfc0","pricing_plan_id":"free"},{"bike_id":"26270f97-2e93-49c1-ac1f-ba07f47580c0","system_id":"levelo_inurba_marseille","lat":43.26186,"lon":5.37443,"is_reserved":false,"is_disabled":false,"rental_uris":{"android":"levelo://app?vid=26270f97-2e93-49c1-ac1f-ba07f47580c0","ios":"levelo://app?vid=26270f97-2e93-49c1-ac1f-ba07f47580c0"},"vehicle_type_id":"4","last_reported":1700384789,"current_range_meters":10800,"station_id":"ce4bhgp2rcd13ifvqfc0","pricing_plan_id":"free"},{"bike_id":"bc1004dc-9496-4b20-b3c4-1e49dbb227e6","system_id":"levelo_inurba_marseille","lat":43.261782,"lon":5.374515,"is_reserved":false,"is_disabled":false,"rental_uris":{"android":"levelo://app?vid=bc1004dc-9496-4b20-b3c4-1e49dbb227e6","ios":"levelo://app?vid=bc1004dc-9496-4b20-b3c4-1e49dbb227e6"},"vehicle_type_id":"4","last_reported":1700384789,"current_range_meters":18800,"station_id":"ce4bhgp2rcd13ifvqfc0","pricing_plan_id":"free"},{"bike_id":"41735280-501f-4d54-bfcb-04ceba21097f","system_id":"levelo_inurba_marseille","lat":43.261782,"lon":5.374515,"is_reserved":false,"is_disabled":false,"rental_uris":{"android":"levelo://app?vid=41735280-501f-4d54-bfcb-04ceba21097f","ios":"levelo://app?vid=41735280-501f-4d54-bfcb-04ceba21097f"},"vehicle_type_id":"4","last_reported":1700384789,"current_range_meters":25200,"station_id":"ce4bhgp2rcd13ifvqfc0","pricing_plan_id":"free"},{"bike_id":"def62d92-e09e-4896-a644-b182f6326048","system_id":"levelo_inurba_marseille","lat":43.261782,"lon":5.374515,"is_reserved":false,"is_disabled":false,"rental_uris":{"android":"levelo://app?vid=def62d92-e09e-4896-a644-b182f6326048","ios":"levelo://app?vid=def62d92-e09e-4896-a644-b182f6326048"},"vehicle_type_id":"4","last_reported":1700384789,"current_range_meters":24400,"station_id":"ce4bhgp2rcd13ifvqfc0","pricing_plan_id":"free"},{"bike_id":"5c6ded78-adc8-4f1b-9828-192aebf0557c","system_id":"levelo_inurba_marseille","lat":43.261782,"lon":5.374515,"is_reserved":false,"is_disabled":false,"rental_uris":{"android":"levelo://app?vid=5c6ded78-adc8-4f1b-9828-192aebf0557c","ios":"levelo://app?vid=5c6ded78-adc8-4f1b-9828-192aebf0557c"},"vehicle_type_id":"4","last_reported":1700384789,"current_range_meters":20800,"station_id":"ce4bhgp2rcd13ifvqfc0","pricing_plan_id":"free"},{"bike_id":"e9548ae4-be25-4f3e-80d1-23e62b0008b7","system_id":"levelo_inurba_marseille","lat":43.261782,"lon":5.374515,"is_reserved":false,"is_disabled":false,"rental_uris":{"android":"levelo://app?vid=e9548ae4-be25-4f3e-80d1-23e62b0008b7","ios":"levelo://app?vid=e9548ae4-be25-4f3e-80d1-23e62b0008b7"},"vehicle_type_id":"4","last_reported":1700384789,"current_range_meters":21600,"station_id":"ce4bhgp2rcd13ifvqfc0","pricing_plan_id":"free"},{"bike_id":"e16aa5be-9b2e-4680-9390-3a720a1c0bfe","system_id":"levelo_inurba_marseille","lat":43.317104,"lon":5.436818,"is_reserved":false,"is_disabled":false,"rental_uris":{"android":"levelo://app?vid=e16aa5be-9b2e-4680-9390-3a720a1c0bfe","ios":"levelo://app?vid=e16aa5be-9b2e-4680-9390-3a720a1c0bfe"},"vehicle_type_id":"4","last_reported":1700384789,"current_range_meters":18400,"station_id":"ce4bhp92rcd13ifvqhcg","pricing_plan_id":"free"},{"bike_id":"47ecfd7c-71ef-4bdf-a37d-886cb8c19a51","system_id":"levelo_inurba_marseille","lat":43.262012,"lon":5.379307,"is_reserved":false,"is_disabled":false,"rental_uris":{"android":"levelo://app?vid=47ecfd7c-71ef-4bdf-a37d-886cb8c19a51","ios":"levelo://app?vid=47ecfd7c-71ef-4bdf-a37d-886cb8c19a51"},"vehicle_type_id":"4","last_reported":1700384789,"current_range_meters":29600,"station_id":"ce4bhjp2rcd13ifvqg90","pricing_plan_id":"free"},{"bike_id":"27568467-65b8-4da1-937c-0b1b35c7c712","system_id":"levelo_inurba_marseille","lat":43.26202,"lon":5.379299,"is_reserved":false,"is_disabled":false,"rental_uris":{"android":"levelo://app?vid=27568467-65b8-4da1-937c-0b1b35c7c712","ios":"levelo://app?vid=27568467-65b8-4da1-937c-0b1b35c7c712"},"vehicle_type_id":"4","last_reported":1700384789,"current_range_meters":10800,"station_id":"ce4bhjp2rcd13ifvqg90","pricing_plan_id":"free"},{"bike_id":"b32e2de1-6bab-4eb8-b968-5c933e4a655b","system_id":"levelo_inurba_marseille","lat":43.262012,"lon":5.379307,"is_reserved":false,"is_disabled":false,"rental_uris":{"android":"levelo://app?vid=b32e2de1-6bab-4eb8-b968-5c933e4a655b","ios":"levelo://app?vid=b32e2de1-6bab-4eb8-b968-5c933e4a655b"},"vehicle_type_id":"4","last_reported":1700384789,"current_range_meters":31200,"station_id":"ce4bhjp2rcd13ifvqg90","pricing_plan_id":"free"},{"bike_id":"1dd4dd20-2d67-44d1-b93b-d14142ab73a4","system_id":"levelo_inurba_marseille","lat":43.26202,"lon":5.379299,"is_reserved":false,"is_disabled":false,"rental_uris":{"android":"levelo://app?vid=1dd4dd20-2d67-44d1-b93b-d14142ab73a4","ios":"levelo://app?vid=1dd4dd20-2d67-44d1-b93b-d14142ab73a4"},"vehicle_type_id":"4","last_reported":1700384789,"current_range_meters":2000,"station_id":"ce4bhjp2rcd13ifvqg90","pricing_plan_id":"free"},{"bike_id":"4845b3d6-d400-4de1-941b-c54ac5191bb3","system_id":"levelo_inurba_marseille","lat":43.262012,"lon":5.379307,"is_reserved":false,"is_disabled":false,"rental_uris":{"android":"levelo://app?vid=4845b3d6-d400-4de1-941b-c54ac5191bb3","ios":"levelo://app?vid=4845b3d6-d400-4de1-941b-c54ac5191bb3"},"vehicle_type_id":"4","last_reported":1700384789,"current_range_meters":15200,"station_id":"ce4bhjp2rcd13ifvqg90","pricing_plan_id":"free"},{"bike_id":"bb89e912-1fd0-4de3-8767-1f75ceeff0ad","system_id":"levelo_inurba_marseille","lat":43.26202,"lon":5.379299,"is_reserved":false,"is_disabled":false,"rental_uris":{"android":"levelo://app?vid=bb89e912-1fd0-4de3-8767-1f75ceeff0ad","ios":"levelo://app?vid=bb89e912-1fd0-4de3-8767-1f75ceeff0ad"},"vehicle_type_id":"4","last_reported":1700384789,"current_range_meters":18800,"station_id":"ce4bhjp2rcd13ifvqg90","pricing_plan_id":"free"},{"bike_id":"18f018e0-1c7f-4884-8612-59ad868abb57","system_id":"levelo_inurba_marseille","lat":43.262012,"lon":5.379307,"is_reserved":false,"is_disabled":false,"rental_uris":{"android":"levelo://app?vid=18f018e0-1c7f-4884-8612-59ad868abb57","ios":"levelo://app?vid=18f018e0-1c7f-4884-8612-59ad868abb57"},"vehicle_type_id":"4","last_reported":1700384789,"current_range_meters":31200,"station_id":"ce4bhjp2rcd13ifvqg90","pricing_plan_id":"free"},{"bike_id":"0612b137-cda2-42e8-b3aa-5bd9cb302c5d","system_id":"levelo_inurba_marseille","lat":43.262012,"lon":5.379307,"is_reserved":false,"is_disabled":false,"rental_uris":{"android":"levelo://app?vid=0612b137-cda2-42e8-b3aa-5bd9cb302c5d","ios":"levelo://app?vid=0612b137-cda2-42e8-b3aa-5bd9cb302c5d"},"vehicle_type_id":"4","last_reported":1700384789,"current_range_meters":18800,"station_id":"ce4bhjp2rcd13ifvqg90","pricing_plan_id":"free"},{"bike_id":"10cc9d15-12a4-4222-8ac4-988310eef869","system_id":"levelo_inurba_marseille","lat":43.262012,"lon":5.379307,"is_reserved":false,"is_disabled":false,"rental_uris":{"android":"levelo://app?vid=10cc9d15-12a4-4222-8ac4-988310eef869","ios":"levelo://app?vid=10cc9d15-12a4-4222-8ac4-988310eef869"},"vehicle_type_id":"4","last_reported":1700384789,"current_range_meters":31600,"station_id":"ce4bhjp2rcd13ifvqg90","pricing_plan_id":"free"},{"bike_id":"a27f2fe6-c9c1-4f41-b70b-8ecbc41e6bde","system_id":"levelo_inurba_marseille","lat":43.262012,"lon":5.379307,"is_reserved":false,"is_disabled":false,"rental_uris":{"android":"levelo://app?vid=a27f2fe6-c9c1-4f41-b70b-8ecbc41e6bde","ios":"levelo://app?vid=a27f2fe6-c9c1-4f41-b70b-8ecbc41e6bde"},"vehicle_type_id":"4","last_reported":1700384789,"current_range_meters":31200,"station_id":"ce4bhjp2rcd13ifvqg90","pricing_plan_id":"free"},{"bike_id":"05c00383-ec19-421b-b6cf-818fbc2db8ef","system_id":"levelo_inurba_marseille","lat":43.26202,"lon":5.379299,"is_reserved":false,"is_disabled":false,"rental_uris":{"android":"levelo://app?vid=05c00383-ec19-421b-b6cf-818fbc2db8ef","ios":"levelo://app?vid=05c00383-ec19-421b-b6cf-818fbc2db8ef"},"vehicle_type_id":"4","last_reported":1700384789,"current_range_meters":31600,"station_id":"ce4bhjp2rcd13ifvqg90","pricing_plan_id":"free"},{"bike_id":"621dbf3d-a8ce-4ff8-b7a2-b61746dd3457","system_id":"levelo_inurba_marseille","lat":43.26202,"lon":5.379299,"is_reserved":false,"is_disabled":false,"rental_uris":{"android":"levelo://app?vid=621dbf3d-a8ce-4ff8-b7a2-b61746dd3457","ios":"levelo://app?vid=621dbf3d-a8ce-4ff8-b7a2-b61746dd3457"},"vehicle_type_id":"4","last_reported":1700384789,"current_range_meters":26400,"station_id":"ce4bhjp2rcd13ifvqg90","pricing_plan_id":"free"},{"bike_id":"d06dceee-ec7a-4aad-b25e-6d0840a89e3d","system_id":"levelo_inurba_marseille","lat":43.262012,"lon":5.379307,"is_reserved":false,"is_disabled":false,"rental_uris":{"android":"levelo://app?vid=d06dceee-ec7a-4aad-b25e-6d0840a89e3d","ios":"levelo://app?vid=d06dceee-ec7a-4aad-b25e-6d0840a89e3d"},"vehicle_type_id":"4","last_reported":1700384789,"current_range_meters":31600,"station_id":"ce4bhjp2rcd13ifvqg90","pricing_plan_id":"free"},{"bike_id":"22b727a9-9142-4203-873d-af829385afe6","system_id":"levelo_inurba_marseille","lat":43.26202,"lon":5.379299,"is_reserved":false,"is_disabled":false,"rental_uris":{"android":"levelo://app?vid=22b727a9-9142-4203-873d-af829385afe6","ios":"levelo://app?vid=22b727a9-9142-4203-873d-af829385afe6"},"vehicle_type_id":"4","last_reported":1700384789,"current_range_meters":30000,"station_id":"ce4bhjp2rcd13ifvqg90","pricing_plan_id":"free"},{"bike_id":"bcf0b301-e2a1-41ec-acd8-ca3c9d017f9d","system_id":"levelo_inurba_marseille","lat":43.26202,"lon":5.379299,"is_reserved":false,"is_disabled":false,"rental_uris":{"android":"levelo://app?vid=bcf0b301-e2a1-41ec-acd8-ca3c9d017f9d","ios":"levelo://app?vid=bcf0b301-e2a1-41ec-acd8-ca3c9d017f9d"},"vehicle_type_id":"4","last_reported":1700384789,"current_range_meters":18400,"station_id":"ce4bhjp2rcd13ifvqg90","pricing_plan_id":"free"},{"bike_id":"c4692fbd-b674-4f72-93b8-b45e596d5484","system_id":"levelo_inurba_marseille","lat":43.26202,"lon":5.379299,"is_reserved":false,"is_disabled":false,"rental_uris":{"android":"levelo://app?vid=c4692fbd-b674-4f72-93b8-b45e596d5484","ios":"levelo://app?vid=c4692fbd-b674-4f72-93b8-b45e596d5484"},"vehicle_type_id":"4","last_reported":1700384789,"current_range_meters":22000,"station_id":"ce4bhjp2rcd13ifvqg90","pricing_plan_id":"free"},{"bike_id":"0ad1b81a-6990-449b-b6f7-a2b1217ae316","system_id":"levelo_inurba_marseille","lat":43.26202,"lon":5.379299,"is_reserved":false,"is_disabled":false,"rental_uris":{"android":"levelo://app?vid=0ad1b81a-6990-449b-b6f7-a2b1217ae316","ios":"levelo://app?vid=0ad1b81a-6990-449b-b6f7-a2b1217ae316"},"vehicle_type_id":"4","last_reported":1700384789,"current_range_meters":30800,"station_id":"ce4bhjp2rcd13ifvqg90","pricing_plan_id":"free"},{"bike_id":"6903a251-9f6c-44af-927a-5f7d93eb6a4d","system_id":"levelo_inurba_marseille","lat":43.26202,"lon":5.379299,"is_reserved":false,"is_disabled":false,"rental_uris":{"android":"levelo://app?vid=6903a251-9f6c-44af-927a-5f7d93eb6a4d","ios":"levelo://app?vid=6903a251-9f6c-44af-927a-5f7d93eb6a4d"},"vehicle_type_id":"4","last_reported":1700384789,"current_range_meters":26400,"station_id":"ce4bhjp2rcd13ifvqg90","pricing_plan_id":"free"},{"bike_id":"74ce853b-0d8b-42c9-81c8-17a7564a4b34","system_id":"levelo_inurba_marseille","lat":43.31725,"lon":5.43786,"is_reserved":false,"is_disabled":false,"rental_uris":{"android":"levelo://app?vid=74ce853b-0d8b-42c9-81c8-17a7564a4b34","ios":"levelo://app?vid=74ce853b-0d8b-42c9-81c8-17a7564a4b34"},"vehicle_type_id":"4","last_reported":1700384789,"current_range_meters":15200,"station_id":"","pricing_plan_id":"free"},{"bike_id":"abadc828-69fe-497b-b711-e5360a68b2c4","system_id":"levelo_inurba_marseille","lat":43.29899,"lon":5.43662,"is_reserved":false,"is_disabled":false,"rental_uris":{"android":"levelo://app?vid=abadc828-69fe-497b-b711-e5360a68b2c4","ios":"levelo://app?vid=abadc828-69fe-497b-b711-e5360a68b2c4"},"vehicle_type_id":"4","last_reported":1700384789,"current_range_meters":21600,"station_id":"ce4bhpp2rcd13ifvqhfg","pricing_plan_id":"free"},{"bike_id":"45ed86a4-0684-4575-a0c6-ec4dfbc28094","system_id":"levelo_inurba_marseille","lat":43.281548,"lon":5.42643,"is_reserved":false,"is_disabled":false,"rental_uris":{"android":"levelo://app?vid=45ed86a4-0684-4575-a0c6-ec4dfbc28094","ios":"levelo://app?vid=45ed86a4-0684-4575-a0c6-ec4dfbc28094"},"vehicle_type_id":"4","last_reported":1700384789,"current_range_meters":28800,"station_id":"ce4bhnh2rcd13ifvqgug","pricing_plan_id":"free"},{"bike_id":"eceaa0f3-52ef-4d0d-b422-04c8e585a271","system_id":"levelo_inurba_marseille","lat":43.28153,"lon":5.42643,"is_reserved":false,"is_disabled":false,"rental_uris":{"android":"levelo://app?vid=eceaa0f3-52ef-4d0d-b422-04c8e585a271","ios":"levelo://app?vid=eceaa0f3-52ef-4d0d-b422-04c8e585a271"},"vehicle_type_id":"4","last_reported":1700384789,"current_range_meters":0,"station_id":"ce4bhnh2rcd13ifvqgug","pricing_plan_id":"free"},{"bike_id":"606917ef-2bb5-4b6c-ad53-af5d00448cdd","system_id":"levelo_inurba_marseille","lat":43.281548,"lon":5.42643,"is_reserved":false,"is_disabled":false,"rental_uris":{"android":"levelo://app?vid=606917ef-2bb5-4b6c-ad53-af5d00448cdd","ios":"levelo://app?vid=606917ef-2bb5-4b6c-ad53-af5d00448cdd"},"vehicle_type_id":"4","last_reported":1700384789,"current_range_meters":26800,"station_id":"ce4bhnh2rcd13ifvqgug","pricing_plan_id":"free"},{"bike_id":"4b05078a-8712-4997-a6f5-f5ba1ef519e4","system_id":"levelo_inurba_marseille","lat":43.26064,"lon":5.3939,"is_reserved":false,"is_disabled":false,"rental_uris":{"android":"levelo://app?vid=4b05078a-8712-4997-a6f5-f5ba1ef519e4","ios":"levelo://app?vid=4b05078a-8712-4997-a6f5-f5ba1ef519e4"},"vehicle_type_id":"4","last_reported":1700384789,"current_range_meters":26400,"station_id":"ce4bhh92rcd13ifvqfj0","pricing_plan_id":"free"},{"bike_id":"039398bb-8f48-4a09-90e4-c695a075e1b2","system_id":"levelo_inurba_marseille","lat":43.275028,"lon":5.424534,"is_reserved":false,"is_disabled":false,"rental_uris":{"android":"levelo://app?vid=039398bb-8f48-4a09-90e4-c695a075e1b2","ios":"levelo://app?vid=039398bb-8f48-4a09-90e4-c695a075e1b2"},"vehicle_type_id":"4","last_reported":1700384789,"current_range_meters":28400,"station_id":"ce4bhn92rcd13ifvqgrg","pricing_plan_id":"free"},{"bike_id":"83adb50e-13ad-4a0a-b679-c8ddf78a1b0a","system_id":"levelo_inurba_marseille","lat":43.275028,"lon":5.424534,"is_reserved":false,"is_disabled":false,"rental_uris":{"android":"levelo://app?vid=83adb50e-13ad-4a0a-b679-c8ddf78a1b0a","ios":"levelo://app?vid=83adb50e-13ad-4a0a-b679-c8ddf78a1b0a"},"vehicle_type_id":"4","last_reported":1700384789,"current_range_meters":30400,"station_id":"ce4bhn92rcd13ifvqgrg","pricing_plan_id":"free"},{"bike_id":"91b3c4bf-7b19-45fb-b809-6f886f9aa480","system_id":"levelo_inurba_marseille","lat":43.275028,"lon":5.424534,"is_reserved":false,"is_disabled":false,"rental_uris":{"android":"levelo://app?vid=91b3c4bf-7b19-45fb-b809-6f886f9aa480","ios":"levelo://app?vid=91b3c4bf-7b19-45fb-b809-6f886f9aa480"},"vehicle_type_id":"4","last_reported":1700384789,"current_range_meters":30400,"station_id":"ce4bhn92rcd13ifvqgrg","pricing_plan_id":"free"},{"bike_id":"59c9bb6b-f70f-4f77-b590-86bbfd0d854d","system_id":"levelo_inurba_marseille","lat":43.275028,"lon":5.424534,"is_reserved":false,"is_disabled":false,"rental_uris":{"android":"levelo://app?vid=59c9bb6b-f70f-4f77-b590-86bbfd0d854d","ios":"levelo://app?vid=59c9bb6b-f70f-4f77-b590-86bbfd0d854d"},"vehicle_type_id":"4","last_reported":1700384789,"current_range_meters":31200,"station_id":"ce4bhn92rcd13ifvqgrg","pricing_plan_id":"free"},{"bike_id":"b15cbbda-e2a5-469d-83c7-b37d8c5ea310","system_id":"levelo_inurba_marseille","lat":43.25573,"lon":5.38238,"is_reserved":false,"is_disabled":false,"rental_uris":{"android":"levelo://app?vid=b15cbbda-e2a5-469d-83c7-b37d8c5ea310","ios":"levelo://app?vid=b15cbbda-e2a5-469d-83c7-b37d8c5ea310"},"vehicle_type_id":"4","last_reported":1700384789,"current_range_meters":31200,"station_id":"ce4bhih2rcd13ifvqfs0","pricing_plan_id":"free"},{"bike_id":"1aad1190-3717-48c1-b218-3940ae3995c4","system_id":"levelo_inurba_marseille","lat":43.27075,"lon":5.42276,"is_reserved":false,"is_disabled":false,"rental_uris":{"android":"levelo://app?vid=1aad1190-3717-48c1-b218-3940ae3995c4","ios":"levelo://app?vid=1aad1190-3717-48c1-b218-3940ae3995c4"},"vehicle_type_id":"4","last_reported":1700384789,"current_range_meters":31200,"station_id":"ce4bhk92rcd13ifvqgb0","pricing_plan_id":"free"},{"bike_id":"cb989517-ee46-4238-b180-43796805f4d9","system_id":"levelo_inurba_marseille","lat":43.27072,"lon":5.42276,"is_reserved":false,"is_disabled":false,"rental_uris":{"android":"levelo://app?vid=cb989517-ee46-4238-b180-43796805f4d9","ios":"levelo://app?vid=cb989517-ee46-4238-b180-43796805f4d9"},"vehicle_type_id":"4","last_reported":1700384789,"current_range_meters":24400,"station_id":"ce4bhk92rcd13ifvqgb0","pricing_plan_id":"free"},{"bike_id":"956f93f8-b714-4b88-a26b-a27fe26a895d","system_id":"levelo_inurba_marseille","lat":43.27066,"lon":5.42275,"is_reserved":false,"is_disabled":false,"rental_uris":{"android":"levelo://app?vid=956f93f8-b714-4b88-a26b-a27fe26a895d","ios":"levelo://app?vid=956f93f8-b714-4b88-a26b-a27fe26a895d"},"vehicle_type_id":"4","last_reported":1700384789,"current_range_meters":30000,"station_id":"ce4bhk92rcd13ifvqgb0","pricing_plan_id":"free"},{"bike_id":"762eb4ca-7b56-490a-bb37-65115b9449c7","system_id":"levelo_inurba_marseille","lat":43.259322,"lon":5.409058,"is_reserved":false,"is_disabled":false,"rental_uris":{"android":"levelo://app?vid=762eb4ca-7b56-490a-bb37-65115b9449c7","ios":"levelo://app?vid=762eb4ca-7b56-490a-bb37-65115b9449c7"},"vehicle_type_id":"4","last_reported":1700384789,"current_range_meters":26000,"station_id":"ce4bhm92rcd13ifvqglg","pricing_plan_id":"free"},{"bike_id":"fb0dbade-974d-4dbf-abb0-3a784f74d11d","system_id":"levelo_inurba_marseille","lat":43.259013,"lon":5.409301,"is_reserved":false,"is_disabled":false,"rental_uris":{"android":"levelo://app?vid=fb0dbade-974d-4dbf-abb0-3a784f74d11d","ios":"levelo://app?vid=fb0dbade-974d-4dbf-abb0-3a784f74d11d"},"vehicle_type_id":"4","last_reported":1700384789,"current_range_meters":30400,"station_id":"ce4bhm92rcd13ifvqglg","pricing_plan_id":"free"},{"bike_id":"7ad27884-6005-4573-b788-863e7849e691","system_id":"levelo_inurba_marseille","lat":43.257079,"lon":5.411051,"is_reserved":false,"is_disabled":false,"rental_uris":{"android":"levelo://app?vid=7ad27884-6005-4573-b788-863e7849e691","ios":"levelo://app?vid=7ad27884-6005-4573-b788-863e7849e691"},"vehicle_type_id":"4","last_reported":1700384789,"current_range_meters":0,"station_id":"ce4bhkp2rcd13ifvqgd0","pricing_plan_id":"free"},{"bike_id":"eda73509-5f55-4b2d-95fc-67f3395f85c0","system_id":"levelo_inurba_marseille","lat":43.25723,"lon":5.41108,"is_reserved":false,"is_disabled":false,"rental_uris":{"android":"levelo://app?vid=eda73509-5f55-4b2d-95fc-67f3395f85c0","ios":"levelo://app?vid=eda73509-5f55-4b2d-95fc-67f3395f85c0"},"vehicle_type_id":"4","last_reported":1700384789,"current_range_meters":0,"station_id":"ce4bhkp2rcd13ifvqgd0","pricing_plan_id":"free"},{"bike_id":"84ac4116-adbe-4285-9b6a-fe584b186601","system_id":"levelo_inurba_marseille","lat":43.257079,"lon":5.411051,"is_reserved":false,"is_disabled":false,"rental_uris":{"android":"levelo://app?vid=84ac4116-adbe-4285-9b6a-fe584b186601","ios":"levelo://app?vid=84ac4116-adbe-4285-9b6a-fe584b186601"},"vehicle_type_id":"4","last_reported":1700384789,"current_range_meters":31200,"station_id":"ce4bhkp2rcd13ifvqgd0","pricing_plan_id":"free"},{"bike_id":"3a2a0393-9c74-42a9-b999-b4b225a24ee8","system_id":"levelo_inurba_marseille","lat":43.2479,"lon":5.374457,"is_reserved":false,"is_disabled":false,"rental_uris":{"android":"levelo://app?vid=3a2a0393-9c74-42a9-b999-b4b225a24ee8","ios":"levelo://app?vid=3a2a0393-9c74-42a9-b999-b4b225a24ee8"},"vehicle_type_id":"4","last_reported":1700384789,"current_range_meters":26000,"station_id":"ce4bhgh2rcd13ifvqfb0","pricing_plan_id":"free"},{"bike_id":"a65fbc74-1667-450f-b52b-651e0c11848a","system_id":"levelo_inurba_marseille","lat":43.2479,"lon":5.374457,"is_reserved":false,"is_disabled":false,"rental_uris":{"android":"levelo://app?vid=a65fbc74-1667-450f-b52b-651e0c11848a","ios":"levelo://app?vid=a65fbc74-1667-450f-b52b-651e0c11848a"},"vehicle_type_id":"4","last_reported":1700384789,"current_range_meters":30800,"station_id":"ce4bhgh2rcd13ifvqfb0","pricing_plan_id":"free"},{"bike_id":"e87942d5-9632-44fa-8022-fc189571c723","system_id":"levelo_inurba_marseille","lat":43.2479,"lon":5.374457,"is_reserved":false,"is_disabled":false,"rental_uris":{"android":"levelo://app?vid=e87942d5-9632-44fa-8022-fc189571c723","ios":"levelo://app?vid=e87942d5-9632-44fa-8022-fc189571c723"},"vehicle_type_id":"4","last_reported":1700384789,"current_range_meters":1200,"station_id":"ce4bhgh2rcd13ifvqfb0","pricing_plan_id":"free"},{"bike_id":"636e98fb-c36f-477b-b6a3-9fb164c3e8b9","system_id":"levelo_inurba_marseille","lat":43.24676,"lon":5.38159,"is_reserved":false,"is_disabled":false,"rental_uris":{"android":"levelo://app?vid=636e98fb-c36f-477b-b6a3-9fb164c3e8b9","ios":"levelo://app?vid=636e98fb-c36f-477b-b6a3-9fb164c3e8b9"},"vehicle_type_id":"4","last_reported":1700384789,"current_range_meters":23200,"station_id":"ce4bhih2rcd13ifvqfr0","pricing_plan_id":"free"},{"bike_id":"70a6b8c4-2361-49ed-a09b-8896e0b10c40","system_id":"levelo_inurba_marseille","lat":43.24693,"lon":5.382096,"is_reserved":false,"is_disabled":false,"rental_uris":{"android":"levelo://app?vid=70a6b8c4-2361-49ed-a09b-8896e0b10c40","ios":"levelo://app?vid=70a6b8c4-2361-49ed-a09b-8896e0b10c40"},"vehicle_type_id":"4","last_reported":1700384789,"current_range_meters":28000,"station_id":"ce4bhih2rcd13ifvqfr0","pricing_plan_id":"free"},{"bike_id":"9b2fe227-238a-45a3-9510-48611cf3e5a3","system_id":"levelo_inurba_marseille","lat":43.24664,"lon":5.38156,"is_reserved":false,"is_disabled":false,"rental_uris":{"android":"levelo://app?vid=9b2fe227-238a-45a3-9510-48611cf3e5a3","ios":"levelo://app?vid=9b2fe227-238a-45a3-9510-48611cf3e5a3"},"vehicle_type_id":"4","last_reported":1700384789,"current_range_meters":31200,"station_id":"ce4bhih2rcd13ifvqfr0","pricing_plan_id":"free"},{"bike_id":"8a7d8c68-a1c0-4525-bb7e-ffb95fc1dae4","system_id":"levelo_inurba_marseille","lat":43.24664,"lon":5.381617,"is_reserved":false,"is_disabled":false,"rental_uris":{"android":"levelo://app?vid=8a7d8c68-a1c0-4525-bb7e-ffb95fc1dae4","ios":"levelo://app?vid=8a7d8c68-a1c0-4525-bb7e-ffb95fc1dae4"},"vehicle_type_id":"4","last_reported":1700384789,"current_range_meters":29600,"station_id":"ce4bhih2rcd13ifvqfr0","pricing_plan_id":"free"},{"bike_id":"8356bebe-915c-4139-ae0e-d6f616909471","system_id":"levelo_inurba_marseille","lat":43.246461,"lon":5.389014,"is_reserved":false,"is_disabled":false,"rental_uris":{"android":"levelo://app?vid=8356bebe-915c-4139-ae0e-d6f616909471","ios":"levelo://app?vid=8356bebe-915c-4139-ae0e-d6f616909471"},"vehicle_type_id":"4","last_reported":1700384789,"current_range_meters":31200,"station_id":"ce4bhg12rcd13ifvqf60","pricing_plan_id":"free"},{"bike_id":"a4c0fad4-3dda-42ab-a1d7-2e59d378604a","system_id":"levelo_inurba_marseille","lat":43.246467,"lon":5.388984,"is_reserved":false,"is_disabled":false,"rental_uris":{"android":"levelo://app?vid=a4c0fad4-3dda-42ab-a1d7-2e59d378604a","ios":"levelo://app?vid=a4c0fad4-3dda-42ab-a1d7-2e59d378604a"},"vehicle_type_id":"4","last_reported":1700384789,"current_range_meters":28800,"station_id":"ce4bhg12rcd13ifvqf60","pricing_plan_id":"free"},{"bike_id":"086614bc-dcbb-40d3-a6fe-9c8553503908","system_id":"levelo_inurba_marseille","lat":43.246467,"lon":5.388984,"is_reserved":false,"is_disabled":false,"rental_uris":{"android":"levelo://app?vid=086614bc-dcbb-40d3-a6fe-9c8553503908","ios":"levelo://app?vid=086614bc-dcbb-40d3-a6fe-9c8553503908"},"vehicle_type_id":"4","last_reported":1700384789,"current_range_meters":28400,"station_id":"ce4bhg12rcd13ifvqf60","pricing_plan_id":"free"},{"bike_id":"399b0fc9-e0c1-48a3-b8d1-977dbee35307","system_id":"levelo_inurba_marseille","lat":43.246461,"lon":5.389014,"is_reserved":false,"is_disabled":false,"rental_uris":{"android":"levelo://app?vid=399b0fc9-e0c1-48a3-b8d1-977dbee35307","ios":"levelo://app?vid=399b0fc9-e0c1-48a3-b8d1-977dbee35307"},"vehicle_type_id":"4","last_reported":1700384789,"current_range_meters":14000,"station_id":"ce4bhg12rcd13ifvqf60","pricing_plan_id":"free"},{"bike_id":"2e3af95f-ee41-421d-9973-d1eed6305545","system_id":"levelo_inurba_marseille","lat":43.243884,"lon":5.370736,"is_reserved":false,"is_disabled":false,"rental_uris":{"android":"levelo://app?vid=2e3af95f-ee41-421d-9973-d1eed6305545","ios":"levelo://app?vid=2e3af95f-ee41-421d-9973-d1eed6305545"},"vehicle_type_id":"4","last_reported":1700384789,"current_range_meters":31200,"station_id":"ce4bhhh2rcd13ifvqfk0","pricing_plan_id":"free"},{"bike_id":"07ddb17f-f355-4d01-be3d-86d8c3d54ce9","system_id":"levelo_inurba_marseille","lat":43.24389,"lon":5.37064,"is_reserved":false,"is_disabled":false,"rental_uris":{"android":"levelo://app?vid=07ddb17f-f355-4d01-be3d-86d8c3d54ce9","ios":"levelo://app?vid=07ddb17f-f355-4d01-be3d-86d8c3d54ce9"},"vehicle_type_id":"4","last_reported":1700384789,"current_range_meters":30800,"station_id":"ce4bhhh2rcd13ifvqfk0","pricing_plan_id":"free"},{"bike_id":"1ef78dd1-9f1a-43af-a2de-2d291af774ac","system_id":"levelo_inurba_marseille","lat":43.243884,"lon":5.370737,"is_reserved":false,"is_disabled":false,"rental_uris":{"android":"levelo://app?vid=1ef78dd1-9f1a-43af-a2de-2d291af774ac","ios":"levelo://app?vid=1ef78dd1-9f1a-43af-a2de-2d291af774ac"},"vehicle_type_id":"4","last_reported":1700384789,"current_range_meters":26000,"station_id":"ce4bhhh2rcd13ifvqfk0","pricing_plan_id":"free"},{"bike_id":"0cdfffb3-5cfd-4cc6-bd6c-5f8f1a333f61","system_id":"levelo_inurba_marseille","lat":43.243884,"lon":5.370737,"is_reserved":false,"is_disabled":false,"rental_uris":{"android":"levelo://app?vid=0cdfffb3-5cfd-4cc6-bd6c-5f8f1a333f61","ios":"levelo://app?vid=0cdfffb3-5cfd-4cc6-bd6c-5f8f1a333f61"},"vehicle_type_id":"4","last_reported":1700384789,"current_range_meters":24400,"station_id":"ce4bhhh2rcd13ifvqfk0","pricing_plan_id":"free"},{"bike_id":"6e03819b-20aa-4115-9f93-ed008282e9ee","system_id":"levelo_inurba_marseille","lat":43.243884,"lon":5.370737,"is_reserved":false,"is_disabled":false,"rental_uris":{"android":"levelo://app?vid=6e03819b-20aa-4115-9f93-ed008282e9ee","ios":"levelo://app?vid=6e03819b-20aa-4115-9f93-ed008282e9ee"},"vehicle_type_id":"4","last_reported":1700384789,"current_range_meters":31600,"station_id":"ce4bhhh2rcd13ifvqfk0","pricing_plan_id":"free"},{"bike_id":"31258c97-bd1e-42e9-8158-1d43c38d15f1","system_id":"levelo_inurba_marseille","lat":43.24384,"lon":5.37056,"is_reserved":false,"is_disabled":false,"rental_uris":{"android":"levelo://app?vid=31258c97-bd1e-42e9-8158-1d43c38d15f1","ios":"levelo://app?vid=31258c97-bd1e-42e9-8158-1d43c38d15f1"},"vehicle_type_id":"4","last_reported":1700384789,"current_range_meters":28000,"station_id":"ce4bhhh2rcd13ifvqfk0","pricing_plan_id":"free"},{"bike_id":"d2bd6a47-5856-4069-9e03-3769cd0f8353","system_id":"levelo_inurba_marseille","lat":43.245581,"lon":5.395069,"is_reserved":false,"is_disabled":false,"rental_uris":{"android":"levelo://app?vid=d2bd6a47-5856-4069-9e03-3769cd0f8353","ios":"levelo://app?vid=d2bd6a47-5856-4069-9e03-3769cd0f8353"},"vehicle_type_id":"4","last_reported":1700384789,"current_range_meters":27200,"station_id":"ce4bhlp2rcd13ifvqgjg","pricing_plan_id":"free"},{"bike_id":"348ba626-5d36-4888-836d-bc680ace7653","system_id":"levelo_inurba_marseille","lat":43.24071,"lon":5.37764,"is_reserved":false,"is_disabled":false,"rental_uris":{"android":"levelo://app?vid=348ba626-5d36-4888-836d-bc680ace7653","ios":"levelo://app?vid=348ba626-5d36-4888-836d-bc680ace7653"},"vehicle_type_id":"4","last_reported":1700384789,"current_range_meters":30800,"station_id":"ce4bhnp2rcd13ifvqgvg","pricing_plan_id":"free"},{"bike_id":"dd7ae16e-8c06-49aa-8343-2560838241a2","system_id":"levelo_inurba_marseille","lat":43.239588,"lon":5.366238,"is_reserved":false,"is_disabled":false,"rental_uris":{"android":"levelo://app?vid=dd7ae16e-8c06-49aa-8343-2560838241a2","ios":"levelo://app?vid=dd7ae16e-8c06-49aa-8343-2560838241a2"},"vehicle_type_id":"4","last_reported":1700384789,"current_range_meters":22000,"station_id":"ce4bhi12rcd13ifvqfp0","pricing_plan_id":"free"},{"bike_id":"4370869b-0c59-4e1b-b4c7-59bf3a7bc50e","system_id":"levelo_inurba_marseille","lat":43.241797,"lon":5.3972,"is_reserved":false,"is_disabled":false,"rental_uris":{"android":"levelo://app?vid=4370869b-0c59-4e1b-b4c7-59bf3a7bc50e","ios":"levelo://app?vid=4370869b-0c59-4e1b-b4c7-59bf3a7bc50e"},"vehicle_type_id":"4","last_reported":1700384789,"current_range_meters":14000,"station_id":"ce4bhn12rcd13ifvqgpg","pricing_plan_id":"free"},{"bike_id":"d9fd4f8d-322c-45fe-b651-4a9394dd3741","system_id":"levelo_inurba_marseille","lat":43.231923,"lon":5.355545,"is_reserved":false,"is_disabled":false,"rental_uris":{"android":"levelo://app?vid=d9fd4f8d-322c-45fe-b651-4a9394dd3741","ios":"levelo://app?vid=d9fd4f8d-322c-45fe-b651-4a9394dd3741"},"vehicle_type_id":"4","last_reported":1700384789,"current_range_meters":16400,"station_id":"ce4bhu92rcd13ifvqi70","pricing_plan_id":"free"},{"bike_id":"37416442-308e-4dea-bd51-2ca12166bbc7","system_id":"levelo_inurba_marseille","lat":43.231923,"lon":5.355545,"is_reserved":false,"is_disabled":false,"rental_uris":{"android":"levelo://app?vid=37416442-308e-4dea-bd51-2ca12166bbc7","ios":"levelo://app?vid=37416442-308e-4dea-bd51-2ca12166bbc7"},"vehicle_type_id":"4","last_reported":1700384789,"current_range_meters":25200,"station_id":"ce4bhu92rcd13ifvqi70","pricing_plan_id":"free"},{"bike_id":"8a62ccf4-93c4-408c-8efe-bc9afcdd6a80","system_id":"levelo_inurba_marseille","lat":43.231923,"lon":5.355545,"is_reserved":false,"is_disabled":false,"rental_uris":{"android":"levelo://app?vid=8a62ccf4-93c4-408c-8efe-bc9afcdd6a80","ios":"levelo://app?vid=8a62ccf4-93c4-408c-8efe-bc9afcdd6a80"},"vehicle_type_id":"4","last_reported":1700384789,"current_range_meters":26000,"station_id":"ce4bhu92rcd13ifvqi70","pricing_plan_id":"free"},{"bike_id":"73825668-897d-4ba7-8138-a1757218e46a","system_id":"levelo_inurba_marseille","lat":43.231923,"lon":5.355545,"is_reserved":false,"is_disabled":false,"rental_uris":{"android":"levelo://app?vid=73825668-897d-4ba7-8138-a1757218e46a","ios":"levelo://app?vid=73825668-897d-4ba7-8138-a1757218e46a"},"vehicle_type_id":"4","last_reported":1700384789,"current_range_meters":20400,"station_id":"ce4bhu92rcd13ifvqi70","pricing_plan_id":"free"},{"bike_id":"662f058d-46b1-4787-b52a-d29e98a28779","system_id":"levelo_inurba_marseille","lat":43.231919,"lon":5.355532,"is_reserved":false,"is_disabled":false,"rental_uris":{"android":"levelo://app?vid=662f058d-46b1-4787-b52a-d29e98a28779","ios":"levelo://app?vid=662f058d-46b1-4787-b52a-d29e98a28779"},"vehicle_type_id":"4","last_reported":1700384789,"current_range_meters":31200,"station_id":"ce4bhu92rcd13ifvqi70","pricing_plan_id":"free"},