{"last_updated":1748480096,"ttl":60,"version":"2.2","data":{"bikes":[{"bike_id":"dba3dbf7-9f80-4f77-baad-bdc1b1227129","system_id":"levelo_inurba_marseille","lat":43.217559,"lon":5.345932,"is_reserved":false,"is_disabled":false,"rental_uris":{"android":"levelo://app?vid=dba3dbf7-9f80-4f77-baad-bdc1b1227129","ios":"levelo://app?vid=dba3dbf7-9f80-4f77-baad-bdc1b1227129"},"vehicle_type_id":"4","last_reported":1748480097,"current_range_meters":2800,"station_id":"","pricing_plan_id":"cebpf4jnsgd1na2vs0mg"},{"bike_id":"b3c93464-c8e1-4657-9bd4-5944b0dd0829","system_id":"levelo_inurba_marseille","lat":43.31714,"lon":5.40437,"is_reserved":false,"is_disabled":false,"rental_uris":{"android":"levelo://app?vid=b3c93464-c8e1-4657-9bd4-5944b0dd0829","ios":"levelo://app?vid=b3c93464-c8e1-4657-9bd4-5944b0dd0829"},"vehicle_type_id":"4","last_reported":1748480097,"current_range_meters":2800,"station_id":"ce4bh012rcd13ifvqd00","pricing_plan_id":"cebpf4jnsgd1na2vs0mg"},{"bike_id":"245481d5-5850-44dc-b5cf-157473b2a4d8","system_id":"levelo_inurba_marseille","lat":43.28856,"lon":5.35863,"is_reserved":false,"is_disabled":false,"rental_uris":{"android":"levelo://app?vid=245481d5-5850-44dc-b5cf-157473b2a4d8","ios":"levelo://app?vid=245481d5-5850-44dc-b5cf-157473b2a4d8"},"vehicle_type_id":"4","last_reported":1748480097,"current_range_meters":3200,"station_id":"ce4bhb12rcd13ifvqem0","pricing_plan_id":"cebpf4jnsgd1na2vs0mg"},{"bike_id":"f43dbc0e-25d0-44b9-b94e-e0078c6cee1b","system_id":"levelo_inurba_marseille","lat":43.24069,"lon":5.37766,"is_reserved":false,"is_disabled":false,"rental_uris":{"android":"levelo://app?vid=f43dbc0e-25d0-44b9-b94e-e0078c6cee1b","ios":"levelo://app?vid=f43dbc0e-25d0-44b9-b94e-e0078c6cee1b"},"vehicle_type_id":"4","last_reported":1748480097,"current_range_meters":3200,"station_id":"ce4bhnp2rcd13ifvqgvg","pricing_plan_id":"cebpf4jnsgd1na2vs0mg"},{"bike_id":"e295cfa6-9931-4b55-91f9-e26606eef079","system_id":"levelo_inurba_marseille","lat":43.23176,"lon":5.39987,"is_reserved":false,"is_disabled":false,"rental_uris":{"android":"levelo://app?vid=e295cfa6-9931-4b55-91f9-e26606eef079","ios":"levelo://app?vid=e295cfa6-9931-4b55-91f9-e26606eef079"},"vehicle_type_id":"4","last_reported":1748480097,"current_range_meters":3600,"station_id":"ce4bhn12rcd13ifvqgqg","pricing_plan_id":"cebpf4jnsgd1na2vs0mg"},{"bike_id":"6f4a00d9-2c16-4132-830e-a7256c6ae260","system_id":"levelo_inurba_marseille","lat":43.308136,"lon":5.435271,"is_reserved":false,"is_disabled":false,"rental_uris":{"android":"levelo://app?vid=6f4a00d9-2c16-4132-830e-a7256c6ae260","ios":"levelo://app?vid=6f4a00d9-2c16-4132-830e-a7256c6ae260"},"vehicle_type_id":"4","last_reported":1748480097,"current_range_meters":3600,"station_id":"ce4bhph2rcd13ifvqheg","pricing_plan_id":"cebpf4jnsgd1na2vs0mg"},{"bike_id":"115fc79f-42bf-46c8-b58e-56bf2b72bd0a","system_id":"levelo_inurba_marseille","lat":43.26225,"lon":5.40452,"is_reserved":false,"is_disabled":false,"rental_uris":{"android":"levelo://app?vid=115fc79f-42bf-46c8-b58e-56bf2b72bd0a","ios":"levelo://app?vid=115fc79f-42bf-46c8-b58e-56bf2b72bd0a"},"vehicle_type_id":"4","last_reported":1748480097,"current_range_meters":3600,"station_id":"ce4bhmh2rcd13ifvqgmg","pricing_plan_id":"cebpf4jnsgd1na2vs0mg"},{"bike_id":"46da427d-bb52-4c45-a8be-3bb4593b6143","system_id":"levelo_inurba_marseille","lat":43.23185,"lon":5.39981,"is_reserved":false,"is_disabled":false,"rental_uris":{"android":"levelo://app?vid=46da427d-bb52-4c45-a8be-3bb4593b6143","ios":"levelo://app?vid=46da427d-bb52-4c45-a8be-3bb4593b6143"},"vehicle_type_id":"4","last_reported":1748480097,"current_range_meters":4000,"station_id":"ce4bhn12rcd13ifvqgqg","pricing_plan_id":"cebpf4jnsgd1na2vs0mg"},{"bike_id":"241a5d24-5777-49c6-a466-30cd83904d82","system_id":"levelo_inurba_marseille","lat":43.30304,"lon":5.39218,"is_reserved":false,"is_disabled":false,"rental_uris":{"android":"levelo://app?vid=241a5d24-5777-49c6-a466-30cd83904d82","ios":"levelo://app?vid=241a5d24-5777-49c6-a466-30cd83904d82"},"vehicle_type_id":"4","last_reported":1748480097,"current_range_meters":4000,"station_id":"ce4bgkh2rcd13ifvqbk0","pricing_plan_id":"cebpf4jnsgd1na2vs0mg"},{"bike_id":"de467d51-99c0-4ed7-b32f-c52170078127","system_id":"levelo_inurba_marseille","lat":43.23147,"lon":5.43725,"is_reserved":false,"is_disabled":false,"rental_uris":{"android":"levelo://app?vid=de467d51-99c0-4ed7-b32f-c52170078127","ios":"levelo://app?vid=de467d51-99c0-4ed7-b32f-c52170078127"},"vehicle_type_id":"4","last_reported":1748480097,"current_range_meters":4400,"station_id":"ce4bhmp2rcd13ifvqgog","pricing_plan_id":"cebpf4jnsgd1na2vs0mg"},{"bike_id":"2a305f10-0b7e-4a5c-b1bc-2b8a24f0b0e9","system_id":"levelo_inurba_marseille","lat":43.29649,"lon":5.36608,"is_reserved":false,"is_disabled":true,"rental_uris":{"android":"levelo://app?vid=2a305f10-0b7e-4a5c-b1bc-2b8a24f0b0e9","ios":"levelo://app?vid=2a305f10-0b7e-4a5c-b1bc-2b8a24f0b0e9"},"vehicle_type_id":"4","last_reported":1748480097,"current_range_meters":4400,"station_id":"ce4bgn12rcd13ifvqbt0","pricing_plan_id":"cebpf4jnsgd1na2vs0mg"},{"bike_id":"677239f9-f924-46d2-84f6-5f061d6df066","system_id":"levelo_inurba_marseille","lat":43.30581,"lon":5.37426,"is_reserved":false,"is_disabled":false,"rental_uris":{"android":"levelo://app?vid=677239f9-f924-46d2-84f6-5f061d6df066","ios":"levelo://app?vid=677239f9-f924-46d2-84f6-5f061d6df066"},"vehicle_type_id":"4","last_reported":1748480097,"current_range_meters":4400,"station_id":"","pricing_plan_id":"cebpf4jnsgd1na2vs0mg"},{"bike_id":"0fb9e420-f989-4f10-bf03-c43cdb76d392","system_id":"levelo_inurba_marseille","lat":43.25109,"lon":5.4035,"is_reserved":false,"is_disabled":false,"rental_uris":{"android":"levelo://app?vid=0fb9e420-f989-4f10-bf03-c43cdb76d392","ios":"levelo://app?vid=0fb9e420-f989-4f10-bf03-c43cdb76d392"},"vehicle_type_id":"4","last_reported":1748480097,"current_range_meters":4800,"station_id":"ce4bhlh2rcd13ifvqgig","pricing_plan_id":"cebpf4jnsgd1na2vs0mg"},{"bike_id":"a5f90b1e-a09e-40ad-8d54-7442721c8689","system_id":"levelo_inurba_marseille","lat":43.24616,"lon":5.39264,"is_reserved":false,"is_disabled":false,"rental_uris":{"android":"levelo://app?vid=a5f90b1e-a09e-40ad-8d54-7442721c8689","ios":"levelo://app?vid=a5f90b1e-a09e-40ad-8d54-7442721c8689"},"vehicle_type_id":"4","last_reported":1748480097,"current_range_meters":4800,"station_id":"","pricing_plan_id":"cebpf4jnsgd1na2vs0mg"},{"bike_id":"f08ad698-d33a-402b-b0cc-a6e3d0d8f118","system_id":"levelo_inurba_marseille","lat":43.30646,"lon":5.4009,"is_reserved":false,"is_disabled":false,"rental_uris":{"android":"levelo://app?vid=f08ad698-d33a-402b-b0cc-a6e3d0d8f118","ios":"levelo://app?vid=f08ad698-d33a-402b-b0cc-a6e3d0d8f118"},"vehicle_type_id":"4","last_reported":1748480097,"current_range_meters":4800,"station_id":"ce4bh112rcd13ifvqda0","pricing_plan_id":"cebpf4jnsgd1na2vs0mg"},{"bike_id":"85ab9e49-2de9-4c78-9df8-e03a0245b0f2","system_id":"levelo_inurba_marseille","lat":43.253506,"lon":5.3951,"is_reserved":false,"is_disabled":false,"rental_uris":{"android":"levelo://app?vid=85ab9e49-2de9-4c78-9df8-e03a0245b0f2","ios":"levelo://app?vid=85ab9e49-2de9-4c78-9df8-e03a0245b0f2"},"vehicle_type_id":"4","last_reported":1748480097,"current_range_meters":4800,"station_id":"","pricing_plan_id":"cebpf4jnsgd1na2vs0mg"},{"bike_id":"106a6c35-356d-40a4-9d1b-3a8604b3267c","system_id":"levelo_inurba_marseille","lat":43.27912,"lon":5.39581,"is_reserved":false,"is_disabled":false,"rental_uris":{"android":"levelo://app?vid=106a6c35-356d-40a4-9d1b-3a8604b3267c","ios":"levelo://app?vid=106a6c35-356d-40a4-9d1b-3a8604b3267c"},"vehicle_type_id":"4","last_reported":1748480097,"current_range_meters":4800,"station_id":"ce4bhf92rcd13ifvqf40","pricing_plan_id":"cebpf4jnsgd1na2vs0mg"},{"bike_id":"e662cfdf-7308-445f-8e14-4d33034d33f2","system_id":"levelo_inurba_marseille","lat":43.2511,"lon":5.40322,"is_reserved":false,"is_disabled":false,"rental_uris":{"android":"levelo://app?vid=e662cfdf-7308-445f-8e14-4d33034d33f2","ios":"levelo://app?vid=e662cfdf-7308-445f-8e14-4d33034d33f2"},"vehicle_type_id":"4","last_reported":1748480097,"current_range_meters":5600,"station_id":"ce4bhlh2rcd13ifvqgig","pricing_plan_id":"cebpf4jnsgd1na2vs0mg"},{"bike_id":"76370031-680b-4307-af81-d596fd3d0ce7","system_id":"levelo_inurba_marseille","lat":43.28411,"lon":5.34982,"is_reserved":false,"is_disabled":true,"rental_uris":{"android":"levelo://app?vid=76370031-680b-4307-af81-d596fd3d0ce7","ios":"levelo://app?vid=76370031-680b-4307-af81-d596fd3d0ce7"},"vehicle_type_id":"4","last_reported":1748480097,"current_range_meters":5600,"station_id":"ce4bhbh2rcd13ifvqepg","pricing_plan_id":"cebpf4jnsgd1na2vs0mg"},{"bike_id":"6d2f49d4-4079-41f0-a189-90db2e417369","system_id":"levelo_inurba_marseille","lat":43.33347,"lon":5.40043,"is_reserved":false,"is_disabled":false,"rental_uris":{"android":"levelo://app?vid=6d2f49d4-4079-41f0-a189-90db2e417369","ios":"levelo://app?vid=6d2f49d4-4079-41f0-a189-90db2e417369"},"vehicle_type_id":"4","last_reported":1748480097,"current_range_meters":5600,"station_id":"","pricing_plan_id":"cebpf4jnsgd1na2vs0mg"},{"bike_id":"87b395fb-0dfd-464d-b68d-3afc622e0d48","system_id":"levelo_inurba_marseille","lat":43.29549,"lon":5.39479,"is_reserved":false,"is_disabled":false,"rental_uris":{"android":"levelo://app?vid=87b395fb-0dfd-464d-b68d-3afc622e0d48","ios":"levelo://app?vid=87b395fb-0dfd-464d-b68d-3afc622e0d48"},"vehicle_type_id":"4","last_reported":1748480097,"current_range_meters":6000,"station_id":"","pricing_plan_id":"cebpf4jnsgd1na2vs0mg"},{"bike_id":"ae26cb89-80d8-43a8-94bb-929d63f82635","system_id":"levelo_inurba_marseille","lat":43.26866,"lon":5.4024,"is_reserved":false,"is_disabled":false,"rental_uris":{"android":"levelo://app?vid=ae26cb89-80d8-43a8-94bb-929d63f82635","ios":"levelo://app?vid=ae26cb89-80d8-43a8-94bb-929d63f82635"},"vehicle_type_id":"4","last_reported":1748480097,"current_range_meters":6000,"station_id":"ce501612rcd8frsf0b60","pricing_plan_id":"cebpf4jnsgd1na2vs0mg"},{"bike_id":"697f1bc0-ae34-4ad9-8ede-6a27c99a6ea7","system_id":"levelo_inurba_marseille","lat":43.279799,"lon":5.416601,"is_reserved":false,"is_disabled":false,"rental_uris":{"android":"levelo://app?vid=697f1bc0-ae34-4ad9-8ede-6a27c99a6ea7","ios":"levelo://app?vid=697f1bc0-ae34-4ad9-8ede-6a27c99a6ea7"},"vehicle_type_id":"4","last_reported":1748480097,"current_range_meters":6000,"station_id":"ce4bho12rcd13ifvqh1g","pricing_plan_id":"cebpf4jnsgd1na2vs0mg"},{"bike_id":"866d113d-64c4-4cfe-b7af-da6d530e6c3b","system_id":"levelo_inurba_marseille","lat":43.275712,"lon":5.384167,"is_reserved":false,"is_disabled":false,"rental_uris":{"android":"levelo://app?vid=866d113d-64c4-4cfe-b7af-da6d530e6c3b","ios":"levelo://app?vid=866d113d-64c4-4cfe-b7af-da6d530e6c3b"},"vehicle_type_id":"4","last_reported":1748480097,"current_range_meters":6000,"station_id":"","pricing_plan_id":"cebpf4jnsgd1na2vs0mg"},{"bike_id":"e1364e17-964d-4c3a-a68e-ace0c23aee68","system_id":"levelo_inurba_marseille","lat":43.288433,"lon":5.393007,"is_reserved":false,"is_disabled":false,"rental_uris":{"android":"levelo://app?vid=e1364e17-964d-4c3a-a68e-ace0c23aee68","ios":"levelo://app?vid=e1364e17-964d-4c3a-a68e-ace0c23aee68"},"vehicle_type_id":"4","last_reported":1748480097,"current_range_meters":6400,"station_id":"ce4bh2p2rcd13ifvqdi0","pricing_plan_id":"cebpf4jnsgd1na2vs0mg"},{"bike_id":"b095846c-4887-40ad-8d68-3d7e693a3b76","system_id":"levelo_inurba_marseille","lat":43.29578,"lon":5.36748,"is_reserved":false,"is_disabled":false,"rental_uris":{"android":"levelo://app?vid=b095846c-4887-40ad-8d68-3d7e693a3b76","ios":"levelo://app?vid=b095846c-4887-40ad-8d68-3d7e693a3b76"},"vehicle_type_id":"4","last_reported":1748480097,"current_range_meters":6400,"station_id":"ce4bgph2rcd13ifvqc2g","pricing_plan_id":"cebpf4jnsgd1na2vs0mg"},{"bike_id":"cb64b351-3409-46f0-b01e-e491ea3ea909","system_id":"levelo_inurba_marseille","lat":43.31691,"lon":5.40469,"is_reserved":false,"is_disabled":false,"rental_uris":{"android":"levelo://app?vid=cb64b351-3409-46f0-b01e-e491ea3ea909","ios":"levelo://app?vid=cb64b351-3409-46f0-b01e-e491ea3ea909"},"vehicle_type_id":"4","last_reported":1748480097,"current_range_meters":6400,"station_id":"ce4bh012rcd13ifvqd00","pricing_plan_id":"cebpf4jnsgd1na2vs0mg"},{"bike_id":"8b686f9a-13e4-448a-8045-4620b1af486c","system_id":"levelo_inurba_marseille","lat":43.30643,"lon":5.40097,"is_reserved":false,"is_disabled":false,"rental_uris":{"android":"levelo://app?vid=8b686f9a-13e4-448a-8045-4620b1af486c","ios":"levelo://app?vid=8b686f9a-13e4-448a-8045-4620b1af486c"},"vehicle_type_id":"4","last_reported":1748480097,"current_range_meters":6400,"station_id":"ce4bh112rcd13ifvqda0","pricing_plan_id":"cebpf4jnsgd1na2vs0mg"},{"bike_id":"1f78c7be-8f9c-4473-9f21-eee2f772f31b","system_id":"levelo_inurba_marseille","lat":43.30637,"lon":5.4008,"is_reserved":false,"is_disabled":false,"rental_uris":{"android":"levelo://app?vid=1f78c7be-8f9c-4473-9f21-eee2f772f31b","ios":"levelo://app?vid=1f78c7be-8f9c-4473-9f21-eee2f772f31b"},"vehicle_type_id":"4","last_reported":1748480097,"current_range_meters":6400,"station_id":"ce4bh112rcd13ifvqda0","pricing_plan_id":"cebpf4jnsgd1na2vs0mg"},{"bike_id":"c16f45c8-8980-4c29-a7e2-2799edb64f78","system_id":"levelo_inurba_marseille","lat":43.217487,"lon":5.346077,"is_reserved":false,"is_disabled":false,"rental_uris":{"android":"levelo://app?vid=c16f45c8-8980-4c29-a7e2-2799edb64f78","ios":"levelo://app?vid=c16f45c8-8980-4c29-a7e2-2799edb64f78"},"vehicle_type_id":"4","last_reported":1748480097,"current_range_meters":6400,"station_id":"st_cvj6r9ubvosntc0bgbag","pricing_plan_id":"cebpf4jnsgd1na2vs0mg"},{"bike_id":"1a9deaa6-5b0b-41ea-a3a0-9c49f0de8473","system_id":"levelo_inurba_marseille","lat":43.293299,"lon":5.411635,"is_reserved":false,"is_disabled":false,"rental_uris":{"android":"levelo://app?vid=1a9deaa6-5b0b-41ea-a3a0-9c49f0de8473","ios":"levelo://app?vid=1a9deaa6-5b0b-41ea-a3a0-9c49f0de8473"},"vehicle_type_id":"4","last_reported":1748480097,"current_range_meters":6400,"station_id":"","pricing_plan_id":"cebpf4jnsgd1na2vs0mg"},{"bike_id":"3619bc50-34e1-46a8-bfd9-5bc3ccdb8275","system_id":"levelo_inurba_marseille","lat":43.305943,"lon":5.372187,"is_reserved":false,"is_disabled":false,"rental_uris":{"android":"levelo://app?vid=3619bc50-34e1-46a8-bfd9-5bc3ccdb8275","ios":"levelo://app?vid=3619bc50-34e1-46a8-bfd9-5bc3ccdb8275"},"vehicle_type_id":"4","last_reported":1748480097,"current_range_meters":6400,"station_id":"ce4bgqh2rcd13ifvqc4g","pricing_plan_id":"cebpf4jnsgd1na2vs0mg"},{"bike_id":"55edb2b6-24f5-484b-a859-47a014e0bde2","system_id":"levelo_inurba_marseille","lat":43.3261,"lon":5.36636,"is_reserved":false,"is_disabled":false,"rental_uris":{"android":"levelo://app?vid=55edb2b6-24f5-484b-a859-47a014e0bde2","ios":"levelo://app?vid=55edb2b6-24f5-484b-a859-47a014e0bde2"},"vehicle_type_id":"4","last_reported":1748480097,"current_range_meters":6400,"station_id":"","pricing_plan_id":"cebpf4jnsgd1na2vs0mg"},{"bike_id":"a9228830-f2fd-416c-8099-1b13ccad4339","system_id":"levelo_inurba_marseille","lat":43.29273,"lon":5.38452,"is_reserved":false,"is_disabled":true,"rental_uris":{"android":"levelo://app?vid=a9228830-f2fd-416c-8099-1b13ccad4339","ios":"levelo://app?vid=a9228830-f2fd-416c-8099-1b13ccad4339"},"vehicle_type_id":"4","last_reported":1748480097,"current_range_meters":6800,"station_id":"ce4bh692rcd13ifvqea0","pricing_plan_id":"cebpf4jnsgd1na2vs0mg"},{"bike_id":"e81c314f-503d-4896-a793-3e0edb6bdb80","system_id":"levelo_inurba_marseille","lat":43.32286,"lon":5.38285,"is_reserved":false,"is_disabled":false,"rental_uris":{"android":"levelo://app?vid=e81c314f-503d-4896-a793-3e0edb6bdb80","ios":"levelo://app?vid=e81c314f-503d-4896-a793-3e0edb6bdb80"},"vehicle_type_id":"4","last_reported":1748480097,"current_range_meters":6800,"station_id":"ce4bhr12rcd13ifvqhqg","pricing_plan_id":"cebpf4jnsgd1na2vs0mg"},{"bike_id":"e79ef05e-bb28-4c4b-a45f-1945f54353c7","system_id":"levelo_inurba_marseille","lat":43.240684,"lon":5.377601,"is_reserved":false,"is_disabled":false,"rental_uris":{"android":"levelo://app?vid=e79ef05e-bb28-4c4b-a45f-1945f54353c7","ios":"levelo://app?vid=e79ef05e-bb28-4c4b-a45f-1945f54353c7"},"vehicle_type_id":"4","last_reported":1748480097,"current_range_meters":6800,"station_id":"ce4bhnp2rcd13ifvqgvg","pricing_plan_id":"cebpf4jnsgd1na2vs0mg"},{"bike_id":"98234324-f3a3-438f-801c-39490a7c5660","system_id":"levelo_inurba_marseille","lat":43.33715,"lon":5.39196,"is_reserved":false,"is_disabled":false,"rental_uris":{"android":"levelo://app?vid=98234324-f3a3-438f-801c-39490a7c5660","ios":"levelo://app?vid=98234324-f3a3-438f-801c-39490a7c5660"},"vehicle_type_id":"4","last_reported":1748480097,"current_range_meters":6800,"station_id":"ce4bhr92rcd13ifvqhsg","pricing_plan_id":"cebpf4jnsgd1na2vs0mg"},{"bike_id":"b80ee325-09b2-4724-993d-4f8d3707c41c","system_id":"levelo_inurba_marseille","lat":43.25862,"lon":5.39902,"is_reserved":false,"is_disabled":false,"rental_uris":{"android":"levelo://app?vid=b80ee325-09b2-4724-993d-4f8d3707c41c","ios":"levelo://app?vid=b80ee325-09b2-4724-993d-4f8d3707c41c"},"vehicle_type_id":"4","last_reported":1748480097,"current_range_meters":6800,"station_id":"ce4bhl92rcd13ifvqghg","pricing_plan_id":"cebpf4jnsgd1na2vs0mg"},{"bike_id":"988fe2ed-8287-4d9f-8686-7ec6ac079397","system_id":"levelo_inurba_marseille","lat":43.32654,"lon":5.41003,"is_reserved":false,"is_disabled":false,"rental_uris":{"android":"levelo://app?vid=988fe2ed-8287-4d9f-8686-7ec6ac079397","ios":"levelo://app?vid=988fe2ed-8287-4d9f-8686-7ec6ac079397"},"vehicle_type_id":"4","last_reported":1748480097,"current_range_meters":6800,"station_id":"ce4bhpp2rcd13ifvqhgg","pricing_plan_id":"cebpf4jnsgd1na2vs0mg"},{"bike_id":"d440bf96-43ec-45b0-b01f-1c5328ca29b2","system_id":"levelo_inurba_marseille","lat":43.27964,"lon":5.38706,"is_reserved":false,"is_disabled":false,"rental_uris":{"android":"levelo://app?vid=d440bf96-43ec-45b0-b01f-1c5328ca29b2","ios":"levelo://app?vid=d440bf96-43ec-45b0-b01f-1c5328ca29b2"},"vehicle_type_id":"4","last_reported":1748480097,"current_range_meters":6800,"station_id":"ce4bhg12rcd13ifvqf80","pricing_plan_id":"cebpf4jnsgd1na2vs0mg"},{"bike_id":"7911cebf-5c32-4409-bd84-2cbae9e6ba97","system_id":"levelo_inurba_marseille","lat":43.32315,"lon":5.40643,"is_reserved":false,"is_disabled":false,"rental_uris":{"android":"levelo://app?vid=7911cebf-5c32-4409-bd84-2cbae9e6ba97","ios":"levelo://app?vid=7911cebf-5c32-4409-bd84-2cbae9e6ba97"},"vehicle_type_id":"4","last_reported":1748480097,"current_range_meters":6800,"station_id":"ce4bhq92rcd13ifvqhjg","pricing_plan_id":"cebpf4jnsgd1na2vs0mg"},{"bike_id":"69764f42-9c92-445f-936a-157bbf235d43","system_id":"levelo_inurba_marseille","lat":43.27552,"lon":5.38431,"is_reserved":false,"is_disabled":false,"rental_uris":{"android":"levelo://app?vid=69764f42-9c92-445f-936a-157bbf235d43","ios":"levelo://app?vid=69764f42-9c92-445f-936a-157bbf235d43"},"vehicle_type_id":"4","last_reported":1748480097,"current_range_meters":7200,"station_id":"ce4bhh92rcd13ifvqfi0","pricing_plan_id":"cebpf4jnsgd1na2vs0mg"},{"bike_id":"4cef4ba0-ac2b-44a5-a9f1-671a7ebe112a","system_id":"levelo_inurba_marseille","lat":43.29583,"lon":5.37721,"is_reserved":false,"is_disabled":true,"rental_uris":{"android":"levelo://app?vid=4cef4ba0-ac2b-44a5-a9f1-671a7ebe112a","ios":"levelo://app?vid=4cef4ba0-ac2b-44a5-a9f1-671a7ebe112a"},"vehicle_type_id":"4","last_reported":1748480097,"current_range_meters":7200,"station_id":"","pricing_plan_id":"cebpf4jnsgd1na2vs0mg"},{"bike_id":"c3a0bd73-5813-47f0-a5c8-27701041c8ba","system_id":"levelo_inurba_marseille","lat":43.272524,"lon":5.424168,"is_reserved":false,"is_disabled":false,"rental_uris":{"android":"levelo://app?vid=c3a0bd73-5813-47f0-a5c8-27701041c8ba","ios":"levelo://app?vid=c3a0bd73-5813-47f0-a5c8-27701041c8ba"},"vehicle_type_id":"4","last_reported":1748480097,"current_range_meters":7200,"station_id":"","pricing_plan_id":"cebpf4jnsgd1na2vs0mg"},{"bike_id":"df573b2d-d96b-437c-950b-a9db51be316d","system_id":"levelo_inurba_marseille","lat":43.279366,"lon":5.38694,"is_reserved":false,"is_disabled":false,"rental_uris":{"android":"levelo://app?vid=df573b2d-d96b-437c-950b-a9db51be316d","ios":"levelo://app?vid=df573b2d-d96b-437c-950b-a9db51be316d"},"vehicle_type_id":"4","last_reported":1748480097,"current_range_meters":7200,"station_id":"ce4bhg12rcd13ifvqf80","pricing_plan_id":"cebpf4jnsgd1na2vs0mg"},{"bike_id":"1490c9d6-e6f8-49e5-a25d-0d3c77d24807","system_id":"levelo_inurba_marseille","lat":43.29299,"lon":5.374419,"is_reserved":false,"is_disabled":true,"rental_uris":{"android":"levelo://app?vid=1490c9d6-e6f8-49e5-a25d-0d3c77d24807","ios":"levelo://app?vid=1490c9d6-e6f8-49e5-a25d-0d3c77d24807"},"vehicle_type_id":"4","last_reported":1748480097,"current_range_meters":7200,"station_id":"ce4bgi12rcd13ifvqb70","pricing_plan_id":"cebpf4jnsgd1na2vs0mg"},{"bike_id":"f0e44009-6064-4d67-80b4-0bb60ffccf01","system_id":"levelo_inurba_marseille","lat":43.285509,"lon":5.366547,"is_reserved":false,"is_disabled":false,"rental_uris":{"android":"levelo://app?vid=f0e44009-6064-4d67-80b4-0bb60ffccf01","ios":"levelo://app?vid=f0e44009-6064-4d67-80b4-0bb60ffccf01"},"vehicle_type_id":"4","last_reported":1748480097,"current_range_meters":7200,"station_id":"","pricing_plan_id":"cebpf4jnsgd1na2vs0mg"},{"bike_id":"6daa8532-90f0-4e90-9a0f-15827473e401","system_id":"levelo_inurba_marseille","lat":43.28713,"lon":5.37392,"is_reserved":false,"is_disabled":false,"rental_uris":{"android":"levelo://app?vid=6daa8532-90f0-4e90-9a0f-15827473e401","ios":"levelo://app?vid=6daa8532-90f0-4e90-9a0f-15827473e401"},"vehicle_type_id":"4","last_reported":1748480097,"current_range_meters":7200,"station_id":"ce4bh3p2rcd13ifvqdq0","pricing_plan_id":"cebpf4jnsgd1na2vs0mg"},{"bike_id":"9167ea6a-ce66-49ff-859f-3ca7c151003d","system_id":"levelo_inurba_marseille","lat":43.24165,"lon":5.39766,"is_reserved":false,"is_disabled":false,"rental_uris":{"android":"levelo://app?vid=9167ea6a-ce66-49ff-859f-3ca7c151003d","ios":"levelo://app?vid=9167ea6a-ce66-49ff-859f-3ca7c151003d"},"vehicle_type_id":"4","last_reported":1748480097,"current_range_meters":7200,"station_id":"ce4bhn12rcd13ifvqgpg","pricing_plan_id":"cebpf4jnsgd1na2vs0mg"},{"bike_id":"98d347c6-14e6-4d92-b31c-7483df770580","system_id":"levelo_inurba_marseille","lat":43.262291,"lon":5.404539,"is_reserved":false,"is_disabled":false,"rental_uris":{"android":"levelo://app?vid=98d347c6-14e6-4d92-b31c-7483df770580","ios":"levelo://app?vid=98d347c6-14e6-4d92-b31c-7483df770580"},"vehicle_type_id":"4","last_reported":1748480097,"current_range_meters":7200,"station_id":"ce4bhmh2rcd13ifvqgmg","pricing_plan_id":"cebpf4jnsgd1na2vs0mg"},{"bike_id":"86a0ec9e-90d4-4728-be37-b9edf8d62e1f","system_id":"levelo_inurba_marseille","lat":43.30247,"lon":5.40087,"is_reserved":false,"is_disabled":false,"rental_uris":{"android":"levelo://app?vid=86a0ec9e-90d4-4728-be37-b9edf8d62e1f","ios":"levelo://app?vid=86a0ec9e-90d4-4728-be37-b9edf8d62e1f"},"vehicle_type_id":"4","last_reported":1748480097,"current_range_meters":7200,"station_id":"ce4bgvh2rcd13ifvqcs0","pricing_plan_id":"cebpf4jnsgd1na2vs0mg"},{"bike_id":"763880fe-4da6-494d-946c-4c320b31fa71","system_id":"levelo_inurba_marseille","lat":43.262258,"lon":5.40455,"is_reserved":false,"is_disabled":false,"rental_uris":{"android":"levelo://app?vid=763880fe-4da6-494d-946c-4c320b31fa71","ios":"levelo://app?vid=763880fe-4da6-494d-946c-4c320b31fa71"},"vehicle_type_id":"4","last_reported":1748480097,"current_range_meters":7200,"station_id":"ce4bhmh2rcd13ifvqgmg","pricing_plan_id":"cebpf4jnsgd1na2vs0mg"},{"bike_id":"4bd6d0a0-4db6-4150-a5c3-53fe71224bf4","system_id":"levelo_inurba_marseille","lat":43.306393,"lon":5.40095,"is_reserved":false,"is_disabled":false,"rental_uris":{"android":"levelo://app?vid=4bd6d0a0-4db6-4150-a5c3-53fe71224bf4","ios":"levelo://app?vid=4bd6d0a0-4db6-4150-a5c3-53fe71224bf4"},"vehicle_type_id":"4","last_reported":1748480097,"current_range_meters":7200,"station_id":"ce4bh112rcd13ifvqda0","pricing_plan_id":"cebpf4jnsgd1na2vs0mg"},{"bike_id":"d6afef92-1e9d-4e7b-b45d-22e7b0c32974","system_id":"levelo_inurba_marseille","lat":43.278332,"lon":5.392186,"is_reserved":false,"is_disabled":false,"rental_uris":{"android":"levelo://app?vid=d6afef92-1e9d-4e7b-b45d-22e7b0c32974","ios":"levelo://app?vid=d6afef92-1e9d-4e7b-b45d-22e7b0c32974"},"vehicle_type_id":"4","last_reported":1748480097,"current_range_meters":7200,"station_id":"ce4bhjp2rcd13ifvqga0","pricing_plan_id":"cebpf4jnsgd1na2vs0mg"},{"bike_id":"dbb98080-afe1-4f67-a1ed-7f90e29671f7","system_id":"levelo_inurba_marseille","lat":43.29785,"lon":5.39348,"is_reserved":false,"is_disabled":false,"rental_uris":{"android":"levelo://app?vid=dbb98080-afe1-4f67-a1ed-7f90e29671f7","ios":"levelo://app?vid=dbb98080-afe1-4f67-a1ed-7f90e29671f7"},"vehicle_type_id":"4","last_reported":1748480097,"current_range_meters":7200,"station_id":"chh1huq6cuj3fo74tm60","pricing_plan_id":"cebpf4jnsgd1na2vs0mg"},{"bike_id":"37f4fec6-9d38-4dc0-afbc-9f93885d1b60","system_id":"levelo_inurba_marseille","lat":43.2721,"lon":5.39207,"is_reserved":false,"is_disabled":true,"rental_uris":{"android":"levelo://app?vid=37f4fec6-9d38-4dc0-afbc-9f93885d1b60","ios":"levelo://app?vid=37f4fec6-9d38-4dc0-afbc-9f93885d1b60"},"vehicle_type_id":"4","last_reported":1748480097,"current_range_meters":8000,"station_id":"ce4bhhp2rcd13ifvqfm0","pricing_plan_id":"cebpf4jnsgd1na2vs0mg"},{"bike_id":"e7c8a9b9-0f7e-4f93-8f26-86f0646a609e","system_id":"levelo_inurba_marseille","lat":43.33093,"lon":5.38515,"is_reserved":false,"is_disabled":false,"rental_uris":{"android":"levelo://app?vid=e7c8a9b9-0f7e-4f93-8f26-86f0646a609e","ios":"levelo://app?vid=e7c8a9b9-0f7e-4f93-8f26-86f0646a609e"},"vehicle_type_id":"4","last_reported":1748480097,"current_range_meters":8000,"station_id":"","pricing_plan_id":"cebpf4jnsgd1na2vs0mg"},{"bike_id":"b7a33bbb-6066-48e1-b85c-2222ee8ba61d","system_id":"levelo_inurba_marseille","lat":43.297173,"lon":5.377048,"is_reserved":false,"is_disabled":false,"rental_uris":{"android":"levelo://app?vid=b7a33bbb-6066-48e1-b85c-2222ee8ba61d","ios":"levelo://app?vid=b7a33bbb-6066-48e1-b85c-2222ee8ba61d"},"vehicle_type_id":"4","last_reported":1748480097,"current_range_meters":8000,"station_id":"ce4bgkh2rcd13ifvqbl0","pricing_plan_id":"cebpf4jnsgd1na2vs0mg"},{"bike_id":"44a04aac-0228-4a88-b1c4-62daa67746f4","system_id":"levelo_inurba_marseille","lat":43.30374,"lon":5.42505,"is_reserved":false,"is_disabled":false,"rental_uris":{"android":"levelo://app?vid=44a04aac-0228-4a88-b1c4-62daa67746f4","ios":"levelo://app?vid=44a04aac-0228-4a88-b1c4-62daa67746f4"},"vehicle_type_id":"4","last_reported":1748480097,"current_range_meters":8000,"station_id":"ce4bhoh2rcd13ifvqh6g","pricing_plan_id":"cebpf4jnsgd1na2vs0mg"},{"bike_id":"aeb94751-36eb-4d35-b5b3-2fa799561193","system_id":"levelo_inurba_marseille","lat":43.30777,"lon":5.37673,"is_reserved":false,"is_disabled":false,"rental_uris":{"android":"levelo://app?vid=aeb94751-36eb-4d35-b5b3-2fa799561193","ios":"levelo://app?vid=aeb94751-36eb-4d35-b5b3-2fa799561193"},"vehicle_type_id":"4","last_reported":1748480097,"current_range_meters":8000,"station_id":"ce4bgv92rcd13ifvqcq0","pricing_plan_id":"cebpf4jnsgd1na2vs0mg"},{"bike_id":"bd8d8271-3162-4f3f-85e7-f53b01c3406b","system_id":"levelo_inurba_marseille","lat":43.309241,"lon":5.401435,"is_reserved":false,"is_disabled":true,"rental_uris":{"android":"levelo://app?vid=bd8d8271-3162-4f3f-85e7-f53b01c3406b","ios":"levelo://app?vid=bd8d8271-3162-4f3f-85e7-f53b01c3406b"},"vehicle_type_id":"4","last_reported":1748480097,"current_range_meters":8000,"station_id":"ce4bgvp2rcd13ifvqct0","pricing_plan_id":"cebpf4jnsgd1na2vs0mg"},{"bike_id":"ce7b18e4-7948-40ae-b647-c69f45870dbb","system_id":"levelo_inurba_marseille","lat":43.30946,"lon":5.40193,"is_reserved":false,"is_disabled":false,"rental_uris":{"android":"levelo://app?vid=ce7b18e4-7948-40ae-b647-c69f45870dbb","ios":"levelo://app?vid=ce7b18e4-7948-40ae-b647-c69f45870dbb"},"vehicle_type_id":"4","last_reported":1748480097,"current_range_meters":8000,"station_id":"ce4bgvp2rcd13ifvqct0","pricing_plan_id":"cebpf4jnsgd1na2vs0mg"},{"bike_id":"eefbf0be-aede-4ce4-8e0c-8d5278212334","system_id":"levelo_inurba_marseille","lat":43.25119,"lon":5.40341,"is_reserved":false,"is_disabled":false,"rental_uris":{"android":"levelo://app?vid=eefbf0be-aede-4ce4-8e0c-8d5278212334","ios":"levelo://app?vid=eefbf0be-aede-4ce4-8e0c-8d5278212334"},"vehicle_type_id":"4","last_reported":1748480097,"current_range_meters":8000,"station_id":"ce4bhlh2rcd13ifvqgig","pricing_plan_id":"cebpf4jnsgd1na2vs0mg"},{"bike_id":"5ae6a790-62ab-42ea-baed-eafc474ab230","system_id":"levelo_inurba_marseille","lat":43.28403,"lon":5.37517,"is_reserved":false,"is_disabled":false,"rental_uris":{"android":"levelo://app?vid=5ae6a790-62ab-42ea-baed-eafc474ab230","ios":"levelo://app?vid=5ae6a790-62ab-42ea-baed-eafc474ab230"},"vehicle_type_id":"4","last_reported":1748480097,"current_range_meters":8000,"station_id":"ce4bh412rcd13ifvqds0","pricing_plan_id":"cebpf4jnsgd1na2vs0mg"},{"bike_id":"40794707-6e59-4c1b-b75b-bcc6d0555614","system_id":"levelo_inurba_marseille","lat":43.3063,"lon":5.4012,"is_reserved":false,"is_disabled":false,"rental_uris":{"android":"levelo://app?vid=40794707-6e59-4c1b-b75b-bcc6d0555614","ios":"levelo://app?vid=40794707-6e59-4c1b-b75b-bcc6d0555614"},"vehicle_type_id":"4","last_reported":1748480097,"current_range_meters":8000,"station_id":"ce4bh112rcd13ifvqda0","pricing_plan_id":"cebpf4jnsgd1na2vs0mg"},{"bike_id":"14d8a64e-f166-4845-9109-27e7626ddad2","system_id":"levelo_inurba_marseille","lat":43.29438,"lon":5.39752,"is_reserved":false,"is_disabled":false,"rental_uris":{"android":"levelo://app?vid=14d8a64e-f166-4845-9109-27e7626ddad2","ios":"levelo://app?vid=14d8a64e-f166-4845-9109-27e7626ddad2"},"vehicle_type_id":"4","last_reported":1748480097,"current_range_meters":8400,"station_id":"ce4bh3h2rcd13ifvqdo0","pricing_plan_id":"cebpf4jnsgd1na2vs0mg"},{"bike_id":"8f873e24-264b-446b-82f7-9634ff6df46c","system_id":"levelo_inurba_marseille","lat":43.275684,"lon":5.384052,"is_reserved":false,"is_disabled":false,"rental_uris":{"android":"levelo://app?vid=8f873e24-264b-446b-82f7-9634ff6df46c","ios":"levelo://app?vid=8f873e24-264b-446b-82f7-9634ff6df46c"},"vehicle_type_id":"4","last_reported":1748480097,"current_range_meters":8400,"station_id":"ce4bhh92rcd13ifvqfi0","pricing_plan_id":"cebpf4jnsgd1na2vs0mg"},{"bike_id":"6d7cfdcd-f061-4eee-b4e5-78d9b6729328","system_id":"levelo_inurba_marseille","lat":43.33004,"lon":5.43868,"is_reserved":false,"is_disabled":false,"rental_uris":{"android":"levelo://app?vid=6d7cfdcd-f061-4eee-b4e5-78d9b6729328","ios":"levelo://app?vid=6d7cfdcd-f061-4eee-b4e5-78d9b6729328"},"vehicle_type_id":"4","last_reported":1748480097,"current_range_meters":8400,"station_id":"","pricing_plan_id":"cebpf4jnsgd1na2vs0mg"},{"bike_id":"b6194222-a80b-43bc-b765-fba2143e9c5c","system_id":"levelo_inurba_marseille","lat":43.23188,"lon":5.35587,"is_reserved":false,"is_disabled":false,"rental_uris":{"android":"levelo://app?vid=b6194222-a80b-43bc-b765-fba2143e9c5c","ios":"levelo://app?vid=b6194222-a80b-43bc-b765-fba2143e9c5c"},"vehicle_type_id":"4","last_reported":1748480097,"current_range_meters":8400,"station_id":"ce4bhu92rcd13ifvqi70","pricing_plan_id":"cebpf4jnsgd1na2vs0mg"},{"bike_id":"1e984330-ab10-4007-af5f-426b77eb9559","system_id":"levelo_inurba_marseille","lat":43.29197,"lon":5.36047,"is_reserved":false,"is_disabled":true,"rental_uris":{"android":"levelo://app?vid=1e984330-ab10-4007-af5f-426b77eb9559","ios":"levelo://app?vid=1e984330-ab10-4007-af5f-426b77eb9559"},"vehicle_type_id":"4","last_reported":1748480097,"current_range_meters":8400,"station_id":"ce4bhbh2rcd13ifvqeqg","pricing_plan_id":"cebpf4jnsgd1na2vs0mg"},{"bike_id":"9721cd7f-ea30-43fa-842c-6366d2551e9e","system_id":"levelo_inurba_marseille","lat":43.315332,"lon":5.403544,"is_reserved":false,"is_disabled":false,"rental_uris":{"android":"levelo://app?vid=9721cd7f-ea30-43fa-842c-6366d2551e9e","ios":"levelo://app?vid=9721cd7f-ea30-43fa-842c-6366d2551e9e"},"vehicle_type_id":"4","last_reported":1748480097,"current_range_meters":8400,"station_id":"","pricing_plan_id":"cebpf4jnsgd1na2vs0mg"},{"bike_id":"c2695326-f3eb-4763-9eb1-bd6f2d75705f","system_id":"levelo_inurba_marseille","lat":43.25117,"lon":5.40362,"is_reserved":false,"is_disabled":false,"rental_uris":{"android":"levelo://app?vid=c2695326-f3eb-4763-9eb1-bd6f2d75705f","ios":"levelo://app?vid=c2695326-f3eb-4763-9eb1-bd6f2d75705f"},"vehicle_type_id":"4","last_reported":1748480097,"current_range_meters":8400,"station_id":"ce4bhlh2rcd13ifvqgig","pricing_plan_id":"cebpf4jnsgd1na2vs0mg"},{"bike_id":"c914e26e-e24f-4b89-a75d-fd06751881c6","system_id":"levelo_inurba_marseille","lat":43.2894,"lon":5.36385,"is_reserved":false,"is_disabled":false,"rental_uris":{"android":"levelo://app?vid=c914e26e-e24f-4b89-a75d-fd06751881c6","ios":"levelo://app?vid=c914e26e-e24f-4b89-a75d-fd06751881c6"},"vehicle_type_id":"4","last_reported":1748480097,"current_range_meters":8400,"station_id":"ce4bhc92rcd13ifvqetg","pricing_plan_id":"cebpf4jnsgd1na2vs0mg"},{"bike_id":"d7f0491a-6c5a-4872-bfb0-1e6a5e34ed7a","system_id":"levelo_inurba_marseille","lat":43.278384,"lon":5.392106,"is_reserved":false,"is_disabled":false,"rental_uris":{"android":"levelo://app?vid=d7f0491a-6c5a-4872-bfb0-1e6a5e34ed7a","ios":"levelo://app?vid=d7f0491a-6c5a-4872-bfb0-1e6a5e34ed7a"},"vehicle_type_id":"4","last_reported":1748480097,"current_range_meters":8400,"station_id":"ce4bhjp2rcd13ifvqga0","pricing_plan_id":"cebpf4jnsgd1na2vs0mg"},{"bike_id":"be4b293e-8744-4637-8ca2-a3e9032e9cec","system_id":"levelo_inurba_marseille","lat":43.22934,"lon":5.35414,"is_reserved":false,"is_disabled":false,"rental_uris":{"android":"levelo://app?vid=be4b293e-8744-4637-8ca2-a3e9032e9cec","ios":"levelo://app?vid=be4b293e-8744-4637-8ca2-a3e9032e9cec"},"vehicle_type_id":"4","last_reported":1748480097,"current_range_meters":8400,"station_id":"cpo3532slgdg3j2ikp40","pricing_plan_id":"cebpf4jnsgd1na2vs0mg"},{"bike_id":"7a707bfe-00ad-4f17-909b-325e9c05b69d","system_id":"levelo_inurba_marseille","lat":43.30753,"lon":5.38265,"is_reserved":false,"is_disabled":false,"rental_uris":{"android":"levelo://app?vid=7a707bfe-00ad-4f17-909b-325e9c05b69d","ios":"levelo://app?vid=7a707bfe-00ad-4f17-909b-325e9c05b69d"},"vehicle_type_id":"4","last_reported":1748480097,"current_range_meters":8400,"station_id":"","pricing_plan_id":"cebpf4jnsgd1na2vs0mg"},{"bike_id":"985a5028-4b22-4637-856d-8c1e1dd035e0","system_id":"levelo_inurba_marseille","lat":43.294,"lon":5.40132,"is_reserved":false,"is_disabled":false,"rental_uris":{"android":"levelo://app?vid=985a5028-4b22-4637-856d-8c1e1dd035e0","ios":"levelo://app?vid=985a5028-4b22-4637-856d-8c1e1dd035e0"},"vehicle_type_id":"4","last_reported":1748480097,"current_range_meters":8400,"station_id":"","pricing_plan_id":"cebpf4jnsgd1na2vs0mg"},{"bike_id":"5ac03d5d-e8e8-44b3-b0df-294b6ff6ad10","system_id":"levelo_inurba_marseille","lat":43.3249,"lon":5.36573,"is_reserved":false,"is_disabled":true,"rental_uris":{"android":"levelo://app?vid=5ac03d5d-e8e8-44b3-b0df-294b6ff6ad10","ios":"levelo://app?vid=5ac03d5d-e8e8-44b3-b0df-294b6ff6ad10"},"vehicle_type_id":"4","last_reported":1748480097,"current_range_meters":8400,"station_id":"ce4bhs12rcd13ifvqhvg","pricing_plan_id":"cebpf4jnsgd1na2vs0mg"},{"bike_id":"ec0ebdf9-cb53-48e7-81b4-04ea0281e16f","system_id":"levelo_inurba_marseille","lat":43.29314,"lon":5.37186,"is_reserved":false,"is_disabled":true,"rental_uris":{"android":"levelo://app?vid=ec0ebdf9-cb53-48e7-81b4-04ea0281e16f","ios":"levelo://app?vid=ec0ebdf9-cb53-48e7-81b4-04ea0281e16f"},"vehicle_type_id":"4","last_reported":1748480097,"current_range_meters":8400,"station_id":"ce4bgh92rcd13ifvqb40","pricing_plan_id":"cebpf4jnsgd1na2vs0mg"},{"bike_id":"de2dda29-88dd-45e1-94e7-b7d73f6ade15","system_id":"levelo_inurba_marseille","lat":43.270625,"lon":5.402545,"is_reserved":false,"is_disabled":true,"rental_uris":{"android":"levelo://app?vid=de2dda29-88dd-45e1-94e7-b7d73f6ade15","ios":"levelo://app?vid=de2dda29-88dd-45e1-94e7-b7d73f6ade15"},"vehicle_type_id":"4","last_reported":1748480097,"current_range_meters":8800,"station_id":"ce4bhk92rcd13ifvqgc0","pricing_plan_id":"cebpf4jnsgd1na2vs0mg"},{"bike_id":"f5e66f69-e025-4550-b63a-d6001fbb4e92","system_id":"levelo_inurba_marseille","lat":43.28458,"lon":5.39182,"is_reserved":false,"is_disabled":false,"rental_uris":{"android":"levelo://app?vid=f5e66f69-e025-4550-b63a-d6001fbb4e92","ios":"levelo://app?vid=f5e66f69-e025-4550-b63a-d6001fbb4e92"},"vehicle_type_id":"4","last_reported":1748480097,"current_range_meters":8800,"station_id":"ce4bhoh2rcd13ifvqh5g","pricing_plan_id":"cebpf4jnsgd1na2vs0mg"},{"bike_id":"39237a4d-1869-4c40-896a-ab5c39731355","system_id":"levelo_inurba_marseille","lat":43.28076,"lon":5.39654,"is_reserved":false,"is_disabled":false,"rental_uris":{"android":"levelo://app?vid=39237a4d-1869-4c40-896a-ab5c39731355","ios":"levelo://app?vid=39237a4d-1869-4c40-896a-ab5c39731355"},"vehicle_type_id":"4","last_reported":1748480097,"current_range_meters":8800,"station_id":"ce4bho12rcd13ifvqh2g","pricing_plan_id":"cebpf4jnsgd1na2vs0mg"},{"bike_id":"3c68f385-ffba-4d15-b971-4641effeeac9","system_id":"levelo_inurba_marseille","lat":43.282243,"lon":5.390752,"is_reserved":false,"is_disabled":false,"rental_uris":{"android":"levelo://app?vid=3c68f385-ffba-4d15-b971-4641effeeac9","ios":"levelo://app?vid=3c68f385-ffba-4d15-b971-4641effeeac9"},"vehicle_type_id":"4","last_reported":1748480097,"current_range_meters":8800,"station_id":"","pricing_plan_id":"cebpf4jnsgd1na2vs0mg"},{"bike_id":"31560863-b995-424e-9f41-9635ed4dfad2","system_id":"levelo_inurba_marseille","lat":43.29979,"lon":5.37181,"is_reserved":false,"is_disabled":false,"rental_uris":{"android":"levelo://app?vid=31560863-b995-424e-9f41-9635ed4dfad2","ios":"levelo://app?vid=31560863-b995-424e-9f41-9635ed4dfad2"},"vehicle_type_id":"4","last_reported":1748480097,"current_range_meters":8800,"station_id":"ce4bgr92rcd13ifvqc7g","pricing_plan_id":"cebpf4jnsgd1na2vs0mg"},{"bike_id":"ec7e7c64-370a-4897-8757-5ed4dfbc529b","system_id":"levelo_inurba_marseille","lat":43.306528,"lon":5.400925,"is_reserved":false,"is_disabled":false,"rental_uris":{"android":"levelo://app?vid=ec7e7c64-370a-4897-8757-5ed4dfbc529b","ios":"levelo://app?vid=ec7e7c64-370a-4897-8757-5ed4dfbc529b"},"vehicle_type_id":"4","last_reported":1748480097,"current_range_meters":8800,"station_id":"ce4bh112rcd13ifvqda0","pricing_plan_id":"cebpf4jnsgd1na2vs0mg"},{"bike_id":"9d8a073e-f5f9-4c10-b98c-72efc4846a30","system_id":"levelo_inurba_marseille","lat":43.30285,"lon":5.4471,"is_reserved":false,"is_disabled":false,"rental_uris":{"android":"levelo://app?vid=9d8a073e-f5f9-4c10-b98c-72efc4846a30","ios":"levelo://app?vid=9d8a073e-f5f9-4c10-b98c-72efc4846a30"},"vehicle_type_id":"4","last_reported":1748480097,"current_range_meters":8800,"station_id":"","pricing_plan_id":"cebpf4jnsgd1na2vs0mg"},{"bike_id":"0c2931e3-efa6-4677-8fe3-5845950a3358","system_id":"levelo_inurba_marseille","lat":43.30927,"lon":5.40139,"is_reserved":false,"is_disabled":false,"rental_uris":{"android":"levelo://app?vid=0c2931e3-efa6-4677-8fe3-5845950a3358","ios":"levelo://app?vid=0c2931e3-efa6-4677-8fe3-5845950a3358"},"vehicle_type_id":"4","last_reported":1748480097,"current_range_meters":9200,"station_id":"ce4bgvp2rcd13ifvqct0","pricing_plan_id":"cebpf4jnsgd1na2vs0mg"},{"bike_id":"5050b52e-8ad3-400c-9ba1-7c7971cc22da","system_id":"levelo_inurba_marseille","lat":43.29881,"lon":5.397603,"is_reserved":false,"is_disabled":false,"rental_uris":{"android":"levelo://app?vid=5050b52e-8ad3-400c-9ba1-7c7971cc22da","ios":"levelo://app?vid=5050b52e-8ad3-400c-9ba1-7c7971cc22da"},"vehicle_type_id":"4","last_reported":1748480097,"current_range_meters":9200,"station_id":"ce4bh0h2rcd13ifvqd50","pricing_plan_id":"cebpf4jnsgd1na2vs0mg"},{"bike_id":"346b4841-9c0b-4ec9-8c69-927873e37bb5","system_id":"levelo_inurba_marseille","lat":43.298737,"lon":5.363157,"is_reserved":false,"is_disabled":false,"rental_uris":{"android":"levelo://app?vid=346b4841-9c0b-4ec9-8c69-927873e37bb5","ios":"levelo://app?vid=346b4841-9c0b-4ec9-8c69-927873e37bb5"},"vehicle_type_id":"4","last_reported":1748480097,"current_range_meters":9200,"station_id":"ce4bgpp2rcd13ifvqc3g","pricing_plan_id":"cebpf4jnsgd1na2vs0mg"},{"bike_id":"ea1281e7-dfe3-4633-90b5-7161399423fb","system_id":"levelo_inurba_marseille","lat":43.31263,"lon":5.36818,"is_reserved":false,"is_disabled":false,"rental_uris":{"android":"levelo://app?vid=ea1281e7-dfe3-4633-90b5-7161399423fb","ios":"levelo://app?vid=ea1281e7-dfe3-4633-90b5-7161399423fb"},"vehicle_type_id":"4","last_reported":1748480097,"current_range_meters":9200,"station_id":"","pricing_plan_id":"cebpf4jnsgd1na2vs0mg"},{"bike_id":"f8c15c65-9895-4a9d-a81b-e6b60d02fc72","system_id":"levelo_inurba_marseille","lat":43.28276,"lon":5.35073,"is_reserved":false,"is_disabled":true,"rental_uris":{"android":"levelo://app?vid=f8c15c65-9895-4a9d-a81b-e6b60d02fc72","ios":"levelo://app?vid=f8c15c65-9895-4a9d-a81b-e6b60d02fc72"},"vehicle_type_id":"4","last_reported":1748480097,"current_range_meters":9200,"station_id":"ce4bhbp2rcd13ifvqerg","pricing_plan_id":"cebpf4jnsgd1na2vs0mg"},{"bike_id":"abc52584-52a9-4216-b4b9-ecbc8e101ebb","system_id":"levelo_inurba_marseille","lat":43.306467,"lon":5.400775,"is_reserved":false,"is_disabled":false,"rental_uris":{"android":"levelo://app?vid=abc52584-52a9-4216-b4b9-ecbc8e101ebb","ios":"levelo://app?vid=abc52584-52a9-4216-b4b9-ecbc8e101ebb"},"vehicle_type_id":"4","last_reported":1748480097,"current_range_meters":9200,"station_id":"ce4bh112rcd13ifvqda0","pricing_plan_id":"cebpf4jnsgd1na2vs0mg"},{"bike_id":"4e9c0d33-96b9-4025-b4e5-c57900c7a815","system_id":"levelo_inurba_marseille","lat":43.282123,"lon":5.390506,"is_reserved":false,"is_disabled":false,"rental_uris":{"android":"levelo://app?vid=4e9c0d33-96b9-4025-b4e5-c57900c7a815","ios":"levelo://app?vid=4e9c0d33-96b9-4025-b4e5-c57900c7a815"},"vehicle_type_id":"4","last_reported":1748480097,"current_range_meters":9200,"station_id":"","pricing_plan_id":"cebpf4jnsgd1na2vs0mg"},{"bike_id":"69738aec-b766-4e59-af2e-e276a589d400","system_id":"levelo_inurba_marseille","lat":43.31346,"lon":5.38511,"is_reserved":false,"is_disabled":false,"rental_uris":{"android":"levelo://app?vid=69738aec-b766-4e59-af2e-e276a589d400","ios":"levelo://app?vid=69738aec-b766-4e59-af2e-e276a589d400"},"vehicle_type_id":"4","last_reported":1748480097,"current_range_meters":9200,"station_id":"ce4bgt92rcd13ifvqcf0","pricing_plan_id":"cebpf4jnsgd1na2vs0mg"},{"bike_id":"16578a9c-c460-4d38-be25-a20250881a73","system_id":"levelo_inurba_marseille","lat":43.322185,"lon":5.384284,"is_reserved":false,"is_disabled":false,"rental_uris":{"android":"levelo://app?vid=16578a9c-c460-4d38-be25-a20250881a73","ios":"levelo://app?vid=16578a9c-c460-4d38-be25-a20250881a73"},"vehicle_type_id":"4","last_reported":1748480097,"current_range_meters":9200,"station_id":"","pricing_plan_id":"cebpf4jnsgd1na2vs0mg"},{"bike_id":"5cc874f1-fcba-418a-95cb-eb3493ff9f0b","system_id":"levelo_inurba_marseille","lat":43.316951,"lon":5.405003,"is_reserved":false,"is_disabled":false,"rental_uris":{"android":"levelo://app?vid=5cc874f1-fcba-418a-95cb-eb3493ff9f0b","ios":"levelo://app?vid=5cc874f1-fcba-418a-95cb-eb3493ff9f0b"},"vehicle_type_id":"4","last_reported":1748480097,"current_range_meters":9200,"station_id":"ce4bh012rcd13ifvqd00","pricing_plan_id":"cebpf4jnsgd1na2vs0mg"},{"bike_id":"84adab0f-96c1-4426-bc86-147d47e6151b","system_id":"levelo_inurba_marseille","lat":43.23188,"lon":5.35551,"is_reserved":false,"is_disabled":true,"rental_uris":{"android":"levelo://app?vid=84adab0f-96c1-4426-bc86-147d47e6151b","ios":"levelo://app?vid=84adab0f-96c1-4426-bc86-147d47e6151b"},"vehicle_type_id":"4","last_reported":1748480097,"current_range_meters":9600,"station_id":"ce4bhu92rcd13ifvqi70","pricing_plan_id":"cebpf4jnsgd1na2vs0mg"},{"bike_id":"bb56860a-7122-4a88-9171-ed630c433268","system_id":"levelo_inurba_marseille","lat":43.295066,"lon":5.374448,"is_reserved":false,"is_disabled":false,"rental_uris":{"android":"levelo://app?vid=bb56860a-7122-4a88-9171-ed630c433268","ios":"levelo://app?vid=bb56860a-7122-4a88-9171-ed630c433268"},"vehicle_type_id":"4","last_reported":1748480097,"current_range_meters":9600,"station_id":"ce4bgh92rcd13ifvqb50","pricing_plan_id":"cebpf4jnsgd1na2vs0mg"},{"bike_id":"0dde7803-e4b4-44c8-98fe-68ad6fa3cde1","system_id":"levelo_inurba_marseille","lat":43.317311,"lon":5.388874,"is_reserved":false,"is_disabled":false,"rental_uris":{"android":"levelo://app?vid=0dde7803-e4b4-44c8-98fe-68ad6fa3cde1","ios":"levelo://app?vid=0dde7803-e4b4-44c8-98fe-68ad6fa3cde1"},"vehicle_type_id":"4","last_reported":1748480097,"current_range_meters":9600,"station_id":"","pricing_plan_id":"cebpf4jnsgd1na2vs0mg"},{"bike_id":"aa5c75fb-cdc6-4d95-a688-9ff7eed31797","system_id":"levelo_inurba_marseille","lat":43.24171,"lon":5.397355,"is_reserved":false,"is_disabled":false,"rental_uris":{"android":"levelo://app?vid=aa5c75fb-cdc6-4d95-a688-9ff7eed31797","ios":"levelo://app?vid=aa5c75fb-cdc6-4d95-a688-9ff7eed31797"},"vehicle_type_id":"4","last_reported":1748480097,"current_range_meters":9600,"station_id":"ce4bhn12rcd13ifvqgpg","pricing_plan_id":"cebpf4jnsgd1na2vs0mg"},{"bike_id":"13a6a841-3459-47e7-971d-92fcebf24d8e","system_id":"levelo_inurba_marseille","lat":43.29904,"lon":5.38152,"is_reserved":false,"is_disabled":false,"rental_uris":{"android":"levelo://app?vid=13a6a841-3459-47e7-971d-92fcebf24d8e","ios":"levelo://app?vid=13a6a841-3459-47e7-971d-92fcebf24d8e"},"vehicle_type_id":"4","last_reported":1748480097,"current_range_meters":9200,"station_id":"ce4bgj12rcd13ifvqbc0","pricing_plan_id":"cebpf4jnsgd1na2vs0mg"},{"bike_id":"02621bdd-080c-40a2-a335-f196c80705db","system_id":"levelo_inurba_marseille","lat":43.287221,"lon":5.361024,"is_reserved":false,"is_disabled":false,"rental_uris":{"android":"levelo://app?vid=02621bdd-080c-40a2-a335-f196c80705db","ios":"levelo://app?vid=02621bdd-080c-40a2-a335-f196c80705db"},"vehicle_type_id":"4","last_reported":1748480097,"current_range_meters":9600,"station_id":"cki0cbj6b192h4jlfktg","pricing_plan_id":"cebpf4jnsgd1na2vs0mg"},{"bike_id":"abb0a9c1-8e29-40f4-91c1-27168702ad5c","system_id":"levelo_inurba_marseille","lat":43.30121,"lon":5.38803,"is_reserved":false,"is_disabled":true,"rental_uris":{"android":"levelo://app?vid=abb0a9c1-8e29-40f4-91c1-27168702ad5c","ios":"levelo://app?vid=abb0a9c1-8e29-40f4-91c1-27168702ad5c"},"vehicle_type_id":"4","last_reported":1748480097,"current_range_meters":9600,"station_id":"ce4bghh2rcd13ifvqb60","pricing_plan_id":"cebpf4jnsgd1na2vs0mg"},{"bike_id":"e2695898-3d8e-445c-b107-83d988a84c50","system_id":"levelo_inurba_marseille","lat":43.28032,"lon":5.36951,"is_reserved":false,"is_disabled":false,"rental_uris":{"android":"levelo://app?vid=e2695898-3d8e-445c-b107-83d988a84c50","ios":"levelo://app?vid=e2695898-3d8e-445c-b107-83d988a84c50"},"vehicle_type_id":"4","last_reported":1748480097,"current_range_meters":9600,"station_id":"ce4bha12rcd13ifvqef0","pricing_plan_id":"cebpf4jnsgd1na2vs0mg"},{"bike_id":"16f8c46e-dbc6-4ab1-941f-3d93ad546819","system_id":"levelo_inurba_marseille","lat":43.32285,"lon":5.38268,"is_reserved":false,"is_disabled":false,"rental_uris":{"android":"levelo://app?vid=16f8c46e-dbc6-4ab1-941f-3d93ad546819","ios":"levelo://app?vid=16f8c46e-dbc6-4ab1-941f-3d93ad546819"},"vehicle_type_id":"4","last_reported":1748480097,"current_range_meters":9600,"station_id":"ce4bhr12rcd13ifvqhqg","pricing_plan_id":"cebpf4jnsgd1na2vs0mg"},{"bike_id":"2f650bb1-6027-4191-83d2-16315820a0a7","system_id":"levelo_inurba_marseille","lat":43.299811,"lon":5.373624,"is_reserved":false,"is_disabled":false,"rental_uris":{"android":"levelo://app?vid=2f650bb1-6027-4191-83d2-16315820a0a7","ios":"levelo://app?vid=2f650bb1-6027-4191-83d2-16315820a0a7"},"vehicle_type_id":"4","last_reported":1748480097,"current_range_meters":9600,"station_id":"","pricing_plan_id":"cebpf4jnsgd1na2vs0mg"},{"bike_id":"a55a4080-0fe7-4c55-b323-dc8524b291a8","system_id":"levelo_inurba_marseille","lat":43.25109,"lon":5.40321,"is_reserved":false,"is_disabled":false,"rental_uris":{"android":"levelo://app?vid=a55a4080-0fe7-4c55-b323-dc8524b291a8","ios":"levelo://app?vid=a55a4080-0fe7-4c55-b323-dc8524b291a8"},"vehicle_type_id":"4","last_reported":1748480097,"current_range_meters":9600,"station_id":"ce4bhlh2rcd13ifvqgig","pricing_plan_id":"cebpf4jnsgd1na2vs0mg"},{"bike_id":"921ffe8c-5633-4fb6-8355-90f5736faf28","system_id":"levelo_inurba_marseille","lat":43.28728,"lon":5.36096,"is_reserved":false,"is_disabled":true,"rental_uris":{"android":"levelo://app?vid=921ffe8c-5633-4fb6-8355-90f5736faf28","ios":"levelo://app?vid=921ffe8c-5633-4fb6-8355-90f5736faf28"},"vehicle_type_id":"4","last_reported":1748480097,"current_range_meters":9600,"station_id":"cki0cbj6b192h4jlfktg","pricing_plan_id":"cebpf4jnsgd1na2vs0mg"},{"bike_id":"9ace528f-fc0d-40a0-957d-58033eecf9f9","system_id":"levelo_inurba_marseille","lat":43.27969,"lon":5.38716,"is_reserved":false,"is_disabled":false,"rental_uris":{"android":"levelo://app?vid=9ace528f-fc0d-40a0-957d-58033eecf9f9","ios":"levelo://app?vid=9ace528f-fc0d-40a0-957d-58033eecf9f9"},"vehicle_type_id":"4","last_reported":1748480097,"current_range_meters":9600,"station_id":"ce4bhg12rcd13ifvqf80","pricing_plan_id":"cebpf4jnsgd1na2vs0mg"},{"bike_id":"dabe1f74-e9a6-4ba9-86df-0aab5d6a979d","system_id":"levelo_inurba_marseille","lat":43.3171,"lon":5.4371,"is_reserved":false,"is_disabled":false,"rental_uris":{"android":"levelo://app?vid=dabe1f74-e9a6-4ba9-86df-0aab5d6a979d","ios":"levelo://app?vid=dabe1f74-e9a6-4ba9-86df-0aab5d6a979d"},"vehicle_type_id":"4","last_reported":1748480097,"current_range_meters":9600,"station_id":"ce4bhp92rcd13ifvqhcg","pricing_plan_id":"cebpf4jnsgd1na2vs0mg"},{"bike_id":"c0d5ccd3-cc9b-42dc-bafd-57829be782b0","system_id":"levelo_inurba_marseille","lat":43.30802,"lon":5.43523,"is_reserved":false,"is_disabled":false,"rental_uris":{"android":"levelo://app?vid=c0d5ccd3-cc9b-42dc-bafd-57829be782b0","ios":"levelo://app?vid=c0d5ccd3-cc9b-42dc-bafd-57829be782b0"},"vehicle_type_id":"4","last_reported":1748480097,"current_range_meters":10000,"station_id":"ce4bhph2rcd13ifvqheg","pricing_plan_id":"cebpf4jnsgd1na2vs0mg"},{"bike_id":"02459306-a305-472d-be65-9070fcaf5682","system_id":"levelo_inurba_marseille","lat":43.29267,"lon":5.40105,"is_reserved":false,"is_disabled":true,"rental_uris":{"android":"levelo://app?vid=02459306-a305-472d-be65-9070fcaf5682","ios":"levelo://app?vid=02459306-a305-472d-be65-9070fcaf5682"},"vehicle_type_id":"4","last_reported":1748480097,"current_range_meters":10000,"station_id":"ce4bh312rcd13ifvqdk0","pricing_plan_id":"cebpf4jnsgd1na2vs0mg"},{"bike_id":"86f11208-7f90-4009-a976-cc81e2c7825f","system_id":"levelo_inurba_marseille","lat":43.241744,"lon":5.364072,"is_reserved":false,"is_disabled":false,"rental_uris":{"android":"levelo://app?vid=86f11208-7f90-4009-a976-cc81e2c7825f","ios":"levelo://app?vid=86f11208-7f90-4009-a976-cc81e2c7825f"},"vehicle_type_id":"4","last_reported":1748480097,"current_range_meters":10000,"station_id":"cpo36qri1sfpv3e86is0","pricing_plan_id":"cebpf4jnsgd1na2vs0mg"},{"bike_id":"4c5086a1-75d0-4d75-b775-7ecc5efd28d9","system_id":"levelo_inurba_marseille","lat":43.28649,"lon":5.3644,"is_reserved":false,"is_disabled":false,"rental_uris":{"android":"levelo://app?vid=4c5086a1-75d0-4d75-b775-7ecc5efd28d9","ios":"levelo://app?vid=4c5086a1-75d0-4d75-b775-7ecc5efd28d9"},"vehicle_type_id":"4","last_reported":1748480097,"current_range_meters":10000,"station_id":"ce4bhah2rcd13ifvqej0","pricing_plan_id":"cebpf4jnsgd1na2vs0mg"},{"bike_id":"43a14d53-ebd4-4f31-9e5d-95462447a883","system_id":"levelo_inurba_marseille","lat":43.30461,"lon":5.37927,"is_reserved":false,"is_disabled":true,"rental_uris":{"android":"levelo://app?vid=43a14d53-ebd4-4f31-9e5d-95462447a883","ios":"levelo://app?vid=43a14d53-ebd4-4f31-9e5d-95462447a883"},"vehicle_type_id":"4","last_reported":1748480097,"current_range_meters":10000,"station_id":"ce4bgup2rcd13ifvqcn0","pricing_plan_id":"cebpf4jnsgd1na2vs0mg"},{"bike_id":"159950c0-da46-4b56-ba64-77b960253d26","system_id":"levelo_inurba_marseille","lat":43.292897,"lon":5.401201,"is_reserved":false,"is_disabled":false,"rental_uris":{"android":"levelo://app?vid=159950c0-da46-4b56-ba64-77b960253d26","ios":"levelo://app?vid=159950c0-da46-4b56-ba64-77b960253d26"},"vehicle_type_id":"4","last_reported":1748480097,"current_range_meters":10000,"station_id":"ce4bh312rcd13ifvqdk0","pricing_plan_id":"cebpf4jnsgd1na2vs0mg"},{"bike_id":"db96d55c-70b5-4409-a0d8-b5dc74c68e40","system_id":"levelo_inurba_marseille","lat":43.24684,"lon":5.38153,"is_reserved":false,"is_disabled":false,"rental_uris":{"android":"levelo://app?vid=db96d55c-70b5-4409-a0d8-b5dc74c68e40","ios":"levelo://app?vid=db96d55c-70b5-4409-a0d8-b5dc74c68e40"},"vehicle_type_id":"4","last_reported":1748480097,"current_range_meters":10000,"station_id":"ce4bhih2rcd13ifvqfr0","pricing_plan_id":"cebpf4jnsgd1na2vs0mg"},{"bike_id":"e0800363-90d1-425c-be97-5251f4e6b38b","system_id":"levelo_inurba_marseille","lat":43.27997,"lon":5.41666,"is_reserved":false,"is_disabled":false,"rental_uris":{"android":"levelo://app?vid=e0800363-90d1-425c-be97-5251f4e6b38b","ios":"levelo://app?vid=e0800363-90d1-425c-be97-5251f4e6b38b"},"vehicle_type_id":"4","last_reported":1748480097,"current_range_meters":10000,"station_id":"ce4bho12rcd13ifvqh1g","pricing_plan_id":"cebpf4jnsgd1na2vs0mg"},{"bike_id":"67f50ba8-a46d-49e5-8f4f-3db792e5b15a","system_id":"levelo_inurba_marseille","lat":43.28477,"lon":5.38439,"is_reserved":false,"is_disabled":false,"rental_uris":{"android":"levelo://app?vid=67f50ba8-a46d-49e5-8f4f-3db792e5b15a","ios":"levelo://app?vid=67f50ba8-a46d-49e5-8f4f-3db792e5b15a"},"vehicle_type_id":"4","last_reported":1748480097,"current_range_meters":10000,"station_id":"ce4bh512rcd13ifvqe3g","pricing_plan_id":"cebpf4jnsgd1na2vs0mg"},{"bike_id":"31c3b208-56cd-46d6-99c4-93414088c6fa","system_id":"levelo_inurba_marseille","lat":43.28138,"lon":5.42677,"is_reserved":false,"is_disabled":false,"rental_uris":{"android":"levelo://app?vid=31c3b208-56cd-46d6-99c4-93414088c6fa","ios":"levelo://app?vid=31c3b208-56cd-46d6-99c4-93414088c6fa"},"vehicle_type_id":"4","last_reported":1748480097,"current_range_meters":10000,"station_id":"ce4bhnh2rcd13ifvqgug","pricing_plan_id":"cebpf4jnsgd1na2vs0mg"},{"bike_id":"e96e6ad8-66a5-4a74-9b8a-04311f0e6684","system_id":"levelo_inurba_marseille","lat":43.33077,"lon":5.38943,"is_reserved":false,"is_disabled":false,"rental_uris":{"android":"levelo://app?vid=e96e6ad8-66a5-4a74-9b8a-04311f0e6684","ios":"levelo://app?vid=e96e6ad8-66a5-4a74-9b8a-04311f0e6684"},"vehicle_type_id":"4","last_reported":1748480097,"current_range_meters":10000,"station_id":"","pricing_plan_id":"cebpf4jnsgd1na2vs0mg"},{"bike_id":"a084a232-54f1-4889-b6b3-e22de406c558","system_id":"levelo_inurba_marseille","lat":43.33198,"lon":5.39871,"is_reserved":false,"is_disabled":false,"rental_uris":{"android":"levelo://app?vid=a084a232-54f1-4889-b6b3-e22de406c558","ios":"levelo://app?vid=a084a232-54f1-4889-b6b3-e22de406c558"},"vehicle_type_id":"4","last_reported":1748480097,"current_range_meters":10000,"station_id":"","pricing_plan_id":"cebpf4jnsgd1na2vs0mg"},{"bike_id":"1839a72b-1f19-439f-ba17-e7974ed596b4","system_id":"levelo_inurba_marseille","lat":43.321049,"lon":5.374739,"is_reserved":false,"is_disabled":false,"rental_uris":{"android":"levelo://app?vid=1839a72b-1f19-439f-ba17-e7974ed596b4","ios":"levelo://app?vid=1839a72b-1f19-439f-ba17-e7974ed596b4"},"vehicle_type_id":"4","last_reported":1748480097,"current_range_meters":10800,"station_id":"","pricing_plan_id":"cebpf4jnsgd1na2vs0mg"},{"bike_id":"311c0577-bc31-40ec-8254-c6c9677162f1","system_id":"levelo_inurba_marseille","lat":43.28412,"lon":5.37545,"is_reserved":false,"is_disabled":false,"rental_uris":{"android":"levelo://app?vid=311c0577-bc31-40ec-8254-c6c9677162f1","ios":"levelo://app?vid=311c0577-bc31-40ec-8254-c6c9677162f1"},"vehicle_type_id":"4","last_reported":1748480097,"current_range_meters":10800,"station_id":"ce4bh412rcd13ifvqds0","pricing_plan_id":"cebpf4jnsgd1na2vs0mg"},{"bike_id":"db46cd93-68ce-4316-819a-93bc3d72015d","system_id":"levelo_inurba_marseille","lat":43.24801,"lon":5.37461,"is_reserved":false,"is_disabled":false,"rental_uris":{"android":"levelo://app?vid=db46cd93-68ce-4316-819a-93bc3d72015d","ios":"levelo://app?vid=db46cd93-68ce-4316-819a-93bc3d72015d"},"vehicle_type_id":"4","last_reported":1748480097,"current_range_meters":10800,"station_id":"ce4bhgh2rcd13ifvqfb0","pricing_plan_id":"cebpf4jnsgd1na2vs0mg"},{"bike_id":"87bbad0c-8c28-481d-9de5-144650e2492b","system_id":"levelo_inurba_marseille","lat":43.24795,"lon":5.37471,"is_reserved":false,"is_disabled":false,"rental_uris":{"android":"levelo://app?vid=87bbad0c-8c28-481d-9de5-144650e2492b","ios":"levelo://app?vid=87bbad0c-8c28-481d-9de5-144650e2492b"},"vehicle_type_id":"4","last_reported":1748480097,"current_range_meters":10800,"station_id":"ce4bhgh2rcd13ifvqfb0","pricing_plan_id":"cebpf4jnsgd1na2vs0mg"},{"bike_id":"c5c6a75f-a6da-4e70-b5ef-1f47ba338240","system_id":"levelo_inurba_marseille","lat":43.299705,"lon":5.371658,"is_reserved":false,"is_disabled":false,"rental_uris":{"android":"levelo://app?vid=c5c6a75f-a6da-4e70-b5ef-1f47ba338240","ios":"levelo://app?vid=c5c6a75f-a6da-4e70-b5ef-1f47ba338240"},"vehicle_type_id":"4","last_reported":1748480097,"current_range_meters":10000,"station_id":"ce4bgr92rcd13ifvqc7g","pricing_plan_id":"cebpf4jnsgd1na2vs0mg"},{"bike_id":"adacc3cd-dd39-4855-94e6-dcdac8f34e8e","system_id":"levelo_inurba_marseille","lat":43.24811,"lon":5.37469,"is_reserved":false,"is_disabled":false,"rental_uris":{"android":"levelo://app?vid=adacc3cd-dd39-4855-94e6-dcdac8f34e8e","ios":"levelo://app?vid=adacc3cd-dd39-4855-94e6-dcdac8f34e8e"},"vehicle_type_id":"4","last_reported":1748480097,"current_range_meters":10800,"station_id":"ce4bhgh2rcd13ifvqfb0","pricing_plan_id":"cebpf4jnsgd1na2vs0mg"},{"bike_id":"91355bf8-577c-482b-b451-9461084a40c7","system_id":"levelo_inurba_marseille","lat":43.28701,"lon":5.39978,"is_reserved":false,"is_disabled":false,"rental_uris":{"android":"levelo://app?vid=91355bf8-577c-482b-b451-9461084a40c7","ios":"levelo://app?vid=91355bf8-577c-482b-b451-9461084a40c7"},"vehicle_type_id":"4","last_reported":1748480097,"current_range_meters":10800,"station_id":"ce4bho92rcd13ifvqh3g","pricing_plan_id":"cebpf4jnsgd1na2vs0mg"},{"bike_id":"76eaf218-cc28-45bb-801d-2a35c470aae1","system_id":"levelo_inurba_marseille","lat":43.26168,"lon":5.40448,"is_reserved":false,"is_disabled":false,"rental_uris":{"android":"levelo://app?vid=76eaf218-cc28-45bb-801d-2a35c470aae1","ios":"levelo://app?vid=76eaf218-cc28-45bb-801d-2a35c470aae1"},"vehicle_type_id":"4","last_reported":1748480097,"current_range_meters":10800,"station_id":"ce4bhmh2rcd13ifvqgmg","pricing_plan_id":"cebpf4jnsgd1na2vs0mg"},{"bike_id":"f090e212-d3c8-4736-afad-80cfe2b8e432","system_id":"levelo_inurba_marseille","lat":43.30795,"lon":5.43525,"is_reserved":false,"is_disabled":false,"rental_uris":{"android":"levelo://app?vid=f090e212-d3c8-4736-afad-80cfe2b8e432","ios":"levelo://app?vid=f090e212-d3c8-4736-afad-80cfe2b8e432"},"vehicle_type_id":"4","last_reported":1748480097,"current_range_meters":10800,"station_id":"ce4bhph2rcd13ifvqheg","pricing_plan_id":"cebpf4jnsgd1na2vs0mg"},{"bike_id":"1dc7af7e-278f-4529-84b7-b7280a811d52","system_id":"levelo_inurba_marseille","lat":43.30324,"lon":5.4043,"is_reserved":false,"is_disabled":false,"rental_uris":{"android":"levelo://app?vid=1dc7af7e-278f-4529-84b7-b7280a811d52","ios":"levelo://app?vid=1dc7af7e-278f-4529-84b7-b7280a811d52"},"vehicle_type_id":"4","last_reported":1748480097,"current_range_meters":10800,"station_id":"ce4bh012rcd13ifvqd10","pricing_plan_id":"cebpf4jnsgd1na2vs0mg"},{"bike_id":"60af92f5-378b-4ca7-965f-8544c59fbbda","system_id":"levelo_inurba_marseille","lat":43.28226,"lon":5.39044,"is_reserved":false,"is_disabled":false,"rental_uris":{"android":"levelo://app?vid=60af92f5-378b-4ca7-965f-8544c59fbbda","ios":"levelo://app?vid=60af92f5-378b-4ca7-965f-8544c59fbbda"},"vehicle_type_id":"4","last_reported":1748480097,"current_range_meters":11200,"station_id":"","pricing_plan_id":"cebpf4jnsgd1na2vs0mg"},{"bike_id":"847031ec-c235-4f90-8158-8e4eae043a67","system_id":"levelo_inurba_marseille","lat":43.28931,"lon":5.36649,"is_reserved":false,"is_disabled":false,"rental_uris":{"android":"levelo://app?vid=847031ec-c235-4f90-8158-8e4eae043a67","ios":"levelo://app?vid=847031ec-c235-4f90-8158-8e4eae043a67"},"vehicle_type_id":"4","last_reported":1748480097,"current_range_meters":11200,"station_id":"ce4bhap2rcd13ifvqek0","pricing_plan_id":"cebpf4jnsgd1na2vs0mg"},{"bike_id":"1f05a494-96b9-47a4-8160-db2c6c734351","system_id":"levelo_inurba_marseille","lat":43.25114,"lon":5.40327,"is_reserved":false,"is_disabled":false,"rental_uris":{"android":"levelo://app?vid=1f05a494-96b9-47a4-8160-db2c6c734351","ios":"levelo://app?vid=1f05a494-96b9-47a4-8160-db2c6c734351"},"vehicle_type_id":"4","last_reported":1748480097,"current_range_meters":11200,"station_id":"ce4bhlh2rcd13ifvqgig","pricing_plan_id":"cebpf4jnsgd1na2vs0mg"},{"bike_id":"22771043-09b1-43eb-91e0-5c845144e1e3","system_id":"levelo_inurba_marseille","lat":43.277122,"lon":5.408794,"is_reserved":false,"is_disabled":false,"rental_uris":{"android":"levelo://app?vid=22771043-09b1-43eb-91e0-5c845144e1e3","ios":"levelo://app?vid=22771043-09b1-43eb-91e0-5c845144e1e3"},"vehicle_type_id":"4","last_reported":1748480097,"current_range_meters":11200,"station_id":"","pricing_plan_id":"cebpf4jnsgd1na2vs0mg"},{"bike_id":"a7b28dad-b0e3-4373-84c9-ca1db05de1f6","system_id":"levelo_inurba_marseille","lat":43.299941,"lon":5.38384,"is_reserved":false,"is_disabled":false,"rental_uris":{"android":"levelo://app?vid=a7b28dad-b0e3-4373-84c9-ca1db05de1f6","ios":"levelo://app?vid=a7b28dad-b0e3-4373-84c9-ca1db05de1f6"},"vehicle_type_id":"4","last_reported":1748480097,"current_range_meters":11200,"station_id":"","pricing_plan_id":"cebpf4jnsgd1na2vs0mg"},{"bike_id":"2864c75b-5c31-4f51-804b-e90944a6d524","system_id":"levelo_inurba_marseille","lat":43.25118,"lon":5.40341,"is_reserved":false,"is_disabled":false,"rental_uris":{"android":"levelo://app?vid=2864c75b-5c31-4f51-804b-e90944a6d524","ios":"levelo://app?vid=2864c75b-5c31-4f51-804b-e90944a6d524"},"vehicle_type_id":"4","last_reported":1748480097,"current_range_meters":11200,"station_id":"ce4bhlh2rcd13ifvqgig","pricing_plan_id":"cebpf4jnsgd1na2vs0mg"},{"bike_id":"3013266d-03ec-4779-8d20-2e5da0a480f7","system_id":"levelo_inurba_marseille","lat":43.316405,"lon":5.38808,"is_reserved":false,"is_disabled":false,"rental_uris":{"android":"levelo://app?vid=3013266d-03ec-4779-8d20-2e5da0a480f7","ios":"levelo://app?vid=3013266d-03ec-4779-8d20-2e5da0a480f7"},"vehicle_type_id":"4","last_reported":1748480097,"current_range_meters":11200,"station_id":"","pricing_plan_id":"cebpf4jnsgd1na2vs0mg"},{"bike_id":"47f55a1f-8588-4781-bc30-f75474d90e6f","system_id":"levelo_inurba_marseille","lat":43.24177,"lon":5.3977,"is_reserved":false,"is_disabled":false,"rental_uris":{"android":"levelo://app?vid=47f55a1f-8588-4781-bc30-f75474d90e6f","ios":"levelo://app?vid=47f55a1f-8588-4781-bc30-f75474d90e6f"},"vehicle_type_id":"4","last_reported":1748480097,"current_range_meters":11200,"station_id":"ce4bhn12rcd13ifvqgpg","pricing_plan_id":"cebpf4jnsgd1na2vs0mg"},{"bike_id":"d7b5738e-0057-40f0-a48e-027dda6a964e","system_id":"levelo_inurba_marseille","lat":43.229315,"lon":5.353765,"is_reserved":false,"is_disabled":false,"rental_uris":{"android":"levelo://app?vid=d7b5738e-0057-40f0-a48e-027dda6a964e","ios":"levelo://app?vid=d7b5738e-0057-40f0-a48e-027dda6a964e"},"vehicle_type_id":"4","last_reported":1748480097,"current_range_meters":11200,"station_id":"cpo3532slgdg3j2ikp40","pricing_plan_id":"cebpf4jnsgd1na2vs0mg"},{"bike_id":"307190ae-3131-4282-854a-897baa8d0408","system_id":"levelo_inurba_marseille","lat":43.28472,"lon":5.38425,"is_reserved":false,"is_disabled":true,"rental_uris":{"android":"levelo://app?vid=307190ae-3131-4282-854a-897baa8d0408","ios":"levelo://app?vid=307190ae-3131-4282-854a-897baa8d0408"},"vehicle_type_id":"4","last_reported":1748480097,"current_range_meters":11200,"station_id":"ce4bh512rcd13ifvqe3g","pricing_plan_id":"cebpf4jnsgd1na2vs0mg"},{"bike_id":"a09d9f3d-435b-42a4-b533-6b0196c08dd6","system_id":"levelo_inurba_marseille","lat":43.30873,"lon":5.39644,"is_reserved":false,"is_disabled":false,"rental_uris":{"android":"levelo://app?vid=a09d9f3d-435b-42a4-b533-6b0196c08dd6","ios":"levelo://app?vid=a09d9f3d-435b-42a4-b533-6b0196c08dd6"},"vehicle_type_id":"4","last_reported":1748480097,"current_range_meters":11200,"station_id":"ce4bh012rcd13ifvqcv0","pricing_plan_id":"cebpf4jnsgd1na2vs0mg"},{"bike_id":"ab813df8-a90b-4aed-852a-3eeb789c9f25","system_id":"levelo_inurba_marseille","lat":43.308928,"lon":5.371982,"is_reserved":false,"is_disabled":false,"rental_uris":{"android":"levelo://app?vid=ab813df8-a90b-4aed-852a-3eeb789c9f25","ios":"levelo://app?vid=ab813df8-a90b-4aed-852a-3eeb789c9f25"},"vehicle_type_id":"4","last_reported":1748480097,"current_range_meters":11600,"station_id":"ce4bguh2rcd13ifvqckg","pricing_plan_id":"cebpf4jnsgd1na2vs0mg"},{"bike_id":"0c86123a-f449-45da-b9f5-701d3abcb46e","system_id":"levelo_inurba_marseille","lat":43.30878,"lon":5.39649,"is_reserved":false,"is_disabled":false,"rental_uris":{"android":"levelo://app?vid=0c86123a-f449-45da-b9f5-701d3abcb46e","ios":"levelo://app?vid=0c86123a-f449-45da-b9f5-701d3abcb46e"},"vehicle_type_id":"4","last_reported":1748480097,"current_range_meters":11600,"station_id":"ce4bh012rcd13ifvqcv0","pricing_plan_id":"cebpf4jnsgd1na2vs0mg"},{"bike_id":"eaddd4c5-9855-4bb4-af11-af671c036cb5","system_id":"levelo_inurba_marseille","lat":43.30204,"lon":5.39463,"is_reserved":false,"is_disabled":false,"rental_uris":{"android":"levelo://app?vid=eaddd4c5-9855-4bb4-af11-af671c036cb5","ios":"levelo://app?vid=eaddd4c5-9855-4bb4-af11-af671c036cb5"},"vehicle_type_id":"4","last_reported":1748480097,"current_range_meters":11600,"station_id":"ce4bh0p2rcd13ifvqd70","pricing_plan_id":"cebpf4jnsgd1na2vs0mg"},{"bike_id":"ed58afc4-72e6-4b6b-aa54-7e5e02433aca","system_id":"levelo_inurba_marseille","lat":43.28449,"lon":5.35881,"is_reserved":false,"is_disabled":false,"rental_uris":{"android":"levelo://app?vid=ed58afc4-72e6-4b6b-aa54-7e5e02433aca","ios":"levelo://app?vid=ed58afc4-72e6-4b6b-aa54-7e5e02433aca"},"vehicle_type_id":"4","last_reported":1748480097,"current_range_meters":11600,"station_id":"ce4bhah2rcd13ifvqei0","pricing_plan_id":"cebpf4jnsgd1na2vs0mg"},{"bike_id":"af1dc9b2-164b-4021-88df-830111ab755c","system_id":"levelo_inurba_marseille","lat":43.32371,"lon":5.36911,"is_reserved":false,"is_disabled":false,"rental_uris":{"android":"levelo://app?vid=af1dc9b2-164b-4021-88df-830111ab755c","ios":"levelo://app?vid=af1dc9b2-164b-4021-88df-830111ab755c"},"vehicle_type_id":"4","last_reported":1748480097,"current_range_meters":11600,"station_id":"","pricing_plan_id":"cebpf4jnsgd1na2vs0mg"},{"bike_id":"7270ff1a-574f-4ae9-8b4f-de038997e410","system_id":"levelo_inurba_marseille","lat":43.30879,"lon":5.39763,"is_reserved":false,"is_disabled":false,"rental_uris":{"android":"levelo://app?vid=7270ff1a-574f-4ae9-8b4f-de038997e410","ios":"levelo://app?vid=7270ff1a-574f-4ae9-8b4f-de038997e410"},"vehicle_type_id":"4","last_reported":1748480097,"current_range_meters":11600,"station_id":"","pricing_plan_id":"cebpf4jnsgd1na2vs0mg"},{"bike_id":"4edefbce-5ef4-46c5-b044-5c550cc6ca64","system_id":"levelo_inurba_marseille","lat":43.2622,"lon":5.4045,"is_reserved":false,"is_disabled":false,"rental_uris":{"android":"levelo://app?vid=4edefbce-5ef4-46c5-b044-5c550cc6ca64","ios":"levelo://app?vid=4edefbce-5ef4-46c5-b044-5c550cc6ca64"},"vehicle_type_id":"4","last_reported":1748480097,"current_range_meters":11600,"station_id":"ce4bhmh2rcd13ifvqgmg","pricing_plan_id":"cebpf4jnsgd1na2vs0mg"},{"bike_id":"56d0e0d8-02f5-4a8e-9a95-bff49210aa01","system_id":"levelo_inurba_marseille","lat":43.287253,"lon":5.361044,"is_reserved":false,"is_disabled":false,"rental_uris":{"android":"levelo://app?vid=56d0e0d8-02f5-4a8e-9a95-bff49210aa01","ios":"levelo://app?vid=56d0e0d8-02f5-4a8e-9a95-bff49210aa01"},"vehicle_type_id":"4","last_reported":1748480097,"current_range_meters":11600,"station_id":"cki0cbj6b192h4jlfktg","pricing_plan_id":"cebpf4jnsgd1na2vs0mg"},{"bike_id":"6a3670d0-1b04-4be0-8424-6ea3173dda5b","system_id":"levelo_inurba_marseille","lat":43.30608,"lon":5.37278,"is_reserved":false,"is_disabled":false,"rental_uris":{"android":"levelo://app?vid=6a3670d0-1b04-4be0-8424-6ea3173dda5b","ios":"levelo://app?vid=6a3670d0-1b04-4be0-8424-6ea3173dda5b"},"vehicle_type_id":"4","last_reported":1748480097,"current_range_meters":11600,"station_id":"ce4bgqh2rcd13ifvqc4g","pricing_plan_id":"cebpf4jnsgd1na2vs0mg"},{"bike_id":"65e0f26e-4f5f-4e61-9b5c-2549b1f9bd68","system_id":"levelo_inurba_marseille","lat":43.2908,"lon":5.39979,"is_reserved":false,"is_disabled":false,"rental_uris":{"android":"levelo://app?vid=65e0f26e-4f5f-4e61-9b5c-2549b1f9bd68","ios":"levelo://app?vid=65e0f26e-4f5f-4e61-9b5c-2549b1f9bd68"},"vehicle_type_id":"4","last_reported":1748480097,"current_range_meters":11600,"station_id":"ce4bh392rcd13ifvqdm0","pricing_plan_id":"cebpf4jnsgd1na2vs0mg"},{"bike_id":"aadac860-d43c-4062-897b-20d300d16764","system_id":"levelo_inurba_marseille","lat":43.268013,"lon":5.402571,"is_reserved":false,"is_disabled":false,"rental_uris":{"android":"levelo://app?vid=aadac860-d43c-4062-897b-20d300d16764","ios":"levelo://app?vid=aadac860-d43c-4062-897b-20d300d16764"},"vehicle_type_id":"4","last_reported":1748480097,"current_range_meters":11600,"station_id":"ce501612rcd8frsf0b60","pricing_plan_id":"cebpf4jnsgd1na2vs0mg"},{"bike_id":"9a7ce25c-cbcf-4aac-acf7-3d032c62f0d0","system_id":"levelo_inurba_marseille","lat":43.28567,"lon":5.39522,"is_reserved":false,"is_disabled":false,"rental_uris":{"android":"levelo://app?vid=9a7ce25c-cbcf-4aac-acf7-3d032c62f0d0","ios":"levelo://app?vid=9a7ce25c-cbcf-4aac-acf7-3d032c62f0d0"},"vehicle_type_id":"4","last_reported":1748480097,"current_range_meters":12000,"station_id":"ce4bh292rcd13ifvqdg0","pricing_plan_id":"cebpf4jnsgd1na2vs0mg"},{"bike_id":"db39b52c-625e-47a7-adf4-bb93cac7895c","system_id":"levelo_inurba_marseille","lat":43.248167,"lon":5.374433,"is_reserved":false,"is_disabled":false,"rental_uris":{"android":"levelo://app?vid=db39b52c-625e-47a7-adf4-bb93cac7895c","ios":"levelo://app?vid=db39b52c-625e-47a7-adf4-bb93cac7895c"},"vehicle_type_id":"4","last_reported":1748480097,"current_range_meters":12000,"station_id":"ce4bhgh2rcd13ifvqfb0","pricing_plan_id":"cebpf4jnsgd1na2vs0mg"},{"bike_id":"3f0639f9-7292-42cf-ada7-7a983b23e3b0","system_id":"levelo_inurba_marseille","lat":43.27566,"lon":5.38425,"is_reserved":false,"is_disabled":false,"rental_uris":{"android":"levelo://app?vid=3f0639f9-7292-42cf-ada7-7a983b23e3b0","ios":"levelo://app?vid=3f0639f9-7292-42cf-ada7-7a983b23e3b0"},"vehicle_type_id":"4","last_reported":1748480097,"current_range_meters":12000,"station_id":"ce4bhh92rcd13ifvqfi0","pricing_plan_id":"cebpf4jnsgd1na2vs0mg"},{"bike_id":"dfd8a92a-8547-40b8-9f1a-8cf8dc5a7a8c","system_id":"levelo_inurba_marseille","lat":43.31705,"lon":5.43708,"is_reserved":false,"is_disabled":false,"rental_uris":{"android":"levelo://app?vid=dfd8a92a-8547-40b8-9f1a-8cf8dc5a7a8c","ios":"levelo://app?vid=dfd8a92a-8547-40b8-9f1a-8cf8dc5a7a8c"},"vehicle_type_id":"4","last_reported":1748480097,"current_range_meters":12000,"station_id":"ce4bhp92rcd13ifvqhcg","pricing_plan_id":"cebpf4jnsgd1na2vs0mg"},{"bike_id":"c7b8b51e-c853-4352-9193-32615af234ef","system_id":"levelo_inurba_marseille","lat":43.26182,"lon":5.4207,"is_reserved":false,"is_disabled":false,"rental_uris":{"android":"levelo://app?vid=c7b8b51e-c853-4352-9193-32615af234ef","ios":"levelo://app?vid=c7b8b51e-c853-4352-9193-32615af234ef"},"vehicle_type_id":"4","last_reported":1748480097,"current_range_meters":12000,"station_id":"","pricing_plan_id":"cebpf4jnsgd1na2vs0mg"},{"bike_id":"6f085f2c-0b52-492e-b320-af0dc7f4404c","system_id":"levelo_inurba_marseille","lat":43.28853,"lon":5.39315,"is_reserved":false,"is_disabled":false,"rental_uris":{"android":"levelo://app?vid=6f085f2c-0b52-492e-b320-af0dc7f4404c","ios":"levelo://app?vid=6f085f2c-0b52-492e-b320-af0dc7f4404c"},"vehicle_type_id":"4","last_reported":1748480097,"current_range_meters":12000,"station_id":"ce4bh2p2rcd13ifvqdi0","pricing_plan_id":"cebpf4jnsgd1na2vs0mg"},{"bike_id":"abdc2c69-767f-4624-b484-d390c74ebde2","system_id":"levelo_inurba_marseille","lat":43.29024,"lon":5.3814,"is_reserved":false,"is_disabled":false,"rental_uris":{"android":"levelo://app?vid=abdc2c69-767f-4624-b484-d390c74ebde2","ios":"levelo://app?vid=abdc2c69-767f-4624-b484-d390c74ebde2"},"vehicle_type_id":"4","last_reported":1748480097,"current_range_meters":12000,"station_id":"ce4bh4p2rcd13ifvqe1g","pricing_plan_id":"cebpf4jnsgd1na2vs0mg"},{"bike_id":"2148af81-ae69-4cae-b8e6-d1b8b160fbab","system_id":"levelo_inurba_marseille","lat":43.29257,"lon":5.4091,"is_reserved":false,"is_disabled":false,"rental_uris":{"android":"levelo://app?vid=2148af81-ae69-4cae-b8e6-d1b8b160fbab","ios":"levelo://app?vid=2148af81-ae69-4cae-b8e6-d1b8b160fbab"},"vehicle_type_id":"4","last_reported":1748480097,"current_range_meters":12000,"station_id":"ce4bh192rcd13ifvqdc0","pricing_plan_id":"cebpf4jnsgd1na2vs0mg"},{"bike_id":"f87ecb8e-cad6-4488-878d-4bc4f6a4d587","system_id":"levelo_inurba_marseille","lat":43.32033,"lon":5.41545,"is_reserved":false,"is_disabled":false,"rental_uris":{"android":"levelo://app?vid=f87ecb8e-cad6-4488-878d-4bc4f6a4d587","ios":"levelo://app?vid=f87ecb8e-cad6-4488-878d-4bc4f6a4d587"},"vehicle_type_id":"4","last_reported":1748480097,"current_range_meters":12400,"station_id":"ce4bhq92rcd13ifvqhkg","pricing_plan_id":"cebpf4jnsgd1na2vs0mg"},{"bike_id":"32ce1fee-e11e-4b6b-91ef-373111975b5a","system_id":"levelo_inurba_marseille","lat":43.28075,"lon":5.39638,"is_reserved":false,"is_disabled":false,"rental_uris":{"android":"levelo://app?vid=32ce1fee-e11e-4b6b-91ef-373111975b5a","ios":"levelo://app?vid=32ce1fee-e11e-4b6b-91ef-373111975b5a"},"vehicle_type_id":"4","last_reported":1748480097,"current_range_meters":12400,"station_id":"ce4bho12rcd13ifvqh2g","pricing_plan_id":"cebpf4jnsgd1na2vs0mg"},{"bike_id":"ab18719d-c5e7-4613-9c7e-1fe47406cb4b","system_id":"levelo_inurba_marseille","lat":43.30934,"lon":5.40174,"is_reserved":false,"is_disabled":false,"rental_uris":{"android":"levelo://app?vid=ab18719d-c5e7-4613-9c7e-1fe47406cb4b","ios":"levelo://app?vid=ab18719d-c5e7-4613-9c7e-1fe47406cb4b"},"vehicle_type_id":"4","last_reported":1748480097,"current_range_meters":12400,"station_id":"ce4bgvp2rcd13ifvqct0","pricing_plan_id":"cebpf4jnsgd1na2vs0mg"},{"bike_id":"74075fb4-4971-461a-b1bb-56ca741ef298","system_id":"levelo_inurba_marseille","lat":43.24664,"lon":5.38168,"is_reserved":false,"is_disabled":false,"rental_uris":{"android":"levelo://app?vid=74075fb4-4971-461a-b1bb-56ca741ef298","ios":"levelo://app?vid=74075fb4-4971-461a-b1bb-56ca741ef298"},"vehicle_type_id":"4","last_reported":1748480097,"current_range_meters":12000,"station_id":"ce4bhih2rcd13ifvqfr0","pricing_plan_id":"cebpf4jnsgd1na2vs0mg"},{"bike_id":"057e7b6e-115a-4b45-aac4-4b724c2ed13a","system_id":"levelo_inurba_marseille","lat":43.29282,"lon":5.36865,"is_reserved":false,"is_disabled":true,"rental_uris":{"android":"levelo://app?vid=057e7b6e-115a-4b45-aac4-4b724c2ed13a","ios":"levelo://app?vid=057e7b6e-115a-4b45-aac4-4b724c2ed13a"},"vehicle_type_id":"4","last_reported":1748480097,"current_range_meters":12400,"station_id":"ce4bhbp2rcd13ifvqesg","pricing_plan_id":"cebpf4jnsgd1na2vs0mg"},{"bike_id":"1982608a-a65c-4541-aa9f-6da07773e163","system_id":"levelo_inurba_marseille","lat":43.28412,"lon":5.34989,"is_reserved":false,"is_disabled":true,"rental_uris":{"android":"levelo://app?vid=1982608a-a65c-4541-aa9f-6da07773e163","ios":"levelo://app?vid=1982608a-a65c-4541-aa9f-6da07773e163"},"vehicle_type_id":"4","last_reported":1748480097,"current_range_meters":12400,"station_id":"ce4bhbh2rcd13ifvqepg","pricing_plan_id":"cebpf4jnsgd1na2vs0mg"},{"bike_id":"2dc06429-0c52-45c5-9724-35cc559ea45a","system_id":"levelo_inurba_marseille","lat":43.30786,"lon":5.38151,"is_reserved":false,"is_disabled":false,"rental_uris":{"android":"levelo://app?vid=2dc06429-0c52-45c5-9724-35cc559ea45a","ios":"levelo://app?vid=2dc06429-0c52-45c5-9724-35cc559ea45a"},"vehicle_type_id":"4","last_reported":1748480097,"current_range_meters":12400,"station_id":"ce4bgt12rcd13ifvqce0","pricing_plan_id":"cebpf4jnsgd1na2vs0mg"},{"bike_id":"8cae9003-b8a4-48e5-a072-65bbb7096fc6","system_id":"levelo_inurba_marseille","lat":43.30589,"lon":5.37704,"is_reserved":false,"is_disabled":false,"rental_uris":{"android":"levelo://app?vid=8cae9003-b8a4-48e5-a072-65bbb7096fc6","ios":"levelo://app?vid=8cae9003-b8a4-48e5-a072-65bbb7096fc6"},"vehicle_type_id":"4","last_reported":1748480097,"current_range_meters":12800,"station_id":"","pricing_plan_id":"cebpf4jnsgd1na2vs0mg"},{"bike_id":"ba0c24f2-b0ca-494a-9857-649f84664514","system_id":"levelo_inurba_marseille","lat":43.30924,"lon":5.40121,"is_reserved":false,"is_disabled":false,"rental_uris":{"android":"levelo://app?vid=ba0c24f2-b0ca-494a-9857-649f84664514","ios":"levelo://app?vid=ba0c24f2-b0ca-494a-9857-649f84664514"},"vehicle_type_id":"4","last_reported":1748480097,"current_range_meters":12800,"station_id":"ce4bgvp2rcd13ifvqct0","pricing_plan_id":"cebpf4jnsgd1na2vs0mg"},{"bike_id":"865dced6-4767-44f8-b4b9-2868a3d6910b","system_id":"levelo_inurba_marseille","lat":43.28029,"lon":5.36945,"is_reserved":false,"is_disabled":false,"rental_uris":{"android":"levelo://app?vid=865dced6-4767-44f8-b4b9-2868a3d6910b","ios":"levelo://app?vid=865dced6-4767-44f8-b4b9-2868a3d6910b"},"vehicle_type_id":"4","last_reported":1748480097,"current_range_meters":12800,"station_id":"ce4bha12rcd13ifvqef0","pricing_plan_id":"cebpf4jnsgd1na2vs0mg"},{"bike_id":"ae9abbf2-b91a-46d7-b826-ff2bfe50810f","system_id":"levelo_inurba_marseille","lat":43.284914,"lon":5.385592,"is_reserved":false,"is_disabled":false,"rental_uris":{"android":"levelo://app?vid=ae9abbf2-b91a-46d7-b826-ff2bfe50810f","ios":"levelo://app?vid=ae9abbf2-b91a-46d7-b826-ff2bfe50810f"},"vehicle_type_id":"4","last_reported":1748480097,"current_range_meters":12800,"station_id":"ce4bh8p2rcd13ifvqeb0","pricing_plan_id":"cebpf4jnsgd1na2vs0mg"},{"bike_id":"8c5b5291-ee74-490c-ab6d-c4b61975c287","system_id":"levelo_inurba_marseille","lat":43.24541,"lon":5.39515,"is_reserved":false,"is_disabled":false,"rental_uris":{"android":"levelo://app?vid=8c5b5291-ee74-490c-ab6d-c4b61975c287","ios":"levelo://app?vid=8c5b5291-ee74-490c-ab6d-c4b61975c287"},"vehicle_type_id":"4","last_reported":1748480097,"current_range_meters":12800,"station_id":"ce4bhlp2rcd13ifvqgjg","pricing_plan_id":"cebpf4jnsgd1na2vs0mg"},{"bike_id":"20216ba5-61bf-44de-983d-1d2b80d544f3","system_id":"levelo_inurba_marseille","lat":43.21759,"lon":5.34626,"is_reserved":false,"is_disabled":false,"rental_uris":{"android":"levelo://app?vid=20216ba5-61bf-44de-983d-1d2b80d544f3","ios":"levelo://app?vid=20216ba5-61bf-44de-983d-1d2b80d544f3"},"vehicle_type_id":"4","last_reported":1748480097,"current_range_meters":13600,"station_id":"st_cvj6r9ubvosntc0bgbag","pricing_plan_id":"cebpf4jnsgd1na2vs0mg"},{"bike_id":"a1fceda1-6a20-4827-86ff-ec6827f8c44f","system_id":"levelo_inurba_marseille","lat":43.287107,"lon":5.399803,"is_reserved":false,"is_disabled":false,"rental_uris":{"android":"levelo://app?vid=a1fceda1-6a20-4827-86ff-ec6827f8c44f","ios":"levelo://app?vid=a1fceda1-6a20-4827-86ff-ec6827f8c44f"},"vehicle_type_id":"4","last_reported":1748480097,"current_range_meters":13600,"station_id":"ce4bho92rcd13ifvqh3g","pricing_plan_id":"cebpf4jnsgd1na2vs0mg"},{"bike_id":"1427d22a-5364-4b12-980c-5b103f623451","system_id":"levelo_inurba_marseille","lat":43.28834,"lon":5.39316,"is_reserved":false,"is_disabled":false,"rental_uris":{"android":"levelo://app?vid=1427d22a-5364-4b12-980c-5b103f623451","ios":"levelo://app?vid=1427d22a-5364-4b12-980c-5b103f623451"},"vehicle_type_id":"4","last_reported":1748480097,"current_range_meters":13600,"station_id":"ce4bh2p2rcd13ifvqdi0","pricing_plan_id":"cebpf4jnsgd1na2vs0mg"},{"bike_id":"5de02220-58b5-41ef-a626-0c86c275bbf3","system_id":"levelo_inurba_marseille","lat":43.28401,"lon":5.37506,"is_reserved":false,"is_disabled":false,"rental_uris":{"android":"levelo://app?vid=5de02220-58b5-41ef-a626-0c86c275bbf3","ios":"levelo://app?vid=5de02220-58b5-41ef-a626-0c86c275bbf3"},"vehicle_type_id":"4","last_reported":1748480097,"current_range_meters":13600,"station_id":"","pricing_plan_id":"cebpf4jnsgd1na2vs0mg"},{"bike_id":"5425969b-1595-4148-b19f-88f5aacdc526","system_id":"levelo_inurba_marseille","lat":43.30647,"lon":5.40077,"is_reserved":false,"is_disabled":false,"rental_uris":{"android":"levelo://app?vid=5425969b-1595-4148-b19f-88f5aacdc526","ios":"levelo://app?vid=5425969b-1595-4148-b19f-88f5aacdc526"},"vehicle_type_id":"4","last_reported":1748480097,"current_range_meters":13600,"station_id":"ce4bh112rcd13ifvqda0","pricing_plan_id":"cebpf4jnsgd1na2vs0mg"},{"bike_id":"d1160911-5dba-4a70-bdeb-2e5a47931200","system_id":"levelo_inurba_marseille","lat":43.279954,"lon":5.416695,"is_reserved":false,"is_disabled":false,"rental_uris":{"android":"levelo://app?vid=d1160911-5dba-4a70-bdeb-2e5a47931200","ios":"levelo://app?vid=d1160911-5dba-4a70-bdeb-2e5a47931200"},"vehicle_type_id":"4","last_reported":1748480097,"current_range_meters":14000,"station_id":"ce4bho12rcd13ifvqh1g","pricing_plan_id":"cebpf4jnsgd1na2vs0mg"},{"bike_id":"49c62acc-a0b7-4cd9-8159-e6005c4750bb","system_id":"levelo_inurba_marseille","lat":43.27215,"lon":5.41008,"is_reserved":false,"is_disabled":false,"rental_uris":{"android":"levelo://app?vid=49c62acc-a0b7-4cd9-8159-e6005c4750bb","ios":"levelo://app?vid=49c62acc-a0b7-4cd9-8159-e6005c4750bb"},"vehicle_type_id":"4","last_reported":1748480097,"current_range_meters":14000,"station_id":"ce4bhl12rcd13ifvqgf0","pricing_plan_id":"cebpf4jnsgd1na2vs0mg"},{"bike_id":"cc2536f5-d400-4045-ae04-96109c4d0ea4","system_id":"levelo_inurba_marseille","lat":43.303807,"lon":5.424885,"is_reserved":false,"is_disabled":false,"rental_uris":{"android":"levelo://app?vid=cc2536f5-d400-4045-ae04-96109c4d0ea4","ios":"levelo://app?vid=cc2536f5-d400-4045-ae04-96109c4d0ea4"},"vehicle_type_id":"4","last_reported":1748480097,"current_range_meters":14000,"station_id":"ce4bhoh2rcd13ifvqh6g","pricing_plan_id":"cebpf4jnsgd1na2vs0mg"},{"bike_id":"42dca157-bdb0-4361-8022-7979135f94aa","system_id":"levelo_inurba_marseille","lat":43.285536,"lon":5.366625,"is_reserved":false,"is_disabled":false,"rental_uris":{"android":"levelo://app?vid=42dca157-bdb0-4361-8022-7979135f94aa","ios":"levelo://app?vid=42dca157-bdb0-4361-8022-7979135f94aa"},"vehicle_type_id":"4","last_reported":1748480097,"current_range_meters":14000,"station_id":"","pricing_plan_id":"cebpf4jnsgd1na2vs0mg"},{"bike_id":"19c319b8-cb5c-4a9f-a123-c087da106c08","system_id":"levelo_inurba_marseille","lat":43.25923,"lon":5.40907,"is_reserved":false,"is_disabled":false,"rental_uris":{"android":"levelo://app?vid=19c319b8-cb5c-4a9f-a123-c087da106c08","ios":"levelo://app?vid=19c319b8-cb5c-4a9f-a123-c087da106c08"},"vehicle_type_id":"4","last_reported":1748480097,"current_range_meters":14000,"station_id":"ce4bhm92rcd13ifvqglg","pricing_plan_id":"cebpf4jnsgd1na2vs0mg"},{"bike_id":"9a8b6307-1262-412f-851b-3f5714ea2a60","system_id":"levelo_inurba_marseille","lat":43.309299,"lon":5.401408,"is_reserved":false,"is_disabled":true,"rental_uris":{"android":"levelo://app?vid=9a8b6307-1262-412f-851b-3f5714ea2a60","ios":"levelo://app?vid=9a8b6307-1262-412f-851b-3f5714ea2a60"},"vehicle_type_id":"4","last_reported":1748480097,"current_range_meters":14000,"station_id":"ce4bgvp2rcd13ifvqct0","pricing_plan_id":"cebpf4jnsgd1na2vs0mg"},{"bike_id":"1c9b4761-e609-4e32-850e-f95c9f07553f","system_id":"levelo_inurba_marseille","lat":43.30872,"lon":5.39525,"is_reserved":false,"is_disabled":false,"rental_uris":{"android":"levelo://app?vid=1c9b4761-e609-4e32-850e-f95c9f07553f","ios":"levelo://app?vid=1c9b4761-e609-4e32-850e-f95c9f07553f"},"vehicle_type_id":"4","last_reported":1748480097,"current_range_meters":14000,"station_id":"","pricing_plan_id":"cebpf4jnsgd1na2vs0mg"},{"bike_id":"74596cad-01b8-4827-9b35-ca1f4056673c","system_id":"levelo_inurba_marseille","lat":43.323877,"lon":5.383636,"is_reserved":false,"is_disabled":false,"rental_uris":{"android":"levelo://app?vid=74596cad-01b8-4827-9b35-ca1f4056673c","ios":"levelo://app?vid=74596cad-01b8-4827-9b35-ca1f4056673c"},"vehicle_type_id":"4","last_reported":1748480097,"current_range_meters":14000,"station_id":"","pricing_plan_id":"cebpf4jnsgd1na2vs0mg"},{"bike_id":"ba2b92e7-eeee-4e55-95c3-15902f041dcb","system_id":"levelo_inurba_marseille","lat":43.29006,"lon":5.38138,"is_reserved":false,"is_disabled":false,"rental_uris":{"android":"levelo://app?vid=ba2b92e7-eeee-4e55-95c3-15902f041dcb","ios":"levelo://app?vid=ba2b92e7-eeee-4e55-95c3-15902f041dcb"},"vehicle_type_id":"4","last_reported":1748480097,"current_range_meters":14000,"station_id":"ce4bh4p2rcd13ifvqe1g","pricing_plan_id":"cebpf4jnsgd1na2vs0mg"},{"bike_id":"a3c8e99a-dbce-4a3d-8e2e-0bc56d1c8e82","system_id":"levelo_inurba_marseille","lat":43.27968,"lon":5.38737,"is_reserved":false,"is_disabled":false,"rental_uris":{"android":"levelo://app?vid=a3c8e99a-dbce-4a3d-8e2e-0bc56d1c8e82","ios":"levelo://app?vid=a3c8e99a-dbce-4a3d-8e2e-0bc56d1c8e82"},"vehicle_type_id":"4","last_reported":1748480097,"current_range_meters":14400,"station_id":"ce4bhg12rcd13ifvqf80","pricing_plan_id":"cebpf4jnsgd1na2vs0mg"},{"bike_id":"c1ec72c5-b677-46da-823c-46df5c15390c","system_id":"levelo_inurba_marseille","lat":43.307987,"lon":5.381563,"is_reserved":false,"is_disabled":false,"rental_uris":{"android":"levelo://app?vid=c1ec72c5-b677-46da-823c-46df5c15390c","ios":"levelo://app?vid=c1ec72c5-b677-46da-823c-46df5c15390c"},"vehicle_type_id":"4","last_reported":1748480097,"current_range_meters":14400,"station_id":"ce4bgt12rcd13ifvqce0","pricing_plan_id":"cebpf4jnsgd1na2vs0mg"},{"bike_id":"8ea4d048-223c-4b9f-a79c-b8dc2c65d878","system_id":"levelo_inurba_marseille","lat":43.251,"lon":5.40353,"is_reserved":false,"is_disabled":false,"rental_uris":{"android":"levelo://app?vid=8ea4d048-223c-4b9f-a79c-b8dc2c65d878","ios":"levelo://app?vid=8ea4d048-223c-4b9f-a79c-b8dc2c65d878"},"vehicle_type_id":"4","last_reported":1748480097,"current_range_meters":14400,"station_id":"ce4bhlh2rcd13ifvqgig","pricing_plan_id":"cebpf4jnsgd1na2vs0mg"},{"bike_id":"36fc1326-d8b9-4280-8634-1f810d31d6e7","system_id":"levelo_inurba_marseille","lat":43.25106,"lon":5.40321,"is_reserved":false,"is_disabled":false,"rental_uris":{"android":"levelo://app?vid=36fc1326-d8b9-4280-8634-1f810d31d6e7","ios":"levelo://app?vid=36fc1326-d8b9-4280-8634-1f810d31d6e7"},"vehicle_type_id":"4","last_reported":1748480097,"current_range_meters":14400,"station_id":"ce4bhlh2rcd13ifvqgig","pricing_plan_id":"cebpf4jnsgd1na2vs0mg"},{"bike_id":"aa5a116c-20ee-49d1-bdab-563e368f7b99","system_id":"levelo_inurba_marseille","lat":43.2997,"lon":5.41332,"is_reserved":false,"is_disabled":false,"rental_uris":{"android":"levelo://app?vid=aa5a116c-20ee-49d1-bdab-563e368f7b99","ios":"levelo://app?vid=aa5a116c-20ee-49d1-bdab-563e368f7b99"},"vehicle_type_id":"4","last_reported":1748480097,"current_range_meters":14400,"station_id":"ce4bhp12rcd13ifvqh9g","pricing_plan_id":"cebpf4jnsgd1na2vs0mg"},{"bike_id":"3c6d4a47-6486-4133-ab21-daf60aebef4f","system_id":"levelo_inurba_marseille","lat":43.29706,"lon":5.3769,"is_reserved":false,"is_disabled":false,"rental_uris":{"android":"levelo://app?vid=3c6d4a47-6486-4133-ab21-daf60aebef4f","ios":"levelo://app?vid=3c6d4a47-6486-4133-ab21-daf60aebef4f"},"vehicle_type_id":"4","last_reported":1748480097,"current_range_meters":14400,"station_id":"ce4bgkh2rcd13ifvqbl0","pricing_plan_id":"cebpf4jnsgd1na2vs0mg"},{"bike_id":"7d6958f3-59ba-4a3f-bd09-ae25c6728349","system_id":"levelo_inurba_marseille","lat":43.28438,"lon":5.39222,"is_reserved":false,"is_disabled":false,"rental_uris":{"android":"levelo://app?vid=7d6958f3-59ba-4a3f-bd09-ae25c6728349","ios":"levelo://app?vid=7d6958f3-59ba-4a3f-bd09-ae25c6728349"},"vehicle_type_id":"4","last_reported":1748480097,"current_range_meters":14800,"station_id":"ce4bhoh2rcd13ifvqh5g","pricing_plan_id":"cebpf4jnsgd1na2vs0mg"},{"bike_id":"ae9e0357-b73f-43bb-ad14-492ca30fa510","system_id":"levelo_inurba_marseille","lat":43.25943,"lon":5.40906,"is_reserved":false,"is_disabled":false,"rental_uris":{"android":"levelo://app?vid=ae9e0357-b73f-43bb-ad14-492ca30fa510","ios":"levelo://app?vid=ae9e0357-b73f-43bb-ad14-492ca30fa510"},"vehicle_type_id":"4","last_reported":1748480097,"current_range_meters":14800,"station_id":"ce4bhm92rcd13ifvqglg","pricing_plan_id":"cebpf4jnsgd1na2vs0mg"},{"bike_id":"3d20b60e-73d8-4394-ba63-0cf59de05dfc","system_id":"levelo_inurba_marseille","lat":43.24663,"lon":5.38157,"is_reserved":false,"is_disabled":false,"rental_uris":{"android":"levelo://app?vid=3d20b60e-73d8-4394-ba63-0cf59de05dfc","ios":"levelo://app?vid=3d20b60e-73d8-4394-ba63-0cf59de05dfc"},"vehicle_type_id":"4","last_reported":1748480097,"current_range_meters":14800,"station_id":"ce4bhih2rcd13ifvqfr0","pricing_plan_id":"cebpf4jnsgd1na2vs0mg"},{"bike_id":"e1c11ca1-4a45-42aa-8ae1-03fa585510a5","system_id":"levelo_inurba_marseille","lat":43.27808,"lon":5.40713,"is_reserved":false,"is_disabled":false,"rental_uris":{"android":"levelo://app?vid=e1c11ca1-4a45-42aa-8ae1-03fa585510a5","ios":"levelo://app?vid=e1c11ca1-4a45-42aa-8ae1-03fa585510a5"},"vehicle_type_id":"4","last_reported":1748480097,"current_range_meters":14800,"station_id":"ce4bhnh2rcd13ifvqgtg","pricing_plan_id":"cebpf4jnsgd1na2vs0mg"},{"bike_id":"221eab07-12e0-4f23-8c3a-9f3c22311a6b","system_id":"levelo_inurba_marseille","lat":43.23191,"lon":5.40004,"is_reserved":false,"is_disabled":false,"rental_uris":{"android":"levelo://app?vid=221eab07-12e0-4f23-8c3a-9f3c22311a6b","ios":"levelo://app?vid=221eab07-12e0-4f23-8c3a-9f3c22311a6b"},"vehicle_type_id":"4","last_reported":1748480097,"current_range_meters":15200,"station_id":"ce4bhn12rcd13ifvqgqg","pricing_plan_id":"cebpf4jnsgd1na2vs0mg"},{"bike_id":"aa61cf49-e9ee-4c74-a7df-3837fabfe7ce","system_id":"levelo_inurba_marseille","lat":43.299745,"lon":5.38493,"is_reserved":false,"is_disabled":true,"rental_uris":{"android":"levelo://app?vid=aa61cf49-e9ee-4c74-a7df-3837fabfe7ce","ios":"levelo://app?vid=aa61cf49-e9ee-4c74-a7df-3837fabfe7ce"},"vehicle_type_id":"4","last_reported":1748480097,"current_range_meters":15200,"station_id":"ce4bgj92rcd13ifvqbd0","pricing_plan_id":"cebpf4jnsgd1na2vs0mg"},{"bike_id":"c779604e-4b6f-4fd8-b57d-6e2082107ff4","system_id":"levelo_inurba_marseille","lat":43.27677,"lon":5.38875,"is_reserved":false,"is_disabled":false,"rental_uris":{"android":"levelo://app?vid=c779604e-4b6f-4fd8-b57d-6e2082107ff4","ios":"levelo://app?vid=c779604e-4b6f-4fd8-b57d-6e2082107ff4"},"vehicle_type_id":"4","last_reported":1748480097,"current_range_meters":15200,"station_id":"ce4bhi12rcd13ifvqfo0","pricing_plan_id":"cebpf4jnsgd1na2vs0mg"},{"bike_id":"a426f99b-d34a-41bf-bbda-59f7dfd6939b","system_id":"levelo_inurba_marseille","lat":43.255796,"lon":5.382262,"is_reserved":false,"is_disabled":false,"rental_uris":{"android":"levelo://app?vid=a426f99b-d34a-41bf-bbda-59f7dfd6939b","ios":"levelo://app?vid=a426f99b-d34a-41bf-bbda-59f7dfd6939b"},"vehicle_type_id":"4","last_reported":1748480097,"current_range_meters":16000,"station_id":"ce501612rcd8frsf0b60","pricing_plan_id":"cebpf4jnsgd1na2vs0mg"},{"bike_id":"b33014e3-412b-4bea-940e-f21d151fab7b","system_id":"levelo_inurba_marseille","lat":43.2899,"lon":5.35639,"is_reserved":false,"is_disabled":true,"rental_uris":{"android":"levelo://app?vid=b33014e3-412b-4bea-940e-f21d151fab7b","ios":"levelo://app?vid=b33014e3-412b-4bea-940e-f21d151fab7b"},"vehicle_type_id":"4","last_reported":1748480097,"current_range_meters":16000,"station_id":"ce4bhb92rcd13ifvqen0","pricing_plan_id":"cebpf4jnsgd1na2vs0mg"},{"bike_id":"2da4933c-bbd2-4a11-8721-a8699edd02f7","system_id":"levelo_inurba_marseille","lat":43.25107,"lon":5.40331,"is_reserved":false,"is_disabled":false,"rental_uris":{"android":"levelo://app?vid=2da4933c-bbd2-4a11-8721-a8699edd02f7","ios":"levelo://app?vid=2da4933c-bbd2-4a11-8721-a8699edd02f7"},"vehicle_type_id":"4","last_reported":1748480097,"current_range_meters":16000,"station_id":"ce4bhlh2rcd13ifvqgig","pricing_plan_id":"cebpf4jnsgd1na2vs0mg"},{"bike_id":"057891ca-d092-456d-a189-115276fd0030","system_id":"levelo_inurba_marseille","lat":43.28464,"lon":5.35869,"is_reserved":false,"is_disabled":false,"rental_uris":{"android":"levelo://app?vid=057891ca-d092-456d-a189-115276fd0030","ios":"levelo://app?vid=057891ca-d092-456d-a189-115276fd0030"},"vehicle_type_id":"4","last_reported":1748480097,"current_range_meters":16000,"station_id":"ce4bhah2rcd13ifvqei0","pricing_plan_id":"cebpf4jnsgd1na2vs0mg"},{"bike_id":"4607379c-9a5a-4d9c-8cea-20530a7eb964","system_id":"levelo_inurba_marseille","lat":43.309275,"lon":5.401435,"is_reserved":false,"is_disabled":false,"rental_uris":{"android":"levelo://app?vid=4607379c-9a5a-4d9c-8cea-20530a7eb964","ios":"levelo://app?vid=4607379c-9a5a-4d9c-8cea-20530a7eb964"},"vehicle_type_id":"4","last_reported":1748480097,"current_range_meters":16000,"station_id":"ce4bgvp2rcd13ifvqct0","pricing_plan_id":"cebpf4jnsgd1na2vs0mg"},{"bike_id":"3fd0f4ea-0d72-4330-b210-e65f1bf6b5cf","system_id":"levelo_inurba_marseille","lat":43.31065,"lon":5.3835,"is_reserved":false,"is_disabled":false,"rental_uris":{"android":"levelo://app?vid=3fd0f4ea-0d72-4330-b210-e65f1bf6b5cf","ios":"levelo://app?vid=3fd0f4ea-0d72-4330-b210-e65f1bf6b5cf"},"vehicle_type_id":"4","last_reported":1748480097,"current_range_meters":16000,"station_id":"ce4bgv92rcd13ifvqcr0","pricing_plan_id":"cebpf4jnsgd1na2vs0mg"},{"bike_id":"4c053a53-5a50-4e31-8104-9b41d82b2307","system_id":"levelo_inurba_marseille","lat":43.330637,"lon":5.393379,"is_reserved":false,"is_disabled":false,"rental_uris":{"android":"levelo://app?vid=4c053a53-5a50-4e31-8104-9b41d82b2307","ios":"levelo://app?vid=4c053a53-5a50-4e31-8104-9b41d82b2307"},"vehicle_type_id":"4","last_reported":1748480097,"current_range_meters":16000,"station_id":"","pricing_plan_id":"cebpf4jnsgd1na2vs0mg"},{"bike_id":"f5733814-9732-4748-bcc9-3b2fac8e1564","system_id":"levelo_inurba_marseille","lat":43.31256,"lon":5.37829,"is_reserved":false,"is_disabled":false,"rental_uris":{"android":"levelo://app?vid=f5733814-9732-4748-bcc9-3b2fac8e1564","ios":"levelo://app?vid=f5733814-9732-4748-bcc9-3b2fac8e1564"},"vehicle_type_id":"4","last_reported":1748480097,"current_range_meters":16000,"station_id":"","pricing_plan_id":"cebpf4jnsgd1na2vs0mg"},{"bike_id":"d51ee886-1761-4921-8b1e-f325da8123e4","system_id":"levelo_inurba_marseille","lat":43.28878,"lon":5.36157,"is_reserved":false,"is_disabled":false,"rental_uris":{"android":"levelo://app?vid=d51ee886-1761-4921-8b1e-f325da8123e4","ios":"levelo://app?vid=d51ee886-1761-4921-8b1e-f325da8123e4"},"vehicle_type_id":"4","last_reported":1748480097,"current_range_meters":16000,"station_id":"","pricing_plan_id":"cebpf4jnsgd1na2vs0mg"},{"bike_id":"6e08f4f2-09f9-4a03-a2da-579fb08135b5","system_id":"levelo_inurba_marseille","lat":43.30225,"lon":5.39467,"is_reserved":false,"is_disabled":false,"rental_uris":{"android":"levelo://app?vid=6e08f4f2-09f9-4a03-a2da-579fb08135b5","ios":"levelo://app?vid=6e08f4f2-09f9-4a03-a2da-579fb08135b5"},"vehicle_type_id":"4","last_reported":1748480097,"current_range_meters":16000,"station_id":"ce4bh0p2rcd13ifvqd70","pricing_plan_id":"cebpf4jnsgd1na2vs0mg"},{"bike_id":"bed03d1a-25e1-4e25-82e2-2960e98a96e0","system_id":"levelo_inurba_marseille","lat":43.23966,"lon":5.36633,"is_reserved":false,"is_disabled":false,"rental_uris":{"android":"levelo://app?vid=bed03d1a-25e1-4e25-82e2-2960e98a96e0","ios":"levelo://app?vid=bed03d1a-25e1-4e25-82e2-2960e98a96e0"},"vehicle_type_id":"4","last_reported":1748480097,"current_range_meters":16000,"station_id":"ce4bhi12rcd13ifvqfp0","pricing_plan_id":"cebpf4jnsgd1na2vs0mg"},{"bike_id":"caba691e-3e1a-4a91-8958-c8fc2e373e15","system_id":"levelo_inurba_marseille","lat":43.33721,"lon":5.39208,"is_reserved":false,"is_disabled":false,"rental_uris":{"android":"levelo://app?vid=caba691e-3e1a-4a91-8958-c8fc2e373e15","ios":"levelo://app?vid=caba691e-3e1a-4a91-8958-c8fc2e373e15"},"vehicle_type_id":"4","last_reported":1748480097,"current_range_meters":16400,"station_id":"ce4bhr92rcd13ifvqhsg","pricing_plan_id":"cebpf4jnsgd1na2vs0mg"},{"bike_id":"50dbfc16-57f2-45be-8b4f-1c8f61506949","system_id":"levelo_inurba_marseille","lat":43.28486,"lon":5.3856,"is_reserved":false,"is_disabled":false,"rental_uris":{"android":"levelo://app?vid=50dbfc16-57f2-45be-8b4f-1c8f61506949","ios":"levelo://app?vid=50dbfc16-57f2-45be-8b4f-1c8f61506949"},"vehicle_type_id":"4","last_reported":1748480097,"current_range_meters":16400,"station_id":"ce4bh8p2rcd13ifvqeb0","pricing_plan_id":"cebpf4jnsgd1na2vs0mg"},{"bike_id":"e9cda520-c6f4-465d-ad7f-8c059b3dc45a","system_id":"levelo_inurba_marseille","lat":43.31323,"lon":5.38571,"is_reserved":false,"is_disabled":false,"rental_uris":{"android":"levelo://app?vid=e9cda520-c6f4-465d-ad7f-8c059b3dc45a","ios":"levelo://app?vid=e9cda520-c6f4-465d-ad7f-8c059b3dc45a"},"vehicle_type_id":"4","last_reported":1748480097,"current_range_meters":16400,"station_id":"","pricing_plan_id":"cebpf4jnsgd1na2vs0mg"},{"bike_id":"1ca2946d-fd10-49a6-aa24-d1f078ce548e","system_id":"levelo_inurba_marseille","lat":43.30592,"lon":5.37457,"is_reserved":false,"is_disabled":false,"rental_uris":{"android":"levelo://app?vid=1ca2946d-fd10-49a6-aa24-d1f078ce548e","ios":"levelo://app?vid=1ca2946d-fd10-49a6-aa24-d1f078ce548e"},"vehicle_type_id":"4","last_reported":1748480097,"current_range_meters":16400,"station_id":"","pricing_plan_id":"cebpf4jnsgd1na2vs0mg"},{"bike_id":"7b64b9e6-3c9a-49de-ae0e-b49897caef8d","system_id":"levelo_inurba_marseille","lat":43.30879,"lon":5.39651,"is_reserved":false,"is_disabled":false,"rental_uris":{"android":"levelo://app?vid=7b64b9e6-3c9a-49de-ae0e-b49897caef8d","ios":"levelo://app?vid=7b64b9e6-3c9a-49de-ae0e-b49897caef8d"},"vehicle_type_id":"4","last_reported":1748480097,"current_range_meters":16400,"station_id":"ce4bh012rcd13ifvqcv0","pricing_plan_id":"cebpf4jnsgd1na2vs0mg"},{"bike_id":"2e07b45c-7b34-450c-84e3-ad4c681fd588","system_id":"levelo_inurba_marseille","lat":43.28823,"lon":5.39318,"is_reserved":false,"is_disabled":false,"rental_uris":{"android":"levelo://app?vid=2e07b45c-7b34-450c-84e3-ad4c681fd588","ios":"levelo://app?vid=2e07b45c-7b34-450c-84e3-ad4c681fd588"},"vehicle_type_id":"4","last_reported":1748480097,"current_range_meters":16400,"station_id":"ce4bh2p2rcd13ifvqdi0","pricing_plan_id":"cebpf4jnsgd1na2vs0mg"},{"bike_id":"2b8cf201-3f6a-4001-9ca8-0b486ebce4e1","system_id":"levelo_inurba_marseille","lat":43.28165,"lon":5.42642,"is_reserved":false,"is_disabled":false,"rental_uris":{"android":"levelo://app?vid=2b8cf201-3f6a-4001-9ca8-0b486ebce4e1","ios":"levelo://app?vid=2b8cf201-3f6a-4001-9ca8-0b486ebce4e1"},"vehicle_type_id":"4","last_reported":1748480097,"current_range_meters":16400,"station_id":"ce4bhnh2rcd13ifvqgug","pricing_plan_id":"cebpf4jnsgd1na2vs0mg"},{"bike_id":"a829ba8e-bf90-4a53-baee-0213b780debc","system_id":"levelo_inurba_marseille","lat":43.292803,"lon":5.401392,"is_reserved":false,"is_disabled":false,"rental_uris":{"android":"levelo://app?vid=a829ba8e-bf90-4a53-baee-0213b780debc","ios":"levelo://app?vid=a829ba8e-bf90-4a53-baee-0213b780debc"},"vehicle_type_id":"4","last_reported":1748480097,"current_range_meters":16400,"station_id":"ce4bh312rcd13ifvqdk0","pricing_plan_id":"cebpf4jnsgd1na2vs0mg"},{"bike_id":"a860e663-5e5a-4cec-ae5b-dc88e172b73e","system_id":"levelo_inurba_marseille","lat":43.31706,"lon":5.40477,"is_reserved":false,"is_disabled":false,"rental_uris":{"android":"levelo://app?vid=a860e663-5e5a-4cec-ae5b-dc88e172b73e","ios":"levelo://app?vid=a860e663-5e5a-4cec-ae5b-dc88e172b73e"},