{"last_updated":1720289380,"ttl":30,"version":"2.2","data":{"bikes":[{"bike_id":"a8d485ab-197b-415e-bb9f-c4d9df233003","system_id":"levelo_inurba_marseille","lat":43.312239,"lon":5.368562,"is_reserved":false,"is_disabled":false,"rental_uris":{"android":"levelo://app?vid=a8d485ab-197b-415e-bb9f-c4d9df233003","ios":"levelo://app?vid=a8d485ab-197b-415e-bb9f-c4d9df233003"},"vehicle_type_id":"4","last_reported":1720289380,"current_range_meters":18400,"station_id":"ce4bgl92rcd13ifvqbq0","pricing_plan_id":"cebpf4jnsgd1na2vs0mg"},{"bike_id":"f1bef4d3-eebd-48b2-a84a-4c20939bded0","system_id":"levelo_inurba_marseille","lat":43.30827,"lon":5.36931,"is_reserved":false,"is_disabled":false,"rental_uris":{"android":"levelo://app?vid=f1bef4d3-eebd-48b2-a84a-4c20939bded0","ios":"levelo://app?vid=f1bef4d3-eebd-48b2-a84a-4c20939bded0"},"vehicle_type_id":"4","last_reported":1720289380,"current_range_meters":9200,"station_id":"","pricing_plan_id":"cebpf4jnsgd1na2vs0mg"},{"bike_id":"87506cb8-c18e-4ad8-9815-700090c8a73d","system_id":"levelo_inurba_marseille","lat":43.314811,"lon":5.373103,"is_reserved":false,"is_disabled":false,"rental_uris":{"android":"levelo://app?vid=87506cb8-c18e-4ad8-9815-700090c8a73d","ios":"levelo://app?vid=87506cb8-c18e-4ad8-9815-700090c8a73d"},"vehicle_type_id":"4","last_reported":1720289380,"current_range_meters":1600,"station_id":"ce4bgt12rcd13ifvqcd0","pricing_plan_id":"cebpf4jnsgd1na2vs0mg"},{"bike_id":"41cdcdd6-ded1-4424-b142-2da7b544bf9d","system_id":"levelo_inurba_marseille","lat":43.317831,"lon":5.369446,"is_reserved":false,"is_disabled":false,"rental_uris":{"android":"levelo://app?vid=41cdcdd6-ded1-4424-b142-2da7b544bf9d","ios":"levelo://app?vid=41cdcdd6-ded1-4424-b142-2da7b544bf9d"},"vehicle_type_id":"4","last_reported":1720289380,"current_range_meters":4800,"station_id":"","pricing_plan_id":"cebpf4jnsgd1na2vs0mg"},{"bike_id":"fef780a5-8278-4ed0-925a-3c9d52bff5e3","system_id":"levelo_inurba_marseille","lat":43.313493,"lon":5.37453,"is_reserved":false,"is_disabled":false,"rental_uris":{"android":"levelo://app?vid=fef780a5-8278-4ed0-925a-3c9d52bff5e3","ios":"levelo://app?vid=fef780a5-8278-4ed0-925a-3c9d52bff5e3"},"vehicle_type_id":"4","last_reported":1720289380,"current_range_meters":0,"station_id":"","pricing_plan_id":"cebpf4jnsgd1na2vs0mg"},{"bike_id":"5bacee6e-0651-445f-bad0-4485bbc1cc34","system_id":"levelo_inurba_marseille","lat":43.31339,"lon":5.37554,"is_reserved":false,"is_disabled":false,"rental_uris":{"android":"levelo://app?vid=5bacee6e-0651-445f-bad0-4485bbc1cc34","ios":"levelo://app?vid=5bacee6e-0651-445f-bad0-4485bbc1cc34"},"vehicle_type_id":"4","last_reported":1720289380,"current_range_meters":15600,"station_id":"","pricing_plan_id":"cebpf4jnsgd1na2vs0mg"},{"bike_id":"bfbd9fca-a584-434a-a860-2136874133ff","system_id":"levelo_inurba_marseille","lat":43.305714,"lon":5.365633,"is_reserved":false,"is_disabled":false,"rental_uris":{"android":"levelo://app?vid=bfbd9fca-a584-434a-a860-2136874133ff","ios":"levelo://app?vid=bfbd9fca-a584-434a-a860-2136874133ff"},"vehicle_type_id":"4","last_reported":1720289380,"current_range_meters":4800,"station_id":"ce4bgs12rcd13ifvqcag","pricing_plan_id":"cebpf4jnsgd1na2vs0mg"},{"bike_id":"b53490e5-fc4b-49b1-a8e5-ed4dee2a549b","system_id":"levelo_inurba_marseille","lat":43.311131,"lon":5.377651,"is_reserved":false,"is_disabled":false,"rental_uris":{"android":"levelo://app?vid=b53490e5-fc4b-49b1-a8e5-ed4dee2a549b","ios":"levelo://app?vid=b53490e5-fc4b-49b1-a8e5-ed4dee2a549b"},"vehicle_type_id":"4","last_reported":1720289380,"current_range_meters":0,"station_id":"ce4bgt92rcd13ifvqcg0","pricing_plan_id":"cebpf4jnsgd1na2vs0mg"},{"bike_id":"e8926e61-cc2e-4dfa-ab6a-bc3d21a8eef0","system_id":"levelo_inurba_marseille","lat":43.311131,"lon":5.377651,"is_reserved":false,"is_disabled":false,"rental_uris":{"android":"levelo://app?vid=e8926e61-cc2e-4dfa-ab6a-bc3d21a8eef0","ios":"levelo://app?vid=e8926e61-cc2e-4dfa-ab6a-bc3d21a8eef0"},"vehicle_type_id":"4","last_reported":1720289380,"current_range_meters":18800,"station_id":"ce4bgt92rcd13ifvqcg0","pricing_plan_id":"cebpf4jnsgd1na2vs0mg"},{"bike_id":"b85a37d6-c288-4757-adbe-ae5b3e890856","system_id":"levelo_inurba_marseille","lat":43.311131,"lon":5.377651,"is_reserved":false,"is_disabled":false,"rental_uris":{"android":"levelo://app?vid=b85a37d6-c288-4757-adbe-ae5b3e890856","ios":"levelo://app?vid=b85a37d6-c288-4757-adbe-ae5b3e890856"},"vehicle_type_id":"4","last_reported":1720289380,"current_range_meters":24800,"station_id":"ce4bgt92rcd13ifvqcg0","pricing_plan_id":"cebpf4jnsgd1na2vs0mg"},{"bike_id":"a61191ac-7ee2-4a54-8109-e23899b8b750","system_id":"levelo_inurba_marseille","lat":43.311125,"lon":5.377624,"is_reserved":false,"is_disabled":false,"rental_uris":{"android":"levelo://app?vid=a61191ac-7ee2-4a54-8109-e23899b8b750","ios":"levelo://app?vid=a61191ac-7ee2-4a54-8109-e23899b8b750"},"vehicle_type_id":"4","last_reported":1720289380,"current_range_meters":800,"station_id":"ce4bgt92rcd13ifvqcg0","pricing_plan_id":"cebpf4jnsgd1na2vs0mg"},{"bike_id":"e28f6924-bc52-4421-9cec-ef58c1a65335","system_id":"levelo_inurba_marseille","lat":43.30837,"lon":5.376405,"is_reserved":false,"is_disabled":false,"rental_uris":{"android":"levelo://app?vid=e28f6924-bc52-4421-9cec-ef58c1a65335","ios":"levelo://app?vid=e28f6924-bc52-4421-9cec-ef58c1a65335"},"vehicle_type_id":"4","last_reported":1720289380,"current_range_meters":12000,"station_id":"ce4bgv92rcd13ifvqcq0","pricing_plan_id":"cebpf4jnsgd1na2vs0mg"},{"bike_id":"fcff6582-4f2f-4940-b641-e80bb2509d41","system_id":"levelo_inurba_marseille","lat":43.317075,"lon":5.377367,"is_reserved":false,"is_disabled":false,"rental_uris":{"android":"levelo://app?vid=fcff6582-4f2f-4940-b641-e80bb2509d41","ios":"levelo://app?vid=fcff6582-4f2f-4940-b641-e80bb2509d41"},"vehicle_type_id":"4","last_reported":1720289380,"current_range_meters":2800,"station_id":"ce4bgth2rcd13ifvqch0","pricing_plan_id":"cebpf4jnsgd1na2vs0mg"},{"bike_id":"5e68900c-9c53-49d8-ac99-05b33c8d9514","system_id":"levelo_inurba_marseille","lat":43.307945,"lon":5.376487,"is_reserved":false,"is_disabled":false,"rental_uris":{"android":"levelo://app?vid=5e68900c-9c53-49d8-ac99-05b33c8d9514","ios":"levelo://app?vid=5e68900c-9c53-49d8-ac99-05b33c8d9514"},"vehicle_type_id":"4","last_reported":1720289380,"current_range_meters":31200,"station_id":"ce4bgv92rcd13ifvqcq0","pricing_plan_id":"cebpf4jnsgd1na2vs0mg"},{"bike_id":"054413d4-f17e-4bbb-bba3-d3a78118e881","system_id":"levelo_inurba_marseille","lat":43.307945,"lon":5.376487,"is_reserved":false,"is_disabled":false,"rental_uris":{"android":"levelo://app?vid=054413d4-f17e-4bbb-bba3-d3a78118e881","ios":"levelo://app?vid=054413d4-f17e-4bbb-bba3-d3a78118e881"},"vehicle_type_id":"4","last_reported":1720289380,"current_range_meters":31600,"station_id":"ce4bgv92rcd13ifvqcq0","pricing_plan_id":"cebpf4jnsgd1na2vs0mg"},{"bike_id":"e9fbcc1c-450e-48ab-89dd-66030df1e505","system_id":"levelo_inurba_marseille","lat":43.317075,"lon":5.377367,"is_reserved":false,"is_disabled":false,"rental_uris":{"android":"levelo://app?vid=e9fbcc1c-450e-48ab-89dd-66030df1e505","ios":"levelo://app?vid=e9fbcc1c-450e-48ab-89dd-66030df1e505"},"vehicle_type_id":"4","last_reported":1720289380,"current_range_meters":16400,"station_id":"ce4bgth2rcd13ifvqch0","pricing_plan_id":"cebpf4jnsgd1na2vs0mg"},{"bike_id":"a9f484d5-1a80-47f5-bb25-9f16ce1c335a","system_id":"levelo_inurba_marseille","lat":43.30489,"lon":5.3744,"is_reserved":false,"is_disabled":false,"rental_uris":{"android":"levelo://app?vid=a9f484d5-1a80-47f5-bb25-9f16ce1c335a","ios":"levelo://app?vid=a9f484d5-1a80-47f5-bb25-9f16ce1c335a"},"vehicle_type_id":"4","last_reported":1720289380,"current_range_meters":2800,"station_id":"","pricing_plan_id":"cebpf4jnsgd1na2vs0mg"},{"bike_id":"f2a15846-d91d-4c8c-bb2c-658f62b72a35","system_id":"levelo_inurba_marseille","lat":43.303046,"lon":5.368981,"is_reserved":false,"is_disabled":false,"rental_uris":{"android":"levelo://app?vid=f2a15846-d91d-4c8c-bb2c-658f62b72a35","ios":"levelo://app?vid=f2a15846-d91d-4c8c-bb2c-658f62b72a35"},"vehicle_type_id":"4","last_reported":1720289380,"current_range_meters":16800,"station_id":"ce4bgqh2rcd13ifvqc5g","pricing_plan_id":"cebpf4jnsgd1na2vs0mg"},{"bike_id":"5b85ca9c-1ef6-438c-b6b6-82f948b4b33d","system_id":"levelo_inurba_marseille","lat":43.315289,"lon":5.380349,"is_reserved":false,"is_disabled":false,"rental_uris":{"android":"levelo://app?vid=5b85ca9c-1ef6-438c-b6b6-82f948b4b33d","ios":"levelo://app?vid=5b85ca9c-1ef6-438c-b6b6-82f948b4b33d"},"vehicle_type_id":"4","last_reported":1720289380,"current_range_meters":23200,"station_id":"ce4bhsp2rcd13ifvqi50","pricing_plan_id":"cebpf4jnsgd1na2vs0mg"},{"bike_id":"1a5cf7c0-b988-4213-8dfc-2e64a7b59bc0","system_id":"levelo_inurba_marseille","lat":43.315289,"lon":5.380349,"is_reserved":false,"is_disabled":false,"rental_uris":{"android":"levelo://app?vid=1a5cf7c0-b988-4213-8dfc-2e64a7b59bc0","ios":"levelo://app?vid=1a5cf7c0-b988-4213-8dfc-2e64a7b59bc0"},"vehicle_type_id":"4","last_reported":1720289380,"current_range_meters":2400,"station_id":"ce4bhsp2rcd13ifvqi50","pricing_plan_id":"cebpf4jnsgd1na2vs0mg"},{"bike_id":"d2c0112b-a71f-40cb-85c4-54f6c2f7632e","system_id":"levelo_inurba_marseille","lat":43.301939,"lon":5.366286,"is_reserved":false,"is_disabled":false,"rental_uris":{"android":"levelo://app?vid=d2c0112b-a71f-40cb-85c4-54f6c2f7632e","ios":"levelo://app?vid=d2c0112b-a71f-40cb-85c4-54f6c2f7632e"},"vehicle_type_id":"4","last_reported":1720289380,"current_range_meters":21200,"station_id":"ce4bgrh2rcd13ifvqc8g","pricing_plan_id":"cebpf4jnsgd1na2vs0mg"},{"bike_id":"12716a8b-a4ab-4ff7-8a2c-d75bbc106e4d","system_id":"levelo_inurba_marseille","lat":43.301939,"lon":5.366286,"is_reserved":false,"is_disabled":false,"rental_uris":{"android":"levelo://app?vid=12716a8b-a4ab-4ff7-8a2c-d75bbc106e4d","ios":"levelo://app?vid=12716a8b-a4ab-4ff7-8a2c-d75bbc106e4d"},"vehicle_type_id":"4","last_reported":1720289380,"current_range_meters":6000,"station_id":"ce4bgrh2rcd13ifvqc8g","pricing_plan_id":"cebpf4jnsgd1na2vs0mg"},{"bike_id":"c1cf35a8-1286-499d-8009-87040f412008","system_id":"levelo_inurba_marseille","lat":43.301939,"lon":5.366286,"is_reserved":false,"is_disabled":false,"rental_uris":{"android":"levelo://app?vid=c1cf35a8-1286-499d-8009-87040f412008","ios":"levelo://app?vid=c1cf35a8-1286-499d-8009-87040f412008"},"vehicle_type_id":"4","last_reported":1720289380,"current_range_meters":0,"station_id":"ce4bgrh2rcd13ifvqc8g","pricing_plan_id":"cebpf4jnsgd1na2vs0mg"},{"bike_id":"de7f94a0-f3a6-4702-b950-2ed30e4e8005","system_id":"levelo_inurba_marseille","lat":43.31596,"lon":5.38237,"is_reserved":false,"is_disabled":false,"rental_uris":{"android":"levelo://app?vid=de7f94a0-f3a6-4702-b950-2ed30e4e8005","ios":"levelo://app?vid=de7f94a0-f3a6-4702-b950-2ed30e4e8005"},"vehicle_type_id":"4","last_reported":1720289380,"current_range_meters":16000,"station_id":"","pricing_plan_id":"cebpf4jnsgd1na2vs0mg"},{"bike_id":"ad8c02c3-b43c-4efb-8ba1-4ac0faed2346","system_id":"levelo_inurba_marseille","lat":43.301002,"lon":5.368712,"is_reserved":false,"is_disabled":false,"rental_uris":{"android":"levelo://app?vid=ad8c02c3-b43c-4efb-8ba1-4ac0faed2346","ios":"levelo://app?vid=ad8c02c3-b43c-4efb-8ba1-4ac0faed2346"},"vehicle_type_id":"4","last_reported":1720289380,"current_range_meters":18000,"station_id":"","pricing_plan_id":"cebpf4jnsgd1na2vs0mg"},{"bike_id":"ea7672e1-becf-4740-bb3d-34912cec8eff","system_id":"levelo_inurba_marseille","lat":43.324771,"lon":5.36557,"is_reserved":false,"is_disabled":false,"rental_uris":{"android":"levelo://app?vid=ea7672e1-becf-4740-bb3d-34912cec8eff","ios":"levelo://app?vid=ea7672e1-becf-4740-bb3d-34912cec8eff"},"vehicle_type_id":"4","last_reported":1720289380,"current_range_meters":4400,"station_id":"ce4bhs12rcd13ifvqhvg","pricing_plan_id":"cebpf4jnsgd1na2vs0mg"},{"bike_id":"bb4f79d7-a1fd-47e5-89b9-d3d8450a9e11","system_id":"levelo_inurba_marseille","lat":43.324771,"lon":5.36557,"is_reserved":false,"is_disabled":false,"rental_uris":{"android":"levelo://app?vid=bb4f79d7-a1fd-47e5-89b9-d3d8450a9e11","ios":"levelo://app?vid=bb4f79d7-a1fd-47e5-89b9-d3d8450a9e11"},"vehicle_type_id":"4","last_reported":1720289380,"current_range_meters":2400,"station_id":"ce4bhs12rcd13ifvqhvg","pricing_plan_id":"cebpf4jnsgd1na2vs0mg"},{"bike_id":"08aa4a2e-a7bd-4da6-ba0d-7994c06c224c","system_id":"levelo_inurba_marseille","lat":43.324771,"lon":5.36557,"is_reserved":false,"is_disabled":false,"rental_uris":{"android":"levelo://app?vid=08aa4a2e-a7bd-4da6-ba0d-7994c06c224c","ios":"levelo://app?vid=08aa4a2e-a7bd-4da6-ba0d-7994c06c224c"},"vehicle_type_id":"4","last_reported":1720289380,"current_range_meters":3600,"station_id":"ce4bhs12rcd13ifvqhvg","pricing_plan_id":"cebpf4jnsgd1na2vs0mg"},{"bike_id":"c8f77e45-6f3f-4be7-878f-2657ee7c4baf","system_id":"levelo_inurba_marseille","lat":43.324771,"lon":5.36557,"is_reserved":false,"is_disabled":false,"rental_uris":{"android":"levelo://app?vid=c8f77e45-6f3f-4be7-878f-2657ee7c4baf","ios":"levelo://app?vid=c8f77e45-6f3f-4be7-878f-2657ee7c4baf"},"vehicle_type_id":"4","last_reported":1720289380,"current_range_meters":6800,"station_id":"ce4bhs12rcd13ifvqhvg","pricing_plan_id":"cebpf4jnsgd1na2vs0mg"},{"bike_id":"be077d4e-c552-4f87-8e53-586e36c234b1","system_id":"levelo_inurba_marseille","lat":43.324771,"lon":5.36557,"is_reserved":false,"is_disabled":false,"rental_uris":{"android":"levelo://app?vid=be077d4e-c552-4f87-8e53-586e36c234b1","ios":"levelo://app?vid=be077d4e-c552-4f87-8e53-586e36c234b1"},"vehicle_type_id":"4","last_reported":1720289380,"current_range_meters":17200,"station_id":"ce4bhs12rcd13ifvqhvg","pricing_plan_id":"cebpf4jnsgd1na2vs0mg"},{"bike_id":"c37d65c6-30b5-40b8-94bf-a07b4862fe26","system_id":"levelo_inurba_marseille","lat":43.324771,"lon":5.36557,"is_reserved":false,"is_disabled":false,"rental_uris":{"android":"levelo://app?vid=c37d65c6-30b5-40b8-94bf-a07b4862fe26","ios":"levelo://app?vid=c37d65c6-30b5-40b8-94bf-a07b4862fe26"},"vehicle_type_id":"4","last_reported":1720289380,"current_range_meters":18000,"station_id":"ce4bhs12rcd13ifvqhvg","pricing_plan_id":"cebpf4jnsgd1na2vs0mg"},{"bike_id":"5d0f7a04-8135-4b74-9688-9c520cdcb889","system_id":"levelo_inurba_marseille","lat":43.32489,"lon":5.36566,"is_reserved":false,"is_disabled":false,"rental_uris":{"android":"levelo://app?vid=5d0f7a04-8135-4b74-9688-9c520cdcb889","ios":"levelo://app?vid=5d0f7a04-8135-4b74-9688-9c520cdcb889"},"vehicle_type_id":"4","last_reported":1720289380,"current_range_meters":4800,"station_id":"ce4bhs12rcd13ifvqhvg","pricing_plan_id":"cebpf4jnsgd1na2vs0mg"},{"bike_id":"4d2f8fec-a9ef-40ca-8d83-bc8e0ff3a985","system_id":"levelo_inurba_marseille","lat":43.32491,"lon":5.36566,"is_reserved":false,"is_disabled":false,"rental_uris":{"android":"levelo://app?vid=4d2f8fec-a9ef-40ca-8d83-bc8e0ff3a985","ios":"levelo://app?vid=4d2f8fec-a9ef-40ca-8d83-bc8e0ff3a985"},"vehicle_type_id":"4","last_reported":1720289380,"current_range_meters":0,"station_id":"ce4bhs12rcd13ifvqhvg","pricing_plan_id":"cebpf4jnsgd1na2vs0mg"},{"bike_id":"8f10e39d-e909-4e20-ab74-45ff3edeae45","system_id":"levelo_inurba_marseille","lat":43.310804,"lon":5.38359,"is_reserved":false,"is_disabled":false,"rental_uris":{"android":"levelo://app?vid=8f10e39d-e909-4e20-ab74-45ff3edeae45","ios":"levelo://app?vid=8f10e39d-e909-4e20-ab74-45ff3edeae45"},"vehicle_type_id":"4","last_reported":1720289380,"current_range_meters":11600,"station_id":"ce4bgv92rcd13ifvqcr0","pricing_plan_id":"cebpf4jnsgd1na2vs0mg"},{"bike_id":"71bea1da-d5ad-49d2-b690-5936aa49a6e1","system_id":"levelo_inurba_marseille","lat":43.30281,"lon":5.37697,"is_reserved":false,"is_disabled":false,"rental_uris":{"android":"levelo://app?vid=71bea1da-d5ad-49d2-b690-5936aa49a6e1","ios":"levelo://app?vid=71bea1da-d5ad-49d2-b690-5936aa49a6e1"},"vehicle_type_id":"4","last_reported":1720289380,"current_range_meters":16400,"station_id":"ce4bguh2rcd13ifvqcj0","pricing_plan_id":"cebpf4jnsgd1na2vs0mg"},{"bike_id":"d943525b-06ac-4583-bea8-c1de38aca777","system_id":"levelo_inurba_marseille","lat":43.300729,"lon":5.371024,"is_reserved":false,"is_disabled":false,"rental_uris":{"android":"levelo://app?vid=d943525b-06ac-4583-bea8-c1de38aca777","ios":"levelo://app?vid=d943525b-06ac-4583-bea8-c1de38aca777"},"vehicle_type_id":"4","last_reported":1720289380,"current_range_meters":9600,"station_id":"","pricing_plan_id":"cebpf4jnsgd1na2vs0mg"},{"bike_id":"91c36e31-6809-4542-857b-aba6039008f7","system_id":"levelo_inurba_marseille","lat":43.302784,"lon":5.377158,"is_reserved":false,"is_disabled":false,"rental_uris":{"android":"levelo://app?vid=91c36e31-6809-4542-857b-aba6039008f7","ios":"levelo://app?vid=91c36e31-6809-4542-857b-aba6039008f7"},"vehicle_type_id":"4","last_reported":1720289380,"current_range_meters":4800,"station_id":"ce4bguh2rcd13ifvqcj0","pricing_plan_id":"cebpf4jnsgd1na2vs0mg"},{"bike_id":"b80a26ef-15c3-4780-862d-6e4d5865ff3e","system_id":"levelo_inurba_marseille","lat":43.302784,"lon":5.377158,"is_reserved":false,"is_disabled":false,"rental_uris":{"android":"levelo://app?vid=b80a26ef-15c3-4780-862d-6e4d5865ff3e","ios":"levelo://app?vid=b80a26ef-15c3-4780-862d-6e4d5865ff3e"},"vehicle_type_id":"4","last_reported":1720289380,"current_range_meters":20000,"station_id":"ce4bguh2rcd13ifvqcj0","pricing_plan_id":"cebpf4jnsgd1na2vs0mg"},{"bike_id":"2420ea68-14e3-49c0-8d33-e938cafcd308","system_id":"levelo_inurba_marseille","lat":43.301429,"lon":5.37413,"is_reserved":false,"is_disabled":false,"rental_uris":{"android":"levelo://app?vid=2420ea68-14e3-49c0-8d33-e938cafcd308","ios":"levelo://app?vid=2420ea68-14e3-49c0-8d33-e938cafcd308"},"vehicle_type_id":"4","last_reported":1720289380,"current_range_meters":10800,"station_id":"ce4bgs92rcd13ifvqcc0","pricing_plan_id":"cebpf4jnsgd1na2vs0mg"},{"bike_id":"9b63f808-079b-44f2-9a7a-c4fed2e8261c","system_id":"levelo_inurba_marseille","lat":43.301429,"lon":5.37413,"is_reserved":false,"is_disabled":false,"rental_uris":{"android":"levelo://app?vid=9b63f808-079b-44f2-9a7a-c4fed2e8261c","ios":"levelo://app?vid=9b63f808-079b-44f2-9a7a-c4fed2e8261c"},"vehicle_type_id":"4","last_reported":1720289380,"current_range_meters":18400,"station_id":"ce4bgs92rcd13ifvqcc0","pricing_plan_id":"cebpf4jnsgd1na2vs0mg"},{"bike_id":"a4b405ae-e8a0-4edd-b13b-a71161683321","system_id":"levelo_inurba_marseille","lat":43.301429,"lon":5.37413,"is_reserved":false,"is_disabled":false,"rental_uris":{"android":"levelo://app?vid=a4b405ae-e8a0-4edd-b13b-a71161683321","ios":"levelo://app?vid=a4b405ae-e8a0-4edd-b13b-a71161683321"},"vehicle_type_id":"4","last_reported":1720289380,"current_range_meters":15200,"station_id":"ce4bgs92rcd13ifvqcc0","pricing_plan_id":"cebpf4jnsgd1na2vs0mg"},{"bike_id":"aaabf849-82c6-407b-86ed-3c3dfff2144b","system_id":"levelo_inurba_marseille","lat":43.319935,"lon":5.381699,"is_reserved":false,"is_disabled":false,"rental_uris":{"android":"levelo://app?vid=aaabf849-82c6-407b-86ed-3c3dfff2144b","ios":"levelo://app?vid=aaabf849-82c6-407b-86ed-3c3dfff2144b"},"vehicle_type_id":"4","last_reported":1720289380,"current_range_meters":16000,"station_id":"ce4bhr12rcd13ifvqhpg","pricing_plan_id":"cebpf4jnsgd1na2vs0mg"},{"bike_id":"37e5700e-3921-4777-a496-1396c57e6dd8","system_id":"levelo_inurba_marseille","lat":43.313571,"lon":5.384829,"is_reserved":false,"is_disabled":false,"rental_uris":{"android":"levelo://app?vid=37e5700e-3921-4777-a496-1396c57e6dd8","ios":"levelo://app?vid=37e5700e-3921-4777-a496-1396c57e6dd8"},"vehicle_type_id":"4","last_reported":1720289380,"current_range_meters":6400,"station_id":"ce4bgt92rcd13ifvqcf0","pricing_plan_id":"cebpf4jnsgd1na2vs0mg"},{"bike_id":"8e47f0db-57c4-4f2a-bb6b-7d725c06ee8d","system_id":"levelo_inurba_marseille","lat":43.299222,"lon":5.365554,"is_reserved":false,"is_disabled":false,"rental_uris":{"android":"levelo://app?vid=8e47f0db-57c4-4f2a-bb6b-7d725c06ee8d","ios":"levelo://app?vid=8e47f0db-57c4-4f2a-bb6b-7d725c06ee8d"},"vehicle_type_id":"4","last_reported":1720289380,"current_range_meters":7200,"station_id":"ce4bgm92rcd13ifvqbr0","pricing_plan_id":"cebpf4jnsgd1na2vs0mg"},{"bike_id":"c103e741-b0d5-418c-9750-56ed66e91830","system_id":"levelo_inurba_marseille","lat":43.299724,"lon":5.371829,"is_reserved":false,"is_disabled":false,"rental_uris":{"android":"levelo://app?vid=c103e741-b0d5-418c-9750-56ed66e91830","ios":"levelo://app?vid=c103e741-b0d5-418c-9750-56ed66e91830"},"vehicle_type_id":"4","last_reported":1720289380,"current_range_meters":3200,"station_id":"ce4bgr92rcd13ifvqc7g","pricing_plan_id":"cebpf4jnsgd1na2vs0mg"},{"bike_id":"3aacef53-c55f-4d9d-8764-926ce72251cf","system_id":"levelo_inurba_marseille","lat":43.299222,"lon":5.365554,"is_reserved":false,"is_disabled":false,"rental_uris":{"android":"levelo://app?vid=3aacef53-c55f-4d9d-8764-926ce72251cf","ios":"levelo://app?vid=3aacef53-c55f-4d9d-8764-926ce72251cf"},"vehicle_type_id":"4","last_reported":1720289380,"current_range_meters":4800,"station_id":"ce4bgm92rcd13ifvqbr0","pricing_plan_id":"cebpf4jnsgd1na2vs0mg"},{"bike_id":"2753bbca-fd95-46c5-aefb-582c1a72ce9d","system_id":"levelo_inurba_marseille","lat":43.299724,"lon":5.371829,"is_reserved":false,"is_disabled":false,"rental_uris":{"android":"levelo://app?vid=2753bbca-fd95-46c5-aefb-582c1a72ce9d","ios":"levelo://app?vid=2753bbca-fd95-46c5-aefb-582c1a72ce9d"},"vehicle_type_id":"4","last_reported":1720289380,"current_range_meters":0,"station_id":"ce4bgr92rcd13ifvqc7g","pricing_plan_id":"cebpf4jnsgd1na2vs0mg"},{"bike_id":"16119096-7e03-4849-a23f-3d44a1d5e18a","system_id":"levelo_inurba_marseille","lat":43.298433,"lon":5.362774,"is_reserved":false,"is_disabled":false,"rental_uris":{"android":"levelo://app?vid=16119096-7e03-4849-a23f-3d44a1d5e18a","ios":"levelo://app?vid=16119096-7e03-4849-a23f-3d44a1d5e18a"},"vehicle_type_id":"4","last_reported":1720289380,"current_range_meters":31600,"station_id":"ce4bgpp2rcd13ifvqc3g","pricing_plan_id":"cebpf4jnsgd1na2vs0mg"},{"bike_id":"9cfac786-ea18-4eb6-9dcd-e54b9580a913","system_id":"levelo_inurba_marseille","lat":43.29832,"lon":5.36382,"is_reserved":false,"is_disabled":false,"rental_uris":{"android":"levelo://app?vid=9cfac786-ea18-4eb6-9dcd-e54b9580a913","ios":"levelo://app?vid=9cfac786-ea18-4eb6-9dcd-e54b9580a913"},"vehicle_type_id":"4","last_reported":1720289380,"current_range_meters":1200,"station_id":"","pricing_plan_id":"cebpf4jnsgd1na2vs0mg"},{"bike_id":"be5f0fb4-0b77-4a11-b973-fa2877d48db1","system_id":"levelo_inurba_marseille","lat":43.305364,"lon":5.384119,"is_reserved":false,"is_disabled":false,"rental_uris":{"android":"levelo://app?vid=be5f0fb4-0b77-4a11-b973-fa2877d48db1","ios":"levelo://app?vid=be5f0fb4-0b77-4a11-b973-fa2877d48db1"},"vehicle_type_id":"4","last_reported":1720289380,"current_range_meters":24400,"station_id":"ce4bgg92rcd13ifvqb30","pricing_plan_id":"cebpf4jnsgd1na2vs0mg"},{"bike_id":"692ef4a6-91de-49d4-8330-dbbed5e701ac","system_id":"levelo_inurba_marseille","lat":43.305364,"lon":5.384119,"is_reserved":false,"is_disabled":false,"rental_uris":{"android":"levelo://app?vid=692ef4a6-91de-49d4-8330-dbbed5e701ac","ios":"levelo://app?vid=692ef4a6-91de-49d4-8330-dbbed5e701ac"},"vehicle_type_id":"4","last_reported":1720289380,"current_range_meters":26800,"station_id":"ce4bgg92rcd13ifvqb30","pricing_plan_id":"cebpf4jnsgd1na2vs0mg"},{"bike_id":"fc61b835-51c9-4ea3-a943-cad07f427fb1","system_id":"levelo_inurba_marseille","lat":43.310359,"lon":5.387119,"is_reserved":false,"is_disabled":false,"rental_uris":{"android":"levelo://app?vid=fc61b835-51c9-4ea3-a943-cad07f427fb1","ios":"levelo://app?vid=fc61b835-51c9-4ea3-a943-cad07f427fb1"},"vehicle_type_id":"4","last_reported":1720289380,"current_range_meters":800,"station_id":"","pricing_plan_id":"cebpf4jnsgd1na2vs0mg"},{"bike_id":"bea07c95-e568-4a0f-b8e5-f3e430b0d770","system_id":"levelo_inurba_marseille","lat":43.322872,"lon":5.382756,"is_reserved":false,"is_disabled":false,"rental_uris":{"android":"levelo://app?vid=bea07c95-e568-4a0f-b8e5-f3e430b0d770","ios":"levelo://app?vid=bea07c95-e568-4a0f-b8e5-f3e430b0d770"},"vehicle_type_id":"4","last_reported":1720289380,"current_range_meters":2800,"station_id":"ce4bhr12rcd13ifvqhqg","pricing_plan_id":"cebpf4jnsgd1na2vs0mg"},{"bike_id":"f2b637c7-40fa-4125-8706-0096523ba21b","system_id":"levelo_inurba_marseille","lat":43.322872,"lon":5.382756,"is_reserved":false,"is_disabled":false,"rental_uris":{"android":"levelo://app?vid=f2b637c7-40fa-4125-8706-0096523ba21b","ios":"levelo://app?vid=f2b637c7-40fa-4125-8706-0096523ba21b"},"vehicle_type_id":"4","last_reported":1720289380,"current_range_meters":19600,"station_id":"ce4bhr12rcd13ifvqhqg","pricing_plan_id":"cebpf4jnsgd1na2vs0mg"},{"bike_id":"e9c42456-44bf-4165-b8cd-f2c827807c97","system_id":"levelo_inurba_marseille","lat":43.322872,"lon":5.382756,"is_reserved":false,"is_disabled":false,"rental_uris":{"android":"levelo://app?vid=e9c42456-44bf-4165-b8cd-f2c827807c97","ios":"levelo://app?vid=e9c42456-44bf-4165-b8cd-f2c827807c97"},"vehicle_type_id":"4","last_reported":1720289380,"current_range_meters":6800,"station_id":"ce4bhr12rcd13ifvqhqg","pricing_plan_id":"cebpf4jnsgd1na2vs0mg"},{"bike_id":"c64c8f86-b70f-4f95-9458-536925b09271","system_id":"levelo_inurba_marseille","lat":43.322872,"lon":5.382756,"is_reserved":false,"is_disabled":false,"rental_uris":{"android":"levelo://app?vid=c64c8f86-b70f-4f95-9458-536925b09271","ios":"levelo://app?vid=c64c8f86-b70f-4f95-9458-536925b09271"},"vehicle_type_id":"4","last_reported":1720289380,"current_range_meters":4000,"station_id":"ce4bhr12rcd13ifvqhqg","pricing_plan_id":"cebpf4jnsgd1na2vs0mg"},{"bike_id":"7540c7d1-bf5f-48d6-91e1-1b86aaa5c3df","system_id":"levelo_inurba_marseille","lat":43.322872,"lon":5.382756,"is_reserved":false,"is_disabled":false,"rental_uris":{"android":"levelo://app?vid=7540c7d1-bf5f-48d6-91e1-1b86aaa5c3df","ios":"levelo://app?vid=7540c7d1-bf5f-48d6-91e1-1b86aaa5c3df"},"vehicle_type_id":"4","last_reported":1720289380,"current_range_meters":4800,"station_id":"ce4bhr12rcd13ifvqhqg","pricing_plan_id":"cebpf4jnsgd1na2vs0mg"},{"bike_id":"57f21258-4d19-4cd6-909d-28d5a46deebc","system_id":"levelo_inurba_marseille","lat":43.322872,"lon":5.382756,"is_reserved":false,"is_disabled":false,"rental_uris":{"android":"levelo://app?vid=57f21258-4d19-4cd6-909d-28d5a46deebc","ios":"levelo://app?vid=57f21258-4d19-4cd6-909d-28d5a46deebc"},"vehicle_type_id":"4","last_reported":1720289380,"current_range_meters":22400,"station_id":"ce4bhr12rcd13ifvqhqg","pricing_plan_id":"cebpf4jnsgd1na2vs0mg"},{"bike_id":"82fe9dae-0bd2-4692-876f-4d5ba1de45f5","system_id":"levelo_inurba_marseille","lat":43.322872,"lon":5.382756,"is_reserved":false,"is_disabled":false,"rental_uris":{"android":"levelo://app?vid=82fe9dae-0bd2-4692-876f-4d5ba1de45f5","ios":"levelo://app?vid=82fe9dae-0bd2-4692-876f-4d5ba1de45f5"},"vehicle_type_id":"4","last_reported":1720289380,"current_range_meters":18800,"station_id":"ce4bhr12rcd13ifvqhqg","pricing_plan_id":"cebpf4jnsgd1na2vs0mg"},{"bike_id":"c4fe9d16-e699-41b5-b2b0-1315887f5ef0","system_id":"levelo_inurba_marseille","lat":43.29703,"lon":5.3661,"is_reserved":false,"is_disabled":false,"rental_uris":{"android":"levelo://app?vid=c4fe9d16-e699-41b5-b2b0-1315887f5ef0","ios":"levelo://app?vid=c4fe9d16-e699-41b5-b2b0-1315887f5ef0"},"vehicle_type_id":"4","last_reported":1720289380,"current_range_meters":0,"station_id":"ce4bgn12rcd13ifvqbt0","pricing_plan_id":"cebpf4jnsgd1na2vs0mg"},{"bike_id":"887dbaa2-793c-4184-bdab-e9828056b441","system_id":"levelo_inurba_marseille","lat":43.297163,"lon":5.365866,"is_reserved":false,"is_disabled":false,"rental_uris":{"android":"levelo://app?vid=887dbaa2-793c-4184-bdab-e9828056b441","ios":"levelo://app?vid=887dbaa2-793c-4184-bdab-e9828056b441"},"vehicle_type_id":"4","last_reported":1720289380,"current_range_meters":27200,"station_id":"ce4bgn12rcd13ifvqbt0","pricing_plan_id":"cebpf4jnsgd1na2vs0mg"},{"bike_id":"82f58178-8f89-479f-a33f-971fd10a7a10","system_id":"levelo_inurba_marseille","lat":43.29854,"lon":5.37667,"is_reserved":false,"is_disabled":false,"rental_uris":{"android":"levelo://app?vid=82f58178-8f89-479f-a33f-971fd10a7a10","ios":"levelo://app?vid=82f58178-8f89-479f-a33f-971fd10a7a10"},"vehicle_type_id":"4","last_reported":1720289380,"current_range_meters":800,"station_id":"","pricing_plan_id":"cebpf4jnsgd1na2vs0mg"},{"bike_id":"edb44196-7ba9-41cf-b884-4179c1c93eae","system_id":"levelo_inurba_marseille","lat":43.30047,"lon":5.38151,"is_reserved":false,"is_disabled":false,"rental_uris":{"android":"levelo://app?vid=edb44196-7ba9-41cf-b884-4179c1c93eae","ios":"levelo://app?vid=edb44196-7ba9-41cf-b884-4179c1c93eae"},"vehicle_type_id":"4","last_reported":1720289380,"current_range_meters":13200,"station_id":"","pricing_plan_id":"cebpf4jnsgd1na2vs0mg"},{"bike_id":"099d53a1-0daa-4126-b6bf-b85b43a639b9","system_id":"levelo_inurba_marseille","lat":43.2968,"lon":5.37291,"is_reserved":false,"is_disabled":false,"rental_uris":{"android":"levelo://app?vid=099d53a1-0daa-4126-b6bf-b85b43a639b9","ios":"levelo://app?vid=099d53a1-0daa-4126-b6bf-b85b43a639b9"},"vehicle_type_id":"4","last_reported":1720289380,"current_range_meters":25600,"station_id":"ce4bgk12rcd13ifvqbj0","pricing_plan_id":"cebpf4jnsgd1na2vs0mg"},{"bike_id":"280525b4-850d-4349-9c72-4f70d3424eeb","system_id":"levelo_inurba_marseille","lat":43.32717,"lon":5.37847,"is_reserved":false,"is_disabled":false,"rental_uris":{"android":"levelo://app?vid=280525b4-850d-4349-9c72-4f70d3424eeb","ios":"levelo://app?vid=280525b4-850d-4349-9c72-4f70d3424eeb"},"vehicle_type_id":"4","last_reported":1720289380,"current_range_meters":4400,"station_id":"","pricing_plan_id":"cebpf4jnsgd1na2vs0mg"},{"bike_id":"b42ba4ea-1156-4d33-b885-d4b2c585400a","system_id":"levelo_inurba_marseille","lat":43.31119,"lon":5.38982,"is_reserved":false,"is_disabled":false,"rental_uris":{"android":"levelo://app?vid=b42ba4ea-1156-4d33-b885-d4b2c585400a","ios":"levelo://app?vid=b42ba4ea-1156-4d33-b885-d4b2c585400a"},"vehicle_type_id":"4","last_reported":1720289380,"current_range_meters":1200,"station_id":"","pricing_plan_id":"cebpf4jnsgd1na2vs0mg"},{"bike_id":"8171c3cf-55b8-4f99-9144-ae27f0a17b6a","system_id":"levelo_inurba_marseille","lat":43.296131,"lon":5.370773,"is_reserved":false,"is_disabled":false,"rental_uris":{"android":"levelo://app?vid=8171c3cf-55b8-4f99-9144-ae27f0a17b6a","ios":"levelo://app?vid=8171c3cf-55b8-4f99-9144-ae27f0a17b6a"},"vehicle_type_id":"4","last_reported":1720289380,"current_range_meters":3600,"station_id":"ce4bgnh2rcd13ifvqc0g","pricing_plan_id":"cebpf4jnsgd1na2vs0mg"},{"bike_id":"5a79f844-b130-451c-9c4c-97c4735b958e","system_id":"levelo_inurba_marseille","lat":43.296131,"lon":5.370791,"is_reserved":false,"is_disabled":false,"rental_uris":{"android":"levelo://app?vid=5a79f844-b130-451c-9c4c-97c4735b958e","ios":"levelo://app?vid=5a79f844-b130-451c-9c4c-97c4735b958e"},"vehicle_type_id":"4","last_reported":1720289380,"current_range_meters":0,"station_id":"ce4bgnh2rcd13ifvqc0g","pricing_plan_id":"cebpf4jnsgd1na2vs0mg"},{"bike_id":"8cbdf2c4-6657-4d0d-b0ff-447e957a6f0f","system_id":"levelo_inurba_marseille","lat":43.296131,"lon":5.370773,"is_reserved":false,"is_disabled":false,"rental_uris":{"android":"levelo://app?vid=8cbdf2c4-6657-4d0d-b0ff-447e957a6f0f","ios":"levelo://app?vid=8cbdf2c4-6657-4d0d-b0ff-447e957a6f0f"},"vehicle_type_id":"4","last_reported":1720289380,"current_range_meters":400,"station_id":"ce4bgnh2rcd13ifvqc0g","pricing_plan_id":"cebpf4jnsgd1na2vs0mg"},{"bike_id":"35cd0000-259f-44ce-88fc-500b4fc74bbe","system_id":"levelo_inurba_marseille","lat":43.296131,"lon":5.370773,"is_reserved":false,"is_disabled":false,"rental_uris":{"android":"levelo://app?vid=35cd0000-259f-44ce-88fc-500b4fc74bbe","ios":"levelo://app?vid=35cd0000-259f-44ce-88fc-500b4fc74bbe"},"vehicle_type_id":"4","last_reported":1720289380,"current_range_meters":28400,"station_id":"ce4bgnh2rcd13ifvqc0g","pricing_plan_id":"cebpf4jnsgd1na2vs0mg"},{"bike_id":"3498b99a-8e19-4851-be8a-199713dbc3ea","system_id":"levelo_inurba_marseille","lat":43.296131,"lon":5.370773,"is_reserved":false,"is_disabled":false,"rental_uris":{"android":"levelo://app?vid=3498b99a-8e19-4851-be8a-199713dbc3ea","ios":"levelo://app?vid=3498b99a-8e19-4851-be8a-199713dbc3ea"},"vehicle_type_id":"4","last_reported":1720289380,"current_range_meters":0,"station_id":"ce4bgnh2rcd13ifvqc0g","pricing_plan_id":"cebpf4jnsgd1na2vs0mg"},{"bike_id":"ff656d97-4a50-42dd-bee9-984d66cc3357","system_id":"levelo_inurba_marseille","lat":43.29573,"lon":5.367355,"is_reserved":false,"is_disabled":false,"rental_uris":{"android":"levelo://app?vid=ff656d97-4a50-42dd-bee9-984d66cc3357","ios":"levelo://app?vid=ff656d97-4a50-42dd-bee9-984d66cc3357"},"vehicle_type_id":"4","last_reported":1720289380,"current_range_meters":28800,"station_id":"ce4bgph2rcd13ifvqc2g","pricing_plan_id":"cebpf4jnsgd1na2vs0mg"},{"bike_id":"2c546dd9-aa3c-4018-811e-89924dc68989","system_id":"levelo_inurba_marseille","lat":43.296921,"lon":5.376579,"is_reserved":false,"is_disabled":false,"rental_uris":{"android":"levelo://app?vid=2c546dd9-aa3c-4018-811e-89924dc68989","ios":"levelo://app?vid=2c546dd9-aa3c-4018-811e-89924dc68989"},"vehicle_type_id":"4","last_reported":1720289380,"current_range_meters":12000,"station_id":"ce4bgkh2rcd13ifvqbl0","pricing_plan_id":"cebpf4jnsgd1na2vs0mg"},{"bike_id":"119c1c9f-112c-4b82-8d6f-1c53d54cc191","system_id":"levelo_inurba_marseille","lat":43.299028,"lon":5.381509,"is_reserved":false,"is_disabled":false,"rental_uris":{"android":"levelo://app?vid=119c1c9f-112c-4b82-8d6f-1c53d54cc191","ios":"levelo://app?vid=119c1c9f-112c-4b82-8d6f-1c53d54cc191"},"vehicle_type_id":"4","last_reported":1720289380,"current_range_meters":800,"station_id":"ce4bgj12rcd13ifvqbc0","pricing_plan_id":"cebpf4jnsgd1na2vs0mg"},{"bike_id":"b2572503-1ccf-4a87-9485-2a9285b03dfa","system_id":"levelo_inurba_marseille","lat":43.309589,"lon":5.390258,"is_reserved":false,"is_disabled":false,"rental_uris":{"android":"levelo://app?vid=b2572503-1ccf-4a87-9485-2a9285b03dfa","ios":"levelo://app?vid=b2572503-1ccf-4a87-9485-2a9285b03dfa"},"vehicle_type_id":"4","last_reported":1720289380,"current_range_meters":800,"station_id":"ce4bgup2rcd13ifvqco0","pricing_plan_id":"cebpf4jnsgd1na2vs0mg"},{"bike_id":"27fb4836-8fad-44ae-902d-fd3d323c1f51","system_id":"levelo_inurba_marseille","lat":43.309589,"lon":5.390258,"is_reserved":false,"is_disabled":false,"rental_uris":{"android":"levelo://app?vid=27fb4836-8fad-44ae-902d-fd3d323c1f51","ios":"levelo://app?vid=27fb4836-8fad-44ae-902d-fd3d323c1f51"},"vehicle_type_id":"4","last_reported":1720289380,"current_range_meters":31200,"station_id":"ce4bgup2rcd13ifvqco0","pricing_plan_id":"cebpf4jnsgd1na2vs0mg"},{"bike_id":"6a969e6b-b3aa-4c9a-a1b2-06f46b403d2c","system_id":"levelo_inurba_marseille","lat":43.309589,"lon":5.390258,"is_reserved":false,"is_disabled":false,"rental_uris":{"android":"levelo://app?vid=6a969e6b-b3aa-4c9a-a1b2-06f46b403d2c","ios":"levelo://app?vid=6a969e6b-b3aa-4c9a-a1b2-06f46b403d2c"},"vehicle_type_id":"4","last_reported":1720289380,"current_range_meters":14400,"station_id":"ce4bgup2rcd13ifvqco0","pricing_plan_id":"cebpf4jnsgd1na2vs0mg"},{"bike_id":"00d22ed6-a9b3-4211-bec6-9b7ece7a2b4a","system_id":"levelo_inurba_marseille","lat":43.296921,"lon":5.376579,"is_reserved":false,"is_disabled":false,"rental_uris":{"android":"levelo://app?vid=00d22ed6-a9b3-4211-bec6-9b7ece7a2b4a","ios":"levelo://app?vid=00d22ed6-a9b3-4211-bec6-9b7ece7a2b4a"},"vehicle_type_id":"4","last_reported":1720289380,"current_range_meters":6800,"station_id":"ce4bgkh2rcd13ifvqbl0","pricing_plan_id":"cebpf4jnsgd1na2vs0mg"},{"bike_id":"57e0e04e-302c-4775-a404-ebf3791c872a","system_id":"levelo_inurba_marseille","lat":43.309589,"lon":5.390258,"is_reserved":false,"is_disabled":false,"rental_uris":{"android":"levelo://app?vid=57e0e04e-302c-4775-a404-ebf3791c872a","ios":"levelo://app?vid=57e0e04e-302c-4775-a404-ebf3791c872a"},"vehicle_type_id":"4","last_reported":1720289380,"current_range_meters":26000,"station_id":"ce4bgup2rcd13ifvqco0","pricing_plan_id":"cebpf4jnsgd1na2vs0mg"},{"bike_id":"77808a21-a1e7-4b88-b621-32cf03e10bee","system_id":"levelo_inurba_marseille","lat":43.30957,"lon":5.39034,"is_reserved":false,"is_disabled":false,"rental_uris":{"android":"levelo://app?vid=77808a21-a1e7-4b88-b621-32cf03e10bee","ios":"levelo://app?vid=77808a21-a1e7-4b88-b621-32cf03e10bee"},"vehicle_type_id":"4","last_reported":1720289380,"current_range_meters":29200,"station_id":"ce4bgup2rcd13ifvqco0","pricing_plan_id":"cebpf4jnsgd1na2vs0mg"},{"bike_id":"74f9c6ea-2bef-4f02-8557-fccaca46b60f","system_id":"levelo_inurba_marseille","lat":43.309589,"lon":5.390258,"is_reserved":false,"is_disabled":false,"rental_uris":{"android":"levelo://app?vid=74f9c6ea-2bef-4f02-8557-fccaca46b60f","ios":"levelo://app?vid=74f9c6ea-2bef-4f02-8557-fccaca46b60f"},"vehicle_type_id":"4","last_reported":1720289380,"current_range_meters":3600,"station_id":"ce4bgup2rcd13ifvqco0","pricing_plan_id":"cebpf4jnsgd1na2vs0mg"},{"bike_id":"fab1c446-5b2a-42c6-9fd2-a7661869b1ab","system_id":"levelo_inurba_marseille","lat":43.309589,"lon":5.390258,"is_reserved":false,"is_disabled":false,"rental_uris":{"android":"levelo://app?vid=fab1c446-5b2a-42c6-9fd2-a7661869b1ab","ios":"levelo://app?vid=fab1c446-5b2a-42c6-9fd2-a7661869b1ab"},"vehicle_type_id":"4","last_reported":1720289380,"current_range_meters":24800,"station_id":"ce4bgup2rcd13ifvqco0","pricing_plan_id":"cebpf4jnsgd1na2vs0mg"},{"bike_id":"36151f71-8c8b-424e-97d3-7daabffcd0f1","system_id":"levelo_inurba_marseille","lat":43.30956,"lon":5.39041,"is_reserved":false,"is_disabled":false,"rental_uris":{"android":"levelo://app?vid=36151f71-8c8b-424e-97d3-7daabffcd0f1","ios":"levelo://app?vid=36151f71-8c8b-424e-97d3-7daabffcd0f1"},"vehicle_type_id":"4","last_reported":1720289380,"current_range_meters":0,"station_id":"ce4bgup2rcd13ifvqco0","pricing_plan_id":"cebpf4jnsgd1na2vs0mg"},{"bike_id":"8e5bd743-8248-40e6-83ea-3e3e4adb5f3a","system_id":"levelo_inurba_marseille","lat":43.309589,"lon":5.390258,"is_reserved":false,"is_disabled":false,"rental_uris":{"android":"levelo://app?vid=8e5bd743-8248-40e6-83ea-3e3e4adb5f3a","ios":"levelo://app?vid=8e5bd743-8248-40e6-83ea-3e3e4adb5f3a"},"vehicle_type_id":"4","last_reported":1720289380,"current_range_meters":18800,"station_id":"ce4bgup2rcd13ifvqco0","pricing_plan_id":"cebpf4jnsgd1na2vs0mg"},{"bike_id":"8ffee801-6899-4653-98cf-eea949cf1f28","system_id":"levelo_inurba_marseille","lat":43.299028,"lon":5.381509,"is_reserved":false,"is_disabled":false,"rental_uris":{"android":"levelo://app?vid=8ffee801-6899-4653-98cf-eea949cf1f28","ios":"levelo://app?vid=8ffee801-6899-4653-98cf-eea949cf1f28"},"vehicle_type_id":"4","last_reported":1720289380,"current_range_meters":11200,"station_id":"ce4bgj12rcd13ifvqbc0","pricing_plan_id":"cebpf4jnsgd1na2vs0mg"},{"bike_id":"1c75fb81-4fe3-4e32-9c45-cbc6365526fd","system_id":"levelo_inurba_marseille","lat":43.317557,"lon":5.390173,"is_reserved":false,"is_disabled":false,"rental_uris":{"android":"levelo://app?vid=1c75fb81-4fe3-4e32-9c45-cbc6365526fd","ios":"levelo://app?vid=1c75fb81-4fe3-4e32-9c45-cbc6365526fd"},"vehicle_type_id":"4","last_reported":1720289380,"current_range_meters":8400,"station_id":"ce4bhqp2rcd13ifvqhng","pricing_plan_id":"cebpf4jnsgd1na2vs0mg"},{"bike_id":"fadb5cbe-4bc7-4194-9808-080c39aea7ac","system_id":"levelo_inurba_marseille","lat":43.317557,"lon":5.390173,"is_reserved":false,"is_disabled":false,"rental_uris":{"android":"levelo://app?vid=fadb5cbe-4bc7-4194-9808-080c39aea7ac","ios":"levelo://app?vid=fadb5cbe-4bc7-4194-9808-080c39aea7ac"},"vehicle_type_id":"4","last_reported":1720289380,"current_range_meters":31200,"station_id":"ce4bhqp2rcd13ifvqhng","pricing_plan_id":"cebpf4jnsgd1na2vs0mg"},{"bike_id":"4bb6bd9d-f07a-4112-9144-851cc2f53a52","system_id":"levelo_inurba_marseille","lat":43.317557,"lon":5.390173,"is_reserved":false,"is_disabled":false,"rental_uris":{"android":"levelo://app?vid=4bb6bd9d-f07a-4112-9144-851cc2f53a52","ios":"levelo://app?vid=4bb6bd9d-f07a-4112-9144-851cc2f53a52"},"vehicle_type_id":"4","last_reported":1720289380,"current_range_meters":2800,"station_id":"ce4bhqp2rcd13ifvqhng","pricing_plan_id":"cebpf4jnsgd1na2vs0mg"},{"bike_id":"e5a2a4de-8b02-4ec6-a3f3-228e2576ec1d","system_id":"levelo_inurba_marseille","lat":43.298037,"lon":5.381066,"is_reserved":false,"is_disabled":false,"rental_uris":{"android":"levelo://app?vid=e5a2a4de-8b02-4ec6-a3f3-228e2576ec1d","ios":"levelo://app?vid=e5a2a4de-8b02-4ec6-a3f3-228e2576ec1d"},"vehicle_type_id":"4","last_reported":1720289380,"current_range_meters":18800,"station_id":"ce4bgip2rcd13ifvqbb0","pricing_plan_id":"cebpf4jnsgd1na2vs0mg"},{"bike_id":"93934471-a766-4f98-a531-081378b8501a","system_id":"levelo_inurba_marseille","lat":43.29799,"lon":5.38086,"is_reserved":false,"is_disabled":false,"rental_uris":{"android":"levelo://app?vid=93934471-a766-4f98-a531-081378b8501a","ios":"levelo://app?vid=93934471-a766-4f98-a531-081378b8501a"},"vehicle_type_id":"4","last_reported":1720289380,"current_range_meters":31200,"station_id":"ce4bgip2rcd13ifvqbb0","pricing_plan_id":"cebpf4jnsgd1na2vs0mg"},{"bike_id":"579f0b2a-762c-4acc-87e9-2037dd794988","system_id":"levelo_inurba_marseille","lat":43.29796,"lon":5.38087,"is_reserved":false,"is_disabled":false,"rental_uris":{"android":"levelo://app?vid=579f0b2a-762c-4acc-87e9-2037dd794988","ios":"levelo://app?vid=579f0b2a-762c-4acc-87e9-2037dd794988"},"vehicle_type_id":"4","last_reported":1720289380,"current_range_meters":24000,"station_id":"ce4bgip2rcd13ifvqbb0","pricing_plan_id":"cebpf4jnsgd1na2vs0mg"},{"bike_id":"a48f28db-8f7c-4565-9d05-a988bc473bfb","system_id":"levelo_inurba_marseille","lat":43.297938,"lon":5.380928,"is_reserved":false,"is_disabled":false,"rental_uris":{"android":"levelo://app?vid=a48f28db-8f7c-4565-9d05-a988bc473bfb","ios":"levelo://app?vid=a48f28db-8f7c-4565-9d05-a988bc473bfb"},"vehicle_type_id":"4","last_reported":1720289380,"current_range_meters":26800,"station_id":"ce4bgip2rcd13ifvqbb0","pricing_plan_id":"cebpf4jnsgd1na2vs0mg"},{"bike_id":"81bfa829-dacc-42c7-a43c-88147850b803","system_id":"levelo_inurba_marseille","lat":43.29788,"lon":5.38093,"is_reserved":false,"is_disabled":false,"rental_uris":{"android":"levelo://app?vid=81bfa829-dacc-42c7-a43c-88147850b803","ios":"levelo://app?vid=81bfa829-dacc-42c7-a43c-88147850b803"},"vehicle_type_id":"4","last_reported":1720289380,"current_range_meters":31200,"station_id":"ce4bgip2rcd13ifvqbb0","pricing_plan_id":"cebpf4jnsgd1na2vs0mg"},{"bike_id":"3f925f79-378d-4373-a0af-f834daea4beb","system_id":"levelo_inurba_marseille","lat":43.30427,"lon":5.38884,"is_reserved":false,"is_disabled":false,"rental_uris":{"android":"levelo://app?vid=3f925f79-378d-4373-a0af-f834daea4beb","ios":"levelo://app?vid=3f925f79-378d-4373-a0af-f834daea4beb"},"vehicle_type_id":"4","last_reported":1720289380,"current_range_meters":4800,"station_id":"ce4bgk12rcd13ifvqbi0","pricing_plan_id":"cebpf4jnsgd1na2vs0mg"},{"bike_id":"002e1120-2615-41d4-a44c-c17646b77804","system_id":"levelo_inurba_marseille","lat":43.296263,"lon":5.377094,"is_reserved":false,"is_disabled":false,"rental_uris":{"android":"levelo://app?vid=002e1120-2615-41d4-a44c-c17646b77804","ios":"levelo://app?vid=002e1120-2615-41d4-a44c-c17646b77804"},"vehicle_type_id":"4","last_reported":1720289380,"current_range_meters":0,"station_id":"ce4bgi92rcd13ifvqb90","pricing_plan_id":"cebpf4jnsgd1na2vs0mg"},{"bike_id":"95f1d128-60b0-44f8-870c-94cffdf1c23f","system_id":"levelo_inurba_marseille","lat":43.304274,"lon":5.388873,"is_reserved":false,"is_disabled":false,"rental_uris":{"android":"levelo://app?vid=95f1d128-60b0-44f8-870c-94cffdf1c23f","ios":"levelo://app?vid=95f1d128-60b0-44f8-870c-94cffdf1c23f"},"vehicle_type_id":"4","last_reported":1720289380,"current_range_meters":26800,"station_id":"ce4bgk12rcd13ifvqbi0","pricing_plan_id":"cebpf4jnsgd1na2vs0mg"},{"bike_id":"b026efbe-9c1e-4e10-89d7-85a6a6381656","system_id":"levelo_inurba_marseille","lat":43.29788,"lon":5.38114,"is_reserved":false,"is_disabled":false,"rental_uris":{"android":"levelo://app?vid=b026efbe-9c1e-4e10-89d7-85a6a6381656","ios":"levelo://app?vid=b026efbe-9c1e-4e10-89d7-85a6a6381656"},"vehicle_type_id":"4","last_reported":1720289380,"current_range_meters":20400,"station_id":"ce4bgip2rcd13ifvqbb0","pricing_plan_id":"cebpf4jnsgd1na2vs0mg"},{"bike_id":"3ee018fb-8014-495a-9148-a70cc055f587","system_id":"levelo_inurba_marseille","lat":43.296263,"lon":5.377094,"is_reserved":false,"is_disabled":false,"rental_uris":{"android":"levelo://app?vid=3ee018fb-8014-495a-9148-a70cc055f587","ios":"levelo://app?vid=3ee018fb-8014-495a-9148-a70cc055f587"},"vehicle_type_id":"4","last_reported":1720289380,"current_range_meters":23600,"station_id":"ce4bgi92rcd13ifvqb90","pricing_plan_id":"cebpf4jnsgd1na2vs0mg"},{"bike_id":"565fc2b7-6dfe-4a67-8a08-0d9b1170e99e","system_id":"levelo_inurba_marseille","lat":43.29612,"lon":5.37714,"is_reserved":false,"is_disabled":false,"rental_uris":{"android":"levelo://app?vid=565fc2b7-6dfe-4a67-8a08-0d9b1170e99e","ios":"levelo://app?vid=565fc2b7-6dfe-4a67-8a08-0d9b1170e99e"},"vehicle_type_id":"4","last_reported":1720289380,"current_range_meters":0,"station_id":"ce4bgi92rcd13ifvqb90","pricing_plan_id":"cebpf4jnsgd1na2vs0mg"},{"bike_id":"a49b5e36-797f-43ed-9fdb-26eb0f078e43","system_id":"levelo_inurba_marseille","lat":43.295279,"lon":5.375048,"is_reserved":false,"is_disabled":false,"rental_uris":{"android":"levelo://app?vid=a49b5e36-797f-43ed-9fdb-26eb0f078e43","ios":"levelo://app?vid=a49b5e36-797f-43ed-9fdb-26eb0f078e43"},"vehicle_type_id":"4","last_reported":1720289380,"current_range_meters":26800,"station_id":"ce4bgkp2rcd13ifvqbmg","pricing_plan_id":"cebpf4jnsgd1na2vs0mg"},{"bike_id":"7e038659-09fe-459a-9d14-2cc9b9425b3a","system_id":"levelo_inurba_marseille","lat":43.299707,"lon":5.384859,"is_reserved":false,"is_disabled":false,"rental_uris":{"android":"levelo://app?vid=7e038659-09fe-459a-9d14-2cc9b9425b3a","ios":"levelo://app?vid=7e038659-09fe-459a-9d14-2cc9b9425b3a"},"vehicle_type_id":"4","last_reported":1720289380,"current_range_meters":8400,"station_id":"ce4bgj92rcd13ifvqbd0","pricing_plan_id":"cebpf4jnsgd1na2vs0mg"},{"bike_id":"2ec78990-90a3-4578-aa02-ddb8778fde8c","system_id":"levelo_inurba_marseille","lat":43.29528,"lon":5.37503,"is_reserved":false,"is_disabled":false,"rental_uris":{"android":"levelo://app?vid=2ec78990-90a3-4578-aa02-ddb8778fde8c","ios":"levelo://app?vid=2ec78990-90a3-4578-aa02-ddb8778fde8c"},"vehicle_type_id":"4","last_reported":1720289380,"current_range_meters":0,"station_id":"ce4bgkp2rcd13ifvqbmg","pricing_plan_id":"cebpf4jnsgd1na2vs0mg"},{"bike_id":"9577c5f7-a4bc-489b-97c3-130cfd7a36ce","system_id":"levelo_inurba_marseille","lat":43.299724,"lon":5.384848,"is_reserved":false,"is_disabled":false,"rental_uris":{"android":"levelo://app?vid=9577c5f7-a4bc-489b-97c3-130cfd7a36ce","ios":"levelo://app?vid=9577c5f7-a4bc-489b-97c3-130cfd7a36ce"},"vehicle_type_id":"4","last_reported":1720289380,"current_range_meters":400,"station_id":"ce4bgj92rcd13ifvqbd0","pricing_plan_id":"cebpf4jnsgd1na2vs0mg"},{"bike_id":"f39b4d4a-451c-4a19-87a9-7e34db5ccbaf","system_id":"levelo_inurba_marseille","lat":43.29665,"lon":5.37981,"is_reserved":false,"is_disabled":false,"rental_uris":{"android":"levelo://app?vid=f39b4d4a-451c-4a19-87a9-7e34db5ccbaf","ios":"levelo://app?vid=f39b4d4a-451c-4a19-87a9-7e34db5ccbaf"},"vehicle_type_id":"4","last_reported":1720289380,"current_range_meters":11600,"station_id":"","pricing_plan_id":"cebpf4jnsgd1na2vs0mg"},{"bike_id":"db69fb0c-c138-425b-b779-2869460b8e6a","system_id":"levelo_inurba_marseille","lat":43.296437,"lon":5.380266,"is_reserved":false,"is_disabled":false,"rental_uris":{"android":"levelo://app?vid=db69fb0c-c138-425b-b779-2869460b8e6a","ios":"levelo://app?vid=db69fb0c-c138-425b-b779-2869460b8e6a"},"vehicle_type_id":"4","last_reported":1720289380,"current_range_meters":16800,"station_id":"","pricing_plan_id":"cebpf4jnsgd1na2vs0mg"},{"bike_id":"203ea41b-a898-45c1-9a21-5ae455ea64df","system_id":"levelo_inurba_marseille","lat":43.301396,"lon":5.387812,"is_reserved":false,"is_disabled":false,"rental_uris":{"android":"levelo://app?vid=203ea41b-a898-45c1-9a21-5ae455ea64df","ios":"levelo://app?vid=203ea41b-a898-45c1-9a21-5ae455ea64df"},"vehicle_type_id":"4","last_reported":1720289380,"current_range_meters":0,"station_id":"ce4bghh2rcd13ifvqb60","pricing_plan_id":"cebpf4jnsgd1na2vs0mg"},{"bike_id":"2c09b8ee-b72c-421d-a712-d09c2e19e17a","system_id":"levelo_inurba_marseille","lat":43.301396,"lon":5.387812,"is_reserved":false,"is_disabled":false,"rental_uris":{"android":"levelo://app?vid=2c09b8ee-b72c-421d-a712-d09c2e19e17a","ios":"levelo://app?vid=2c09b8ee-b72c-421d-a712-d09c2e19e17a"},"vehicle_type_id":"4","last_reported":1720289380,"current_range_meters":21600,"station_id":"ce4bghh2rcd13ifvqb60","pricing_plan_id":"cebpf4jnsgd1na2vs0mg"},{"bike_id":"238a7d0c-d680-4ba3-825c-3a6cb3ec2c9d","system_id":"levelo_inurba_marseille","lat":43.323693,"lon":5.388693,"is_reserved":false,"is_disabled":false,"rental_uris":{"android":"levelo://app?vid=238a7d0c-d680-4ba3-825c-3a6cb3ec2c9d","ios":"levelo://app?vid=238a7d0c-d680-4ba3-825c-3a6cb3ec2c9d"},"vehicle_type_id":"4","last_reported":1720289380,"current_range_meters":3200,"station_id":"ce4bhqp2rcd13ifvqhog","pricing_plan_id":"cebpf4jnsgd1na2vs0mg"},{"bike_id":"e0a7ec7c-d00c-4580-983b-eac419aa5fb5","system_id":"levelo_inurba_marseille","lat":43.32367,"lon":5.388836,"is_reserved":false,"is_disabled":false,"rental_uris":{"android":"levelo://app?vid=e0a7ec7c-d00c-4580-983b-eac419aa5fb5","ios":"levelo://app?vid=e0a7ec7c-d00c-4580-983b-eac419aa5fb5"},"vehicle_type_id":"4","last_reported":1720289380,"current_range_meters":4000,"station_id":"ce4bhqp2rcd13ifvqhog","pricing_plan_id":"cebpf4jnsgd1na2vs0mg"},{"bike_id":"1ed675be-21d3-4fa6-8c50-c2b5de4018ee","system_id":"levelo_inurba_marseille","lat":43.32367,"lon":5.388836,"is_reserved":false,"is_disabled":false,"rental_uris":{"android":"levelo://app?vid=1ed675be-21d3-4fa6-8c50-c2b5de4018ee","ios":"levelo://app?vid=1ed675be-21d3-4fa6-8c50-c2b5de4018ee"},"vehicle_type_id":"4","last_reported":1720289380,"current_range_meters":400,"station_id":"ce4bhqp2rcd13ifvqhog","pricing_plan_id":"cebpf4jnsgd1na2vs0mg"},{"bike_id":"c85c4811-c21b-4323-a635-b5a4dc3b3dd9","system_id":"levelo_inurba_marseille","lat":43.323677,"lon":5.38878,"is_reserved":false,"is_disabled":false,"rental_uris":{"android":"levelo://app?vid=c85c4811-c21b-4323-a635-b5a4dc3b3dd9","ios":"levelo://app?vid=c85c4811-c21b-4323-a635-b5a4dc3b3dd9"},"vehicle_type_id":"4","last_reported":1720289380,"current_range_meters":1600,"station_id":"ce4bhqp2rcd13ifvqhog","pricing_plan_id":"cebpf4jnsgd1na2vs0mg"},{"bike_id":"4952f9d9-1b4e-4677-8751-a09634505bd6","system_id":"levelo_inurba_marseille","lat":43.32367,"lon":5.388836,"is_reserved":false,"is_disabled":false,"rental_uris":{"android":"levelo://app?vid=4952f9d9-1b4e-4677-8751-a09634505bd6","ios":"levelo://app?vid=4952f9d9-1b4e-4677-8751-a09634505bd6"},"vehicle_type_id":"4","last_reported":1720289380,"current_range_meters":400,"station_id":"ce4bhqp2rcd13ifvqhog","pricing_plan_id":"cebpf4jnsgd1na2vs0mg"},{"bike_id":"b90fe265-f9fd-473b-9ab0-a0c5fdf53401","system_id":"levelo_inurba_marseille","lat":43.32367,"lon":5.38884,"is_reserved":false,"is_disabled":false,"rental_uris":{"android":"levelo://app?vid=b90fe265-f9fd-473b-9ab0-a0c5fdf53401","ios":"levelo://app?vid=b90fe265-f9fd-473b-9ab0-a0c5fdf53401"},"vehicle_type_id":"4","last_reported":1720289380,"current_range_meters":0,"station_id":"ce4bhqp2rcd13ifvqhog","pricing_plan_id":"cebpf4jnsgd1na2vs0mg"},{"bike_id":"9b32b447-1c54-441d-ac7e-8800c82be29c","system_id":"levelo_inurba_marseille","lat":43.322872,"lon":5.382756,"is_reserved":false,"is_disabled":false,"rental_uris":{"android":"levelo://app?vid=9b32b447-1c54-441d-ac7e-8800c82be29c","ios":"levelo://app?vid=9b32b447-1c54-441d-ac7e-8800c82be29c"},"vehicle_type_id":"4","last_reported":1720289380,"current_range_meters":5600,"station_id":"ce4bhr12rcd13ifvqhqg","pricing_plan_id":"cebpf4jnsgd1na2vs0mg"},{"bike_id":"76ec3ef9-9ac4-44bc-ba0f-46837292ea18","system_id":"levelo_inurba_marseille","lat":43.29602,"lon":5.381084,"is_reserved":false,"is_disabled":false,"rental_uris":{"android":"levelo://app?vid=76ec3ef9-9ac4-44bc-ba0f-46837292ea18","ios":"levelo://app?vid=76ec3ef9-9ac4-44bc-ba0f-46837292ea18"},"vehicle_type_id":"4","last_reported":1720289380,"current_range_meters":23200,"station_id":"ce4bgl12rcd13ifvqbo0","pricing_plan_id":"cebpf4jnsgd1na2vs0mg"},{"bike_id":"4439bcf0-a6cd-4041-a8c7-cc178d692c6b","system_id":"levelo_inurba_marseille","lat":43.29601,"lon":5.381084,"is_reserved":false,"is_disabled":false,"rental_uris":{"android":"levelo://app?vid=4439bcf0-a6cd-4041-a8c7-cc178d692c6b","ios":"levelo://app?vid=4439bcf0-a6cd-4041-a8c7-cc178d692c6b"},"vehicle_type_id":"4","last_reported":1720289380,"current_range_meters":0,"station_id":"ce4bgl12rcd13ifvqbo0","pricing_plan_id":"cebpf4jnsgd1na2vs0mg"},{"bike_id":"59873e7b-3dcb-4b64-adcd-556b89ad6ab1","system_id":"levelo_inurba_marseille","lat":43.29282,"lon":5.368332,"is_reserved":false,"is_disabled":false,"rental_uris":{"android":"levelo://app?vid=59873e7b-3dcb-4b64-adcd-556b89ad6ab1","ios":"levelo://app?vid=59873e7b-3dcb-4b64-adcd-556b89ad6ab1"},"vehicle_type_id":"4","last_reported":1720289380,"current_range_meters":31200,"station_id":"ce4bhbp2rcd13ifvqesg","pricing_plan_id":"cebpf4jnsgd1na2vs0mg"},{"bike_id":"652d3d19-754c-4e9d-a0ae-12fb84363021","system_id":"levelo_inurba_marseille","lat":43.29275,"lon":5.3684,"is_reserved":false,"is_disabled":false,"rental_uris":{"android":"levelo://app?vid=652d3d19-754c-4e9d-a0ae-12fb84363021","ios":"levelo://app?vid=652d3d19-754c-4e9d-a0ae-12fb84363021"},"vehicle_type_id":"4","last_reported":1720289380,"current_range_meters":2000,"station_id":"ce4bhbp2rcd13ifvqesg","pricing_plan_id":"cebpf4jnsgd1na2vs0mg"},{"bike_id":"87482154-b4ef-4eb5-819f-54b0e3a39489","system_id":"levelo_inurba_marseille","lat":43.29427,"lon":5.37907,"is_reserved":false,"is_disabled":false,"rental_uris":{"android":"levelo://app?vid=87482154-b4ef-4eb5-819f-54b0e3a39489","ios":"levelo://app?vid=87482154-b4ef-4eb5-819f-54b0e3a39489"},"vehicle_type_id":"4","last_reported":1720289380,"current_range_meters":6400,"station_id":"","pricing_plan_id":"cebpf4jnsgd1na2vs0mg"},{"bike_id":"b21039e0-4cf1-4f71-96b6-2574956a6abc","system_id":"levelo_inurba_marseille","lat":43.30642,"lon":5.401031,"is_reserved":false,"is_disabled":false,"rental_uris":{"android":"levelo://app?vid=b21039e0-4cf1-4f71-96b6-2574956a6abc","ios":"levelo://app?vid=b21039e0-4cf1-4f71-96b6-2574956a6abc"},"vehicle_type_id":"4","last_reported":1720289380,"current_range_meters":12400,"station_id":"ce4bh112rcd13ifvqda0","pricing_plan_id":"cebpf4jnsgd1na2vs0mg"},{"bike_id":"cbd94a0b-da62-4ac6-8fbd-738f3c34d15a","system_id":"levelo_inurba_marseille","lat":43.303,"lon":5.392,"is_reserved":false,"is_disabled":false,"rental_uris":{"android":"levelo://app?vid=cbd94a0b-da62-4ac6-8fbd-738f3c34d15a","ios":"levelo://app?vid=cbd94a0b-da62-4ac6-8fbd-738f3c34d15a"},"vehicle_type_id":"4","last_reported":1720289380,"current_range_meters":15600,"station_id":"ce4bgkh2rcd13ifvqbk0","pricing_plan_id":"cebpf4jnsgd1na2vs0mg"},{"bike_id":"e8c9f0e5-dff2-4e67-bf4c-1b89fd7289ff","system_id":"levelo_inurba_marseille","lat":43.292311,"lon":5.360731,"is_reserved":false,"is_disabled":false,"rental_uris":{"android":"levelo://app?vid=e8c9f0e5-dff2-4e67-bf4c-1b89fd7289ff","ios":"levelo://app?vid=e8c9f0e5-dff2-4e67-bf4c-1b89fd7289ff"},"vehicle_type_id":"4","last_reported":1720289380,"current_range_meters":12800,"station_id":"ce4bhbh2rcd13ifvqeqg","pricing_plan_id":"cebpf4jnsgd1na2vs0mg"},{"bike_id":"a37091bc-5aa2-4c80-b54a-e94dba9595b8","system_id":"levelo_inurba_marseille","lat":43.292413,"lon":5.360168,"is_reserved":false,"is_disabled":false,"rental_uris":{"android":"levelo://app?vid=a37091bc-5aa2-4c80-b54a-e94dba9595b8","ios":"levelo://app?vid=a37091bc-5aa2-4c80-b54a-e94dba9595b8"},"vehicle_type_id":"4","last_reported":1720289380,"current_range_meters":31200,"station_id":"ce4bhbh2rcd13ifvqeqg","pricing_plan_id":"cebpf4jnsgd1na2vs0mg"},{"bike_id":"48d002c7-7a64-4fd7-b8c9-814616456e2f","system_id":"levelo_inurba_marseille","lat":43.292311,"lon":5.360731,"is_reserved":false,"is_disabled":false,"rental_uris":{"android":"levelo://app?vid=48d002c7-7a64-4fd7-b8c9-814616456e2f","ios":"levelo://app?vid=48d002c7-7a64-4fd7-b8c9-814616456e2f"},"vehicle_type_id":"4","last_reported":1720289380,"current_range_meters":3600,"station_id":"ce4bhbh2rcd13ifvqeqg","pricing_plan_id":"cebpf4jnsgd1na2vs0mg"},{"bike_id":"2b3b79c2-466d-4df7-8806-3bbfaa0f8b3f","system_id":"levelo_inurba_marseille","lat":43.2936,"lon":5.37835,"is_reserved":false,"is_disabled":false,"rental_uris":{"android":"levelo://app?vid=2b3b79c2-466d-4df7-8806-3bbfaa0f8b3f","ios":"levelo://app?vid=2b3b79c2-466d-4df7-8806-3bbfaa0f8b3f"},"vehicle_type_id":"4","last_reported":1720289380,"current_range_meters":0,"station_id":"ce4bgjh2rcd13ifvqbf0","pricing_plan_id":"cebpf4jnsgd1na2vs0mg"},{"bike_id":"03424f97-f15c-48ec-b169-48dc89661363","system_id":"levelo_inurba_marseille","lat":43.29226,"lon":5.36048,"is_reserved":false,"is_disabled":false,"rental_uris":{"android":"levelo://app?vid=03424f97-f15c-48ec-b169-48dc89661363","ios":"levelo://app?vid=03424f97-f15c-48ec-b169-48dc89661363"},"vehicle_type_id":"4","last_reported":1720289380,"current_range_meters":29200,"station_id":"ce4bhbh2rcd13ifvqeqg","pricing_plan_id":"cebpf4jnsgd1na2vs0mg"},{"bike_id":"8965ac67-06aa-4151-831b-a9b05c567188","system_id":"levelo_inurba_marseille","lat":43.29227,"lon":5.360008,"is_reserved":false,"is_disabled":false,"rental_uris":{"android":"levelo://app?vid=8965ac67-06aa-4151-831b-a9b05c567188","ios":"levelo://app?vid=8965ac67-06aa-4151-831b-a9b05c567188"},"vehicle_type_id":"4","last_reported":1720289380,"current_range_meters":31200,"station_id":"","pricing_plan_id":"cebpf4jnsgd1na2vs0mg"},{"bike_id":"4e8e3010-466a-48b2-b38e-6ea1d02cf5a3","system_id":"levelo_inurba_marseille","lat":43.298764,"lon":5.388973,"is_reserved":false,"is_disabled":false,"rental_uris":{"android":"levelo://app?vid=4e8e3010-466a-48b2-b38e-6ea1d02cf5a3","ios":"levelo://app?vid=4e8e3010-466a-48b2-b38e-6ea1d02cf5a3"},"vehicle_type_id":"4","last_reported":1720289380,"current_range_meters":10400,"station_id":"ce4bh392rcd13ifvqdl0","pricing_plan_id":"cebpf4jnsgd1na2vs0mg"},{"bike_id":"76a6fd81-340a-4f18-b613-b5304005ea6a","system_id":"levelo_inurba_marseille","lat":43.298764,"lon":5.388973,"is_reserved":false,"is_disabled":false,"rental_uris":{"android":"levelo://app?vid=76a6fd81-340a-4f18-b613-b5304005ea6a","ios":"levelo://app?vid=76a6fd81-340a-4f18-b613-b5304005ea6a"},"vehicle_type_id":"4","last_reported":1720289380,"current_range_meters":16800,"station_id":"ce4bh392rcd13ifvqdl0","pricing_plan_id":"cebpf4jnsgd1na2vs0mg"},{"bike_id":"443a3b6d-a683-458f-bf40-988774e8c4a3","system_id":"levelo_inurba_marseille","lat":43.309047,"lon":5.396551,"is_reserved":false,"is_disabled":false,"rental_uris":{"android":"levelo://app?vid=443a3b6d-a683-458f-bf40-988774e8c4a3","ios":"levelo://app?vid=443a3b6d-a683-458f-bf40-988774e8c4a3"},"vehicle_type_id":"4","last_reported":1720289380,"current_range_meters":13200,"station_id":"ce4bh012rcd13ifvqcv0","pricing_plan_id":"cebpf4jnsgd1na2vs0mg"},{"bike_id":"428da2d4-a31d-4582-9adc-d3d8552c86e1","system_id":"levelo_inurba_marseille","lat":43.309038,"lon":5.396546,"is_reserved":false,"is_disabled":false,"rental_uris":{"android":"levelo://app?vid=428da2d4-a31d-4582-9adc-d3d8552c86e1","ios":"levelo://app?vid=428da2d4-a31d-4582-9adc-d3d8552c86e1"},"vehicle_type_id":"4","last_reported":1720289380,"current_range_meters":19200,"station_id":"ce4bh012rcd13ifvqcv0","pricing_plan_id":"cebpf4jnsgd1na2vs0mg"},{"bike_id":"51ff4224-fe88-49f5-9c8f-a7e821edb0a1","system_id":"levelo_inurba_marseille","lat":43.291994,"lon":5.357886,"is_reserved":false,"is_disabled":false,"rental_uris":{"android":"levelo://app?vid=51ff4224-fe88-49f5-9c8f-a7e821edb0a1","ios":"levelo://app?vid=51ff4224-fe88-49f5-9c8f-a7e821edb0a1"},"vehicle_type_id":"4","last_reported":1720289380,"current_range_meters":800,"station_id":"ce4bhb12rcd13ifvqel0","pricing_plan_id":"cebpf4jnsgd1na2vs0mg"},{"bike_id":"d7059ef0-670c-4b7f-9248-68932942b95e","system_id":"levelo_inurba_marseille","lat":43.292005,"lon":5.357875,"is_reserved":false,"is_disabled":false,"rental_uris":{"android":"levelo://app?vid=d7059ef0-670c-4b7f-9248-68932942b95e","ios":"levelo://app?vid=d7059ef0-670c-4b7f-9248-68932942b95e"},"vehicle_type_id":"4","last_reported":1720289380,"current_range_meters":8800,"station_id":"ce4bhb12rcd13ifvqel0","pricing_plan_id":"cebpf4jnsgd1na2vs0mg"},{"bike_id":"41722e43-1280-4c99-b67b-77d09cdcf635","system_id":"levelo_inurba_marseille","lat":43.309047,"lon":5.396551,"is_reserved":false,"is_disabled":false,"rental_uris":{"android":"levelo://app?vid=41722e43-1280-4c99-b67b-77d09cdcf635","ios":"levelo://app?vid=41722e43-1280-4c99-b67b-77d09cdcf635"},"vehicle_type_id":"4","last_reported":1720289380,"current_range_meters":10800,"station_id":"ce4bh012rcd13ifvqcv0","pricing_plan_id":"cebpf4jnsgd1na2vs0mg"},{"bike_id":"d3229659-13a3-46d7-8c2f-7f8adeb3d8c2","system_id":"levelo_inurba_marseille","lat":43.291994,"lon":5.357886,"is_reserved":false,"is_disabled":false,"rental_uris":{"android":"levelo://app?vid=d3229659-13a3-46d7-8c2f-7f8adeb3d8c2","ios":"levelo://app?vid=d3229659-13a3-46d7-8c2f-7f8adeb3d8c2"},"vehicle_type_id":"4","last_reported":1720289380,"current_range_meters":8800,"station_id":"ce4bhb12rcd13ifvqel0","pricing_plan_id":"cebpf4jnsgd1na2vs0mg"},{"bike_id":"190f8051-8e45-4f2b-8d08-72af442b1a84","system_id":"levelo_inurba_marseille","lat":43.30888,"lon":5.39635,"is_reserved":false,"is_disabled":false,"rental_uris":{"android":"levelo://app?vid=190f8051-8e45-4f2b-8d08-72af442b1a84","ios":"levelo://app?vid=190f8051-8e45-4f2b-8d08-72af442b1a84"},"vehicle_type_id":"4","last_reported":1720289380,"current_range_meters":18800,"station_id":"ce4bh012rcd13ifvqcv0","pricing_plan_id":"cebpf4jnsgd1na2vs0mg"},{"bike_id":"f73979d0-8066-46ac-88f7-c5a0515bdd7d","system_id":"levelo_inurba_marseille","lat":43.291994,"lon":5.357886,"is_reserved":false,"is_disabled":false,"rental_uris":{"android":"levelo://app?vid=f73979d0-8066-46ac-88f7-c5a0515bdd7d","ios":"levelo://app?vid=f73979d0-8066-46ac-88f7-c5a0515bdd7d"},"vehicle_type_id":"4","last_reported":1720289380,"current_range_meters":0,"station_id":"ce4bhb12rcd13ifvqel0","pricing_plan_id":"cebpf4jnsgd1na2vs0mg"},{"bike_id":"6cba0a3b-d8bf-454f-82ee-2a7cc4a6c04e","system_id":"levelo_inurba_marseille","lat":43.292005,"lon":5.357875,"is_reserved":false,"is_disabled":false,"rental_uris":{"android":"levelo://app?vid=6cba0a3b-d8bf-454f-82ee-2a7cc4a6c04e","ios":"levelo://app?vid=6cba0a3b-d8bf-454f-82ee-2a7cc4a6c04e"},"vehicle_type_id":"4","last_reported":1720289380,"current_range_meters":400,"station_id":"ce4bhb12rcd13ifvqel0","pricing_plan_id":"cebpf4jnsgd1na2vs0mg"},{"bike_id":"cce547a9-f55b-4dbc-932b-0df40a381c07","system_id":"levelo_inurba_marseille","lat":43.309038,"lon":5.396546,"is_reserved":false,"is_disabled":false,"rental_uris":{"android":"levelo://app?vid=cce547a9-f55b-4dbc-932b-0df40a381c07","ios":"levelo://app?vid=cce547a9-f55b-4dbc-932b-0df40a381c07"},"vehicle_type_id":"4","last_reported":1720289380,"current_range_meters":4800,"station_id":"ce4bh012rcd13ifvqcv0","pricing_plan_id":"cebpf4jnsgd1na2vs0mg"},{"bike_id":"4f2290eb-c888-43c6-b491-c21ca6d7da67","system_id":"levelo_inurba_marseille","lat":43.31334,"lon":5.39687,"is_reserved":false,"is_disabled":false,"rental_uris":{"android":"levelo://app?vid=4f2290eb-c888-43c6-b491-c21ca6d7da67","ios":"levelo://app?vid=4f2290eb-c888-43c6-b491-c21ca6d7da67"},"vehicle_type_id":"4","last_reported":1720289380,"current_range_meters":24400,"station_id":"ce4bgvp2rcd13ifvqcu0","pricing_plan_id":"cebpf4jnsgd1na2vs0mg"},{"bike_id":"2673111b-92f0-4620-a77f-37870d0e81b6","system_id":"levelo_inurba_marseille","lat":43.313291,"lon":5.396838,"is_reserved":false,"is_disabled":false,"rental_uris":{"android":"levelo://app?vid=2673111b-92f0-4620-a77f-37870d0e81b6","ios":"levelo://app?vid=2673111b-92f0-4620-a77f-37870d0e81b6"},"vehicle_type_id":"4","last_reported":1720289380,"current_range_meters":20000,"station_id":"ce4bgvp2rcd13ifvqcu0","pricing_plan_id":"cebpf4jnsgd1na2vs0mg"},{"bike_id":"e83ddcd5-fdc5-405b-8cbd-2a0d62dcc555","system_id":"levelo_inurba_marseille","lat":43.313291,"lon":5.396838,"is_reserved":false,"is_disabled":false,"rental_uris":{"android":"levelo://app?vid=e83ddcd5-fdc5-405b-8cbd-2a0d62dcc555","ios":"levelo://app?vid=e83ddcd5-fdc5-405b-8cbd-2a0d62dcc555"},"vehicle_type_id":"4","last_reported":1720289380,"current_range_meters":30800,"station_id":"ce4bgvp2rcd13ifvqcu0","pricing_plan_id":"cebpf4jnsgd1na2vs0mg"},{"bike_id":"c0830e50-7518-4d7d-9139-ef5a5fd917d8","system_id":"levelo_inurba_marseille","lat":43.309047,"lon":5.396551,"is_reserved":false,"is_disabled":false,"rental_uris":{"android":"levelo://app?vid=c0830e50-7518-4d7d-9139-ef5a5fd917d8","ios":"levelo://app?vid=c0830e50-7518-4d7d-9139-ef5a5fd917d8"},"vehicle_type_id":"4","last_reported":1720289380,"current_range_meters":9600,"station_id":"ce4bh012rcd13ifvqcv0","pricing_plan_id":"cebpf4jnsgd1na2vs0mg"},{"bike_id":"2ef49265-52ed-492f-984b-9ef88a42c343","system_id":"levelo_inurba_marseille","lat":43.309038,"lon":5.396546,"is_reserved":false,"is_disabled":false,"rental_uris":{"android":"levelo://app?vid=2ef49265-52ed-492f-984b-9ef88a42c343","ios":"levelo://app?vid=2ef49265-52ed-492f-984b-9ef88a42c343"},"vehicle_type_id":"4","last_reported":1720289380,"current_range_meters":19600,"station_id":"ce4bh012rcd13ifvqcv0","pricing_plan_id":"cebpf4jnsgd1na2vs0mg"},{"bike_id":"322c3fa5-8b2c-443d-a8b6-4b76d4642525","system_id":"levelo_inurba_marseille","lat":43.313291,"lon":5.396838,"is_reserved":false,"is_disabled":false,"rental_uris":{"android":"levelo://app?vid=322c3fa5-8b2c-443d-a8b6-4b76d4642525","ios":"levelo://app?vid=322c3fa5-8b2c-443d-a8b6-4b76d4642525"},"vehicle_type_id":"4","last_reported":1720289380,"current_range_meters":29600,"station_id":"ce4bgvp2rcd13ifvqcu0","pricing_plan_id":"cebpf4jnsgd1na2vs0mg"},{"bike_id":"b81fa1d3-655b-4e8e-8021-8bb788f65b2f","system_id":"levelo_inurba_marseille","lat":43.31334,"lon":5.39693,"is_reserved":false,"is_disabled":false,"rental_uris":{"android":"levelo://app?vid=b81fa1d3-655b-4e8e-8021-8bb788f65b2f","ios":"levelo://app?vid=b81fa1d3-655b-4e8e-8021-8bb788f65b2f"},"vehicle_type_id":"4","last_reported":1720289380,"current_range_meters":18000,"station_id":"ce4bgvp2rcd13ifvqcu0","pricing_plan_id":"cebpf4jnsgd1na2vs0mg"},{"bike_id":"9ecbd498-5a5c-4f76-bd41-ac447bbb0f8b","system_id":"levelo_inurba_marseille","lat":43.313291,"lon":5.396838,"is_reserved":false,"is_disabled":false,"rental_uris":{"android":"levelo://app?vid=9ecbd498-5a5c-4f76-bd41-ac447bbb0f8b","ios":"levelo://app?vid=9ecbd498-5a5c-4f76-bd41-ac447bbb0f8b"},"vehicle_type_id":"4","last_reported":1720289380,"current_range_meters":18400,"station_id":"ce4bgvp2rcd13ifvqcu0","pricing_plan_id":"cebpf4jnsgd1na2vs0mg"},{"bike_id":"3498a9b4-4929-4da0-9622-aa79857bbdcc","system_id":"levelo_inurba_marseille","lat":43.31329,"lon":5.39694,"is_reserved":false,"is_disabled":false,"rental_uris":{"android":"levelo://app?vid=3498a9b4-4929-4da0-9622-aa79857bbdcc","ios":"levelo://app?vid=3498a9b4-4929-4da0-9622-aa79857bbdcc"},"vehicle_type_id":"4","last_reported":1720289380,"current_range_meters":2800,"station_id":"ce4bgvp2rcd13ifvqcu0","pricing_plan_id":"cebpf4jnsgd1na2vs0mg"},{"bike_id":"758305cc-17ae-4f19-9476-cfb1f225ba4d","system_id":"levelo_inurba_marseille","lat":43.313291,"lon":5.396838,"is_reserved":false,"is_disabled":false,"rental_uris":{"android":"levelo://app?vid=758305cc-17ae-4f19-9476-cfb1f225ba4d","ios":"levelo://app?vid=758305cc-17ae-4f19-9476-cfb1f225ba4d"},"vehicle_type_id":"4","last_reported":1720289380,"current_range_meters":18400,"station_id":"ce4bgvp2rcd13ifvqcu0","pricing_plan_id":"cebpf4jnsgd1na2vs0mg"},{"bike_id":"de0647f1-5a69-44b2-baf1-491e2ec1e446","system_id":"levelo_inurba_marseille","lat":43.31328,"lon":5.39696,"is_reserved":false,"is_disabled":false,"rental_uris":{"android":"levelo://app?vid=de0647f1-5a69-44b2-baf1-491e2ec1e446","ios":"levelo://app?vid=de0647f1-5a69-44b2-baf1-491e2ec1e446"},"vehicle_type_id":"4","last_reported":1720289380,"current_range_meters":16400,"station_id":"ce4bgvp2rcd13ifvqcu0","pricing_plan_id":"cebpf4jnsgd1na2vs0mg"},{"bike_id":"a20b1a26-ddb1-4544-a9e2-37604b9e0853","system_id":"levelo_inurba_marseille","lat":43.309038,"lon":5.396546,"is_reserved":false,"is_disabled":false,"rental_uris":{"android":"levelo://app?vid=a20b1a26-ddb1-4544-a9e2-37604b9e0853","ios":"levelo://app?vid=a20b1a26-ddb1-4544-a9e2-37604b9e0853"},"vehicle_type_id":"4","last_reported":1720289380,"current_range_meters":0,"station_id":"ce4bh012rcd13ifvqcv0","pricing_plan_id":"cebpf4jnsgd1na2vs0mg"},{"bike_id":"bab0874f-f27f-4663-8f43-7051300478ce","system_id":"levelo_inurba_marseille","lat":43.313291,"lon":5.396838,"is_reserved":false,"is_disabled":false,"rental_uris":{"android":"levelo://app?vid=bab0874f-f27f-4663-8f43-7051300478ce","ios":"levelo://app?vid=bab0874f-f27f-4663-8f43-7051300478ce"},"vehicle_type_id":"4","last_reported":1720289380,"current_range_meters":4800,"station_id":"ce4bgvp2rcd13ifvqcu0","pricing_plan_id":"cebpf4jnsgd1na2vs0mg"},{"bike_id":"d2d25c2a-ce5e-4e4c-b75c-20d1c63cf403","system_id":"levelo_inurba_marseille","lat":43.313291,"lon":5.396838,"is_reserved":false,"is_disabled":false,"rental_uris":{"android":"levelo://app?vid=d2d25c2a-ce5e-4e4c-b75c-20d1c63cf403","ios":"levelo://app?vid=d2d25c2a-ce5e-4e4c-b75c-20d1c63cf403"},"vehicle_type_id":"4","last_reported":1720289380,"current_range_meters":25200,"station_id":"ce4bgvp2rcd13ifvqcu0","pricing_plan_id":"cebpf4jnsgd1na2vs0mg"},{"bike_id":"b6d1962a-58da-46e8-83a6-023ae444e587","system_id":"levelo_inurba_marseille","lat":43.309038,"lon":5.396546,"is_reserved":false,"is_disabled":false,"rental_uris":{"android":"levelo://app?vid=b6d1962a-58da-46e8-83a6-023ae444e587","ios":"levelo://app?vid=b6d1962a-58da-46e8-83a6-023ae444e587"},"vehicle_type_id":"4","last_reported":1720289380,"current_range_meters":17600,"station_id":"ce4bh012rcd13ifvqcv0","pricing_plan_id":"cebpf4jnsgd1na2vs0mg"},{"bike_id":"80efa6ef-40f4-49ca-9afe-fd5bda0e4608","system_id":"levelo_inurba_marseille","lat":43.313291,"lon":5.396838,"is_reserved":false,"is_disabled":false,"rental_uris":{"android":"levelo://app?vid=80efa6ef-40f4-49ca-9afe-fd5bda0e4608","ios":"levelo://app?vid=80efa6ef-40f4-49ca-9afe-fd5bda0e4608"},"vehicle_type_id":"4","last_reported":1720289380,"current_range_meters":31200,"station_id":"ce4bgvp2rcd13ifvqcu0","pricing_plan_id":"cebpf4jnsgd1na2vs0mg"},{"bike_id":"6dfe39e2-c4be-4c94-8336-67978c5310c6","system_id":"levelo_inurba_marseille","lat":43.309038,"lon":5.396546,"is_reserved":false,"is_disabled":false,"rental_uris":{"android":"levelo://app?vid=6dfe39e2-c4be-4c94-8336-67978c5310c6","ios":"levelo://app?vid=6dfe39e2-c4be-4c94-8336-67978c5310c6"},"vehicle_type_id":"4","last_reported":1720289380,"current_range_meters":8400,"station_id":"ce4bh012rcd13ifvqcv0","pricing_plan_id":"cebpf4jnsgd1na2vs0mg"},{"bike_id":"f2643025-9716-43b6-8158-0c23c9002d5d","system_id":"levelo_inurba_marseille","lat":43.313291,"lon":5.396838,"is_reserved":false,"is_disabled":false,"rental_uris":{"android":"levelo://app?vid=f2643025-9716-43b6-8158-0c23c9002d5d","ios":"levelo://app?vid=f2643025-9716-43b6-8158-0c23c9002d5d"},"vehicle_type_id":"4","last_reported":1720289380,"current_range_meters":12800,"station_id":"ce4bgvp2rcd13ifvqcu0","pricing_plan_id":"cebpf4jnsgd1na2vs0mg"},{"bike_id":"5ca12f0d-b589-4aff-8d42-09aba372cd0c","system_id":"levelo_inurba_marseille","lat":43.309038,"lon":5.396546,"is_reserved":false,"is_disabled":false,"rental_uris":{"android":"levelo://app?vid=5ca12f0d-b589-4aff-8d42-09aba372cd0c","ios":"levelo://app?vid=5ca12f0d-b589-4aff-8d42-09aba372cd0c"},"vehicle_type_id":"4","last_reported":1720289380,"current_range_meters":29200,"station_id":"ce4bh012rcd13ifvqcv0","pricing_plan_id":"cebpf4jnsgd1na2vs0mg"},{"bike_id":"1a9ac8ff-cd6c-4ae6-9b6e-828765b45d80","system_id":"levelo_inurba_marseille","lat":43.313291,"lon":5.396838,"is_reserved":false,"is_disabled":false,"rental_uris":{"android":"levelo://app?vid=1a9ac8ff-cd6c-4ae6-9b6e-828765b45d80","ios":"levelo://app?vid=1a9ac8ff-cd6c-4ae6-9b6e-828765b45d80"},"vehicle_type_id":"4","last_reported":1720289380,"current_range_meters":22000,"station_id":"ce4bgvp2rcd13ifvqcu0","pricing_plan_id":"cebpf4jnsgd1na2vs0mg"},{"bike_id":"671ee311-e924-4de6-b49f-6ed7d0c6e807","system_id":"levelo_inurba_marseille","lat":43.309038,"lon":5.396546,"is_reserved":false,"is_disabled":false,"rental_uris":{"android":"levelo://app?vid=671ee311-e924-4de6-b49f-6ed7d0c6e807","ios":"levelo://app?vid=671ee311-e924-4de6-b49f-6ed7d0c6e807"},"vehicle_type_id":"4","last_reported":1720289380,"current_range_meters":17200,"station_id":"ce4bh012rcd13ifvqcv0","pricing_plan_id":"cebpf4jnsgd1na2vs0mg"},{"bike_id":"49261288-fb85-4976-bffa-87abd64f1bda","system_id":"levelo_inurba_marseille","lat":43.313282,"lon":5.397105,"is_reserved":false,"is_disabled":false,"rental_uris":{"android":"levelo://app?vid=49261288-fb85-4976-bffa-87abd64f1bda","ios":"levelo://app?vid=49261288-fb85-4976-bffa-87abd64f1bda"},"vehicle_type_id":"4","last_reported":1720289380,"current_range_meters":31200,"station_id":"ce4bgvp2rcd13ifvqcu0","pricing_plan_id":"cebpf4jnsgd1na2vs0mg"},{"bike_id":"fd9ea30e-ed5d-462e-85b2-bd79e78231f4","system_id":"levelo_inurba_marseille","lat":43.29529,"lon":5.385581,"is_reserved":false,"is_disabled":false,"rental_uris":{"android":"levelo://app?vid=fd9ea30e-ed5d-462e-85b2-bd79e78231f4","ios":"levelo://app?vid=fd9ea30e-ed5d-462e-85b2-bd79e78231f4"},"vehicle_type_id":"4","last_reported":1720289380,"current_range_meters":28000,"station_id":"ce4bgih2rcd13ifvqba0","pricing_plan_id":"cebpf4jnsgd1na2vs0mg"},{"bike_id":"b5944110-4899-44e2-99bd-1adf7a704766","system_id":"levelo_inurba_marseille","lat":43.29529,"lon":5.385581,"is_reserved":false,"is_disabled":false,"rental_uris":{"android":"levelo://app?vid=b5944110-4899-44e2-99bd-1adf7a704766","ios":"levelo://app?vid=b5944110-4899-44e2-99bd-1adf7a704766"},"vehicle_type_id":"4","last_reported":1720289380,"current_range_meters":800,"station_id":"ce4bgih2rcd13ifvqba0","pricing_plan_id":"cebpf4jnsgd1na2vs0mg"},{"bike_id":"0b4053eb-a120-4a5a-b15d-703c1911ee70","system_id":"levelo_inurba_marseille","lat":43.29529,"lon":5.385581,"is_reserved":false,"is_disabled":false,"rental_uris":{"android":"levelo://app?vid=0b4053eb-a120-4a5a-b15d-703c1911ee70","ios":"levelo://app?vid=0b4053eb-a120-4a5a-b15d-703c1911ee70"},"vehicle_type_id":"4","last_reported":1720289380,"current_range_meters":29600,"station_id":"ce4bgih2rcd13ifvqba0","pricing_plan_id":"cebpf4jnsgd1na2vs0mg"},{"bike_id":"a9b2f1c4-8457-4814-8c53-cef3013966a2","system_id":"levelo_inurba_marseille","lat":43.302008,"lon":5.394694,"is_reserved":false,"is_disabled":false,"rental_uris":{"android":"levelo://app?vid=a9b2f1c4-8457-4814-8c53-cef3013966a2","ios":"levelo://app?vid=a9b2f1c4-8457-4814-8c53-cef3013966a2"},"vehicle_type_id":"4","last_reported":1720289380,"current_range_meters":6000,"station_id":"ce4bh0p2rcd13ifvqd70","pricing_plan_id":"cebpf4jnsgd1na2vs0mg"},{"bike_id":"9e9495fc-0cb8-43c9-a1aa-22af8ef9139a","system_id":"levelo_inurba_marseille","lat":43.294162,"lon":5.386292,"is_reserved":false,"is_disabled":false,"rental_uris":{"android":"levelo://app?vid=9e9495fc-0cb8-43c9-a1aa-22af8ef9139a","ios":"levelo://app?vid=9e9495fc-0cb8-43c9-a1aa-22af8ef9139a"},"vehicle_type_id":"4","last_reported":1720289380,"current_range_meters":22400,"station_id":"ce4bh2h2rcd13ifvqdh0","pricing_plan_id":"cebpf4jnsgd1na2vs0mg"},{"bike_id":"b9c9243c-86da-4f9d-b7a3-c4024e1a20d5","system_id":"levelo_inurba_marseille","lat":43.289395,"lon":5.366275,"is_reserved":false,"is_disabled":false,"rental_uris":{"android":"levelo://app?vid=b9c9243c-86da-4f9d-b7a3-c4024e1a20d5","ios":"levelo://app?vid=b9c9243c-86da-4f9d-b7a3-c4024e1a20d5"},"vehicle_type_id":"4","last_reported":1720289380,"current_range_meters":20400,"station_id":"ce4bhap2rcd13ifvqek0","pricing_plan_id":"cebpf4jnsgd1na2vs0mg"},{"bike_id":"1d55b2d6-ea21-47f9-b71b-3b68d9501ea7","system_id":"levelo_inurba_marseille","lat":43.289437,"lon":5.364043,"is_reserved":false,"is_disabled":false,"rental_uris":{"android":"levelo://app?vid=1d55b2d6-ea21-47f9-b71b-3b68d9501ea7","ios":"levelo://app?vid=1d55b2d6-ea21-47f9-b71b-3b68d9501ea7"},"vehicle_type_id":"4","last_reported":1720289380,"current_range_meters":3200,"station_id":"ce4bhc92rcd13ifvqetg","pricing_plan_id":"cebpf4jnsgd1na2vs0mg"},{"bike_id":"d31b6457-50b6-4489-a2c3-3b7c9d008f77","system_id":"levelo_inurba_marseille","lat":43.289468,"lon":5.363719,"is_reserved":false,"is_disabled":false,"rental_uris":{"android":"levelo://app?vid=d31b6457-50b6-4489-a2c3-3b7c9d008f77","ios":"levelo://app?vid=d31b6457-50b6-4489-a2c3-3b7c9d008f77"},"vehicle_type_id":"4","last_reported":1720289380,"current_range_meters":15200,"station_id":"ce4bhc92rcd13ifvqetg","pricing_plan_id":"cebpf4jnsgd1na2vs0mg"},{"bike_id":"1c542b82-dc3e-4901-8434-882b9f668094","system_id":"levelo_inurba_marseille","lat":43.304274,"lon":5.397513,"is_reserved":false,"is_disabled":false,"rental_uris":{"android":"levelo://app?vid=1c542b82-dc3e-4901-8434-882b9f668094","ios":"levelo://app?vid=1c542b82-dc3e-4901-8434-882b9f668094"},"vehicle_type_id":"4","last_reported":1720289380,"current_range_meters":11600,"station_id":"ce4bh092rcd13ifvqd20","pricing_plan_id":"cebpf4jnsgd1na2vs0mg"},{"bike_id":"bb2d088b-c077-4f9c-9f94-d432d62a1e31","system_id":"levelo_inurba_marseille","lat":43.304296,"lon":5.397513,"is_reserved":false,"is_disabled":false,"rental_uris":{"android":"levelo://app?vid=bb2d088b-c077-4f9c-9f94-d432d62a1e31","ios":"levelo://app?vid=bb2d088b-c077-4f9c-9f94-d432d62a1e31"},"vehicle_type_id":"4","last_reported":1720289380,"current_range_meters":4000,"station_id":"ce4bh092rcd13ifvqd20","pricing_plan_id":"cebpf4jnsgd1na2vs0mg"},{"bike_id":"9be74eab-d92a-4238-a49d-a1038b9d6ce7","system_id":"levelo_inurba_marseille","lat":43.304296,"lon":5.397513,"is_reserved":false,"is_disabled":false,"rental_uris":{"android":"levelo://app?vid=9be74eab-d92a-4238-a49d-a1038b9d6ce7","ios":"levelo://app?vid=9be74eab-d92a-4238-a49d-a1038b9d6ce7"},"vehicle_type_id":"4","last_reported":1720289380,"current_range_meters":28000,"station_id":"ce4bh092rcd13ifvqd20","pricing_plan_id":"cebpf4jnsgd1na2vs0mg"},{"bike_id":"2cb0f6d3-8689-4dd7-868a-93e487717ac9","system_id":"levelo_inurba_marseille","lat":43.292644,"lon":5.384257,"is_reserved":false,"is_disabled":false,"rental_uris":{"android":"levelo://app?vid=2cb0f6d3-8689-4dd7-868a-93e487717ac9","ios":"levelo://app?vid=2cb0f6d3-8689-4dd7-868a-93e487717ac9"},"vehicle_type_id":"4","last_reported":1720289380,"current_range_meters":15600,"station_id":"ce4bh692rcd13ifvqea0","pricing_plan_id":"cebpf4jnsgd1na2vs0mg"},{"bike_id":"3a1f7f9d-dc25-4ed4-9d4b-175e0aa2c512","system_id":"levelo_inurba_marseille","lat":43.309047,"lon":5.396551,"is_reserved":false,"is_disabled":false,"rental_uris":{"android":"levelo://app?vid=3a1f7f9d-dc25-4ed4-9d4b-175e0aa2c512","ios":"levelo://app?vid=3a1f7f9d-dc25-4ed4-9d4b-175e0aa2c512"},"vehicle_type_id":"4","last_reported":1720289380,"current_range_meters":11200,"station_id":"ce4bh012rcd13ifvqcv0","pricing_plan_id":"cebpf4jnsgd1na2vs0mg"},{"bike_id":"ea8e35eb-c728-47c0-8f9c-b8fef0ccbda5","system_id":"levelo_inurba_marseille","lat":43.290995,"lon":5.381361,"is_reserved":false,"is_disabled":false,"rental_uris":{"android":"levelo://app?vid=ea8e35eb-c728-47c0-8f9c-b8fef0ccbda5","ios":"levelo://app?vid=ea8e35eb-c728-47c0-8f9c-b8fef0ccbda5"},"vehicle_type_id":"4","last_reported":1720289380,"current_range_meters":4400,"station_id":"ce4bh512rcd13ifvqe2g","pricing_plan_id":"cebpf4jnsgd1na2vs0mg"},{"bike_id":"ce8bd2aa-bfb3-49d7-aa8e-9d6a6cbec45b","system_id":"levelo_inurba_marseille","lat":43.289741,"lon":5.378306,"is_reserved":false,"is_disabled":false,"rental_uris":{"android":"levelo://app?vid=ce8bd2aa-bfb3-49d7-aa8e-9d6a6cbec45b","ios":"levelo://app?vid=ce8bd2aa-bfb3-49d7-aa8e-9d6a6cbec45b"},"vehicle_type_id":"4","last_reported":1720289380,"current_range_meters":0,"station_id":"ce4bh9p2rcd13ifvqed0","pricing_plan_id":"cebpf4jnsgd1na2vs0mg"},{"bike_id":"30cec6f4-5b8a-4628-82ec-a445000cfdb7","system_id":"levelo_inurba_marseille","lat":43.33021,"lon":5.39043,"is_reserved":false,"is_disabled":false,"rental_uris":{"android":"levelo://app?vid=30cec6f4-5b8a-4628-82ec-a445000cfdb7","ios":"levelo://app?vid=30cec6f4-5b8a-4628-82ec-a445000cfdb7"},"vehicle_type_id":"4","last_reported":1720289380,"current_range_meters":0,"station_id":"ce4bhr92rcd13ifvqhrg","pricing_plan_id":"cebpf4jnsgd1na2vs0mg"},{"bike_id":"575e7070-c38c-4583-96fb-d7ebaad7e605","system_id":"levelo_inurba_marseille","lat":43.330442,"lon":5.389148,"is_reserved":false,"is_disabled":false,"rental_uris":{"android":"levelo://app?vid=575e7070-c38c-4583-96fb-d7ebaad7e605","ios":"levelo://app?vid=575e7070-c38c-4583-96fb-d7ebaad7e605"},"vehicle_type_id":"4","last_reported":1720289380,"current_range_meters":3600,"station_id":"ce4bhr92rcd13ifvqhrg","pricing_plan_id":"cebpf4jnsgd1na2vs0mg"},{"bike_id":"7d7d96c6-87b3-4d38-8611-4fd9a079337a","system_id":"levelo_inurba_marseille","lat":43.330442,"lon":5.389148,"is_reserved":false,"is_disabled":false,"rental_uris":{"android":"levelo://app?vid=7d7d96c6-87b3-4d38-8611-4fd9a079337a","ios":"levelo://app?vid=7d7d96c6-87b3-4d38-8611-4fd9a079337a"},"vehicle_type_id":"4","last_reported":1720289380,"current_range_meters":7200,"station_id":"ce4bhr92rcd13ifvqhrg","pricing_plan_id":"cebpf4jnsgd1na2vs0mg"},{"bike_id":"5ae5a4fa-c12c-4e0c-867e-1260a5e3600f","system_id":"levelo_inurba_marseille","lat":43.330442,"lon":5.389148,"is_reserved":false,"is_disabled":false,"rental_uris":{"android":"levelo://app?vid=5ae5a4fa-c12c-4e0c-867e-1260a5e3600f","ios":"levelo://app?vid=5ae5a4fa-c12c-4e0c-867e-1260a5e3600f"},"vehicle_type_id":"4","last_reported":1720289380,"current_range_meters":13200,"station_id":"ce4bhr92rcd13ifvqhrg","pricing_plan_id":"cebpf4jnsgd1na2vs0mg"},{"bike_id":"0103e28f-ffac-49d8-ab0a-d4223f18fc72","system_id":"levelo_inurba_marseille","lat":43.330442,"lon":5.389148,"is_reserved":false,"is_disabled":false,"rental_uris":{"android":"levelo://app?vid=0103e28f-ffac-49d8-ab0a-d4223f18fc72","ios":"levelo://app?vid=0103e28f-ffac-49d8-ab0a-d4223f18fc72"},"vehicle_type_id":"4","last_reported":1720289380,"current_range_meters":7600,"station_id":"ce4bhr92rcd13ifvqhrg","pricing_plan_id":"cebpf4jnsgd1na2vs0mg"},{"bike_id":"d17d17f4-0187-442d-ae28-31f267aedf79","system_id":"levelo_inurba_marseille","lat":43.302008,"lon":5.394694,"is_reserved":false,"is_disabled":false,"rental_uris":{"android":"levelo://app?vid=d17d17f4-0187-442d-ae28-31f267aedf79","ios":"levelo://app?vid=d17d17f4-0187-442d-ae28-31f267aedf79"},"vehicle_type_id":"4","last_reported":1720289380,"current_range_meters":1200,"station_id":"ce4bh0p2rcd13ifvqd70","pricing_plan_id":"cebpf4jnsgd1na2vs0mg"},{"bike_id":"ea975824-0263-4a18-8dab-38136652036c","system_id":"levelo_inurba_marseille","lat":43.295169,"lon":5.390426,"is_reserved":false,"is_disabled":false,"rental_uris":{"android":"levelo://app?vid=ea975824-0263-4a18-8dab-38136652036c","ios":"levelo://app?vid=ea975824-0263-4a18-8dab-38136652036c"},"vehicle_type_id":"4","last_reported":1720289380,"current_range_meters":9200,"station_id":"ce4bh3p2rcd13ifvqdp0","pricing_plan_id":"cebpf4jnsgd1na2vs0mg"},{"bike_id":"585991af-8b29-42fa-9e7f-6dece7303511","system_id":"levelo_inurba_marseille","lat":43.330442,"lon":5.389148,"is_reserved":false,"is_disabled":false,"rental_uris":{"android":"levelo://app?vid=585991af-8b29-42fa-9e7f-6dece7303511","ios":"levelo://app?vid=585991af-8b29-42fa-9e7f-6dece7303511"},"vehicle_type_id":"4","last_reported":1720289380,"current_range_meters":12000,"station_id":"ce4bhr92rcd13ifvqhrg","pricing_plan_id":"cebpf4jnsgd1na2vs0mg"},{"bike_id":"e47f2027-22f9-4e53-9e6f-f040d68bf867","system_id":"levelo_inurba_marseille","lat":43.295169,"lon":5.390426,"is_reserved":false,"is_disabled":false,"rental_uris":{"android":"levelo://app?vid=e47f2027-22f9-4e53-9e6f-f040d68bf867","ios":"levelo://app?vid=e47f2027-22f9-4e53-9e6f-f040d68bf867"},"vehicle_type_id":"4","last_reported":1720289380,"current_range_meters":27200,"station_id":"ce4bh3p2rcd13ifvqdp0","pricing_plan_id":"cebpf4jnsgd1na2vs0mg"},{"bike_id":"391c1c2f-968e-4b2e-acac-be83dd11930e","system_id":"levelo_inurba_marseille","lat":43.312609,"lon":5.401662,"is_reserved":false,"is_disabled":false,"rental_uris":{"android":"levelo://app?vid=391c1c2f-968e-4b2e-acac-be83dd11930e","ios":"levelo://app?vid=391c1c2f-968e-4b2e-acac-be83dd11930e"},"vehicle_type_id":"4","last_reported":1720289380,"current_range_meters":18800,"station_id":"ce4bh092rcd13ifvqd30","pricing_plan_id":"cebpf4jnsgd1na2vs0mg"},{"bike_id":"41bf3713-0990-447b-b4f6-122a601787b9","system_id":"levelo_inurba_marseille","lat":43.28856,"lon":5.358371,"is_reserved":false,"is_disabled":false,"rental_uris":{"android":"levelo://app?vid=41bf3713-0990-447b-b4f6-122a601787b9","ios":"levelo://app?vid=41bf3713-0990-447b-b4f6-122a601787b9"},"vehicle_type_id":"4","last_reported":1720289380,"current_range_meters":18800,"station_id":"ce4bhb12rcd13ifvqem0","pricing_plan_id":"cebpf4jnsgd1na2vs0mg"},{"bike_id":"8f50164e-721f-46d2-a553-1cd0146d0662","system_id":"levelo_inurba_marseille","lat":43.28856,"lon":5.358371,"is_reserved":false,"is_disabled":false,"rental_uris":{"android":"levelo://app?vid=8f50164e-721f-46d2-a553-1cd0146d0662","ios":"levelo://app?vid=8f50164e-721f-46d2-a553-1cd0146d0662"},"vehicle_type_id":"4","last_reported":1720289380,"current_range_meters":3200,"station_id":"ce4bhb12rcd13ifvqem0","pricing_plan_id":"cebpf4jnsgd1na2vs0mg"},{"bike_id":"bd1987de-e6c7-4623-a374-c54a849d4b4d","system_id":"levelo_inurba_marseille","lat":43.28856,"lon":5.358371,"is_reserved":false,"is_disabled":false,"rental_uris":{"android":"levelo://app?vid=bd1987de-e6c7-4623-a374-c54a849d4b4d","ios":"levelo://app?vid=bd1987de-e6c7-4623-a374-c54a849d4b4d"},"vehicle_type_id":"4","last_reported":1720289380,"current_range_meters":3200,"station_id":"ce4bhb12rcd13ifvqem0","pricing_plan_id":"cebpf4jnsgd1na2vs0mg"},{"bike_id":"0605d7c2-1fe3-4178-a5af-1a72291b2120","system_id":"levelo_inurba_marseille","lat":43.294162,"lon":5.386292,"is_reserved":false,"is_disabled":false,"rental_uris":{"android":"levelo://app?vid=0605d7c2-1fe3-4178-a5af-1a72291b2120","ios":"levelo://app?vid=0605d7c2-1fe3-4178-a5af-1a72291b2120"},"vehicle_type_id":"4","last_reported":1720289380,"current_range_meters":17600,"station_id":"ce4bh2h2rcd13ifvqdh0","pricing_plan_id":"cebpf4jnsgd1na2vs0mg"},{"bike_id":"5f63c6f6-067c-497d-9fbe-530948801fec","system_id":"levelo_inurba_marseille","lat":43.312609,"lon":5.401662,"is_reserved":false,"is_disabled":false,"rental_uris":{"android":"levelo://app?vid=5f63c6f6-067c-497d-9fbe-530948801fec","ios":"levelo://app?vid=5f63c6f6-067c-497d-9fbe-530948801fec"},"vehicle_type_id":"4","last_reported":1720289380,"current_range_meters":11600,"station_id":"ce4bh092rcd13ifvqd30","pricing_plan_id":"cebpf4jnsgd1na2vs0mg"},{"bike_id":"e1ab61ad-0014-4bbc-9df5-191807b9b2b0","system_id":"levelo_inurba_marseille","lat":43.306412,"lon":5.401035,"is_reserved":false,"is_disabled":false,"rental_uris":{"android":"levelo://app?vid=e1ab61ad-0014-4bbc-9df5-191807b9b2b0","ios":"levelo://app?vid=e1ab61ad-0014-4bbc-9df5-191807b9b2b0"},"vehicle_type_id":"4","last_reported":1720289380,"current_range_meters":2400,"station_id":"ce4bh112rcd13ifvqda0","pricing_plan_id":"cebpf4jnsgd1na2vs0mg"},{"bike_id":"88f27a2f-daa4-4dfc-b23a-0cfd244fc967","system_id":"levelo_inurba_marseille","lat":43.337424,"lon":5.374518,"is_reserved":false,"is_disabled":false,"rental_uris":{"android":"levelo://app?vid=88f27a2f-daa4-4dfc-b23a-0cfd244fc967","ios":"levelo://app?vid=88f27a2f-daa4-4dfc-b23a-0cfd244fc967"},"vehicle_type_id":"4","last_reported":1720289380,"current_range_meters":10400,"station_id":"","pricing_plan_id":"cebpf4jnsgd1na2vs0mg"},{"bike_id":"fdbfcc29-04c6-4739-ba7e-441fb2e2593e","system_id":"levelo_inurba_marseille","lat":43.337465,"lon":5.374619,"is_reserved":false,"is_disabled":false,"rental_uris":{"android":"levelo://app?vid=fdbfcc29-04c6-4739-ba7e-441fb2e2593e","ios":"levelo://app?vid=fdbfcc29-04c6-4739-ba7e-441fb2e2593e"},"vehicle_type_id":"4","last_reported":1720289380,"current_range_meters":21200,"station_id":"","pricing_plan_id":"cebpf4jnsgd1na2vs0mg"},{"bike_id":"c66303bb-870f-4a09-857d-3c2097f6ab0a","system_id":"levelo_inurba_marseille","lat":43.309371,"lon":5.401449,"is_reserved":false,"is_disabled":false,"rental_uris":{"android":"levelo://app?vid=c66303bb-870f-4a09-857d-3c2097f6ab0a","ios":"levelo://app?vid=c66303bb-870f-4a09-857d-3c2097f6ab0a"},"vehicle_type_id":"4","last_reported":1720289380,"current_range_meters":28800,"station_id":"ce4bgvp2rcd13ifvqct0","pricing_plan_id":"cebpf4jnsgd1na2vs0mg"},{"bike_id":"e8043679-5e2d-45ca-af32-4c2eeb2d3b4d","system_id":"levelo_inurba_marseille","lat":43.3376,"lon":5.3742,"is_reserved":false,"is_disabled":false,"rental_uris":{"android":"levelo://app?vid=e8043679-5e2d-45ca-af32-4c2eeb2d3b4d","ios":"levelo://app?vid=e8043679-5e2d-45ca-af32-4c2eeb2d3b4d"},"vehicle_type_id":"4","last_reported":1720289380,"current_range_meters":18800,"station_id":"","pricing_plan_id":"cebpf4jnsgd1na2vs0mg"},{"bike_id":"41fcb31e-469f-4a07-8a88-fbe57c2d85f5","system_id":"levelo_inurba_marseille","lat":43.33755,"lon":5.37455,"is_reserved":false,"is_disabled":false,"rental_uris":{"android":"levelo://app?vid=41fcb31e-469f-4a07-8a88-fbe57c2d85f5","ios":"levelo://app?vid=41fcb31e-469f-4a07-8a88-fbe57c2d85f5"},"vehicle_type_id":"4","last_reported":1720289380,"current_range_meters":26800,"station_id":"","pricing_plan_id":"cebpf4jnsgd1na2vs0mg"},{"bike_id":"22664dbb-05c6-44b7-ac76-723d395f476e","system_id":"levelo_inurba_marseille","lat":43.337616,"lon":5.374296,"is_reserved":false,"is_disabled":false,"rental_uris":{"android":"levelo://app?vid=22664dbb-05c6-44b7-ac76-723d395f476e","ios":"levelo://app?vid=22664dbb-05c6-44b7-ac76-723d395f476e"},"vehicle_type_id":"4","last_reported":1720289380,"current_range_meters":29200,"station_id":"","pricing_plan_id":"cebpf4jnsgd1na2vs0mg"},{"bike_id":"d18fc15d-e9a7-4dbb-9aed-fc17bcc86552","system_id":"levelo_inurba_marseille","lat":43.337616,"lon":5.37433,"is_reserved":false,"is_disabled":false,"rental_uris":{"android":"levelo://app?vid=d18fc15d-e9a7-4dbb-9aed-fc17bcc86552","ios":"levelo://app?vid=d18fc15d-e9a7-4dbb-9aed-fc17bcc86552"},"vehicle_type_id":"4","last_reported":1720289380,"current_range_meters":16800,"station_id":"","pricing_plan_id":"cebpf4jnsgd1na2vs0mg"},{"bike_id":"ba77c056-6fe7-4228-884f-a9f07e3f5ccc","system_id":"levelo_inurba_marseille","lat":43.337679,"lon":5.374308,"is_reserved":false,"is_disabled":false,"rental_uris":{"android":"levelo://app?vid=ba77c056-6fe7-4228-884f-a9f07e3f5ccc","ios":"levelo://app?vid=ba77c056-6fe7-4228-884f-a9f07e3f5ccc"},"vehicle_type_id":"4","last_reported":1720289380,"current_range_meters":29600,"station_id":"ce4rr2p2rcd13i802rgg","pricing_plan_id":"cebpf4jnsgd1na2vs0mg"},{"bike_id":"3f01793d-1a7a-4636-91af-868d14ebca40","system_id":"levelo_inurba_marseille","lat":43.30642,"lon":5.401031,"is_reserved":false,"is_disabled":false,"rental_uris":{"android":"levelo://app?vid=3f01793d-1a7a-4636-91af-868d14ebca40","ios":"levelo://app?vid=3f01793d-1a7a-4636-91af-868d14ebca40"},"vehicle_type_id":"4","last_reported":1720289380,"current_range_meters":18400,"station_id":"ce4bh112rcd13ifvqda0","pricing_plan_id":"cebpf4jnsgd1na2vs0mg"},{"bike_id":"ca28a750-034c-4926-945c-7b5f8a0741a9","system_id":"levelo_inurba_marseille","lat":43.337698,"lon":5.37433,"is_reserved":false,"is_disabled":false,"rental_uris":{"android":"levelo://app?vid=ca28a750-034c-4926-945c-7b5f8a0741a9","ios":"levelo://app?vid=ca28a750-034c-4926-945c-7b5f8a0741a9"},"vehicle_type_id":"4","last_reported":1720289380,"current_range_meters":30800,"station_id":"","pricing_plan_id":"cebpf4jnsgd1na2vs0mg"},{"bike_id":"568e51fe-3317-4e32-82a4-2bd4944c6912","system_id":"levelo_inurba_marseille","lat":43.337737,"lon":5.3743,"is_reserved":false,"is_disabled":false,"rental_uris":{"android":"levelo://app?vid=568e51fe-3317-4e32-82a4-2bd4944c6912","ios":"levelo://app?vid=568e51fe-3317-4e32-82a4-2bd4944c6912"},"vehicle_type_id":"4","last_reported":1720289380,"current_range_meters":6400,"station_id":"","pricing_plan_id":"cebpf4jnsgd1na2vs0mg"},{"bike_id":"41c4fbb9-ae64-40b5-b972-2ffc0f24bb5e","system_id":"levelo_inurba_marseille","lat":43.30134,"lon":5.39852,"is_reserved":false,"is_disabled":false,"rental_uris":{"android":"levelo://app?vid=41c4fbb9-ae64-40b5-b972-2ffc0f24bb5e","ios":"levelo://app?vid=41c4fbb9-ae64-40b5-b972-2ffc0f24bb5e"},"vehicle_type_id":"4","last_reported":1720289380,"current_range_meters":31200,"station_id":"ce4bh0h2rcd13ifvqd40","pricing_plan_id":"cebpf4jnsgd1na2vs0mg"},{"bike_id":"fadd004d-2fb0-478b-945b-3566b8a20fe1","system_id":"levelo_inurba_marseille","lat":43.301364,"lon":5.39866,"is_reserved":false,"is_disabled":false,"rental_uris":{"android":"levelo://app?vid=fadd004d-2fb0-478b-945b-3566b8a20fe1","ios":"levelo://app?vid=fadd004d-2fb0-478b-945b-3566b8a20fe1"},"vehicle_type_id":"4","last_reported":1720289380,"current_range_meters":26800,"station_id":"ce4bh0h2rcd13ifvqd40","pricing_plan_id":"cebpf4jnsgd1na2vs0mg"},{"bike_id":"f12c835b-e44e-44e6-9e0c-5ba827881b4a","system_id":"levelo_inurba_marseille","lat":43.29176,"lon":5.3882,"is_reserved":false,"is_disabled":false,"rental_uris":{"android":"levelo://app?vid=f12c835b-e44e-44e6-9e0c-5ba827881b4a","ios":"levelo://app?vid=f12c835b-e44e-44e6-9e0c-5ba827881b4a"},"vehicle_type_id":"4","last_reported":1720289380,"current_range_meters":800,"station_id":"","pricing_plan_id":"cebpf4jnsgd1na2vs0mg"},{"bike_id":"7ccd1d77-56b9-41cc-9e10-8ad1b0c15b14","system_id":"levelo_inurba_marseille","lat":43.286961,"lon":5.373785,"is_reserved":false,"is_disabled":false,"rental_uris":{"android":"levelo://app?vid=7ccd1d77-56b9-41cc-9e10-8ad1b0c15b14","ios":"levelo://app?vid=7ccd1d77-56b9-41cc-9e10-8ad1b0c15b14"},"vehicle_type_id":"4","last_reported":1720289380,"current_range_meters":1600,"station_id":"ce4bh3p2rcd13ifvqdq0","pricing_plan_id":"cebpf4jnsgd1na2vs0mg"},{"bike_id":"ca9daab2-67f7-464c-9b59-ca3fb9b8c114","system_id":"levelo_inurba_marseille","lat":43.287027,"lon":5.373714,"is_reserved":false,"is_disabled":false,"rental_uris":{"android":"levelo://app?vid=ca9daab2-67f7-464c-9b59-ca3fb9b8c114","ios":"levelo://app?vid=ca9daab2-67f7-464c-9b59-ca3fb9b8c114"},"vehicle_type_id":"4","last_reported":1720289380,"current_range_meters":800,"station_id":"ce4bh3p2rcd13ifvqdq0","pricing_plan_id":"cebpf4jnsgd1na2vs0mg"},{"bike_id":"8e80712a-5fcc-4f44-916f-1cd7f86726ab","system_id":"levelo_inurba_marseille","lat":43.286961,"lon":5.373785,"is_reserved":false,"is_disabled":false,"rental_uris":{"android":"levelo://app?vid=8e80712a-5fcc-4f44-916f-1cd7f86726ab","ios":"levelo://app?vid=8e80712a-5fcc-4f44-916f-1cd7f86726ab"},"vehicle_type_id":"4","last_reported":1720289380,"current_range_meters":6000,"station_id":"ce4bh3p2rcd13ifvqdq0","pricing_plan_id":"cebpf4jnsgd1na2vs0mg"},{"bike_id":"8171fe1b-5ac7-469f-ae20-f2a6fecfb8ed","system_id":"levelo_inurba_marseille","lat":43.286961,"lon":5.373785,"is_reserved":false,"is_disabled":false,"rental_uris":{"android":"levelo://app?vid=8171fe1b-5ac7-469f-ae20-f2a6fecfb8ed","ios":"levelo://app?vid=8171fe1b-5ac7-469f-ae20-f2a6fecfb8ed"},"vehicle_type_id":"4","last_reported":1720289380,"current_range_meters":8000,"station_id":"ce4bh3p2rcd13ifvqdq0","pricing_plan_id":"cebpf4jnsgd1na2vs0mg"},{"bike_id":"01896377-c1b6-444d-ba66-5175a19a6b6f","system_id":"levelo_inurba_marseille","lat":43.286961,"lon":5.373785,"is_reserved":false,"is_disabled":false,"rental_uris":{"android":"levelo://app?vid=01896377-c1b6-444d-ba66-5175a19a6b6f","ios":"levelo://app?vid=01896377-c1b6-444d-ba66-5175a19a6b6f"},"vehicle_type_id":"4","last_reported":1720289380,"current_range_meters":16400,"station_id":"ce4bh3p2rcd13ifvqdq0","pricing_plan_id":"cebpf4jnsgd1na2vs0mg"},{"bike_id":"446a6c77-b9f0-4f41-84f1-ab6688a72d56","system_id":"levelo_inurba_marseille","lat":43.295196,"lon":5.39397,"is_reserved":false,"is_disabled":false,"rental_uris":{"android":"levelo://app?vid=446a6c77-b9f0-4f41-84f1-ab6688a72d56","ios":"levelo://app?vid=446a6c77-b9f0-4f41-84f1-ab6688a72d56"},"vehicle_type_id":"4","last_reported":1720289380,"current_range_meters":6400,"station_id":"ce4bh292rcd13ifvqdf0","pricing_plan_id":"cebpf4jnsgd1na2vs0mg"},{"bike_id":"6b9c9965-5c40-48ef-a49d-4aef6ecd9860","system_id":"levelo_inurba_marseille","lat":43.298681,"lon":5.397225,"is_reserved":false,"is_disabled":false,"rental_uris":{"android":"levelo://app?vid=6b9c9965-5c40-48ef-a49d-4aef6ecd9860","ios":"levelo://app?vid=6b9c9965-5c40-48ef-a49d-4aef6ecd9860"},"vehicle_type_id":"4","last_reported":1720289380,"current_range_meters":22000,"station_id":"ce4bh0h2rcd13ifvqd50","pricing_plan_id":"cebpf4jnsgd1na2vs0mg"},{"bike_id":"9ec5777a-d7d9-46b1-bce3-142d0ec07f5a","system_id":"levelo_inurba_marseille","lat":43.295196,"lon":5.39397,"is_reserved":false,"is_disabled":false,"rental_uris":{"android":"levelo://app?vid=9ec5777a-d7d9-46b1-bce3-142d0ec07f5a","ios":"levelo://app?vid=9ec5777a-d7d9-46b1-bce3-142d0ec07f5a"},"vehicle_type_id":"4","last_reported":1720289380,"current_range_meters":400,"station_id":"ce4bh292rcd13ifvqdf0","pricing_plan_id":"cebpf4jnsgd1na2vs0mg"},{"bike_id":"be764d32-6a4d-41c9-9afb-b6a5f390ee38","system_id":"levelo_inurba_marseille","lat":43.286961,"lon":5.373785,"is_reserved":false,"is_disabled":false,"rental_uris":{"android":"levelo://app?vid=be764d32-6a4d-41c9-9afb-b6a5f390ee38","ios":"levelo://app?vid=be764d32-6a4d-41c9-9afb-b6a5f390ee38"},"vehicle_type_id":"4","last_reported":1720289380,"current_range_meters":30000,"station_id":"ce4bh3p2rcd13ifvqdq0","pricing_plan_id":"cebpf4jnsgd1na2vs0mg"},{"bike_id":"73d715ca-4377-47b1-8c59-659dbc2344c8","system_id":"levelo_inurba_marseille","lat":43.286593,"lon":5.363346,"is_reserved":false,"is_disabled":false,"rental_uris":{"android":"levelo://app?vid=73d715ca-4377-47b1-8c59-659dbc2344c8","ios":"levelo://app?vid=73d715ca-4377-47b1-8c59-659dbc2344c8"},"vehicle_type_id":"4","last_reported":1720289380,"current_range_meters":8400,"station_id":"ce4bhah2rcd13ifvqej0","pricing_plan_id":"cebpf4jnsgd1na2vs0mg"},{"bike_id":"3eaf9ec4-9a07-445c-89f2-eeeb225ce836","system_id":"levelo_inurba_marseille","lat":43.295196,"lon":5.39397,"is_reserved":false,"is_disabled":false,"rental_uris":{"android":"levelo://app?vid=3eaf9ec4-9a07-445c-89f2-eeeb225ce836","ios":"levelo://app?vid=3eaf9ec4-9a07-445c-89f2-eeeb225ce836"},"vehicle_type_id":"4","last_reported":1720289380,"current_range_meters":3200,"station_id":"ce4bh292rcd13ifvqdf0","pricing_plan_id":"cebpf4jnsgd1na2vs0mg"},{"bike_id":"b055c354-9256-46dc-a680-0358ecfef6f0","system_id":"levelo_inurba_marseille","lat":43.295196,"lon":5.39397,"is_reserved":false,"is_disabled":false,"rental_uris":{"android":"levelo://app?vid=b055c354-9256-46dc-a680-0358ecfef6f0","ios":"levelo://app?vid=b055c354-9256-46dc-a680-0358ecfef6f0"},"vehicle_type_id":"4","last_reported":1720289380,"current_range_meters":19200,"station_id":"ce4bh292rcd13ifvqdf0","pricing_plan_id":"cebpf4jnsgd1na2vs0mg"},{"bike_id":"8b20bfe8-46f7-47c1-8e50-064be66117de","system_id":"levelo_inurba_marseille","lat":43.30259,"lon":5.40061,"is_reserved":false,"is_disabled":false,"rental_uris":{"android":"levelo://app?vid=8b20bfe8-46f7-47c1-8e50-064be66117de","ios":"levelo://app?vid=8b20bfe8-46f7-47c1-8e50-064be66117de"},"vehicle_type_id":"4","last_reported":1720289380,"current_range_meters":8400,"station_id":"ce4bgvh2rcd13ifvqcs0","pricing_plan_id":"cebpf4jnsgd1na2vs0mg"},