{"last_updated":1746090632,"ttl":60,"version":"2.2","data":{"bikes":[{"bike_id":"f1cb23bc-1834-4089-a420-ddfb793eb286","system_id":"levelo_inurba_marseille","lat":43.32627,"lon":5.35662,"is_reserved":false,"is_disabled":true,"rental_uris":{"android":"levelo://app?vid=f1cb23bc-1834-4089-a420-ddfb793eb286","ios":"levelo://app?vid=f1cb23bc-1834-4089-a420-ddfb793eb286"},"vehicle_type_id":"4","last_reported":1746090632,"current_range_meters":0,"station_id":"","pricing_plan_id":"cebpf4jnsgd1na2vs0mg"},{"bike_id":"26deac1f-c435-40bc-9469-9ae0b266bb77","system_id":"levelo_inurba_marseille","lat":43.302,"lon":5.38448,"is_reserved":false,"is_disabled":true,"rental_uris":{"android":"levelo://app?vid=26deac1f-c435-40bc-9469-9ae0b266bb77","ios":"levelo://app?vid=26deac1f-c435-40bc-9469-9ae0b266bb77"},"vehicle_type_id":"4","last_reported":1746090632,"current_range_meters":0,"station_id":"","pricing_plan_id":"cebpf4jnsgd1na2vs0mg"},{"bike_id":"8e55d48e-7012-4fef-8d0c-97558eaa8974","system_id":"levelo_inurba_marseille","lat":43.27483,"lon":5.38956,"is_reserved":false,"is_disabled":true,"rental_uris":{"android":"levelo://app?vid=8e55d48e-7012-4fef-8d0c-97558eaa8974","ios":"levelo://app?vid=8e55d48e-7012-4fef-8d0c-97558eaa8974"},"vehicle_type_id":"4","last_reported":1746090632,"current_range_meters":0,"station_id":"","pricing_plan_id":"cebpf4jnsgd1na2vs0mg"},{"bike_id":"705db5aa-feb0-4862-923d-cfb22bced0d3","system_id":"levelo_inurba_marseille","lat":43.21483,"lon":5.34822,"is_reserved":false,"is_disabled":true,"rental_uris":{"android":"levelo://app?vid=705db5aa-feb0-4862-923d-cfb22bced0d3","ios":"levelo://app?vid=705db5aa-feb0-4862-923d-cfb22bced0d3"},"vehicle_type_id":"4","last_reported":1746090632,"current_range_meters":0,"station_id":"","pricing_plan_id":"cebpf4jnsgd1na2vs0mg"},{"bike_id":"3353c093-af4d-401e-ba15-daa8a9afd2f1","system_id":"levelo_inurba_marseille","lat":43.29227,"lon":5.36083,"is_reserved":false,"is_disabled":true,"rental_uris":{"android":"levelo://app?vid=3353c093-af4d-401e-ba15-daa8a9afd2f1","ios":"levelo://app?vid=3353c093-af4d-401e-ba15-daa8a9afd2f1"},"vehicle_type_id":"4","last_reported":1746090632,"current_range_meters":0,"station_id":"ce4bhbh2rcd13ifvqeqg","pricing_plan_id":"cebpf4jnsgd1na2vs0mg"},{"bike_id":"287d21b0-ce9d-475a-aa95-d30abb03cebe","system_id":"levelo_inurba_marseille","lat":43.28623,"lon":5.35088,"is_reserved":false,"is_disabled":true,"rental_uris":{"android":"levelo://app?vid=287d21b0-ce9d-475a-aa95-d30abb03cebe","ios":"levelo://app?vid=287d21b0-ce9d-475a-aa95-d30abb03cebe"},"vehicle_type_id":"4","last_reported":1746090632,"current_range_meters":0,"station_id":"ce4bhch2rcd13ifvqeug","pricing_plan_id":"cebpf4jnsgd1na2vs0mg"},{"bike_id":"f1cc2833-e417-42fe-99fa-0657f180198a","system_id":"levelo_inurba_marseille","lat":43.24388,"lon":5.37069,"is_reserved":false,"is_disabled":true,"rental_uris":{"android":"levelo://app?vid=f1cc2833-e417-42fe-99fa-0657f180198a","ios":"levelo://app?vid=f1cc2833-e417-42fe-99fa-0657f180198a"},"vehicle_type_id":"4","last_reported":1746090632,"current_range_meters":0,"station_id":"ce4bhhh2rcd13ifvqfk0","pricing_plan_id":"cebpf4jnsgd1na2vs0mg"},{"bike_id":"e7c7c72d-3908-481a-9101-87048e3b9708","system_id":"levelo_inurba_marseille","lat":43.23166,"lon":5.43707,"is_reserved":false,"is_disabled":true,"rental_uris":{"android":"levelo://app?vid=e7c7c72d-3908-481a-9101-87048e3b9708","ios":"levelo://app?vid=e7c7c72d-3908-481a-9101-87048e3b9708"},"vehicle_type_id":"4","last_reported":1746090632,"current_range_meters":0,"station_id":"ce4bhmp2rcd13ifvqgog","pricing_plan_id":"cebpf4jnsgd1na2vs0mg"},{"bike_id":"c67107b0-aaa2-4822-8e66-e5b9a70688c7","system_id":"levelo_inurba_marseille","lat":43.23156,"lon":5.43707,"is_reserved":false,"is_disabled":true,"rental_uris":{"android":"levelo://app?vid=c67107b0-aaa2-4822-8e66-e5b9a70688c7","ios":"levelo://app?vid=c67107b0-aaa2-4822-8e66-e5b9a70688c7"},"vehicle_type_id":"4","last_reported":1746090632,"current_range_meters":0,"station_id":"ce4bhmp2rcd13ifvqgog","pricing_plan_id":"cebpf4jnsgd1na2vs0mg"},{"bike_id":"807b68ac-9bdd-46ff-8b79-789be60828de","system_id":"levelo_inurba_marseille","lat":43.24167,"lon":5.36399,"is_reserved":false,"is_disabled":true,"rental_uris":{"android":"levelo://app?vid=807b68ac-9bdd-46ff-8b79-789be60828de","ios":"levelo://app?vid=807b68ac-9bdd-46ff-8b79-789be60828de"},"vehicle_type_id":"4","last_reported":1746090632,"current_range_meters":0,"station_id":"cpo36qri1sfpv3e86is0","pricing_plan_id":"cebpf4jnsgd1na2vs0mg"},{"bike_id":"e881e0aa-33eb-42d1-bdfb-56edf0dd945f","system_id":"levelo_inurba_marseille","lat":43.21748,"lon":5.34608,"is_reserved":false,"is_disabled":true,"rental_uris":{"android":"levelo://app?vid=e881e0aa-33eb-42d1-bdfb-56edf0dd945f","ios":"levelo://app?vid=e881e0aa-33eb-42d1-bdfb-56edf0dd945f"},"vehicle_type_id":"4","last_reported":1746090632,"current_range_meters":0,"station_id":"st_cvj6r9ubvosntc0bgbag","pricing_plan_id":"cebpf4jnsgd1na2vs0mg"},{"bike_id":"042ab00b-d873-40b1-a008-32c312479667","system_id":"levelo_inurba_marseille","lat":43.212,"lon":5.35069,"is_reserved":false,"is_disabled":true,"rental_uris":{"android":"levelo://app?vid=042ab00b-d873-40b1-a008-32c312479667","ios":"levelo://app?vid=042ab00b-d873-40b1-a008-32c312479667"},"vehicle_type_id":"4","last_reported":1746090632,"current_range_meters":0,"station_id":"st_cvj6sg6p6f1abm77japg","pricing_plan_id":"cebpf4jnsgd1na2vs0mg"},{"bike_id":"0662c865-a954-4e76-a357-fe5e2f874ec2","system_id":"levelo_inurba_marseille","lat":43.30433,"lon":5.39744,"is_reserved":false,"is_disabled":true,"rental_uris":{"android":"levelo://app?vid=0662c865-a954-4e76-a357-fe5e2f874ec2","ios":"levelo://app?vid=0662c865-a954-4e76-a357-fe5e2f874ec2"},"vehicle_type_id":"4","last_reported":1746090632,"current_range_meters":400,"station_id":"ce4bh092rcd13ifvqd20","pricing_plan_id":"cebpf4jnsgd1na2vs0mg"},{"bike_id":"3c64b2a8-3ace-4ec3-8b34-4e510ab3c9eb","system_id":"levelo_inurba_marseille","lat":43.25114,"lon":5.40314,"is_reserved":false,"is_disabled":true,"rental_uris":{"android":"levelo://app?vid=3c64b2a8-3ace-4ec3-8b34-4e510ab3c9eb","ios":"levelo://app?vid=3c64b2a8-3ace-4ec3-8b34-4e510ab3c9eb"},"vehicle_type_id":"4","last_reported":1746090632,"current_range_meters":800,"station_id":"ce4bhlh2rcd13ifvqgig","pricing_plan_id":"cebpf4jnsgd1na2vs0mg"},{"bike_id":"ba82300f-c435-4cc5-a301-1434c8f8912f","system_id":"levelo_inurba_marseille","lat":43.23164,"lon":5.43697,"is_reserved":false,"is_disabled":true,"rental_uris":{"android":"levelo://app?vid=ba82300f-c435-4cc5-a301-1434c8f8912f","ios":"levelo://app?vid=ba82300f-c435-4cc5-a301-1434c8f8912f"},"vehicle_type_id":"4","last_reported":1746090632,"current_range_meters":800,"station_id":"ce4bhmp2rcd13ifvqgog","pricing_plan_id":"cebpf4jnsgd1na2vs0mg"},{"bike_id":"5ae4b472-fe5f-4980-810c-e6e449693a09","system_id":"levelo_inurba_marseille","lat":43.31079,"lon":5.42457,"is_reserved":false,"is_disabled":true,"rental_uris":{"android":"levelo://app?vid=5ae4b472-fe5f-4980-810c-e6e449693a09","ios":"levelo://app?vid=5ae4b472-fe5f-4980-810c-e6e449693a09"},"vehicle_type_id":"4","last_reported":1746090632,"current_range_meters":800,"station_id":"ce4bhp92rcd13ifvqhag","pricing_plan_id":"cebpf4jnsgd1na2vs0mg"},{"bike_id":"f3d29bf7-0303-4a1d-bbfb-ac6149bb840b","system_id":"levelo_inurba_marseille","lat":43.28471,"lon":5.38414,"is_reserved":false,"is_disabled":true,"rental_uris":{"android":"levelo://app?vid=f3d29bf7-0303-4a1d-bbfb-ac6149bb840b","ios":"levelo://app?vid=f3d29bf7-0303-4a1d-bbfb-ac6149bb840b"},"vehicle_type_id":"4","last_reported":1746090632,"current_range_meters":1200,"station_id":"ce4bh512rcd13ifvqe3g","pricing_plan_id":"cebpf4jnsgd1na2vs0mg"},{"bike_id":"14d2451a-edff-4bc1-a0e6-95af81a7f31e","system_id":"levelo_inurba_marseille","lat":43.28412,"lon":5.34978,"is_reserved":false,"is_disabled":true,"rental_uris":{"android":"levelo://app?vid=14d2451a-edff-4bc1-a0e6-95af81a7f31e","ios":"levelo://app?vid=14d2451a-edff-4bc1-a0e6-95af81a7f31e"},"vehicle_type_id":"4","last_reported":1746090632,"current_range_meters":1200,"station_id":"ce4bhbh2rcd13ifvqepg","pricing_plan_id":"cebpf4jnsgd1na2vs0mg"},{"bike_id":"308187e2-38c9-43cc-8379-0ba89469f3b5","system_id":"levelo_inurba_marseille","lat":43.23152,"lon":5.43705,"is_reserved":false,"is_disabled":true,"rental_uris":{"android":"levelo://app?vid=308187e2-38c9-43cc-8379-0ba89469f3b5","ios":"levelo://app?vid=308187e2-38c9-43cc-8379-0ba89469f3b5"},"vehicle_type_id":"4","last_reported":1746090632,"current_range_meters":1200,"station_id":"ce4bhmp2rcd13ifvqgog","pricing_plan_id":"cebpf4jnsgd1na2vs0mg"},{"bike_id":"808c40e8-0ce0-47f4-84b2-2c2ddc8277eb","system_id":"levelo_inurba_marseille","lat":43.29914,"lon":5.37471,"is_reserved":false,"is_disabled":false,"rental_uris":{"android":"levelo://app?vid=808c40e8-0ce0-47f4-84b2-2c2ddc8277eb","ios":"levelo://app?vid=808c40e8-0ce0-47f4-84b2-2c2ddc8277eb"},"vehicle_type_id":"4","last_reported":1746090632,"current_range_meters":2000,"station_id":"ce4bgjh2rcd13ifvqbg0","pricing_plan_id":"cebpf4jnsgd1na2vs0mg"},{"bike_id":"d17f7c0a-be4c-4b3a-813f-2a8c474ae811","system_id":"levelo_inurba_marseille","lat":43.26203,"lon":5.37924,"is_reserved":false,"is_disabled":true,"rental_uris":{"android":"levelo://app?vid=d17f7c0a-be4c-4b3a-813f-2a8c474ae811","ios":"levelo://app?vid=d17f7c0a-be4c-4b3a-813f-2a8c474ae811"},"vehicle_type_id":"4","last_reported":1746090632,"current_range_meters":2000,"station_id":"ce4bhjp2rcd13ifvqg90","pricing_plan_id":"cebpf4jnsgd1na2vs0mg"},{"bike_id":"e4c0bcf3-c30b-4d7c-827b-14bc8a1c335b","system_id":"levelo_inurba_marseille","lat":43.27945,"lon":5.41037,"is_reserved":false,"is_disabled":true,"rental_uris":{"android":"levelo://app?vid=e4c0bcf3-c30b-4d7c-827b-14bc8a1c335b","ios":"levelo://app?vid=e4c0bcf3-c30b-4d7c-827b-14bc8a1c335b"},"vehicle_type_id":"4","last_reported":1746090632,"current_range_meters":2000,"station_id":"ce4bhnp2rcd13ifvqh0g","pricing_plan_id":"cebpf4jnsgd1na2vs0mg"},{"bike_id":"010ad88d-e92d-4887-b6ee-903433203540","system_id":"levelo_inurba_marseille","lat":43.31354,"lon":5.38486,"is_reserved":false,"is_disabled":false,"rental_uris":{"android":"levelo://app?vid=010ad88d-e92d-4887-b6ee-903433203540","ios":"levelo://app?vid=010ad88d-e92d-4887-b6ee-903433203540"},"vehicle_type_id":"4","last_reported":1746090632,"current_range_meters":2800,"station_id":"ce4bgt92rcd13ifvqcf0","pricing_plan_id":"cebpf4jnsgd1na2vs0mg"},{"bike_id":"1f710b57-cc61-47d9-976d-5337ea9f7f08","system_id":"levelo_inurba_marseille","lat":43.291715,"lon":5.371667,"is_reserved":false,"is_disabled":false,"rental_uris":{"android":"levelo://app?vid=1f710b57-cc61-47d9-976d-5337ea9f7f08","ios":"levelo://app?vid=1f710b57-cc61-47d9-976d-5337ea9f7f08"},"vehicle_type_id":"4","last_reported":1746090632,"current_range_meters":2800,"station_id":"ce4bha92rcd13ifvqeh0","pricing_plan_id":"cebpf4jnsgd1na2vs0mg"},{"bike_id":"6d39fda9-3c78-49f4-b885-53f2b5e2439e","system_id":"levelo_inurba_marseille","lat":43.28621,"lon":5.35096,"is_reserved":false,"is_disabled":true,"rental_uris":{"android":"levelo://app?vid=6d39fda9-3c78-49f4-b885-53f2b5e2439e","ios":"levelo://app?vid=6d39fda9-3c78-49f4-b885-53f2b5e2439e"},"vehicle_type_id":"4","last_reported":1746090632,"current_range_meters":2800,"station_id":"ce4bhch2rcd13ifvqeug","pricing_plan_id":"cebpf4jnsgd1na2vs0mg"},{"bike_id":"8977cb08-7140-4f65-94fd-943ddbfea175","system_id":"levelo_inurba_marseille","lat":43.2315,"lon":5.43699,"is_reserved":false,"is_disabled":false,"rental_uris":{"android":"levelo://app?vid=8977cb08-7140-4f65-94fd-943ddbfea175","ios":"levelo://app?vid=8977cb08-7140-4f65-94fd-943ddbfea175"},"vehicle_type_id":"4","last_reported":1746090632,"current_range_meters":3200,"station_id":"ce4bhmp2rcd13ifvqgog","pricing_plan_id":"cebpf4jnsgd1na2vs0mg"},{"bike_id":"e06e3ad6-0e5a-49f2-98bb-d0b7ffaaf745","system_id":"levelo_inurba_marseille","lat":43.2338,"lon":5.36116,"is_reserved":false,"is_disabled":false,"rental_uris":{"android":"levelo://app?vid=e06e3ad6-0e5a-49f2-98bb-d0b7ffaaf745","ios":"levelo://app?vid=e06e3ad6-0e5a-49f2-98bb-d0b7ffaaf745"},"vehicle_type_id":"4","last_reported":1746090632,"current_range_meters":3600,"station_id":"","pricing_plan_id":"cebpf4jnsgd1na2vs0mg"},{"bike_id":"880ffbee-23cc-4c7f-847d-aee9c38bd3f4","system_id":"levelo_inurba_marseille","lat":43.2621,"lon":5.37452,"is_reserved":false,"is_disabled":false,"rental_uris":{"android":"levelo://app?vid=880ffbee-23cc-4c7f-847d-aee9c38bd3f4","ios":"levelo://app?vid=880ffbee-23cc-4c7f-847d-aee9c38bd3f4"},"vehicle_type_id":"4","last_reported":1746090632,"current_range_meters":3600,"station_id":"ce4bhgp2rcd13ifvqfc0","pricing_plan_id":"cebpf4jnsgd1na2vs0mg"},{"bike_id":"2d0fea3e-041c-4d20-aeb7-63739e3d5c27","system_id":"levelo_inurba_marseille","lat":43.30652,"lon":5.36613,"is_reserved":false,"is_disabled":false,"rental_uris":{"android":"levelo://app?vid=2d0fea3e-041c-4d20-aeb7-63739e3d5c27","ios":"levelo://app?vid=2d0fea3e-041c-4d20-aeb7-63739e3d5c27"},"vehicle_type_id":"4","last_reported":1746090632,"current_range_meters":4000,"station_id":"","pricing_plan_id":"cebpf4jnsgd1na2vs0mg"},{"bike_id":"9f38e2b6-3ea9-4dd1-9cdd-56f2fb02a6f7","system_id":"levelo_inurba_marseille","lat":43.28413,"lon":5.34975,"is_reserved":false,"is_disabled":false,"rental_uris":{"android":"levelo://app?vid=9f38e2b6-3ea9-4dd1-9cdd-56f2fb02a6f7","ios":"levelo://app?vid=9f38e2b6-3ea9-4dd1-9cdd-56f2fb02a6f7"},"vehicle_type_id":"4","last_reported":1746090632,"current_range_meters":4400,"station_id":"ce4bhbh2rcd13ifvqepg","pricing_plan_id":"cebpf4jnsgd1na2vs0mg"},{"bike_id":"6bfc0e03-fd1e-4af1-8b66-5038dd2530cd","system_id":"levelo_inurba_marseille","lat":43.28409,"lon":5.34972,"is_reserved":false,"is_disabled":false,"rental_uris":{"android":"levelo://app?vid=6bfc0e03-fd1e-4af1-8b66-5038dd2530cd","ios":"levelo://app?vid=6bfc0e03-fd1e-4af1-8b66-5038dd2530cd"},"vehicle_type_id":"4","last_reported":1746090632,"current_range_meters":4400,"station_id":"ce4bhbh2rcd13ifvqepg","pricing_plan_id":"cebpf4jnsgd1na2vs0mg"},{"bike_id":"761b29bc-61f3-43ab-8879-34248314ac08","system_id":"levelo_inurba_marseille","lat":43.29296,"lon":5.37458,"is_reserved":false,"is_disabled":false,"rental_uris":{"android":"levelo://app?vid=761b29bc-61f3-43ab-8879-34248314ac08","ios":"levelo://app?vid=761b29bc-61f3-43ab-8879-34248314ac08"},"vehicle_type_id":"4","last_reported":1746090632,"current_range_meters":4800,"station_id":"ce4bgi12rcd13ifvqb70","pricing_plan_id":"cebpf4jnsgd1na2vs0mg"},{"bike_id":"76a9cd10-fdd4-4a05-acce-121be760d6db","system_id":"levelo_inurba_marseille","lat":43.27316,"lon":5.39086,"is_reserved":false,"is_disabled":false,"rental_uris":{"android":"levelo://app?vid=76a9cd10-fdd4-4a05-acce-121be760d6db","ios":"levelo://app?vid=76a9cd10-fdd4-4a05-acce-121be760d6db"},"vehicle_type_id":"4","last_reported":1746090632,"current_range_meters":5600,"station_id":"ce4bhgp2rcd13ifvqfe0","pricing_plan_id":"cebpf4jnsgd1na2vs0mg"},{"bike_id":"57dad6fa-2f48-40ad-a8a4-038bf8cc82ac","system_id":"levelo_inurba_marseille","lat":43.32363,"lon":5.3888,"is_reserved":false,"is_disabled":false,"rental_uris":{"android":"levelo://app?vid=57dad6fa-2f48-40ad-a8a4-038bf8cc82ac","ios":"levelo://app?vid=57dad6fa-2f48-40ad-a8a4-038bf8cc82ac"},"vehicle_type_id":"4","last_reported":1746090632,"current_range_meters":5600,"station_id":"ce4bhqp2rcd13ifvqhog","pricing_plan_id":"cebpf4jnsgd1na2vs0mg"},{"bike_id":"3c51200c-0f23-499c-aef9-9d47e698a558","system_id":"levelo_inurba_marseille","lat":43.276759,"lon":5.357239,"is_reserved":false,"is_disabled":false,"rental_uris":{"android":"levelo://app?vid=3c51200c-0f23-499c-aef9-9d47e698a558","ios":"levelo://app?vid=3c51200c-0f23-499c-aef9-9d47e698a558"},"vehicle_type_id":"4","last_reported":1746090632,"current_range_meters":6000,"station_id":"","pricing_plan_id":"cebpf4jnsgd1na2vs0mg"},{"bike_id":"9ae4f049-8315-40e2-8b0e-41e20c16a418","system_id":"levelo_inurba_marseille","lat":43.28417,"lon":5.34972,"is_reserved":false,"is_disabled":false,"rental_uris":{"android":"levelo://app?vid=9ae4f049-8315-40e2-8b0e-41e20c16a418","ios":"levelo://app?vid=9ae4f049-8315-40e2-8b0e-41e20c16a418"},"vehicle_type_id":"4","last_reported":1746090632,"current_range_meters":6000,"station_id":"ce4bhbh2rcd13ifvqepg","pricing_plan_id":"cebpf4jnsgd1na2vs0mg"},{"bike_id":"489415b8-9254-45c1-b00c-e7554d56755c","system_id":"levelo_inurba_marseille","lat":43.245193,"lon":5.412124,"is_reserved":false,"is_disabled":false,"rental_uris":{"android":"levelo://app?vid=489415b8-9254-45c1-b00c-e7554d56755c","ios":"levelo://app?vid=489415b8-9254-45c1-b00c-e7554d56755c"},"vehicle_type_id":"4","last_reported":1746090632,"current_range_meters":6400,"station_id":"","pricing_plan_id":"cebpf4jnsgd1na2vs0mg"},{"bike_id":"aaee44c6-40a8-4aee-939c-0b809d989126","system_id":"levelo_inurba_marseille","lat":43.29578,"lon":5.36739,"is_reserved":false,"is_disabled":false,"rental_uris":{"android":"levelo://app?vid=aaee44c6-40a8-4aee-939c-0b809d989126","ios":"levelo://app?vid=aaee44c6-40a8-4aee-939c-0b809d989126"},"vehicle_type_id":"4","last_reported":1746090632,"current_range_meters":6400,"station_id":"ce4bgph2rcd13ifvqc2g","pricing_plan_id":"cebpf4jnsgd1na2vs0mg"},{"bike_id":"3eb01a01-12c2-4d92-9417-58721470597f","system_id":"levelo_inurba_marseille","lat":43.23149,"lon":5.4371,"is_reserved":false,"is_disabled":false,"rental_uris":{"android":"levelo://app?vid=3eb01a01-12c2-4d92-9417-58721470597f","ios":"levelo://app?vid=3eb01a01-12c2-4d92-9417-58721470597f"},"vehicle_type_id":"4","last_reported":1746090632,"current_range_meters":6400,"station_id":"ce4bhmp2rcd13ifvqgog","pricing_plan_id":"cebpf4jnsgd1na2vs0mg"},{"bike_id":"946ef18f-b436-4389-94e5-de74ae31f593","system_id":"levelo_inurba_marseille","lat":43.23151,"lon":5.43713,"is_reserved":false,"is_disabled":false,"rental_uris":{"android":"levelo://app?vid=946ef18f-b436-4389-94e5-de74ae31f593","ios":"levelo://app?vid=946ef18f-b436-4389-94e5-de74ae31f593"},"vehicle_type_id":"4","last_reported":1746090632,"current_range_meters":6400,"station_id":"ce4bhmp2rcd13ifvqgog","pricing_plan_id":"cebpf4jnsgd1na2vs0mg"},{"bike_id":"ba32e4fc-ef8b-4e2c-9790-d4496c39fe7b","system_id":"levelo_inurba_marseille","lat":43.231506,"lon":5.437077,"is_reserved":false,"is_disabled":false,"rental_uris":{"android":"levelo://app?vid=ba32e4fc-ef8b-4e2c-9790-d4496c39fe7b","ios":"levelo://app?vid=ba32e4fc-ef8b-4e2c-9790-d4496c39fe7b"},"vehicle_type_id":"4","last_reported":1746090632,"current_range_meters":6400,"station_id":"ce4bhmp2rcd13ifvqgog","pricing_plan_id":"cebpf4jnsgd1na2vs0mg"},{"bike_id":"47ac4905-aa32-47ce-b199-7c1305022bdb","system_id":"levelo_inurba_marseille","lat":43.23178,"lon":5.39988,"is_reserved":false,"is_disabled":false,"rental_uris":{"android":"levelo://app?vid=47ac4905-aa32-47ce-b199-7c1305022bdb","ios":"levelo://app?vid=47ac4905-aa32-47ce-b199-7c1305022bdb"},"vehicle_type_id":"4","last_reported":1746090632,"current_range_meters":6400,"station_id":"ce4bhn12rcd13ifvqgqg","pricing_plan_id":"cebpf4jnsgd1na2vs0mg"},{"bike_id":"07edfd45-c3fa-4b57-b865-cf1bf9963264","system_id":"levelo_inurba_marseille","lat":43.23386,"lon":5.36415,"is_reserved":false,"is_disabled":false,"rental_uris":{"android":"levelo://app?vid=07edfd45-c3fa-4b57-b865-cf1bf9963264","ios":"levelo://app?vid=07edfd45-c3fa-4b57-b865-cf1bf9963264"},"vehicle_type_id":"4","last_reported":1746090632,"current_range_meters":6800,"station_id":"","pricing_plan_id":"cebpf4jnsgd1na2vs0mg"},{"bike_id":"b14013f0-61d2-4eef-b91e-d9d169a4d3cf","system_id":"levelo_inurba_marseille","lat":43.27614,"lon":5.36103,"is_reserved":false,"is_disabled":false,"rental_uris":{"android":"levelo://app?vid=b14013f0-61d2-4eef-b91e-d9d169a4d3cf","ios":"levelo://app?vid=b14013f0-61d2-4eef-b91e-d9d169a4d3cf"},"vehicle_type_id":"4","last_reported":1746090632,"current_range_meters":6800,"station_id":"ce4bgj92rcd13ifvqbe0","pricing_plan_id":"cebpf4jnsgd1na2vs0mg"},{"bike_id":"188fe5b6-0b27-4330-83ae-57782c277ac6","system_id":"levelo_inurba_marseille","lat":43.29577,"lon":5.36737,"is_reserved":false,"is_disabled":false,"rental_uris":{"android":"levelo://app?vid=188fe5b6-0b27-4330-83ae-57782c277ac6","ios":"levelo://app?vid=188fe5b6-0b27-4330-83ae-57782c277ac6"},"vehicle_type_id":"4","last_reported":1746090632,"current_range_meters":6800,"station_id":"ce4bgph2rcd13ifvqc2g","pricing_plan_id":"cebpf4jnsgd1na2vs0mg"},{"bike_id":"c99527ae-0848-4428-81fb-ce3525f959f2","system_id":"levelo_inurba_marseille","lat":43.28943,"lon":5.36402,"is_reserved":false,"is_disabled":false,"rental_uris":{"android":"levelo://app?vid=c99527ae-0848-4428-81fb-ce3525f959f2","ios":"levelo://app?vid=c99527ae-0848-4428-81fb-ce3525f959f2"},"vehicle_type_id":"4","last_reported":1746090632,"current_range_meters":6800,"station_id":"ce4bhc92rcd13ifvqetg","pricing_plan_id":"cebpf4jnsgd1na2vs0mg"},{"bike_id":"6e3a19df-c55a-45b6-a5d7-8c86d346569c","system_id":"levelo_inurba_marseille","lat":43.25504,"lon":5.37634,"is_reserved":false,"is_disabled":false,"rental_uris":{"android":"levelo://app?vid=6e3a19df-c55a-45b6-a5d7-8c86d346569c","ios":"levelo://app?vid=6e3a19df-c55a-45b6-a5d7-8c86d346569c"},"vehicle_type_id":"4","last_reported":1746090632,"current_range_meters":6800,"station_id":"ce4bhh12rcd13ifvqff0","pricing_plan_id":"cebpf4jnsgd1na2vs0mg"},{"bike_id":"be72c957-5086-45b5-b164-09f800df4fff","system_id":"levelo_inurba_marseille","lat":43.26807,"lon":5.402714,"is_reserved":false,"is_disabled":false,"rental_uris":{"android":"levelo://app?vid=be72c957-5086-45b5-b164-09f800df4fff","ios":"levelo://app?vid=be72c957-5086-45b5-b164-09f800df4fff"},"vehicle_type_id":"4","last_reported":1746090632,"current_range_meters":6800,"station_id":"ce501612rcd8frsf0b60","pricing_plan_id":"cebpf4jnsgd1na2vs0mg"},{"bike_id":"ab6cc9c9-69c8-48cc-bcbd-c9541d1c7966","system_id":"levelo_inurba_marseille","lat":43.29731,"lon":5.4014,"is_reserved":false,"is_disabled":false,"rental_uris":{"android":"levelo://app?vid=ab6cc9c9-69c8-48cc-bcbd-c9541d1c7966","ios":"levelo://app?vid=ab6cc9c9-69c8-48cc-bcbd-c9541d1c7966"},"vehicle_type_id":"4","last_reported":1746090632,"current_range_meters":7200,"station_id":"","pricing_plan_id":"cebpf4jnsgd1na2vs0mg"},{"bike_id":"899b5a41-b793-428f-9029-619c0dbc0605","system_id":"levelo_inurba_marseille","lat":43.27989,"lon":5.40021,"is_reserved":false,"is_disabled":false,"rental_uris":{"android":"levelo://app?vid=899b5a41-b793-428f-9029-619c0dbc0605","ios":"levelo://app?vid=899b5a41-b793-428f-9029-619c0dbc0605"},"vehicle_type_id":"4","last_reported":1746090632,"current_range_meters":7200,"station_id":"ce4bho92rcd13ifvqh4g","pricing_plan_id":"cebpf4jnsgd1na2vs0mg"},{"bike_id":"49428ea8-680a-4834-8e72-e047c4852f1d","system_id":"levelo_inurba_marseille","lat":43.301498,"lon":5.380676,"is_reserved":false,"is_disabled":false,"rental_uris":{"android":"levelo://app?vid=49428ea8-680a-4834-8e72-e047c4852f1d","ios":"levelo://app?vid=49428ea8-680a-4834-8e72-e047c4852f1d"},"vehicle_type_id":"4","last_reported":1746090632,"current_range_meters":8000,"station_id":"ce4bgjp2rcd13ifvqbh0","pricing_plan_id":"cebpf4jnsgd1na2vs0mg"},{"bike_id":"9c1009ea-f2b0-4fdf-9cf0-ee7f4fa3dcaa","system_id":"levelo_inurba_marseille","lat":43.29623,"lon":5.37149,"is_reserved":false,"is_disabled":false,"rental_uris":{"android":"levelo://app?vid=9c1009ea-f2b0-4fdf-9cf0-ee7f4fa3dcaa","ios":"levelo://app?vid=9c1009ea-f2b0-4fdf-9cf0-ee7f4fa3dcaa"},"vehicle_type_id":"4","last_reported":1746090632,"current_range_meters":8000,"station_id":"ce4bgnh2rcd13ifvqc0g","pricing_plan_id":"cebpf4jnsgd1na2vs0mg"},{"bike_id":"9de27127-cf41-4c4a-9113-5e3eea33207d","system_id":"levelo_inurba_marseille","lat":43.31493,"lon":5.37313,"is_reserved":false,"is_disabled":false,"rental_uris":{"android":"levelo://app?vid=9de27127-cf41-4c4a-9113-5e3eea33207d","ios":"levelo://app?vid=9de27127-cf41-4c4a-9113-5e3eea33207d"},"vehicle_type_id":"4","last_reported":1746090632,"current_range_meters":8000,"station_id":"ce4bgt12rcd13ifvqcd0","pricing_plan_id":"cebpf4jnsgd1na2vs0mg"},{"bike_id":"8e127416-9a59-497e-a6b1-aff1fa34a01e","system_id":"levelo_inurba_marseille","lat":43.28267,"lon":5.35086,"is_reserved":false,"is_disabled":false,"rental_uris":{"android":"levelo://app?vid=8e127416-9a59-497e-a6b1-aff1fa34a01e","ios":"levelo://app?vid=8e127416-9a59-497e-a6b1-aff1fa34a01e"},"vehicle_type_id":"4","last_reported":1746090632,"current_range_meters":8000,"station_id":"ce4bhbp2rcd13ifvqerg","pricing_plan_id":"cebpf4jnsgd1na2vs0mg"},{"bike_id":"1bfcfad7-b230-42b1-9b9c-a1178bf87db9","system_id":"levelo_inurba_marseille","lat":43.26926,"lon":5.38917,"is_reserved":false,"is_disabled":false,"rental_uris":{"android":"levelo://app?vid=1bfcfad7-b230-42b1-9b9c-a1178bf87db9","ios":"levelo://app?vid=1bfcfad7-b230-42b1-9b9c-a1178bf87db9"},"vehicle_type_id":"4","last_reported":1746090632,"current_range_meters":8000,"station_id":"ce4bhhh2rcd13ifvqfl0","pricing_plan_id":"cebpf4jnsgd1na2vs0mg"},{"bike_id":"ed89d67a-a922-469b-bbdc-d437af27a591","system_id":"levelo_inurba_marseille","lat":43.25933,"lon":5.40891,"is_reserved":false,"is_disabled":false,"rental_uris":{"android":"levelo://app?vid=ed89d67a-a922-469b-bbdc-d437af27a591","ios":"levelo://app?vid=ed89d67a-a922-469b-bbdc-d437af27a591"},"vehicle_type_id":"4","last_reported":1746090632,"current_range_meters":8000,"station_id":"ce4bhm92rcd13ifvqglg","pricing_plan_id":"cebpf4jnsgd1na2vs0mg"},{"bike_id":"3a6bed13-1a34-48f0-b750-0a5a4674ee4d","system_id":"levelo_inurba_marseille","lat":43.30111,"lon":5.383812,"is_reserved":false,"is_disabled":false,"rental_uris":{"android":"levelo://app?vid=3a6bed13-1a34-48f0-b750-0a5a4674ee4d","ios":"levelo://app?vid=3a6bed13-1a34-48f0-b750-0a5a4674ee4d"},"vehicle_type_id":"4","last_reported":1746090632,"current_range_meters":8400,"station_id":"","pricing_plan_id":"cebpf4jnsgd1na2vs0mg"},{"bike_id":"75049372-6672-4b66-93c7-d510e17e0a0f","system_id":"levelo_inurba_marseille","lat":43.30462,"lon":5.37917,"is_reserved":false,"is_disabled":false,"rental_uris":{"android":"levelo://app?vid=75049372-6672-4b66-93c7-d510e17e0a0f","ios":"levelo://app?vid=75049372-6672-4b66-93c7-d510e17e0a0f"},"vehicle_type_id":"4","last_reported":1746090632,"current_range_meters":8400,"station_id":"ce4bgup2rcd13ifvqcn0","pricing_plan_id":"cebpf4jnsgd1na2vs0mg"},{"bike_id":"25010089-4f90-4436-b2a9-d39b5a2185cc","system_id":"levelo_inurba_marseille","lat":43.2842,"lon":5.34992,"is_reserved":false,"is_disabled":false,"rental_uris":{"android":"levelo://app?vid=25010089-4f90-4436-b2a9-d39b5a2185cc","ios":"levelo://app?vid=25010089-4f90-4436-b2a9-d39b5a2185cc"},"vehicle_type_id":"4","last_reported":1746090632,"current_range_meters":8400,"station_id":"ce4bhbh2rcd13ifvqepg","pricing_plan_id":"cebpf4jnsgd1na2vs0mg"},{"bike_id":"9ede1e42-052c-4356-a5f5-ddadd7dfa1c8","system_id":"levelo_inurba_marseille","lat":43.22923,"lon":5.35379,"is_reserved":false,"is_disabled":false,"rental_uris":{"android":"levelo://app?vid=9ede1e42-052c-4356-a5f5-ddadd7dfa1c8","ios":"levelo://app?vid=9ede1e42-052c-4356-a5f5-ddadd7dfa1c8"},"vehicle_type_id":"4","last_reported":1746090632,"current_range_meters":8400,"station_id":"cpo3532slgdg3j2ikp40","pricing_plan_id":"cebpf4jnsgd1na2vs0mg"},{"bike_id":"0f7d8e8e-4cb0-4a77-b62f-3388ea6ffb35","system_id":"levelo_inurba_marseille","lat":43.2893,"lon":5.38397,"is_reserved":false,"is_disabled":false,"rental_uris":{"android":"levelo://app?vid=0f7d8e8e-4cb0-4a77-b62f-3388ea6ffb35","ios":"levelo://app?vid=0f7d8e8e-4cb0-4a77-b62f-3388ea6ffb35"},"vehicle_type_id":"4","last_reported":1746090632,"current_range_meters":8800,"station_id":"ce4bh612rcd13ifvqe6g","pricing_plan_id":"cebpf4jnsgd1na2vs0mg"},{"bike_id":"f31bf073-e687-4787-90ee-691c464f7f3e","system_id":"levelo_inurba_marseille","lat":43.25707,"lon":5.41099,"is_reserved":false,"is_disabled":false,"rental_uris":{"android":"levelo://app?vid=f31bf073-e687-4787-90ee-691c464f7f3e","ios":"levelo://app?vid=f31bf073-e687-4787-90ee-691c464f7f3e"},"vehicle_type_id":"4","last_reported":1746090632,"current_range_meters":8800,"station_id":"ce4bhkp2rcd13ifvqgd0","pricing_plan_id":"cebpf4jnsgd1na2vs0mg"},{"bike_id":"1a5fe03f-e71e-4e15-bc07-7c03ac73b7b0","system_id":"levelo_inurba_marseille","lat":43.27997,"lon":5.40009,"is_reserved":false,"is_disabled":false,"rental_uris":{"android":"levelo://app?vid=1a5fe03f-e71e-4e15-bc07-7c03ac73b7b0","ios":"levelo://app?vid=1a5fe03f-e71e-4e15-bc07-7c03ac73b7b0"},"vehicle_type_id":"4","last_reported":1746090632,"current_range_meters":8800,"station_id":"ce4bho92rcd13ifvqh4g","pricing_plan_id":"cebpf4jnsgd1na2vs0mg"},{"bike_id":"966d1004-18ad-45a2-a02b-9818db729203","system_id":"levelo_inurba_marseille","lat":43.3035,"lon":5.41877,"is_reserved":false,"is_disabled":false,"rental_uris":{"android":"levelo://app?vid=966d1004-18ad-45a2-a02b-9818db729203","ios":"levelo://app?vid=966d1004-18ad-45a2-a02b-9818db729203"},"vehicle_type_id":"4","last_reported":1746090632,"current_range_meters":8800,"station_id":"ce4bhop2rcd13ifvqh7g","pricing_plan_id":"cebpf4jnsgd1na2vs0mg"},{"bike_id":"0458560d-c954-4ac9-bcec-241d0a54d60f","system_id":"levelo_inurba_marseille","lat":43.32371,"lon":5.38879,"is_reserved":false,"is_disabled":false,"rental_uris":{"android":"levelo://app?vid=0458560d-c954-4ac9-bcec-241d0a54d60f","ios":"levelo://app?vid=0458560d-c954-4ac9-bcec-241d0a54d60f"},"vehicle_type_id":"4","last_reported":1746090632,"current_range_meters":8800,"station_id":"ce4bhqp2rcd13ifvqhog","pricing_plan_id":"cebpf4jnsgd1na2vs0mg"},{"bike_id":"912c7719-28e0-48e1-8454-fa465c703922","system_id":"levelo_inurba_marseille","lat":43.29498,"lon":5.37378,"is_reserved":false,"is_disabled":false,"rental_uris":{"android":"levelo://app?vid=912c7719-28e0-48e1-8454-fa465c703922","ios":"levelo://app?vid=912c7719-28e0-48e1-8454-fa465c703922"},"vehicle_type_id":"4","last_reported":1746090632,"current_range_meters":9200,"station_id":"","pricing_plan_id":"cebpf4jnsgd1na2vs0mg"},{"bike_id":"405fa080-f811-46f3-8582-d87d58738f3b","system_id":"levelo_inurba_marseille","lat":43.257149,"lon":5.418107,"is_reserved":false,"is_disabled":false,"rental_uris":{"android":"levelo://app?vid=405fa080-f811-46f3-8582-d87d58738f3b","ios":"levelo://app?vid=405fa080-f811-46f3-8582-d87d58738f3b"},"vehicle_type_id":"4","last_reported":1746090632,"current_range_meters":9200,"station_id":"","pricing_plan_id":"cebpf4jnsgd1na2vs0mg"},{"bike_id":"e5e92a64-e709-4b1a-a9b1-cbffe85789ca","system_id":"levelo_inurba_marseille","lat":43.255424,"lon":5.381448,"is_reserved":false,"is_disabled":false,"rental_uris":{"android":"levelo://app?vid=e5e92a64-e709-4b1a-a9b1-cbffe85789ca","ios":"levelo://app?vid=e5e92a64-e709-4b1a-a9b1-cbffe85789ca"},"vehicle_type_id":"4","last_reported":1746090632,"current_range_meters":9200,"station_id":"","pricing_plan_id":"cebpf4jnsgd1na2vs0mg"},{"bike_id":"5ba463d0-6899-4f9c-8f67-0a63c7545b34","system_id":"levelo_inurba_marseille","lat":43.29006,"lon":5.35609,"is_reserved":false,"is_disabled":false,"rental_uris":{"android":"levelo://app?vid=5ba463d0-6899-4f9c-8f67-0a63c7545b34","ios":"levelo://app?vid=5ba463d0-6899-4f9c-8f67-0a63c7545b34"},"vehicle_type_id":"4","last_reported":1746090632,"current_range_meters":9200,"station_id":"ce4bhb92rcd13ifvqen0","pricing_plan_id":"cebpf4jnsgd1na2vs0mg"},{"bike_id":"0e357378-e5ac-454f-ba61-d34a94e4ce96","system_id":"levelo_inurba_marseille","lat":43.231506,"lon":5.437169,"is_reserved":false,"is_disabled":false,"rental_uris":{"android":"levelo://app?vid=0e357378-e5ac-454f-ba61-d34a94e4ce96","ios":"levelo://app?vid=0e357378-e5ac-454f-ba61-d34a94e4ce96"},"vehicle_type_id":"4","last_reported":1746090632,"current_range_meters":9200,"station_id":"ce4bhmp2rcd13ifvqgog","pricing_plan_id":"cebpf4jnsgd1na2vs0mg"},{"bike_id":"bdfdf707-e679-4fcb-bf8a-cc8b011ed871","system_id":"levelo_inurba_marseille","lat":43.231506,"lon":5.437066,"is_reserved":false,"is_disabled":false,"rental_uris":{"android":"levelo://app?vid=bdfdf707-e679-4fcb-bf8a-cc8b011ed871","ios":"levelo://app?vid=bdfdf707-e679-4fcb-bf8a-cc8b011ed871"},"vehicle_type_id":"4","last_reported":1746090632,"current_range_meters":9200,"station_id":"ce4bhmp2rcd13ifvqgog","pricing_plan_id":"cebpf4jnsgd1na2vs0mg"},{"bike_id":"fa0013e1-384c-4a43-9dc8-c63fff3d2b7e","system_id":"levelo_inurba_marseille","lat":43.23183,"lon":5.39982,"is_reserved":false,"is_disabled":false,"rental_uris":{"android":"levelo://app?vid=fa0013e1-384c-4a43-9dc8-c63fff3d2b7e","ios":"levelo://app?vid=fa0013e1-384c-4a43-9dc8-c63fff3d2b7e"},"vehicle_type_id":"4","last_reported":1746090632,"current_range_meters":9200,"station_id":"ce4bhn12rcd13ifvqgqg","pricing_plan_id":"cebpf4jnsgd1na2vs0mg"},{"bike_id":"8972c777-1768-41f1-9dc5-fb2822355a79","system_id":"levelo_inurba_marseille","lat":43.229276,"lon":5.353747,"is_reserved":false,"is_disabled":false,"rental_uris":{"android":"levelo://app?vid=8972c777-1768-41f1-9dc5-fb2822355a79","ios":"levelo://app?vid=8972c777-1768-41f1-9dc5-fb2822355a79"},"vehicle_type_id":"4","last_reported":1746090632,"current_range_meters":9200,"station_id":"cpo3532slgdg3j2ikp40","pricing_plan_id":"cebpf4jnsgd1na2vs0mg"},{"bike_id":"fca9dc8b-9c20-4eab-83ff-17d0ce9a6922","system_id":"levelo_inurba_marseille","lat":43.26013,"lon":5.41746,"is_reserved":false,"is_disabled":false,"rental_uris":{"android":"levelo://app?vid=fca9dc8b-9c20-4eab-83ff-17d0ce9a6922","ios":"levelo://app?vid=fca9dc8b-9c20-4eab-83ff-17d0ce9a6922"},"vehicle_type_id":"4","last_reported":1746090632,"current_range_meters":9600,"station_id":"","pricing_plan_id":"cebpf4jnsgd1na2vs0mg"},{"bike_id":"379b8933-bc6e-4164-9d36-daaf2941e50f","system_id":"levelo_inurba_marseille","lat":43.30763,"lon":5.37465,"is_reserved":false,"is_disabled":false,"rental_uris":{"android":"levelo://app?vid=379b8933-bc6e-4164-9d36-daaf2941e50f","ios":"levelo://app?vid=379b8933-bc6e-4164-9d36-daaf2941e50f"},"vehicle_type_id":"4","last_reported":1746090632,"current_range_meters":9600,"station_id":"","pricing_plan_id":"cebpf4jnsgd1na2vs0mg"},{"bike_id":"9c47baf8-7f9e-4305-8023-bd25eb98e284","system_id":"levelo_inurba_marseille","lat":43.290783,"lon":5.37792,"is_reserved":false,"is_disabled":false,"rental_uris":{"android":"levelo://app?vid=9c47baf8-7f9e-4305-8023-bd25eb98e284","ios":"levelo://app?vid=9c47baf8-7f9e-4305-8023-bd25eb98e284"},"vehicle_type_id":"4","last_reported":1746090632,"current_range_meters":9600,"station_id":"ce4bgm92rcd13ifvqbr0","pricing_plan_id":"cebpf4jnsgd1na2vs0mg"},{"bike_id":"5a33e662-0ec2-4cd2-b966-a07845024f8d","system_id":"levelo_inurba_marseille","lat":43.24178,"lon":5.39725,"is_reserved":false,"is_disabled":false,"rental_uris":{"android":"levelo://app?vid=5a33e662-0ec2-4cd2-b966-a07845024f8d","ios":"levelo://app?vid=5a33e662-0ec2-4cd2-b966-a07845024f8d"},"vehicle_type_id":"4","last_reported":1746090632,"current_range_meters":9600,"station_id":"ce4bhn12rcd13ifvqgpg","pricing_plan_id":"cebpf4jnsgd1na2vs0mg"},{"bike_id":"3ce5a6a0-7c75-4b93-962c-2dd6ababc3c9","system_id":"levelo_inurba_marseille","lat":43.22503,"lon":5.34772,"is_reserved":false,"is_disabled":false,"rental_uris":{"android":"levelo://app?vid=3ce5a6a0-7c75-4b93-962c-2dd6ababc3c9","ios":"levelo://app?vid=3ce5a6a0-7c75-4b93-962c-2dd6ababc3c9"},"vehicle_type_id":"4","last_reported":1746090632,"current_range_meters":9600,"station_id":"st_cvj5dfep6f1abm77gieg","pricing_plan_id":"cebpf4jnsgd1na2vs0mg"},{"bike_id":"a076933d-3a98-414c-b7e5-30c1a775a06f","system_id":"levelo_inurba_marseille","lat":43.31383,"lon":5.39093,"is_reserved":false,"is_disabled":false,"rental_uris":{"android":"levelo://app?vid=a076933d-3a98-414c-b7e5-30c1a775a06f","ios":"levelo://app?vid=a076933d-3a98-414c-b7e5-30c1a775a06f"},"vehicle_type_id":"4","last_reported":1746090632,"current_range_meters":10000,"station_id":"","pricing_plan_id":"cebpf4jnsgd1na2vs0mg"},{"bike_id":"52d228d7-3804-4a3f-b4dc-2d07504dd6e0","system_id":"levelo_inurba_marseille","lat":43.293,"lon":5.37458,"is_reserved":false,"is_disabled":false,"rental_uris":{"android":"levelo://app?vid=52d228d7-3804-4a3f-b4dc-2d07504dd6e0","ios":"levelo://app?vid=52d228d7-3804-4a3f-b4dc-2d07504dd6e0"},"vehicle_type_id":"4","last_reported":1746090632,"current_range_meters":10000,"station_id":"","pricing_plan_id":"cebpf4jnsgd1na2vs0mg"},{"bike_id":"e1ee3f9e-28fd-49da-aedd-408b27446dfc","system_id":"levelo_inurba_marseille","lat":43.30536,"lon":5.36714,"is_reserved":false,"is_disabled":false,"rental_uris":{"android":"levelo://app?vid=e1ee3f9e-28fd-49da-aedd-408b27446dfc","ios":"levelo://app?vid=e1ee3f9e-28fd-49da-aedd-408b27446dfc"},"vehicle_type_id":"4","last_reported":1746090632,"current_range_meters":10000,"station_id":"ce4bgrp2rcd13ifvqc9g","pricing_plan_id":"cebpf4jnsgd1na2vs0mg"},{"bike_id":"879a7270-da56-4b1b-9f35-e00e1f01e951","system_id":"levelo_inurba_marseille","lat":43.2841,"lon":5.34972,"is_reserved":false,"is_disabled":false,"rental_uris":{"android":"levelo://app?vid=879a7270-da56-4b1b-9f35-e00e1f01e951","ios":"levelo://app?vid=879a7270-da56-4b1b-9f35-e00e1f01e951"},"vehicle_type_id":"4","last_reported":1746090632,"current_range_meters":10000,"station_id":"ce4bhbh2rcd13ifvqepg","pricing_plan_id":"cebpf4jnsgd1na2vs0mg"},{"bike_id":"964d5cba-c592-41c0-9dcc-3fe22502149b","system_id":"levelo_inurba_marseille","lat":43.23959,"lon":5.36629,"is_reserved":false,"is_disabled":false,"rental_uris":{"android":"levelo://app?vid=964d5cba-c592-41c0-9dcc-3fe22502149b","ios":"levelo://app?vid=964d5cba-c592-41c0-9dcc-3fe22502149b"},"vehicle_type_id":"4","last_reported":1746090632,"current_range_meters":10000,"station_id":"ce4bhi12rcd13ifvqfp0","pricing_plan_id":"cebpf4jnsgd1na2vs0mg"},{"bike_id":"3716d17a-c495-4731-a70d-6de7f12ecef0","system_id":"levelo_inurba_marseille","lat":43.32338,"lon":5.38897,"is_reserved":false,"is_disabled":false,"rental_uris":{"android":"levelo://app?vid=3716d17a-c495-4731-a70d-6de7f12ecef0","ios":"levelo://app?vid=3716d17a-c495-4731-a70d-6de7f12ecef0"},"vehicle_type_id":"4","last_reported":1746090632,"current_range_meters":10000,"station_id":"ce4bhqp2rcd13ifvqhog","pricing_plan_id":"cebpf4jnsgd1na2vs0mg"},{"bike_id":"8ea0fb2d-e9c3-4bcd-a9d0-f938ec05acda","system_id":"levelo_inurba_marseille","lat":43.29618,"lon":5.37169,"is_reserved":false,"is_disabled":false,"rental_uris":{"android":"levelo://app?vid=8ea0fb2d-e9c3-4bcd-a9d0-f938ec05acda","ios":"levelo://app?vid=8ea0fb2d-e9c3-4bcd-a9d0-f938ec05acda"},"vehicle_type_id":"4","last_reported":1746090632,"current_range_meters":10800,"station_id":"ce4bgnh2rcd13ifvqc0g","pricing_plan_id":"cebpf4jnsgd1na2vs0mg"},{"bike_id":"c312f551-1284-478e-953b-0c148c226d59","system_id":"levelo_inurba_marseille","lat":43.3053,"lon":5.36554,"is_reserved":false,"is_disabled":false,"rental_uris":{"android":"levelo://app?vid=c312f551-1284-478e-953b-0c148c226d59","ios":"levelo://app?vid=c312f551-1284-478e-953b-0c148c226d59"},"vehicle_type_id":"4","last_reported":1746090632,"current_range_meters":10800,"station_id":"ce4bgs12rcd13ifvqcag","pricing_plan_id":"cebpf4jnsgd1na2vs0mg"},{"bike_id":"686755ed-e7a5-4d32-88e6-63da00eb21de","system_id":"levelo_inurba_marseille","lat":43.2315,"lon":5.4372,"is_reserved":false,"is_disabled":false,"rental_uris":{"android":"levelo://app?vid=686755ed-e7a5-4d32-88e6-63da00eb21de","ios":"levelo://app?vid=686755ed-e7a5-4d32-88e6-63da00eb21de"},"vehicle_type_id":"4","last_reported":1746090632,"current_range_meters":10800,"station_id":"ce4bhmp2rcd13ifvqgog","pricing_plan_id":"cebpf4jnsgd1na2vs0mg"},{"bike_id":"e1793f1e-a94b-46e8-96d1-06b7e46648a8","system_id":"levelo_inurba_marseille","lat":43.32367,"lon":5.38882,"is_reserved":false,"is_disabled":false,"rental_uris":{"android":"levelo://app?vid=e1793f1e-a94b-46e8-96d1-06b7e46648a8","ios":"levelo://app?vid=e1793f1e-a94b-46e8-96d1-06b7e46648a8"},"vehicle_type_id":"4","last_reported":1746090632,"current_range_meters":10800,"station_id":"ce4bhqp2rcd13ifvqhog","pricing_plan_id":"cebpf4jnsgd1na2vs0mg"},{"bike_id":"42979274-76ae-42a2-b009-8dde9f74aa65","system_id":"levelo_inurba_marseille","lat":43.33023,"lon":5.39033,"is_reserved":false,"is_disabled":false,"rental_uris":{"android":"levelo://app?vid=42979274-76ae-42a2-b009-8dde9f74aa65","ios":"levelo://app?vid=42979274-76ae-42a2-b009-8dde9f74aa65"},"vehicle_type_id":"4","last_reported":1746090632,"current_range_meters":10800,"station_id":"ce4bhr92rcd13ifvqhrg","pricing_plan_id":"cebpf4jnsgd1na2vs0mg"},{"bike_id":"c89af82b-d8de-4524-ac1f-cc5e38330d5b","system_id":"levelo_inurba_marseille","lat":43.32483,"lon":5.36574,"is_reserved":false,"is_disabled":false,"rental_uris":{"android":"levelo://app?vid=c89af82b-d8de-4524-ac1f-cc5e38330d5b","ios":"levelo://app?vid=c89af82b-d8de-4524-ac1f-cc5e38330d5b"},"vehicle_type_id":"4","last_reported":1746090632,"current_range_meters":10800,"station_id":"ce4bhs12rcd13ifvqhvg","pricing_plan_id":"cebpf4jnsgd1na2vs0mg"},{"bike_id":"5b35de44-5cb4-40c3-940c-8da2d2015e49","system_id":"levelo_inurba_marseille","lat":43.23195,"lon":5.35553,"is_reserved":false,"is_disabled":false,"rental_uris":{"android":"levelo://app?vid=5b35de44-5cb4-40c3-940c-8da2d2015e49","ios":"levelo://app?vid=5b35de44-5cb4-40c3-940c-8da2d2015e49"},"vehicle_type_id":"4","last_reported":1746090632,"current_range_meters":10800,"station_id":"ce4bhu92rcd13ifvqi70","pricing_plan_id":"cebpf4jnsgd1na2vs0mg"},{"bike_id":"042c4c71-e1ce-4750-b447-ddf1317c5423","system_id":"levelo_inurba_marseille","lat":43.24169,"lon":5.36391,"is_reserved":false,"is_disabled":false,"rental_uris":{"android":"levelo://app?vid=042c4c71-e1ce-4750-b447-ddf1317c5423","ios":"levelo://app?vid=042c4c71-e1ce-4750-b447-ddf1317c5423"},"vehicle_type_id":"4","last_reported":1746090632,"current_range_meters":10800,"station_id":"cpo36qri1sfpv3e86is0","pricing_plan_id":"cebpf4jnsgd1na2vs0mg"},{"bike_id":"f8d0ebe1-4407-4e04-bea5-c677058e1642","system_id":"levelo_inurba_marseille","lat":43.28267,"lon":5.35072,"is_reserved":false,"is_disabled":false,"rental_uris":{"android":"levelo://app?vid=f8d0ebe1-4407-4e04-bea5-c677058e1642","ios":"levelo://app?vid=f8d0ebe1-4407-4e04-bea5-c677058e1642"},"vehicle_type_id":"4","last_reported":1746090632,"current_range_meters":11200,"station_id":"ce4bhbp2rcd13ifvqerg","pricing_plan_id":"cebpf4jnsgd1na2vs0mg"},{"bike_id":"670ebefb-1fe5-432c-8d28-8f18bb97eaf3","system_id":"levelo_inurba_marseille","lat":43.26208,"lon":5.37439,"is_reserved":false,"is_disabled":false,"rental_uris":{"android":"levelo://app?vid=670ebefb-1fe5-432c-8d28-8f18bb97eaf3","ios":"levelo://app?vid=670ebefb-1fe5-432c-8d28-8f18bb97eaf3"},"vehicle_type_id":"4","last_reported":1746090632,"current_range_meters":11200,"station_id":"ce4bhgp2rcd13ifvqfc0","pricing_plan_id":"cebpf4jnsgd1na2vs0mg"},{"bike_id":"e3bb0f98-08b5-4dd7-9b8f-bbf72b6e2b19","system_id":"levelo_inurba_marseille","lat":43.23958,"lon":5.36642,"is_reserved":false,"is_disabled":false,"rental_uris":{"android":"levelo://app?vid=e3bb0f98-08b5-4dd7-9b8f-bbf72b6e2b19","ios":"levelo://app?vid=e3bb0f98-08b5-4dd7-9b8f-bbf72b6e2b19"},"vehicle_type_id":"4","last_reported":1746090632,"current_range_meters":11200,"station_id":"ce4bhi12rcd13ifvqfp0","pricing_plan_id":"cebpf4jnsgd1na2vs0mg"},{"bike_id":"d6831b15-be9f-4572-b4e0-abd8063d90fc","system_id":"levelo_inurba_marseille","lat":43.31748,"lon":5.39011,"is_reserved":false,"is_disabled":false,"rental_uris":{"android":"levelo://app?vid=d6831b15-be9f-4572-b4e0-abd8063d90fc","ios":"levelo://app?vid=d6831b15-be9f-4572-b4e0-abd8063d90fc"},"vehicle_type_id":"4","last_reported":1746090632,"current_range_meters":11200,"station_id":"ce4bhqp2rcd13ifvqhng","pricing_plan_id":"cebpf4jnsgd1na2vs0mg"},{"bike_id":"fd427e05-8ad1-4dac-ba3a-e42fe8245eb3","system_id":"levelo_inurba_marseille","lat":43.28411,"lon":5.34968,"is_reserved":false,"is_disabled":false,"rental_uris":{"android":"levelo://app?vid=fd427e05-8ad1-4dac-ba3a-e42fe8245eb3","ios":"levelo://app?vid=fd427e05-8ad1-4dac-ba3a-e42fe8245eb3"},"vehicle_type_id":"4","last_reported":1746090632,"current_range_meters":11600,"station_id":"ce4bhbh2rcd13ifvqepg","pricing_plan_id":"cebpf4jnsgd1na2vs0mg"},{"bike_id":"9e43dbdf-97fd-4e0b-8659-76c0eeecf214","system_id":"levelo_inurba_marseille","lat":43.25718,"lon":5.41102,"is_reserved":false,"is_disabled":false,"rental_uris":{"android":"levelo://app?vid=9e43dbdf-97fd-4e0b-8659-76c0eeecf214","ios":"levelo://app?vid=9e43dbdf-97fd-4e0b-8659-76c0eeecf214"},"vehicle_type_id":"4","last_reported":1746090632,"current_range_meters":11600,"station_id":"ce4bhkp2rcd13ifvqgd0","pricing_plan_id":"cebpf4jnsgd1na2vs0mg"},{"bike_id":"318cb1d4-544c-4fe1-8c88-88f732dadc14","system_id":"levelo_inurba_marseille","lat":43.2512,"lon":5.40318,"is_reserved":false,"is_disabled":false,"rental_uris":{"android":"levelo://app?vid=318cb1d4-544c-4fe1-8c88-88f732dadc14","ios":"levelo://app?vid=318cb1d4-544c-4fe1-8c88-88f732dadc14"},"vehicle_type_id":"4","last_reported":1746090632,"current_range_meters":11600,"station_id":"ce4bhlh2rcd13ifvqgig","pricing_plan_id":"cebpf4jnsgd1na2vs0mg"},{"bike_id":"a732b3d6-472a-46b2-b5fc-7d86a14ed2fc","system_id":"levelo_inurba_marseille","lat":43.33029,"lon":5.3903,"is_reserved":false,"is_disabled":false,"rental_uris":{"android":"levelo://app?vid=a732b3d6-472a-46b2-b5fc-7d86a14ed2fc","ios":"levelo://app?vid=a732b3d6-472a-46b2-b5fc-7d86a14ed2fc"},"vehicle_type_id":"4","last_reported":1746090632,"current_range_meters":11600,"station_id":"ce4bhr92rcd13ifvqhrg","pricing_plan_id":"cebpf4jnsgd1na2vs0mg"},{"bike_id":"b1615d54-af3d-405f-b5fa-93ba3a6e5e04","system_id":"levelo_inurba_marseille","lat":43.30167,"lon":5.38104,"is_reserved":false,"is_disabled":false,"rental_uris":{"android":"levelo://app?vid=b1615d54-af3d-405f-b5fa-93ba3a6e5e04","ios":"levelo://app?vid=b1615d54-af3d-405f-b5fa-93ba3a6e5e04"},"vehicle_type_id":"4","last_reported":1746090632,"current_range_meters":12000,"station_id":"ce4bgjp2rcd13ifvqbh0","pricing_plan_id":"cebpf4jnsgd1na2vs0mg"},{"bike_id":"c98081d8-a8ca-4358-a854-58dd7792fff1","system_id":"levelo_inurba_marseille","lat":43.27616,"lon":5.36099,"is_reserved":false,"is_disabled":false,"rental_uris":{"android":"levelo://app?vid=c98081d8-a8ca-4358-a854-58dd7792fff1","ios":"levelo://app?vid=c98081d8-a8ca-4358-a854-58dd7792fff1"},"vehicle_type_id":"4","last_reported":1746090632,"current_range_meters":12400,"station_id":"ce4bgj92rcd13ifvqbe0","pricing_plan_id":"cebpf4jnsgd1na2vs0mg"},{"bike_id":"e8fa9120-40eb-4703-871e-013e250566a3","system_id":"levelo_inurba_marseille","lat":43.28423,"lon":5.3498,"is_reserved":false,"is_disabled":false,"rental_uris":{"android":"levelo://app?vid=e8fa9120-40eb-4703-871e-013e250566a3","ios":"levelo://app?vid=e8fa9120-40eb-4703-871e-013e250566a3"},"vehicle_type_id":"4","last_reported":1746090632,"current_range_meters":12400,"station_id":"ce4bhbh2rcd13ifvqepg","pricing_plan_id":"cebpf4jnsgd1na2vs0mg"},{"bike_id":"4fc13aab-47ec-41bf-ba18-3346f7c81d19","system_id":"levelo_inurba_marseille","lat":43.33609,"lon":5.41051,"is_reserved":false,"is_disabled":false,"rental_uris":{"android":"levelo://app?vid=4fc13aab-47ec-41bf-ba18-3346f7c81d19","ios":"levelo://app?vid=4fc13aab-47ec-41bf-ba18-3346f7c81d19"},"vehicle_type_id":"4","last_reported":1746090632,"current_range_meters":12400,"station_id":"ce4bhqh2rcd13ifvqhmg","pricing_plan_id":"cebpf4jnsgd1na2vs0mg"},{"bike_id":"2c27a7a2-3425-4bc8-8800-38779687dcb9","system_id":"levelo_inurba_marseille","lat":43.23058,"lon":5.35499,"is_reserved":false,"is_disabled":false,"rental_uris":{"android":"levelo://app?vid=2c27a7a2-3425-4bc8-8800-38779687dcb9","ios":"levelo://app?vid=2c27a7a2-3425-4bc8-8800-38779687dcb9"},"vehicle_type_id":"4","last_reported":1746090632,"current_range_meters":12400,"station_id":"cpo3342slgdg3j2ifvpg","pricing_plan_id":"cebpf4jnsgd1na2vs0mg"},{"bike_id":"34b484ab-c0f1-4e55-b51a-e2bafdafb63e","system_id":"levelo_inurba_marseille","lat":43.230573,"lon":5.354914,"is_reserved":false,"is_disabled":false,"rental_uris":{"android":"levelo://app?vid=34b484ab-c0f1-4e55-b51a-e2bafdafb63e","ios":"levelo://app?vid=34b484ab-c0f1-4e55-b51a-e2bafdafb63e"},"vehicle_type_id":"4","last_reported":1746090632,"current_range_meters":12400,"station_id":"cpo3342slgdg3j2ifvpg","pricing_plan_id":"cebpf4jnsgd1na2vs0mg"},{"bike_id":"6d7b213b-4449-4477-8ebc-9bcc58a5e565","system_id":"levelo_inurba_marseille","lat":43.22925,"lon":5.35386,"is_reserved":false,"is_disabled":false,"rental_uris":{"android":"levelo://app?vid=6d7b213b-4449-4477-8ebc-9bcc58a5e565","ios":"levelo://app?vid=6d7b213b-4449-4477-8ebc-9bcc58a5e565"},"vehicle_type_id":"4","last_reported":1746090632,"current_range_meters":12400,"station_id":"cpo3532slgdg3j2ikp40","pricing_plan_id":"cebpf4jnsgd1na2vs0mg"},{"bike_id":"7940bc1b-eaa7-4f49-a435-46dc9391f6a1","system_id":"levelo_inurba_marseille","lat":43.21184,"lon":5.35074,"is_reserved":false,"is_disabled":false,"rental_uris":{"android":"levelo://app?vid=7940bc1b-eaa7-4f49-a435-46dc9391f6a1","ios":"levelo://app?vid=7940bc1b-eaa7-4f49-a435-46dc9391f6a1"},"vehicle_type_id":"4","last_reported":1746090632,"current_range_meters":12400,"station_id":"st_cvj6sg6p6f1abm77japg","pricing_plan_id":"cebpf4jnsgd1na2vs0mg"},{"bike_id":"0602cf4b-4db4-48c2-a5d3-0aa7c3a32d80","system_id":"levelo_inurba_marseille","lat":43.27379,"lon":5.36258,"is_reserved":false,"is_disabled":false,"rental_uris":{"android":"levelo://app?vid=0602cf4b-4db4-48c2-a5d3-0aa7c3a32d80","ios":"levelo://app?vid=0602cf4b-4db4-48c2-a5d3-0aa7c3a32d80"},"vehicle_type_id":"4","last_reported":1746090632,"current_range_meters":12800,"station_id":"ce4bhbh2rcd13ifvqeo0","pricing_plan_id":"cebpf4jnsgd1na2vs0mg"},{"bike_id":"f4559dc5-0c48-4a56-860c-146ac55fb15e","system_id":"levelo_inurba_marseille","lat":43.26032,"lon":5.37544,"is_reserved":false,"is_disabled":false,"rental_uris":{"android":"levelo://app?vid=f4559dc5-0c48-4a56-860c-146ac55fb15e","ios":"levelo://app?vid=f4559dc5-0c48-4a56-860c-146ac55fb15e"},"vehicle_type_id":"4","last_reported":1746090632,"current_range_meters":12800,"station_id":"ce4bhgh2rcd13ifvqfa0","pricing_plan_id":"cebpf4jnsgd1na2vs0mg"},{"bike_id":"2fab73d2-cef0-485f-94c0-49d3e5fcaea5","system_id":"levelo_inurba_marseille","lat":43.23196,"lon":5.40015,"is_reserved":false,"is_disabled":false,"rental_uris":{"android":"levelo://app?vid=2fab73d2-cef0-485f-94c0-49d3e5fcaea5","ios":"levelo://app?vid=2fab73d2-cef0-485f-94c0-49d3e5fcaea5"},"vehicle_type_id":"4","last_reported":1746090632,"current_range_meters":12800,"station_id":"ce4bhn12rcd13ifvqgqg","pricing_plan_id":"cebpf4jnsgd1na2vs0mg"},{"bike_id":"fd7875a1-1cd0-47f8-880b-6ef58a6b7e2e","system_id":"levelo_inurba_marseille","lat":43.229368,"lon":5.354001,"is_reserved":false,"is_disabled":false,"rental_uris":{"android":"levelo://app?vid=fd7875a1-1cd0-47f8-880b-6ef58a6b7e2e","ios":"levelo://app?vid=fd7875a1-1cd0-47f8-880b-6ef58a6b7e2e"},"vehicle_type_id":"4","last_reported":1746090632,"current_range_meters":12800,"station_id":"cpo3532slgdg3j2ikp40","pricing_plan_id":"cebpf4jnsgd1na2vs0mg"},{"bike_id":"e3e4c8e8-fe96-473e-86f3-831b4a5d61c0","system_id":"levelo_inurba_marseille","lat":43.27374,"lon":5.36252,"is_reserved":false,"is_disabled":false,"rental_uris":{"android":"levelo://app?vid=e3e4c8e8-fe96-473e-86f3-831b4a5d61c0","ios":"levelo://app?vid=e3e4c8e8-fe96-473e-86f3-831b4a5d61c0"},"vehicle_type_id":"4","last_reported":1746090632,"current_range_meters":13600,"station_id":"ce4bhbh2rcd13ifvqeo0","pricing_plan_id":"cebpf4jnsgd1na2vs0mg"},{"bike_id":"f7a4e38e-d5aa-4ad2-83a1-36d88fd5aa7f","system_id":"levelo_inurba_marseille","lat":43.25725,"lon":5.41099,"is_reserved":false,"is_disabled":false,"rental_uris":{"android":"levelo://app?vid=f7a4e38e-d5aa-4ad2-83a1-36d88fd5aa7f","ios":"levelo://app?vid=f7a4e38e-d5aa-4ad2-83a1-36d88fd5aa7f"},"vehicle_type_id":"4","last_reported":1746090632,"current_range_meters":13600,"station_id":"ce4bhkp2rcd13ifvqgd0","pricing_plan_id":"cebpf4jnsgd1na2vs0mg"},{"bike_id":"641ff1dc-31d8-4919-9229-d2737245cf00","system_id":"levelo_inurba_marseille","lat":43.23151,"lon":5.4372,"is_reserved":false,"is_disabled":false,"rental_uris":{"android":"levelo://app?vid=641ff1dc-31d8-4919-9229-d2737245cf00","ios":"levelo://app?vid=641ff1dc-31d8-4919-9229-d2737245cf00"},"vehicle_type_id":"4","last_reported":1746090632,"current_range_meters":13600,"station_id":"ce4bhmp2rcd13ifvqgog","pricing_plan_id":"cebpf4jnsgd1na2vs0mg"},{"bike_id":"e63a3eca-639d-43d6-a658-244e1bfd0876","system_id":"levelo_inurba_marseille","lat":43.231506,"lon":5.437157,"is_reserved":false,"is_disabled":false,"rental_uris":{"android":"levelo://app?vid=e63a3eca-639d-43d6-a658-244e1bfd0876","ios":"levelo://app?vid=e63a3eca-639d-43d6-a658-244e1bfd0876"},"vehicle_type_id":"4","last_reported":1746090632,"current_range_meters":14000,"station_id":"ce4bhmp2rcd13ifvqgog","pricing_plan_id":"cebpf4jnsgd1na2vs0mg"},{"bike_id":"5a4a7493-c020-45c9-a67f-09ebde2403c9","system_id":"levelo_inurba_marseille","lat":43.23189,"lon":5.35546,"is_reserved":false,"is_disabled":false,"rental_uris":{"android":"levelo://app?vid=5a4a7493-c020-45c9-a67f-09ebde2403c9","ios":"levelo://app?vid=5a4a7493-c020-45c9-a67f-09ebde2403c9"},"vehicle_type_id":"4","last_reported":1746090632,"current_range_meters":14000,"station_id":"ce4bhu92rcd13ifvqi70","pricing_plan_id":"cebpf4jnsgd1na2vs0mg"},{"bike_id":"f649bbcf-f1ec-41ae-9810-4157e3752ba7","system_id":"levelo_inurba_marseille","lat":43.31438,"lon":5.37379,"is_reserved":false,"is_disabled":false,"rental_uris":{"android":"levelo://app?vid=f649bbcf-f1ec-41ae-9810-4157e3752ba7","ios":"levelo://app?vid=f649bbcf-f1ec-41ae-9810-4157e3752ba7"},"vehicle_type_id":"4","last_reported":1746090632,"current_range_meters":14400,"station_id":"","pricing_plan_id":"cebpf4jnsgd1na2vs0mg"},{"bike_id":"c9755b13-99d0-4688-a560-68a962d183b8","system_id":"levelo_inurba_marseille","lat":43.28721,"lon":5.37938,"is_reserved":false,"is_disabled":false,"rental_uris":{"android":"levelo://app?vid=c9755b13-99d0-4688-a560-68a962d183b8","ios":"levelo://app?vid=c9755b13-99d0-4688-a560-68a962d183b8"},"vehicle_type_id":"4","last_reported":1746090632,"current_range_meters":14400,"station_id":"ce4bh9p2rcd13ifvqec0","pricing_plan_id":"cebpf4jnsgd1na2vs0mg"},{"bike_id":"6ce984c5-5cff-4670-b402-bc16087bc4c0","system_id":"levelo_inurba_marseille","lat":43.25112,"lon":5.40323,"is_reserved":false,"is_disabled":false,"rental_uris":{"android":"levelo://app?vid=6ce984c5-5cff-4670-b402-bc16087bc4c0","ios":"levelo://app?vid=6ce984c5-5cff-4670-b402-bc16087bc4c0"},"vehicle_type_id":"4","last_reported":1746090632,"current_range_meters":14400,"station_id":"ce4bhlh2rcd13ifvqgig","pricing_plan_id":"cebpf4jnsgd1na2vs0mg"},{"bike_id":"c1962ba5-8a91-4a1c-91ee-96111ce7c7be","system_id":"levelo_inurba_marseille","lat":43.23058,"lon":5.35485,"is_reserved":false,"is_disabled":false,"rental_uris":{"android":"levelo://app?vid=c1962ba5-8a91-4a1c-91ee-96111ce7c7be","ios":"levelo://app?vid=c1962ba5-8a91-4a1c-91ee-96111ce7c7be"},"vehicle_type_id":"4","last_reported":1746090632,"current_range_meters":14800,"station_id":"","pricing_plan_id":"cebpf4jnsgd1na2vs0mg"},{"bike_id":"2c4e9a38-45ce-47ed-9e92-df5ce99e8715","system_id":"levelo_inurba_marseille","lat":43.23153,"lon":5.43711,"is_reserved":false,"is_disabled":false,"rental_uris":{"android":"levelo://app?vid=2c4e9a38-45ce-47ed-9e92-df5ce99e8715","ios":"levelo://app?vid=2c4e9a38-45ce-47ed-9e92-df5ce99e8715"},"vehicle_type_id":"4","last_reported":1746090632,"current_range_meters":14800,"station_id":"ce4bhmp2rcd13ifvqgog","pricing_plan_id":"cebpf4jnsgd1na2vs0mg"},{"bike_id":"b58385b2-d1b2-4ecc-af75-eb7cf4772905","system_id":"levelo_inurba_marseille","lat":43.23072,"lon":5.35486,"is_reserved":false,"is_disabled":false,"rental_uris":{"android":"levelo://app?vid=b58385b2-d1b2-4ecc-af75-eb7cf4772905","ios":"levelo://app?vid=b58385b2-d1b2-4ecc-af75-eb7cf4772905"},"vehicle_type_id":"4","last_reported":1746090632,"current_range_meters":14800,"station_id":"cpo3342slgdg3j2ifvpg","pricing_plan_id":"cebpf4jnsgd1na2vs0mg"},{"bike_id":"bba31c47-23e6-47b3-9cdc-9e3a80be600e","system_id":"levelo_inurba_marseille","lat":43.24168,"lon":5.3639,"is_reserved":false,"is_disabled":false,"rental_uris":{"android":"levelo://app?vid=bba31c47-23e6-47b3-9cdc-9e3a80be600e","ios":"levelo://app?vid=bba31c47-23e6-47b3-9cdc-9e3a80be600e"},"vehicle_type_id":"4","last_reported":1746090632,"current_range_meters":14800,"station_id":"cpo36qri1sfpv3e86is0","pricing_plan_id":"cebpf4jnsgd1na2vs0mg"},{"bike_id":"b5ca6c28-779d-4f21-855b-4b69c4765d74","system_id":"levelo_inurba_marseille","lat":43.27371,"lon":5.36258,"is_reserved":false,"is_disabled":false,"rental_uris":{"android":"levelo://app?vid=b5ca6c28-779d-4f21-855b-4b69c4765d74","ios":"levelo://app?vid=b5ca6c28-779d-4f21-855b-4b69c4765d74"},"vehicle_type_id":"4","last_reported":1746090632,"current_range_meters":15200,"station_id":"ce4bhbh2rcd13ifvqeo0","pricing_plan_id":"cebpf4jnsgd1na2vs0mg"},{"bike_id":"9684cabb-e20e-4e24-8e99-d559277584d3","system_id":"levelo_inurba_marseille","lat":43.26212,"lon":5.37438,"is_reserved":false,"is_disabled":false,"rental_uris":{"android":"levelo://app?vid=9684cabb-e20e-4e24-8e99-d559277584d3","ios":"levelo://app?vid=9684cabb-e20e-4e24-8e99-d559277584d3"},"vehicle_type_id":"4","last_reported":1746090632,"current_range_meters":15200,"station_id":"ce4bhgp2rcd13ifvqfc0","pricing_plan_id":"cebpf4jnsgd1na2vs0mg"},{"bike_id":"3d490464-bda9-4ada-a302-8889d23f7a56","system_id":"levelo_inurba_marseille","lat":43.23966,"lon":5.36627,"is_reserved":false,"is_disabled":false,"rental_uris":{"android":"levelo://app?vid=3d490464-bda9-4ada-a302-8889d23f7a56","ios":"levelo://app?vid=3d490464-bda9-4ada-a302-8889d23f7a56"},"vehicle_type_id":"4","last_reported":1746090632,"current_range_meters":15200,"station_id":"ce4bhi12rcd13ifvqfp0","pricing_plan_id":"cebpf4jnsgd1na2vs0mg"},{"bike_id":"0c2fd97a-a68c-4bff-8f09-402b6ba070c9","system_id":"levelo_inurba_marseille","lat":43.33603,"lon":5.40996,"is_reserved":false,"is_disabled":false,"rental_uris":{"android":"levelo://app?vid=0c2fd97a-a68c-4bff-8f09-402b6ba070c9","ios":"levelo://app?vid=0c2fd97a-a68c-4bff-8f09-402b6ba070c9"},"vehicle_type_id":"4","last_reported":1746090632,"current_range_meters":15200,"station_id":"ce4bhqh2rcd13ifvqhmg","pricing_plan_id":"cebpf4jnsgd1na2vs0mg"},{"bike_id":"2e1ce04f-74c7-4d68-a96b-b9dc1d6897ee","system_id":"levelo_inurba_marseille","lat":43.32287,"lon":5.382821,"is_reserved":false,"is_disabled":false,"rental_uris":{"android":"levelo://app?vid=2e1ce04f-74c7-4d68-a96b-b9dc1d6897ee","ios":"levelo://app?vid=2e1ce04f-74c7-4d68-a96b-b9dc1d6897ee"},"vehicle_type_id":"4","last_reported":1746090632,"current_range_meters":16000,"station_id":"ce4bhr12rcd13ifvqhqg","pricing_plan_id":"cebpf4jnsgd1na2vs0mg"},{"bike_id":"0b9ac188-19a7-4ad4-8279-34f1318ce56d","system_id":"levelo_inurba_marseille","lat":43.31287,"lon":5.37747,"is_reserved":false,"is_disabled":false,"rental_uris":{"android":"levelo://app?vid=0b9ac188-19a7-4ad4-8279-34f1318ce56d","ios":"levelo://app?vid=0b9ac188-19a7-4ad4-8279-34f1318ce56d"},"vehicle_type_id":"4","last_reported":1746090632,"current_range_meters":16400,"station_id":"","pricing_plan_id":"cebpf4jnsgd1na2vs0mg"},{"bike_id":"2e2e5efe-f419-451f-916b-a8e851606328","system_id":"levelo_inurba_marseille","lat":43.28411,"lon":5.34973,"is_reserved":false,"is_disabled":false,"rental_uris":{"android":"levelo://app?vid=2e2e5efe-f419-451f-916b-a8e851606328","ios":"levelo://app?vid=2e2e5efe-f419-451f-916b-a8e851606328"},"vehicle_type_id":"4","last_reported":1746090632,"current_range_meters":16400,"station_id":"ce4bhbh2rcd13ifvqepg","pricing_plan_id":"cebpf4jnsgd1na2vs0mg"},{"bike_id":"44a36177-ddf4-478d-a23e-c13d69f00365","system_id":"levelo_inurba_marseille","lat":43.27205,"lon":5.39181,"is_reserved":false,"is_disabled":false,"rental_uris":{"android":"levelo://app?vid=44a36177-ddf4-478d-a23e-c13d69f00365","ios":"levelo://app?vid=44a36177-ddf4-478d-a23e-c13d69f00365"},"vehicle_type_id":"4","last_reported":1746090632,"current_range_meters":16400,"station_id":"ce4bhhp2rcd13ifvqfm0","pricing_plan_id":"cebpf4jnsgd1na2vs0mg"},{"bike_id":"b1b4d74f-092b-476b-abae-f60870c92748","system_id":"levelo_inurba_marseille","lat":43.25109,"lon":5.39499,"is_reserved":false,"is_disabled":false,"rental_uris":{"android":"levelo://app?vid=b1b4d74f-092b-476b-abae-f60870c92748","ios":"levelo://app?vid=b1b4d74f-092b-476b-abae-f60870c92748"},"vehicle_type_id":"4","last_reported":1746090632,"current_range_meters":16400,"station_id":"ce4bhm12rcd13ifvqgkg","pricing_plan_id":"cebpf4jnsgd1na2vs0mg"},{"bike_id":"60d66906-5a10-478f-b402-b946fecadb9f","system_id":"levelo_inurba_marseille","lat":43.33605,"lon":5.41024,"is_reserved":false,"is_disabled":false,"rental_uris":{"android":"levelo://app?vid=60d66906-5a10-478f-b402-b946fecadb9f","ios":"levelo://app?vid=60d66906-5a10-478f-b402-b946fecadb9f"},"vehicle_type_id":"4","last_reported":1746090632,"current_range_meters":16400,"station_id":"ce4bhqh2rcd13ifvqhmg","pricing_plan_id":"cebpf4jnsgd1na2vs0mg"},{"bike_id":"314c570d-d342-4e1f-93ca-be55bfbed314","system_id":"levelo_inurba_marseille","lat":43.30753,"lon":5.42446,"is_reserved":false,"is_disabled":false,"rental_uris":{"android":"levelo://app?vid=314c570d-d342-4e1f-93ca-be55bfbed314","ios":"levelo://app?vid=314c570d-d342-4e1f-93ca-be55bfbed314"},"vehicle_type_id":"4","last_reported":1746090632,"current_range_meters":16400,"station_id":"st_cvj6ca6bvosntc0bfgr0","pricing_plan_id":"cebpf4jnsgd1na2vs0mg"},{"bike_id":"125fb1d4-bc1b-48b5-a3ae-465bf16864ef","system_id":"levelo_inurba_marseille","lat":43.29618,"lon":5.37147,"is_reserved":false,"is_disabled":false,"rental_uris":{"android":"levelo://app?vid=125fb1d4-bc1b-48b5-a3ae-465bf16864ef","ios":"levelo://app?vid=125fb1d4-bc1b-48b5-a3ae-465bf16864ef"},"vehicle_type_id":"4","last_reported":1746090632,"current_range_meters":16800,"station_id":"ce4bgnh2rcd13ifvqc0g","pricing_plan_id":"cebpf4jnsgd1na2vs0mg"},{"bike_id":"8d17b367-8061-4c82-8409-5df859a79302","system_id":"levelo_inurba_marseille","lat":43.31991,"lon":5.38134,"is_reserved":false,"is_disabled":false,"rental_uris":{"android":"levelo://app?vid=8d17b367-8061-4c82-8409-5df859a79302","ios":"levelo://app?vid=8d17b367-8061-4c82-8409-5df859a79302"},"vehicle_type_id":"4","last_reported":1746090632,"current_range_meters":16800,"station_id":"ce4bhr12rcd13ifvqhpg","pricing_plan_id":"cebpf4jnsgd1na2vs0mg"},{"bike_id":"12c5aaeb-65a0-44f7-8d26-5a600f96adfa","system_id":"levelo_inurba_marseille","lat":43.24166,"lon":5.36391,"is_reserved":false,"is_disabled":false,"rental_uris":{"android":"levelo://app?vid=12c5aaeb-65a0-44f7-8d26-5a600f96adfa","ios":"levelo://app?vid=12c5aaeb-65a0-44f7-8d26-5a600f96adfa"},"vehicle_type_id":"4","last_reported":1746090632,"current_range_meters":16800,"station_id":"cpo36qri1sfpv3e86is0","pricing_plan_id":"cebpf4jnsgd1na2vs0mg"},{"bike_id":"0bffff10-143f-4e3c-87dd-e93d6fc37079","system_id":"levelo_inurba_marseille","lat":43.28423,"lon":5.34982,"is_reserved":false,"is_disabled":false,"rental_uris":{"android":"levelo://app?vid=0bffff10-143f-4e3c-87dd-e93d6fc37079","ios":"levelo://app?vid=0bffff10-143f-4e3c-87dd-e93d6fc37079"},"vehicle_type_id":"4","last_reported":1746090632,"current_range_meters":17200,"station_id":"ce4bhbh2rcd13ifvqepg","pricing_plan_id":"cebpf4jnsgd1na2vs0mg"},{"bike_id":"b6022554-c431-4036-b938-696455c724a1","system_id":"levelo_inurba_marseille","lat":43.28269,"lon":5.35067,"is_reserved":false,"is_disabled":false,"rental_uris":{"android":"levelo://app?vid=b6022554-c431-4036-b938-696455c724a1","ios":"levelo://app?vid=b6022554-c431-4036-b938-696455c724a1"},"vehicle_type_id":"4","last_reported":1746090632,"current_range_meters":17200,"station_id":"ce4bhbp2rcd13ifvqerg","pricing_plan_id":"cebpf4jnsgd1na2vs0mg"},{"bike_id":"e8564f25-0b42-467b-a99f-93cb23865b7b","system_id":"levelo_inurba_marseille","lat":43.23964,"lon":5.36629,"is_reserved":false,"is_disabled":false,"rental_uris":{"android":"levelo://app?vid=e8564f25-0b42-467b-a99f-93cb23865b7b","ios":"levelo://app?vid=e8564f25-0b42-467b-a99f-93cb23865b7b"},"vehicle_type_id":"4","last_reported":1746090632,"current_range_meters":17200,"station_id":"ce4bhi12rcd13ifvqfp0","pricing_plan_id":"cebpf4jnsgd1na2vs0mg"},{"bike_id":"494828d9-50d1-4fda-9c92-909f122894a0","system_id":"levelo_inurba_marseille","lat":43.23966,"lon":5.36628,"is_reserved":false,"is_disabled":false,"rental_uris":{"android":"levelo://app?vid=494828d9-50d1-4fda-9c92-909f122894a0","ios":"levelo://app?vid=494828d9-50d1-4fda-9c92-909f122894a0"},"vehicle_type_id":"4","last_reported":1746090632,"current_range_meters":17200,"station_id":"ce4bhi12rcd13ifvqfp0","pricing_plan_id":"cebpf4jnsgd1na2vs0mg"},{"bike_id":"33fac4a5-e169-4241-a55a-64a5c337bdfe","system_id":"levelo_inurba_marseille","lat":43.23143,"lon":5.43725,"is_reserved":false,"is_disabled":false,"rental_uris":{"android":"levelo://app?vid=33fac4a5-e169-4241-a55a-64a5c337bdfe","ios":"levelo://app?vid=33fac4a5-e169-4241-a55a-64a5c337bdfe"},"vehicle_type_id":"4","last_reported":1746090632,"current_range_meters":17200,"station_id":"ce4bhmp2rcd13ifvqgog","pricing_plan_id":"cebpf4jnsgd1na2vs0mg"},{"bike_id":"1556515c-a632-436a-9dfa-0ef09d1673fe","system_id":"levelo_inurba_marseille","lat":43.2175,"lon":5.34597,"is_reserved":false,"is_disabled":false,"rental_uris":{"android":"levelo://app?vid=1556515c-a632-436a-9dfa-0ef09d1673fe","ios":"levelo://app?vid=1556515c-a632-436a-9dfa-0ef09d1673fe"},"vehicle_type_id":"4","last_reported":1746090632,"current_range_meters":17200,"station_id":"st_cvj6r9ubvosntc0bgbag","pricing_plan_id":"cebpf4jnsgd1na2vs0mg"},{"bike_id":"8daef51c-0276-4dc3-9dae-ee17d20684be","system_id":"levelo_inurba_marseille","lat":43.21187,"lon":5.35068,"is_reserved":false,"is_disabled":false,"rental_uris":{"android":"levelo://app?vid=8daef51c-0276-4dc3-9dae-ee17d20684be","ios":"levelo://app?vid=8daef51c-0276-4dc3-9dae-ee17d20684be"},"vehicle_type_id":"4","last_reported":1746090632,"current_range_meters":17200,"station_id":"st_cvj6sg6p6f1abm77japg","pricing_plan_id":"cebpf4jnsgd1na2vs0mg"},{"bike_id":"0011e2fc-303f-4dfe-8d77-23cd9f07bc5b","system_id":"levelo_inurba_marseille","lat":43.29837,"lon":5.36277,"is_reserved":false,"is_disabled":false,"rental_uris":{"android":"levelo://app?vid=0011e2fc-303f-4dfe-8d77-23cd9f07bc5b","ios":"levelo://app?vid=0011e2fc-303f-4dfe-8d77-23cd9f07bc5b"},"vehicle_type_id":"4","last_reported":1746090632,"current_range_meters":17600,"station_id":"ce4bgpp2rcd13ifvqc3g","pricing_plan_id":"cebpf4jnsgd1na2vs0mg"},{"bike_id":"90c0fe2e-fa2e-4491-bee8-e5e853a91c16","system_id":"levelo_inurba_marseille","lat":43.28415,"lon":5.34975,"is_reserved":false,"is_disabled":false,"rental_uris":{"android":"levelo://app?vid=90c0fe2e-fa2e-4491-bee8-e5e853a91c16","ios":"levelo://app?vid=90c0fe2e-fa2e-4491-bee8-e5e853a91c16"},"vehicle_type_id":"4","last_reported":1746090632,"current_range_meters":17600,"station_id":"ce4bhbh2rcd13ifvqepg","pricing_plan_id":"cebpf4jnsgd1na2vs0mg"},{"bike_id":"72533343-08bc-4039-82ae-9da82b929efb","system_id":"levelo_inurba_marseille","lat":43.28417,"lon":5.34996,"is_reserved":false,"is_disabled":false,"rental_uris":{"android":"levelo://app?vid=72533343-08bc-4039-82ae-9da82b929efb","ios":"levelo://app?vid=72533343-08bc-4039-82ae-9da82b929efb"},"vehicle_type_id":"4","last_reported":1746090632,"current_range_meters":17600,"station_id":"ce4bhbh2rcd13ifvqepg","pricing_plan_id":"cebpf4jnsgd1na2vs0mg"},{"bike_id":"fd0ab90c-cc8a-440f-ad03-bc6ac1919eb1","system_id":"levelo_inurba_marseille","lat":43.28618,"lon":5.35096,"is_reserved":false,"is_disabled":false,"rental_uris":{"android":"levelo://app?vid=fd0ab90c-cc8a-440f-ad03-bc6ac1919eb1","ios":"levelo://app?vid=fd0ab90c-cc8a-440f-ad03-bc6ac1919eb1"},"vehicle_type_id":"4","last_reported":1746090632,"current_range_meters":17600,"station_id":"ce4bhch2rcd13ifvqeug","pricing_plan_id":"cebpf4jnsgd1na2vs0mg"},{"bike_id":"1df745d4-0069-4db7-abd4-09349c3242b1","system_id":"levelo_inurba_marseille","lat":43.26062,"lon":5.39392,"is_reserved":false,"is_disabled":false,"rental_uris":{"android":"levelo://app?vid=1df745d4-0069-4db7-abd4-09349c3242b1","ios":"levelo://app?vid=1df745d4-0069-4db7-abd4-09349c3242b1"},"vehicle_type_id":"4","last_reported":1746090632,"current_range_meters":17600,"station_id":"ce4bhh92rcd13ifvqfj0","pricing_plan_id":"cebpf4jnsgd1na2vs0mg"},{"bike_id":"921c29e1-3b3d-4567-ac70-227de00c7e79","system_id":"levelo_inurba_marseille","lat":43.33025,"lon":5.39042,"is_reserved":false,"is_disabled":false,"rental_uris":{"android":"levelo://app?vid=921c29e1-3b3d-4567-ac70-227de00c7e79","ios":"levelo://app?vid=921c29e1-3b3d-4567-ac70-227de00c7e79"},"vehicle_type_id":"4","last_reported":1746090632,"current_range_meters":17600,"station_id":"ce4bhr92rcd13ifvqhrg","pricing_plan_id":"cebpf4jnsgd1na2vs0mg"},{"bike_id":"34c6541a-451e-4a25-9f41-23b329707f46","system_id":"levelo_inurba_marseille","lat":43.2175,"lon":5.345973,"is_reserved":false,"is_disabled":false,"rental_uris":{"android":"levelo://app?vid=34c6541a-451e-4a25-9f41-23b329707f46","ios":"levelo://app?vid=34c6541a-451e-4a25-9f41-23b329707f46"},"vehicle_type_id":"4","last_reported":1746090632,"current_range_meters":17600,"station_id":"st_cvj6r9ubvosntc0bgbag","pricing_plan_id":"cebpf4jnsgd1na2vs0mg"},{"bike_id":"85526acc-28a7-4352-a4e7-3abd6a310fed","system_id":"levelo_inurba_marseille","lat":43.28271,"lon":5.3507,"is_reserved":false,"is_disabled":false,"rental_uris":{"android":"levelo://app?vid=85526acc-28a7-4352-a4e7-3abd6a310fed","ios":"levelo://app?vid=85526acc-28a7-4352-a4e7-3abd6a310fed"},"vehicle_type_id":"4","last_reported":1746090632,"current_range_meters":18000,"station_id":"ce4bhbp2rcd13ifvqerg","pricing_plan_id":"cebpf4jnsgd1na2vs0mg"},{"bike_id":"a95dba47-54c0-43ea-a02c-c422bc9aa61b","system_id":"levelo_inurba_marseille","lat":43.25085,"lon":5.39525,"is_reserved":false,"is_disabled":false,"rental_uris":{"android":"levelo://app?vid=a95dba47-54c0-43ea-a02c-c422bc9aa61b","ios":"levelo://app?vid=a95dba47-54c0-43ea-a02c-c422bc9aa61b"},"vehicle_type_id":"4","last_reported":1746090632,"current_range_meters":18000,"station_id":"ce4bhm12rcd13ifvqgkg","pricing_plan_id":"cebpf4jnsgd1na2vs0mg"},{"bike_id":"85698f70-1979-4c35-be6a-51b022a98d1c","system_id":"levelo_inurba_marseille","lat":43.32483,"lon":5.36553,"is_reserved":false,"is_disabled":false,"rental_uris":{"android":"levelo://app?vid=85698f70-1979-4c35-be6a-51b022a98d1c","ios":"levelo://app?vid=85698f70-1979-4c35-be6a-51b022a98d1c"},"vehicle_type_id":"4","last_reported":1746090632,"current_range_meters":18000,"station_id":"ce4bhs12rcd13ifvqhvg","pricing_plan_id":"cebpf4jnsgd1na2vs0mg"},{"bike_id":"c7b75ff6-c0be-4f80-94ba-f7afc11fa6b7","system_id":"levelo_inurba_marseille","lat":43.21748,"lon":5.34597,"is_reserved":false,"is_disabled":false,"rental_uris":{"android":"levelo://app?vid=c7b75ff6-c0be-4f80-94ba-f7afc11fa6b7","ios":"levelo://app?vid=c7b75ff6-c0be-4f80-94ba-f7afc11fa6b7"},"vehicle_type_id":"4","last_reported":1746090632,"current_range_meters":18000,"station_id":"st_cvj6r9ubvosntc0bgbag","pricing_plan_id":"cebpf4jnsgd1na2vs0mg"},{"bike_id":"7acef1b3-6154-45d7-9dd4-b4c37b4ddc94","system_id":"levelo_inurba_marseille","lat":43.304565,"lon":5.379036,"is_reserved":false,"is_disabled":false,"rental_uris":{"android":"levelo://app?vid=7acef1b3-6154-45d7-9dd4-b4c37b4ddc94","ios":"levelo://app?vid=7acef1b3-6154-45d7-9dd4-b4c37b4ddc94"},"vehicle_type_id":"4","last_reported":1746090632,"current_range_meters":18800,"station_id":"ce4bgup2rcd13ifvqcn0","pricing_plan_id":"cebpf4jnsgd1na2vs0mg"},{"bike_id":"f1740731-d944-4a59-b097-56e723689018","system_id":"levelo_inurba_marseille","lat":43.27374,"lon":5.36252,"is_reserved":false,"is_disabled":false,"rental_uris":{"android":"levelo://app?vid=f1740731-d944-4a59-b097-56e723689018","ios":"levelo://app?vid=f1740731-d944-4a59-b097-56e723689018"},"vehicle_type_id":"4","last_reported":1746090632,"current_range_meters":18800,"station_id":"ce4bhbh2rcd13ifvqeo0","pricing_plan_id":"cebpf4jnsgd1na2vs0mg"},{"bike_id":"909a9728-c785-4217-9e7c-d7a34a43e120","system_id":"levelo_inurba_marseille","lat":43.273756,"lon":5.362512,"is_reserved":false,"is_disabled":false,"rental_uris":{"android":"levelo://app?vid=909a9728-c785-4217-9e7c-d7a34a43e120","ios":"levelo://app?vid=909a9728-c785-4217-9e7c-d7a34a43e120"},"vehicle_type_id":"4","last_reported":1746090632,"current_range_meters":18800,"station_id":"ce4bhbh2rcd13ifvqeo0","pricing_plan_id":"cebpf4jnsgd1na2vs0mg"},{"bike_id":"cd1f00f1-de1f-4b99-b793-b6d2d379752c","system_id":"levelo_inurba_marseille","lat":43.25924,"lon":5.40892,"is_reserved":false,"is_disabled":false,"rental_uris":{"android":"levelo://app?vid=cd1f00f1-de1f-4b99-b793-b6d2d379752c","ios":"levelo://app?vid=cd1f00f1-de1f-4b99-b793-b6d2d379752c"},"vehicle_type_id":"4","last_reported":1746090632,"current_range_meters":18800,"station_id":"ce4bhm92rcd13ifvqglg","pricing_plan_id":"cebpf4jnsgd1na2vs0mg"},{"bike_id":"7c6dc1bf-0fa8-4cea-bdd8-7824d54eb30f","system_id":"levelo_inurba_marseille","lat":43.29901,"lon":5.43667,"is_reserved":false,"is_disabled":false,"rental_uris":{"android":"levelo://app?vid=7c6dc1bf-0fa8-4cea-bdd8-7824d54eb30f","ios":"levelo://app?vid=7c6dc1bf-0fa8-4cea-bdd8-7824d54eb30f"},"vehicle_type_id":"4","last_reported":1746090632,"current_range_meters":18800,"station_id":"ce4bhpp2rcd13ifvqhfg","pricing_plan_id":"cebpf4jnsgd1na2vs0mg"},{"bike_id":"3aeb961f-88b6-47fd-986a-c7b2a855fefd","system_id":"levelo_inurba_marseille","lat":43.23055,"lon":5.355,"is_reserved":false,"is_disabled":false,"rental_uris":{"android":"levelo://app?vid=3aeb961f-88b6-47fd-986a-c7b2a855fefd","ios":"levelo://app?vid=3aeb961f-88b6-47fd-986a-c7b2a855fefd"},"vehicle_type_id":"4","last_reported":1746090632,"current_range_meters":18800,"station_id":"cpo3342slgdg3j2ifvpg","pricing_plan_id":"cebpf4jnsgd1na2vs0mg"},{"bike_id":"677a381b-b527-42a3-b987-992902b9ea2d","system_id":"levelo_inurba_marseille","lat":43.23055,"lon":5.35526,"is_reserved":false,"is_disabled":false,"rental_uris":{"android":"levelo://app?vid=677a381b-b527-42a3-b987-992902b9ea2d","ios":"levelo://app?vid=677a381b-b527-42a3-b987-992902b9ea2d"},"vehicle_type_id":"4","last_reported":1746090632,"current_range_meters":18800,"station_id":"cpo3342slgdg3j2ifvpg","pricing_plan_id":"cebpf4jnsgd1na2vs0mg"},{"bike_id":"01e70913-f415-43f7-b4c3-7547eefa87ee","system_id":"levelo_inurba_marseille","lat":43.29,"lon":5.35618,"is_reserved":false,"is_disabled":false,"rental_uris":{"android":"levelo://app?vid=01e70913-f415-43f7-b4c3-7547eefa87ee","ios":"levelo://app?vid=01e70913-f415-43f7-b4c3-7547eefa87ee"},"vehicle_type_id":"4","last_reported":1746090632,"current_range_meters":19600,"station_id":"ce4bhb92rcd13ifvqen0","pricing_plan_id":"cebpf4jnsgd1na2vs0mg"},{"bike_id":"d6908747-ce50-4e8f-8698-de9857f641f5","system_id":"levelo_inurba_marseille","lat":43.28408,"lon":5.34973,"is_reserved":false,"is_disabled":false,"rental_uris":{"android":"levelo://app?vid=d6908747-ce50-4e8f-8698-de9857f641f5","ios":"levelo://app?vid=d6908747-ce50-4e8f-8698-de9857f641f5"},"vehicle_type_id":"4","last_reported":1746090632,"current_range_meters":19600,"station_id":"ce4bhbh2rcd13ifvqepg","pricing_plan_id":"cebpf4jnsgd1na2vs0mg"},{"bike_id":"de0effa7-025d-4bb6-832d-99f7f729e45b","system_id":"levelo_inurba_marseille","lat":43.24391,"lon":5.37052,"is_reserved":false,"is_disabled":false,"rental_uris":{"android":"levelo://app?vid=de0effa7-025d-4bb6-832d-99f7f729e45b","ios":"levelo://app?vid=de0effa7-025d-4bb6-832d-99f7f729e45b"},"vehicle_type_id":"4","last_reported":1746090632,"current_range_meters":19600,"station_id":"ce4bhhh2rcd13ifvqfk0","pricing_plan_id":"cebpf4jnsgd1na2vs0mg"},{"bike_id":"1877320e-14c4-4c2e-953a-26af85d421fe","system_id":"levelo_inurba_marseille","lat":43.231525,"lon":5.437147,"is_reserved":false,"is_disabled":false,"rental_uris":{"android":"levelo://app?vid=1877320e-14c4-4c2e-953a-26af85d421fe","ios":"levelo://app?vid=1877320e-14c4-4c2e-953a-26af85d421fe"},"vehicle_type_id":"4","last_reported":1746090632,"current_range_meters":20000,"station_id":"","pricing_plan_id":"cebpf4jnsgd1na2vs0mg"},{"bike_id":"797c8302-be0d-414b-ab1e-a0b36a449d32","system_id":"levelo_inurba_marseille","lat":43.28274,"lon":5.35057,"is_reserved":false,"is_disabled":false,"rental_uris":{"android":"levelo://app?vid=797c8302-be0d-414b-ab1e-a0b36a449d32","ios":"levelo://app?vid=797c8302-be0d-414b-ab1e-a0b36a449d32"},"vehicle_type_id":"4","last_reported":1746090632,"current_range_meters":20000,"station_id":"ce4bhbp2rcd13ifvqerg","pricing_plan_id":"cebpf4jnsgd1na2vs0mg"},{"bike_id":"9948b8c0-52d2-4eb8-8da4-a50a93afeb9b","system_id":"levelo_inurba_marseille","lat":43.22931,"lon":5.35374,"is_reserved":false,"is_disabled":false,"rental_uris":{"android":"levelo://app?vid=9948b8c0-52d2-4eb8-8da4-a50a93afeb9b","ios":"levelo://app?vid=9948b8c0-52d2-4eb8-8da4-a50a93afeb9b"},"vehicle_type_id":"4","last_reported":1746090632,"current_range_meters":20000,"station_id":"cpo3532slgdg3j2ikp40","pricing_plan_id":"cebpf4jnsgd1na2vs0mg"},{"bike_id":"d967f54c-b8c4-4d9f-87ef-b9d2e0cd1075","system_id":"levelo_inurba_marseille","lat":43.231873,"lon":5.35546,"is_reserved":false,"is_disabled":false,"rental_uris":{"android":"levelo://app?vid=d967f54c-b8c4-4d9f-87ef-b9d2e0cd1075","ios":"levelo://app?vid=d967f54c-b8c4-4d9f-87ef-b9d2e0cd1075"},"vehicle_type_id":"4","last_reported":1746090632,"current_range_meters":20400,"station_id":"ce4bhu92rcd13ifvqi70","pricing_plan_id":"cebpf4jnsgd1na2vs0mg"},{"bike_id":"1bb32af5-dba9-4659-a6a2-c5867e4e7119","system_id":"levelo_inurba_marseille","lat":43.31352,"lon":5.3849,"is_reserved":false,"is_disabled":false,"rental_uris":{"android":"levelo://app?vid=1bb32af5-dba9-4659-a6a2-c5867e4e7119","ios":"levelo://app?vid=1bb32af5-dba9-4659-a6a2-c5867e4e7119"},"vehicle_type_id":"4","last_reported":1746090632,"current_range_meters":20800,"station_id":"ce4bgt92rcd13ifvqcf0","pricing_plan_id":"cebpf4jnsgd1na2vs0mg"},{"bike_id":"9aa33079-0760-4d4c-9acb-154d0e0de6b5","system_id":"levelo_inurba_marseille","lat":43.24389,"lon":5.3705,"is_reserved":false,"is_disabled":false,"rental_uris":{"android":"levelo://app?vid=9aa33079-0760-4d4c-9acb-154d0e0de6b5","ios":"levelo://app?vid=9aa33079-0760-4d4c-9acb-154d0e0de6b5"},"vehicle_type_id":"4","last_reported":1746090632,"current_range_meters":20800,"station_id":"ce4bhhh2rcd13ifvqfk0","pricing_plan_id":"cebpf4jnsgd1na2vs0mg"},{"bike_id":"75199fed-4965-4dc3-9f43-6daa87122b48","system_id":"levelo_inurba_marseille","lat":43.25961,"lon":5.40909,"is_reserved":false,"is_disabled":false,"rental_uris":{"android":"levelo://app?vid=75199fed-4965-4dc3-9f43-6daa87122b48","ios":"levelo://app?vid=75199fed-4965-4dc3-9f43-6daa87122b48"},"vehicle_type_id":"4","last_reported":1746090632,"current_range_meters":20800,"station_id":"ce4bhm92rcd13ifvqglg","pricing_plan_id":"cebpf4jnsgd1na2vs0mg"},{"bike_id":"068cc841-7ef2-4e8e-92cb-4ea3b9e17d68","system_id":"levelo_inurba_marseille","lat":43.23153,"lon":5.43699,"is_reserved":false,"is_disabled":false,"rental_uris":{"android":"levelo://app?vid=068cc841-7ef2-4e8e-92cb-4ea3b9e17d68","ios":"levelo://app?vid=068cc841-7ef2-4e8e-92cb-4ea3b9e17d68"},"vehicle_type_id":"4","last_reported":1746090632,"current_range_meters":20800,"station_id":"ce4bhmp2rcd13ifvqgog","pricing_plan_id":"cebpf4jnsgd1na2vs0mg"},{"bike_id":"9e7d9b22-a99a-4ed5-a1b2-a841aaf7d648","system_id":"levelo_inurba_marseille","lat":43.29894,"lon":5.43666,"is_reserved":false,"is_disabled":false,"rental_uris":{"android":"levelo://app?vid=9e7d9b22-a99a-4ed5-a1b2-a841aaf7d648","ios":"levelo://app?vid=9e7d9b22-a99a-4ed5-a1b2-a841aaf7d648"},"vehicle_type_id":"4","last_reported":1746090632,"current_range_meters":20800,"station_id":"ce4bhpp2rcd13ifvqhfg","pricing_plan_id":"cebpf4jnsgd1na2vs0mg"},{"bike_id":"54b03df9-97f9-41e0-8f41-4a5c73cee75c","system_id":"levelo_inurba_marseille","lat":43.29895,"lon":5.43671,"is_reserved":false,"is_disabled":false,"rental_uris":{"android":"levelo://app?vid=54b03df9-97f9-41e0-8f41-4a5c73cee75c","ios":"levelo://app?vid=54b03df9-97f9-41e0-8f41-4a5c73cee75c"},"vehicle_type_id":"4","last_reported":1746090632,"current_range_meters":20800,"station_id":"ce4bhpp2rcd13ifvqhfg","pricing_plan_id":"cebpf4jnsgd1na2vs0mg"},{"bike_id":"d7a75358-1eb1-4297-882f-ef27c5dcc3e3","system_id":"levelo_inurba_marseille","lat":43.2872,"lon":5.36091,"is_reserved":false,"is_disabled":false,"rental_uris":{"android":"levelo://app?vid=d7a75358-1eb1-4297-882f-ef27c5dcc3e3","ios":"levelo://app?vid=d7a75358-1eb1-4297-882f-ef27c5dcc3e3"},"vehicle_type_id":"4","last_reported":1746090632,"current_range_meters":20800,"station_id":"cki0cbj6b192h4jlfktg","pricing_plan_id":"cebpf4jnsgd1na2vs0mg"},{"bike_id":"07454b12-16e7-4723-bf66-8d30a9c72f12","system_id":"levelo_inurba_marseille","lat":43.24162,"lon":5.36392,"is_reserved":false,"is_disabled":false,"rental_uris":{"android":"levelo://app?vid=07454b12-16e7-4723-bf66-8d30a9c72f12","ios":"levelo://app?vid=07454b12-16e7-4723-bf66-8d30a9c72f12"},"vehicle_type_id":"4","last_reported":1746090632,"current_range_meters":20800,"station_id":"cpo36qri1sfpv3e86is0","pricing_plan_id":"cebpf4jnsgd1na2vs0mg"},{"bike_id":"9269aea2-2b06-4d8a-8954-a9af1b488f25","system_id":"levelo_inurba_marseille","lat":43.30532,"lon":5.38425,"is_reserved":false,"is_disabled":false,"rental_uris":{"android":"levelo://app?vid=9269aea2-2b06-4d8a-8954-a9af1b488f25","ios":"levelo://app?vid=9269aea2-2b06-4d8a-8954-a9af1b488f25"},"vehicle_type_id":"4","last_reported":1746090632,"current_range_meters":21600,"station_id":"ce4bgg92rcd13ifvqb30","pricing_plan_id":"cebpf4jnsgd1na2vs0mg"},{"bike_id":"e2e8523c-4d1d-4036-a7de-906de1b4226a","system_id":"levelo_inurba_marseille","lat":43.29965,"lon":5.38483,"is_reserved":false,"is_disabled":false,"rental_uris":{"android":"levelo://app?vid=e2e8523c-4d1d-4036-a7de-906de1b4226a","ios":"levelo://app?vid=e2e8523c-4d1d-4036-a7de-906de1b4226a"},"vehicle_type_id":"4","last_reported":1746090632,"current_range_meters":21600,"station_id":"ce4bgj92rcd13ifvqbd0","pricing_plan_id":"cebpf4jnsgd1na2vs0mg"},{"bike_id":"317f1d3c-67d3-4f2b-af83-3132d63c7e52","system_id":"levelo_inurba_marseille","lat":43.29367,"lon":5.37842,"is_reserved":false,"is_disabled":false,"rental_uris":{"android":"levelo://app?vid=317f1d3c-67d3-4f2b-af83-3132d63c7e52","ios":"levelo://app?vid=317f1d3c-67d3-4f2b-af83-3132d63c7e52"},"vehicle_type_id":"4","last_reported":1746090632,"current_range_meters":21600,"station_id":"ce4bgjh2rcd13ifvqbf0","pricing_plan_id":"cebpf4jnsgd1na2vs0mg"},{"bike_id":"735d5b0a-b07a-42b6-9ca1-ad68b1dd40df","system_id":"levelo_inurba_marseille","lat":43.2603,"lon":5.37545,"is_reserved":false,"is_disabled":false,"rental_uris":{"android":"levelo://app?vid=735d5b0a-b07a-42b6-9ca1-ad68b1dd40df","ios":"levelo://app?vid=735d5b0a-b07a-42b6-9ca1-ad68b1dd40df"},"vehicle_type_id":"4","last_reported":1746090632,"current_range_meters":21600,"station_id":"ce4bhgh2rcd13ifvqfa0","pricing_plan_id":"cebpf4jnsgd1na2vs0mg"},{"bike_id":"e5c20201-7a50-4802-beb4-77f292621441","system_id":"levelo_inurba_marseille","lat":43.25575,"lon":5.3824,"is_reserved":false,"is_disabled":false,"rental_uris":{"android":"levelo://app?vid=e5c20201-7a50-4802-beb4-77f292621441","ios":"levelo://app?vid=e5c20201-7a50-4802-beb4-77f292621441"},"vehicle_type_id":"4","last_reported":1746090632,"current_range_meters":21600,"station_id":"ce4bhih2rcd13ifvqfs0","pricing_plan_id":"cebpf4jnsgd1na2vs0mg"},{"bike_id":"77a03c0a-3fe7-43c4-997c-d4c8fa7a3f56","system_id":"levelo_inurba_marseille","lat":43.32545,"lon":5.41437,"is_reserved":false,"is_disabled":false,"rental_uris":{"android":"levelo://app?vid=77a03c0a-3fe7-43c4-997c-d4c8fa7a3f56","ios":"levelo://app?vid=77a03c0a-3fe7-43c4-997c-d4c8fa7a3f56"},"vehicle_type_id":"4","last_reported":1746090632,"current_range_meters":21600,"station_id":"ce4bhq12rcd13ifvqhhg","pricing_plan_id":"cebpf4jnsgd1na2vs0mg"},{"bike_id":"a0b767f6-6270-4d49-b0d6-4b7a5a1d4a31","system_id":"levelo_inurba_marseille","lat":43.32044,"lon":5.4152,"is_reserved":false,"is_disabled":false,"rental_uris":{"android":"levelo://app?vid=a0b767f6-6270-4d49-b0d6-4b7a5a1d4a31","ios":"levelo://app?vid=a0b767f6-6270-4d49-b0d6-4b7a5a1d4a31"},"vehicle_type_id":"4","last_reported":1746090632,"current_range_meters":21600,"station_id":"ce4bhq92rcd13ifvqhkg","pricing_plan_id":"cebpf4jnsgd1na2vs0mg"},{"bike_id":"1274126c-8730-40fd-ae75-f9f7baf8e310","system_id":"levelo_inurba_marseille","lat":43.27372,"lon":5.36257,"is_reserved":false,"is_disabled":false,"rental_uris":{"android":"levelo://app?vid=1274126c-8730-40fd-ae75-f9f7baf8e310","ios":"levelo://app?vid=1274126c-8730-40fd-ae75-f9f7baf8e310"},"vehicle_type_id":"4","last_reported":1746090632,"current_range_meters":22400,"station_id":"ce4bhbh2rcd13ifvqeo0","pricing_plan_id":"cebpf4jnsgd1na2vs0mg"},{"bike_id":"d82c3879-4694-4702-bce8-d7f2a422a93e","system_id":"levelo_inurba_marseille","lat":43.23959,"lon":5.36624,"is_reserved":false,"is_disabled":false,"rental_uris":{"android":"levelo://app?vid=d82c3879-4694-4702-bce8-d7f2a422a93e","ios":"levelo://app?vid=d82c3879-4694-4702-bce8-d7f2a422a93e"},"vehicle_type_id":"4","last_reported":1746090632,"current_range_meters":22400,"station_id":"ce4bhi12rcd13ifvqfp0","pricing_plan_id":"cebpf4jnsgd1na2vs0mg"},{"bike_id":"22647033-ad8d-448a-bcdb-466183daee8e","system_id":"levelo_inurba_marseille","lat":43.21743,"lon":5.34598,"is_reserved":false,"is_disabled":false,"rental_uris":{"android":"levelo://app?vid=22647033-ad8d-448a-bcdb-466183daee8e","ios":"levelo://app?vid=22647033-ad8d-448a-bcdb-466183daee8e"},"vehicle_type_id":"4","last_reported":1746090632,"current_range_meters":22400,"station_id":"st_cvj6r9ubvosntc0bgbag","pricing_plan_id":"cebpf4jnsgd1na2vs0mg"},{"bike_id":"b6fbd6e4-836b-4feb-82be-b1fbb14ee47f","system_id":"levelo_inurba_marseille","lat":43.25706,"lon":5.41115,"is_reserved":false,"is_disabled":false,"rental_uris":{"android":"levelo://app?vid=b6fbd6e4-836b-4feb-82be-b1fbb14ee47f","ios":"levelo://app?vid=b6fbd6e4-836b-4feb-82be-b1fbb14ee47f"},"vehicle_type_id":"4","last_reported":1746090632,"current_range_meters":22800,"station_id":"ce4bhkp2rcd13ifvqgd0","pricing_plan_id":"cebpf4jnsgd1na2vs0mg"},{"bike_id":"5e5675f8-5a81-4edc-880d-685365054c1e","system_id":"levelo_inurba_marseille","lat":43.25102,"lon":5.40322,"is_reserved":false,"is_disabled":false,"rental_uris":{"android":"levelo://app?vid=5e5675f8-5a81-4edc-880d-685365054c1e","ios":"levelo://app?vid=5e5675f8-5a81-4edc-880d-685365054c1e"},"vehicle_type_id":"4","last_reported":1746090632,"current_range_meters":22800,"station_id":"ce4bhlh2rcd13ifvqgig","pricing_plan_id":"cebpf4jnsgd1na2vs0mg"},{"bike_id":"ea63ae32-0a55-44a7-9e05-ffe8b0f270cb","system_id":"levelo_inurba_marseille","lat":43.23179,"lon":5.39986,"is_reserved":false,"is_disabled":false,"rental_uris":{"android":"levelo://app?vid=ea63ae32-0a55-44a7-9e05-ffe8b0f270cb","ios":"levelo://app?vid=ea63ae32-0a55-44a7-9e05-ffe8b0f270cb"},"vehicle_type_id":"4","last_reported":1746090632,"current_range_meters":22800,"station_id":"ce4bhn12rcd13ifvqgqg","pricing_plan_id":"cebpf4jnsgd1na2vs0mg"},{"bike_id":"cce7d4cb-815a-43e8-a8ce-f16da69b88ef","system_id":"levelo_inurba_marseille","lat":43.3211,"lon":5.36782,"is_reserved":false,"is_disabled":false,"rental_uris":{"android":"levelo://app?vid=cce7d4cb-815a-43e8-a8ce-f16da69b88ef","ios":"levelo://app?vid=cce7d4cb-815a-43e8-a8ce-f16da69b88ef"},"vehicle_type_id":"4","last_reported":1746090632,"current_range_meters":22800,"station_id":"ce4bhrh2rcd13ifvqhug","pricing_plan_id":"cebpf4jnsgd1na2vs0mg"},{"bike_id":"94d4e8fc-3b03-43a2-b507-1893cb883275","system_id":"levelo_inurba_marseille","lat":43.321,"lon":5.36765,"is_reserved":false,"is_disabled":false,"rental_uris":{"android":"levelo://app?vid=94d4e8fc-3b03-43a2-b507-1893cb883275","ios":"levelo://app?vid=94d4e8fc-3b03-43a2-b507-1893cb883275"},"vehicle_type_id":"4","last_reported":1746090632,"current_range_meters":22800,"station_id":"ce4bhrh2rcd13ifvqhug","pricing_plan_id":"cebpf4jnsgd1na2vs0mg"},{"bike_id":"3a44d96b-725a-4a36-a006-4adae90cf9db","system_id":"levelo_inurba_marseille","lat":43.31544,"lon":5.38025,"is_reserved":false,"is_disabled":false,"rental_uris":{"android":"levelo://app?vid=3a44d96b-725a-4a36-a006-4adae90cf9db","ios":"levelo://app?vid=3a44d96b-725a-4a36-a006-4adae90cf9db"},"vehicle_type_id":"4","last_reported":1746090632,"current_range_meters":22800,"station_id":"ce4bhsp2rcd13ifvqi50","pricing_plan_id":"cebpf4jnsgd1na2vs0mg"},{"bike_id":"5dcc37b5-24d9-4561-bae2-fc451dc3e8cc","system_id":"levelo_inurba_marseille","lat":43.23968,"lon":5.36627,"is_reserved":false,"is_disabled":false,"rental_uris":{"android":"levelo://app?vid=5dcc37b5-24d9-4561-bae2-fc451dc3e8cc","ios":"levelo://app?vid=5dcc37b5-24d9-4561-bae2-fc451dc3e8cc"},"vehicle_type_id":"4","last_reported":1746090632,"current_range_meters":23200,"station_id":"ce4bhi12rcd13ifvqfp0","pricing_plan_id":"cebpf4jnsgd1na2vs0mg"},{"bike_id":"28df2600-79bc-4dc3-8d9c-99696277e4f0","system_id":"levelo_inurba_marseille","lat":43.27072,"lon":5.42275,"is_reserved":false,"is_disabled":false,"rental_uris":{"android":"levelo://app?vid=28df2600-79bc-4dc3-8d9c-99696277e4f0","ios":"levelo://app?vid=28df2600-79bc-4dc3-8d9c-99696277e4f0"},"vehicle_type_id":"4","last_reported":1746090632,"current_range_meters":23200,"station_id":"ce4bhk92rcd13ifvqgb0","pricing_plan_id":"cebpf4jnsgd1na2vs0mg"},{"bike_id":"bdd874bf-8b3d-4076-a712-d07e93d4641c","system_id":"levelo_inurba_marseille","lat":43.33017,"lon":5.39027,"is_reserved":false,"is_disabled":false,"rental_uris":{"android":"levelo://app?vid=bdd874bf-8b3d-4076-a712-d07e93d4641c","ios":"levelo://app?vid=bdd874bf-8b3d-4076-a712-d07e93d4641c"},"vehicle_type_id":"4","last_reported":1746090632,"current_range_meters":23200,"station_id":"ce4bhr92rcd13ifvqhrg","pricing_plan_id":"cebpf4jnsgd1na2vs0mg"},{"bike_id":"3c462008-3d06-4d97-a417-de654c9308be","system_id":"levelo_inurba_marseille","lat":43.26018,"lon":5.41732,"is_reserved":false,"is_disabled":false,"rental_uris":{"android":"levelo://app?vid=3c462008-3d06-4d97-a417-de654c9308be","ios":"levelo://app?vid=3c462008-3d06-4d97-a417-de654c9308be"},"vehicle_type_id":"4","last_reported":1746090632,"current_range_meters":24000,"station_id":"","pricing_plan_id":"cebpf4jnsgd1na2vs0mg"},{"bike_id":"80f37b6a-0501-4a49-868b-b115cc593366","system_id":"levelo_inurba_marseille","lat":43.27373,"lon":5.36246,"is_reserved":false,"is_disabled":false,"rental_uris":{"android":"levelo://app?vid=80f37b6a-0501-4a49-868b-b115cc593366","ios":"levelo://app?vid=80f37b6a-0501-4a49-868b-b115cc593366"},"vehicle_type_id":"4","last_reported":1746090632,"current_range_meters":24000,"station_id":"ce4bhbh2rcd13ifvqeo0","pricing_plan_id":"cebpf4jnsgd1na2vs0mg"},{"bike_id":"66c034d4-be46-4a76-aaed-b77fda9ef1c1","system_id":"levelo_inurba_marseille","lat":43.23143,"lon":5.43708,"is_reserved":false,"is_disabled":false,"rental_uris":{"android":"levelo://app?vid=66c034d4-be46-4a76-aaed-b77fda9ef1c1","ios":"levelo://app?vid=66c034d4-be46-4a76-aaed-b77fda9ef1c1"},"vehicle_type_id":"4","last_reported":1746090632,"current_range_meters":24000,"station_id":"ce4bhmp2rcd13ifvqgog","pricing_plan_id":"cebpf4jnsgd1na2vs0mg"},{"bike_id":"de21e26b-7bb1-4725-8f81-bd0f74c2453d","system_id":"levelo_inurba_marseille","lat":43.27839,"lon":5.35458,"is_reserved":false,"is_disabled":false,"rental_uris":{"android":"levelo://app?vid=de21e26b-7bb1-4725-8f81-bd0f74c2453d","ios":"levelo://app?vid=de21e26b-7bb1-4725-8f81-bd0f74c2453d"},"vehicle_type_id":"4","last_reported":1746090632,"current_range_meters":24400,"station_id":"","pricing_plan_id":"cebpf4jnsgd1na2vs0mg"},{"bike_id":"13a308e4-f442-40e8-9094-ee54d6d8bbd7","system_id":"levelo_inurba_marseille","lat":43.27374,"lon":5.36251,"is_reserved":false,"is_disabled":false,"rental_uris":{"android":"levelo://app?vid=13a308e4-f442-40e8-9094-ee54d6d8bbd7","ios":"levelo://app?vid=13a308e4-f442-40e8-9094-ee54d6d8bbd7"},"vehicle_type_id":"4","last_reported":1746090632,"current_range_meters":24400,"station_id":"ce4bhbh2rcd13ifvqeo0","pricing_plan_id":"cebpf4jnsgd1na2vs0mg"},{"bike_id":"80e82084-79f3-490f-8af7-b63d7f70bd8f","system_id":"levelo_inurba_marseille","lat":43.28424,"lon":5.34989,"is_reserved":false,"is_disabled":false,"rental_uris":{"android":"levelo://app?vid=80e82084-79f3-490f-8af7-b63d7f70bd8f","ios":"levelo://app?vid=80e82084-79f3-490f-8af7-b63d7f70bd8f"},"vehicle_type_id":"4","last_reported":1746090632,"current_range_meters":24400,"station_id":"ce4bhbh2rcd13ifvqepg","pricing_plan_id":"cebpf4jnsgd1na2vs0mg"},{"bike_id":"58acca62-4c7e-4809-9247-da651af89e52","system_id":"levelo_inurba_marseille","lat":43.2396,"lon":5.36628,"is_reserved":false,"is_disabled":false,"rental_uris":{"android":"levelo://app?vid=58acca62-4c7e-4809-9247-da651af89e52","ios":"levelo://app?vid=58acca62-4c7e-4809-9247-da651af89e52"},"vehicle_type_id":"4","last_reported":1746090632,"current_range_meters":24400,"station_id":"ce4bhi12rcd13ifvqfp0","pricing_plan_id":"cebpf4jnsgd1na2vs0mg"},{"bike_id":"46c889ec-fd6f-47a0-b1e3-ddcc69abd427","system_id":"levelo_inurba_marseille","lat":43.23149,"lon":5.43715,"is_reserved":false,"is_disabled":false,"rental_uris":{"android":"levelo://app?vid=46c889ec-fd6f-47a0-b1e3-ddcc69abd427","ios":"levelo://app?vid=46c889ec-fd6f-47a0-b1e3-ddcc69abd427"},"vehicle_type_id":"4","last_reported":1746090632,"current_range_meters":24400,"station_id":"ce4bhmp2rcd13ifvqgog","pricing_plan_id":"cebpf4jnsgd1na2vs0mg"},{"bike_id":"9c61b1fa-37f3-47ae-be35-121be2566d58","system_id":"levelo_inurba_marseille","lat":43.2306,"lon":5.35495,"is_reserved":false,"is_disabled":false,"rental_uris":{"android":"levelo://app?vid=9c61b1fa-37f3-47ae-be35-121be2566d58","ios":"levelo://app?vid=9c61b1fa-37f3-47ae-be35-121be2566d58"},"vehicle_type_id":"4","last_reported":1746090632,"current_range_meters":24400,"station_id":"cpo3342slgdg3j2ifvpg","pricing_plan_id":"cebpf4jnsgd1na2vs0mg"},{"bike_id":"ce275a13-b30a-4634-b231-60deaeabc0f9","system_id":"levelo_inurba_marseille","lat":43.21609,"lon":5.34463,"is_reserved":false,"is_disabled":false,"rental_uris":{"android":"levelo://app?vid=ce275a13-b30a-4634-b231-60deaeabc0f9","ios":"levelo://app?vid=ce275a13-b30a-4634-b231-60deaeabc0f9"},"vehicle_type_id":"4","last_reported":1746090632,"current_range_meters":24800,"station_id":"","pricing_plan_id":"cebpf4jnsgd1na2vs0mg"},{"bike_id":"ede08b0e-3dcd-4d5f-aa60-6471ca3713b4","system_id":"levelo_inurba_marseille","lat":43.29301,"lon":5.37172,"is_reserved":false,"is_disabled":false,"rental_uris":{"android":"levelo://app?vid=ede08b0e-3dcd-4d5f-aa60-6471ca3713b4","ios":"levelo://app?vid=ede08b0e-3dcd-4d5f-aa60-6471ca3713b4"},"vehicle_type_id":"4","last_reported":1746090632,"current_range_meters":24800,"station_id":"ce4bgh92rcd13ifvqb40","pricing_plan_id":"cebpf4jnsgd1na2vs0mg"},{"bike_id":"d420c5fc-c1e8-49af-8c49-15c249461af9","system_id":"levelo_inurba_marseille","lat":43.31718,"lon":5.3775,"is_reserved":false,"is_disabled":false,"rental_uris":{"android":"levelo://app?vid=d420c5fc-c1e8-49af-8c49-15c249461af9","ios":"levelo://app?vid=d420c5fc-c1e8-49af-8c49-15c249461af9"},"vehicle_type_id":"4","last_reported":1746090632,"current_range_meters":24800,"station_id":"ce4bgth2rcd13ifvqch0","pricing_plan_id":"cebpf4jnsgd1na2vs0mg"},{"bike_id":"9af9091f-4ff4-4b71-843a-1c26c1eb211d","system_id":"levelo_inurba_marseille","lat":43.255,"lon":5.37647,"is_reserved":false,"is_disabled":false,"rental_uris":{"android":"levelo://app?vid=9af9091f-4ff4-4b71-843a-1c26c1eb211d","ios":"levelo://app?vid=9af9091f-4ff4-4b71-843a-1c26c1eb211d"},"vehicle_type_id":"4","last_reported":1746090632,"current_range_meters":24800,"station_id":"ce4bhh12rcd13ifvqff0","pricing_plan_id":"cebpf4jnsgd1na2vs0mg"},{"bike_id":"43fdf588-8115-4b85-8382-fbc0f7bbe361","system_id":"levelo_inurba_marseille","lat":43.25585,"lon":5.38228,"is_reserved":false,"is_disabled":false,"rental_uris":{"android":"levelo://app?vid=43fdf588-8115-4b85-8382-fbc0f7bbe361","ios":"levelo://app?vid=43fdf588-8115-4b85-8382-fbc0f7bbe361"},"vehicle_type_id":"4","last_reported":1746090632,"current_range_meters":24800,"station_id":"ce4bhih2rcd13ifvqfs0","pricing_plan_id":"cebpf4jnsgd1na2vs0mg"},{"bike_id":"83dcce1b-99f4-4735-939a-4f2fd6f8b39f","system_id":"levelo_inurba_marseille","lat":43.22506,"lon":5.34791,"is_reserved":false,"is_disabled":false,"rental_uris":{"android":"levelo://app?vid=83dcce1b-99f4-4735-939a-4f2fd6f8b39f","ios":"levelo://app?vid=83dcce1b-99f4-4735-939a-4f2fd6f8b39f"},"vehicle_type_id":"4","last_reported":1746090632,"current_range_meters":24800,"station_id":"st_cvj5dfep6f1abm77gieg","pricing_plan_id":"cebpf4jnsgd1na2vs0mg"},{"bike_id":"2e118540-0965-41c5-ad6c-489cbc36a53e","system_id":"levelo_inurba_marseille","lat":43.29718,"lon":5.37695,"is_reserved":false,"is_disabled":false,"rental_uris":{"android":"levelo://app?vid=2e118540-0965-41c5-ad6c-489cbc36a53e","ios":"levelo://app?vid=2e118540-0965-41c5-ad6c-489cbc36a53e"},"vehicle_type_id":"4","last_reported":1746090632,"current_range_meters":25200,"station_id":"ce4bgkh2rcd13ifvqbl0","pricing_plan_id":"cebpf4jnsgd1na2vs0mg"},{"bike_id":"7b55bc73-d5fa-4834-873c-f83a4eb9db77","system_id":"levelo_inurba_marseille","lat":43.2293,"lon":5.35379,"is_reserved":false,"is_disabled":false,"rental_uris":{"android":"levelo://app?vid=7b55bc73-d5fa-4834-873c-f83a4eb9db77","ios":"levelo://app?vid=7b55bc73-d5fa-4834-873c-f83a4eb9db77"},"vehicle_type_id":"4","last_reported":1746090632,"current_range_meters":25200,"station_id":"cpo3532slgdg3j2ikp40","pricing_plan_id":"cebpf4jnsgd1na2vs0mg"},{"bike_id":"3cb31d93-c43b-4749-93e7-27f0d6b8ee37","system_id":"levelo_inurba_marseille","lat":43.3094,"lon":5.38329,"is_reserved":false,"is_disabled":false,"rental_uris":{"android":"levelo://app?vid=3cb31d93-c43b-4749-93e7-27f0d6b8ee37","ios":"levelo://app?vid=3cb31d93-c43b-4749-93e7-27f0d6b8ee37"},"vehicle_type_id":"4","last_reported":1746090632,"current_range_meters":25600,"station_id":"","pricing_plan_id":"cebpf4jnsgd1na2vs0mg"},{"bike_id":"fd0b82fc-d656-47a6-88e7-3ff8a25f2c99","system_id":"levelo_inurba_marseille","lat":43.286673,"lon":5.363447,"is_reserved":false,"is_disabled":false,"rental_uris":{"android":"levelo://app?vid=fd0b82fc-d656-47a6-88e7-3ff8a25f2c99","ios":"levelo://app?vid=fd0b82fc-d656-47a6-88e7-3ff8a25f2c99"},"vehicle_type_id":"4","last_reported":1746090632,"current_range_meters":25600,"station_id":"ce4bhah2rcd13ifvqej0","pricing_plan_id":"cebpf4jnsgd1na2vs0mg"},{"bike_id":"61848e3b-3246-477b-8ac6-484ceca681ab","system_id":"levelo_inurba_marseille","lat":43.28415,"lon":5.34977,"is_reserved":false,"is_disabled":false,"rental_uris":{"android":"levelo://app?vid=61848e3b-3246-477b-8ac6-484ceca681ab","ios":"levelo://app?vid=61848e3b-3246-477b-8ac6-484ceca681ab"},"vehicle_type_id":"4","last_reported":1746090632,"current_range_meters":25600,"station_id":"ce4bhbh2rcd13ifvqepg","pricing_plan_id":"cebpf4jnsgd1na2vs0mg"},{"bike_id":"2f6ba022-4110-4c79-9e49-da59953b8ef1","system_id":"levelo_inurba_marseille","lat":43.2603,"lon":5.37548,"is_reserved":false,"is_disabled":false,"rental_uris":{"android":"levelo://app?vid=2f6ba022-4110-4c79-9e49-da59953b8ef1","ios":"levelo://app?vid=2f6ba022-4110-4c79-9e49-da59953b8ef1"},"vehicle_type_id":"4","last_reported":1746090632,"current_range_meters":25600,"station_id":"ce4bhgh2rcd13ifvqfa0","pricing_plan_id":"cebpf4jnsgd1na2vs0mg"},{"bike_id":"5dc36990-ca84-443a-bb1c-efa273c8b830","system_id":"levelo_inurba_marseille","lat":43.23192,"lon":5.35552,"is_reserved":false,"is_disabled":false,"rental_uris":{"android":"levelo://app?vid=5dc36990-ca84-443a-bb1c-efa273c8b830","ios":"levelo://app?vid=5dc36990-ca84-443a-bb1c-efa273c8b830"},"vehicle_type_id":"4","last_reported":1746090632,"current_range_meters":25600,"station_id":"ce4bhu92rcd13ifvqi70","pricing_plan_id":"cebpf4jnsgd1na2vs0mg"},{"bike_id":"cef41ca3-24be-4f2b-a535-82e831089beb","system_id":"levelo_inurba_marseille","lat":43.23069,"lon":5.35481,"is_reserved":false,"is_disabled":false,"rental_uris":{"android":"levelo://app?vid=cef41ca3-24be-4f2b-a535-82e831089beb","ios":"levelo://app?vid=cef41ca3-24be-4f2b-a535-82e831089beb"},"vehicle_type_id":"4","last_reported":1746090632,"current_range_meters":25600,"station_id":"cpo3342slgdg3j2ifvpg","pricing_plan_id":"cebpf4jnsgd1na2vs0mg"},