{"last_updated":1702580746,"ttl":30,"version":"2.2","data":{"bikes":[{"bike_id":"4babc20d-3eb7-42d4-84cd-8fb40670dc4c","system_id":"levelo_inurba_marseille","lat":43.312239,"lon":5.368562,"is_reserved":false,"is_disabled":false,"rental_uris":{"android":"levelo://app?vid=4babc20d-3eb7-42d4-84cd-8fb40670dc4c","ios":"levelo://app?vid=4babc20d-3eb7-42d4-84cd-8fb40670dc4c"},"vehicle_type_id":"4","last_reported":1702580746,"current_range_meters":29200,"station_id":"ce4bgl92rcd13ifvqbq0","pricing_plan_id":"free"},{"bike_id":"c544fb90-b58e-45a0-8d55-7858a59dff2c","system_id":"levelo_inurba_marseille","lat":43.314811,"lon":5.373103,"is_reserved":false,"is_disabled":false,"rental_uris":{"android":"levelo://app?vid=c544fb90-b58e-45a0-8d55-7858a59dff2c","ios":"levelo://app?vid=c544fb90-b58e-45a0-8d55-7858a59dff2c"},"vehicle_type_id":"4","last_reported":1702580746,"current_range_meters":16400,"station_id":"ce4bgt12rcd13ifvqcd0","pricing_plan_id":"free"},{"bike_id":"a302ebd0-c053-4d1d-a0d1-92d432541414","system_id":"levelo_inurba_marseille","lat":43.31492,"lon":5.3731,"is_reserved":false,"is_disabled":false,"rental_uris":{"android":"levelo://app?vid=a302ebd0-c053-4d1d-a0d1-92d432541414","ios":"levelo://app?vid=a302ebd0-c053-4d1d-a0d1-92d432541414"},"vehicle_type_id":"4","last_reported":1702580746,"current_range_meters":5600,"station_id":"ce4bgt12rcd13ifvqcd0","pricing_plan_id":"free"},{"bike_id":"6598fe0a-0e14-432a-8111-f8b14e8fe7d0","system_id":"levelo_inurba_marseille","lat":43.3155,"lon":5.37324,"is_reserved":false,"is_disabled":false,"rental_uris":{"android":"levelo://app?vid=6598fe0a-0e14-432a-8111-f8b14e8fe7d0","ios":"levelo://app?vid=6598fe0a-0e14-432a-8111-f8b14e8fe7d0"},"vehicle_type_id":"4","last_reported":1702580746,"current_range_meters":23600,"station_id":"","pricing_plan_id":"free"},{"bike_id":"3f8b821f-e430-4a35-bf14-f8b6e777ea11","system_id":"levelo_inurba_marseille","lat":43.313939,"lon":5.375306,"is_reserved":false,"is_disabled":false,"rental_uris":{"android":"levelo://app?vid=3f8b821f-e430-4a35-bf14-f8b6e777ea11","ios":"levelo://app?vid=3f8b821f-e430-4a35-bf14-f8b6e777ea11"},"vehicle_type_id":"4","last_reported":1702580746,"current_range_meters":2800,"station_id":"","pricing_plan_id":"free"},{"bike_id":"955e4ab2-16e5-44e8-a986-a2f50ff96c06","system_id":"levelo_inurba_marseille","lat":43.305382,"lon":5.365389,"is_reserved":false,"is_disabled":false,"rental_uris":{"android":"levelo://app?vid=955e4ab2-16e5-44e8-a986-a2f50ff96c06","ios":"levelo://app?vid=955e4ab2-16e5-44e8-a986-a2f50ff96c06"},"vehicle_type_id":"4","last_reported":1702580746,"current_range_meters":22400,"station_id":"","pricing_plan_id":"free"},{"bike_id":"a8397355-5064-42cb-9a05-cdb8cb4d5c7c","system_id":"levelo_inurba_marseille","lat":43.305989,"lon":5.37225,"is_reserved":false,"is_disabled":false,"rental_uris":{"android":"levelo://app?vid=a8397355-5064-42cb-9a05-cdb8cb4d5c7c","ios":"levelo://app?vid=a8397355-5064-42cb-9a05-cdb8cb4d5c7c"},"vehicle_type_id":"4","last_reported":1702580746,"current_range_meters":14400,"station_id":"ce4bgqh2rcd13ifvqc4g","pricing_plan_id":"free"},{"bike_id":"3a07bdc5-94ce-4fcc-91cb-7ce44265c949","system_id":"levelo_inurba_marseille","lat":43.31106,"lon":5.37755,"is_reserved":false,"is_disabled":false,"rental_uris":{"android":"levelo://app?vid=3a07bdc5-94ce-4fcc-91cb-7ce44265c949","ios":"levelo://app?vid=3a07bdc5-94ce-4fcc-91cb-7ce44265c949"},"vehicle_type_id":"4","last_reported":1702580746,"current_range_meters":0,"station_id":"ce4bgt92rcd13ifvqcg0","pricing_plan_id":"free"},{"bike_id":"320fffe6-506a-481f-8cd1-3e8043c1763b","system_id":"levelo_inurba_marseille","lat":43.311125,"lon":5.377624,"is_reserved":false,"is_disabled":false,"rental_uris":{"android":"levelo://app?vid=320fffe6-506a-481f-8cd1-3e8043c1763b","ios":"levelo://app?vid=320fffe6-506a-481f-8cd1-3e8043c1763b"},"vehicle_type_id":"4","last_reported":1702580746,"current_range_meters":3600,"station_id":"ce4bgt92rcd13ifvqcg0","pricing_plan_id":"free"},{"bike_id":"26633d32-5dc2-4b6a-aff9-d4819b77d8d1","system_id":"levelo_inurba_marseille","lat":43.307945,"lon":5.376487,"is_reserved":false,"is_disabled":false,"rental_uris":{"android":"levelo://app?vid=26633d32-5dc2-4b6a-aff9-d4819b77d8d1","ios":"levelo://app?vid=26633d32-5dc2-4b6a-aff9-d4819b77d8d1"},"vehicle_type_id":"4","last_reported":1702580746,"current_range_meters":4800,"station_id":"ce4bgv92rcd13ifvqcq0","pricing_plan_id":"free"},{"bike_id":"6a3ae692-8bea-46e0-a1d8-69b8633e148e","system_id":"levelo_inurba_marseille","lat":43.317075,"lon":5.377367,"is_reserved":false,"is_disabled":false,"rental_uris":{"android":"levelo://app?vid=6a3ae692-8bea-46e0-a1d8-69b8633e148e","ios":"levelo://app?vid=6a3ae692-8bea-46e0-a1d8-69b8633e148e"},"vehicle_type_id":"4","last_reported":1702580746,"current_range_meters":31200,"station_id":"ce4bgth2rcd13ifvqch0","pricing_plan_id":"free"},{"bike_id":"801a9e75-8b76-4a99-9cc7-be68011b2c44","system_id":"levelo_inurba_marseille","lat":43.317075,"lon":5.377367,"is_reserved":false,"is_disabled":false,"rental_uris":{"android":"levelo://app?vid=801a9e75-8b76-4a99-9cc7-be68011b2c44","ios":"levelo://app?vid=801a9e75-8b76-4a99-9cc7-be68011b2c44"},"vehicle_type_id":"4","last_reported":1702580746,"current_range_meters":20400,"station_id":"ce4bgth2rcd13ifvqch0","pricing_plan_id":"free"},{"bike_id":"e1832d70-5e0a-4089-9e07-1c242c2f5a92","system_id":"levelo_inurba_marseille","lat":43.304615,"lon":5.378988,"is_reserved":false,"is_disabled":false,"rental_uris":{"android":"levelo://app?vid=e1832d70-5e0a-4089-9e07-1c242c2f5a92","ios":"levelo://app?vid=e1832d70-5e0a-4089-9e07-1c242c2f5a92"},"vehicle_type_id":"4","last_reported":1702580746,"current_range_meters":23600,"station_id":"ce4bgup2rcd13ifvqcn0","pricing_plan_id":"free"},{"bike_id":"0ee2482d-a975-4e49-b012-c214c152302d","system_id":"levelo_inurba_marseille","lat":43.304606,"lon":5.379026,"is_reserved":false,"is_disabled":false,"rental_uris":{"android":"levelo://app?vid=0ee2482d-a975-4e49-b012-c214c152302d","ios":"levelo://app?vid=0ee2482d-a975-4e49-b012-c214c152302d"},"vehicle_type_id":"4","last_reported":1702580746,"current_range_meters":400,"station_id":"ce4bgup2rcd13ifvqcn0","pricing_plan_id":"free"},{"bike_id":"dfb8b2c4-afb3-44e0-bb8f-5e69b88821cf","system_id":"levelo_inurba_marseille","lat":43.319935,"lon":5.381699,"is_reserved":false,"is_disabled":false,"rental_uris":{"android":"levelo://app?vid=dfb8b2c4-afb3-44e0-bb8f-5e69b88821cf","ios":"levelo://app?vid=dfb8b2c4-afb3-44e0-bb8f-5e69b88821cf"},"vehicle_type_id":"4","last_reported":1702580746,"current_range_meters":16000,"station_id":"ce4bhr12rcd13ifvqhpg","pricing_plan_id":"free"},{"bike_id":"dc11063a-44ce-4604-be3b-1e17a4936ec2","system_id":"levelo_inurba_marseille","lat":43.313571,"lon":5.384829,"is_reserved":false,"is_disabled":false,"rental_uris":{"android":"levelo://app?vid=dc11063a-44ce-4604-be3b-1e17a4936ec2","ios":"levelo://app?vid=dc11063a-44ce-4604-be3b-1e17a4936ec2"},"vehicle_type_id":"4","last_reported":1702580746,"current_range_meters":28400,"station_id":"ce4bgt92rcd13ifvqcf0","pricing_plan_id":"free"},{"bike_id":"268ca3eb-5b65-4b65-9f8a-0b79f69dfaee","system_id":"levelo_inurba_marseille","lat":43.311687,"lon":5.387283,"is_reserved":false,"is_disabled":false,"rental_uris":{"android":"levelo://app?vid=268ca3eb-5b65-4b65-9f8a-0b79f69dfaee","ios":"levelo://app?vid=268ca3eb-5b65-4b65-9f8a-0b79f69dfaee"},"vehicle_type_id":"4","last_reported":1702580746,"current_range_meters":20000,"station_id":"ce4bh0p2rcd13ifvqd80","pricing_plan_id":"free"},{"bike_id":"be795ed6-86d1-4f1a-8a45-dea72e9386a8","system_id":"levelo_inurba_marseille","lat":43.297794,"lon":5.370888,"is_reserved":false,"is_disabled":false,"rental_uris":{"android":"levelo://app?vid=be795ed6-86d1-4f1a-8a45-dea72e9386a8","ios":"levelo://app?vid=be795ed6-86d1-4f1a-8a45-dea72e9386a8"},"vehicle_type_id":"4","last_reported":1702580746,"current_range_meters":20400,"station_id":"ce4bgop2rcd13ifvqc1g","pricing_plan_id":"free"},{"bike_id":"0eea8a30-88a6-46e7-9a8c-2c6a74a10c02","system_id":"levelo_inurba_marseille","lat":43.322872,"lon":5.382756,"is_reserved":false,"is_disabled":false,"rental_uris":{"android":"levelo://app?vid=0eea8a30-88a6-46e7-9a8c-2c6a74a10c02","ios":"levelo://app?vid=0eea8a30-88a6-46e7-9a8c-2c6a74a10c02"},"vehicle_type_id":"4","last_reported":1702580746,"current_range_meters":2800,"station_id":"ce4bhr12rcd13ifvqhqg","pricing_plan_id":"free"},{"bike_id":"975b6a93-9a93-4fbc-8190-13b430d64414","system_id":"levelo_inurba_marseille","lat":43.322872,"lon":5.382756,"is_reserved":false,"is_disabled":false,"rental_uris":{"android":"levelo://app?vid=975b6a93-9a93-4fbc-8190-13b430d64414","ios":"levelo://app?vid=975b6a93-9a93-4fbc-8190-13b430d64414"},"vehicle_type_id":"4","last_reported":1702580746,"current_range_meters":27600,"station_id":"ce4bhr12rcd13ifvqhqg","pricing_plan_id":"free"},{"bike_id":"73c8bfc4-8919-4698-a1e1-7bfaeead957d","system_id":"levelo_inurba_marseille","lat":43.2968,"lon":5.37291,"is_reserved":false,"is_disabled":false,"rental_uris":{"android":"levelo://app?vid=73c8bfc4-8919-4698-a1e1-7bfaeead957d","ios":"levelo://app?vid=73c8bfc4-8919-4698-a1e1-7bfaeead957d"},"vehicle_type_id":"4","last_reported":1702580746,"current_range_meters":9200,"station_id":"ce4bgk12rcd13ifvqbj0","pricing_plan_id":"free"},{"bike_id":"98b5fa64-e3ed-4ec7-af7c-c042242233af","system_id":"levelo_inurba_marseille","lat":43.29587,"lon":5.36766,"is_reserved":false,"is_disabled":false,"rental_uris":{"android":"levelo://app?vid=98b5fa64-e3ed-4ec7-af7c-c042242233af","ios":"levelo://app?vid=98b5fa64-e3ed-4ec7-af7c-c042242233af"},"vehicle_type_id":"4","last_reported":1702580746,"current_range_meters":13600,"station_id":"ce4bgph2rcd13ifvqc2g","pricing_plan_id":"free"},{"bike_id":"641ccb42-8396-4e39-8661-bacd6d833292","system_id":"levelo_inurba_marseille","lat":43.29573,"lon":5.367355,"is_reserved":false,"is_disabled":false,"rental_uris":{"android":"levelo://app?vid=641ccb42-8396-4e39-8661-bacd6d833292","ios":"levelo://app?vid=641ccb42-8396-4e39-8661-bacd6d833292"},"vehicle_type_id":"4","last_reported":1702580746,"current_range_meters":400,"station_id":"ce4bgph2rcd13ifvqc2g","pricing_plan_id":"free"},{"bike_id":"c90e7d8d-3d3f-4925-9fc9-4b8d582f03a8","system_id":"levelo_inurba_marseille","lat":43.309589,"lon":5.390258,"is_reserved":false,"is_disabled":false,"rental_uris":{"android":"levelo://app?vid=c90e7d8d-3d3f-4925-9fc9-4b8d582f03a8","ios":"levelo://app?vid=c90e7d8d-3d3f-4925-9fc9-4b8d582f03a8"},"vehicle_type_id":"4","last_reported":1702580746,"current_range_meters":21600,"station_id":"ce4bgup2rcd13ifvqco0","pricing_plan_id":"free"},{"bike_id":"79b38733-bd5d-4533-81bd-f77d85b63b2d","system_id":"levelo_inurba_marseille","lat":43.299028,"lon":5.381509,"is_reserved":false,"is_disabled":false,"rental_uris":{"android":"levelo://app?vid=79b38733-bd5d-4533-81bd-f77d85b63b2d","ios":"levelo://app?vid=79b38733-bd5d-4533-81bd-f77d85b63b2d"},"vehicle_type_id":"4","last_reported":1702580746,"current_range_meters":12000,"station_id":"ce4bgj12rcd13ifvqbc0","pricing_plan_id":"free"},{"bike_id":"b6fc3acf-b4b3-468d-b780-203617aa2288","system_id":"levelo_inurba_marseille","lat":43.309589,"lon":5.390258,"is_reserved":false,"is_disabled":false,"rental_uris":{"android":"levelo://app?vid=b6fc3acf-b4b3-468d-b780-203617aa2288","ios":"levelo://app?vid=b6fc3acf-b4b3-468d-b780-203617aa2288"},"vehicle_type_id":"4","last_reported":1702580746,"current_range_meters":22800,"station_id":"ce4bgup2rcd13ifvqco0","pricing_plan_id":"free"},{"bike_id":"bbd5c991-be28-478f-a377-9f0d4f1143df","system_id":"levelo_inurba_marseille","lat":43.317557,"lon":5.390173,"is_reserved":false,"is_disabled":false,"rental_uris":{"android":"levelo://app?vid=bbd5c991-be28-478f-a377-9f0d4f1143df","ios":"levelo://app?vid=bbd5c991-be28-478f-a377-9f0d4f1143df"},"vehicle_type_id":"4","last_reported":1702580746,"current_range_meters":17600,"station_id":"ce4bhqp2rcd13ifvqhng","pricing_plan_id":"free"},{"bike_id":"c09c1d74-22e7-4379-be6e-b768f7fb4c88","system_id":"levelo_inurba_marseille","lat":43.29801,"lon":5.38095,"is_reserved":false,"is_disabled":false,"rental_uris":{"android":"levelo://app?vid=c09c1d74-22e7-4379-be6e-b768f7fb4c88","ios":"levelo://app?vid=c09c1d74-22e7-4379-be6e-b768f7fb4c88"},"vehicle_type_id":"4","last_reported":1702580746,"current_range_meters":10800,"station_id":"ce4bgip2rcd13ifvqbb0","pricing_plan_id":"free"},{"bike_id":"c0b9c88a-5402-4996-9780-dcdaaa8c4522","system_id":"levelo_inurba_marseille","lat":43.297975,"lon":5.381102,"is_reserved":false,"is_disabled":false,"rental_uris":{"android":"levelo://app?vid=c0b9c88a-5402-4996-9780-dcdaaa8c4522","ios":"levelo://app?vid=c0b9c88a-5402-4996-9780-dcdaaa8c4522"},"vehicle_type_id":"4","last_reported":1702580746,"current_range_meters":2000,"station_id":"ce4bgip2rcd13ifvqbb0","pricing_plan_id":"free"},{"bike_id":"73405213-2a01-49d9-b78e-b28d9bff01b5","system_id":"levelo_inurba_marseille","lat":43.304274,"lon":5.388873,"is_reserved":false,"is_disabled":false,"rental_uris":{"android":"levelo://app?vid=73405213-2a01-49d9-b78e-b28d9bff01b5","ios":"levelo://app?vid=73405213-2a01-49d9-b78e-b28d9bff01b5"},"vehicle_type_id":"4","last_reported":1702580746,"current_range_meters":27200,"station_id":"ce4bgk12rcd13ifvqbi0","pricing_plan_id":"free"},{"bike_id":"21658780-4b6f-49c4-a90d-db03f1a290cf","system_id":"levelo_inurba_marseille","lat":43.299724,"lon":5.384848,"is_reserved":false,"is_disabled":false,"rental_uris":{"android":"levelo://app?vid=21658780-4b6f-49c4-a90d-db03f1a290cf","ios":"levelo://app?vid=21658780-4b6f-49c4-a90d-db03f1a290cf"},"vehicle_type_id":"4","last_reported":1702580746,"current_range_meters":0,"station_id":"ce4bgj92rcd13ifvqbd0","pricing_plan_id":"free"},{"bike_id":"29db5516-5e0d-498e-9412-f6935b984812","system_id":"levelo_inurba_marseille","lat":43.3237,"lon":5.388795,"is_reserved":false,"is_disabled":false,"rental_uris":{"android":"levelo://app?vid=29db5516-5e0d-498e-9412-f6935b984812","ios":"levelo://app?vid=29db5516-5e0d-498e-9412-f6935b984812"},"vehicle_type_id":"4","last_reported":1702580746,"current_range_meters":10000,"station_id":"ce4bhqp2rcd13ifvqhog","pricing_plan_id":"free"},{"bike_id":"25b48c66-736b-44c4-988c-bc50ffba3c2d","system_id":"levelo_inurba_marseille","lat":43.293259,"lon":5.371586,"is_reserved":false,"is_disabled":false,"rental_uris":{"android":"levelo://app?vid=25b48c66-736b-44c4-988c-bc50ffba3c2d","ios":"levelo://app?vid=25b48c66-736b-44c4-988c-bc50ffba3c2d"},"vehicle_type_id":"4","last_reported":1702580746,"current_range_meters":2000,"station_id":"ce4bgh92rcd13ifvqb40","pricing_plan_id":"free"},{"bike_id":"7b51de1f-b7c2-4610-8b27-49ae507d60a6","system_id":"levelo_inurba_marseille","lat":43.293009,"lon":5.374584,"is_reserved":false,"is_disabled":false,"rental_uris":{"android":"levelo://app?vid=7b51de1f-b7c2-4610-8b27-49ae507d60a6","ios":"levelo://app?vid=7b51de1f-b7c2-4610-8b27-49ae507d60a6"},"vehicle_type_id":"4","last_reported":1702580746,"current_range_meters":3200,"station_id":"ce4bgi12rcd13ifvqb70","pricing_plan_id":"free"},{"bike_id":"146b2ba4-c7a6-402f-bf16-81dfca9b4d2e","system_id":"levelo_inurba_marseille","lat":43.302992,"lon":5.392136,"is_reserved":false,"is_disabled":false,"rental_uris":{"android":"levelo://app?vid=146b2ba4-c7a6-402f-bf16-81dfca9b4d2e","ios":"levelo://app?vid=146b2ba4-c7a6-402f-bf16-81dfca9b4d2e"},"vehicle_type_id":"4","last_reported":1702580746,"current_range_meters":10400,"station_id":"ce4bgkh2rcd13ifvqbk0","pricing_plan_id":"free"},{"bike_id":"f49022ab-d6f4-4465-bbac-1057addbfb7c","system_id":"levelo_inurba_marseille","lat":43.29872,"lon":5.38911,"is_reserved":false,"is_disabled":false,"rental_uris":{"android":"levelo://app?vid=f49022ab-d6f4-4465-bbac-1057addbfb7c","ios":"levelo://app?vid=f49022ab-d6f4-4465-bbac-1057addbfb7c"},"vehicle_type_id":"4","last_reported":1702580746,"current_range_meters":0,"station_id":"","pricing_plan_id":"free"},{"bike_id":"0666d255-b050-41e7-99e0-3d299edc6973","system_id":"levelo_inurba_marseille","lat":43.29529,"lon":5.385581,"is_reserved":false,"is_disabled":false,"rental_uris":{"android":"levelo://app?vid=0666d255-b050-41e7-99e0-3d299edc6973","ios":"levelo://app?vid=0666d255-b050-41e7-99e0-3d299edc6973"},"vehicle_type_id":"4","last_reported":1702580746,"current_range_meters":16400,"station_id":"ce4bgih2rcd13ifvqba0","pricing_plan_id":"free"},{"bike_id":"8acd88b8-3769-4959-9f55-0e0177e0af5e","system_id":"levelo_inurba_marseille","lat":43.29529,"lon":5.385581,"is_reserved":false,"is_disabled":false,"rental_uris":{"android":"levelo://app?vid=8acd88b8-3769-4959-9f55-0e0177e0af5e","ios":"levelo://app?vid=8acd88b8-3769-4959-9f55-0e0177e0af5e"},"vehicle_type_id":"4","last_reported":1702580746,"current_range_meters":15200,"station_id":"ce4bgih2rcd13ifvqba0","pricing_plan_id":"free"},{"bike_id":"85a19469-5f85-4db8-842e-252bebfceacb","system_id":"levelo_inurba_marseille","lat":43.290624,"lon":5.359245,"is_reserved":false,"is_disabled":false,"rental_uris":{"android":"levelo://app?vid=85a19469-5f85-4db8-842e-252bebfceacb","ios":"levelo://app?vid=85a19469-5f85-4db8-842e-252bebfceacb"},"vehicle_type_id":"4","last_reported":1702580746,"current_range_meters":20000,"station_id":"ce4bha92rcd13ifvqeg0","pricing_plan_id":"free"},{"bike_id":"2c7290b6-bbc8-4108-960f-ca3f6b214659","system_id":"levelo_inurba_marseille","lat":43.294153,"lon":5.386305,"is_reserved":false,"is_disabled":false,"rental_uris":{"android":"levelo://app?vid=2c7290b6-bbc8-4108-960f-ca3f6b214659","ios":"levelo://app?vid=2c7290b6-bbc8-4108-960f-ca3f6b214659"},"vehicle_type_id":"4","last_reported":1702580746,"current_range_meters":17600,"station_id":"ce4bh2h2rcd13ifvqdh0","pricing_plan_id":"free"},{"bike_id":"60a2c28d-bdeb-4e2c-a3c3-3a53c9290a3c","system_id":"levelo_inurba_marseille","lat":43.294153,"lon":5.386305,"is_reserved":false,"is_disabled":false,"rental_uris":{"android":"levelo://app?vid=60a2c28d-bdeb-4e2c-a3c3-3a53c9290a3c","ios":"levelo://app?vid=60a2c28d-bdeb-4e2c-a3c3-3a53c9290a3c"},"vehicle_type_id":"4","last_reported":1702580746,"current_range_meters":20800,"station_id":"ce4bh2h2rcd13ifvqdh0","pricing_plan_id":"free"},{"bike_id":"d9cf906b-b64d-4ed2-a3c1-6cdcade13a4b","system_id":"levelo_inurba_marseille","lat":43.294153,"lon":5.386305,"is_reserved":false,"is_disabled":false,"rental_uris":{"android":"levelo://app?vid=d9cf906b-b64d-4ed2-a3c1-6cdcade13a4b","ios":"levelo://app?vid=d9cf906b-b64d-4ed2-a3c1-6cdcade13a4b"},"vehicle_type_id":"4","last_reported":1702580746,"current_range_meters":14800,"station_id":"ce4bh2h2rcd13ifvqdh0","pricing_plan_id":"free"},{"bike_id":"c23a45ac-9be5-4df9-8563-58e2f1a503fd","system_id":"levelo_inurba_marseille","lat":43.294153,"lon":5.386305,"is_reserved":false,"is_disabled":false,"rental_uris":{"android":"levelo://app?vid=c23a45ac-9be5-4df9-8563-58e2f1a503fd","ios":"levelo://app?vid=c23a45ac-9be5-4df9-8563-58e2f1a503fd"},"vehicle_type_id":"4","last_reported":1702580746,"current_range_meters":16400,"station_id":"ce4bh2h2rcd13ifvqdh0","pricing_plan_id":"free"},{"bike_id":"ec1120f5-2886-4f63-bdba-0ae19647a12b","system_id":"levelo_inurba_marseille","lat":43.29032,"lon":5.375602,"is_reserved":false,"is_disabled":false,"rental_uris":{"android":"levelo://app?vid=ec1120f5-2886-4f63-bdba-0ae19647a12b","ios":"levelo://app?vid=ec1120f5-2886-4f63-bdba-0ae19647a12b"},"vehicle_type_id":"4","last_reported":1702580746,"current_range_meters":0,"station_id":"ce4bh692rcd13ifvqe90","pricing_plan_id":"free"},{"bike_id":"05957afb-1f9a-459e-aeed-d0ba28cb65a0","system_id":"levelo_inurba_marseille","lat":43.29418,"lon":5.38627,"is_reserved":false,"is_disabled":false,"rental_uris":{"android":"levelo://app?vid=05957afb-1f9a-459e-aeed-d0ba28cb65a0","ios":"levelo://app?vid=05957afb-1f9a-459e-aeed-d0ba28cb65a0"},"vehicle_type_id":"4","last_reported":1702580746,"current_range_meters":18800,"station_id":"ce4bh2h2rcd13ifvqdh0","pricing_plan_id":"free"},{"bike_id":"ea67cc51-5095-461f-9f4e-ed5b3b1b2c64","system_id":"levelo_inurba_marseille","lat":43.289184,"lon":5.366408,"is_reserved":false,"is_disabled":false,"rental_uris":{"android":"levelo://app?vid=ea67cc51-5095-461f-9f4e-ed5b3b1b2c64","ios":"levelo://app?vid=ea67cc51-5095-461f-9f4e-ed5b3b1b2c64"},"vehicle_type_id":"4","last_reported":1702580746,"current_range_meters":15200,"station_id":"ce4bhap2rcd13ifvqek0","pricing_plan_id":"free"},{"bike_id":"1a4eb387-26f8-492f-bae8-38f703358279","system_id":"levelo_inurba_marseille","lat":43.28935,"lon":5.36643,"is_reserved":false,"is_disabled":false,"rental_uris":{"android":"levelo://app?vid=1a4eb387-26f8-492f-bae8-38f703358279","ios":"levelo://app?vid=1a4eb387-26f8-492f-bae8-38f703358279"},"vehicle_type_id":"4","last_reported":1702580746,"current_range_meters":27600,"station_id":"ce4bhap2rcd13ifvqek0","pricing_plan_id":"free"},{"bike_id":"926afdee-9329-4b48-92ee-623180399257","system_id":"levelo_inurba_marseille","lat":43.28936,"lon":5.36401,"is_reserved":false,"is_disabled":false,"rental_uris":{"android":"levelo://app?vid=926afdee-9329-4b48-92ee-623180399257","ios":"levelo://app?vid=926afdee-9329-4b48-92ee-623180399257"},"vehicle_type_id":"4","last_reported":1702580746,"current_range_meters":6400,"station_id":"ce4bhc92rcd13ifvqetg","pricing_plan_id":"free"},{"bike_id":"0da5f687-1f87-48ab-8cdc-ed161c770f80","system_id":"levelo_inurba_marseille","lat":43.292644,"lon":5.384257,"is_reserved":false,"is_disabled":false,"rental_uris":{"android":"levelo://app?vid=0da5f687-1f87-48ab-8cdc-ed161c770f80","ios":"levelo://app?vid=0da5f687-1f87-48ab-8cdc-ed161c770f80"},"vehicle_type_id":"4","last_reported":1702580746,"current_range_meters":6000,"station_id":"ce4bh692rcd13ifvqea0","pricing_plan_id":"free"},{"bike_id":"cf698b74-f05b-4015-87ae-7871b4d499ef","system_id":"levelo_inurba_marseille","lat":43.292644,"lon":5.384257,"is_reserved":false,"is_disabled":false,"rental_uris":{"android":"levelo://app?vid=cf698b74-f05b-4015-87ae-7871b4d499ef","ios":"levelo://app?vid=cf698b74-f05b-4015-87ae-7871b4d499ef"},"vehicle_type_id":"4","last_reported":1702580746,"current_range_meters":15200,"station_id":"ce4bh692rcd13ifvqea0","pricing_plan_id":"free"},{"bike_id":"4e33c64f-3009-4f56-864a-7e56f93a45cb","system_id":"levelo_inurba_marseille","lat":43.330442,"lon":5.389148,"is_reserved":false,"is_disabled":false,"rental_uris":{"android":"levelo://app?vid=4e33c64f-3009-4f56-864a-7e56f93a45cb","ios":"levelo://app?vid=4e33c64f-3009-4f56-864a-7e56f93a45cb"},"vehicle_type_id":"4","last_reported":1702580746,"current_range_meters":2400,"station_id":"ce4bhr92rcd13ifvqhrg","pricing_plan_id":"free"},{"bike_id":"e36fc3c3-3f2f-4976-afc1-efdf79dee1e9","system_id":"levelo_inurba_marseille","lat":43.3304,"lon":5.38924,"is_reserved":false,"is_disabled":false,"rental_uris":{"android":"levelo://app?vid=e36fc3c3-3f2f-4976-afc1-efdf79dee1e9","ios":"levelo://app?vid=e36fc3c3-3f2f-4976-afc1-efdf79dee1e9"},"vehicle_type_id":"4","last_reported":1702580746,"current_range_meters":30000,"station_id":"ce4bhr92rcd13ifvqhrg","pricing_plan_id":"free"},{"bike_id":"9430066a-b3f6-4803-82ef-db8ee806a880","system_id":"levelo_inurba_marseille","lat":43.330442,"lon":5.389148,"is_reserved":false,"is_disabled":false,"rental_uris":{"android":"levelo://app?vid=9430066a-b3f6-4803-82ef-db8ee806a880","ios":"levelo://app?vid=9430066a-b3f6-4803-82ef-db8ee806a880"},"vehicle_type_id":"4","last_reported":1702580746,"current_range_meters":30800,"station_id":"ce4bhr92rcd13ifvqhrg","pricing_plan_id":"free"},{"bike_id":"4d9e1cce-4d58-48f1-86cf-296cd31053ec","system_id":"levelo_inurba_marseille","lat":43.290995,"lon":5.381361,"is_reserved":false,"is_disabled":false,"rental_uris":{"android":"levelo://app?vid=4d9e1cce-4d58-48f1-86cf-296cd31053ec","ios":"levelo://app?vid=4d9e1cce-4d58-48f1-86cf-296cd31053ec"},"vehicle_type_id":"4","last_reported":1702580746,"current_range_meters":22400,"station_id":"ce4bh512rcd13ifvqe2g","pricing_plan_id":"free"},{"bike_id":"894792f3-24aa-412a-aa4c-1154232f4d8e","system_id":"levelo_inurba_marseille","lat":43.295169,"lon":5.390426,"is_reserved":false,"is_disabled":false,"rental_uris":{"android":"levelo://app?vid=894792f3-24aa-412a-aa4c-1154232f4d8e","ios":"levelo://app?vid=894792f3-24aa-412a-aa4c-1154232f4d8e"},"vehicle_type_id":"4","last_reported":1702580746,"current_range_meters":15200,"station_id":"ce4bh3p2rcd13ifvqdp0","pricing_plan_id":"free"},{"bike_id":"83b0b116-a48d-45b7-a6f6-612ddd35a86a","system_id":"levelo_inurba_marseille","lat":43.288535,"lon":5.35848,"is_reserved":false,"is_disabled":false,"rental_uris":{"android":"levelo://app?vid=83b0b116-a48d-45b7-a6f6-612ddd35a86a","ios":"levelo://app?vid=83b0b116-a48d-45b7-a6f6-612ddd35a86a"},"vehicle_type_id":"4","last_reported":1702580746,"current_range_meters":2800,"station_id":"ce4bhb12rcd13ifvqem0","pricing_plan_id":"free"},{"bike_id":"84f9801e-81c0-4954-9480-0d4b84af22eb","system_id":"levelo_inurba_marseille","lat":43.28852,"lon":5.35855,"is_reserved":false,"is_disabled":false,"rental_uris":{"android":"levelo://app?vid=84f9801e-81c0-4954-9480-0d4b84af22eb","ios":"levelo://app?vid=84f9801e-81c0-4954-9480-0d4b84af22eb"},"vehicle_type_id":"4","last_reported":1702580746,"current_range_meters":8000,"station_id":"ce4bhb12rcd13ifvqem0","pricing_plan_id":"free"},{"bike_id":"142d71c9-769e-4df6-b18f-5f26a5ff72f2","system_id":"levelo_inurba_marseille","lat":43.28856,"lon":5.358371,"is_reserved":false,"is_disabled":false,"rental_uris":{"android":"levelo://app?vid=142d71c9-769e-4df6-b18f-5f26a5ff72f2","ios":"levelo://app?vid=142d71c9-769e-4df6-b18f-5f26a5ff72f2"},"vehicle_type_id":"4","last_reported":1702580746,"current_range_meters":21600,"station_id":"ce4bhb12rcd13ifvqem0","pricing_plan_id":"free"},{"bike_id":"7fe93d1b-4a39-475a-be8a-c823929cd6ed","system_id":"levelo_inurba_marseille","lat":43.33738,"lon":5.37459,"is_reserved":false,"is_disabled":false,"rental_uris":{"android":"levelo://app?vid=7fe93d1b-4a39-475a-be8a-c823929cd6ed","ios":"levelo://app?vid=7fe93d1b-4a39-475a-be8a-c823929cd6ed"},"vehicle_type_id":"4","last_reported":1702580746,"current_range_meters":28000,"station_id":"","pricing_plan_id":"free"},{"bike_id":"3a74afc7-a72f-4833-a3ab-2cb85fff4b6c","system_id":"levelo_inurba_marseille","lat":43.309371,"lon":5.401449,"is_reserved":false,"is_disabled":false,"rental_uris":{"android":"levelo://app?vid=3a74afc7-a72f-4833-a3ab-2cb85fff4b6c","ios":"levelo://app?vid=3a74afc7-a72f-4833-a3ab-2cb85fff4b6c"},"vehicle_type_id":"4","last_reported":1702580746,"current_range_meters":0,"station_id":"ce4bgvp2rcd13ifvqct0","pricing_plan_id":"free"},{"bike_id":"f02124fa-1fc0-4f2a-9309-0f9dee4b89e8","system_id":"levelo_inurba_marseille","lat":43.309371,"lon":5.401449,"is_reserved":false,"is_disabled":false,"rental_uris":{"android":"levelo://app?vid=f02124fa-1fc0-4f2a-9309-0f9dee4b89e8","ios":"levelo://app?vid=f02124fa-1fc0-4f2a-9309-0f9dee4b89e8"},"vehicle_type_id":"4","last_reported":1702580746,"current_range_meters":20400,"station_id":"ce4bgvp2rcd13ifvqct0","pricing_plan_id":"free"},{"bike_id":"930bba3a-4350-44cf-bb9b-310a6cbdb5ef","system_id":"levelo_inurba_marseille","lat":43.33757,"lon":5.3748,"is_reserved":false,"is_disabled":false,"rental_uris":{"android":"levelo://app?vid=930bba3a-4350-44cf-bb9b-310a6cbdb5ef","ios":"levelo://app?vid=930bba3a-4350-44cf-bb9b-310a6cbdb5ef"},"vehicle_type_id":"4","last_reported":1702580746,"current_range_meters":31200,"station_id":"","pricing_plan_id":"free"},{"bike_id":"931ab3d6-6a15-4c96-b37b-833bd97b5c95","system_id":"levelo_inurba_marseille","lat":43.295196,"lon":5.39397,"is_reserved":false,"is_disabled":false,"rental_uris":{"android":"levelo://app?vid=931ab3d6-6a15-4c96-b37b-833bd97b5c95","ios":"levelo://app?vid=931ab3d6-6a15-4c96-b37b-833bd97b5c95"},"vehicle_type_id":"4","last_reported":1702580746,"current_range_meters":22400,"station_id":"ce4bh292rcd13ifvqdf0","pricing_plan_id":"free"},{"bike_id":"2b345619-5d58-415c-829f-9515ba684a00","system_id":"levelo_inurba_marseille","lat":43.28727,"lon":5.36078,"is_reserved":false,"is_disabled":false,"rental_uris":{"android":"levelo://app?vid=2b345619-5d58-415c-829f-9515ba684a00","ios":"levelo://app?vid=2b345619-5d58-415c-829f-9515ba684a00"},"vehicle_type_id":"4","last_reported":1702580746,"current_range_meters":3600,"station_id":"cki0cbj6b192h4jlfktg","pricing_plan_id":"free"},{"bike_id":"27a92598-0a35-4735-baa5-f4fa6dfc48e0","system_id":"levelo_inurba_marseille","lat":43.298681,"lon":5.397225,"is_reserved":false,"is_disabled":false,"rental_uris":{"android":"levelo://app?vid=27a92598-0a35-4735-baa5-f4fa6dfc48e0","ios":"levelo://app?vid=27a92598-0a35-4735-baa5-f4fa6dfc48e0"},"vehicle_type_id":"4","last_reported":1702580746,"current_range_meters":1200,"station_id":"ce4bh0h2rcd13ifvqd50","pricing_plan_id":"free"},{"bike_id":"c72bb890-b866-42b3-a4ac-dab64b92765b","system_id":"levelo_inurba_marseille","lat":43.298681,"lon":5.397225,"is_reserved":false,"is_disabled":false,"rental_uris":{"android":"levelo://app?vid=c72bb890-b866-42b3-a4ac-dab64b92765b","ios":"levelo://app?vid=c72bb890-b866-42b3-a4ac-dab64b92765b"},"vehicle_type_id":"4","last_reported":1702580746,"current_range_meters":1600,"station_id":"ce4bh0h2rcd13ifvqd50","pricing_plan_id":"free"},{"bike_id":"8d207e43-e954-40b3-89a2-2a0904149b1e","system_id":"levelo_inurba_marseille","lat":43.286593,"lon":5.363346,"is_reserved":false,"is_disabled":false,"rental_uris":{"android":"levelo://app?vid=8d207e43-e954-40b3-89a2-2a0904149b1e","ios":"levelo://app?vid=8d207e43-e954-40b3-89a2-2a0904149b1e"},"vehicle_type_id":"4","last_reported":1702580746,"current_range_meters":23200,"station_id":"ce4bhah2rcd13ifvqej0","pricing_plan_id":"free"},{"bike_id":"5496fd64-fcc7-4638-a203-ef57bd94aaec","system_id":"levelo_inurba_marseille","lat":43.295194,"lon":5.39397,"is_reserved":false,"is_disabled":false,"rental_uris":{"android":"levelo://app?vid=5496fd64-fcc7-4638-a203-ef57bd94aaec","ios":"levelo://app?vid=5496fd64-fcc7-4638-a203-ef57bd94aaec"},"vehicle_type_id":"4","last_reported":1702580746,"current_range_meters":17200,"station_id":"ce4bh292rcd13ifvqdf0","pricing_plan_id":"free"},{"bike_id":"422c7fb2-f259-40a8-b84b-659b3dfabb55","system_id":"levelo_inurba_marseille","lat":43.302759,"lon":5.400793,"is_reserved":false,"is_disabled":false,"rental_uris":{"android":"levelo://app?vid=422c7fb2-f259-40a8-b84b-659b3dfabb55","ios":"levelo://app?vid=422c7fb2-f259-40a8-b84b-659b3dfabb55"},"vehicle_type_id":"4","last_reported":1702580746,"current_range_meters":3600,"station_id":"ce4bgvh2rcd13ifvqcs0","pricing_plan_id":"free"},{"bike_id":"3515b92c-fee2-483e-8b59-fd3d40d0bb34","system_id":"levelo_inurba_marseille","lat":43.290345,"lon":5.38646,"is_reserved":false,"is_disabled":false,"rental_uris":{"android":"levelo://app?vid=3515b92c-fee2-483e-8b59-fd3d40d0bb34","ios":"levelo://app?vid=3515b92c-fee2-483e-8b59-fd3d40d0bb34"},"vehicle_type_id":"4","last_reported":1702580746,"current_range_meters":12000,"station_id":"ce4bh4p2rcd13ifvqe0g","pricing_plan_id":"free"},{"bike_id":"cc4ffe66-2ec2-4e3b-949b-0e7dba8f84a0","system_id":"levelo_inurba_marseille","lat":43.287184,"lon":5.37937,"is_reserved":false,"is_disabled":false,"rental_uris":{"android":"levelo://app?vid=cc4ffe66-2ec2-4e3b-949b-0e7dba8f84a0","ios":"levelo://app?vid=cc4ffe66-2ec2-4e3b-949b-0e7dba8f84a0"},"vehicle_type_id":"4","last_reported":1702580746,"current_range_meters":2400,"station_id":"ce4bh9p2rcd13ifvqec0","pricing_plan_id":"free"},{"bike_id":"340d0e1f-8e94-4f62-8c53-c3cf832a68df","system_id":"levelo_inurba_marseille","lat":43.287185,"lon":5.379373,"is_reserved":false,"is_disabled":false,"rental_uris":{"android":"levelo://app?vid=340d0e1f-8e94-4f62-8c53-c3cf832a68df","ios":"levelo://app?vid=340d0e1f-8e94-4f62-8c53-c3cf832a68df"},"vehicle_type_id":"4","last_reported":1702580746,"current_range_meters":9600,"station_id":"ce4bh9p2rcd13ifvqec0","pricing_plan_id":"free"},{"bike_id":"b33b88e9-bfd8-4c6b-badc-4fb62fe90440","system_id":"levelo_inurba_marseille","lat":43.291964,"lon":5.393256,"is_reserved":false,"is_disabled":false,"rental_uris":{"android":"levelo://app?vid=b33b88e9-bfd8-4c6b-badc-4fb62fe90440","ios":"levelo://app?vid=b33b88e9-bfd8-4c6b-badc-4fb62fe90440"},"vehicle_type_id":"4","last_reported":1702580746,"current_range_meters":0,"station_id":"ce4bh192rcd13ifvqdd0","pricing_plan_id":"free"},{"bike_id":"bbead17a-7aec-435d-b28e-b592d41ac1a4","system_id":"levelo_inurba_marseille","lat":43.284577,"lon":5.35893,"is_reserved":false,"is_disabled":false,"rental_uris":{"android":"levelo://app?vid=bbead17a-7aec-435d-b28e-b592d41ac1a4","ios":"levelo://app?vid=bbead17a-7aec-435d-b28e-b592d41ac1a4"},"vehicle_type_id":"4","last_reported":1702580746,"current_range_meters":0,"station_id":"ce4bhah2rcd13ifvqei0","pricing_plan_id":"free"},{"bike_id":"1d1e096d-5105-4883-bffe-d40ca7030c3c","system_id":"levelo_inurba_marseille","lat":43.28619,"lon":5.35108,"is_reserved":false,"is_disabled":false,"rental_uris":{"android":"levelo://app?vid=1d1e096d-5105-4883-bffe-d40ca7030c3c","ios":"levelo://app?vid=1d1e096d-5105-4883-bffe-d40ca7030c3c"},"vehicle_type_id":"4","last_reported":1702580746,"current_range_meters":22800,"station_id":"ce4bhch2rcd13ifvqeug","pricing_plan_id":"free"},{"bike_id":"313406b8-5fdc-41f0-83fe-0af7d292a505","system_id":"levelo_inurba_marseille","lat":43.286167,"lon":5.351077,"is_reserved":false,"is_disabled":false,"rental_uris":{"android":"levelo://app?vid=313406b8-5fdc-41f0-83fe-0af7d292a505","ios":"levelo://app?vid=313406b8-5fdc-41f0-83fe-0af7d292a505"},"vehicle_type_id":"4","last_reported":1702580746,"current_range_meters":11600,"station_id":"","pricing_plan_id":"free"},{"bike_id":"59440ca7-a769-4e4e-83e7-d0fea04caa42","system_id":"levelo_inurba_marseille","lat":43.28615,"lon":5.35101,"is_reserved":false,"is_disabled":false,"rental_uris":{"android":"levelo://app?vid=59440ca7-a769-4e4e-83e7-d0fea04caa42","ios":"levelo://app?vid=59440ca7-a769-4e4e-83e7-d0fea04caa42"},"vehicle_type_id":"4","last_reported":1702580746,"current_range_meters":19600,"station_id":"ce4bhch2rcd13ifvqeug","pricing_plan_id":"free"},{"bike_id":"de1b122a-ea30-4eba-bdb5-ce8f73953f0d","system_id":"levelo_inurba_marseille","lat":43.285856,"lon":5.350771,"is_reserved":false,"is_disabled":false,"rental_uris":{"android":"levelo://app?vid=de1b122a-ea30-4eba-bdb5-ce8f73953f0d","ios":"levelo://app?vid=de1b122a-ea30-4eba-bdb5-ce8f73953f0d"},"vehicle_type_id":"4","last_reported":1702580746,"current_range_meters":25600,"station_id":"ce4bhch2rcd13ifvqeug","pricing_plan_id":"free"},{"bike_id":"726b67ab-cbe5-40a9-b9b2-6f5278f0478b","system_id":"levelo_inurba_marseille","lat":43.323464,"lon":5.406297,"is_reserved":false,"is_disabled":false,"rental_uris":{"android":"levelo://app?vid=726b67ab-cbe5-40a9-b9b2-6f5278f0478b","ios":"levelo://app?vid=726b67ab-cbe5-40a9-b9b2-6f5278f0478b"},"vehicle_type_id":"4","last_reported":1702580746,"current_range_meters":27600,"station_id":"ce4bhq92rcd13ifvqhjg","pricing_plan_id":"free"},{"bike_id":"7a563475-f7ea-4cc5-a185-755ed1ffe6c5","system_id":"levelo_inurba_marseille","lat":43.284793,"lon":5.384113,"is_reserved":false,"is_disabled":false,"rental_uris":{"android":"levelo://app?vid=7a563475-f7ea-4cc5-a185-755ed1ffe6c5","ios":"levelo://app?vid=7a563475-f7ea-4cc5-a185-755ed1ffe6c5"},"vehicle_type_id":"4","last_reported":1702580746,"current_range_meters":20800,"station_id":"ce4bh512rcd13ifvqe3g","pricing_plan_id":"free"},{"bike_id":"2be90471-9de7-4472-abc3-df380157bae7","system_id":"levelo_inurba_marseille","lat":43.29795,"lon":5.404086,"is_reserved":false,"is_disabled":false,"rental_uris":{"android":"levelo://app?vid=2be90471-9de7-4472-abc3-df380157bae7","ios":"levelo://app?vid=2be90471-9de7-4472-abc3-df380157bae7"},"vehicle_type_id":"4","last_reported":1702580746,"current_range_meters":7600,"station_id":"ce4bh112rcd13ifvqd90","pricing_plan_id":"free"},{"bike_id":"7e07c070-5ce8-4a30-b393-97e5a93dc1db","system_id":"levelo_inurba_marseille","lat":43.29795,"lon":5.404086,"is_reserved":false,"is_disabled":false,"rental_uris":{"android":"levelo://app?vid=7e07c070-5ce8-4a30-b393-97e5a93dc1db","ios":"levelo://app?vid=7e07c070-5ce8-4a30-b393-97e5a93dc1db"},"vehicle_type_id":"4","last_reported":1702580746,"current_range_meters":13600,"station_id":"ce4bh112rcd13ifvqd90","pricing_plan_id":"free"},{"bike_id":"69fe936f-8ab6-43e8-bd94-631ae221831b","system_id":"levelo_inurba_marseille","lat":43.283494,"lon":5.380945,"is_reserved":false,"is_disabled":false,"rental_uris":{"android":"levelo://app?vid=69fe936f-8ab6-43e8-bd94-631ae221831b","ios":"levelo://app?vid=69fe936f-8ab6-43e8-bd94-631ae221831b"},"vehicle_type_id":"4","last_reported":1702580746,"current_range_meters":11200,"station_id":"ce4bh412rcd13ifvqdr0","pricing_plan_id":"free"},{"bike_id":"cac5cbdd-96e5-4787-8e99-4958679e9837","system_id":"levelo_inurba_marseille","lat":43.289363,"lon":5.396322,"is_reserved":false,"is_disabled":false,"rental_uris":{"android":"levelo://app?vid=cac5cbdd-96e5-4787-8e99-4958679e9837","ios":"levelo://app?vid=cac5cbdd-96e5-4787-8e99-4958679e9837"},"vehicle_type_id":"4","last_reported":1702580746,"current_range_meters":9200,"station_id":"ce4bh3h2rcd13ifvqdn0","pricing_plan_id":"free"},{"bike_id":"d4a90711-1f6a-4a5a-8f30-96257b4e108e","system_id":"levelo_inurba_marseille","lat":43.292724,"lon":5.401131,"is_reserved":false,"is_disabled":false,"rental_uris":{"android":"levelo://app?vid=d4a90711-1f6a-4a5a-8f30-96257b4e108e","ios":"levelo://app?vid=d4a90711-1f6a-4a5a-8f30-96257b4e108e"},"vehicle_type_id":"4","last_reported":1702580746,"current_range_meters":23200,"station_id":"ce4bh312rcd13ifvqdk0","pricing_plan_id":"free"},{"bike_id":"eebdcfa8-24f6-4442-96f7-c458cd3fecb2","system_id":"levelo_inurba_marseille","lat":43.282754,"lon":5.350519,"is_reserved":false,"is_disabled":false,"rental_uris":{"android":"levelo://app?vid=eebdcfa8-24f6-4442-96f7-c458cd3fecb2","ios":"levelo://app?vid=eebdcfa8-24f6-4442-96f7-c458cd3fecb2"},"vehicle_type_id":"4","last_reported":1702580746,"current_range_meters":12000,"station_id":"ce4bhbp2rcd13ifvqerg","pricing_plan_id":"free"},{"bike_id":"ce195bd3-efe7-4ef7-8b7c-8649002637fb","system_id":"levelo_inurba_marseille","lat":43.282754,"lon":5.350519,"is_reserved":false,"is_disabled":false,"rental_uris":{"android":"levelo://app?vid=ce195bd3-efe7-4ef7-8b7c-8649002637fb","ios":"levelo://app?vid=ce195bd3-efe7-4ef7-8b7c-8649002637fb"},"vehicle_type_id":"4","last_reported":1702580746,"current_range_meters":15600,"station_id":"ce4bhbp2rcd13ifvqerg","pricing_plan_id":"free"},{"bike_id":"3c85df87-7510-4772-83dc-5b28f3520327","system_id":"levelo_inurba_marseille","lat":43.28268,"lon":5.350625,"is_reserved":false,"is_disabled":false,"rental_uris":{"android":"levelo://app?vid=3c85df87-7510-4772-83dc-5b28f3520327","ios":"levelo://app?vid=3c85df87-7510-4772-83dc-5b28f3520327"},"vehicle_type_id":"4","last_reported":1702580746,"current_range_meters":21600,"station_id":"ce4bhbp2rcd13ifvqerg","pricing_plan_id":"free"},{"bike_id":"714f51bb-ad41-4f6d-ac85-f13fa20b4278","system_id":"levelo_inurba_marseille","lat":43.28039,"lon":5.369297,"is_reserved":false,"is_disabled":false,"rental_uris":{"android":"levelo://app?vid=714f51bb-ad41-4f6d-ac85-f13fa20b4278","ios":"levelo://app?vid=714f51bb-ad41-4f6d-ac85-f13fa20b4278"},"vehicle_type_id":"4","last_reported":1702580746,"current_range_meters":1600,"station_id":"ce4bha12rcd13ifvqef0","pricing_plan_id":"free"},{"bike_id":"7f4d8487-dbdf-496d-9d7b-1f2417384832","system_id":"levelo_inurba_marseille","lat":43.280382,"lon":5.369291,"is_reserved":false,"is_disabled":false,"rental_uris":{"android":"levelo://app?vid=7f4d8487-dbdf-496d-9d7b-1f2417384832","ios":"levelo://app?vid=7f4d8487-dbdf-496d-9d7b-1f2417384832"},"vehicle_type_id":"4","last_reported":1702580746,"current_range_meters":6000,"station_id":"ce4bha12rcd13ifvqef0","pricing_plan_id":"free"},{"bike_id":"d52ba69b-7325-49c2-b343-dd0cc2e58052","system_id":"levelo_inurba_marseille","lat":43.280382,"lon":5.369291,"is_reserved":false,"is_disabled":false,"rental_uris":{"android":"levelo://app?vid=d52ba69b-7325-49c2-b343-dd0cc2e58052","ios":"levelo://app?vid=d52ba69b-7325-49c2-b343-dd0cc2e58052"},"vehicle_type_id":"4","last_reported":1702580746,"current_range_meters":0,"station_id":"ce4bha12rcd13ifvqef0","pricing_plan_id":"free"},{"bike_id":"29a146e5-5975-4ff6-802f-8a87173adabd","system_id":"levelo_inurba_marseille","lat":43.290412,"lon":5.399633,"is_reserved":false,"is_disabled":false,"rental_uris":{"android":"levelo://app?vid=29a146e5-5975-4ff6-802f-8a87173adabd","ios":"levelo://app?vid=29a146e5-5975-4ff6-802f-8a87173adabd"},"vehicle_type_id":"4","last_reported":1702580746,"current_range_meters":16400,"station_id":"ce4bh392rcd13ifvqdm0","pricing_plan_id":"free"},{"bike_id":"6ffd9bd2-e524-49b5-a91c-d0edbf814ba2","system_id":"levelo_inurba_marseille","lat":43.29041,"lon":5.399634,"is_reserved":false,"is_disabled":false,"rental_uris":{"android":"levelo://app?vid=6ffd9bd2-e524-49b5-a91c-d0edbf814ba2","ios":"levelo://app?vid=6ffd9bd2-e524-49b5-a91c-d0edbf814ba2"},"vehicle_type_id":"4","last_reported":1702580746,"current_range_meters":4400,"station_id":"ce4bh392rcd13ifvqdm0","pricing_plan_id":"free"},{"bike_id":"4ee1a84c-60e5-4735-bf59-cea446c2523f","system_id":"levelo_inurba_marseille","lat":43.281044,"lon":5.378308,"is_reserved":false,"is_disabled":false,"rental_uris":{"android":"levelo://app?vid=4ee1a84c-60e5-4735-bf59-cea446c2523f","ios":"levelo://app?vid=4ee1a84c-60e5-4735-bf59-cea446c2523f"},"vehicle_type_id":"4","last_reported":1702580746,"current_range_meters":10000,"station_id":"ce4bha12rcd13ifvqee0","pricing_plan_id":"free"},{"bike_id":"8dcf4ab0-02c8-48de-b012-e46f6bfc85b6","system_id":"levelo_inurba_marseille","lat":43.284462,"lon":5.392121,"is_reserved":false,"is_disabled":false,"rental_uris":{"android":"levelo://app?vid=8dcf4ab0-02c8-48de-b012-e46f6bfc85b6","ios":"levelo://app?vid=8dcf4ab0-02c8-48de-b012-e46f6bfc85b6"},"vehicle_type_id":"4","last_reported":1702580746,"current_range_meters":7600,"station_id":"ce4bhoh2rcd13ifvqh5g","pricing_plan_id":"free"},{"bike_id":"a6750e93-4d83-46ef-8dc0-4c546875d106","system_id":"levelo_inurba_marseille","lat":43.304188,"lon":5.412904,"is_reserved":false,"is_disabled":false,"rental_uris":{"android":"levelo://app?vid=a6750e93-4d83-46ef-8dc0-4c546875d106","ios":"levelo://app?vid=a6750e93-4d83-46ef-8dc0-4c546875d106"},"vehicle_type_id":"4","last_reported":1702580746,"current_range_meters":31600,"station_id":"ce4bhop2rcd13ifvqh8g","pricing_plan_id":"free"},{"bike_id":"31240c21-0ca3-42f7-9c43-127d722b9d0a","system_id":"levelo_inurba_marseille","lat":43.304188,"lon":5.412904,"is_reserved":false,"is_disabled":false,"rental_uris":{"android":"levelo://app?vid=31240c21-0ca3-42f7-9c43-127d722b9d0a","ios":"levelo://app?vid=31240c21-0ca3-42f7-9c43-127d722b9d0a"},"vehicle_type_id":"4","last_reported":1702580746,"current_range_meters":2000,"station_id":"ce4bhop2rcd13ifvqh8g","pricing_plan_id":"free"},{"bike_id":"93cf42e1-0754-4d9a-9677-e9d06246671e","system_id":"levelo_inurba_marseille","lat":43.279087,"lon":5.380114,"is_reserved":false,"is_disabled":false,"rental_uris":{"android":"levelo://app?vid=93cf42e1-0754-4d9a-9677-e9d06246671e","ios":"levelo://app?vid=93cf42e1-0754-4d9a-9677-e9d06246671e"},"vehicle_type_id":"4","last_reported":1702580746,"current_range_meters":22800,"station_id":"ce4bhf92rcd13ifvqf50","pricing_plan_id":"free"},{"bike_id":"0f7857a5-89da-445a-a3d8-47b3ba81a7e6","system_id":"levelo_inurba_marseille","lat":43.320045,"lon":5.415048,"is_reserved":false,"is_disabled":false,"rental_uris":{"android":"levelo://app?vid=0f7857a5-89da-445a-a3d8-47b3ba81a7e6","ios":"levelo://app?vid=0f7857a5-89da-445a-a3d8-47b3ba81a7e6"},"vehicle_type_id":"4","last_reported":1702580746,"current_range_meters":23200,"station_id":"ce4bhq92rcd13ifvqhkg","pricing_plan_id":"free"},{"bike_id":"6be6e30d-a1a4-4274-a12e-04437af1d297","system_id":"levelo_inurba_marseille","lat":43.27621,"lon":5.36105,"is_reserved":false,"is_disabled":false,"rental_uris":{"android":"levelo://app?vid=6be6e30d-a1a4-4274-a12e-04437af1d297","ios":"levelo://app?vid=6be6e30d-a1a4-4274-a12e-04437af1d297"},"vehicle_type_id":"4","last_reported":1702580746,"current_range_meters":11600,"station_id":"ce4bgj92rcd13ifvqbe0","pricing_plan_id":"free"},{"bike_id":"d9271bdb-56a1-44f1-a766-777fbbe6b769","system_id":"levelo_inurba_marseille","lat":43.280784,"lon":5.396622,"is_reserved":false,"is_disabled":false,"rental_uris":{"android":"levelo://app?vid=d9271bdb-56a1-44f1-a766-777fbbe6b769","ios":"levelo://app?vid=d9271bdb-56a1-44f1-a766-777fbbe6b769"},"vehicle_type_id":"4","last_reported":1702580746,"current_range_meters":25200,"station_id":"ce4bho12rcd13ifvqh2g","pricing_plan_id":"free"},{"bike_id":"7c54200c-1ced-40e8-81fb-7c64c7a854e6","system_id":"levelo_inurba_marseille","lat":43.280784,"lon":5.396622,"is_reserved":false,"is_disabled":false,"rental_uris":{"android":"levelo://app?vid=7c54200c-1ced-40e8-81fb-7c64c7a854e6","ios":"levelo://app?vid=7c54200c-1ced-40e8-81fb-7c64c7a854e6"},"vehicle_type_id":"4","last_reported":1702580746,"current_range_meters":17200,"station_id":"ce4bho12rcd13ifvqh2g","pricing_plan_id":"free"},{"bike_id":"38f7ad61-5224-4eb5-a3bd-7fdefd112261","system_id":"levelo_inurba_marseille","lat":43.303837,"lon":5.418724,"is_reserved":false,"is_disabled":false,"rental_uris":{"android":"levelo://app?vid=38f7ad61-5224-4eb5-a3bd-7fdefd112261","ios":"levelo://app?vid=38f7ad61-5224-4eb5-a3bd-7fdefd112261"},"vehicle_type_id":"4","last_reported":1702580746,"current_range_meters":22800,"station_id":"ce4bhop2rcd13ifvqh7g","pricing_plan_id":"free"},{"bike_id":"a59c4da2-febd-4448-b0c6-9d96a4a58b62","system_id":"levelo_inurba_marseille","lat":43.303837,"lon":5.418724,"is_reserved":false,"is_disabled":false,"rental_uris":{"android":"levelo://app?vid=a59c4da2-febd-4448-b0c6-9d96a4a58b62","ios":"levelo://app?vid=a59c4da2-febd-4448-b0c6-9d96a4a58b62"},"vehicle_type_id":"4","last_reported":1702580746,"current_range_meters":30000,"station_id":"ce4bhop2rcd13ifvqh7g","pricing_plan_id":"free"},{"bike_id":"c4cfb68b-0ac0-4a8c-b786-f9b41850db55","system_id":"levelo_inurba_marseille","lat":43.27376,"lon":5.36256,"is_reserved":false,"is_disabled":false,"rental_uris":{"android":"levelo://app?vid=c4cfb68b-0ac0-4a8c-b786-f9b41850db55","ios":"levelo://app?vid=c4cfb68b-0ac0-4a8c-b786-f9b41850db55"},"vehicle_type_id":"4","last_reported":1702580746,"current_range_meters":30800,"station_id":"ce4bhbh2rcd13ifvqeo0","pricing_plan_id":"free"},{"bike_id":"8dd7f3b2-fac2-4f40-8d56-9a0ca7caf5b3","system_id":"levelo_inurba_marseille","lat":43.335923,"lon":5.410267,"is_reserved":false,"is_disabled":false,"rental_uris":{"android":"levelo://app?vid=8dd7f3b2-fac2-4f40-8d56-9a0ca7caf5b3","ios":"levelo://app?vid=8dd7f3b2-fac2-4f40-8d56-9a0ca7caf5b3"},"vehicle_type_id":"4","last_reported":1702580746,"current_range_meters":9600,"station_id":"","pricing_plan_id":"free"},{"bike_id":"011ea66f-b5d5-4043-a63c-90a270e43152","system_id":"levelo_inurba_marseille","lat":43.276769,"lon":5.388787,"is_reserved":false,"is_disabled":false,"rental_uris":{"android":"levelo://app?vid=011ea66f-b5d5-4043-a63c-90a270e43152","ios":"levelo://app?vid=011ea66f-b5d5-4043-a63c-90a270e43152"},"vehicle_type_id":"4","last_reported":1702580746,"current_range_meters":400,"station_id":"ce4bhi12rcd13ifvqfo0","pricing_plan_id":"free"},{"bike_id":"e7e851cd-2742-4996-b5f5-233b15fc5f3b","system_id":"levelo_inurba_marseille","lat":43.336134,"lon":5.410341,"is_reserved":false,"is_disabled":false,"rental_uris":{"android":"levelo://app?vid=e7e851cd-2742-4996-b5f5-233b15fc5f3b","ios":"levelo://app?vid=e7e851cd-2742-4996-b5f5-233b15fc5f3b"},"vehicle_type_id":"4","last_reported":1702580746,"current_range_meters":17600,"station_id":"ce4bhqh2rcd13ifvqhmg","pricing_plan_id":"free"},{"bike_id":"d4eba2e5-dd32-45e9-9537-a9d40c1dc9d3","system_id":"levelo_inurba_marseille","lat":43.276769,"lon":5.388787,"is_reserved":false,"is_disabled":false,"rental_uris":{"android":"levelo://app?vid=d4eba2e5-dd32-45e9-9537-a9d40c1dc9d3","ios":"levelo://app?vid=d4eba2e5-dd32-45e9-9537-a9d40c1dc9d3"},"vehicle_type_id":"4","last_reported":1702580746,"current_range_meters":22800,"station_id":"ce4bhi12rcd13ifvqfo0","pricing_plan_id":"free"},{"bike_id":"541a0668-1da0-439b-95f4-334cf612e665","system_id":"levelo_inurba_marseille","lat":43.276771,"lon":5.388799,"is_reserved":false,"is_disabled":false,"rental_uris":{"android":"levelo://app?vid=541a0668-1da0-439b-95f4-334cf612e665","ios":"levelo://app?vid=541a0668-1da0-439b-95f4-334cf612e665"},"vehicle_type_id":"4","last_reported":1702580746,"current_range_meters":2000,"station_id":"ce4bhi12rcd13ifvqfo0","pricing_plan_id":"free"},{"bike_id":"6a7b8a26-082c-43f9-9b02-cf9da79a2a1c","system_id":"levelo_inurba_marseille","lat":43.279975,"lon":5.40009,"is_reserved":false,"is_disabled":false,"rental_uris":{"android":"levelo://app?vid=6a7b8a26-082c-43f9-9b02-cf9da79a2a1c","ios":"levelo://app?vid=6a7b8a26-082c-43f9-9b02-cf9da79a2a1c"},"vehicle_type_id":"4","last_reported":1702580746,"current_range_meters":3200,"station_id":"ce4bho92rcd13ifvqh4g","pricing_plan_id":"free"},{"bike_id":"db330214-f544-4115-85b6-902e9464676c","system_id":"levelo_inurba_marseille","lat":43.279975,"lon":5.40009,"is_reserved":false,"is_disabled":false,"rental_uris":{"android":"levelo://app?vid=db330214-f544-4115-85b6-902e9464676c","ios":"levelo://app?vid=db330214-f544-4115-85b6-902e9464676c"},"vehicle_type_id":"4","last_reported":1702580746,"current_range_meters":0,"station_id":"ce4bho92rcd13ifvqh4g","pricing_plan_id":"free"},{"bike_id":"689b605a-9159-4e54-ac9f-be975ff46d8d","system_id":"levelo_inurba_marseille","lat":43.340804,"lon":5.410219,"is_reserved":false,"is_disabled":false,"rental_uris":{"android":"levelo://app?vid=689b605a-9159-4e54-ac9f-be975ff46d8d","ios":"levelo://app?vid=689b605a-9159-4e54-ac9f-be975ff46d8d"},"vehicle_type_id":"4","last_reported":1702580746,"current_range_meters":13600,"station_id":"ce4bhqh2rcd13ifvqhlg","pricing_plan_id":"free"},{"bike_id":"3ca2c2d2-99b0-4aa6-a05d-e30f02e6a7fb","system_id":"levelo_inurba_marseille","lat":43.276092,"lon":5.395289,"is_reserved":false,"is_disabled":false,"rental_uris":{"android":"levelo://app?vid=3ca2c2d2-99b0-4aa6-a05d-e30f02e6a7fb","ios":"levelo://app?vid=3ca2c2d2-99b0-4aa6-a05d-e30f02e6a7fb"},"vehicle_type_id":"4","last_reported":1702580746,"current_range_meters":29600,"station_id":"","pricing_plan_id":"free"},{"bike_id":"eee21774-c21e-4391-a81e-637504796f40","system_id":"levelo_inurba_marseille","lat":43.2732,"lon":5.39083,"is_reserved":false,"is_disabled":false,"rental_uris":{"android":"levelo://app?vid=eee21774-c21e-4391-a81e-637504796f40","ios":"levelo://app?vid=eee21774-c21e-4391-a81e-637504796f40"},"vehicle_type_id":"4","last_reported":1702580746,"current_range_meters":5600,"station_id":"","pricing_plan_id":"free"},{"bike_id":"dc71b37a-2d84-42d4-886d-b4dd76362f4d","system_id":"levelo_inurba_marseille","lat":43.273129,"lon":5.390725,"is_reserved":false,"is_disabled":false,"rental_uris":{"android":"levelo://app?vid=dc71b37a-2d84-42d4-886d-b4dd76362f4d","ios":"levelo://app?vid=dc71b37a-2d84-42d4-886d-b4dd76362f4d"},"vehicle_type_id":"4","last_reported":1702580746,"current_range_meters":26400,"station_id":"ce4bhgp2rcd13ifvqfe0","pricing_plan_id":"free"},{"bike_id":"323bb978-8fcf-4fb3-baff-78c2aff75477","system_id":"levelo_inurba_marseille","lat":43.274099,"lon":5.394019,"is_reserved":false,"is_disabled":false,"rental_uris":{"android":"levelo://app?vid=323bb978-8fcf-4fb3-baff-78c2aff75477","ios":"levelo://app?vid=323bb978-8fcf-4fb3-baff-78c2aff75477"},"vehicle_type_id":"4","last_reported":1702580746,"current_range_meters":5200,"station_id":"ce4bhdp2rcd13ifvqf20","pricing_plan_id":"free"},{"bike_id":"6fe067ca-195a-4e97-a287-32ee7f2dfc50","system_id":"levelo_inurba_marseille","lat":43.295511,"lon":5.422926,"is_reserved":false,"is_disabled":false,"rental_uris":{"android":"levelo://app?vid=6fe067ca-195a-4e97-a287-32ee7f2dfc50","ios":"levelo://app?vid=6fe067ca-195a-4e97-a287-32ee7f2dfc50"},"vehicle_type_id":"4","last_reported":1702580746,"current_range_meters":25600,"station_id":"ce4bhph2rcd13ifvqhdg","pricing_plan_id":"free"},{"bike_id":"9128feaf-36b8-4e63-849f-ccc68f896dc0","system_id":"levelo_inurba_marseille","lat":43.295523,"lon":5.422926,"is_reserved":false,"is_disabled":false,"rental_uris":{"android":"levelo://app?vid=9128feaf-36b8-4e63-849f-ccc68f896dc0","ios":"levelo://app?vid=9128feaf-36b8-4e63-849f-ccc68f896dc0"},"vehicle_type_id":"4","last_reported":1702580746,"current_range_meters":22400,"station_id":"ce4bhph2rcd13ifvqhdg","pricing_plan_id":"free"},{"bike_id":"1ed553f0-2cb3-4804-9f02-332eae28ac3e","system_id":"levelo_inurba_marseille","lat":43.299717,"lon":5.384845,"is_reserved":false,"is_disabled":false,"rental_uris":{"android":"levelo://app?vid=1ed553f0-2cb3-4804-9f02-332eae28ac3e","ios":"levelo://app?vid=1ed553f0-2cb3-4804-9f02-332eae28ac3e"},"vehicle_type_id":"4","last_reported":1702580746,"current_range_meters":27600,"station_id":"ce4bgj92rcd13ifvqbd0","pricing_plan_id":"free"},{"bike_id":"abd98da6-0114-4627-be7b-b482877ac57f","system_id":"levelo_inurba_marseille","lat":43.272116,"lon":5.391763,"is_reserved":false,"is_disabled":false,"rental_uris":{"android":"levelo://app?vid=abd98da6-0114-4627-be7b-b482877ac57f","ios":"levelo://app?vid=abd98da6-0114-4627-be7b-b482877ac57f"},"vehicle_type_id":"4","last_reported":1702580746,"current_range_meters":1600,"station_id":"ce4bhhp2rcd13ifvqfm0","pricing_plan_id":"free"},{"bike_id":"5dffb3a8-8b83-4755-b3f0-633b036f6f8b","system_id":"levelo_inurba_marseille","lat":43.272116,"lon":5.391747,"is_reserved":false,"is_disabled":false,"rental_uris":{"android":"levelo://app?vid=5dffb3a8-8b83-4755-b3f0-633b036f6f8b","ios":"levelo://app?vid=5dffb3a8-8b83-4755-b3f0-633b036f6f8b"},"vehicle_type_id":"4","last_reported":1702580746,"current_range_meters":18000,"station_id":"ce4bhhp2rcd13ifvqfm0","pricing_plan_id":"free"},{"bike_id":"cc3633d8-6d7a-4919-abc7-d82994111a64","system_id":"levelo_inurba_marseille","lat":43.272124,"lon":5.391768,"is_reserved":false,"is_disabled":false,"rental_uris":{"android":"levelo://app?vid=cc3633d8-6d7a-4919-abc7-d82994111a64","ios":"levelo://app?vid=cc3633d8-6d7a-4919-abc7-d82994111a64"},"vehicle_type_id":"4","last_reported":1702580746,"current_range_meters":22400,"station_id":"ce4bhhp2rcd13ifvqfm0","pricing_plan_id":"free"},{"bike_id":"9ed8a8b0-adcb-4301-a90b-ada718e24e35","system_id":"levelo_inurba_marseille","lat":43.278128,"lon":5.407195,"is_reserved":false,"is_disabled":false,"rental_uris":{"android":"levelo://app?vid=9ed8a8b0-adcb-4301-a90b-ada718e24e35","ios":"levelo://app?vid=9ed8a8b0-adcb-4301-a90b-ada718e24e35"},"vehicle_type_id":"4","last_reported":1702580746,"current_range_meters":15600,"station_id":"ce4bhnh2rcd13ifvqgtg","pricing_plan_id":"free"},{"bike_id":"d7f27fad-86d8-4bfb-b6b6-7e3431dfdafe","system_id":"levelo_inurba_marseille","lat":43.278128,"lon":5.407195,"is_reserved":false,"is_disabled":false,"rental_uris":{"android":"levelo://app?vid=d7f27fad-86d8-4bfb-b6b6-7e3431dfdafe","ios":"levelo://app?vid=d7f27fad-86d8-4bfb-b6b6-7e3431dfdafe"},"vehicle_type_id":"4","last_reported":1702580746,"current_range_meters":23200,"station_id":"ce4bhnh2rcd13ifvqgtg","pricing_plan_id":"free"},{"bike_id":"6baecf9e-750f-4685-ba33-d33fd9cbfd22","system_id":"levelo_inurba_marseille","lat":43.278128,"lon":5.407195,"is_reserved":false,"is_disabled":false,"rental_uris":{"android":"levelo://app?vid=6baecf9e-750f-4685-ba33-d33fd9cbfd22","ios":"levelo://app?vid=6baecf9e-750f-4685-ba33-d33fd9cbfd22"},"vehicle_type_id":"4","last_reported":1702580746,"current_range_meters":12000,"station_id":"ce4bhnh2rcd13ifvqgtg","pricing_plan_id":"free"},{"bike_id":"b27baca8-7402-4981-a33c-cc0eade0c7a3","system_id":"levelo_inurba_marseille","lat":43.269467,"lon":5.386439,"is_reserved":false,"is_disabled":false,"rental_uris":{"android":"levelo://app?vid=b27baca8-7402-4981-a33c-cc0eade0c7a3","ios":"levelo://app?vid=b27baca8-7402-4981-a33c-cc0eade0c7a3"},"vehicle_type_id":"4","last_reported":1702580746,"current_range_meters":7200,"station_id":"ce4bhh92rcd13ifvqfh0","pricing_plan_id":"free"},{"bike_id":"04b3d846-1da3-4e37-aa5f-d8bcc257dd52","system_id":"levelo_inurba_marseille","lat":43.27015,"lon":5.3929,"is_reserved":false,"is_disabled":false,"rental_uris":{"android":"levelo://app?vid=04b3d846-1da3-4e37-aa5f-d8bcc257dd52","ios":"levelo://app?vid=04b3d846-1da3-4e37-aa5f-d8bcc257dd52"},"vehicle_type_id":"4","last_reported":1702580746,"current_range_meters":0,"station_id":"","pricing_plan_id":"free"},{"bike_id":"7761e707-3e80-47e5-b2b9-d0b8b42004af","system_id":"levelo_inurba_marseille","lat":43.26681,"lon":5.382694,"is_reserved":false,"is_disabled":false,"rental_uris":{"android":"levelo://app?vid=7761e707-3e80-47e5-b2b9-d0b8b42004af","ios":"levelo://app?vid=7761e707-3e80-47e5-b2b9-d0b8b42004af"},"vehicle_type_id":"4","last_reported":1702580746,"current_range_meters":15200,"station_id":"ce4bhg92rcd13ifvqf90","pricing_plan_id":"free"},{"bike_id":"fdbb2a64-718f-4c24-aecd-2168521f221f","system_id":"levelo_inurba_marseille","lat":43.27996,"lon":5.416624,"is_reserved":false,"is_disabled":false,"rental_uris":{"android":"levelo://app?vid=fdbb2a64-718f-4c24-aecd-2168521f221f","ios":"levelo://app?vid=fdbb2a64-718f-4c24-aecd-2168521f221f"},"vehicle_type_id":"4","last_reported":1702580746,"current_range_meters":16000,"station_id":"ce4bho12rcd13ifvqh1g","pricing_plan_id":"free"},{"bike_id":"3af47857-5348-4405-939e-ee94bfd3a617","system_id":"levelo_inurba_marseille","lat":43.26576,"lon":5.39007,"is_reserved":false,"is_disabled":false,"rental_uris":{"android":"levelo://app?vid=3af47857-5348-4405-939e-ee94bfd3a617","ios":"levelo://app?vid=3af47857-5348-4405-939e-ee94bfd3a617"},"vehicle_type_id":"4","last_reported":1702580746,"current_range_meters":18000,"station_id":"ce4bhe12rcd13ifvqf30","pricing_plan_id":"free"},{"bike_id":"90ce7126-fea6-4064-8bef-03a9e230bb3d","system_id":"levelo_inurba_marseille","lat":43.265721,"lon":5.390048,"is_reserved":false,"is_disabled":false,"rental_uris":{"android":"levelo://app?vid=90ce7126-fea6-4064-8bef-03a9e230bb3d","ios":"levelo://app?vid=90ce7126-fea6-4064-8bef-03a9e230bb3d"},"vehicle_type_id":"4","last_reported":1702580746,"current_range_meters":17200,"station_id":"ce4bhe12rcd13ifvqf30","pricing_plan_id":"free"},{"bike_id":"e6b6b285-2f98-49b9-a28a-25cb70c91c27","system_id":"levelo_inurba_marseille","lat":43.265657,"lon":5.390077,"is_reserved":false,"is_disabled":false,"rental_uris":{"android":"levelo://app?vid=e6b6b285-2f98-49b9-a28a-25cb70c91c27","ios":"levelo://app?vid=e6b6b285-2f98-49b9-a28a-25cb70c91c27"},"vehicle_type_id":"4","last_reported":1702580746,"current_range_meters":0,"station_id":"ce4bhe12rcd13ifvqf30","pricing_plan_id":"free"},{"bike_id":"f78c4804-61f7-443c-8b6e-16f634b065b5","system_id":"levelo_inurba_marseille","lat":43.26569,"lon":5.39021,"is_reserved":false,"is_disabled":false,"rental_uris":{"android":"levelo://app?vid=f78c4804-61f7-443c-8b6e-16f634b065b5","ios":"levelo://app?vid=f78c4804-61f7-443c-8b6e-16f634b065b5"},"vehicle_type_id":"4","last_reported":1702580746,"current_range_meters":4400,"station_id":"ce4bhe12rcd13ifvqf30","pricing_plan_id":"free"},{"bike_id":"8193ccbe-8bb3-4393-a9a5-883814bafaea","system_id":"levelo_inurba_marseille","lat":43.265682,"lon":5.390205,"is_reserved":false,"is_disabled":false,"rental_uris":{"android":"levelo://app?vid=8193ccbe-8bb3-4393-a9a5-883814bafaea","ios":"levelo://app?vid=8193ccbe-8bb3-4393-a9a5-883814bafaea"},"vehicle_type_id":"4","last_reported":1702580746,"current_range_meters":7200,"station_id":"ce4bhe12rcd13ifvqf30","pricing_plan_id":"free"},{"bike_id":"6608fb5f-c34b-40e1-8d57-c8fe1c96c99e","system_id":"levelo_inurba_marseille","lat":43.265571,"lon":5.390032,"is_reserved":false,"is_disabled":false,"rental_uris":{"android":"levelo://app?vid=6608fb5f-c34b-40e1-8d57-c8fe1c96c99e","ios":"levelo://app?vid=6608fb5f-c34b-40e1-8d57-c8fe1c96c99e"},"vehicle_type_id":"4","last_reported":1702580746,"current_range_meters":0,"station_id":"ce4bhe12rcd13ifvqf30","pricing_plan_id":"free"},{"bike_id":"d0977b45-d2c8-4ad5-8ec5-bdbac799383a","system_id":"levelo_inurba_marseille","lat":43.317104,"lon":5.436818,"is_reserved":false,"is_disabled":false,"rental_uris":{"android":"levelo://app?vid=d0977b45-d2c8-4ad5-8ec5-bdbac799383a","ios":"levelo://app?vid=d0977b45-d2c8-4ad5-8ec5-bdbac799383a"},"vehicle_type_id":"4","last_reported":1702580746,"current_range_meters":24800,"station_id":"ce4bhp92rcd13ifvqhcg","pricing_plan_id":"free"},{"bike_id":"7f84783e-5acd-446e-9626-60df6c193f32","system_id":"levelo_inurba_marseille","lat":43.261782,"lon":5.374515,"is_reserved":false,"is_disabled":false,"rental_uris":{"android":"levelo://app?vid=7f84783e-5acd-446e-9626-60df6c193f32","ios":"levelo://app?vid=7f84783e-5acd-446e-9626-60df6c193f32"},"vehicle_type_id":"4","last_reported":1702580746,"current_range_meters":12800,"station_id":"ce4bhgp2rcd13ifvqfc0","pricing_plan_id":"free"},{"bike_id":"8f513cc1-2c45-408a-9c9f-d53472119c50","system_id":"levelo_inurba_marseille","lat":43.271368,"lon":5.40928,"is_reserved":false,"is_disabled":false,"rental_uris":{"android":"levelo://app?vid=8f513cc1-2c45-408a-9c9f-d53472119c50","ios":"levelo://app?vid=8f513cc1-2c45-408a-9c9f-d53472119c50"},"vehicle_type_id":"4","last_reported":1702580746,"current_range_meters":6800,"station_id":"ce4bhl12rcd13ifvqgf0","pricing_plan_id":"free"},{"bike_id":"13f7afe0-4d90-4591-9ac6-18730f52d7f9","system_id":"levelo_inurba_marseille","lat":43.271368,"lon":5.40928,"is_reserved":false,"is_disabled":false,"rental_uris":{"android":"levelo://app?vid=13f7afe0-4d90-4591-9ac6-18730f52d7f9","ios":"levelo://app?vid=13f7afe0-4d90-4591-9ac6-18730f52d7f9"},"vehicle_type_id":"4","last_reported":1702580746,"current_range_meters":30400,"station_id":"ce4bhl12rcd13ifvqgf0","pricing_plan_id":"free"},{"bike_id":"348ca18b-dc25-4114-a3c8-d759b407f807","system_id":"levelo_inurba_marseille","lat":43.271388,"lon":5.409269,"is_reserved":false,"is_disabled":false,"rental_uris":{"android":"levelo://app?vid=348ca18b-dc25-4114-a3c8-d759b407f807","ios":"levelo://app?vid=348ca18b-dc25-4114-a3c8-d759b407f807"},"vehicle_type_id":"4","last_reported":1702580746,"current_range_meters":16000,"station_id":"ce4bhl12rcd13ifvqgf0","pricing_plan_id":"free"},{"bike_id":"2d4df44c-723e-4b54-a8fd-79a73e16deb6","system_id":"levelo_inurba_marseille","lat":43.271368,"lon":5.40928,"is_reserved":false,"is_disabled":false,"rental_uris":{"android":"levelo://app?vid=2d4df44c-723e-4b54-a8fd-79a73e16deb6","ios":"levelo://app?vid=2d4df44c-723e-4b54-a8fd-79a73e16deb6"},"vehicle_type_id":"4","last_reported":1702580746,"current_range_meters":31200,"station_id":"ce4bhl12rcd13ifvqgf0","pricing_plan_id":"free"},{"bike_id":"e08cb7a0-f6bd-4a79-b1de-9d6a715917f8","system_id":"levelo_inurba_marseille","lat":43.29897,"lon":5.4366,"is_reserved":false,"is_disabled":false,"rental_uris":{"android":"levelo://app?vid=e08cb7a0-f6bd-4a79-b1de-9d6a715917f8","ios":"levelo://app?vid=e08cb7a0-f6bd-4a79-b1de-9d6a715917f8"},"vehicle_type_id":"4","last_reported":1702580746,"current_range_meters":15200,"station_id":"ce4bhpp2rcd13ifvqhfg","pricing_plan_id":"free"},{"bike_id":"0905945f-74c2-4bce-b51c-70befd2c9e4a","system_id":"levelo_inurba_marseille","lat":43.298768,"lon":5.43643,"is_reserved":false,"is_disabled":false,"rental_uris":{"android":"levelo://app?vid=0905945f-74c2-4bce-b51c-70befd2c9e4a","ios":"levelo://app?vid=0905945f-74c2-4bce-b51c-70befd2c9e4a"},"vehicle_type_id":"4","last_reported":1702580746,"current_range_meters":28000,"station_id":"ce4bhpp2rcd13ifvqhfg","pricing_plan_id":"free"},{"bike_id":"bc029538-d190-4438-a7fa-a5ba24eea074","system_id":"levelo_inurba_marseille","lat":43.299,"lon":5.43675,"is_reserved":false,"is_disabled":false,"rental_uris":{"android":"levelo://app?vid=bc029538-d190-4438-a7fa-a5ba24eea074","ios":"levelo://app?vid=bc029538-d190-4438-a7fa-a5ba24eea074"},"vehicle_type_id":"4","last_reported":1702580746,"current_range_meters":26800,"station_id":"ce4bhpp2rcd13ifvqhfg","pricing_plan_id":"free"},{"bike_id":"47c09f4d-b026-488b-88bd-d86fe61e55ad","system_id":"levelo_inurba_marseille","lat":43.281548,"lon":5.42643,"is_reserved":false,"is_disabled":false,"rental_uris":{"android":"levelo://app?vid=47c09f4d-b026-488b-88bd-d86fe61e55ad","ios":"levelo://app?vid=47c09f4d-b026-488b-88bd-d86fe61e55ad"},"vehicle_type_id":"4","last_reported":1702580746,"current_range_meters":23600,"station_id":"ce4bhnh2rcd13ifvqgug","pricing_plan_id":"free"},{"bike_id":"0a0ed8c3-e8f3-4bb3-ac6f-18ed8eb40c0a","system_id":"levelo_inurba_marseille","lat":43.281548,"lon":5.42643,"is_reserved":false,"is_disabled":false,"rental_uris":{"android":"levelo://app?vid=0a0ed8c3-e8f3-4bb3-ac6f-18ed8eb40c0a","ios":"levelo://app?vid=0a0ed8c3-e8f3-4bb3-ac6f-18ed8eb40c0a"},"vehicle_type_id":"4","last_reported":1702580746,"current_range_meters":21200,"station_id":"ce4bhnh2rcd13ifvqgug","pricing_plan_id":"free"},{"bike_id":"e1a4e7f2-d6c9-431f-9be0-2c76848eb849","system_id":"levelo_inurba_marseille","lat":43.281548,"lon":5.42643,"is_reserved":false,"is_disabled":false,"rental_uris":{"android":"levelo://app?vid=e1a4e7f2-d6c9-431f-9be0-2c76848eb849","ios":"levelo://app?vid=e1a4e7f2-d6c9-431f-9be0-2c76848eb849"},"vehicle_type_id":"4","last_reported":1702580746,"current_range_meters":23600,"station_id":"ce4bhnh2rcd13ifvqgug","pricing_plan_id":"free"},{"bike_id":"ff29e1bd-9f57-43ae-bfdb-2061fd5e3f43","system_id":"levelo_inurba_marseille","lat":43.281548,"lon":5.42643,"is_reserved":false,"is_disabled":false,"rental_uris":{"android":"levelo://app?vid=ff29e1bd-9f57-43ae-bfdb-2061fd5e3f43","ios":"levelo://app?vid=ff29e1bd-9f57-43ae-bfdb-2061fd5e3f43"},"vehicle_type_id":"4","last_reported":1702580746,"current_range_meters":12400,"station_id":"ce4bhnh2rcd13ifvqgug","pricing_plan_id":"free"},{"bike_id":"7577413c-1496-4fea-a151-fe7d7ef6585f","system_id":"levelo_inurba_marseille","lat":43.2607,"lon":5.393983,"is_reserved":false,"is_disabled":false,"rental_uris":{"android":"levelo://app?vid=7577413c-1496-4fea-a151-fe7d7ef6585f","ios":"levelo://app?vid=7577413c-1496-4fea-a151-fe7d7ef6585f"},"vehicle_type_id":"4","last_reported":1702580746,"current_range_meters":6000,"station_id":"ce4bhh92rcd13ifvqfj0","pricing_plan_id":"free"},{"bike_id":"1cd59c6f-6d72-49b6-8c36-8271ca67128a","system_id":"levelo_inurba_marseille","lat":43.25581,"lon":5.38227,"is_reserved":false,"is_disabled":false,"rental_uris":{"android":"levelo://app?vid=1cd59c6f-6d72-49b6-8c36-8271ca67128a","ios":"levelo://app?vid=1cd59c6f-6d72-49b6-8c36-8271ca67128a"},"vehicle_type_id":"4","last_reported":1702580746,"current_range_meters":0,"station_id":"ce4bhih2rcd13ifvqfs0","pricing_plan_id":"free"},{"bike_id":"703022e8-3cc9-49df-830f-7c43e5f7e674","system_id":"levelo_inurba_marseille","lat":43.25581,"lon":5.38227,"is_reserved":false,"is_disabled":false,"rental_uris":{"android":"levelo://app?vid=703022e8-3cc9-49df-830f-7c43e5f7e674","ios":"levelo://app?vid=703022e8-3cc9-49df-830f-7c43e5f7e674"},"vehicle_type_id":"4","last_reported":1702580746,"current_range_meters":13200,"station_id":"ce4bhih2rcd13ifvqfs0","pricing_plan_id":"free"},{"bike_id":"662a0b76-a6e7-427f-be62-567ddbae2396","system_id":"levelo_inurba_marseille","lat":43.25575,"lon":5.38226,"is_reserved":false,"is_disabled":false,"rental_uris":{"android":"levelo://app?vid=662a0b76-a6e7-427f-be62-567ddbae2396","ios":"levelo://app?vid=662a0b76-a6e7-427f-be62-567ddbae2396"},"vehicle_type_id":"4","last_reported":1702580746,"current_range_meters":13200,"station_id":"ce4bhih2rcd13ifvqfs0","pricing_plan_id":"free"},{"bike_id":"8834b350-77fd-4efb-a3f5-5787c412c375","system_id":"levelo_inurba_marseille","lat":43.25574,"lon":5.38238,"is_reserved":false,"is_disabled":false,"rental_uris":{"android":"levelo://app?vid=8834b350-77fd-4efb-a3f5-5787c412c375","ios":"levelo://app?vid=8834b350-77fd-4efb-a3f5-5787c412c375"},"vehicle_type_id":"4","last_reported":1702580746,"current_range_meters":9600,"station_id":"ce4bhih2rcd13ifvqfs0","pricing_plan_id":"free"},{"bike_id":"eb51775d-e0fb-4c47-896b-b998110b41b9","system_id":"levelo_inurba_marseille","lat":43.270721,"lon":5.422764,"is_reserved":false,"is_disabled":false,"rental_uris":{"android":"levelo://app?vid=eb51775d-e0fb-4c47-896b-b998110b41b9","ios":"levelo://app?vid=eb51775d-e0fb-4c47-896b-b998110b41b9"},"vehicle_type_id":"4","last_reported":1702580746,"current_range_meters":31200,"station_id":"ce4bhk92rcd13ifvqgb0","pricing_plan_id":"free"},{"bike_id":"c26151e8-8d77-4365-861f-d6b3750fe3d4","system_id":"levelo_inurba_marseille","lat":43.258658,"lon":5.398935,"is_reserved":false,"is_disabled":false,"rental_uris":{"android":"levelo://app?vid=c26151e8-8d77-4365-861f-d6b3750fe3d4","ios":"levelo://app?vid=c26151e8-8d77-4365-861f-d6b3750fe3d4"},"vehicle_type_id":"4","last_reported":1702580746,"current_range_meters":27600,"station_id":"ce4bhl92rcd13ifvqghg","pricing_plan_id":"free"},{"bike_id":"87ffd965-dc16-48a8-ada2-571a9f81385b","system_id":"levelo_inurba_marseille","lat":43.257079,"lon":5.411051,"is_reserved":false,"is_disabled":false,"rental_uris":{"android":"levelo://app?vid=87ffd965-dc16-48a8-ada2-571a9f81385b","ios":"levelo://app?vid=87ffd965-dc16-48a8-ada2-571a9f81385b"},"vehicle_type_id":"4","last_reported":1702580746,"current_range_meters":21600,"station_id":"ce4bhkp2rcd13ifvqgd0","pricing_plan_id":"free"},{"bike_id":"17791fc0-eaa7-4aa4-a21b-ff72dc2b3fa0","system_id":"levelo_inurba_marseille","lat":43.250023,"lon":5.38919,"is_reserved":false,"is_disabled":false,"rental_uris":{"android":"levelo://app?vid=17791fc0-eaa7-4aa4-a21b-ff72dc2b3fa0","ios":"levelo://app?vid=17791fc0-eaa7-4aa4-a21b-ff72dc2b3fa0"},"vehicle_type_id":"4","last_reported":1702580746,"current_range_meters":22400,"station_id":"ce4bhgp2rcd13ifvqfd0","pricing_plan_id":"free"},{"bike_id":"03bc1e3f-e9ac-4782-8cfd-d76be499a5e5","system_id":"levelo_inurba_marseille","lat":43.250009,"lon":5.389195,"is_reserved":false,"is_disabled":false,"rental_uris":{"android":"levelo://app?vid=03bc1e3f-e9ac-4782-8cfd-d76be499a5e5","ios":"levelo://app?vid=03bc1e3f-e9ac-4782-8cfd-d76be499a5e5"},"vehicle_type_id":"4","last_reported":1702580746,"current_range_meters":28400,"station_id":"ce4bhgp2rcd13ifvqfd0","pricing_plan_id":"free"},{"bike_id":"eb8aaa4c-27db-4227-a9f7-c23019592d42","system_id":"levelo_inurba_marseille","lat":43.2479,"lon":5.374457,"is_reserved":false,"is_disabled":false,"rental_uris":{"android":"levelo://app?vid=eb8aaa4c-27db-4227-a9f7-c23019592d42","ios":"levelo://app?vid=eb8aaa4c-27db-4227-a9f7-c23019592d42"},"vehicle_type_id":"4","last_reported":1702580746,"current_range_meters":2000,"station_id":"ce4bhgh2rcd13ifvqfb0","pricing_plan_id":"free"},{"bike_id":"913945bd-b901-4fe7-9be9-455b1fac13cf","system_id":"levelo_inurba_marseille","lat":43.24806,"lon":5.37454,"is_reserved":false,"is_disabled":false,"rental_uris":{"android":"levelo://app?vid=913945bd-b901-4fe7-9be9-455b1fac13cf","ios":"levelo://app?vid=913945bd-b901-4fe7-9be9-455b1fac13cf"},"vehicle_type_id":"4","last_reported":1702580746,"current_range_meters":4000,"station_id":"ce4bhgh2rcd13ifvqfb0","pricing_plan_id":"free"},{"bike_id":"41141c1c-d172-4264-ae0f-545f42a7f1d0","system_id":"levelo_inurba_marseille","lat":43.250966,"lon":5.395186,"is_reserved":false,"is_disabled":false,"rental_uris":{"android":"levelo://app?vid=41141c1c-d172-4264-ae0f-545f42a7f1d0","ios":"levelo://app?vid=41141c1c-d172-4264-ae0f-545f42a7f1d0"},"vehicle_type_id":"4","last_reported":1702580746,"current_range_meters":30800,"station_id":"ce4bhm12rcd13ifvqgkg","pricing_plan_id":"free"},{"bike_id":"e831dc2e-a33c-4939-b1be-d78f99f4dd5f","system_id":"levelo_inurba_marseille","lat":43.25102,"lon":5.403214,"is_reserved":false,"is_disabled":false,"rental_uris":{"android":"levelo://app?vid=e831dc2e-a33c-4939-b1be-d78f99f4dd5f","ios":"levelo://app?vid=e831dc2e-a33c-4939-b1be-d78f99f4dd5f"},"vehicle_type_id":"4","last_reported":1702580746,"current_range_meters":3200,"station_id":"ce4bhlh2rcd13ifvqgig","pricing_plan_id":"free"},{"bike_id":"943e52e8-36d7-4fec-9ddf-e07fe42c8d89","system_id":"levelo_inurba_marseille","lat":43.246461,"lon":5.389014,"is_reserved":false,"is_disabled":false,"rental_uris":{"android":"levelo://app?vid=943e52e8-36d7-4fec-9ddf-e07fe42c8d89","ios":"levelo://app?vid=943e52e8-36d7-4fec-9ddf-e07fe42c8d89"},"vehicle_type_id":"4","last_reported":1702580746,"current_range_meters":26800,"station_id":"ce4bhg12rcd13ifvqf60","pricing_plan_id":"free"},{"bike_id":"5eb01d94-3892-4fb0-a32e-89738077499a","system_id":"levelo_inurba_marseille","lat":43.245581,"lon":5.395069,"is_reserved":false,"is_disabled":false,"rental_uris":{"android":"levelo://app?vid=5eb01d94-3892-4fb0-a32e-89738077499a","ios":"levelo://app?vid=5eb01d94-3892-4fb0-a32e-89738077499a"},"vehicle_type_id":"4","last_reported":1702580746,"current_range_meters":0,"station_id":"ce4bhlp2rcd13ifvqgjg","pricing_plan_id":"free"},{"bike_id":"e5ef8c4d-c866-42b3-aabb-30e0e5562645","system_id":"levelo_inurba_marseille","lat":43.245581,"lon":5.395069,"is_reserved":false,"is_disabled":false,"rental_uris":{"android":"levelo://app?vid=e5ef8c4d-c866-42b3-aabb-30e0e5562645","ios":"levelo://app?vid=e5ef8c4d-c866-42b3-aabb-30e0e5562645"},"vehicle_type_id":"4","last_reported":1702580746,"current_range_meters":7600,"station_id":"ce4bhlp2rcd13ifvqgjg","pricing_plan_id":"free"},{"bike_id":"5b8d13f6-72bc-4b42-9a79-cd90af386fbc","system_id":"levelo_inurba_marseille","lat":43.240623,"lon":5.377642,"is_reserved":false,"is_disabled":false,"rental_uris":{"android":"levelo://app?vid=5b8d13f6-72bc-4b42-9a79-cd90af386fbc","ios":"levelo://app?vid=5b8d13f6-72bc-4b42-9a79-cd90af386fbc"},"vehicle_type_id":"4","last_reported":1702580746,"current_range_meters":3200,"station_id":"ce4bhnp2rcd13ifvqgvg","pricing_plan_id":"free"},{"bike_id":"b7637a5b-0329-45a7-bcd6-35358b19e8bd","system_id":"levelo_inurba_marseille","lat":43.239588,"lon":5.366238,"is_reserved":false,"is_disabled":false,"rental_uris":{"android":"levelo://app?vid=b7637a5b-0329-45a7-bcd6-35358b19e8bd","ios":"levelo://app?vid=b7637a5b-0329-45a7-bcd6-35358b19e8bd"},"vehicle_type_id":"4","last_reported":1702580746,"current_range_meters":28800,"station_id":"ce4bhi12rcd13ifvqfp0","pricing_plan_id":"free"},{"bike_id":"09e850ea-4841-45dc-8933-cb5bc12f1ec2","system_id":"levelo_inurba_marseille","lat":43.23966,"lon":5.3663,"is_reserved":false,"is_disabled":false,"rental_uris":{"android":"levelo://app?vid=09e850ea-4841-45dc-8933-cb5bc12f1ec2","ios":"levelo://app?vid=09e850ea-4841-45dc-8933-cb5bc12f1ec2"},"vehicle_type_id":"4","last_reported":1702580746,"current_range_meters":11600,"station_id":"ce4bhi12rcd13ifvqfp0","pricing_plan_id":"free"},{"bike_id":"417c4bb2-53a9-4a4c-a128-5a6478c52446","system_id":"levelo_inurba_marseille","lat":43.23965,"lon":5.3663,"is_reserved":false,"is_disabled":false,"rental_uris":{"android":"levelo://app?vid=417c4bb2-53a9-4a4c-a128-5a6478c52446","ios":"levelo://app?vid=417c4bb2-53a9-4a4c-a128-5a6478c52446"},"vehicle_type_id":"4","last_reported":1702580746,"current_range_meters":22800,"station_id":"ce4bhi12rcd13ifvqfp0","pricing_plan_id":"free"},{"bike_id":"3a814a24-07d8-4e6f-9e30-e43634a525e4","system_id":"levelo_inurba_marseille","lat":43.23963,"lon":5.36634,"is_reserved":false,"is_disabled":false,"rental_uris":{"android":"levelo://app?vid=3a814a24-07d8-4e6f-9e30-e43634a525e4","ios":"levelo://app?vid=3a814a24-07d8-4e6f-9e30-e43634a525e4"},"vehicle_type_id":"4","last_reported":1702580746,"current_range_meters":6000,"station_id":"ce4bhi12rcd13ifvqfp0","pricing_plan_id":"free"},{"bike_id":"39bf9e7f-bd9e-46b0-84fb-a4482e6eaab3","system_id":"levelo_inurba_marseille","lat":43.239588,"lon":5.366238,"is_reserved":false,"is_disabled":false,"rental_uris":{"android":"levelo://app?vid=39bf9e7f-bd9e-46b0-84fb-a4482e6eaab3","ios":"levelo://app?vid=39bf9e7f-bd9e-46b0-84fb-a4482e6eaab3"},"vehicle_type_id":"4","last_reported":1702580746,"current_range_meters":27600,"station_id":"ce4bhi12rcd13ifvqfp0","pricing_plan_id":"free"},{"bike_id":"1497ed62-688b-4d39-afdc-e76c42d6a7ae","system_id":"levelo_inurba_marseille","lat":43.23956,"lon":5.36635,"is_reserved":false,"is_disabled":false,"rental_uris":{"android":"levelo://app?vid=1497ed62-688b-4d39-afdc-e76c42d6a7ae","ios":"levelo://app?vid=1497ed62-688b-4d39-afdc-e76c42d6a7ae"},"vehicle_type_id":"4","last_reported":1702580746,"current_range_meters":24400,"station_id":"ce4bhi12rcd13ifvqfp0","pricing_plan_id":"free"},{"bike_id":"c77e0dfa-2439-4c1f-881b-aeb674be6171","system_id":"levelo_inurba_marseille","lat":43.231919,"lon":5.355532,"is_reserved":false,"is_disabled":false,"rental_uris":{"android":"levelo://app?vid=c77e0dfa-2439-4c1f-881b-aeb674be6171","ios":"levelo://app?vid=c77e0dfa-2439-4c1f-881b-aeb674be6171"},"vehicle_type_id":"4","last_reported":1702580746,"current_range_meters":6800,"station_id":"ce4bhu92rcd13ifvqi70","pricing_plan_id":"free"},{"bike_id":"1c152701-4b2a-4bae-9910-af52ecb96d7d","system_id":"levelo_inurba_marseille","lat":43.23195,"lon":5.35555,"is_reserved":false,"is_disabled":false,"rental_uris":{"android":"levelo://app?vid=1c152701-4b2a-4bae-9910-af52ecb96d7d","ios":"levelo://app?vid=1c152701-4b2a-4bae-9910-af52ecb96d7d"},"vehicle_type_id":"4","last_reported":1702580746,"current_range_meters":18800,"station_id":"ce4bhu92rcd13ifvqi70","pricing_plan_id":"free"},{"bike_id":"5c56cc11-c1ca-430f-b898-95a1151d8a21","system_id":"levelo_inurba_marseille","lat":43.231919,"lon":5.355532,"is_reserved":false,"is_disabled":false,"rental_uris":{"android":"levelo://app?vid=5c56cc11-c1ca-430f-b898-95a1151d8a21","ios":"levelo://app?vid=5c56cc11-c1ca-430f-b898-95a1151d8a21"},"vehicle_type_id":"4","last_reported":1702580746,"current_range_meters":3600,"station_id":"ce4bhu92rcd13ifvqi70","pricing_plan_id":"free"},{"bike_id":"a77fff13-9f20-4e3b-b9d6-ff4e799f8066","system_id":"levelo_inurba_marseille","lat":43.231903,"lon":5.399833,"is_reserved":false,"is_disabled":false,"rental_uris":{"android":"levelo://app?vid=a77fff13-9f20-4e3b-b9d6-ff4e799f8066","ios":"levelo://app?vid=a77fff13-9f20-4e3b-b9d6-ff4e799f8066"},"vehicle_type_id":"4","last_reported":1702580746,"current_range_meters":31200,"station_id":"ce4bhn12rcd13ifvqgqg","pricing_plan_id":"free"},{"bike_id":"dd7ed4dd-77c8-413e-9e14-33a4d651f1aa","system_id":"levelo_inurba_marseille","lat":43.231793,"lon":5.400044,"is_reserved":false,"is_disabled":false,"rental_uris":{"android":"levelo://app?vid=dd7ed4dd-77c8-413e-9e14-33a4d651f1aa","ios":"levelo://app?vid=dd7ed4dd-77c8-413e-9e14-33a4d651f1aa"},"vehicle_type_id":"4","last_reported":1702580746,"current_range_meters":31200,"station_id":"ce4bhn12rcd13ifvqgqg","pricing_plan_id":"free"},{"bike_id":"830d849e-9bc4-45c0-a5c3-bdc822c53da0","system_id":"levelo_inurba_marseille","lat":43.231794,"lon":5.400052,"is_reserved":false,"is_disabled":false,"rental_uris":{"android":"levelo://app?vid=830d849e-9bc4-45c0-a5c3-bdc822c53da0","ios":"levelo://app?vid=830d849e-9bc4-45c0-a5c3-bdc822c53da0"},"vehicle_type_id":"4","last_reported":1702580746,"current_range_meters":25600,"station_id":"ce4bhn12rcd13ifvqgqg","pricing_plan_id":"free"}]}}