{"last_updated":1744020720,"ttl":60,"version":"2.2","data":{"bikes":[{"bike_id":"7e9f16f7-394c-490d-95de-69098b11fce3","system_id":"levelo_inurba_marseille","lat":43.31242,"lon":5.36871,"is_reserved":false,"is_disabled":false,"rental_uris":{"android":"levelo://app?vid=7e9f16f7-394c-490d-95de-69098b11fce3","ios":"levelo://app?vid=7e9f16f7-394c-490d-95de-69098b11fce3"},"vehicle_type_id":"4","last_reported":1744020720,"current_range_meters":2800,"station_id":"ce4bgl92rcd13ifvqbq0","pricing_plan_id":"cebpf4jnsgd1na2vs0mg"},{"bike_id":"f86cc2cd-7959-4959-bc7f-b10918cdd349","system_id":"levelo_inurba_marseille","lat":43.241683,"lon":5.363968,"is_reserved":false,"is_disabled":true,"rental_uris":{"android":"levelo://app?vid=f86cc2cd-7959-4959-bc7f-b10918cdd349","ios":"levelo://app?vid=f86cc2cd-7959-4959-bc7f-b10918cdd349"},"vehicle_type_id":"4","last_reported":1744020720,"current_range_meters":3200,"station_id":"ce4bh412rcd13ifvqdr0","pricing_plan_id":"cebpf4jnsgd1na2vs0mg"},{"bike_id":"1d062cdf-9708-4718-8bc1-20857fc8e949","system_id":"levelo_inurba_marseille","lat":43.299424,"lon":5.3654,"is_reserved":false,"is_disabled":false,"rental_uris":{"android":"levelo://app?vid=1d062cdf-9708-4718-8bc1-20857fc8e949","ios":"levelo://app?vid=1d062cdf-9708-4718-8bc1-20857fc8e949"},"vehicle_type_id":"4","last_reported":1744020720,"current_range_meters":3200,"station_id":"ce4bgm92rcd13ifvqbr0","pricing_plan_id":"cebpf4jnsgd1na2vs0mg"},{"bike_id":"79db1f88-d2d6-4cd8-820b-45e3d5aa7316","system_id":"levelo_inurba_marseille","lat":43.26675,"lon":5.38259,"is_reserved":false,"is_disabled":false,"rental_uris":{"android":"levelo://app?vid=79db1f88-d2d6-4cd8-820b-45e3d5aa7316","ios":"levelo://app?vid=79db1f88-d2d6-4cd8-820b-45e3d5aa7316"},"vehicle_type_id":"4","last_reported":1744020720,"current_range_meters":3200,"station_id":"ce4bhg92rcd13ifvqf90","pricing_plan_id":"cebpf4jnsgd1na2vs0mg"},{"bike_id":"b90dffa2-823e-4d03-99a4-e6658aa28e69","system_id":"levelo_inurba_marseille","lat":43.273065,"lon":5.390746,"is_reserved":false,"is_disabled":false,"rental_uris":{"android":"levelo://app?vid=b90dffa2-823e-4d03-99a4-e6658aa28e69","ios":"levelo://app?vid=b90dffa2-823e-4d03-99a4-e6658aa28e69"},"vehicle_type_id":"4","last_reported":1744020720,"current_range_meters":3200,"station_id":"ce4bgn12rcd13ifvqbt0","pricing_plan_id":"cebpf4jnsgd1na2vs0mg"},{"bike_id":"0d96216e-6006-40a6-91ec-33efdf4df2b1","system_id":"levelo_inurba_marseille","lat":43.31365,"lon":5.38511,"is_reserved":false,"is_disabled":true,"rental_uris":{"android":"levelo://app?vid=0d96216e-6006-40a6-91ec-33efdf4df2b1","ios":"levelo://app?vid=0d96216e-6006-40a6-91ec-33efdf4df2b1"},"vehicle_type_id":"4","last_reported":1744020720,"current_range_meters":3200,"station_id":"ce4bgt92rcd13ifvqcf0","pricing_plan_id":"cebpf4jnsgd1na2vs0mg"},{"bike_id":"9378cab7-1ef7-47d6-af28-c6473192be1a","system_id":"levelo_inurba_marseille","lat":43.311797,"lon":5.407677,"is_reserved":false,"is_disabled":false,"rental_uris":{"android":"levelo://app?vid=9378cab7-1ef7-47d6-af28-c6473192be1a","ios":"levelo://app?vid=9378cab7-1ef7-47d6-af28-c6473192be1a"},"vehicle_type_id":"4","last_reported":1744020720,"current_range_meters":4000,"station_id":"","pricing_plan_id":"cebpf4jnsgd1na2vs0mg"},{"bike_id":"5e9831b1-46d6-48b6-92bb-48241d666e28","system_id":"levelo_inurba_marseille","lat":43.28702,"lon":5.3998,"is_reserved":false,"is_disabled":false,"rental_uris":{"android":"levelo://app?vid=5e9831b1-46d6-48b6-92bb-48241d666e28","ios":"levelo://app?vid=5e9831b1-46d6-48b6-92bb-48241d666e28"},"vehicle_type_id":"4","last_reported":1744020720,"current_range_meters":4000,"station_id":"ce4bho92rcd13ifvqh3g","pricing_plan_id":"cebpf4jnsgd1na2vs0mg"},{"bike_id":"c1504c46-7547-4a19-ae73-5a1b17ffd8c1","system_id":"levelo_inurba_marseille","lat":43.26561,"lon":5.3729,"is_reserved":false,"is_disabled":false,"rental_uris":{"android":"levelo://app?vid=c1504c46-7547-4a19-ae73-5a1b17ffd8c1","ios":"levelo://app?vid=c1504c46-7547-4a19-ae73-5a1b17ffd8c1"},"vehicle_type_id":"4","last_reported":1744020720,"current_range_meters":4000,"station_id":"ce4bhg12rcd13ifvqf70","pricing_plan_id":"cebpf4jnsgd1na2vs0mg"},{"bike_id":"eb79d1f9-7c91-4ea2-b5f8-796189743e1a","system_id":"levelo_inurba_marseille","lat":43.34243,"lon":5.38097,"is_reserved":false,"is_disabled":true,"rental_uris":{"android":"levelo://app?vid=eb79d1f9-7c91-4ea2-b5f8-796189743e1a","ios":"levelo://app?vid=eb79d1f9-7c91-4ea2-b5f8-796189743e1a"},"vehicle_type_id":"4","last_reported":1744020720,"current_range_meters":4400,"station_id":"","pricing_plan_id":"cebpf4jnsgd1na2vs0mg"},{"bike_id":"46aaf249-f504-46ae-93ce-7245839b78b5","system_id":"levelo_inurba_marseille","lat":43.262068,"lon":5.379304,"is_reserved":false,"is_disabled":true,"rental_uris":{"android":"levelo://app?vid=46aaf249-f504-46ae-93ce-7245839b78b5","ios":"levelo://app?vid=46aaf249-f504-46ae-93ce-7245839b78b5"},"vehicle_type_id":"4","last_reported":1744020720,"current_range_meters":4400,"station_id":"ce4bhjp2rcd13ifvqg90","pricing_plan_id":"cebpf4jnsgd1na2vs0mg"},{"bike_id":"58edb5da-6848-4178-b901-7f35e76a7424","system_id":"levelo_inurba_marseille","lat":43.3091,"lon":5.36846,"is_reserved":false,"is_disabled":false,"rental_uris":{"android":"levelo://app?vid=58edb5da-6848-4178-b901-7f35e76a7424","ios":"levelo://app?vid=58edb5da-6848-4178-b901-7f35e76a7424"},"vehicle_type_id":"4","last_reported":1744020720,"current_range_meters":4400,"station_id":"ce4bgn92rcd13ifvqbvg","pricing_plan_id":"cebpf4jnsgd1na2vs0mg"},{"bike_id":"694a7586-f602-4016-b8b3-0e6d68879fbd","system_id":"levelo_inurba_marseille","lat":43.31375,"lon":5.36714,"is_reserved":false,"is_disabled":true,"rental_uris":{"android":"levelo://app?vid=694a7586-f602-4016-b8b3-0e6d68879fbd","ios":"levelo://app?vid=694a7586-f602-4016-b8b3-0e6d68879fbd"},"vehicle_type_id":"4","last_reported":1744020720,"current_range_meters":4800,"station_id":"ce4bgr92rcd13ifvqc6g","pricing_plan_id":"cebpf4jnsgd1na2vs0mg"},{"bike_id":"97045fe9-f264-4b05-93e3-8dc052408e14","system_id":"levelo_inurba_marseille","lat":43.31483,"lon":5.37304,"is_reserved":false,"is_disabled":false,"rental_uris":{"android":"levelo://app?vid=97045fe9-f264-4b05-93e3-8dc052408e14","ios":"levelo://app?vid=97045fe9-f264-4b05-93e3-8dc052408e14"},"vehicle_type_id":"4","last_reported":1744020720,"current_range_meters":4800,"station_id":"ce4bgt12rcd13ifvqcd0","pricing_plan_id":"cebpf4jnsgd1na2vs0mg"},{"bike_id":"620b9284-a283-4a50-82ff-ec39b41f1a89","system_id":"levelo_inurba_marseille","lat":43.30421,"lon":5.37838,"is_reserved":false,"is_disabled":false,"rental_uris":{"android":"levelo://app?vid=620b9284-a283-4a50-82ff-ec39b41f1a89","ios":"levelo://app?vid=620b9284-a283-4a50-82ff-ec39b41f1a89"},"vehicle_type_id":"4","last_reported":1744020720,"current_range_meters":4800,"station_id":"","pricing_plan_id":"cebpf4jnsgd1na2vs0mg"},{"bike_id":"660d99f1-cadb-413d-82ad-e49e35dc1993","system_id":"levelo_inurba_marseille","lat":43.30968,"lon":5.39077,"is_reserved":false,"is_disabled":false,"rental_uris":{"android":"levelo://app?vid=660d99f1-cadb-413d-82ad-e49e35dc1993","ios":"levelo://app?vid=660d99f1-cadb-413d-82ad-e49e35dc1993"},"vehicle_type_id":"4","last_reported":1744020720,"current_range_meters":5600,"station_id":"ce4bgup2rcd13ifvqco0","pricing_plan_id":"cebpf4jnsgd1na2vs0mg"},{"bike_id":"bb98cb44-b455-4581-88c9-84082d281f1a","system_id":"levelo_inurba_marseille","lat":43.25496,"lon":5.37649,"is_reserved":false,"is_disabled":false,"rental_uris":{"android":"levelo://app?vid=bb98cb44-b455-4581-88c9-84082d281f1a","ios":"levelo://app?vid=bb98cb44-b455-4581-88c9-84082d281f1a"},"vehicle_type_id":"4","last_reported":1744020720,"current_range_meters":5600,"station_id":"ce4bhh12rcd13ifvqff0","pricing_plan_id":"cebpf4jnsgd1na2vs0mg"},{"bike_id":"c5839f54-bef9-4a08-b316-2e6cff1ea8d7","system_id":"levelo_inurba_marseille","lat":43.231463,"lon":5.437157,"is_reserved":false,"is_disabled":false,"rental_uris":{"android":"levelo://app?vid=c5839f54-bef9-4a08-b316-2e6cff1ea8d7","ios":"levelo://app?vid=c5839f54-bef9-4a08-b316-2e6cff1ea8d7"},"vehicle_type_id":"4","last_reported":1744020720,"current_range_meters":5600,"station_id":"ce4bhmp2rcd13ifvqgog","pricing_plan_id":"cebpf4jnsgd1na2vs0mg"},{"bike_id":"04146b16-d749-44f7-9f82-8fc500270f0a","system_id":"levelo_inurba_marseille","lat":43.3134,"lon":5.39688,"is_reserved":false,"is_disabled":false,"rental_uris":{"android":"levelo://app?vid=04146b16-d749-44f7-9f82-8fc500270f0a","ios":"levelo://app?vid=04146b16-d749-44f7-9f82-8fc500270f0a"},"vehicle_type_id":"4","last_reported":1744020720,"current_range_meters":5600,"station_id":"ce4bgvp2rcd13ifvqcu0","pricing_plan_id":"cebpf4jnsgd1na2vs0mg"},{"bike_id":"4815b711-7def-4ca4-828f-f82d5b3e3191","system_id":"levelo_inurba_marseille","lat":43.23155,"lon":5.43713,"is_reserved":false,"is_disabled":false,"rental_uris":{"android":"levelo://app?vid=4815b711-7def-4ca4-828f-f82d5b3e3191","ios":"levelo://app?vid=4815b711-7def-4ca4-828f-f82d5b3e3191"},"vehicle_type_id":"4","last_reported":1744020720,"current_range_meters":5600,"station_id":"ce4bhmp2rcd13ifvqgog","pricing_plan_id":"cebpf4jnsgd1na2vs0mg"},{"bike_id":"6437d6cf-0a49-416b-b69e-a830deac57b7","system_id":"levelo_inurba_marseille","lat":43.30479,"lon":5.37907,"is_reserved":false,"is_disabled":false,"rental_uris":{"android":"levelo://app?vid=6437d6cf-0a49-416b-b69e-a830deac57b7","ios":"levelo://app?vid=6437d6cf-0a49-416b-b69e-a830deac57b7"},"vehicle_type_id":"4","last_reported":1744020720,"current_range_meters":6000,"station_id":"ce4bgup2rcd13ifvqcn0","pricing_plan_id":"cebpf4jnsgd1na2vs0mg"},{"bike_id":"09764cee-8724-44c1-b501-307abe5b537a","system_id":"levelo_inurba_marseille","lat":43.32102,"lon":5.36764,"is_reserved":false,"is_disabled":false,"rental_uris":{"android":"levelo://app?vid=09764cee-8724-44c1-b501-307abe5b537a","ios":"levelo://app?vid=09764cee-8724-44c1-b501-307abe5b537a"},"vehicle_type_id":"4","last_reported":1744020720,"current_range_meters":6000,"station_id":"ce4bhrh2rcd13ifvqhug","pricing_plan_id":"cebpf4jnsgd1na2vs0mg"},{"bike_id":"38ae81b3-edcc-4763-8880-8b0fde623123","system_id":"levelo_inurba_marseille","lat":43.23145,"lon":5.43724,"is_reserved":false,"is_disabled":false,"rental_uris":{"android":"levelo://app?vid=38ae81b3-edcc-4763-8880-8b0fde623123","ios":"levelo://app?vid=38ae81b3-edcc-4763-8880-8b0fde623123"},"vehicle_type_id":"4","last_reported":1744020720,"current_range_meters":6000,"station_id":"ce4bhmp2rcd13ifvqgog","pricing_plan_id":"cebpf4jnsgd1na2vs0mg"},{"bike_id":"45656cd8-d332-4461-af1d-d61ecbca0668","system_id":"levelo_inurba_marseille","lat":43.32275,"lon":5.36812,"is_reserved":false,"is_disabled":false,"rental_uris":{"android":"levelo://app?vid=45656cd8-d332-4461-af1d-d61ecbca0668","ios":"levelo://app?vid=45656cd8-d332-4461-af1d-d61ecbca0668"},"vehicle_type_id":"4","last_reported":1744020720,"current_range_meters":6000,"station_id":"","pricing_plan_id":"cebpf4jnsgd1na2vs0mg"},{"bike_id":"9278748f-fc10-494c-984d-5d002d924cec","system_id":"levelo_inurba_marseille","lat":43.27499,"lon":5.424613,"is_reserved":false,"is_disabled":false,"rental_uris":{"android":"levelo://app?vid=9278748f-fc10-494c-984d-5d002d924cec","ios":"levelo://app?vid=9278748f-fc10-494c-984d-5d002d924cec"},"vehicle_type_id":"4","last_reported":1744020720,"current_range_meters":6000,"station_id":"ce4bhn92rcd13ifvqgrg","pricing_plan_id":"cebpf4jnsgd1na2vs0mg"},{"bike_id":"135e22a1-d7d9-45f7-9faf-38add97a7593","system_id":"levelo_inurba_marseille","lat":43.25496,"lon":5.37651,"is_reserved":false,"is_disabled":false,"rental_uris":{"android":"levelo://app?vid=135e22a1-d7d9-45f7-9faf-38add97a7593","ios":"levelo://app?vid=135e22a1-d7d9-45f7-9faf-38add97a7593"},"vehicle_type_id":"4","last_reported":1744020720,"current_range_meters":6400,"station_id":"ce4bhh12rcd13ifvqff0","pricing_plan_id":"cebpf4jnsgd1na2vs0mg"},{"bike_id":"b5df04a8-8322-42f2-8d8a-f3a397da423c","system_id":"levelo_inurba_marseille","lat":43.28927,"lon":5.38401,"is_reserved":false,"is_disabled":false,"rental_uris":{"android":"levelo://app?vid=b5df04a8-8322-42f2-8d8a-f3a397da423c","ios":"levelo://app?vid=b5df04a8-8322-42f2-8d8a-f3a397da423c"},"vehicle_type_id":"4","last_reported":1744020720,"current_range_meters":6000,"station_id":"ce4bh612rcd13ifvqe6g","pricing_plan_id":"cebpf4jnsgd1na2vs0mg"},{"bike_id":"e1ed21b6-c0dc-4b7f-8b4a-adcb36679c4d","system_id":"levelo_inurba_marseille","lat":43.2558,"lon":5.38245,"is_reserved":false,"is_disabled":false,"rental_uris":{"android":"levelo://app?vid=e1ed21b6-c0dc-4b7f-8b4a-adcb36679c4d","ios":"levelo://app?vid=e1ed21b6-c0dc-4b7f-8b4a-adcb36679c4d"},"vehicle_type_id":"4","last_reported":1744020720,"current_range_meters":6400,"station_id":"ce4bhih2rcd13ifvqfs0","pricing_plan_id":"cebpf4jnsgd1na2vs0mg"},{"bike_id":"c7f769a0-9ae3-4891-a95a-079fb88a4ee7","system_id":"levelo_inurba_marseille","lat":43.25106,"lon":5.40332,"is_reserved":false,"is_disabled":false,"rental_uris":{"android":"levelo://app?vid=c7f769a0-9ae3-4891-a95a-079fb88a4ee7","ios":"levelo://app?vid=c7f769a0-9ae3-4891-a95a-079fb88a4ee7"},"vehicle_type_id":"4","last_reported":1744020720,"current_range_meters":6400,"station_id":"ce4bhlh2rcd13ifvqgig","pricing_plan_id":"cebpf4jnsgd1na2vs0mg"},{"bike_id":"1d6f3057-f8f7-4009-89c3-a3edbfb45073","system_id":"levelo_inurba_marseille","lat":43.28139,"lon":5.4263,"is_reserved":false,"is_disabled":false,"rental_uris":{"android":"levelo://app?vid=1d6f3057-f8f7-4009-89c3-a3edbfb45073","ios":"levelo://app?vid=1d6f3057-f8f7-4009-89c3-a3edbfb45073"},"vehicle_type_id":"4","last_reported":1744020720,"current_range_meters":6800,"station_id":"ce4bhnh2rcd13ifvqgug","pricing_plan_id":"cebpf4jnsgd1na2vs0mg"},{"bike_id":"21312fba-96b0-48cf-a8a0-cdac2ce412e7","system_id":"levelo_inurba_marseille","lat":43.29887,"lon":5.39581,"is_reserved":false,"is_disabled":false,"rental_uris":{"android":"levelo://app?vid=21312fba-96b0-48cf-a8a0-cdac2ce412e7","ios":"levelo://app?vid=21312fba-96b0-48cf-a8a0-cdac2ce412e7"},"vehicle_type_id":"4","last_reported":1744020720,"current_range_meters":6800,"station_id":"ce4bh3p2rcd13ifvqdp0","pricing_plan_id":"cebpf4jnsgd1na2vs0mg"},{"bike_id":"ad4d36ee-4ace-4017-b1a2-48c4f7e23651","system_id":"levelo_inurba_marseille","lat":43.25931,"lon":5.409138,"is_reserved":false,"is_disabled":false,"rental_uris":{"android":"levelo://app?vid=ad4d36ee-4ace-4017-b1a2-48c4f7e23651","ios":"levelo://app?vid=ad4d36ee-4ace-4017-b1a2-48c4f7e23651"},"vehicle_type_id":"4","last_reported":1744020720,"current_range_meters":6800,"station_id":"ce4bhm92rcd13ifvqglg","pricing_plan_id":"cebpf4jnsgd1na2vs0mg"},{"bike_id":"6417ceb1-e090-4c7d-b57e-544c0cc99cc6","system_id":"levelo_inurba_marseille","lat":43.25931,"lon":5.40912,"is_reserved":false,"is_disabled":false,"rental_uris":{"android":"levelo://app?vid=6417ceb1-e090-4c7d-b57e-544c0cc99cc6","ios":"levelo://app?vid=6417ceb1-e090-4c7d-b57e-544c0cc99cc6"},"vehicle_type_id":"4","last_reported":1744020720,"current_range_meters":6800,"station_id":"ce4bhm92rcd13ifvqglg","pricing_plan_id":"cebpf4jnsgd1na2vs0mg"},{"bike_id":"85b5802f-c53f-4b16-a2b8-76aacc9ae178","system_id":"levelo_inurba_marseille","lat":43.22931,"lon":5.35386,"is_reserved":false,"is_disabled":false,"rental_uris":{"android":"levelo://app?vid=85b5802f-c53f-4b16-a2b8-76aacc9ae178","ios":"levelo://app?vid=85b5802f-c53f-4b16-a2b8-76aacc9ae178"},"vehicle_type_id":"4","last_reported":1744020720,"current_range_meters":6800,"station_id":"cpo3532slgdg3j2ikp40","pricing_plan_id":"cebpf4jnsgd1na2vs0mg"},{"bike_id":"da2d057d-b3e2-4a7b-8f1b-e83ff2e14dcf","system_id":"levelo_inurba_marseille","lat":43.25002,"lon":5.38916,"is_reserved":false,"is_disabled":false,"rental_uris":{"android":"levelo://app?vid=da2d057d-b3e2-4a7b-8f1b-e83ff2e14dcf","ios":"levelo://app?vid=da2d057d-b3e2-4a7b-8f1b-e83ff2e14dcf"},"vehicle_type_id":"4","last_reported":1744020720,"current_range_meters":7200,"station_id":"ce4bhgp2rcd13ifvqfd0","pricing_plan_id":"cebpf4jnsgd1na2vs0mg"},{"bike_id":"1111276b-a0c5-4976-a72d-0d6680a0f189","system_id":"levelo_inurba_marseille","lat":43.336,"lon":5.4102,"is_reserved":false,"is_disabled":false,"rental_uris":{"android":"levelo://app?vid=1111276b-a0c5-4976-a72d-0d6680a0f189","ios":"levelo://app?vid=1111276b-a0c5-4976-a72d-0d6680a0f189"},"vehicle_type_id":"4","last_reported":1744020720,"current_range_meters":7200,"station_id":"ce4bhqh2rcd13ifvqhmg","pricing_plan_id":"cebpf4jnsgd1na2vs0mg"},{"bike_id":"736c7c4f-11f4-465d-93d2-a6a56fe6182a","system_id":"levelo_inurba_marseille","lat":43.31229,"lon":5.36872,"is_reserved":false,"is_disabled":false,"rental_uris":{"android":"levelo://app?vid=736c7c4f-11f4-465d-93d2-a6a56fe6182a","ios":"levelo://app?vid=736c7c4f-11f4-465d-93d2-a6a56fe6182a"},"vehicle_type_id":"4","last_reported":1744020720,"current_range_meters":7200,"station_id":"ce4bgl92rcd13ifvqbq0","pricing_plan_id":"cebpf4jnsgd1na2vs0mg"},{"bike_id":"1f8d1e21-f657-42c0-bf7b-10b968483646","system_id":"levelo_inurba_marseille","lat":43.31224,"lon":5.36857,"is_reserved":false,"is_disabled":false,"rental_uris":{"android":"levelo://app?vid=1f8d1e21-f657-42c0-bf7b-10b968483646","ios":"levelo://app?vid=1f8d1e21-f657-42c0-bf7b-10b968483646"},"vehicle_type_id":"4","last_reported":1744020720,"current_range_meters":7200,"station_id":"ce4bgl92rcd13ifvqbq0","pricing_plan_id":"cebpf4jnsgd1na2vs0mg"},{"bike_id":"104fa708-46b3-4372-bb3d-5a274078b566","system_id":"levelo_inurba_marseille","lat":43.23148,"lon":5.43695,"is_reserved":false,"is_disabled":false,"rental_uris":{"android":"levelo://app?vid=104fa708-46b3-4372-bb3d-5a274078b566","ios":"levelo://app?vid=104fa708-46b3-4372-bb3d-5a274078b566"},"vehicle_type_id":"4","last_reported":1744020720,"current_range_meters":7200,"station_id":"ce4bhmp2rcd13ifvqgog","pricing_plan_id":"cebpf4jnsgd1na2vs0mg"},{"bike_id":"2fe9a66c-2512-40ef-8d0d-a70ae0137933","system_id":"levelo_inurba_marseille","lat":43.30238,"lon":5.40062,"is_reserved":false,"is_disabled":true,"rental_uris":{"android":"levelo://app?vid=2fe9a66c-2512-40ef-8d0d-a70ae0137933","ios":"levelo://app?vid=2fe9a66c-2512-40ef-8d0d-a70ae0137933"},"vehicle_type_id":"4","last_reported":1744020720,"current_range_meters":8000,"station_id":"ce4bgvh2rcd13ifvqcs0","pricing_plan_id":"cebpf4jnsgd1na2vs0mg"},{"bike_id":"a85bfa84-7826-41b3-9de9-b752c882ce69","system_id":"levelo_inurba_marseille","lat":43.30922,"lon":5.40147,"is_reserved":false,"is_disabled":false,"rental_uris":{"android":"levelo://app?vid=a85bfa84-7826-41b3-9de9-b752c882ce69","ios":"levelo://app?vid=a85bfa84-7826-41b3-9de9-b752c882ce69"},"vehicle_type_id":"4","last_reported":1744020720,"current_range_meters":8000,"station_id":"ce4bgvp2rcd13ifvqct0","pricing_plan_id":"cebpf4jnsgd1na2vs0mg"},{"bike_id":"599cd34c-20ae-429b-a3d3-757fcae68040","system_id":"levelo_inurba_marseille","lat":43.31225,"lon":5.36867,"is_reserved":false,"is_disabled":false,"rental_uris":{"android":"levelo://app?vid=599cd34c-20ae-429b-a3d3-757fcae68040","ios":"levelo://app?vid=599cd34c-20ae-429b-a3d3-757fcae68040"},"vehicle_type_id":"4","last_reported":1744020720,"current_range_meters":8000,"station_id":"ce4bgl92rcd13ifvqbq0","pricing_plan_id":"cebpf4jnsgd1na2vs0mg"},{"bike_id":"00393ee2-317d-4e98-a30d-fd25773ef49f","system_id":"levelo_inurba_marseille","lat":43.3522,"lon":5.35779,"is_reserved":false,"is_disabled":false,"rental_uris":{"android":"levelo://app?vid=00393ee2-317d-4e98-a30d-fd25773ef49f","ios":"levelo://app?vid=00393ee2-317d-4e98-a30d-fd25773ef49f"},"vehicle_type_id":"4","last_reported":1744020720,"current_range_meters":8000,"station_id":"","pricing_plan_id":"cebpf4jnsgd1na2vs0mg"},{"bike_id":"665cf142-b452-4092-a298-84bd2b061fab","system_id":"levelo_inurba_marseille","lat":43.24814,"lon":5.37461,"is_reserved":false,"is_disabled":false,"rental_uris":{"android":"levelo://app?vid=665cf142-b452-4092-a298-84bd2b061fab","ios":"levelo://app?vid=665cf142-b452-4092-a298-84bd2b061fab"},"vehicle_type_id":"4","last_reported":1744020720,"current_range_meters":8000,"station_id":"ce4bhgh2rcd13ifvqfb0","pricing_plan_id":"cebpf4jnsgd1na2vs0mg"},{"bike_id":"aba5e844-f429-4fca-8fbd-34616f5265a2","system_id":"levelo_inurba_marseille","lat":43.28145,"lon":5.42655,"is_reserved":false,"is_disabled":false,"rental_uris":{"android":"levelo://app?vid=aba5e844-f429-4fca-8fbd-34616f5265a2","ios":"levelo://app?vid=aba5e844-f429-4fca-8fbd-34616f5265a2"},"vehicle_type_id":"4","last_reported":1744020720,"current_range_meters":8000,"station_id":"ce4bhnh2rcd13ifvqgug","pricing_plan_id":"cebpf4jnsgd1na2vs0mg"},{"bike_id":"cba0b7d6-28ec-4841-b42c-a5def4bc9ab3","system_id":"levelo_inurba_marseille","lat":43.29169,"lon":5.37164,"is_reserved":false,"is_disabled":false,"rental_uris":{"android":"levelo://app?vid=cba0b7d6-28ec-4841-b42c-a5def4bc9ab3","ios":"levelo://app?vid=cba0b7d6-28ec-4841-b42c-a5def4bc9ab3"},"vehicle_type_id":"4","last_reported":1744020720,"current_range_meters":8000,"station_id":"ce4bha92rcd13ifvqeh0","pricing_plan_id":"cebpf4jnsgd1na2vs0mg"},{"bike_id":"d66890eb-a849-4361-8afb-8574c3836f73","system_id":"levelo_inurba_marseille","lat":43.26076,"lon":5.3871,"is_reserved":false,"is_disabled":false,"rental_uris":{"android":"levelo://app?vid=d66890eb-a849-4361-8afb-8574c3836f73","ios":"levelo://app?vid=d66890eb-a849-4361-8afb-8574c3836f73"},"vehicle_type_id":"4","last_reported":1744020720,"current_range_meters":8000,"station_id":"","pricing_plan_id":"cebpf4jnsgd1na2vs0mg"},{"bike_id":"136b6e45-ee21-453e-aa22-e07947db9071","system_id":"levelo_inurba_marseille","lat":43.23164,"lon":5.43874,"is_reserved":false,"is_disabled":true,"rental_uris":{"android":"levelo://app?vid=136b6e45-ee21-453e-aa22-e07947db9071","ios":"levelo://app?vid=136b6e45-ee21-453e-aa22-e07947db9071"},"vehicle_type_id":"4","last_reported":1744020720,"current_range_meters":8000,"station_id":"ce4bhmp2rcd13ifvqgog","pricing_plan_id":"cebpf4jnsgd1na2vs0mg"},{"bike_id":"b52ab55f-35c3-4380-8a82-d1c5add5b5d1","system_id":"levelo_inurba_marseille","lat":43.28419,"lon":5.3499,"is_reserved":false,"is_disabled":false,"rental_uris":{"android":"levelo://app?vid=b52ab55f-35c3-4380-8a82-d1c5add5b5d1","ios":"levelo://app?vid=b52ab55f-35c3-4380-8a82-d1c5add5b5d1"},"vehicle_type_id":"4","last_reported":1744020720,"current_range_meters":8400,"station_id":"ce4bhbh2rcd13ifvqepg","pricing_plan_id":"cebpf4jnsgd1na2vs0mg"},{"bike_id":"72543552-8188-4373-8db0-bd2f24c14e7b","system_id":"levelo_inurba_marseille","lat":43.32273,"lon":5.37661,"is_reserved":false,"is_disabled":false,"rental_uris":{"android":"levelo://app?vid=72543552-8188-4373-8db0-bd2f24c14e7b","ios":"levelo://app?vid=72543552-8188-4373-8db0-bd2f24c14e7b"},"vehicle_type_id":"4","last_reported":1744020720,"current_range_meters":8400,"station_id":"","pricing_plan_id":"cebpf4jnsgd1na2vs0mg"},{"bike_id":"590bd0e2-9f1d-4e6f-9e37-05bb0e5ae5dc","system_id":"levelo_inurba_marseille","lat":43.29874,"lon":5.36384,"is_reserved":false,"is_disabled":false,"rental_uris":{"android":"levelo://app?vid=590bd0e2-9f1d-4e6f-9e37-05bb0e5ae5dc","ios":"levelo://app?vid=590bd0e2-9f1d-4e6f-9e37-05bb0e5ae5dc"},"vehicle_type_id":"4","last_reported":1744020720,"current_range_meters":8400,"station_id":"","pricing_plan_id":"cebpf4jnsgd1na2vs0mg"},{"bike_id":"2cd7ef9b-a726-4134-9830-a54c0abc7b06","system_id":"levelo_inurba_marseille","lat":43.24161,"lon":5.39738,"is_reserved":false,"is_disabled":false,"rental_uris":{"android":"levelo://app?vid=2cd7ef9b-a726-4134-9830-a54c0abc7b06","ios":"levelo://app?vid=2cd7ef9b-a726-4134-9830-a54c0abc7b06"},"vehicle_type_id":"4","last_reported":1744020720,"current_range_meters":8400,"station_id":"ce4bhn12rcd13ifvqgpg","pricing_plan_id":"cebpf4jnsgd1na2vs0mg"},{"bike_id":"edaccf97-dc5b-4501-9f95-e0fff4b79492","system_id":"levelo_inurba_marseille","lat":43.27998,"lon":5.41656,"is_reserved":false,"is_disabled":false,"rental_uris":{"android":"levelo://app?vid=edaccf97-dc5b-4501-9f95-e0fff4b79492","ios":"levelo://app?vid=edaccf97-dc5b-4501-9f95-e0fff4b79492"},"vehicle_type_id":"4","last_reported":1744020720,"current_range_meters":8400,"station_id":"ce4bho12rcd13ifvqh1g","pricing_plan_id":"cebpf4jnsgd1na2vs0mg"},{"bike_id":"f56fa8c2-6991-4db5-9b1b-225fe2c50caf","system_id":"levelo_inurba_marseille","lat":43.28169,"lon":5.42658,"is_reserved":false,"is_disabled":false,"rental_uris":{"android":"levelo://app?vid=f56fa8c2-6991-4db5-9b1b-225fe2c50caf","ios":"levelo://app?vid=f56fa8c2-6991-4db5-9b1b-225fe2c50caf"},"vehicle_type_id":"4","last_reported":1744020720,"current_range_meters":8400,"station_id":"ce4bhnh2rcd13ifvqgug","pricing_plan_id":"cebpf4jnsgd1na2vs0mg"},{"bike_id":"351b921a-1463-4cf6-859d-ca5bd51a6e76","system_id":"levelo_inurba_marseille","lat":43.31687,"lon":5.3642,"is_reserved":false,"is_disabled":false,"rental_uris":{"android":"levelo://app?vid=351b921a-1463-4cf6-859d-ca5bd51a6e76","ios":"levelo://app?vid=351b921a-1463-4cf6-859d-ca5bd51a6e76"},"vehicle_type_id":"4","last_reported":1744020720,"current_range_meters":8400,"station_id":"","pricing_plan_id":"cebpf4jnsgd1na2vs0mg"},{"bike_id":"b0ca33c3-28f8-4dc5-873d-b941c059ed8c","system_id":"levelo_inurba_marseille","lat":43.259326,"lon":5.409127,"is_reserved":false,"is_disabled":true,"rental_uris":{"android":"levelo://app?vid=b0ca33c3-28f8-4dc5-873d-b941c059ed8c","ios":"levelo://app?vid=b0ca33c3-28f8-4dc5-873d-b941c059ed8c"},"vehicle_type_id":"4","last_reported":1744020720,"current_range_meters":8400,"station_id":"ce4bhm92rcd13ifvqglg","pricing_plan_id":"cebpf4jnsgd1na2vs0mg"},{"bike_id":"337e4aad-fcd9-413c-b27d-c550fc815ffa","system_id":"levelo_inurba_marseille","lat":43.27207,"lon":5.3918,"is_reserved":false,"is_disabled":false,"rental_uris":{"android":"levelo://app?vid=337e4aad-fcd9-413c-b27d-c550fc815ffa","ios":"levelo://app?vid=337e4aad-fcd9-413c-b27d-c550fc815ffa"},"vehicle_type_id":"4","last_reported":1744020720,"current_range_meters":8400,"station_id":"ce4bhhp2rcd13ifvqfm0","pricing_plan_id":"cebpf4jnsgd1na2vs0mg"},{"bike_id":"dd6333b1-78ba-4390-9f9a-5b0223395c64","system_id":"levelo_inurba_marseille","lat":43.27043,"lon":5.40304,"is_reserved":false,"is_disabled":false,"rental_uris":{"android":"levelo://app?vid=dd6333b1-78ba-4390-9f9a-5b0223395c64","ios":"levelo://app?vid=dd6333b1-78ba-4390-9f9a-5b0223395c64"},"vehicle_type_id":"4","last_reported":1744020720,"current_range_meters":8400,"station_id":"ce4bhk92rcd13ifvqgc0","pricing_plan_id":"cebpf4jnsgd1na2vs0mg"},{"bike_id":"f60bb491-43d9-4cae-937b-68496894601c","system_id":"levelo_inurba_marseille","lat":43.30941,"lon":5.39022,"is_reserved":false,"is_disabled":false,"rental_uris":{"android":"levelo://app?vid=f60bb491-43d9-4cae-937b-68496894601c","ios":"levelo://app?vid=f60bb491-43d9-4cae-937b-68496894601c"},"vehicle_type_id":"4","last_reported":1744020720,"current_range_meters":8800,"station_id":"ce4bgup2rcd13ifvqco0","pricing_plan_id":"cebpf4jnsgd1na2vs0mg"},{"bike_id":"23980d64-35b5-4604-ad44-ad65e6bbcdb3","system_id":"levelo_inurba_marseille","lat":43.23152,"lon":5.4371,"is_reserved":false,"is_disabled":false,"rental_uris":{"android":"levelo://app?vid=23980d64-35b5-4604-ad44-ad65e6bbcdb3","ios":"levelo://app?vid=23980d64-35b5-4604-ad44-ad65e6bbcdb3"},"vehicle_type_id":"4","last_reported":1744020720,"current_range_meters":9200,"station_id":"ce4bhmp2rcd13ifvqgog","pricing_plan_id":"cebpf4jnsgd1na2vs0mg"},{"bike_id":"c3e6d442-6282-4c88-9f90-93d85aff9e76","system_id":"levelo_inurba_marseille","lat":43.28156,"lon":5.4265,"is_reserved":false,"is_disabled":false,"rental_uris":{"android":"levelo://app?vid=c3e6d442-6282-4c88-9f90-93d85aff9e76","ios":"levelo://app?vid=c3e6d442-6282-4c88-9f90-93d85aff9e76"},"vehicle_type_id":"4","last_reported":1744020720,"current_range_meters":8800,"station_id":"ce4bhnh2rcd13ifvqgug","pricing_plan_id":"cebpf4jnsgd1na2vs0mg"},{"bike_id":"13ff3b18-6597-40d4-908e-0b83fa3d498c","system_id":"levelo_inurba_marseille","lat":43.29953,"lon":5.4132,"is_reserved":false,"is_disabled":false,"rental_uris":{"android":"levelo://app?vid=13ff3b18-6597-40d4-908e-0b83fa3d498c","ios":"levelo://app?vid=13ff3b18-6597-40d4-908e-0b83fa3d498c"},"vehicle_type_id":"4","last_reported":1744020720,"current_range_meters":8800,"station_id":"ce4bhp12rcd13ifvqh9g","pricing_plan_id":"cebpf4jnsgd1na2vs0mg"},{"bike_id":"606675f6-9cae-427a-83c9-8a064752327b","system_id":"levelo_inurba_marseille","lat":43.32363,"lon":5.36756,"is_reserved":false,"is_disabled":false,"rental_uris":{"android":"levelo://app?vid=606675f6-9cae-427a-83c9-8a064752327b","ios":"levelo://app?vid=606675f6-9cae-427a-83c9-8a064752327b"},"vehicle_type_id":"4","last_reported":1744020720,"current_range_meters":8800,"station_id":"ce4bhsh2rcd13ifvqi2g","pricing_plan_id":"cebpf4jnsgd1na2vs0mg"},{"bike_id":"43793bff-540b-4921-952d-898e6880a390","system_id":"levelo_inurba_marseille","lat":43.259286,"lon":5.409148,"is_reserved":false,"is_disabled":true,"rental_uris":{"android":"levelo://app?vid=43793bff-540b-4921-952d-898e6880a390","ios":"levelo://app?vid=43793bff-540b-4921-952d-898e6880a390"},"vehicle_type_id":"4","last_reported":1744020720,"current_range_meters":9200,"station_id":"ce4bhm92rcd13ifvqglg","pricing_plan_id":"cebpf4jnsgd1na2vs0mg"},{"bike_id":"8a38320c-a733-4cf5-8c8e-152497fe8f8f","system_id":"levelo_inurba_marseille","lat":43.28149,"lon":5.42627,"is_reserved":false,"is_disabled":false,"rental_uris":{"android":"levelo://app?vid=8a38320c-a733-4cf5-8c8e-152497fe8f8f","ios":"levelo://app?vid=8a38320c-a733-4cf5-8c8e-152497fe8f8f"},"vehicle_type_id":"4","last_reported":1744020720,"current_range_meters":9200,"station_id":"ce4bhnh2rcd13ifvqgug","pricing_plan_id":"cebpf4jnsgd1na2vs0mg"},{"bike_id":"6b295e8b-969c-45f2-9494-c2807c311575","system_id":"levelo_inurba_marseille","lat":43.27954,"lon":5.41038,"is_reserved":false,"is_disabled":false,"rental_uris":{"android":"levelo://app?vid=6b295e8b-969c-45f2-9494-c2807c311575","ios":"levelo://app?vid=6b295e8b-969c-45f2-9494-c2807c311575"},"vehicle_type_id":"4","last_reported":1744020720,"current_range_meters":9200,"station_id":"ce4bhnp2rcd13ifvqh0g","pricing_plan_id":"cebpf4jnsgd1na2vs0mg"},{"bike_id":"8539495d-a8db-48e8-999c-a0eec7f95200","system_id":"levelo_inurba_marseille","lat":43.25496,"lon":5.37652,"is_reserved":false,"is_disabled":false,"rental_uris":{"android":"levelo://app?vid=8539495d-a8db-48e8-999c-a0eec7f95200","ios":"levelo://app?vid=8539495d-a8db-48e8-999c-a0eec7f95200"},"vehicle_type_id":"4","last_reported":1744020720,"current_range_meters":9200,"station_id":"ce4bhh12rcd13ifvqff0","pricing_plan_id":"cebpf4jnsgd1na2vs0mg"},{"bike_id":"03459487-5609-45d6-8672-77ad1a4c94a5","system_id":"levelo_inurba_marseille","lat":43.23149,"lon":5.43718,"is_reserved":false,"is_disabled":false,"rental_uris":{"android":"levelo://app?vid=03459487-5609-45d6-8672-77ad1a4c94a5","ios":"levelo://app?vid=03459487-5609-45d6-8672-77ad1a4c94a5"},"vehicle_type_id":"4","last_reported":1744020720,"current_range_meters":9600,"station_id":"ce4bhmp2rcd13ifvqgog","pricing_plan_id":"cebpf4jnsgd1na2vs0mg"},{"bike_id":"e1ac6f5e-734a-4f2f-8ce5-1dc38c09c08f","system_id":"levelo_inurba_marseille","lat":43.29565,"lon":5.37515,"is_reserved":false,"is_disabled":false,"rental_uris":{"android":"levelo://app?vid=e1ac6f5e-734a-4f2f-8ce5-1dc38c09c08f","ios":"levelo://app?vid=e1ac6f5e-734a-4f2f-8ce5-1dc38c09c08f"},"vehicle_type_id":"4","last_reported":1744020720,"current_range_meters":9600,"station_id":"ce4bgh92rcd13ifvqb50","pricing_plan_id":"cebpf4jnsgd1na2vs0mg"},{"bike_id":"30bc4651-812b-4658-8e59-cab162bf83f1","system_id":"levelo_inurba_marseille","lat":43.30148,"lon":5.38086,"is_reserved":false,"is_disabled":false,"rental_uris":{"android":"levelo://app?vid=30bc4651-812b-4658-8e59-cab162bf83f1","ios":"levelo://app?vid=30bc4651-812b-4658-8e59-cab162bf83f1"},"vehicle_type_id":"4","last_reported":1744020720,"current_range_meters":9600,"station_id":"ce4bgjp2rcd13ifvqbh0","pricing_plan_id":"cebpf4jnsgd1na2vs0mg"},{"bike_id":"1e81c4d2-6637-42bf-8d6d-5d37c0fe2360","system_id":"levelo_inurba_marseille","lat":43.32099,"lon":5.36773,"is_reserved":false,"is_disabled":false,"rental_uris":{"android":"levelo://app?vid=1e81c4d2-6637-42bf-8d6d-5d37c0fe2360","ios":"levelo://app?vid=1e81c4d2-6637-42bf-8d6d-5d37c0fe2360"},"vehicle_type_id":"4","last_reported":1744020720,"current_range_meters":9600,"station_id":"ce4bhrh2rcd13ifvqhug","pricing_plan_id":"cebpf4jnsgd1na2vs0mg"},{"bike_id":"a959694d-18ce-4d80-917f-23c91ed81065","system_id":"levelo_inurba_marseille","lat":43.29901,"lon":5.43672,"is_reserved":false,"is_disabled":false,"rental_uris":{"android":"levelo://app?vid=a959694d-18ce-4d80-917f-23c91ed81065","ios":"levelo://app?vid=a959694d-18ce-4d80-917f-23c91ed81065"},"vehicle_type_id":"4","last_reported":1744020720,"current_range_meters":9600,"station_id":"ce4bhpp2rcd13ifvqhfg","pricing_plan_id":"cebpf4jnsgd1na2vs0mg"},{"bike_id":"e4d4dc7a-abcd-4c1d-8017-887f937d011f","system_id":"levelo_inurba_marseille","lat":43.29555,"lon":5.39975,"is_reserved":false,"is_disabled":true,"rental_uris":{"android":"levelo://app?vid=e4d4dc7a-abcd-4c1d-8017-887f937d011f","ios":"levelo://app?vid=e4d4dc7a-abcd-4c1d-8017-887f937d011f"},"vehicle_type_id":"4","last_reported":1744020720,"current_range_meters":9600,"station_id":"ce4bh312rcd13ifvqdj0","pricing_plan_id":"cebpf4jnsgd1na2vs0mg"},{"bike_id":"d7baf44c-3a27-4d2b-8a16-f89b92512b95","system_id":"levelo_inurba_marseille","lat":43.29915,"lon":5.37485,"is_reserved":false,"is_disabled":false,"rental_uris":{"android":"levelo://app?vid=d7baf44c-3a27-4d2b-8a16-f89b92512b95","ios":"levelo://app?vid=d7baf44c-3a27-4d2b-8a16-f89b92512b95"},"vehicle_type_id":"4","last_reported":1744020720,"current_range_meters":9600,"station_id":"ce4bgjh2rcd13ifvqbg0","pricing_plan_id":"cebpf4jnsgd1na2vs0mg"},{"bike_id":"3a6cf4dd-4a04-48a6-bbfb-6b1ea18759b5","system_id":"levelo_inurba_marseille","lat":43.32357,"lon":5.36754,"is_reserved":false,"is_disabled":false,"rental_uris":{"android":"levelo://app?vid=3a6cf4dd-4a04-48a6-bbfb-6b1ea18759b5","ios":"levelo://app?vid=3a6cf4dd-4a04-48a6-bbfb-6b1ea18759b5"},"vehicle_type_id":"4","last_reported":1744020720,"current_range_meters":10000,"station_id":"ce4bhsh2rcd13ifvqi2g","pricing_plan_id":"cebpf4jnsgd1na2vs0mg"},{"bike_id":"e53b9e9b-ac51-4f70-ad60-ed3149b8c178","system_id":"levelo_inurba_marseille","lat":43.31316,"lon":5.37351,"is_reserved":false,"is_disabled":false,"rental_uris":{"android":"levelo://app?vid=e53b9e9b-ac51-4f70-ad60-ed3149b8c178","ios":"levelo://app?vid=e53b9e9b-ac51-4f70-ad60-ed3149b8c178"},"vehicle_type_id":"4","last_reported":1744020720,"current_range_meters":10000,"station_id":"","pricing_plan_id":"cebpf4jnsgd1na2vs0mg"},{"bike_id":"87bda883-ac94-49fc-94c2-3a86e52b4f97","system_id":"levelo_inurba_marseille","lat":43.30727,"lon":5.38332,"is_reserved":false,"is_disabled":false,"rental_uris":{"android":"levelo://app?vid=87bda883-ac94-49fc-94c2-3a86e52b4f97","ios":"levelo://app?vid=87bda883-ac94-49fc-94c2-3a86e52b4f97"},"vehicle_type_id":"4","last_reported":1744020720,"current_range_meters":10000,"station_id":"","pricing_plan_id":"cebpf4jnsgd1na2vs0mg"},{"bike_id":"d893a78a-9318-483a-996e-9bec91fd98dc","system_id":"levelo_inurba_marseille","lat":43.31711,"lon":5.43704,"is_reserved":false,"is_disabled":false,"rental_uris":{"android":"levelo://app?vid=d893a78a-9318-483a-996e-9bec91fd98dc","ios":"levelo://app?vid=d893a78a-9318-483a-996e-9bec91fd98dc"},"vehicle_type_id":"4","last_reported":1744020720,"current_range_meters":10000,"station_id":"ce4bhp92rcd13ifvqhcg","pricing_plan_id":"cebpf4jnsgd1na2vs0mg"},{"bike_id":"ce0c4d03-e59b-4fa9-83d9-02feb3bb4033","system_id":"levelo_inurba_marseille","lat":43.30598,"lon":5.37226,"is_reserved":false,"is_disabled":false,"rental_uris":{"android":"levelo://app?vid=ce0c4d03-e59b-4fa9-83d9-02feb3bb4033","ios":"levelo://app?vid=ce0c4d03-e59b-4fa9-83d9-02feb3bb4033"},"vehicle_type_id":"4","last_reported":1744020720,"current_range_meters":10000,"station_id":"ce4bgqh2rcd13ifvqc4g","pricing_plan_id":"cebpf4jnsgd1na2vs0mg"},{"bike_id":"935587bd-e327-433f-b68c-6a9a15057f6f","system_id":"levelo_inurba_marseille","lat":43.3144,"lon":5.40133,"is_reserved":false,"is_disabled":false,"rental_uris":{"android":"levelo://app?vid=935587bd-e327-433f-b68c-6a9a15057f6f","ios":"levelo://app?vid=935587bd-e327-433f-b68c-6a9a15057f6f"},"vehicle_type_id":"4","last_reported":1744020720,"current_range_meters":10800,"station_id":"","pricing_plan_id":"cebpf4jnsgd1na2vs0mg"},{"bike_id":"77f38b93-7fba-419c-bd89-44cd77690ed3","system_id":"levelo_inurba_marseille","lat":43.24177,"lon":5.3973,"is_reserved":false,"is_disabled":false,"rental_uris":{"android":"levelo://app?vid=77f38b93-7fba-419c-bd89-44cd77690ed3","ios":"levelo://app?vid=77f38b93-7fba-419c-bd89-44cd77690ed3"},"vehicle_type_id":"4","last_reported":1744020720,"current_range_meters":10800,"station_id":"ce4bhn12rcd13ifvqgpg","pricing_plan_id":"cebpf4jnsgd1na2vs0mg"},{"bike_id":"a8df2fdb-99cd-4f75-8f6e-cf4f2574f3c5","system_id":"levelo_inurba_marseille","lat":43.24655,"lon":5.38893,"is_reserved":false,"is_disabled":false,"rental_uris":{"android":"levelo://app?vid=a8df2fdb-99cd-4f75-8f6e-cf4f2574f3c5","ios":"levelo://app?vid=a8df2fdb-99cd-4f75-8f6e-cf4f2574f3c5"},"vehicle_type_id":"4","last_reported":1744020720,"current_range_meters":10800,"station_id":"ce4bhg12rcd13ifvqf60","pricing_plan_id":"cebpf4jnsgd1na2vs0mg"},{"bike_id":"d534668a-1842-4c88-997b-3aed781dbbad","system_id":"levelo_inurba_marseille","lat":43.284829,"lon":5.384155,"is_reserved":false,"is_disabled":false,"rental_uris":{"android":"levelo://app?vid=d534668a-1842-4c88-997b-3aed781dbbad","ios":"levelo://app?vid=d534668a-1842-4c88-997b-3aed781dbbad"},"vehicle_type_id":"4","last_reported":1744020720,"current_range_meters":10800,"station_id":"ce4bh512rcd13ifvqe3g","pricing_plan_id":"cebpf4jnsgd1na2vs0mg"},{"bike_id":"bfaa3118-75ab-4aa4-b610-9f31273728a8","system_id":"levelo_inurba_marseille","lat":43.30953,"lon":5.39053,"is_reserved":false,"is_disabled":false,"rental_uris":{"android":"levelo://app?vid=bfaa3118-75ab-4aa4-b610-9f31273728a8","ios":"levelo://app?vid=bfaa3118-75ab-4aa4-b610-9f31273728a8"},"vehicle_type_id":"4","last_reported":1744020720,"current_range_meters":10800,"station_id":"ce4bgup2rcd13ifvqco0","pricing_plan_id":"cebpf4jnsgd1na2vs0mg"},{"bike_id":"ddc18b59-559a-4a16-b480-f9ff872c3dd3","system_id":"levelo_inurba_marseille","lat":43.231451,"lon":5.437231,"is_reserved":false,"is_disabled":true,"rental_uris":{"android":"levelo://app?vid=ddc18b59-559a-4a16-b480-f9ff872c3dd3","ios":"levelo://app?vid=ddc18b59-559a-4a16-b480-f9ff872c3dd3"},"vehicle_type_id":"4","last_reported":1744020720,"current_range_meters":10800,"station_id":"ce4bhmp2rcd13ifvqgog","pricing_plan_id":"cebpf4jnsgd1na2vs0mg"},{"bike_id":"f0d398b3-0e99-4a60-9edf-0e289b418a47","system_id":"levelo_inurba_marseille","lat":43.3054,"lon":5.36558,"is_reserved":false,"is_disabled":false,"rental_uris":{"android":"levelo://app?vid=f0d398b3-0e99-4a60-9edf-0e289b418a47","ios":"levelo://app?vid=f0d398b3-0e99-4a60-9edf-0e289b418a47"},"vehicle_type_id":"4","last_reported":1744020720,"current_range_meters":11600,"station_id":"ce4bgs12rcd13ifvqcag","pricing_plan_id":"cebpf4jnsgd1na2vs0mg"},{"bike_id":"af760841-aea7-41cb-bebb-0ec334811baf","system_id":"levelo_inurba_marseille","lat":43.2549,"lon":5.37658,"is_reserved":false,"is_disabled":false,"rental_uris":{"android":"levelo://app?vid=af760841-aea7-41cb-bebb-0ec334811baf","ios":"levelo://app?vid=af760841-aea7-41cb-bebb-0ec334811baf"},"vehicle_type_id":"4","last_reported":1744020720,"current_range_meters":11200,"station_id":"ce4bhh12rcd13ifvqff0","pricing_plan_id":"cebpf4jnsgd1na2vs0mg"},{"bike_id":"e0f9379f-4e29-4d2f-9389-d7a00c58e8a0","system_id":"levelo_inurba_marseille","lat":43.24163,"lon":5.39731,"is_reserved":false,"is_disabled":false,"rental_uris":{"android":"levelo://app?vid=e0f9379f-4e29-4d2f-9389-d7a00c58e8a0","ios":"levelo://app?vid=e0f9379f-4e29-4d2f-9389-d7a00c58e8a0"},"vehicle_type_id":"4","last_reported":1744020720,"current_range_meters":11200,"station_id":"ce4bhn12rcd13ifvqgpg","pricing_plan_id":"cebpf4jnsgd1na2vs0mg"},{"bike_id":"5840c1d9-6493-4ce8-8cf9-976afbbec159","system_id":"levelo_inurba_marseille","lat":43.23178,"lon":5.39988,"is_reserved":false,"is_disabled":true,"rental_uris":{"android":"levelo://app?vid=5840c1d9-6493-4ce8-8cf9-976afbbec159","ios":"levelo://app?vid=5840c1d9-6493-4ce8-8cf9-976afbbec159"},"vehicle_type_id":"4","last_reported":1744020720,"current_range_meters":11200,"station_id":"ce4bhn12rcd13ifvqgqg","pricing_plan_id":"cebpf4jnsgd1na2vs0mg"},{"bike_id":"543e8a52-25b8-474c-a2e7-31d0c99c8646","system_id":"levelo_inurba_marseille","lat":43.24165,"lon":5.39744,"is_reserved":false,"is_disabled":false,"rental_uris":{"android":"levelo://app?vid=543e8a52-25b8-474c-a2e7-31d0c99c8646","ios":"levelo://app?vid=543e8a52-25b8-474c-a2e7-31d0c99c8646"},"vehicle_type_id":"4","last_reported":1744020720,"current_range_meters":11200,"station_id":"ce4bhn12rcd13ifvqgpg","pricing_plan_id":"cebpf4jnsgd1na2vs0mg"},{"bike_id":"cc057f14-b1e1-4dee-b107-8741c01c5964","system_id":"levelo_inurba_marseille","lat":43.32093,"lon":5.36784,"is_reserved":false,"is_disabled":true,"rental_uris":{"android":"levelo://app?vid=cc057f14-b1e1-4dee-b107-8741c01c5964","ios":"levelo://app?vid=cc057f14-b1e1-4dee-b107-8741c01c5964"},"vehicle_type_id":"4","last_reported":1744020720,"current_range_meters":11200,"station_id":"ce4bhrh2rcd13ifvqhug","pricing_plan_id":"cebpf4jnsgd1na2vs0mg"},{"bike_id":"2a6c70b7-3280-4c58-9c17-d39c1ef6b670","system_id":"levelo_inurba_marseille","lat":43.32364,"lon":5.36764,"is_reserved":false,"is_disabled":false,"rental_uris":{"android":"levelo://app?vid=2a6c70b7-3280-4c58-9c17-d39c1ef6b670","ios":"levelo://app?vid=2a6c70b7-3280-4c58-9c17-d39c1ef6b670"},"vehicle_type_id":"4","last_reported":1744020720,"current_range_meters":11600,"station_id":"ce4bhsh2rcd13ifvqi2g","pricing_plan_id":"cebpf4jnsgd1na2vs0mg"},{"bike_id":"aa48d594-3ed5-43b5-90d8-2a7fa18b7499","system_id":"levelo_inurba_marseille","lat":43.32104,"lon":5.36765,"is_reserved":false,"is_disabled":false,"rental_uris":{"android":"levelo://app?vid=aa48d594-3ed5-43b5-90d8-2a7fa18b7499","ios":"levelo://app?vid=aa48d594-3ed5-43b5-90d8-2a7fa18b7499"},"vehicle_type_id":"4","last_reported":1744020720,"current_range_meters":11600,"station_id":"ce4bhrh2rcd13ifvqhug","pricing_plan_id":"cebpf4jnsgd1na2vs0mg"},{"bike_id":"750bc9c2-8244-4f27-a571-77c62d7d6b92","system_id":"levelo_inurba_marseille","lat":43.31272,"lon":5.37755,"is_reserved":false,"is_disabled":false,"rental_uris":{"android":"levelo://app?vid=750bc9c2-8244-4f27-a571-77c62d7d6b92","ios":"levelo://app?vid=750bc9c2-8244-4f27-a571-77c62d7d6b92"},"vehicle_type_id":"4","last_reported":1744020720,"current_range_meters":11600,"station_id":"","pricing_plan_id":"cebpf4jnsgd1na2vs0mg"},{"bike_id":"6a8ce604-b185-4aa5-a4e8-5c146d109b3f","system_id":"levelo_inurba_marseille","lat":43.28717,"lon":5.37941,"is_reserved":false,"is_disabled":true,"rental_uris":{"android":"levelo://app?vid=6a8ce604-b185-4aa5-a4e8-5c146d109b3f","ios":"levelo://app?vid=6a8ce604-b185-4aa5-a4e8-5c146d109b3f"},"vehicle_type_id":"4","last_reported":1744020720,"current_range_meters":11600,"station_id":"ce4bh9p2rcd13ifvqec0","pricing_plan_id":"cebpf4jnsgd1na2vs0mg"},{"bike_id":"7956d4b7-f9df-4616-bd52-832d0af74ae0","system_id":"levelo_inurba_marseille","lat":43.2572,"lon":5.41119,"is_reserved":false,"is_disabled":false,"rental_uris":{"android":"levelo://app?vid=7956d4b7-f9df-4616-bd52-832d0af74ae0","ios":"levelo://app?vid=7956d4b7-f9df-4616-bd52-832d0af74ae0"},"vehicle_type_id":"4","last_reported":1744020720,"current_range_meters":11600,"station_id":"ce4bhkp2rcd13ifvqgd0","pricing_plan_id":"cebpf4jnsgd1na2vs0mg"},{"bike_id":"e926ae44-9c36-4909-aca0-768b34034fa9","system_id":"levelo_inurba_marseille","lat":43.31987,"lon":5.38149,"is_reserved":false,"is_disabled":true,"rental_uris":{"android":"levelo://app?vid=e926ae44-9c36-4909-aca0-768b34034fa9","ios":"levelo://app?vid=e926ae44-9c36-4909-aca0-768b34034fa9"},"vehicle_type_id":"4","last_reported":1744020720,"current_range_meters":11600,"station_id":"ce4bhr12rcd13ifvqhpg","pricing_plan_id":"cebpf4jnsgd1na2vs0mg"},{"bike_id":"6b79c190-08a0-493c-b3e0-7480ca940237","system_id":"levelo_inurba_marseille","lat":43.2593,"lon":5.40912,"is_reserved":false,"is_disabled":false,"rental_uris":{"android":"levelo://app?vid=6b79c190-08a0-493c-b3e0-7480ca940237","ios":"levelo://app?vid=6b79c190-08a0-493c-b3e0-7480ca940237"},"vehicle_type_id":"4","last_reported":1744020720,"current_range_meters":12000,"station_id":"ce4bhm92rcd13ifvqglg","pricing_plan_id":"cebpf4jnsgd1na2vs0mg"},{"bike_id":"989c95ad-174b-4d11-bf71-7e1e26e27127","system_id":"levelo_inurba_marseille","lat":43.24802,"lon":5.37462,"is_reserved":false,"is_disabled":false,"rental_uris":{"android":"levelo://app?vid=989c95ad-174b-4d11-bf71-7e1e26e27127","ios":"levelo://app?vid=989c95ad-174b-4d11-bf71-7e1e26e27127"},"vehicle_type_id":"4","last_reported":1744020720,"current_range_meters":12000,"station_id":"ce4bhgh2rcd13ifvqfb0","pricing_plan_id":"cebpf4jnsgd1na2vs0mg"},{"bike_id":"b3955141-b4e4-46ef-9f72-2d6ddb89ac2c","system_id":"levelo_inurba_marseille","lat":43.23162,"lon":5.43722,"is_reserved":false,"is_disabled":false,"rental_uris":{"android":"levelo://app?vid=b3955141-b4e4-46ef-9f72-2d6ddb89ac2c","ios":"levelo://app?vid=b3955141-b4e4-46ef-9f72-2d6ddb89ac2c"},"vehicle_type_id":"4","last_reported":1744020720,"current_range_meters":12000,"station_id":"ce4bhmp2rcd13ifvqgog","pricing_plan_id":"cebpf4jnsgd1na2vs0mg"},{"bike_id":"42bec995-a096-465d-a071-79f7536ae710","system_id":"levelo_inurba_marseille","lat":43.27373,"lon":5.36255,"is_reserved":false,"is_disabled":false,"rental_uris":{"android":"levelo://app?vid=42bec995-a096-465d-a071-79f7536ae710","ios":"levelo://app?vid=42bec995-a096-465d-a071-79f7536ae710"},"vehicle_type_id":"4","last_reported":1744020720,"current_range_meters":12000,"station_id":"ce4bhbh2rcd13ifvqeo0","pricing_plan_id":"cebpf4jnsgd1na2vs0mg"},{"bike_id":"04c41918-2107-4df0-8788-dc6e5c7fca6e","system_id":"levelo_inurba_marseille","lat":43.30953,"lon":5.39025,"is_reserved":false,"is_disabled":true,"rental_uris":{"android":"levelo://app?vid=04c41918-2107-4df0-8788-dc6e5c7fca6e","ios":"levelo://app?vid=04c41918-2107-4df0-8788-dc6e5c7fca6e"},"vehicle_type_id":"4","last_reported":1744020720,"current_range_meters":12400,"station_id":"ce4bgup2rcd13ifvqco0","pricing_plan_id":"cebpf4jnsgd1na2vs0mg"},{"bike_id":"8daa3e29-a6dc-495f-b0f9-540d9e71c557","system_id":"levelo_inurba_marseille","lat":43.26192,"lon":5.37448,"is_reserved":false,"is_disabled":false,"rental_uris":{"android":"levelo://app?vid=8daa3e29-a6dc-495f-b0f9-540d9e71c557","ios":"levelo://app?vid=8daa3e29-a6dc-495f-b0f9-540d9e71c557"},"vehicle_type_id":"4","last_reported":1744020720,"current_range_meters":12400,"station_id":"ce4bhgp2rcd13ifvqfc0","pricing_plan_id":"cebpf4jnsgd1na2vs0mg"},{"bike_id":"4509e3b0-878a-445a-9c5e-723776639186","system_id":"levelo_inurba_marseille","lat":43.31336,"lon":5.367,"is_reserved":false,"is_disabled":false,"rental_uris":{"android":"levelo://app?vid=4509e3b0-878a-445a-9c5e-723776639186","ios":"levelo://app?vid=4509e3b0-878a-445a-9c5e-723776639186"},"vehicle_type_id":"4","last_reported":1744020720,"current_range_meters":12400,"station_id":"ce4bgr92rcd13ifvqc6g","pricing_plan_id":"cebpf4jnsgd1na2vs0mg"},{"bike_id":"31680a03-0208-48c5-8f58-55f2ae922a13","system_id":"levelo_inurba_marseille","lat":43.25914,"lon":5.40876,"is_reserved":false,"is_disabled":false,"rental_uris":{"android":"levelo://app?vid=31680a03-0208-48c5-8f58-55f2ae922a13","ios":"levelo://app?vid=31680a03-0208-48c5-8f58-55f2ae922a13"},"vehicle_type_id":"4","last_reported":1744020720,"current_range_meters":12400,"station_id":"ce4bhm92rcd13ifvqglg","pricing_plan_id":"cebpf4jnsgd1na2vs0mg"},{"bike_id":"4343ca41-b07c-4527-9fbc-dfdb2ff9a545","system_id":"levelo_inurba_marseille","lat":43.32536,"lon":5.41425,"is_reserved":false,"is_disabled":false,"rental_uris":{"android":"levelo://app?vid=4343ca41-b07c-4527-9fbc-dfdb2ff9a545","ios":"levelo://app?vid=4343ca41-b07c-4527-9fbc-dfdb2ff9a545"},"vehicle_type_id":"4","last_reported":1744020720,"current_range_meters":12400,"station_id":"ce4bhq12rcd13ifvqhhg","pricing_plan_id":"cebpf4jnsgd1na2vs0mg"},{"bike_id":"73272853-088e-4b39-8e6e-94fe10fc353c","system_id":"levelo_inurba_marseille","lat":43.33767,"lon":5.37485,"is_reserved":false,"is_disabled":true,"rental_uris":{"android":"levelo://app?vid=73272853-088e-4b39-8e6e-94fe10fc353c","ios":"levelo://app?vid=73272853-088e-4b39-8e6e-94fe10fc353c"},"vehicle_type_id":"4","last_reported":1744020720,"current_range_meters":12400,"station_id":"","pricing_plan_id":"cebpf4jnsgd1na2vs0mg"},{"bike_id":"f6badd6d-7c01-4364-a05b-585cb882162b","system_id":"levelo_inurba_marseille","lat":43.23154,"lon":5.43703,"is_reserved":false,"is_disabled":false,"rental_uris":{"android":"levelo://app?vid=f6badd6d-7c01-4364-a05b-585cb882162b","ios":"levelo://app?vid=f6badd6d-7c01-4364-a05b-585cb882162b"},"vehicle_type_id":"4","last_reported":1744020720,"current_range_meters":12400,"station_id":"ce4bhmp2rcd13ifvqgog","pricing_plan_id":"cebpf4jnsgd1na2vs0mg"},{"bike_id":"a6280444-7408-4511-b79e-babeaf12e790","system_id":"levelo_inurba_marseille","lat":43.28613,"lon":5.35099,"is_reserved":false,"is_disabled":false,"rental_uris":{"android":"levelo://app?vid=a6280444-7408-4511-b79e-babeaf12e790","ios":"levelo://app?vid=a6280444-7408-4511-b79e-babeaf12e790"},"vehicle_type_id":"4","last_reported":1744020720,"current_range_meters":12800,"station_id":"ce4bhch2rcd13ifvqeug","pricing_plan_id":"cebpf4jnsgd1na2vs0mg"},{"bike_id":"12266c25-f3da-4f59-a39a-0582de5ffedc","system_id":"levelo_inurba_marseille","lat":43.30929,"lon":5.4014,"is_reserved":false,"is_disabled":false,"rental_uris":{"android":"levelo://app?vid=12266c25-f3da-4f59-a39a-0582de5ffedc","ios":"levelo://app?vid=12266c25-f3da-4f59-a39a-0582de5ffedc"},"vehicle_type_id":"4","last_reported":1744020720,"current_range_meters":12400,"station_id":"ce4bgvp2rcd13ifvqct0","pricing_plan_id":"cebpf4jnsgd1na2vs0mg"},{"bike_id":"8127a379-abcb-448e-b192-b2b588a12b57","system_id":"levelo_inurba_marseille","lat":43.2574,"lon":5.41094,"is_reserved":false,"is_disabled":false,"rental_uris":{"android":"levelo://app?vid=8127a379-abcb-448e-b192-b2b588a12b57","ios":"levelo://app?vid=8127a379-abcb-448e-b192-b2b588a12b57"},"vehicle_type_id":"4","last_reported":1744020720,"current_range_meters":12800,"station_id":"ce4bhkp2rcd13ifvqgd0","pricing_plan_id":"cebpf4jnsgd1na2vs0mg"},{"bike_id":"af69ddaf-3c35-451f-90e1-22db18d9f81c","system_id":"levelo_inurba_marseille","lat":43.30802,"lon":5.43542,"is_reserved":false,"is_disabled":false,"rental_uris":{"android":"levelo://app?vid=af69ddaf-3c35-451f-90e1-22db18d9f81c","ios":"levelo://app?vid=af69ddaf-3c35-451f-90e1-22db18d9f81c"},"vehicle_type_id":"4","last_reported":1744020720,"current_range_meters":12800,"station_id":"ce4bhph2rcd13ifvqheg","pricing_plan_id":"cebpf4jnsgd1na2vs0mg"},{"bike_id":"f3e1697d-6322-4b7c-bcd9-bfaaba5adcfb","system_id":"levelo_inurba_marseille","lat":43.31973,"lon":5.38133,"is_reserved":false,"is_disabled":true,"rental_uris":{"android":"levelo://app?vid=f3e1697d-6322-4b7c-bcd9-bfaaba5adcfb","ios":"levelo://app?vid=f3e1697d-6322-4b7c-bcd9-bfaaba5adcfb"},"vehicle_type_id":"4","last_reported":1744020720,"current_range_meters":12800,"station_id":"ce4bhr12rcd13ifvqhpg","pricing_plan_id":"cebpf4jnsgd1na2vs0mg"},{"bike_id":"029195be-5683-4313-9e08-21e3ce7a79d7","system_id":"levelo_inurba_marseille","lat":43.27917,"lon":5.39581,"is_reserved":false,"is_disabled":false,"rental_uris":{"android":"levelo://app?vid=029195be-5683-4313-9e08-21e3ce7a79d7","ios":"levelo://app?vid=029195be-5683-4313-9e08-21e3ce7a79d7"},"vehicle_type_id":"4","last_reported":1744020720,"current_range_meters":13600,"station_id":"ce4bhf92rcd13ifvqf40","pricing_plan_id":"cebpf4jnsgd1na2vs0mg"},{"bike_id":"d2c0f1ed-7cb7-410c-aa2f-6defec26c88a","system_id":"levelo_inurba_marseille","lat":43.27998,"lon":5.41666,"is_reserved":false,"is_disabled":false,"rental_uris":{"android":"levelo://app?vid=d2c0f1ed-7cb7-410c-aa2f-6defec26c88a","ios":"levelo://app?vid=d2c0f1ed-7cb7-410c-aa2f-6defec26c88a"},"vehicle_type_id":"4","last_reported":1744020720,"current_range_meters":13600,"station_id":"ce4bho12rcd13ifvqh1g","pricing_plan_id":"cebpf4jnsgd1na2vs0mg"},{"bike_id":"7f849341-935d-4b6d-88b0-0fbbf079e418","system_id":"levelo_inurba_marseille","lat":43.2848,"lon":5.38426,"is_reserved":false,"is_disabled":true,"rental_uris":{"android":"levelo://app?vid=7f849341-935d-4b6d-88b0-0fbbf079e418","ios":"levelo://app?vid=7f849341-935d-4b6d-88b0-0fbbf079e418"},"vehicle_type_id":"4","last_reported":1744020720,"current_range_meters":13600,"station_id":"ce4bh512rcd13ifvqe3g","pricing_plan_id":"cebpf4jnsgd1na2vs0mg"},{"bike_id":"36810584-1a67-464e-a769-f29202f741c5","system_id":"levelo_inurba_marseille","lat":43.30651,"lon":5.40089,"is_reserved":false,"is_disabled":false,"rental_uris":{"android":"levelo://app?vid=36810584-1a67-464e-a769-f29202f741c5","ios":"levelo://app?vid=36810584-1a67-464e-a769-f29202f741c5"},"vehicle_type_id":"4","last_reported":1744020720,"current_range_meters":13600,"station_id":"ce4bh112rcd13ifvqda0","pricing_plan_id":"cebpf4jnsgd1na2vs0mg"},{"bike_id":"965debe4-081f-4ce1-a884-fcf3ae2cc3a4","system_id":"levelo_inurba_marseille","lat":43.23145,"lon":5.43724,"is_reserved":false,"is_disabled":false,"rental_uris":{"android":"levelo://app?vid=965debe4-081f-4ce1-a884-fcf3ae2cc3a4","ios":"levelo://app?vid=965debe4-081f-4ce1-a884-fcf3ae2cc3a4"},"vehicle_type_id":"4","last_reported":1744020720,"current_range_meters":13600,"station_id":"ce4bhmp2rcd13ifvqgog","pricing_plan_id":"cebpf4jnsgd1na2vs0mg"},{"bike_id":"6ad98942-f835-4638-8165-7efc81273a10","system_id":"levelo_inurba_marseille","lat":43.3047,"lon":5.37909,"is_reserved":false,"is_disabled":false,"rental_uris":{"android":"levelo://app?vid=6ad98942-f835-4638-8165-7efc81273a10","ios":"levelo://app?vid=6ad98942-f835-4638-8165-7efc81273a10"},"vehicle_type_id":"4","last_reported":1744020720,"current_range_meters":13600,"station_id":"ce4bgup2rcd13ifvqcn0","pricing_plan_id":"cebpf4jnsgd1na2vs0mg"},{"bike_id":"adb4ee41-a46b-4f37-a518-a2b370471489","system_id":"levelo_inurba_marseille","lat":43.27329,"lon":5.41119,"is_reserved":false,"is_disabled":true,"rental_uris":{"android":"levelo://app?vid=adb4ee41-a46b-4f37-a518-a2b370471489","ios":"levelo://app?vid=adb4ee41-a46b-4f37-a518-a2b370471489"},"vehicle_type_id":"4","last_reported":1744020720,"current_range_meters":13600,"station_id":"","pricing_plan_id":"cebpf4jnsgd1na2vs0mg"},{"bike_id":"6bb42352-d3ad-4a2f-9f21-9eb6cc41e5ff","system_id":"levelo_inurba_marseille","lat":43.31227,"lon":5.36862,"is_reserved":false,"is_disabled":false,"rental_uris":{"android":"levelo://app?vid=6bb42352-d3ad-4a2f-9f21-9eb6cc41e5ff","ios":"levelo://app?vid=6bb42352-d3ad-4a2f-9f21-9eb6cc41e5ff"},"vehicle_type_id":"4","last_reported":1744020720,"current_range_meters":14000,"station_id":"ce4bgl92rcd13ifvqbq0","pricing_plan_id":"cebpf4jnsgd1na2vs0mg"},{"bike_id":"7e68812f-f97b-4e36-9c60-ea450212fc32","system_id":"levelo_inurba_marseille","lat":43.28154,"lon":5.42641,"is_reserved":false,"is_disabled":false,"rental_uris":{"android":"levelo://app?vid=7e68812f-f97b-4e36-9c60-ea450212fc32","ios":"levelo://app?vid=7e68812f-f97b-4e36-9c60-ea450212fc32"},"vehicle_type_id":"4","last_reported":1744020720,"current_range_meters":14000,"station_id":"ce4bhnh2rcd13ifvqgug","pricing_plan_id":"cebpf4jnsgd1na2vs0mg"},{"bike_id":"9579ab0a-24b4-4490-a442-2b612dd0dfd9","system_id":"levelo_inurba_marseille","lat":43.26216,"lon":5.37443,"is_reserved":false,"is_disabled":false,"rental_uris":{"android":"levelo://app?vid=9579ab0a-24b4-4490-a442-2b612dd0dfd9","ios":"levelo://app?vid=9579ab0a-24b4-4490-a442-2b612dd0dfd9"},"vehicle_type_id":"4","last_reported":1744020720,"current_range_meters":14000,"station_id":"ce4bhgp2rcd13ifvqfc0","pricing_plan_id":"cebpf4jnsgd1na2vs0mg"},{"bike_id":"3b6cca3e-a145-434e-bdc6-c5e1be6a649b","system_id":"levelo_inurba_marseille","lat":43.283314,"lon":5.385426,"is_reserved":false,"is_disabled":false,"rental_uris":{"android":"levelo://app?vid=3b6cca3e-a145-434e-bdc6-c5e1be6a649b","ios":"levelo://app?vid=3b6cca3e-a145-434e-bdc6-c5e1be6a649b"},"vehicle_type_id":"4","last_reported":1744020720,"current_range_meters":13600,"station_id":"ce4bh512rcd13ifvqe3g","pricing_plan_id":"cebpf4jnsgd1na2vs0mg"},{"bike_id":"00a7e663-4b56-4cdc-be9a-13ab0452a793","system_id":"levelo_inurba_marseille","lat":43.23972,"lon":5.36617,"is_reserved":false,"is_disabled":false,"rental_uris":{"android":"levelo://app?vid=00a7e663-4b56-4cdc-be9a-13ab0452a793","ios":"levelo://app?vid=00a7e663-4b56-4cdc-be9a-13ab0452a793"},"vehicle_type_id":"4","last_reported":1744020720,"current_range_meters":14000,"station_id":"ce4bhi12rcd13ifvqfp0","pricing_plan_id":"cebpf4jnsgd1na2vs0mg"},{"bike_id":"4662f2c9-aa99-4430-b56d-3b091c848158","system_id":"levelo_inurba_marseille","lat":43.261998,"lon":5.374497,"is_reserved":false,"is_disabled":false,"rental_uris":{"android":"levelo://app?vid=4662f2c9-aa99-4430-b56d-3b091c848158","ios":"levelo://app?vid=4662f2c9-aa99-4430-b56d-3b091c848158"},"vehicle_type_id":"4","last_reported":1744020720,"current_range_meters":14400,"station_id":"ce4bhgp2rcd13ifvqfc0","pricing_plan_id":"cebpf4jnsgd1na2vs0mg"},{"bike_id":"3576b946-70b3-456f-a60a-d98e227f015c","system_id":"levelo_inurba_marseille","lat":43.30112,"lon":5.3825,"is_reserved":false,"is_disabled":false,"rental_uris":{"android":"levelo://app?vid=3576b946-70b3-456f-a60a-d98e227f015c","ios":"levelo://app?vid=3576b946-70b3-456f-a60a-d98e227f015c"},"vehicle_type_id":"4","last_reported":1744020720,"current_range_meters":14400,"station_id":"ce4bgup2rcd13ifvqcn0","pricing_plan_id":"cebpf4jnsgd1na2vs0mg"},{"bike_id":"a849a9e5-565d-40dd-82ce-c07e452da550","system_id":"levelo_inurba_marseille","lat":43.2952,"lon":5.3904,"is_reserved":false,"is_disabled":false,"rental_uris":{"android":"levelo://app?vid=a849a9e5-565d-40dd-82ce-c07e452da550","ios":"levelo://app?vid=a849a9e5-565d-40dd-82ce-c07e452da550"},"vehicle_type_id":"4","last_reported":1744020720,"current_range_meters":14400,"station_id":"ce4bh3p2rcd13ifvqdp0","pricing_plan_id":"cebpf4jnsgd1na2vs0mg"},{"bike_id":"51afa508-e09e-4f9d-b28b-09e389bc8550","system_id":"levelo_inurba_marseille","lat":43.27377,"lon":5.36261,"is_reserved":false,"is_disabled":false,"rental_uris":{"android":"levelo://app?vid=51afa508-e09e-4f9d-b28b-09e389bc8550","ios":"levelo://app?vid=51afa508-e09e-4f9d-b28b-09e389bc8550"},"vehicle_type_id":"4","last_reported":1744020720,"current_range_meters":14400,"station_id":"ce4bhbh2rcd13ifvqeo0","pricing_plan_id":"cebpf4jnsgd1na2vs0mg"},{"bike_id":"82f28cf6-556c-431d-a12b-bd3ce5fc2f28","system_id":"levelo_inurba_marseille","lat":43.27515,"lon":5.37751,"is_reserved":false,"is_disabled":false,"rental_uris":{"android":"levelo://app?vid=82f28cf6-556c-431d-a12b-bd3ce5fc2f28","ios":"levelo://app?vid=82f28cf6-556c-431d-a12b-bd3ce5fc2f28"},"vehicle_type_id":"4","last_reported":1744020720,"current_range_meters":14800,"station_id":"","pricing_plan_id":"cebpf4jnsgd1na2vs0mg"},{"bike_id":"7dbe97ee-b413-454f-a37a-7fdc2b273a77","system_id":"levelo_inurba_marseille","lat":43.29919,"lon":5.37486,"is_reserved":false,"is_disabled":false,"rental_uris":{"android":"levelo://app?vid=7dbe97ee-b413-454f-a37a-7fdc2b273a77","ios":"levelo://app?vid=7dbe97ee-b413-454f-a37a-7fdc2b273a77"},"vehicle_type_id":"4","last_reported":1744020720,"current_range_meters":14800,"station_id":"ce4bgjh2rcd13ifvqbg0","pricing_plan_id":"cebpf4jnsgd1na2vs0mg"},{"bike_id":"f7f9ca86-d028-434a-a7bc-1167b0aa9e77","system_id":"levelo_inurba_marseille","lat":43.2508,"lon":5.39524,"is_reserved":false,"is_disabled":false,"rental_uris":{"android":"levelo://app?vid=f7f9ca86-d028-434a-a7bc-1167b0aa9e77","ios":"levelo://app?vid=f7f9ca86-d028-434a-a7bc-1167b0aa9e77"},"vehicle_type_id":"4","last_reported":1744020720,"current_range_meters":14800,"station_id":"ce4bhm12rcd13ifvqgkg","pricing_plan_id":"cebpf4jnsgd1na2vs0mg"},{"bike_id":"19224d95-e048-4cbb-8884-43e0e6b3db9b","system_id":"levelo_inurba_marseille","lat":43.29873,"lon":5.39735,"is_reserved":false,"is_disabled":true,"rental_uris":{"android":"levelo://app?vid=19224d95-e048-4cbb-8884-43e0e6b3db9b","ios":"levelo://app?vid=19224d95-e048-4cbb-8884-43e0e6b3db9b"},"vehicle_type_id":"4","last_reported":1744020720,"current_range_meters":14800,"station_id":"ce4bh0h2rcd13ifvqd50","pricing_plan_id":"cebpf4jnsgd1na2vs0mg"},{"bike_id":"f7a09fe2-4a30-4928-be34-e1fffb4b53a0","system_id":"levelo_inurba_marseille","lat":43.28415,"lon":5.34976,"is_reserved":false,"is_disabled":false,"rental_uris":{"android":"levelo://app?vid=f7a09fe2-4a30-4928-be34-e1fffb4b53a0","ios":"levelo://app?vid=f7a09fe2-4a30-4928-be34-e1fffb4b53a0"},"vehicle_type_id":"4","last_reported":1744020720,"current_range_meters":14800,"station_id":"ce4bhbh2rcd13ifvqepg","pricing_plan_id":"cebpf4jnsgd1na2vs0mg"},{"bike_id":"f17ce36f-e80a-4732-89e2-7a7dfab19d87","system_id":"levelo_inurba_marseille","lat":43.29898,"lon":5.43669,"is_reserved":false,"is_disabled":false,"rental_uris":{"android":"levelo://app?vid=f17ce36f-e80a-4732-89e2-7a7dfab19d87","ios":"levelo://app?vid=f17ce36f-e80a-4732-89e2-7a7dfab19d87"},"vehicle_type_id":"4","last_reported":1744020720,"current_range_meters":15200,"station_id":"ce4bhpp2rcd13ifvqhfg","pricing_plan_id":"cebpf4jnsgd1na2vs0mg"},{"bike_id":"1d085f39-182d-4cda-bb2c-ac3d5d3220d2","system_id":"levelo_inurba_marseille","lat":43.2315,"lon":5.43732,"is_reserved":false,"is_disabled":false,"rental_uris":{"android":"levelo://app?vid=1d085f39-182d-4cda-bb2c-ac3d5d3220d2","ios":"levelo://app?vid=1d085f39-182d-4cda-bb2c-ac3d5d3220d2"},"vehicle_type_id":"4","last_reported":1744020720,"current_range_meters":15200,"station_id":"ce4bhmp2rcd13ifvqgog","pricing_plan_id":"cebpf4jnsgd1na2vs0mg"},{"bike_id":"4b9dfe05-0e60-423c-af4b-3ef6e8cad4ce","system_id":"levelo_inurba_marseille","lat":43.25115,"lon":5.40332,"is_reserved":false,"is_disabled":true,"rental_uris":{"android":"levelo://app?vid=4b9dfe05-0e60-423c-af4b-3ef6e8cad4ce","ios":"levelo://app?vid=4b9dfe05-0e60-423c-af4b-3ef6e8cad4ce"},"vehicle_type_id":"4","last_reported":1744020720,"current_range_meters":15200,"station_id":"ce4bhlh2rcd13ifvqgig","pricing_plan_id":"cebpf4jnsgd1na2vs0mg"},{"bike_id":"4ca19054-e42f-4757-96f5-22a71f96195a","system_id":"levelo_inurba_marseille","lat":43.28424,"lon":5.34978,"is_reserved":false,"is_disabled":false,"rental_uris":{"android":"levelo://app?vid=4ca19054-e42f-4757-96f5-22a71f96195a","ios":"levelo://app?vid=4ca19054-e42f-4757-96f5-22a71f96195a"},"vehicle_type_id":"4","last_reported":1744020720,"current_range_meters":16000,"station_id":"ce4bhbh2rcd13ifvqepg","pricing_plan_id":"cebpf4jnsgd1na2vs0mg"},{"bike_id":"92a1d5fe-b2e8-4e3c-94aa-61e0e2abcbd9","system_id":"levelo_inurba_marseille","lat":43.30471,"lon":5.37897,"is_reserved":false,"is_disabled":false,"rental_uris":{"android":"levelo://app?vid=92a1d5fe-b2e8-4e3c-94aa-61e0e2abcbd9","ios":"levelo://app?vid=92a1d5fe-b2e8-4e3c-94aa-61e0e2abcbd9"},"vehicle_type_id":"4","last_reported":1744020720,"current_range_meters":16000,"station_id":"ce4bgup2rcd13ifvqcn0","pricing_plan_id":"cebpf4jnsgd1na2vs0mg"},{"bike_id":"24718473-7922-4ff1-a2da-8890ed0d55df","system_id":"levelo_inurba_marseille","lat":43.30954,"lon":5.390355,"is_reserved":false,"is_disabled":false,"rental_uris":{"android":"levelo://app?vid=24718473-7922-4ff1-a2da-8890ed0d55df","ios":"levelo://app?vid=24718473-7922-4ff1-a2da-8890ed0d55df"},"vehicle_type_id":"4","last_reported":1744020720,"current_range_meters":16000,"station_id":"ce4bgj92rcd13ifvqbd0","pricing_plan_id":"cebpf4jnsgd1na2vs0mg"},{"bike_id":"b3060ad3-7767-418c-b5d7-b1d47e963491","system_id":"levelo_inurba_marseille","lat":43.24544,"lon":5.39522,"is_reserved":false,"is_disabled":false,"rental_uris":{"android":"levelo://app?vid=b3060ad3-7767-418c-b5d7-b1d47e963491","ios":"levelo://app?vid=b3060ad3-7767-418c-b5d7-b1d47e963491"},"vehicle_type_id":"4","last_reported":1744020720,"current_range_meters":16000,"station_id":"ce4bhlp2rcd13ifvqgjg","pricing_plan_id":"cebpf4jnsgd1na2vs0mg"},{"bike_id":"aefc70cd-f095-480b-9c52-2f150e2fbe89","system_id":"levelo_inurba_marseille","lat":43.3096,"lon":5.39041,"is_reserved":false,"is_disabled":false,"rental_uris":{"android":"levelo://app?vid=aefc70cd-f095-480b-9c52-2f150e2fbe89","ios":"levelo://app?vid=aefc70cd-f095-480b-9c52-2f150e2fbe89"},"vehicle_type_id":"4","last_reported":1744020720,"current_range_meters":16000,"station_id":"ce4bgup2rcd13ifvqco0","pricing_plan_id":"cebpf4jnsgd1na2vs0mg"},{"bike_id":"2d844e00-6815-41ae-85b6-f420db58ee45","system_id":"levelo_inurba_marseille","lat":43.30947,"lon":5.39033,"is_reserved":false,"is_disabled":false,"rental_uris":{"android":"levelo://app?vid=2d844e00-6815-41ae-85b6-f420db58ee45","ios":"levelo://app?vid=2d844e00-6815-41ae-85b6-f420db58ee45"},"vehicle_type_id":"4","last_reported":1744020720,"current_range_meters":16000,"station_id":"ce4bgup2rcd13ifvqco0","pricing_plan_id":"cebpf4jnsgd1na2vs0mg"},{"bike_id":"b92726b0-db16-4a98-8aae-dbf43c633d06","system_id":"levelo_inurba_marseille","lat":43.30134,"lon":5.39875,"is_reserved":false,"is_disabled":false,"rental_uris":{"android":"levelo://app?vid=b92726b0-db16-4a98-8aae-dbf43c633d06","ios":"levelo://app?vid=b92726b0-db16-4a98-8aae-dbf43c633d06"},"vehicle_type_id":"4","last_reported":1744020720,"current_range_meters":16000,"station_id":"ce4bh0h2rcd13ifvqd40","pricing_plan_id":"cebpf4jnsgd1na2vs0mg"},{"bike_id":"ec7d3251-d53b-4874-b96d-6dae899b6aa1","system_id":"levelo_inurba_marseille","lat":43.27208,"lon":5.39205,"is_reserved":false,"is_disabled":true,"rental_uris":{"android":"levelo://app?vid=ec7d3251-d53b-4874-b96d-6dae899b6aa1","ios":"levelo://app?vid=ec7d3251-d53b-4874-b96d-6dae899b6aa1"},"vehicle_type_id":"4","last_reported":1744020720,"current_range_meters":16000,"station_id":"ce4bhhp2rcd13ifvqfm0","pricing_plan_id":"cebpf4jnsgd1na2vs0mg"},{"bike_id":"655358e4-2dd3-44dc-97f7-e2925a99950d","system_id":"levelo_inurba_marseille","lat":43.29258,"lon":5.37624,"is_reserved":false,"is_disabled":false,"rental_uris":{"android":"levelo://app?vid=655358e4-2dd3-44dc-97f7-e2925a99950d","ios":"levelo://app?vid=655358e4-2dd3-44dc-97f7-e2925a99950d"},"vehicle_type_id":"4","last_reported":1744020720,"current_range_meters":16000,"station_id":"ce4bgi12rcd13ifvqb80","pricing_plan_id":"cebpf4jnsgd1na2vs0mg"},{"bike_id":"6b1de8b7-aa93-4d01-b3e7-5df48cf9275a","system_id":"levelo_inurba_marseille","lat":43.28004,"lon":5.40007,"is_reserved":false,"is_disabled":false,"rental_uris":{"android":"levelo://app?vid=6b1de8b7-aa93-4d01-b3e7-5df48cf9275a","ios":"levelo://app?vid=6b1de8b7-aa93-4d01-b3e7-5df48cf9275a"},"vehicle_type_id":"4","last_reported":1744020720,"current_range_meters":15200,"station_id":"ce4bho92rcd13ifvqh4g","pricing_plan_id":"cebpf4jnsgd1na2vs0mg"},{"bike_id":"fc7f1fe7-d7c3-419c-a4b6-6e9b8f11cff3","system_id":"levelo_inurba_marseille","lat":43.24163,"lon":5.39759,"is_reserved":false,"is_disabled":false,"rental_uris":{"android":"levelo://app?vid=fc7f1fe7-d7c3-419c-a4b6-6e9b8f11cff3","ios":"levelo://app?vid=fc7f1fe7-d7c3-419c-a4b6-6e9b8f11cff3"},"vehicle_type_id":"4","last_reported":1744020720,"current_range_meters":16000,"station_id":"ce4bhn12rcd13ifvqgpg","pricing_plan_id":"cebpf4jnsgd1na2vs0mg"},{"bike_id":"5fb6d0ea-122b-4b83-a688-f7eeaaadbad8","system_id":"levelo_inurba_marseille","lat":43.32021,"lon":5.41582,"is_reserved":false,"is_disabled":false,"rental_uris":{"android":"levelo://app?vid=5fb6d0ea-122b-4b83-a688-f7eeaaadbad8","ios":"levelo://app?vid=5fb6d0ea-122b-4b83-a688-f7eeaaadbad8"},"vehicle_type_id":"4","last_reported":1744020720,"current_range_meters":16000,"station_id":"ce4bhq92rcd13ifvqhkg","pricing_plan_id":"cebpf4jnsgd1na2vs0mg"},{"bike_id":"4e63bc7f-b907-45ea-bc67-f61c9be2b9d6","system_id":"levelo_inurba_marseille","lat":43.29982,"lon":5.38488,"is_reserved":false,"is_disabled":true,"rental_uris":{"android":"levelo://app?vid=4e63bc7f-b907-45ea-bc67-f61c9be2b9d6","ios":"levelo://app?vid=4e63bc7f-b907-45ea-bc67-f61c9be2b9d6"},"vehicle_type_id":"4","last_reported":1744020720,"current_range_meters":16000,"station_id":"ce4bgj92rcd13ifvqbd0","pricing_plan_id":"cebpf4jnsgd1na2vs0mg"},{"bike_id":"b023f26d-4ba0-4c78-9432-daac19db61ce","system_id":"levelo_inurba_marseille","lat":43.24545,"lon":5.39524,"is_reserved":false,"is_disabled":false,"rental_uris":{"android":"levelo://app?vid=b023f26d-4ba0-4c78-9432-daac19db61ce","ios":"levelo://app?vid=b023f26d-4ba0-4c78-9432-daac19db61ce"},"vehicle_type_id":"4","last_reported":1744020720,"current_range_meters":16400,"station_id":"ce4bhlp2rcd13ifvqgjg","pricing_plan_id":"cebpf4jnsgd1na2vs0mg"},{"bike_id":"510587a5-6913-4ae3-8fba-353918540aa2","system_id":"levelo_inurba_marseille","lat":43.29685,"lon":5.37298,"is_reserved":false,"is_disabled":false,"rental_uris":{"android":"levelo://app?vid=510587a5-6913-4ae3-8fba-353918540aa2","ios":"levelo://app?vid=510587a5-6913-4ae3-8fba-353918540aa2"},"vehicle_type_id":"4","last_reported":1744020720,"current_range_meters":16400,"station_id":"ce4bgk12rcd13ifvqbj0","pricing_plan_id":"cebpf4jnsgd1na2vs0mg"},{"bike_id":"543a099f-bd84-412c-bedc-ea731c95e291","system_id":"levelo_inurba_marseille","lat":43.295278,"lon":5.390402,"is_reserved":false,"is_disabled":false,"rental_uris":{"android":"levelo://app?vid=543a099f-bd84-412c-bedc-ea731c95e291","ios":"levelo://app?vid=543a099f-bd84-412c-bedc-ea731c95e291"},"vehicle_type_id":"4","last_reported":1744020720,"current_range_meters":16400,"station_id":"ce4bh3p2rcd13ifvqdp0","pricing_plan_id":"cebpf4jnsgd1na2vs0mg"},{"bike_id":"0aa02c49-cbb3-4907-a588-f754056f3ba8","system_id":"levelo_inurba_marseille","lat":43.30815,"lon":5.38172,"is_reserved":false,"is_disabled":true,"rental_uris":{"android":"levelo://app?vid=0aa02c49-cbb3-4907-a588-f754056f3ba8","ios":"levelo://app?vid=0aa02c49-cbb3-4907-a588-f754056f3ba8"},"vehicle_type_id":"4","last_reported":1744020720,"current_range_meters":16400,"station_id":"ce4bgt12rcd13ifvqce0","pricing_plan_id":"cebpf4jnsgd1na2vs0mg"},{"bike_id":"889763a9-aa13-4a71-bb0c-e1cb1d4e9045","system_id":"levelo_inurba_marseille","lat":43.30917,"lon":5.368443,"is_reserved":false,"is_disabled":false,"rental_uris":{"android":"levelo://app?vid=889763a9-aa13-4a71-bb0c-e1cb1d4e9045","ios":"levelo://app?vid=889763a9-aa13-4a71-bb0c-e1cb1d4e9045"},"vehicle_type_id":"4","last_reported":1744020720,"current_range_meters":16400,"station_id":"ce4bgn92rcd13ifvqbvg","pricing_plan_id":"cebpf4jnsgd1na2vs0mg"},{"bike_id":"c688b910-3177-404d-8d96-2d8e31b4aa00","system_id":"levelo_inurba_marseille","lat":43.29639,"lon":5.37165,"is_reserved":false,"is_disabled":true,"rental_uris":{"android":"levelo://app?vid=c688b910-3177-404d-8d96-2d8e31b4aa00","ios":"levelo://app?vid=c688b910-3177-404d-8d96-2d8e31b4aa00"},"vehicle_type_id":"4","last_reported":1744020720,"current_range_meters":16400,"station_id":"ce4bgnh2rcd13ifvqc0g","pricing_plan_id":"cebpf4jnsgd1na2vs0mg"},{"bike_id":"640e4cca-e586-434f-b7c5-e50c1a781664","system_id":"levelo_inurba_marseille","lat":43.29705,"lon":5.36629,"is_reserved":false,"is_disabled":false,"rental_uris":{"android":"levelo://app?vid=640e4cca-e586-434f-b7c5-e50c1a781664","ios":"levelo://app?vid=640e4cca-e586-434f-b7c5-e50c1a781664"},"vehicle_type_id":"4","last_reported":1744020720,"current_range_meters":16400,"station_id":"ce4bgn12rcd13ifvqbt0","pricing_plan_id":"cebpf4jnsgd1na2vs0mg"},{"bike_id":"67f9198a-5c42-4888-8679-ed9fff871b15","system_id":"levelo_inurba_marseille","lat":43.25107,"lon":5.40326,"is_reserved":false,"is_disabled":false,"rental_uris":{"android":"levelo://app?vid=67f9198a-5c42-4888-8679-ed9fff871b15","ios":"levelo://app?vid=67f9198a-5c42-4888-8679-ed9fff871b15"},"vehicle_type_id":"4","last_reported":1744020720,"current_range_meters":16400,"station_id":"ce4bhlh2rcd13ifvqgig","pricing_plan_id":"cebpf4jnsgd1na2vs0mg"},{"bike_id":"7cfa5675-d282-4612-bd06-0ed4e3c042c6","system_id":"levelo_inurba_marseille","lat":43.28857,"lon":5.35854,"is_reserved":false,"is_disabled":false,"rental_uris":{"android":"levelo://app?vid=7cfa5675-d282-4612-bd06-0ed4e3c042c6","ios":"levelo://app?vid=7cfa5675-d282-4612-bd06-0ed4e3c042c6"},"vehicle_type_id":"4","last_reported":1744020720,"current_range_meters":16400,"station_id":"ce4bhb12rcd13ifvqem0","pricing_plan_id":"cebpf4jnsgd1na2vs0mg"},{"bike_id":"45163737-8ce4-4a0a-b335-04cd36d73c79","system_id":"levelo_inurba_marseille","lat":43.32491,"lon":5.36584,"is_reserved":false,"is_disabled":false,"rental_uris":{"android":"levelo://app?vid=45163737-8ce4-4a0a-b335-04cd36d73c79","ios":"levelo://app?vid=45163737-8ce4-4a0a-b335-04cd36d73c79"},"vehicle_type_id":"4","last_reported":1744020720,"current_range_meters":16800,"station_id":"ce4bhs12rcd13ifvqhvg","pricing_plan_id":"cebpf4jnsgd1na2vs0mg"},{"bike_id":"d94c749a-049f-46bd-b99f-252d4f10b4de","system_id":"levelo_inurba_marseille","lat":43.30905,"lon":5.36841,"is_reserved":false,"is_disabled":false,"rental_uris":{"android":"levelo://app?vid=d94c749a-049f-46bd-b99f-252d4f10b4de","ios":"levelo://app?vid=d94c749a-049f-46bd-b99f-252d4f10b4de"},"vehicle_type_id":"4","last_reported":1744020720,"current_range_meters":16800,"station_id":"ce4bgn92rcd13ifvqbvg","pricing_plan_id":"cebpf4jnsgd1na2vs0mg"},{"bike_id":"01bfe29a-0dc3-4b54-ada8-961a7f287024","system_id":"levelo_inurba_marseille","lat":43.23964,"lon":5.36626,"is_reserved":false,"is_disabled":false,"rental_uris":{"android":"levelo://app?vid=01bfe29a-0dc3-4b54-ada8-961a7f287024","ios":"levelo://app?vid=01bfe29a-0dc3-4b54-ada8-961a7f287024"},"vehicle_type_id":"4","last_reported":1744020720,"current_range_meters":16800,"station_id":"ce4bhi12rcd13ifvqfp0","pricing_plan_id":"cebpf4jnsgd1na2vs0mg"},{"bike_id":"140bcc9c-7a15-47b1-a546-a2322d7111c7","system_id":"levelo_inurba_marseille","lat":43.31246,"lon":5.36874,"is_reserved":false,"is_disabled":false,"rental_uris":{"android":"levelo://app?vid=140bcc9c-7a15-47b1-a546-a2322d7111c7","ios":"levelo://app?vid=140bcc9c-7a15-47b1-a546-a2322d7111c7"},"vehicle_type_id":"4","last_reported":1744020720,"current_range_meters":16800,"station_id":"ce4bgl92rcd13ifvqbq0","pricing_plan_id":"cebpf4jnsgd1na2vs0mg"},{"bike_id":"76e09680-8b64-470b-b492-4458252f199c","system_id":"levelo_inurba_marseille","lat":43.23149,"lon":5.43712,"is_reserved":false,"is_disabled":false,"rental_uris":{"android":"levelo://app?vid=76e09680-8b64-470b-b492-4458252f199c","ios":"levelo://app?vid=76e09680-8b64-470b-b492-4458252f199c"},"vehicle_type_id":"4","last_reported":1744020720,"current_range_meters":16800,"station_id":"ce4bhmp2rcd13ifvqgog","pricing_plan_id":"cebpf4jnsgd1na2vs0mg"},{"bike_id":"38f15ffe-7ae5-4586-8fbd-f7719d53a8ef","system_id":"levelo_inurba_marseille","lat":43.29932,"lon":5.36559,"is_reserved":false,"is_disabled":false,"rental_uris":{"android":"levelo://app?vid=38f15ffe-7ae5-4586-8fbd-f7719d53a8ef","ios":"levelo://app?vid=38f15ffe-7ae5-4586-8fbd-f7719d53a8ef"},"vehicle_type_id":"4","last_reported":1744020720,"current_range_meters":16800,"station_id":"ce4bgm92rcd13ifvqbr0","pricing_plan_id":"cebpf4jnsgd1na2vs0mg"},{"bike_id":"68d1cc33-0218-451e-8e10-d32225c21263","system_id":"levelo_inurba_marseille","lat":43.23159,"lon":5.43695,"is_reserved":false,"is_disabled":true,"rental_uris":{"android":"levelo://app?vid=68d1cc33-0218-451e-8e10-d32225c21263","ios":"levelo://app?vid=68d1cc33-0218-451e-8e10-d32225c21263"},"vehicle_type_id":"4","last_reported":1744020720,"current_range_meters":16800,"station_id":"ce4bhmp2rcd13ifvqgog","pricing_plan_id":"cebpf4jnsgd1na2vs0mg"},{"bike_id":"0e15af95-8e49-4aa4-9628-ef2a06d14e76","system_id":"levelo_inurba_marseille","lat":43.30325,"lon":5.36876,"is_reserved":false,"is_disabled":false,"rental_uris":{"android":"levelo://app?vid=0e15af95-8e49-4aa4-9628-ef2a06d14e76","ios":"levelo://app?vid=0e15af95-8e49-4aa4-9628-ef2a06d14e76"},"vehicle_type_id":"4","last_reported":1744020720,"current_range_meters":17200,"station_id":"ce4bgqh2rcd13ifvqc5g","pricing_plan_id":"cebpf4jnsgd1na2vs0mg"},{"bike_id":"f7ca4b30-e7d0-48eb-925a-fb767126bfcd","system_id":"levelo_inurba_marseille","lat":43.32548,"lon":5.41471,"is_reserved":false,"is_disabled":false,"rental_uris":{"android":"levelo://app?vid=f7ca4b30-e7d0-48eb-925a-fb767126bfcd","ios":"levelo://app?vid=f7ca4b30-e7d0-48eb-925a-fb767126bfcd"},"vehicle_type_id":"4","last_reported":1744020720,"current_range_meters":17200,"station_id":"ce4bhq12rcd13ifvqhhg","pricing_plan_id":"cebpf4jnsgd1na2vs0mg"},{"bike_id":"7a935817-47e2-4cb3-8324-a647fdf3a140","system_id":"levelo_inurba_marseille","lat":43.29548,"lon":5.38544,"is_reserved":false,"is_disabled":true,"rental_uris":{"android":"levelo://app?vid=7a935817-47e2-4cb3-8324-a647fdf3a140","ios":"levelo://app?vid=7a935817-47e2-4cb3-8324-a647fdf3a140"},"vehicle_type_id":"4","last_reported":1744020720,"current_range_meters":17200,"station_id":"ce4bgih2rcd13ifvqba0","pricing_plan_id":"cebpf4jnsgd1na2vs0mg"},{"bike_id":"023dd1c0-4ef3-4164-af95-2a2dbe003270","system_id":"levelo_inurba_marseille","lat":43.29248,"lon":5.40912,"is_reserved":false,"is_disabled":false,"rental_uris":{"android":"levelo://app?vid=023dd1c0-4ef3-4164-af95-2a2dbe003270","ios":"levelo://app?vid=023dd1c0-4ef3-4164-af95-2a2dbe003270"},"vehicle_type_id":"4","last_reported":1744020720,"current_range_meters":17200,"station_id":"ce4bh192rcd13ifvqdc0","pricing_plan_id":"cebpf4jnsgd1na2vs0mg"},{"bike_id":"a2b55975-55e4-4a3f-8af7-2c27ff45ed68","system_id":"levelo_inurba_marseille","lat":43.28147,"lon":5.42639,"is_reserved":false,"is_disabled":true,"rental_uris":{"android":"levelo://app?vid=a2b55975-55e4-4a3f-8af7-2c27ff45ed68","ios":"levelo://app?vid=a2b55975-55e4-4a3f-8af7-2c27ff45ed68"},"vehicle_type_id":"4","last_reported":1744020720,"current_range_meters":17600,"station_id":"ce4bhnh2rcd13ifvqgug","pricing_plan_id":"cebpf4jnsgd1na2vs0mg"},{"bike_id":"121914be-9601-416e-a477-f6982c924c91","system_id":"levelo_inurba_marseille","lat":43.2981,"lon":5.380935,"is_reserved":false,"is_disabled":false,"rental_uris":{"android":"levelo://app?vid=121914be-9601-416e-a477-f6982c924c91","ios":"levelo://app?vid=121914be-9601-416e-a477-f6982c924c91"},"vehicle_type_id":"4","last_reported":1744020720,"current_range_meters":17600,"station_id":"ce4bgip2rcd13ifvqbb0","pricing_plan_id":"cebpf4jnsgd1na2vs0mg"},{"bike_id":"84c8b83f-b8b2-4bb0-aa76-d9a82510e61a","system_id":"levelo_inurba_marseille","lat":43.27801,"lon":5.40719,"is_reserved":false,"is_disabled":false,"rental_uris":{"android":"levelo://app?vid=84c8b83f-b8b2-4bb0-aa76-d9a82510e61a","ios":"levelo://app?vid=84c8b83f-b8b2-4bb0-aa76-d9a82510e61a"},"vehicle_type_id":"4","last_reported":1744020720,"current_range_meters":17600,"station_id":"ce4bhnh2rcd13ifvqgtg","pricing_plan_id":"cebpf4jnsgd1na2vs0mg"},{"bike_id":"9e0829d0-dc9c-45ad-978e-48b61761a490","system_id":"levelo_inurba_marseille","lat":43.30951,"lon":5.39027,"is_reserved":false,"is_disabled":false,"rental_uris":{"android":"levelo://app?vid=9e0829d0-dc9c-45ad-978e-48b61761a490","ios":"levelo://app?vid=9e0829d0-dc9c-45ad-978e-48b61761a490"},"vehicle_type_id":"4","last_reported":1744020720,"current_range_meters":17600,"station_id":"ce4bgup2rcd13ifvqco0","pricing_plan_id":"cebpf4jnsgd1na2vs0mg"},{"bike_id":"247334b9-410a-47dc-9f01-060c6ed76061","system_id":"levelo_inurba_marseille","lat":43.28993,"lon":5.35605,"is_reserved":false,"is_disabled":false,"rental_uris":{"android":"levelo://app?vid=247334b9-410a-47dc-9f01-060c6ed76061","ios":"levelo://app?vid=247334b9-410a-47dc-9f01-060c6ed76061"},"vehicle_type_id":"4","last_reported":1744020720,"current_range_meters":17600,"station_id":"ce4bhb92rcd13ifvqen0","pricing_plan_id":"cebpf4jnsgd1na2vs0mg"},{"bike_id":"93d35b09-13da-493c-a66d-b6283fe79923","system_id":"levelo_inurba_marseille","lat":43.26785,"lon":5.39433,"is_reserved":false,"is_disabled":true,"rental_uris":{"android":"levelo://app?vid=93d35b09-13da-493c-a66d-b6283fe79923","ios":"levelo://app?vid=93d35b09-13da-493c-a66d-b6283fe79923"},"vehicle_type_id":"4","last_reported":1744020720,"current_range_meters":17600,"station_id":"ce4bhh12rcd13ifvqfg0","pricing_plan_id":"cebpf4jnsgd1na2vs0mg"},{"bike_id":"2f48ec57-d212-4e94-8bdf-81b7a8f04386","system_id":"levelo_inurba_marseille","lat":43.27204,"lon":5.39189,"is_reserved":false,"is_disabled":true,"rental_uris":{"android":"levelo://app?vid=2f48ec57-d212-4e94-8bdf-81b7a8f04386","ios":"levelo://app?vid=2f48ec57-d212-4e94-8bdf-81b7a8f04386"},"vehicle_type_id":"4","last_reported":1744020720,"current_range_meters":17600,"station_id":"ce4bhhp2rcd13ifvqfm0","pricing_plan_id":"cebpf4jnsgd1na2vs0mg"},{"bike_id":"351863ca-8a8c-44f1-9dd7-49fd8388172d","system_id":"levelo_inurba_marseille","lat":43.24181,"lon":5.3973,"is_reserved":false,"is_disabled":false,"rental_uris":{"android":"levelo://app?vid=351863ca-8a8c-44f1-9dd7-49fd8388172d","ios":"levelo://app?vid=351863ca-8a8c-44f1-9dd7-49fd8388172d"},"vehicle_type_id":"4","last_reported":1744020720,"current_range_meters":17600,"station_id":"ce4bhn12rcd13ifvqgpg","pricing_plan_id":"cebpf4jnsgd1na2vs0mg"},{"bike_id":"3e602309-c2cc-49c9-984b-ceb6bc2fb252","system_id":"levelo_inurba_marseille","lat":43.30564,"lon":5.36546,"is_reserved":false,"is_disabled":false,"rental_uris":{"android":"levelo://app?vid=3e602309-c2cc-49c9-984b-ceb6bc2fb252","ios":"levelo://app?vid=3e602309-c2cc-49c9-984b-ceb6bc2fb252"},"vehicle_type_id":"4","last_reported":1744020720,"current_range_meters":17600,"station_id":"ce4bgs12rcd13ifvqcag","pricing_plan_id":"cebpf4jnsgd1na2vs0mg"},{"bike_id":"45d83681-f2eb-4a39-a20c-4022ba893ea0","system_id":"levelo_inurba_marseille","lat":43.33907,"lon":5.39207,"is_reserved":false,"is_disabled":false,"rental_uris":{"android":"levelo://app?vid=45d83681-f2eb-4a39-a20c-4022ba893ea0","ios":"levelo://app?vid=45d83681-f2eb-4a39-a20c-4022ba893ea0"},"vehicle_type_id":"4","last_reported":1744020720,"current_range_meters":17600,"station_id":"","pricing_plan_id":"cebpf4jnsgd1na2vs0mg"},{"bike_id":"c5d24002-08b3-4186-bce2-f4fba78b1bfd","system_id":"levelo_inurba_marseille","lat":43.29955,"lon":5.41327,"is_reserved":false,"is_disabled":false,"rental_uris":{"android":"levelo://app?vid=c5d24002-08b3-4186-bce2-f4fba78b1bfd","ios":"levelo://app?vid=c5d24002-08b3-4186-bce2-f4fba78b1bfd"},"vehicle_type_id":"4","last_reported":1744020720,"current_range_meters":18000,"station_id":"ce4bhp12rcd13ifvqh9g","pricing_plan_id":"cebpf4jnsgd1na2vs0mg"},{"bike_id":"acecf514-9430-4d42-88a7-2a98b02c2aee","system_id":"levelo_inurba_marseille","lat":43.31939,"lon":5.36986,"is_reserved":false,"is_disabled":true,"rental_uris":{"android":"levelo://app?vid=acecf514-9430-4d42-88a7-2a98b02c2aee","ios":"levelo://app?vid=acecf514-9430-4d42-88a7-2a98b02c2aee"},"vehicle_type_id":"4","last_reported":1744020720,"current_range_meters":18000,"station_id":"","pricing_plan_id":"cebpf4jnsgd1na2vs0mg"},{"bike_id":"115e8749-f055-4e5d-9076-cb304c02f7e0","system_id":"levelo_inurba_marseille","lat":43.27817,"lon":5.40696,"is_reserved":false,"is_disabled":false,"rental_uris":{"android":"levelo://app?vid=115e8749-f055-4e5d-9076-cb304c02f7e0","ios":"levelo://app?vid=115e8749-f055-4e5d-9076-cb304c02f7e0"},"vehicle_type_id":"4","last_reported":1744020720,"current_range_meters":18000,"station_id":"ce4bhnh2rcd13ifvqgtg","pricing_plan_id":"cebpf4jnsgd1na2vs0mg"},{"bike_id":"5f3c1b34-35a7-4e6a-a413-564d43bb135a","system_id":"levelo_inurba_marseille","lat":43.28934,"lon":5.36632,"is_reserved":false,"is_disabled":false,"rental_uris":{"android":"levelo://app?vid=5f3c1b34-35a7-4e6a-a413-564d43bb135a","ios":"levelo://app?vid=5f3c1b34-35a7-4e6a-a413-564d43bb135a"},"vehicle_type_id":"4","last_reported":1744020720,"current_range_meters":18000,"station_id":"ce4bhap2rcd13ifvqek0","pricing_plan_id":"cebpf4jnsgd1na2vs0mg"},{"bike_id":"90f2560e-2afd-470d-8c19-71caca73be3e","system_id":"levelo_inurba_marseille","lat":0,"lon":5.365423,"is_reserved":false,"is_disabled":true,"rental_uris":{"android":"levelo://app?vid=90f2560e-2afd-470d-8c19-71caca73be3e","ios":"levelo://app?vid=90f2560e-2afd-470d-8c19-71caca73be3e"},"vehicle_type_id":"4","last_reported":1744020720,"current_range_meters":18000,"station_id":"ce4bgs12rcd13ifvqcag","pricing_plan_id":"cebpf4jnsgd1na2vs0mg"},{"bike_id":"d01814b3-39f1-4bf5-905f-07c6028f7394","system_id":"levelo_inurba_marseille","lat":43.32103,"lon":5.36786,"is_reserved":false,"is_disabled":false,"rental_uris":{"android":"levelo://app?vid=d01814b3-39f1-4bf5-905f-07c6028f7394","ios":"levelo://app?vid=d01814b3-39f1-4bf5-905f-07c6028f7394"},"vehicle_type_id":"4","last_reported":1744020720,"current_range_meters":18000,"station_id":"ce4bhrh2rcd13ifvqhug","pricing_plan_id":"cebpf4jnsgd1na2vs0mg"},{"bike_id":"5f9d16aa-61b1-4636-8345-61a4681dbeec","system_id":"levelo_inurba_marseille","lat":43.3054,"lon":5.36528,"is_reserved":false,"is_disabled":false,"rental_uris":{"android":"levelo://app?vid=5f9d16aa-61b1-4636-8345-61a4681dbeec","ios":"levelo://app?vid=5f9d16aa-61b1-4636-8345-61a4681dbeec"},"vehicle_type_id":"4","last_reported":1744020720,"current_range_meters":18800,"station_id":"ce4bgs12rcd13ifvqcag","pricing_plan_id":"cebpf4jnsgd1na2vs0mg"},{"bike_id":"b9f0da64-4496-45b7-8716-b86da323f107","system_id":"levelo_inurba_marseille","lat":43.25111,"lon":5.40327,"is_reserved":false,"is_disabled":false,"rental_uris":{"android":"levelo://app?vid=b9f0da64-4496-45b7-8716-b86da323f107","ios":"levelo://app?vid=b9f0da64-4496-45b7-8716-b86da323f107"},"vehicle_type_id":"4","last_reported":1744020720,"current_range_meters":18800,"station_id":"ce4bhlh2rcd13ifvqgig","pricing_plan_id":"cebpf4jnsgd1na2vs0mg"},{"bike_id":"9acd2242-70f6-42a4-ad2d-12174a3d71d8","system_id":"levelo_inurba_marseille","lat":43.27648,"lon":5.38899,"is_reserved":false,"is_disabled":true,"rental_uris":{"android":"levelo://app?vid=9acd2242-70f6-42a4-ad2d-12174a3d71d8","ios":"levelo://app?vid=9acd2242-70f6-42a4-ad2d-12174a3d71d8"},"vehicle_type_id":"4","last_reported":1744020720,"current_range_meters":18800,"station_id":"ce4bhi12rcd13ifvqfo0","pricing_plan_id":"cebpf4jnsgd1na2vs0mg"},{"bike_id":"f0605370-f749-4f96-9ef9-c7070173b394","system_id":"levelo_inurba_marseille","lat":43.299001,"lon":5.381398,"is_reserved":false,"is_disabled":true,"rental_uris":{"android":"levelo://app?vid=f0605370-f749-4f96-9ef9-c7070173b394","ios":"levelo://app?vid=f0605370-f749-4f96-9ef9-c7070173b394"},"vehicle_type_id":"4","last_reported":1744020720,"current_range_meters":18800,"station_id":"ce4bgj12rcd13ifvqbc0","pricing_plan_id":"cebpf4jnsgd1na2vs0mg"},{"bike_id":"df1a66de-f819-4d0e-bbb1-5ed414b08e59","system_id":"levelo_inurba_marseille","lat":43.30942,"lon":5.39034,"is_reserved":false,"is_disabled":false,"rental_uris":{"android":"levelo://app?vid=df1a66de-f819-4d0e-bbb1-5ed414b08e59","ios":"levelo://app?vid=df1a66de-f819-4d0e-bbb1-5ed414b08e59"},"vehicle_type_id":"4","last_reported":1744020720,"current_range_meters":18800,"station_id":"ce4bgup2rcd13ifvqco0","pricing_plan_id":"cebpf4jnsgd1na2vs0mg"},{"bike_id":"66679887-43d8-4390-9edb-9a165ac54957","system_id":"levelo_inurba_marseille","lat":43.25505,"lon":5.3765,"is_reserved":false,"is_disabled":false,"rental_uris":{"android":"levelo://app?vid=66679887-43d8-4390-9edb-9a165ac54957","ios":"levelo://app?vid=66679887-43d8-4390-9edb-9a165ac54957"},"vehicle_type_id":"4","last_reported":1744020720,"current_range_meters":18800,"station_id":"ce4bhh12rcd13ifvqff0","pricing_plan_id":"cebpf4jnsgd1na2vs0mg"},{"bike_id":"31f17291-e79d-4c63-af8f-2e9fee5de049","system_id":"levelo_inurba_marseille","lat":43.28616,"lon":5.37086,"is_reserved":false,"is_disabled":false,"rental_uris":{"android":"levelo://app?vid=31f17291-e79d-4c63-af8f-2e9fee5de049","ios":"levelo://app?vid=31f17291-e79d-4c63-af8f-2e9fee5de049"},"vehicle_type_id":"4","last_reported":1744020720,"current_range_meters":18800,"station_id":"ce4bht12rcd13ifvqi60","pricing_plan_id":"cebpf4jnsgd1na2vs0mg"},{"bike_id":"6e939f47-358b-41cc-9895-3754365ed85a","system_id":"levelo_inurba_marseille","lat":43.29261,"lon":5.37607,"is_reserved":false,"is_disabled":false,"rental_uris":{"android":"levelo://app?vid=6e939f47-358b-41cc-9895-3754365ed85a","ios":"levelo://app?vid=6e939f47-358b-41cc-9895-3754365ed85a"},"vehicle_type_id":"4","last_reported":1744020720,"current_range_meters":18800,"station_id":"ce4bgi12rcd13ifvqb80","pricing_plan_id":"cebpf4jnsgd1na2vs0mg"},{"bike_id":"55babf8d-a4a8-46d7-b495-3a8606178392","system_id":"levelo_inurba_marseille","lat":43.29263,"lon":5.38434,"is_reserved":false,"is_disabled":false,"rental_uris":{"android":"levelo://app?vid=55babf8d-a4a8-46d7-b495-3a8606178392","ios":"levelo://app?vid=55babf8d-a4a8-46d7-b495-3a8606178392"},"vehicle_type_id":"4","last_reported":1744020720,"current_range_meters":19600,"station_id":"ce4bh692rcd13ifvqea0","pricing_plan_id":"cebpf4jnsgd1na2vs0mg"},{"bike_id":"5963202a-9c08-4e04-9f07-c30eb7aa3bbe","system_id":"levelo_inurba_marseille","lat":43.31237,"lon":5.3686,"is_reserved":false,"is_disabled":false,"rental_uris":{"android":"levelo://app?vid=5963202a-9c08-4e04-9f07-c30eb7aa3bbe","ios":"levelo://app?vid=5963202a-9c08-4e04-9f07-c30eb7aa3bbe"},"vehicle_type_id":"4","last_reported":1744020720,"current_range_meters":19200,"station_id":"ce4bgl92rcd13ifvqbq0","pricing_plan_id":"cebpf4jnsgd1na2vs0mg"},{"bike_id":"f122634c-29cd-4e50-bfeb-d1b6e5cfd499","system_id":"levelo_inurba_marseille","lat":43.29602,"lon":5.38064,"is_reserved":false,"is_disabled":true,"rental_uris":{"android":"levelo://app?vid=f122634c-29cd-4e50-bfeb-d1b6e5cfd499","ios":"levelo://app?vid=f122634c-29cd-4e50-bfeb-d1b6e5cfd499"},"vehicle_type_id":"4","last_reported":1744020720,"current_range_meters":19200,"station_id":"ce4bgl12rcd13ifvqbo0","pricing_plan_id":"cebpf4jnsgd1na2vs0mg"},{"bike_id":"af24e20d-cd14-47b0-8e42-24aa1cee57db","system_id":"levelo_inurba_marseille","lat":43.27495,"lon":5.42492,"is_reserved":false,"is_disabled":false,"rental_uris":{"android":"levelo://app?vid=af24e20d-cd14-47b0-8e42-24aa1cee57db","ios":"levelo://app?vid=af24e20d-cd14-47b0-8e42-24aa1cee57db"},"vehicle_type_id":"4","last_reported":1744020720,"current_range_meters":19200,"station_id":"ce4bhn92rcd13ifvqgrg","pricing_plan_id":"cebpf4jnsgd1na2vs0mg"},{"bike_id":"ecee3e76-587b-4d4d-b373-fc1d3050d0b6","system_id":"levelo_inurba_marseille","lat":43.28689,"lon":5.39976,"is_reserved":false,"is_disabled":false,"rental_uris":{"android":"levelo://app?vid=ecee3e76-587b-4d4d-b373-fc1d3050d0b6","ios":"levelo://app?vid=ecee3e76-587b-4d4d-b373-fc1d3050d0b6"},"vehicle_type_id":"4","last_reported":1744020720,"current_range_meters":19600,"station_id":"ce4bho92rcd13ifvqh3g","pricing_plan_id":"cebpf4jnsgd1na2vs0mg"},{"bike_id":"a163c58f-9aa5-4f5e-9434-689bd7a32ff2","system_id":"levelo_inurba_marseille","lat":43.30569,"lon":5.36548,"is_reserved":false,"is_disabled":false,"rental_uris":{"android":"levelo://app?vid=a163c58f-9aa5-4f5e-9434-689bd7a32ff2","ios":"levelo://app?vid=a163c58f-9aa5-4f5e-9434-689bd7a32ff2"},"vehicle_type_id":"4","last_reported":1744020720,"current_range_meters":19600,"station_id":"ce4bgs12rcd13ifvqcag","pricing_plan_id":"cebpf4jnsgd1na2vs0mg"},{"bike_id":"bc2de91d-e1f6-45e3-8cfe-38230312ef6a","system_id":"levelo_inurba_marseille","lat":43.30814,"lon":5.38151,"is_reserved":false,"is_disabled":true,"rental_uris":{"android":"levelo://app?vid=bc2de91d-e1f6-45e3-8cfe-38230312ef6a","ios":"levelo://app?vid=bc2de91d-e1f6-45e3-8cfe-38230312ef6a"},"vehicle_type_id":"4","last_reported":1744020720,"current_range_meters":19600,"station_id":"ce4bgt12rcd13ifvqce0","pricing_plan_id":"cebpf4jnsgd1na2vs0mg"},{"bike_id":"fd7d4a25-41bc-4644-851e-ce32fa84e900","system_id":"levelo_inurba_marseille","lat":43.24808,"lon":5.37461,"is_reserved":false,"is_disabled":false,"rental_uris":{"android":"levelo://app?vid=fd7d4a25-41bc-4644-851e-ce32fa84e900","ios":"levelo://app?vid=fd7d4a25-41bc-4644-851e-ce32fa84e900"},"vehicle_type_id":"4","last_reported":1744020720,"current_range_meters":19200,"station_id":"ce4bhgh2rcd13ifvqfb0","pricing_plan_id":"cebpf4jnsgd1na2vs0mg"},{"bike_id":"3463b4bf-218e-4541-9ff2-5e0abcd160e8","system_id":"levelo_inurba_marseille","lat":43.27819,"lon":5.40719,"is_reserved":false,"is_disabled":false,"rental_uris":{"android":"levelo://app?vid=3463b4bf-218e-4541-9ff2-5e0abcd160e8","ios":"levelo://app?vid=3463b4bf-218e-4541-9ff2-5e0abcd160e8"},"vehicle_type_id":"4","last_reported":1744020720,"current_range_meters":20000,"station_id":"ce4bhnh2rcd13ifvqgtg","pricing_plan_id":"cebpf4jnsgd1na2vs0mg"},{"bike_id":"c607b5aa-76bd-4697-b9c6-7e21c3c57c7e","system_id":"levelo_inurba_marseille","lat":43.21188,"lon":5.35074,"is_reserved":false,"is_disabled":false,"rental_uris":{"android":"levelo://app?vid=c607b5aa-76bd-4697-b9c6-7e21c3c57c7e","ios":"levelo://app?vid=c607b5aa-76bd-4697-b9c6-7e21c3c57c7e"},"vehicle_type_id":"4","last_reported":1744020720,"current_range_meters":20000,"station_id":"st_cvj6sg6p6f1abm77japg","pricing_plan_id":"cebpf4jnsgd1na2vs0mg"},{"bike_id":"a6b2f79f-72d9-4d90-ba3d-2da74eb959dc","system_id":"levelo_inurba_marseille","lat":43.29206,"lon":5.39324,"is_reserved":false,"is_disabled":false,"rental_uris":{"android":"levelo://app?vid=a6b2f79f-72d9-4d90-ba3d-2da74eb959dc","ios":"levelo://app?vid=a6b2f79f-72d9-4d90-ba3d-2da74eb959dc"},"vehicle_type_id":"4","last_reported":1744020720,"current_range_meters":20000,"station_id":"ce4bh192rcd13ifvqdd0","pricing_plan_id":"cebpf4jnsgd1na2vs0mg"},{"bike_id":"a8721792-67d5-4138-98ba-31038e7f2730","system_id":"levelo_inurba_marseille","lat":43.29591,"lon":5.38076,"is_reserved":false,"is_disabled":false,"rental_uris":{"android":"levelo://app?vid=a8721792-67d5-4138-98ba-31038e7f2730","ios":"levelo://app?vid=a8721792-67d5-4138-98ba-31038e7f2730"},"vehicle_type_id":"4","last_reported":1744020720,"current_range_meters":19600,"station_id":"ce4bgl12rcd13ifvqbo0","pricing_plan_id":"cebpf4jnsgd1na2vs0mg"},{"bike_id":"a31d4f8f-790c-4692-9560-b52cede71e74","system_id":"levelo_inurba_marseille","lat":43.30887,"lon":5.36831,"is_reserved":false,"is_disabled":false,"rental_uris":{"android":"levelo://app?vid=a31d4f8f-790c-4692-9560-b52cede71e74","ios":"levelo://app?vid=a31d4f8f-790c-4692-9560-b52cede71e74"},"vehicle_type_id":"4","last_reported":1744020720,"current_range_meters":20000,"station_id":"ce4bgn92rcd13ifvqbvg","pricing_plan_id":"cebpf4jnsgd1na2vs0mg"},{"bike_id":"2e662beb-53b9-4b6e-bd66-489ade477941","system_id":"levelo_inurba_marseille","lat":43.26213,"lon":5.37442,"is_reserved":false,"is_disabled":false,"rental_uris":{"android":"levelo://app?vid=2e662beb-53b9-4b6e-bd66-489ade477941","ios":"levelo://app?vid=2e662beb-53b9-4b6e-bd66-489ade477941"},"vehicle_type_id":"4","last_reported":1744020720,"current_range_meters":20000,"station_id":"ce4bhgp2rcd13ifvqfc0","pricing_plan_id":"cebpf4jnsgd1na2vs0mg"},{"bike_id":"122800ca-ddc6-4f24-8f3f-777612f35c59","system_id":"levelo_inurba_marseille","lat":43.30639,"lon":5.40083,"is_reserved":false,"is_disabled":false,"rental_uris":{"android":"levelo://app?vid=122800ca-ddc6-4f24-8f3f-777612f35c59","ios":"levelo://app?vid=122800ca-ddc6-4f24-8f3f-777612f35c59"},"vehicle_type_id":"4","last_reported":1744020720,"current_range_meters":20000,"station_id":"ce4bh112rcd13ifvqda0","pricing_plan_id":"cebpf4jnsgd1na2vs0mg"},{"bike_id":"276af1ba-b220-44b1-83a5-33e0ee391afc","system_id":"levelo_inurba_marseille","lat":43.25496,"lon":5.3765,"is_reserved":false,"is_disabled":false,"rental_uris":{"android":"levelo://app?vid=276af1ba-b220-44b1-83a5-33e0ee391afc","ios":"levelo://app?vid=276af1ba-b220-44b1-83a5-33e0ee391afc"},"vehicle_type_id":"4","last_reported":1744020720,"current_range_meters":20000,"station_id":"ce4bhh12rcd13ifvqff0","pricing_plan_id":"cebpf4jnsgd1na2vs0mg"},{"bike_id":"1ca7d0c4-b7aa-4350-ad9f-4e24c2ba029a","system_id":"levelo_inurba_marseille","lat":43.303743,"lon":5.425108,"is_reserved":false,"is_disabled":true,"rental_uris":{"android":"levelo://app?vid=1ca7d0c4-b7aa-4350-ad9f-4e24c2ba029a","ios":"levelo://app?vid=1ca7d0c4-b7aa-4350-ad9f-4e24c2ba029a"},"vehicle_type_id":"4","last_reported":1744020720,"current_range_meters":20400,"station_id":"ce4bhoh2rcd13ifvqh6g","pricing_plan_id":"cebpf4jnsgd1na2vs0mg"},{"bike_id":"cd43cdc7-c5e2-4f24-aab0-478f8b8d671b","system_id":"levelo_inurba_marseille","lat":43.32489,"lon":5.36571,"is_reserved":false,"is_disabled":false,"rental_uris":{"android":"levelo://app?vid=cd43cdc7-c5e2-4f24-aab0-478f8b8d671b","ios":"levelo://app?vid=cd43cdc7-c5e2-4f24-aab0-478f8b8d671b"},"vehicle_type_id":"4","last_reported":1744020720,"current_range_meters":20400,"station_id":"ce4bhs12rcd13ifvqhvg","pricing_plan_id":"cebpf4jnsgd1na2vs0mg"},{"bike_id":"302b0c63-344c-4e0d-b6e7-6cb2af7663da","system_id":"levelo_inurba_marseille","lat":43.26951,"lon":5.38636,"is_reserved":false,"is_disabled":true,"rental_uris":{"android":"levelo://app?vid=302b0c63-344c-4e0d-b6e7-6cb2af7663da","ios":"levelo://app?vid=302b0c63-344c-4e0d-b6e7-6cb2af7663da"},"vehicle_type_id":"4","last_reported":1744020720,"current_range_meters":20400,"station_id":"ce4bhh92rcd13ifvqfh0","pricing_plan_id":"cebpf4jnsgd1na2vs0mg"},{"bike_id":"c58d8ed2-3b0b-4824-930d-b01af863e3c3","system_id":"levelo_inurba_marseille","lat":43.28863,"lon":5.39321,"is_reserved":false,"is_disabled":true,"rental_uris":{"android":"levelo://app?vid=c58d8ed2-3b0b-4824-930d-b01af863e3c3","ios":"levelo://app?vid=c58d8ed2-3b0b-4824-930d-b01af863e3c3"},"vehicle_type_id":"4","last_reported":1744020720,"current_range_meters":20400,"station_id":"ce4bh2p2rcd13ifvqdi0","pricing_plan_id":"cebpf4jnsgd1na2vs0mg"},{"bike_id":"8b50dfb0-49ed-4300-a486-4cf7f9191075","system_id":"levelo_inurba_marseille","lat":43.30075,"lon":5.3911,"is_reserved":false,"is_disabled":false,"rental_uris":{"android":"levelo://app?vid=8b50dfb0-49ed-4300-a486-4cf7f9191075","ios":"levelo://app?vid=8b50dfb0-49ed-4300-a486-4cf7f9191075"},"vehicle_type_id":"4","last_reported":1744020720,"current_range_meters":20400,"station_id":"ce4bh192rcd13ifvqdb0","pricing_plan_id":"cebpf4jnsgd1na2vs0mg"},{"bike_id":"d07243bd-fee2-40c7-ae8b-24e7e52e6693","system_id":"levelo_inurba_marseille","lat":43.30461,"lon":5.37911,"is_reserved":false,"is_disabled":false,"rental_uris":{"android":"levelo://app?vid=d07243bd-fee2-40c7-ae8b-24e7e52e6693","ios":"levelo://app?vid=d07243bd-fee2-40c7-ae8b-24e7e52e6693"},"vehicle_type_id":"4","last_reported":1744020720,"current_range_meters":20400,"station_id":"ce4bgup2rcd13ifvqcn0","pricing_plan_id":"cebpf4jnsgd1na2vs0mg"},{"bike_id":"2bd0252e-e6aa-444f-933b-a052fd77f984","system_id":"levelo_inurba_marseille","lat":43.25912,"lon":5.40883,"is_reserved":false,"is_disabled":false,"rental_uris":{"android":"levelo://app?vid=2bd0252e-e6aa-444f-933b-a052fd77f984","ios":"levelo://app?vid=2bd0252e-e6aa-444f-933b-a052fd77f984"},"vehicle_type_id":"4","last_reported":1744020720,"current_range_meters":20400,"station_id":"ce4bhm92rcd13ifvqglg","pricing_plan_id":"cebpf4jnsgd1na2vs0mg"},{"bike_id":"30472f30-8c5b-4aa0-afcf-6f5de4fca117","system_id":"levelo_inurba_marseille","lat":43.31688,"lon":5.40478,"is_reserved":false,"is_disabled":false,"rental_uris":{"android":"levelo://app?vid=30472f30-8c5b-4aa0-afcf-6f5de4fca117","ios":"levelo://app?vid=30472f30-8c5b-4aa0-afcf-6f5de4fca117"},"vehicle_type_id":"4","last_reported":1744020720,"current_range_meters":20800,"station_id":"ce4bh012rcd13ifvqd00","pricing_plan_id":"cebpf4jnsgd1na2vs0mg"},{"bike_id":"4e04587e-272a-491b-8452-83b5aa07ebb1","system_id":"levelo_inurba_marseille","lat":43.28271,"lon":5.35074,"is_reserved":false,"is_disabled":false,"rental_uris":{"android":"levelo://app?vid=4e04587e-272a-491b-8452-83b5aa07ebb1","ios":"levelo://app?vid=4e04587e-272a-491b-8452-83b5aa07ebb1"},"vehicle_type_id":"4","last_reported":1744020720,"current_range_meters":20800,"station_id":"ce4bhbp2rcd13ifvqerg","pricing_plan_id":"cebpf4jnsgd1na2vs0mg"},{"bike_id":"6c6b28e9-a652-4071-b9ab-ff1e770d21e6","system_id":"levelo_inurba_marseille","lat":43.301,"lon":5.39069,"is_reserved":false,"is_disabled":false,"rental_uris":{"android":"levelo://app?vid=6c6b28e9-a652-4071-b9ab-ff1e770d21e6","ios":"levelo://app?vid=6c6b28e9-a652-4071-b9ab-ff1e770d21e6"},