{"last_updated":1723298820,"ttl":30,"version":"2.2","data":{"bikes":[{"bike_id":"1d8cd8ae-7f98-4be9-8378-a49954575452","system_id":"levelo_inurba_marseille","lat":43.31307,"lon":5.36942,"is_reserved":false,"is_disabled":false,"rental_uris":{"android":"levelo://app?vid=1d8cd8ae-7f98-4be9-8378-a49954575452","ios":"levelo://app?vid=1d8cd8ae-7f98-4be9-8378-a49954575452"},"vehicle_type_id":"4","last_reported":1723298820,"current_range_meters":26400,"station_id":"","pricing_plan_id":"cebpf4jnsgd1na2vs0mg"},{"bike_id":"dceb7393-da0f-449c-abe1-ce72972c64b4","system_id":"levelo_inurba_marseille","lat":43.31735,"lon":5.3716,"is_reserved":false,"is_disabled":false,"rental_uris":{"android":"levelo://app?vid=dceb7393-da0f-449c-abe1-ce72972c64b4","ios":"levelo://app?vid=dceb7393-da0f-449c-abe1-ce72972c64b4"},"vehicle_type_id":"4","last_reported":1723298820,"current_range_meters":800,"station_id":"","pricing_plan_id":"cebpf4jnsgd1na2vs0mg"},{"bike_id":"3828c2d1-a267-4397-bfbe-1c2c449a56fe","system_id":"levelo_inurba_marseille","lat":43.305368,"lon":5.367343,"is_reserved":false,"is_disabled":false,"rental_uris":{"android":"levelo://app?vid=3828c2d1-a267-4397-bfbe-1c2c449a56fe","ios":"levelo://app?vid=3828c2d1-a267-4397-bfbe-1c2c449a56fe"},"vehicle_type_id":"4","last_reported":1723298820,"current_range_meters":23200,"station_id":"ce4bgrp2rcd13ifvqc9g","pricing_plan_id":"cebpf4jnsgd1na2vs0mg"},{"bike_id":"f46411c9-99a9-4b98-b96c-9a0c921a5f8c","system_id":"levelo_inurba_marseille","lat":43.311131,"lon":5.377651,"is_reserved":false,"is_disabled":false,"rental_uris":{"android":"levelo://app?vid=f46411c9-99a9-4b98-b96c-9a0c921a5f8c","ios":"levelo://app?vid=f46411c9-99a9-4b98-b96c-9a0c921a5f8c"},"vehicle_type_id":"4","last_reported":1723298820,"current_range_meters":27200,"station_id":"ce4bgt92rcd13ifvqcg0","pricing_plan_id":"cebpf4jnsgd1na2vs0mg"},{"bike_id":"ca32cdf3-615a-495f-a2e3-b98d110ccd9b","system_id":"levelo_inurba_marseille","lat":43.311125,"lon":5.377624,"is_reserved":false,"is_disabled":false,"rental_uris":{"android":"levelo://app?vid=ca32cdf3-615a-495f-a2e3-b98d110ccd9b","ios":"levelo://app?vid=ca32cdf3-615a-495f-a2e3-b98d110ccd9b"},"vehicle_type_id":"4","last_reported":1723298820,"current_range_meters":4000,"station_id":"ce4bgt92rcd13ifvqcg0","pricing_plan_id":"cebpf4jnsgd1na2vs0mg"},{"bike_id":"a2ddf0a9-e4fe-416d-af89-700640b895e8","system_id":"levelo_inurba_marseille","lat":43.314597,"lon":5.378127,"is_reserved":false,"is_disabled":false,"rental_uris":{"android":"levelo://app?vid=a2ddf0a9-e4fe-416d-af89-700640b895e8","ios":"levelo://app?vid=a2ddf0a9-e4fe-416d-af89-700640b895e8"},"vehicle_type_id":"4","last_reported":1723298820,"current_range_meters":19600,"station_id":"","pricing_plan_id":"cebpf4jnsgd1na2vs0mg"},{"bike_id":"00320676-5197-40c7-b855-108dc23c35a1","system_id":"levelo_inurba_marseille","lat":43.31049,"lon":5.3788,"is_reserved":false,"is_disabled":false,"rental_uris":{"android":"levelo://app?vid=00320676-5197-40c7-b855-108dc23c35a1","ios":"levelo://app?vid=00320676-5197-40c7-b855-108dc23c35a1"},"vehicle_type_id":"4","last_reported":1723298820,"current_range_meters":20400,"station_id":"","pricing_plan_id":"cebpf4jnsgd1na2vs0mg"},{"bike_id":"a4023649-258f-41e9-9b97-396a6fefd69c","system_id":"levelo_inurba_marseille","lat":43.308012,"lon":5.381511,"is_reserved":false,"is_disabled":false,"rental_uris":{"android":"levelo://app?vid=a4023649-258f-41e9-9b97-396a6fefd69c","ios":"levelo://app?vid=a4023649-258f-41e9-9b97-396a6fefd69c"},"vehicle_type_id":"4","last_reported":1723298820,"current_range_meters":0,"station_id":"ce4bgt12rcd13ifvqce0","pricing_plan_id":"cebpf4jnsgd1na2vs0mg"},{"bike_id":"192bc778-be1f-402d-b1df-16d7172e5519","system_id":"levelo_inurba_marseille","lat":43.31359,"lon":5.38283,"is_reserved":false,"is_disabled":false,"rental_uris":{"android":"levelo://app?vid=192bc778-be1f-402d-b1df-16d7172e5519","ios":"levelo://app?vid=192bc778-be1f-402d-b1df-16d7172e5519"},"vehicle_type_id":"4","last_reported":1723298820,"current_range_meters":400,"station_id":"","pricing_plan_id":"cebpf4jnsgd1na2vs0mg"},{"bike_id":"acf5f1e8-de2b-41ca-8aa3-96936cfef668","system_id":"levelo_inurba_marseille","lat":43.31132,"lon":5.38323,"is_reserved":false,"is_disabled":false,"rental_uris":{"android":"levelo://app?vid=acf5f1e8-de2b-41ca-8aa3-96936cfef668","ios":"levelo://app?vid=acf5f1e8-de2b-41ca-8aa3-96936cfef668"},"vehicle_type_id":"4","last_reported":1723298820,"current_range_meters":800,"station_id":"","pricing_plan_id":"cebpf4jnsgd1na2vs0mg"},{"bike_id":"ad0f423b-75a6-4b69-a86f-f828bdeda889","system_id":"levelo_inurba_marseille","lat":43.304606,"lon":5.379026,"is_reserved":false,"is_disabled":false,"rental_uris":{"android":"levelo://app?vid=ad0f423b-75a6-4b69-a86f-f828bdeda889","ios":"levelo://app?vid=ad0f423b-75a6-4b69-a86f-f828bdeda889"},"vehicle_type_id":"4","last_reported":1723298820,"current_range_meters":4400,"station_id":"ce4bgup2rcd13ifvqcn0","pricing_plan_id":"cebpf4jnsgd1na2vs0mg"},{"bike_id":"eee0473b-958b-40b7-bb28-c27772b76968","system_id":"levelo_inurba_marseille","lat":43.324771,"lon":5.36557,"is_reserved":false,"is_disabled":false,"rental_uris":{"android":"levelo://app?vid=eee0473b-958b-40b7-bb28-c27772b76968","ios":"levelo://app?vid=eee0473b-958b-40b7-bb28-c27772b76968"},"vehicle_type_id":"4","last_reported":1723298820,"current_range_meters":28000,"station_id":"ce4bhs12rcd13ifvqhvg","pricing_plan_id":"cebpf4jnsgd1na2vs0mg"},{"bike_id":"8c271a0d-a394-4d18-891f-48438409eb3a","system_id":"levelo_inurba_marseille","lat":43.324771,"lon":5.36557,"is_reserved":false,"is_disabled":false,"rental_uris":{"android":"levelo://app?vid=8c271a0d-a394-4d18-891f-48438409eb3a","ios":"levelo://app?vid=8c271a0d-a394-4d18-891f-48438409eb3a"},"vehicle_type_id":"4","last_reported":1723298820,"current_range_meters":16000,"station_id":"ce4bhs12rcd13ifvqhvg","pricing_plan_id":"cebpf4jnsgd1na2vs0mg"},{"bike_id":"a5ad36c9-6631-415b-8e10-7c7e9517d651","system_id":"levelo_inurba_marseille","lat":43.324771,"lon":5.36557,"is_reserved":false,"is_disabled":false,"rental_uris":{"android":"levelo://app?vid=a5ad36c9-6631-415b-8e10-7c7e9517d651","ios":"levelo://app?vid=a5ad36c9-6631-415b-8e10-7c7e9517d651"},"vehicle_type_id":"4","last_reported":1723298820,"current_range_meters":32000,"station_id":"ce4bhs12rcd13ifvqhvg","pricing_plan_id":"cebpf4jnsgd1na2vs0mg"},{"bike_id":"ab89edd3-71c8-47c6-ae35-619fb2bdd17d","system_id":"levelo_inurba_marseille","lat":43.324771,"lon":5.36557,"is_reserved":false,"is_disabled":false,"rental_uris":{"android":"levelo://app?vid=ab89edd3-71c8-47c6-ae35-619fb2bdd17d","ios":"levelo://app?vid=ab89edd3-71c8-47c6-ae35-619fb2bdd17d"},"vehicle_type_id":"4","last_reported":1723298820,"current_range_meters":7200,"station_id":"ce4bhs12rcd13ifvqhvg","pricing_plan_id":"cebpf4jnsgd1na2vs0mg"},{"bike_id":"282e32e0-db08-42d5-a972-b34979e8de75","system_id":"levelo_inurba_marseille","lat":43.324771,"lon":5.36557,"is_reserved":false,"is_disabled":false,"rental_uris":{"android":"levelo://app?vid=282e32e0-db08-42d5-a972-b34979e8de75","ios":"levelo://app?vid=282e32e0-db08-42d5-a972-b34979e8de75"},"vehicle_type_id":"4","last_reported":1723298820,"current_range_meters":31600,"station_id":"ce4bhs12rcd13ifvqhvg","pricing_plan_id":"cebpf4jnsgd1na2vs0mg"},{"bike_id":"115d6125-8386-48da-aff5-b0f5eff60fc7","system_id":"levelo_inurba_marseille","lat":43.324771,"lon":5.36557,"is_reserved":false,"is_disabled":false,"rental_uris":{"android":"levelo://app?vid=115d6125-8386-48da-aff5-b0f5eff60fc7","ios":"levelo://app?vid=115d6125-8386-48da-aff5-b0f5eff60fc7"},"vehicle_type_id":"4","last_reported":1723298820,"current_range_meters":19200,"station_id":"ce4bhs12rcd13ifvqhvg","pricing_plan_id":"cebpf4jnsgd1na2vs0mg"},{"bike_id":"79ffface-54d4-40fb-95c7-8256a85b69f0","system_id":"levelo_inurba_marseille","lat":43.324771,"lon":5.36557,"is_reserved":false,"is_disabled":false,"rental_uris":{"android":"levelo://app?vid=79ffface-54d4-40fb-95c7-8256a85b69f0","ios":"levelo://app?vid=79ffface-54d4-40fb-95c7-8256a85b69f0"},"vehicle_type_id":"4","last_reported":1723298820,"current_range_meters":28000,"station_id":"ce4bhs12rcd13ifvqhvg","pricing_plan_id":"cebpf4jnsgd1na2vs0mg"},{"bike_id":"addba48e-e352-46be-ab8a-741256f4ced7","system_id":"levelo_inurba_marseille","lat":43.324771,"lon":5.36557,"is_reserved":false,"is_disabled":false,"rental_uris":{"android":"levelo://app?vid=addba48e-e352-46be-ab8a-741256f4ced7","ios":"levelo://app?vid=addba48e-e352-46be-ab8a-741256f4ced7"},"vehicle_type_id":"4","last_reported":1723298820,"current_range_meters":15200,"station_id":"ce4bhs12rcd13ifvqhvg","pricing_plan_id":"cebpf4jnsgd1na2vs0mg"},{"bike_id":"2a6c9160-ab81-4f38-be62-ada771d4b7f3","system_id":"levelo_inurba_marseille","lat":43.310757,"lon":5.383667,"is_reserved":false,"is_disabled":false,"rental_uris":{"android":"levelo://app?vid=2a6c9160-ab81-4f38-be62-ada771d4b7f3","ios":"levelo://app?vid=2a6c9160-ab81-4f38-be62-ada771d4b7f3"},"vehicle_type_id":"4","last_reported":1723298820,"current_range_meters":5200,"station_id":"ce4bgv92rcd13ifvqcr0","pricing_plan_id":"cebpf4jnsgd1na2vs0mg"},{"bike_id":"47f89bea-f5ec-4e2e-9d3f-613d0a80d4f7","system_id":"levelo_inurba_marseille","lat":43.31367,"lon":5.384937,"is_reserved":false,"is_disabled":false,"rental_uris":{"android":"levelo://app?vid=47f89bea-f5ec-4e2e-9d3f-613d0a80d4f7","ios":"levelo://app?vid=47f89bea-f5ec-4e2e-9d3f-613d0a80d4f7"},"vehicle_type_id":"4","last_reported":1723298820,"current_range_meters":27600,"station_id":"","pricing_plan_id":"cebpf4jnsgd1na2vs0mg"},{"bike_id":"e7876fab-b736-4684-9415-34ccac934271","system_id":"levelo_inurba_marseille","lat":43.299222,"lon":5.365554,"is_reserved":false,"is_disabled":false,"rental_uris":{"android":"levelo://app?vid=e7876fab-b736-4684-9415-34ccac934271","ios":"levelo://app?vid=e7876fab-b736-4684-9415-34ccac934271"},"vehicle_type_id":"4","last_reported":1723298820,"current_range_meters":14000,"station_id":"ce4bgm92rcd13ifvqbr0","pricing_plan_id":"cebpf4jnsgd1na2vs0mg"},{"bike_id":"863cad7d-7b42-4efc-ac59-c9a83c0cff0f","system_id":"levelo_inurba_marseille","lat":43.299724,"lon":5.371829,"is_reserved":false,"is_disabled":false,"rental_uris":{"android":"levelo://app?vid=863cad7d-7b42-4efc-ac59-c9a83c0cff0f","ios":"levelo://app?vid=863cad7d-7b42-4efc-ac59-c9a83c0cff0f"},"vehicle_type_id":"4","last_reported":1723298820,"current_range_meters":5200,"station_id":"ce4bgr92rcd13ifvqc7g","pricing_plan_id":"cebpf4jnsgd1na2vs0mg"},{"bike_id":"946ed7fa-5cc7-462b-9bcd-64cd0a3dee07","system_id":"levelo_inurba_marseille","lat":43.299724,"lon":5.371829,"is_reserved":false,"is_disabled":false,"rental_uris":{"android":"levelo://app?vid=946ed7fa-5cc7-462b-9bcd-64cd0a3dee07","ios":"levelo://app?vid=946ed7fa-5cc7-462b-9bcd-64cd0a3dee07"},"vehicle_type_id":"4","last_reported":1723298820,"current_range_meters":27200,"station_id":"ce4bgr92rcd13ifvqc7g","pricing_plan_id":"cebpf4jnsgd1na2vs0mg"},{"bike_id":"c02a821f-6fc9-4898-82b3-df4bf3cecbf5","system_id":"levelo_inurba_marseille","lat":43.3008,"lon":5.37682,"is_reserved":false,"is_disabled":false,"rental_uris":{"android":"levelo://app?vid=c02a821f-6fc9-4898-82b3-df4bf3cecbf5","ios":"levelo://app?vid=c02a821f-6fc9-4898-82b3-df4bf3cecbf5"},"vehicle_type_id":"4","last_reported":1723298820,"current_range_meters":0,"station_id":"","pricing_plan_id":"cebpf4jnsgd1na2vs0mg"},{"bike_id":"00d0a019-28ee-4b43-aacd-23f8611a4be8","system_id":"levelo_inurba_marseille","lat":43.30538,"lon":5.38421,"is_reserved":false,"is_disabled":false,"rental_uris":{"android":"levelo://app?vid=00d0a019-28ee-4b43-aacd-23f8611a4be8","ios":"levelo://app?vid=00d0a019-28ee-4b43-aacd-23f8611a4be8"},"vehicle_type_id":"4","last_reported":1723298820,"current_range_meters":23200,"station_id":"ce4bgg92rcd13ifvqb30","pricing_plan_id":"cebpf4jnsgd1na2vs0mg"},{"bike_id":"a849516f-c1bc-4528-be4d-513057458f46","system_id":"levelo_inurba_marseille","lat":43.298433,"lon":5.362774,"is_reserved":false,"is_disabled":false,"rental_uris":{"android":"levelo://app?vid=a849516f-c1bc-4528-be4d-513057458f46","ios":"levelo://app?vid=a849516f-c1bc-4528-be4d-513057458f46"},"vehicle_type_id":"4","last_reported":1723298820,"current_range_meters":24000,"station_id":"ce4bgpp2rcd13ifvqc3g","pricing_plan_id":"cebpf4jnsgd1na2vs0mg"},{"bike_id":"fc3f3353-8750-4e8c-90d7-b78e1860ee0a","system_id":"levelo_inurba_marseille","lat":43.298433,"lon":5.362774,"is_reserved":false,"is_disabled":false,"rental_uris":{"android":"levelo://app?vid=fc3f3353-8750-4e8c-90d7-b78e1860ee0a","ios":"levelo://app?vid=fc3f3353-8750-4e8c-90d7-b78e1860ee0a"},"vehicle_type_id":"4","last_reported":1723298820,"current_range_meters":13600,"station_id":"ce4bgpp2rcd13ifvqc3g","pricing_plan_id":"cebpf4jnsgd1na2vs0mg"},{"bike_id":"25093c82-32ba-4c37-9ac0-dab2cd98672c","system_id":"levelo_inurba_marseille","lat":43.305364,"lon":5.384119,"is_reserved":false,"is_disabled":false,"rental_uris":{"android":"levelo://app?vid=25093c82-32ba-4c37-9ac0-dab2cd98672c","ios":"levelo://app?vid=25093c82-32ba-4c37-9ac0-dab2cd98672c"},"vehicle_type_id":"4","last_reported":1723298820,"current_range_meters":10400,"station_id":"ce4bgg92rcd13ifvqb30","pricing_plan_id":"cebpf4jnsgd1na2vs0mg"},{"bike_id":"a928687d-aaee-4bde-8f22-2442cc7864f2","system_id":"levelo_inurba_marseille","lat":43.298433,"lon":5.362774,"is_reserved":false,"is_disabled":false,"rental_uris":{"android":"levelo://app?vid=a928687d-aaee-4bde-8f22-2442cc7864f2","ios":"levelo://app?vid=a928687d-aaee-4bde-8f22-2442cc7864f2"},"vehicle_type_id":"4","last_reported":1723298820,"current_range_meters":30800,"station_id":"ce4bgpp2rcd13ifvqc3g","pricing_plan_id":"cebpf4jnsgd1na2vs0mg"},{"bike_id":"7f7099de-597b-4adb-99db-24e4e74d137c","system_id":"levelo_inurba_marseille","lat":43.3015,"lon":5.38099,"is_reserved":false,"is_disabled":false,"rental_uris":{"android":"levelo://app?vid=7f7099de-597b-4adb-99db-24e4e74d137c","ios":"levelo://app?vid=7f7099de-597b-4adb-99db-24e4e74d137c"},"vehicle_type_id":"4","last_reported":1723298820,"current_range_meters":16800,"station_id":"","pricing_plan_id":"cebpf4jnsgd1na2vs0mg"},{"bike_id":"f1e85753-47e5-45ba-a742-3ff06e39fbd5","system_id":"levelo_inurba_marseille","lat":43.32268,"lon":5.38291,"is_reserved":false,"is_disabled":false,"rental_uris":{"android":"levelo://app?vid=f1e85753-47e5-45ba-a742-3ff06e39fbd5","ios":"levelo://app?vid=f1e85753-47e5-45ba-a742-3ff06e39fbd5"},"vehicle_type_id":"4","last_reported":1723298820,"current_range_meters":12000,"station_id":"ce4bhr12rcd13ifvqhqg","pricing_plan_id":"cebpf4jnsgd1na2vs0mg"},{"bike_id":"216240ef-238f-48ba-bd26-5d1c9cf540df","system_id":"levelo_inurba_marseille","lat":43.31456,"lon":5.38784,"is_reserved":false,"is_disabled":false,"rental_uris":{"android":"levelo://app?vid=216240ef-238f-48ba-bd26-5d1c9cf540df","ios":"levelo://app?vid=216240ef-238f-48ba-bd26-5d1c9cf540df"},"vehicle_type_id":"4","last_reported":1723298820,"current_range_meters":400,"station_id":"","pricing_plan_id":"cebpf4jnsgd1na2vs0mg"},{"bike_id":"09e5d79b-31ea-46c7-be26-3ef693448c5b","system_id":"levelo_inurba_marseille","lat":43.32294,"lon":5.3827,"is_reserved":false,"is_disabled":false,"rental_uris":{"android":"levelo://app?vid=09e5d79b-31ea-46c7-be26-3ef693448c5b","ios":"levelo://app?vid=09e5d79b-31ea-46c7-be26-3ef693448c5b"},"vehicle_type_id":"4","last_reported":1723298820,"current_range_meters":19600,"station_id":"ce4bhr12rcd13ifvqhqg","pricing_plan_id":"cebpf4jnsgd1na2vs0mg"},{"bike_id":"9848a1e4-eae7-4994-b36e-98d882ac1d20","system_id":"levelo_inurba_marseille","lat":43.2968,"lon":5.37291,"is_reserved":false,"is_disabled":false,"rental_uris":{"android":"levelo://app?vid=9848a1e4-eae7-4994-b36e-98d882ac1d20","ios":"levelo://app?vid=9848a1e4-eae7-4994-b36e-98d882ac1d20"},"vehicle_type_id":"4","last_reported":1723298820,"current_range_meters":30800,"station_id":"ce4bgk12rcd13ifvqbj0","pricing_plan_id":"cebpf4jnsgd1na2vs0mg"},{"bike_id":"0fa327df-59c4-4032-bef3-94503bd70777","system_id":"levelo_inurba_marseille","lat":43.296131,"lon":5.370791,"is_reserved":false,"is_disabled":false,"rental_uris":{"android":"levelo://app?vid=0fa327df-59c4-4032-bef3-94503bd70777","ios":"levelo://app?vid=0fa327df-59c4-4032-bef3-94503bd70777"},"vehicle_type_id":"4","last_reported":1723298820,"current_range_meters":19200,"station_id":"ce4bgnh2rcd13ifvqc0g","pricing_plan_id":"cebpf4jnsgd1na2vs0mg"},{"bike_id":"c30afed9-af68-4726-8063-f30054d89dd8","system_id":"levelo_inurba_marseille","lat":43.322205,"lon":5.38662,"is_reserved":false,"is_disabled":false,"rental_uris":{"android":"levelo://app?vid=c30afed9-af68-4726-8063-f30054d89dd8","ios":"levelo://app?vid=c30afed9-af68-4726-8063-f30054d89dd8"},"vehicle_type_id":"4","last_reported":1723298820,"current_range_meters":18000,"station_id":"","pricing_plan_id":"cebpf4jnsgd1na2vs0mg"},{"bike_id":"1121028e-af2a-4a04-aede-9d0eaf5fc63e","system_id":"levelo_inurba_marseille","lat":43.309589,"lon":5.390258,"is_reserved":false,"is_disabled":false,"rental_uris":{"android":"levelo://app?vid=1121028e-af2a-4a04-aede-9d0eaf5fc63e","ios":"levelo://app?vid=1121028e-af2a-4a04-aede-9d0eaf5fc63e"},"vehicle_type_id":"4","last_reported":1723298820,"current_range_meters":9200,"station_id":"ce4bgup2rcd13ifvqco0","pricing_plan_id":"cebpf4jnsgd1na2vs0mg"},{"bike_id":"2d1ced7e-df53-4346-99e7-a0bde6fc23fb","system_id":"levelo_inurba_marseille","lat":43.317557,"lon":5.390173,"is_reserved":false,"is_disabled":false,"rental_uris":{"android":"levelo://app?vid=2d1ced7e-df53-4346-99e7-a0bde6fc23fb","ios":"levelo://app?vid=2d1ced7e-df53-4346-99e7-a0bde6fc23fb"},"vehicle_type_id":"4","last_reported":1723298820,"current_range_meters":6800,"station_id":"ce4bhqp2rcd13ifvqhng","pricing_plan_id":"cebpf4jnsgd1na2vs0mg"},{"bike_id":"4551d27d-4626-4da5-9504-f59866d4cf12","system_id":"levelo_inurba_marseille","lat":43.31758,"lon":5.39021,"is_reserved":false,"is_disabled":false,"rental_uris":{"android":"levelo://app?vid=4551d27d-4626-4da5-9504-f59866d4cf12","ios":"levelo://app?vid=4551d27d-4626-4da5-9504-f59866d4cf12"},"vehicle_type_id":"4","last_reported":1723298820,"current_range_meters":26400,"station_id":"ce4bhqp2rcd13ifvqhng","pricing_plan_id":"cebpf4jnsgd1na2vs0mg"},{"bike_id":"49a53a86-cff6-4abb-944f-ba894202a663","system_id":"levelo_inurba_marseille","lat":43.299724,"lon":5.384848,"is_reserved":false,"is_disabled":false,"rental_uris":{"android":"levelo://app?vid=49a53a86-cff6-4abb-944f-ba894202a663","ios":"levelo://app?vid=49a53a86-cff6-4abb-944f-ba894202a663"},"vehicle_type_id":"4","last_reported":1723298820,"current_range_meters":21200,"station_id":"ce4bgj92rcd13ifvqbd0","pricing_plan_id":"cebpf4jnsgd1na2vs0mg"},{"bike_id":"23949995-c082-4641-b949-9d2000457f7a","system_id":"levelo_inurba_marseille","lat":43.32385,"lon":5.38923,"is_reserved":false,"is_disabled":false,"rental_uris":{"android":"levelo://app?vid=23949995-c082-4641-b949-9d2000457f7a","ios":"levelo://app?vid=23949995-c082-4641-b949-9d2000457f7a"},"vehicle_type_id":"4","last_reported":1723298820,"current_range_meters":0,"station_id":"ce4bhqp2rcd13ifvqhog","pricing_plan_id":"cebpf4jnsgd1na2vs0mg"},{"bike_id":"5ce9fdc2-ca66-4ff0-a515-e1c299945c26","system_id":"levelo_inurba_marseille","lat":43.29275,"lon":5.36751,"is_reserved":false,"is_disabled":false,"rental_uris":{"android":"levelo://app?vid=5ce9fdc2-ca66-4ff0-a515-e1c299945c26","ios":"levelo://app?vid=5ce9fdc2-ca66-4ff0-a515-e1c299945c26"},"vehicle_type_id":"4","last_reported":1723298820,"current_range_meters":17200,"station_id":"","pricing_plan_id":"cebpf4jnsgd1na2vs0mg"},{"bike_id":"813a9eb6-1f40-439e-9668-de72b8008bcc","system_id":"levelo_inurba_marseille","lat":43.29274,"lon":5.36746,"is_reserved":false,"is_disabled":false,"rental_uris":{"android":"levelo://app?vid=813a9eb6-1f40-439e-9668-de72b8008bcc","ios":"levelo://app?vid=813a9eb6-1f40-439e-9668-de72b8008bcc"},"vehicle_type_id":"4","last_reported":1723298820,"current_range_meters":23600,"station_id":"","pricing_plan_id":"cebpf4jnsgd1na2vs0mg"},{"bike_id":"11f4a26a-da67-436f-93f6-499c98a20f65","system_id":"levelo_inurba_marseille","lat":43.29273,"lon":5.3674,"is_reserved":false,"is_disabled":false,"rental_uris":{"android":"levelo://app?vid=11f4a26a-da67-436f-93f6-499c98a20f65","ios":"levelo://app?vid=11f4a26a-da67-436f-93f6-499c98a20f65"},"vehicle_type_id":"4","last_reported":1723298820,"current_range_meters":15200,"station_id":"","pricing_plan_id":"cebpf4jnsgd1na2vs0mg"},{"bike_id":"778d90a7-a5a6-435d-aec9-84b4565e274e","system_id":"levelo_inurba_marseille","lat":43.305994,"lon":5.393687,"is_reserved":false,"is_disabled":false,"rental_uris":{"android":"levelo://app?vid=778d90a7-a5a6-435d-aec9-84b4565e274e","ios":"levelo://app?vid=778d90a7-a5a6-435d-aec9-84b4565e274e"},"vehicle_type_id":"4","last_reported":1723298820,"current_range_meters":10400,"station_id":"ce4bh0p2rcd13ifvqd80","pricing_plan_id":"cebpf4jnsgd1na2vs0mg"},{"bike_id":"958e35e8-a0cb-4e3a-b218-d8e3952c33db","system_id":"levelo_inurba_marseille","lat":43.305994,"lon":5.393687,"is_reserved":false,"is_disabled":false,"rental_uris":{"android":"levelo://app?vid=958e35e8-a0cb-4e3a-b218-d8e3952c33db","ios":"levelo://app?vid=958e35e8-a0cb-4e3a-b218-d8e3952c33db"},"vehicle_type_id":"4","last_reported":1723298820,"current_range_meters":1200,"station_id":"ce4bh0p2rcd13ifvqd80","pricing_plan_id":"cebpf4jnsgd1na2vs0mg"},{"bike_id":"8d37495d-9961-45f8-ba67-ee81725ae3ae","system_id":"levelo_inurba_marseille","lat":43.29228,"lon":5.36363,"is_reserved":false,"is_disabled":false,"rental_uris":{"android":"levelo://app?vid=8d37495d-9961-45f8-ba67-ee81725ae3ae","ios":"levelo://app?vid=8d37495d-9961-45f8-ba67-ee81725ae3ae"},"vehicle_type_id":"4","last_reported":1723298820,"current_range_meters":8800,"station_id":"","pricing_plan_id":"cebpf4jnsgd1na2vs0mg"},{"bike_id":"5eda5cef-2527-4db9-bb38-ce86808c2bbc","system_id":"levelo_inurba_marseille","lat":43.29233,"lon":5.36066,"is_reserved":false,"is_disabled":false,"rental_uris":{"android":"levelo://app?vid=5eda5cef-2527-4db9-bb38-ce86808c2bbc","ios":"levelo://app?vid=5eda5cef-2527-4db9-bb38-ce86808c2bbc"},"vehicle_type_id":"4","last_reported":1723298820,"current_range_meters":0,"station_id":"ce4bhbh2rcd13ifvqeqg","pricing_plan_id":"cebpf4jnsgd1na2vs0mg"},{"bike_id":"5fab6ed7-2632-4c0d-9465-b056bb446d07","system_id":"levelo_inurba_marseille","lat":43.29232,"lon":5.36053,"is_reserved":false,"is_disabled":false,"rental_uris":{"android":"levelo://app?vid=5fab6ed7-2632-4c0d-9465-b056bb446d07","ios":"levelo://app?vid=5fab6ed7-2632-4c0d-9465-b056bb446d07"},"vehicle_type_id":"4","last_reported":1723298820,"current_range_meters":4000,"station_id":"ce4bhbh2rcd13ifvqeqg","pricing_plan_id":"cebpf4jnsgd1na2vs0mg"},{"bike_id":"29e80242-e863-48ba-b970-516117ed8c74","system_id":"levelo_inurba_marseille","lat":43.29229,"lon":5.36067,"is_reserved":false,"is_disabled":false,"rental_uris":{"android":"levelo://app?vid=29e80242-e863-48ba-b970-516117ed8c74","ios":"levelo://app?vid=29e80242-e863-48ba-b970-516117ed8c74"},"vehicle_type_id":"4","last_reported":1723298820,"current_range_meters":0,"station_id":"ce4bhbh2rcd13ifvqeqg","pricing_plan_id":"cebpf4jnsgd1na2vs0mg"},{"bike_id":"4ad3f969-50a8-4bc4-811c-132596be8dd9","system_id":"levelo_inurba_marseille","lat":43.292311,"lon":5.360731,"is_reserved":false,"is_disabled":false,"rental_uris":{"android":"levelo://app?vid=4ad3f969-50a8-4bc4-811c-132596be8dd9","ios":"levelo://app?vid=4ad3f969-50a8-4bc4-811c-132596be8dd9"},"vehicle_type_id":"4","last_reported":1723298820,"current_range_meters":26000,"station_id":"ce4bhbh2rcd13ifvqeqg","pricing_plan_id":"cebpf4jnsgd1na2vs0mg"},{"bike_id":"9f8bea29-4b3e-45cd-bdf4-9241d2bdef5d","system_id":"levelo_inurba_marseille","lat":43.30085,"lon":5.390856,"is_reserved":false,"is_disabled":false,"rental_uris":{"android":"levelo://app?vid=9f8bea29-4b3e-45cd-bdf4-9241d2bdef5d","ios":"levelo://app?vid=9f8bea29-4b3e-45cd-bdf4-9241d2bdef5d"},"vehicle_type_id":"4","last_reported":1723298820,"current_range_meters":29600,"station_id":"ce4bh192rcd13ifvqdb0","pricing_plan_id":"cebpf4jnsgd1na2vs0mg"},{"bike_id":"6f22b99f-cf76-48be-abac-99fdfacec5b9","system_id":"levelo_inurba_marseille","lat":43.29224,"lon":5.36056,"is_reserved":false,"is_disabled":false,"rental_uris":{"android":"levelo://app?vid=6f22b99f-cf76-48be-abac-99fdfacec5b9","ios":"levelo://app?vid=6f22b99f-cf76-48be-abac-99fdfacec5b9"},"vehicle_type_id":"4","last_reported":1723298820,"current_range_meters":0,"station_id":"ce4bhbh2rcd13ifvqeqg","pricing_plan_id":"cebpf4jnsgd1na2vs0mg"},{"bike_id":"62c27b8e-2ad4-4bb1-9c9a-1fe4d99a424a","system_id":"levelo_inurba_marseille","lat":43.292683,"lon":5.376162,"is_reserved":false,"is_disabled":false,"rental_uris":{"android":"levelo://app?vid=62c27b8e-2ad4-4bb1-9c9a-1fe4d99a424a","ios":"levelo://app?vid=62c27b8e-2ad4-4bb1-9c9a-1fe4d99a424a"},"vehicle_type_id":"4","last_reported":1723298820,"current_range_meters":23200,"station_id":"ce4bgi12rcd13ifvqb80","pricing_plan_id":"cebpf4jnsgd1na2vs0mg"},{"bike_id":"9496e582-7344-4130-b270-ffd6b65fdba1","system_id":"levelo_inurba_marseille","lat":43.298681,"lon":5.397225,"is_reserved":false,"is_disabled":false,"rental_uris":{"android":"levelo://app?vid=9496e582-7344-4130-b270-ffd6b65fdba1","ios":"levelo://app?vid=9496e582-7344-4130-b270-ffd6b65fdba1"},"vehicle_type_id":"4","last_reported":1723298820,"current_range_meters":27200,"station_id":"ce4bh0h2rcd13ifvqd50","pricing_plan_id":"cebpf4jnsgd1na2vs0mg"},{"bike_id":"8669c215-f64f-4991-918a-38e605b47e3d","system_id":"levelo_inurba_marseille","lat":43.292886,"lon":5.355609,"is_reserved":false,"is_disabled":false,"rental_uris":{"android":"levelo://app?vid=8669c215-f64f-4991-918a-38e605b47e3d","ios":"levelo://app?vid=8669c215-f64f-4991-918a-38e605b47e3d"},"vehicle_type_id":"4","last_reported":1723298820,"current_range_meters":7600,"station_id":"","pricing_plan_id":"cebpf4jnsgd1na2vs0mg"},{"bike_id":"9e13bcae-2a20-41fd-a94c-4b3331ffb793","system_id":"levelo_inurba_marseille","lat":43.292005,"lon":5.357875,"is_reserved":false,"is_disabled":false,"rental_uris":{"android":"levelo://app?vid=9e13bcae-2a20-41fd-a94c-4b3331ffb793","ios":"levelo://app?vid=9e13bcae-2a20-41fd-a94c-4b3331ffb793"},"vehicle_type_id":"4","last_reported":1723298820,"current_range_meters":22400,"station_id":"ce4bhb12rcd13ifvqel0","pricing_plan_id":"cebpf4jnsgd1na2vs0mg"},{"bike_id":"61d0fec2-b23f-4fde-90ff-7ec7353f5da6","system_id":"levelo_inurba_marseille","lat":43.30886,"lon":5.39641,"is_reserved":false,"is_disabled":false,"rental_uris":{"android":"levelo://app?vid=61d0fec2-b23f-4fde-90ff-7ec7353f5da6","ios":"levelo://app?vid=61d0fec2-b23f-4fde-90ff-7ec7353f5da6"},"vehicle_type_id":"4","last_reported":1723298820,"current_range_meters":0,"station_id":"ce4bh012rcd13ifvqcv0","pricing_plan_id":"cebpf4jnsgd1na2vs0mg"},{"bike_id":"9d4b68a5-c93f-4844-a235-5ff4a055b660","system_id":"levelo_inurba_marseille","lat":43.292385,"lon":5.37767,"is_reserved":false,"is_disabled":false,"rental_uris":{"android":"levelo://app?vid=9d4b68a5-c93f-4844-a235-5ff4a055b660","ios":"levelo://app?vid=9d4b68a5-c93f-4844-a235-5ff4a055b660"},"vehicle_type_id":"4","last_reported":1723298820,"current_range_meters":11600,"station_id":"","pricing_plan_id":"cebpf4jnsgd1na2vs0mg"},{"bike_id":"ec973ff0-c574-4394-a48d-ac189eceacff","system_id":"levelo_inurba_marseille","lat":43.273609,"lon":5.362708,"is_reserved":false,"is_disabled":false,"rental_uris":{"android":"levelo://app?vid=ec973ff0-c574-4394-a48d-ac189eceacff","ios":"levelo://app?vid=ec973ff0-c574-4394-a48d-ac189eceacff"},"vehicle_type_id":"4","last_reported":1723298820,"current_range_meters":7600,"station_id":"ce4bhbh2rcd13ifvqeo0","pricing_plan_id":"cebpf4jnsgd1na2vs0mg"},{"bike_id":"9319951f-ac54-48ba-a881-38837b9a9855","system_id":"levelo_inurba_marseille","lat":43.33535,"lon":5.36155,"is_reserved":false,"is_disabled":false,"rental_uris":{"android":"levelo://app?vid=9319951f-ac54-48ba-a881-38837b9a9855","ios":"levelo://app?vid=9319951f-ac54-48ba-a881-38837b9a9855"},"vehicle_type_id":"4","last_reported":1723298820,"current_range_meters":18800,"station_id":"","pricing_plan_id":"cebpf4jnsgd1na2vs0mg"},{"bike_id":"713c88a5-8eed-426d-87ac-c3725e0ec6bd","system_id":"levelo_inurba_marseille","lat":43.290631,"lon":5.359244,"is_reserved":false,"is_disabled":false,"rental_uris":{"android":"levelo://app?vid=713c88a5-8eed-426d-87ac-c3725e0ec6bd","ios":"levelo://app?vid=713c88a5-8eed-426d-87ac-c3725e0ec6bd"},"vehicle_type_id":"4","last_reported":1723298820,"current_range_meters":0,"station_id":"ce4bha92rcd13ifvqeg0","pricing_plan_id":"cebpf4jnsgd1na2vs0mg"},{"bike_id":"0d2ac78b-af17-4ff7-882e-1500ca2140c7","system_id":"levelo_inurba_marseille","lat":43.290363,"lon":5.375687,"is_reserved":false,"is_disabled":false,"rental_uris":{"android":"levelo://app?vid=0d2ac78b-af17-4ff7-882e-1500ca2140c7","ios":"levelo://app?vid=0d2ac78b-af17-4ff7-882e-1500ca2140c7"},"vehicle_type_id":"4","last_reported":1723298820,"current_range_meters":0,"station_id":"ce4bh692rcd13ifvqe90","pricing_plan_id":"cebpf4jnsgd1na2vs0mg"},{"bike_id":"71306595-9bb5-4a74-88b2-6606adb43e2d","system_id":"levelo_inurba_marseille","lat":43.28947,"lon":5.36635,"is_reserved":false,"is_disabled":false,"rental_uris":{"android":"levelo://app?vid=71306595-9bb5-4a74-88b2-6606adb43e2d","ios":"levelo://app?vid=71306595-9bb5-4a74-88b2-6606adb43e2d"},"vehicle_type_id":"4","last_reported":1723298820,"current_range_meters":0,"station_id":"ce4bhap2rcd13ifvqek0","pricing_plan_id":"cebpf4jnsgd1na2vs0mg"},{"bike_id":"4c7684d4-e0cc-4fe7-aad1-e5388011b78c","system_id":"levelo_inurba_marseille","lat":43.289184,"lon":5.366408,"is_reserved":false,"is_disabled":false,"rental_uris":{"android":"levelo://app?vid=4c7684d4-e0cc-4fe7-aad1-e5388011b78c","ios":"levelo://app?vid=4c7684d4-e0cc-4fe7-aad1-e5388011b78c"},"vehicle_type_id":"4","last_reported":1723298820,"current_range_meters":27600,"station_id":"ce4bhap2rcd13ifvqek0","pricing_plan_id":"cebpf4jnsgd1na2vs0mg"},{"bike_id":"c3ae4e05-dfa3-4f03-abc3-04771c56566b","system_id":"levelo_inurba_marseille","lat":43.289468,"lon":5.363719,"is_reserved":false,"is_disabled":false,"rental_uris":{"android":"levelo://app?vid=c3ae4e05-dfa3-4f03-abc3-04771c56566b","ios":"levelo://app?vid=c3ae4e05-dfa3-4f03-abc3-04771c56566b"},"vehicle_type_id":"4","last_reported":1723298820,"current_range_meters":0,"station_id":"ce4bhc92rcd13ifvqetg","pricing_plan_id":"cebpf4jnsgd1na2vs0mg"},{"bike_id":"5793955d-192a-472a-b5b3-6dd9e93b4316","system_id":"levelo_inurba_marseille","lat":43.290066,"lon":5.356179,"is_reserved":false,"is_disabled":false,"rental_uris":{"android":"levelo://app?vid=5793955d-192a-472a-b5b3-6dd9e93b4316","ios":"levelo://app?vid=5793955d-192a-472a-b5b3-6dd9e93b4316"},"vehicle_type_id":"4","last_reported":1723298820,"current_range_meters":26800,"station_id":"","pricing_plan_id":"cebpf4jnsgd1na2vs0mg"},{"bike_id":"bac7dc50-5c87-4992-a3af-97625c61fb59","system_id":"levelo_inurba_marseille","lat":43.290103,"lon":5.356114,"is_reserved":false,"is_disabled":false,"rental_uris":{"android":"levelo://app?vid=bac7dc50-5c87-4992-a3af-97625c61fb59","ios":"levelo://app?vid=bac7dc50-5c87-4992-a3af-97625c61fb59"},"vehicle_type_id":"4","last_reported":1723298820,"current_range_meters":8400,"station_id":"ce4bhb92rcd13ifvqen0","pricing_plan_id":"cebpf4jnsgd1na2vs0mg"},{"bike_id":"5d07b028-ea05-4457-bb0d-78c8e31c24f4","system_id":"levelo_inurba_marseille","lat":43.330199,"lon":5.390427,"is_reserved":false,"is_disabled":false,"rental_uris":{"android":"levelo://app?vid=5d07b028-ea05-4457-bb0d-78c8e31c24f4","ios":"levelo://app?vid=5d07b028-ea05-4457-bb0d-78c8e31c24f4"},"vehicle_type_id":"4","last_reported":1723298820,"current_range_meters":14400,"station_id":"ce4bhr92rcd13ifvqhrg","pricing_plan_id":"cebpf4jnsgd1na2vs0mg"},{"bike_id":"eb950615-e61f-45ab-a601-4960d01e92e7","system_id":"levelo_inurba_marseille","lat":43.33027,"lon":5.39037,"is_reserved":false,"is_disabled":false,"rental_uris":{"android":"levelo://app?vid=eb950615-e61f-45ab-a601-4960d01e92e7","ios":"levelo://app?vid=eb950615-e61f-45ab-a601-4960d01e92e7"},"vehicle_type_id":"4","last_reported":1723298820,"current_range_meters":400,"station_id":"ce4bhr92rcd13ifvqhrg","pricing_plan_id":"cebpf4jnsgd1na2vs0mg"},{"bike_id":"3426e4c0-ccf4-47a9-aa94-cc9d783b72ec","system_id":"levelo_inurba_marseille","lat":43.33024,"lon":5.39042,"is_reserved":false,"is_disabled":false,"rental_uris":{"android":"levelo://app?vid=3426e4c0-ccf4-47a9-aa94-cc9d783b72ec","ios":"levelo://app?vid=3426e4c0-ccf4-47a9-aa94-cc9d783b72ec"},"vehicle_type_id":"4","last_reported":1723298820,"current_range_meters":12800,"station_id":"ce4bhr92rcd13ifvqhrg","pricing_plan_id":"cebpf4jnsgd1na2vs0mg"},{"bike_id":"35002121-fb81-4afd-9964-234fc301c38c","system_id":"levelo_inurba_marseille","lat":43.33026,"lon":5.3904,"is_reserved":false,"is_disabled":false,"rental_uris":{"android":"levelo://app?vid=35002121-fb81-4afd-9964-234fc301c38c","ios":"levelo://app?vid=35002121-fb81-4afd-9964-234fc301c38c"},"vehicle_type_id":"4","last_reported":1723298820,"current_range_meters":10000,"station_id":"ce4bhr92rcd13ifvqhrg","pricing_plan_id":"cebpf4jnsgd1na2vs0mg"},{"bike_id":"54ce4452-8db6-451b-b62b-3ba3b1fcce0d","system_id":"levelo_inurba_marseille","lat":43.330442,"lon":5.389148,"is_reserved":false,"is_disabled":false,"rental_uris":{"android":"levelo://app?vid=54ce4452-8db6-451b-b62b-3ba3b1fcce0d","ios":"levelo://app?vid=54ce4452-8db6-451b-b62b-3ba3b1fcce0d"},"vehicle_type_id":"4","last_reported":1723298820,"current_range_meters":14400,"station_id":"ce4bhr92rcd13ifvqhrg","pricing_plan_id":"cebpf4jnsgd1na2vs0mg"},{"bike_id":"266df721-c5a1-4443-a918-83f30a9c6ac3","system_id":"levelo_inurba_marseille","lat":43.330442,"lon":5.389148,"is_reserved":false,"is_disabled":false,"rental_uris":{"android":"levelo://app?vid=266df721-c5a1-4443-a918-83f30a9c6ac3","ios":"levelo://app?vid=266df721-c5a1-4443-a918-83f30a9c6ac3"},"vehicle_type_id":"4","last_reported":1723298820,"current_range_meters":0,"station_id":"ce4bhr92rcd13ifvqhrg","pricing_plan_id":"cebpf4jnsgd1na2vs0mg"},{"bike_id":"ca0e80b4-1392-4598-8ffc-b9ce544e315e","system_id":"levelo_inurba_marseille","lat":43.28856,"lon":5.358371,"is_reserved":false,"is_disabled":false,"rental_uris":{"android":"levelo://app?vid=ca0e80b4-1392-4598-8ffc-b9ce544e315e","ios":"levelo://app?vid=ca0e80b4-1392-4598-8ffc-b9ce544e315e"},"vehicle_type_id":"4","last_reported":1723298820,"current_range_meters":19600,"station_id":"ce4bhb12rcd13ifvqem0","pricing_plan_id":"cebpf4jnsgd1na2vs0mg"},{"bike_id":"e7aee0d0-4eda-4161-86a2-745f55c86ca3","system_id":"levelo_inurba_marseille","lat":43.28856,"lon":5.358371,"is_reserved":false,"is_disabled":false,"rental_uris":{"android":"levelo://app?vid=e7aee0d0-4eda-4161-86a2-745f55c86ca3","ios":"levelo://app?vid=e7aee0d0-4eda-4161-86a2-745f55c86ca3"},"vehicle_type_id":"4","last_reported":1723298820,"current_range_meters":31600,"station_id":"ce4bhb12rcd13ifvqem0","pricing_plan_id":"cebpf4jnsgd1na2vs0mg"},{"bike_id":"27338386-5fc8-4c06-8dcc-b38e0299f211","system_id":"levelo_inurba_marseille","lat":43.28856,"lon":5.358371,"is_reserved":false,"is_disabled":false,"rental_uris":{"android":"levelo://app?vid=27338386-5fc8-4c06-8dcc-b38e0299f211","ios":"levelo://app?vid=27338386-5fc8-4c06-8dcc-b38e0299f211"},"vehicle_type_id":"4","last_reported":1723298820,"current_range_meters":31200,"station_id":"ce4bhb12rcd13ifvqem0","pricing_plan_id":"cebpf4jnsgd1na2vs0mg"},{"bike_id":"2014b39c-4058-49e2-8391-34b131a89956","system_id":"levelo_inurba_marseille","lat":43.28856,"lon":5.358371,"is_reserved":false,"is_disabled":false,"rental_uris":{"android":"levelo://app?vid=2014b39c-4058-49e2-8391-34b131a89956","ios":"levelo://app?vid=2014b39c-4058-49e2-8391-34b131a89956"},"vehicle_type_id":"4","last_reported":1723298820,"current_range_meters":14400,"station_id":"ce4bhb12rcd13ifvqem0","pricing_plan_id":"cebpf4jnsgd1na2vs0mg"},{"bike_id":"102ed6e3-bf50-4701-8502-eee79f7ef6bb","system_id":"levelo_inurba_marseille","lat":43.302759,"lon":5.400793,"is_reserved":false,"is_disabled":false,"rental_uris":{"android":"levelo://app?vid=102ed6e3-bf50-4701-8502-eee79f7ef6bb","ios":"levelo://app?vid=102ed6e3-bf50-4701-8502-eee79f7ef6bb"},"vehicle_type_id":"4","last_reported":1723298820,"current_range_meters":5600,"station_id":"ce4bgvh2rcd13ifvqcs0","pricing_plan_id":"cebpf4jnsgd1na2vs0mg"},{"bike_id":"bb81e7be-17ab-4072-947b-a34c43f3ca26","system_id":"levelo_inurba_marseille","lat":43.28856,"lon":5.358371,"is_reserved":false,"is_disabled":false,"rental_uris":{"android":"levelo://app?vid=bb81e7be-17ab-4072-947b-a34c43f3ca26","ios":"levelo://app?vid=bb81e7be-17ab-4072-947b-a34c43f3ca26"},"vehicle_type_id":"4","last_reported":1723298820,"current_range_meters":24400,"station_id":"ce4bhb12rcd13ifvqem0","pricing_plan_id":"cebpf4jnsgd1na2vs0mg"},{"bike_id":"48a48fe3-fda6-4e2a-9174-ab15a3dcb209","system_id":"levelo_inurba_marseille","lat":43.28856,"lon":5.358371,"is_reserved":false,"is_disabled":false,"rental_uris":{"android":"levelo://app?vid=48a48fe3-fda6-4e2a-9174-ab15a3dcb209","ios":"levelo://app?vid=48a48fe3-fda6-4e2a-9174-ab15a3dcb209"},"vehicle_type_id":"4","last_reported":1723298820,"current_range_meters":31600,"station_id":"ce4bhb12rcd13ifvqem0","pricing_plan_id":"cebpf4jnsgd1na2vs0mg"},{"bike_id":"ddf53dc3-acac-4f02-b6f1-adee4d400bf9","system_id":"levelo_inurba_marseille","lat":43.28856,"lon":5.358371,"is_reserved":false,"is_disabled":false,"rental_uris":{"android":"levelo://app?vid=ddf53dc3-acac-4f02-b6f1-adee4d400bf9","ios":"levelo://app?vid=ddf53dc3-acac-4f02-b6f1-adee4d400bf9"},"vehicle_type_id":"4","last_reported":1723298820,"current_range_meters":31200,"station_id":"ce4bhb12rcd13ifvqem0","pricing_plan_id":"cebpf4jnsgd1na2vs0mg"},{"bike_id":"162efeb1-e6e6-4c87-9255-1df70bdcedd5","system_id":"levelo_inurba_marseille","lat":43.28856,"lon":5.358371,"is_reserved":false,"is_disabled":false,"rental_uris":{"android":"levelo://app?vid=162efeb1-e6e6-4c87-9255-1df70bdcedd5","ios":"levelo://app?vid=162efeb1-e6e6-4c87-9255-1df70bdcedd5"},"vehicle_type_id":"4","last_reported":1723298820,"current_range_meters":26400,"station_id":"ce4bhb12rcd13ifvqem0","pricing_plan_id":"cebpf4jnsgd1na2vs0mg"},{"bike_id":"e27a01ef-061c-4c0e-acd8-74bd06f8bfac","system_id":"levelo_inurba_marseille","lat":43.337394,"lon":5.374622,"is_reserved":false,"is_disabled":false,"rental_uris":{"android":"levelo://app?vid=e27a01ef-061c-4c0e-acd8-74bd06f8bfac","ios":"levelo://app?vid=e27a01ef-061c-4c0e-acd8-74bd06f8bfac"},"vehicle_type_id":"4","last_reported":1723298820,"current_range_meters":30000,"station_id":"","pricing_plan_id":"cebpf4jnsgd1na2vs0mg"},{"bike_id":"ac75d8e5-5139-4e43-a64e-51e7994c2517","system_id":"levelo_inurba_marseille","lat":43.337444,"lon":5.374475,"is_reserved":false,"is_disabled":false,"rental_uris":{"android":"levelo://app?vid=ac75d8e5-5139-4e43-a64e-51e7994c2517","ios":"levelo://app?vid=ac75d8e5-5139-4e43-a64e-51e7994c2517"},"vehicle_type_id":"3","last_reported":1723298820,"current_range_meters":24800,"station_id":"","pricing_plan_id":"cebpf4jnsgd1na2vs0mg"},{"bike_id":"8b5f6228-3582-497c-9919-c849c8ef0c9b","system_id":"levelo_inurba_marseille","lat":43.337429,"lon":5.374602,"is_reserved":false,"is_disabled":false,"rental_uris":{"android":"levelo://app?vid=8b5f6228-3582-497c-9919-c849c8ef0c9b","ios":"levelo://app?vid=8b5f6228-3582-497c-9919-c849c8ef0c9b"},"vehicle_type_id":"4","last_reported":1723298820,"current_range_meters":2000,"station_id":"","pricing_plan_id":"cebpf4jnsgd1na2vs0mg"},{"bike_id":"1115374c-9bd1-4203-8798-2954097db088","system_id":"levelo_inurba_marseille","lat":43.33742,"lon":5.37467,"is_reserved":false,"is_disabled":false,"rental_uris":{"android":"levelo://app?vid=1115374c-9bd1-4203-8798-2954097db088","ios":"levelo://app?vid=1115374c-9bd1-4203-8798-2954097db088"},"vehicle_type_id":"4","last_reported":1723298820,"current_range_meters":6800,"station_id":"","pricing_plan_id":"cebpf4jnsgd1na2vs0mg"},{"bike_id":"7553d7c6-8eef-4b21-9dca-534ec43256a6","system_id":"levelo_inurba_marseille","lat":43.33743,"lon":5.37461,"is_reserved":false,"is_disabled":false,"rental_uris":{"android":"levelo://app?vid=7553d7c6-8eef-4b21-9dca-534ec43256a6","ios":"levelo://app?vid=7553d7c6-8eef-4b21-9dca-534ec43256a6"},"vehicle_type_id":"4","last_reported":1723298820,"current_range_meters":14800,"station_id":"","pricing_plan_id":"cebpf4jnsgd1na2vs0mg"},{"bike_id":"99ff80d6-767c-4ca9-81b5-c19f253f3bd3","system_id":"levelo_inurba_marseille","lat":43.33745,"lon":5.37451,"is_reserved":false,"is_disabled":false,"rental_uris":{"android":"levelo://app?vid=99ff80d6-767c-4ca9-81b5-c19f253f3bd3","ios":"levelo://app?vid=99ff80d6-767c-4ca9-81b5-c19f253f3bd3"},"vehicle_type_id":"4","last_reported":1723298820,"current_range_meters":3600,"station_id":"","pricing_plan_id":"cebpf4jnsgd1na2vs0mg"},{"bike_id":"7f0a9009-5d3e-4939-902a-e4dd739398cd","system_id":"levelo_inurba_marseille","lat":43.30934,"lon":5.40142,"is_reserved":false,"is_disabled":false,"rental_uris":{"android":"levelo://app?vid=7f0a9009-5d3e-4939-902a-e4dd739398cd","ios":"levelo://app?vid=7f0a9009-5d3e-4939-902a-e4dd739398cd"},"vehicle_type_id":"4","last_reported":1723298820,"current_range_meters":8000,"station_id":"ce4bgvp2rcd13ifvqct0","pricing_plan_id":"cebpf4jnsgd1na2vs0mg"},{"bike_id":"43f21911-683d-4ba4-93d3-8a7e20e1c78c","system_id":"levelo_inurba_marseille","lat":43.33744,"lon":5.37467,"is_reserved":false,"is_disabled":false,"rental_uris":{"android":"levelo://app?vid=43f21911-683d-4ba4-93d3-8a7e20e1c78c","ios":"levelo://app?vid=43f21911-683d-4ba4-93d3-8a7e20e1c78c"},"vehicle_type_id":"4","last_reported":1723298820,"current_range_meters":31200,"station_id":"","pricing_plan_id":"cebpf4jnsgd1na2vs0mg"},{"bike_id":"a99690a8-3e4f-41a1-9b6a-5b43249a269f","system_id":"levelo_inurba_marseille","lat":43.33746,"lon":5.37457,"is_reserved":false,"is_disabled":false,"rental_uris":{"android":"levelo://app?vid=a99690a8-3e4f-41a1-9b6a-5b43249a269f","ios":"levelo://app?vid=a99690a8-3e4f-41a1-9b6a-5b43249a269f"},"vehicle_type_id":"4","last_reported":1723298820,"current_range_meters":4800,"station_id":"","pricing_plan_id":"cebpf4jnsgd1na2vs0mg"},{"bike_id":"c3cf305c-692c-41ed-b07c-7ebbc13f240d","system_id":"levelo_inurba_marseille","lat":43.337455,"lon":5.374614,"is_reserved":false,"is_disabled":false,"rental_uris":{"android":"levelo://app?vid=c3cf305c-692c-41ed-b07c-7ebbc13f240d","ios":"levelo://app?vid=c3cf305c-692c-41ed-b07c-7ebbc13f240d"},"vehicle_type_id":"4","last_reported":1723298820,"current_range_meters":14000,"station_id":"","pricing_plan_id":"cebpf4jnsgd1na2vs0mg"},{"bike_id":"1596ed5a-2748-4147-884b-51e994b2b8ca","system_id":"levelo_inurba_marseille","lat":43.337482,"lon":5.374568,"is_reserved":false,"is_disabled":false,"rental_uris":{"android":"levelo://app?vid=1596ed5a-2748-4147-884b-51e994b2b8ca","ios":"levelo://app?vid=1596ed5a-2748-4147-884b-51e994b2b8ca"},"vehicle_type_id":"4","last_reported":1723298820,"current_range_meters":16400,"station_id":"","pricing_plan_id":"cebpf4jnsgd1na2vs0mg"},{"bike_id":"176078ac-dbf3-4a59-b7a0-e3f26aa7db6d","system_id":"levelo_inurba_marseille","lat":43.337494,"lon":5.37457,"is_reserved":false,"is_disabled":false,"rental_uris":{"android":"levelo://app?vid=176078ac-dbf3-4a59-b7a0-e3f26aa7db6d","ios":"levelo://app?vid=176078ac-dbf3-4a59-b7a0-e3f26aa7db6d"},"vehicle_type_id":"4","last_reported":1723298820,"current_range_meters":10400,"station_id":"","pricing_plan_id":"cebpf4jnsgd1na2vs0mg"},{"bike_id":"1d380d86-5e76-461b-bb6c-dc94aca12cd4","system_id":"levelo_inurba_marseille","lat":43.3375,"lon":5.37458,"is_reserved":false,"is_disabled":false,"rental_uris":{"android":"levelo://app?vid=1d380d86-5e76-461b-bb6c-dc94aca12cd4","ios":"levelo://app?vid=1d380d86-5e76-461b-bb6c-dc94aca12cd4"},"vehicle_type_id":"4","last_reported":1723298820,"current_range_meters":10000,"station_id":"","pricing_plan_id":"cebpf4jnsgd1na2vs0mg"},{"bike_id":"6137b86e-8de9-4c4f-94ef-bfa372175031","system_id":"levelo_inurba_marseille","lat":43.337513,"lon":5.37454,"is_reserved":false,"is_disabled":false,"rental_uris":{"android":"levelo://app?vid=6137b86e-8de9-4c4f-94ef-bfa372175031","ios":"levelo://app?vid=6137b86e-8de9-4c4f-94ef-bfa372175031"},"vehicle_type_id":"4","last_reported":1723298820,"current_range_meters":15600,"station_id":"","pricing_plan_id":"cebpf4jnsgd1na2vs0mg"},{"bike_id":"3bf2c92b-e810-4497-81f3-0eb40ecad1f5","system_id":"levelo_inurba_marseille","lat":43.33754,"lon":5.3744,"is_reserved":false,"is_disabled":false,"rental_uris":{"android":"levelo://app?vid=3bf2c92b-e810-4497-81f3-0eb40ecad1f5","ios":"levelo://app?vid=3bf2c92b-e810-4497-81f3-0eb40ecad1f5"},"vehicle_type_id":"4","last_reported":1723298820,"current_range_meters":30000,"station_id":"","pricing_plan_id":"cebpf4jnsgd1na2vs0mg"},{"bike_id":"76b0bce9-a861-4534-b1a2-64c1fde327ba","system_id":"levelo_inurba_marseille","lat":43.33755,"lon":5.37439,"is_reserved":false,"is_disabled":false,"rental_uris":{"android":"levelo://app?vid=76b0bce9-a861-4534-b1a2-64c1fde327ba","ios":"levelo://app?vid=76b0bce9-a861-4534-b1a2-64c1fde327ba"},"vehicle_type_id":"4","last_reported":1723298820,"current_range_meters":21600,"station_id":"","pricing_plan_id":"cebpf4jnsgd1na2vs0mg"},{"bike_id":"f2c39657-f64b-4c05-b0b3-af94dc52094d","system_id":"levelo_inurba_marseille","lat":43.33756,"lon":5.37441,"is_reserved":false,"is_disabled":false,"rental_uris":{"android":"levelo://app?vid=f2c39657-f64b-4c05-b0b3-af94dc52094d","ios":"levelo://app?vid=f2c39657-f64b-4c05-b0b3-af94dc52094d"},"vehicle_type_id":"4","last_reported":1723298820,"current_range_meters":400,"station_id":"","pricing_plan_id":"cebpf4jnsgd1na2vs0mg"},{"bike_id":"fcb552aa-4b86-4ab7-bdf4-7617d41dcd66","system_id":"levelo_inurba_marseille","lat":43.33758,"lon":5.37433,"is_reserved":false,"is_disabled":false,"rental_uris":{"android":"levelo://app?vid=fcb552aa-4b86-4ab7-bdf4-7617d41dcd66","ios":"levelo://app?vid=fcb552aa-4b86-4ab7-bdf4-7617d41dcd66"},"vehicle_type_id":"4","last_reported":1723298820,"current_range_meters":25600,"station_id":"","pricing_plan_id":"cebpf4jnsgd1na2vs0mg"},{"bike_id":"7fd52e3d-d8a0-4216-a455-f832a3c42d30","system_id":"levelo_inurba_marseille","lat":43.33755,"lon":5.37461,"is_reserved":false,"is_disabled":false,"rental_uris":{"android":"levelo://app?vid=7fd52e3d-d8a0-4216-a455-f832a3c42d30","ios":"levelo://app?vid=7fd52e3d-d8a0-4216-a455-f832a3c42d30"},"vehicle_type_id":"4","last_reported":1723298820,"current_range_meters":29200,"station_id":"","pricing_plan_id":"cebpf4jnsgd1na2vs0mg"},{"bike_id":"3beb6781-890e-4ef2-9b0f-63e505b2b4af","system_id":"levelo_inurba_marseille","lat":43.30642,"lon":5.401031,"is_reserved":false,"is_disabled":false,"rental_uris":{"android":"levelo://app?vid=3beb6781-890e-4ef2-9b0f-63e505b2b4af","ios":"levelo://app?vid=3beb6781-890e-4ef2-9b0f-63e505b2b4af"},"vehicle_type_id":"4","last_reported":1723298820,"current_range_meters":3200,"station_id":"ce4bh112rcd13ifvqda0","pricing_plan_id":"cebpf4jnsgd1na2vs0mg"},{"bike_id":"12445b66-2542-4296-816a-e8ece665c4ce","system_id":"levelo_inurba_marseille","lat":43.337607,"lon":5.3744,"is_reserved":false,"is_disabled":false,"rental_uris":{"android":"levelo://app?vid=12445b66-2542-4296-816a-e8ece665c4ce","ios":"levelo://app?vid=12445b66-2542-4296-816a-e8ece665c4ce"},"vehicle_type_id":"4","last_reported":1723298820,"current_range_meters":29600,"station_id":"","pricing_plan_id":"cebpf4jnsgd1na2vs0mg"},{"bike_id":"1ece39e8-5ec5-465b-b0d5-bdea3554c74d","system_id":"levelo_inurba_marseille","lat":43.337588,"lon":5.374527,"is_reserved":false,"is_disabled":false,"rental_uris":{"android":"levelo://app?vid=1ece39e8-5ec5-465b-b0d5-bdea3554c74d","ios":"levelo://app?vid=1ece39e8-5ec5-465b-b0d5-bdea3554c74d"},"vehicle_type_id":"4","last_reported":1723298820,"current_range_meters":25600,"station_id":"","pricing_plan_id":"cebpf4jnsgd1na2vs0mg"},{"bike_id":"ea1cc1bc-b3f0-4093-8f5f-6dfff1fa63d9","system_id":"levelo_inurba_marseille","lat":43.33757,"lon":5.374841,"is_reserved":false,"is_disabled":false,"rental_uris":{"android":"levelo://app?vid=ea1cc1bc-b3f0-4093-8f5f-6dfff1fa63d9","ios":"levelo://app?vid=ea1cc1bc-b3f0-4093-8f5f-6dfff1fa63d9"},"vehicle_type_id":"4","last_reported":1723298820,"current_range_meters":29600,"station_id":"","pricing_plan_id":"cebpf4jnsgd1na2vs0mg"},{"bike_id":"1edc3a17-05f3-4edf-975c-68baed72c09a","system_id":"levelo_inurba_marseille","lat":43.33765,"lon":5.37437,"is_reserved":false,"is_disabled":false,"rental_uris":{"android":"levelo://app?vid=1edc3a17-05f3-4edf-975c-68baed72c09a","ios":"levelo://app?vid=1edc3a17-05f3-4edf-975c-68baed72c09a"},"vehicle_type_id":"4","last_reported":1723298820,"current_range_meters":19200,"station_id":"","pricing_plan_id":"cebpf4jnsgd1na2vs0mg"},{"bike_id":"7e9c89fe-e5d1-4d9e-90f7-d0076221035c","system_id":"levelo_inurba_marseille","lat":43.33766,"lon":5.37432,"is_reserved":false,"is_disabled":false,"rental_uris":{"android":"levelo://app?vid=7e9c89fe-e5d1-4d9e-90f7-d0076221035c","ios":"levelo://app?vid=7e9c89fe-e5d1-4d9e-90f7-d0076221035c"},"vehicle_type_id":"4","last_reported":1723298820,"current_range_meters":29200,"station_id":"","pricing_plan_id":"cebpf4jnsgd1na2vs0mg"},{"bike_id":"e0da458e-1309-458b-956b-aab617b2ea05","system_id":"levelo_inurba_marseille","lat":43.3376,"lon":5.37473,"is_reserved":false,"is_disabled":false,"rental_uris":{"android":"levelo://app?vid=e0da458e-1309-458b-956b-aab617b2ea05","ios":"levelo://app?vid=e0da458e-1309-458b-956b-aab617b2ea05"},"vehicle_type_id":"4","last_reported":1723298820,"current_range_meters":27200,"station_id":"","pricing_plan_id":"cebpf4jnsgd1na2vs0mg"},{"bike_id":"a7e71684-8757-4c0e-98c0-cd5b05cd0ba7","system_id":"levelo_inurba_marseille","lat":43.337585,"lon":5.374921,"is_reserved":false,"is_disabled":false,"rental_uris":{"android":"levelo://app?vid=a7e71684-8757-4c0e-98c0-cd5b05cd0ba7","ios":"levelo://app?vid=a7e71684-8757-4c0e-98c0-cd5b05cd0ba7"},"vehicle_type_id":"4","last_reported":1723298820,"current_range_meters":30400,"station_id":"","pricing_plan_id":"cebpf4jnsgd1na2vs0mg"},{"bike_id":"5cb0d0f3-eacc-40eb-a46e-542fc59e15f6","system_id":"levelo_inurba_marseille","lat":43.33759,"lon":5.37499,"is_reserved":false,"is_disabled":false,"rental_uris":{"android":"levelo://app?vid=5cb0d0f3-eacc-40eb-a46e-542fc59e15f6","ios":"levelo://app?vid=5cb0d0f3-eacc-40eb-a46e-542fc59e15f6"},"vehicle_type_id":"4","last_reported":1723298820,"current_range_meters":30400,"station_id":"","pricing_plan_id":"cebpf4jnsgd1na2vs0mg"},{"bike_id":"1d79ffd6-18f9-4da6-8a6c-bf932ba462f8","system_id":"levelo_inurba_marseille","lat":43.33771,"lon":5.37433,"is_reserved":false,"is_disabled":false,"rental_uris":{"android":"levelo://app?vid=1d79ffd6-18f9-4da6-8a6c-bf932ba462f8","ios":"levelo://app?vid=1d79ffd6-18f9-4da6-8a6c-bf932ba462f8"},"vehicle_type_id":"4","last_reported":1723298820,"current_range_meters":2000,"station_id":"","pricing_plan_id":"cebpf4jnsgd1na2vs0mg"},{"bike_id":"5adc2e8d-b357-417c-a4c4-d1aa163ea738","system_id":"levelo_inurba_marseille","lat":43.33767,"lon":5.37461,"is_reserved":false,"is_disabled":false,"rental_uris":{"android":"levelo://app?vid=5adc2e8d-b357-417c-a4c4-d1aa163ea738","ios":"levelo://app?vid=5adc2e8d-b357-417c-a4c4-d1aa163ea738"},"vehicle_type_id":"4","last_reported":1723298820,"current_range_meters":3200,"station_id":"","pricing_plan_id":"cebpf4jnsgd1na2vs0mg"},{"bike_id":"475ed14f-5d86-4ce1-9e44-9d4d1bef7035","system_id":"levelo_inurba_marseille","lat":43.33765,"lon":5.37486,"is_reserved":false,"is_disabled":false,"rental_uris":{"android":"levelo://app?vid=475ed14f-5d86-4ce1-9e44-9d4d1bef7035","ios":"levelo://app?vid=475ed14f-5d86-4ce1-9e44-9d4d1bef7035"},"vehicle_type_id":"4","last_reported":1723298820,"current_range_meters":25600,"station_id":"","pricing_plan_id":"cebpf4jnsgd1na2vs0mg"},{"bike_id":"10fd0510-81f7-4cd4-8909-99cc874e1a4c","system_id":"levelo_inurba_marseille","lat":43.33775,"lon":5.3745,"is_reserved":false,"is_disabled":false,"rental_uris":{"android":"levelo://app?vid=10fd0510-81f7-4cd4-8909-99cc874e1a4c","ios":"levelo://app?vid=10fd0510-81f7-4cd4-8909-99cc874e1a4c"},"vehicle_type_id":"4","last_reported":1723298820,"current_range_meters":29600,"station_id":"","pricing_plan_id":"cebpf4jnsgd1na2vs0mg"},{"bike_id":"6f8a75ef-cfde-4da5-99c7-85f9ae9b026b","system_id":"levelo_inurba_marseille","lat":43.33778,"lon":5.3746,"is_reserved":false,"is_disabled":false,"rental_uris":{"android":"levelo://app?vid=6f8a75ef-cfde-4da5-99c7-85f9ae9b026b","ios":"levelo://app?vid=6f8a75ef-cfde-4da5-99c7-85f9ae9b026b"},"vehicle_type_id":"4","last_reported":1723298820,"current_range_meters":4000,"station_id":"","pricing_plan_id":"cebpf4jnsgd1na2vs0mg"},{"bike_id":"818a73a4-5b18-4169-928b-9ef62f248332","system_id":"levelo_inurba_marseille","lat":43.28727,"lon":5.36078,"is_reserved":false,"is_disabled":false,"rental_uris":{"android":"levelo://app?vid=818a73a4-5b18-4169-928b-9ef62f248332","ios":"levelo://app?vid=818a73a4-5b18-4169-928b-9ef62f248332"},"vehicle_type_id":"4","last_reported":1723298820,"current_range_meters":2400,"station_id":"cki0cbj6b192h4jlfktg","pricing_plan_id":"cebpf4jnsgd1na2vs0mg"},{"bike_id":"27b00271-d72c-4631-a1a5-65bc3ea924a1","system_id":"levelo_inurba_marseille","lat":43.286961,"lon":5.373785,"is_reserved":false,"is_disabled":false,"rental_uris":{"android":"levelo://app?vid=27b00271-d72c-4631-a1a5-65bc3ea924a1","ios":"levelo://app?vid=27b00271-d72c-4631-a1a5-65bc3ea924a1"},"vehicle_type_id":"4","last_reported":1723298820,"current_range_meters":5600,"station_id":"ce4bh3p2rcd13ifvqdq0","pricing_plan_id":"cebpf4jnsgd1na2vs0mg"},{"bike_id":"502f03c4-06a4-4764-9bad-e4e94b25a0c2","system_id":"levelo_inurba_marseille","lat":43.286591,"lon":5.363346,"is_reserved":false,"is_disabled":false,"rental_uris":{"android":"levelo://app?vid=502f03c4-06a4-4764-9bad-e4e94b25a0c2","ios":"levelo://app?vid=502f03c4-06a4-4764-9bad-e4e94b25a0c2"},"vehicle_type_id":"4","last_reported":1723298820,"current_range_meters":21200,"station_id":"ce4bhah2rcd13ifvqej0","pricing_plan_id":"cebpf4jnsgd1na2vs0mg"},{"bike_id":"4882c0e7-670e-44c9-95b8-3803cea6e046","system_id":"levelo_inurba_marseille","lat":43.28667,"lon":5.36352,"is_reserved":false,"is_disabled":false,"rental_uris":{"android":"levelo://app?vid=4882c0e7-670e-44c9-95b8-3803cea6e046","ios":"levelo://app?vid=4882c0e7-670e-44c9-95b8-3803cea6e046"},"vehicle_type_id":"4","last_reported":1723298820,"current_range_meters":26400,"station_id":"","pricing_plan_id":"cebpf4jnsgd1na2vs0mg"},{"bike_id":"ca108d1d-09d5-49e2-a83f-dcbe93e7eec9","system_id":"levelo_inurba_marseille","lat":43.290317,"lon":5.386526,"is_reserved":false,"is_disabled":false,"rental_uris":{"android":"levelo://app?vid=ca108d1d-09d5-49e2-a83f-dcbe93e7eec9","ios":"levelo://app?vid=ca108d1d-09d5-49e2-a83f-dcbe93e7eec9"},"vehicle_type_id":"4","last_reported":1723298820,"current_range_meters":12400,"station_id":"ce4bh4p2rcd13ifvqe0g","pricing_plan_id":"cebpf4jnsgd1na2vs0mg"},{"bike_id":"98e7ae08-4916-47d1-97a4-be05f7a24f45","system_id":"levelo_inurba_marseille","lat":43.290336,"lon":5.386425,"is_reserved":false,"is_disabled":false,"rental_uris":{"android":"levelo://app?vid=98e7ae08-4916-47d1-97a4-be05f7a24f45","ios":"levelo://app?vid=98e7ae08-4916-47d1-97a4-be05f7a24f45"},"vehicle_type_id":"4","last_reported":1723298820,"current_range_meters":9600,"station_id":"ce4bh4p2rcd13ifvqe0g","pricing_plan_id":"cebpf4jnsgd1na2vs0mg"},{"bike_id":"6a8ae657-819b-449f-950a-a8aed4da3176","system_id":"levelo_inurba_marseille","lat":43.286039,"lon":5.370679,"is_reserved":false,"is_disabled":false,"rental_uris":{"android":"levelo://app?vid=6a8ae657-819b-449f-950a-a8aed4da3176","ios":"levelo://app?vid=6a8ae657-819b-449f-950a-a8aed4da3176"},"vehicle_type_id":"4","last_reported":1723298820,"current_range_meters":28000,"station_id":"ce4bht12rcd13ifvqi60","pricing_plan_id":"cebpf4jnsgd1na2vs0mg"},{"bike_id":"57da0337-159a-4148-be4f-fc6e9aca3c31","system_id":"levelo_inurba_marseille","lat":43.338919,"lon":5.35723,"is_reserved":false,"is_disabled":false,"rental_uris":{"android":"levelo://app?vid=57da0337-159a-4148-be4f-fc6e9aca3c31","ios":"levelo://app?vid=57da0337-159a-4148-be4f-fc6e9aca3c31"},"vehicle_type_id":"4","last_reported":1723298820,"current_range_meters":8800,"station_id":"","pricing_plan_id":"cebpf4jnsgd1na2vs0mg"},{"bike_id":"8c4c7069-7461-4c2f-91f0-3117dc781dc5","system_id":"levelo_inurba_marseille","lat":43.287172,"lon":5.37937,"is_reserved":false,"is_disabled":false,"rental_uris":{"android":"levelo://app?vid=8c4c7069-7461-4c2f-91f0-3117dc781dc5","ios":"levelo://app?vid=8c4c7069-7461-4c2f-91f0-3117dc781dc5"},"vehicle_type_id":"4","last_reported":1723298820,"current_range_meters":11600,"station_id":"ce4bh9p2rcd13ifvqec0","pricing_plan_id":"cebpf4jnsgd1na2vs0mg"},{"bike_id":"4ee80833-8ab3-46d7-9f75-8948391c644c","system_id":"levelo_inurba_marseille","lat":43.316976,"lon":5.404691,"is_reserved":false,"is_disabled":false,"rental_uris":{"android":"levelo://app?vid=4ee80833-8ab3-46d7-9f75-8948391c644c","ios":"levelo://app?vid=4ee80833-8ab3-46d7-9f75-8948391c644c"},"vehicle_type_id":"4","last_reported":1723298820,"current_range_meters":13200,"station_id":"ce4bh012rcd13ifvqd00","pricing_plan_id":"cebpf4jnsgd1na2vs0mg"},{"bike_id":"1779375e-2ad5-415a-a7d2-a080a6c0a665","system_id":"levelo_inurba_marseille","lat":43.316977,"lon":5.40472,"is_reserved":false,"is_disabled":false,"rental_uris":{"android":"levelo://app?vid=1779375e-2ad5-415a-a7d2-a080a6c0a665","ios":"levelo://app?vid=1779375e-2ad5-415a-a7d2-a080a6c0a665"},"vehicle_type_id":"4","last_reported":1723298820,"current_range_meters":1600,"station_id":"ce4bh012rcd13ifvqd00","pricing_plan_id":"cebpf4jnsgd1na2vs0mg"},{"bike_id":"a41d2543-ed1d-4915-aed6-22e3b258e5e9","system_id":"levelo_inurba_marseille","lat":43.316821,"lon":5.404737,"is_reserved":false,"is_disabled":false,"rental_uris":{"android":"levelo://app?vid=a41d2543-ed1d-4915-aed6-22e3b258e5e9","ios":"levelo://app?vid=a41d2543-ed1d-4915-aed6-22e3b258e5e9"},"vehicle_type_id":"4","last_reported":1723298820,"current_range_meters":22000,"station_id":"ce4bh012rcd13ifvqd00","pricing_plan_id":"cebpf4jnsgd1na2vs0mg"},{"bike_id":"9a8aa71e-71c8-4a26-8b70-fa3e64cef709","system_id":"levelo_inurba_marseille","lat":43.316821,"lon":5.404737,"is_reserved":false,"is_disabled":false,"rental_uris":{"android":"levelo://app?vid=9a8aa71e-71c8-4a26-8b70-fa3e64cef709","ios":"levelo://app?vid=9a8aa71e-71c8-4a26-8b70-fa3e64cef709"},"vehicle_type_id":"4","last_reported":1723298820,"current_range_meters":2000,"station_id":"ce4bh012rcd13ifvqd00","pricing_plan_id":"cebpf4jnsgd1na2vs0mg"},{"bike_id":"435b4cd5-b676-45bc-91de-693d752d8260","system_id":"levelo_inurba_marseille","lat":43.291994,"lon":5.392907,"is_reserved":false,"is_disabled":false,"rental_uris":{"android":"levelo://app?vid=435b4cd5-b676-45bc-91de-693d752d8260","ios":"levelo://app?vid=435b4cd5-b676-45bc-91de-693d752d8260"},"vehicle_type_id":"4","last_reported":1723298820,"current_range_meters":8000,"station_id":"ce4bh192rcd13ifvqdd0","pricing_plan_id":"cebpf4jnsgd1na2vs0mg"},{"bike_id":"52defbc0-e137-48af-a1be-c991ac280043","system_id":"levelo_inurba_marseille","lat":43.291994,"lon":5.392907,"is_reserved":false,"is_disabled":false,"rental_uris":{"android":"levelo://app?vid=52defbc0-e137-48af-a1be-c991ac280043","ios":"levelo://app?vid=52defbc0-e137-48af-a1be-c991ac280043"},"vehicle_type_id":"4","last_reported":1723298820,"current_range_meters":3200,"station_id":"ce4bh192rcd13ifvqdd0","pricing_plan_id":"cebpf4jnsgd1na2vs0mg"},{"bike_id":"f6c41289-d059-4853-9bf5-48a5565de5b8","system_id":"levelo_inurba_marseille","lat":43.29747,"lon":5.40033,"is_reserved":false,"is_disabled":false,"rental_uris":{"android":"levelo://app?vid=f6c41289-d059-4853-9bf5-48a5565de5b8","ios":"levelo://app?vid=f6c41289-d059-4853-9bf5-48a5565de5b8"},"vehicle_type_id":"4","last_reported":1723298820,"current_range_meters":2400,"station_id":"","pricing_plan_id":"cebpf4jnsgd1na2vs0mg"},{"bike_id":"a8387467-6771-4b7a-8243-392e1e0d829a","system_id":"levelo_inurba_marseille","lat":43.2862,"lon":5.35107,"is_reserved":false,"is_disabled":false,"rental_uris":{"android":"levelo://app?vid=a8387467-6771-4b7a-8243-392e1e0d829a","ios":"levelo://app?vid=a8387467-6771-4b7a-8243-392e1e0d829a"},"vehicle_type_id":"4","last_reported":1723298820,"current_range_meters":25600,"station_id":"ce4bhch2rcd13ifvqeug","pricing_plan_id":"cebpf4jnsgd1na2vs0mg"},{"bike_id":"feebbb6d-688a-4b4d-9770-f220e711fdeb","system_id":"levelo_inurba_marseille","lat":43.2862,"lon":5.35107,"is_reserved":false,"is_disabled":false,"rental_uris":{"android":"levelo://app?vid=feebbb6d-688a-4b4d-9770-f220e711fdeb","ios":"levelo://app?vid=feebbb6d-688a-4b4d-9770-f220e711fdeb"},"vehicle_type_id":"4","last_reported":1723298820,"current_range_meters":26800,"station_id":"ce4bhch2rcd13ifvqeug","pricing_plan_id":"cebpf4jnsgd1na2vs0mg"},{"bike_id":"75a8431b-529c-494f-8805-5415a51ee87c","system_id":"levelo_inurba_marseille","lat":43.28619,"lon":5.35107,"is_reserved":false,"is_disabled":false,"rental_uris":{"android":"levelo://app?vid=75a8431b-529c-494f-8805-5415a51ee87c","ios":"levelo://app?vid=75a8431b-529c-494f-8805-5415a51ee87c"},"vehicle_type_id":"4","last_reported":1723298820,"current_range_meters":31200,"station_id":"ce4bhch2rcd13ifvqeug","pricing_plan_id":"cebpf4jnsgd1na2vs0mg"},{"bike_id":"7125ff3e-df02-4c13-be84-a62bfa76a6fb","system_id":"levelo_inurba_marseille","lat":43.2862,"lon":5.35103,"is_reserved":false,"is_disabled":false,"rental_uris":{"android":"levelo://app?vid=7125ff3e-df02-4c13-be84-a62bfa76a6fb","ios":"levelo://app?vid=7125ff3e-df02-4c13-be84-a62bfa76a6fb"},"vehicle_type_id":"4","last_reported":1723298820,"current_range_meters":20800,"station_id":"ce4bhch2rcd13ifvqeug","pricing_plan_id":"cebpf4jnsgd1na2vs0mg"},{"bike_id":"c73ed3b5-daf0-485d-ab1e-9def94a2c4dd","system_id":"levelo_inurba_marseille","lat":43.285856,"lon":5.350771,"is_reserved":false,"is_disabled":false,"rental_uris":{"android":"levelo://app?vid=c73ed3b5-daf0-485d-ab1e-9def94a2c4dd","ios":"levelo://app?vid=c73ed3b5-daf0-485d-ab1e-9def94a2c4dd"},"vehicle_type_id":"4","last_reported":1723298820,"current_range_meters":9600,"station_id":"ce4bhch2rcd13ifvqeug","pricing_plan_id":"cebpf4jnsgd1na2vs0mg"},{"bike_id":"de9b26d7-c552-42b3-aa17-a9f897eea18a","system_id":"levelo_inurba_marseille","lat":43.28619,"lon":5.35105,"is_reserved":false,"is_disabled":false,"rental_uris":{"android":"levelo://app?vid=de9b26d7-c552-42b3-aa17-a9f897eea18a","ios":"levelo://app?vid=de9b26d7-c552-42b3-aa17-a9f897eea18a"},"vehicle_type_id":"4","last_reported":1723298820,"current_range_meters":12800,"station_id":"ce4bhch2rcd13ifvqeug","pricing_plan_id":"cebpf4jnsgd1na2vs0mg"},{"bike_id":"93a1843a-6e7a-4124-8fd8-e41e287cea12","system_id":"levelo_inurba_marseille","lat":43.28619,"lon":5.35102,"is_reserved":false,"is_disabled":false,"rental_uris":{"android":"levelo://app?vid=93a1843a-6e7a-4124-8fd8-e41e287cea12","ios":"levelo://app?vid=93a1843a-6e7a-4124-8fd8-e41e287cea12"},"vehicle_type_id":"4","last_reported":1723298820,"current_range_meters":0,"station_id":"ce4bhch2rcd13ifvqeug","pricing_plan_id":"cebpf4jnsgd1na2vs0mg"},{"bike_id":"1d33bdf9-8c4c-45de-84fd-8f6498b073f8","system_id":"levelo_inurba_marseille","lat":43.28616,"lon":5.35111,"is_reserved":false,"is_disabled":false,"rental_uris":{"android":"levelo://app?vid=1d33bdf9-8c4c-45de-84fd-8f6498b073f8","ios":"levelo://app?vid=1d33bdf9-8c4c-45de-84fd-8f6498b073f8"},"vehicle_type_id":"4","last_reported":1723298820,"current_range_meters":16000,"station_id":"ce4bhch2rcd13ifvqeug","pricing_plan_id":"cebpf4jnsgd1na2vs0mg"},{"bike_id":"2e47abf3-c3fc-452e-9719-3e56a19fb94a","system_id":"levelo_inurba_marseille","lat":43.28618,"lon":5.35104,"is_reserved":false,"is_disabled":false,"rental_uris":{"android":"levelo://app?vid=2e47abf3-c3fc-452e-9719-3e56a19fb94a","ios":"levelo://app?vid=2e47abf3-c3fc-452e-9719-3e56a19fb94a"},"vehicle_type_id":"4","last_reported":1723298820,"current_range_meters":13600,"station_id":"ce4bhch2rcd13ifvqeug","pricing_plan_id":"cebpf4jnsgd1na2vs0mg"},{"bike_id":"dde49fa1-61f5-4fee-8beb-7d1b88f3564c","system_id":"levelo_inurba_marseille","lat":43.285856,"lon":5.350771,"is_reserved":false,"is_disabled":false,"rental_uris":{"android":"levelo://app?vid=dde49fa1-61f5-4fee-8beb-7d1b88f3564c","ios":"levelo://app?vid=dde49fa1-61f5-4fee-8beb-7d1b88f3564c"},"vehicle_type_id":"4","last_reported":1723298820,"current_range_meters":12400,"station_id":"ce4bhch2rcd13ifvqeug","pricing_plan_id":"cebpf4jnsgd1na2vs0mg"},{"bike_id":"34b1107e-5669-432a-913e-913e02d67ce1","system_id":"levelo_inurba_marseille","lat":43.285856,"lon":5.350771,"is_reserved":false,"is_disabled":false,"rental_uris":{"android":"levelo://app?vid=34b1107e-5669-432a-913e-913e02d67ce1","ios":"levelo://app?vid=34b1107e-5669-432a-913e-913e02d67ce1"},"vehicle_type_id":"4","last_reported":1723298820,"current_range_meters":26000,"station_id":"ce4bhch2rcd13ifvqeug","pricing_plan_id":"cebpf4jnsgd1na2vs0mg"},{"bike_id":"f2e0c0b0-76df-41b6-869f-19818d37ba62","system_id":"levelo_inurba_marseille","lat":43.28617,"lon":5.35104,"is_reserved":false,"is_disabled":false,"rental_uris":{"android":"levelo://app?vid=f2e0c0b0-76df-41b6-869f-19818d37ba62","ios":"levelo://app?vid=f2e0c0b0-76df-41b6-869f-19818d37ba62"},"vehicle_type_id":"4","last_reported":1723298820,"current_range_meters":30800,"station_id":"ce4bhch2rcd13ifvqeug","pricing_plan_id":"cebpf4jnsgd1na2vs0mg"},{"bike_id":"b9515f51-50ad-4cb2-a5f0-077d05f48396","system_id":"levelo_inurba_marseille","lat":43.285856,"lon":5.350771,"is_reserved":false,"is_disabled":false,"rental_uris":{"android":"levelo://app?vid=b9515f51-50ad-4cb2-a5f0-077d05f48396","ios":"levelo://app?vid=b9515f51-50ad-4cb2-a5f0-077d05f48396"},"vehicle_type_id":"4","last_reported":1723298820,"current_range_meters":18400,"station_id":"ce4bhch2rcd13ifvqeug","pricing_plan_id":"cebpf4jnsgd1na2vs0mg"},{"bike_id":"80f1bc47-87fe-4fbd-82f8-735d4bc5acf1","system_id":"levelo_inurba_marseille","lat":43.285856,"lon":5.350771,"is_reserved":false,"is_disabled":false,"rental_uris":{"android":"levelo://app?vid=80f1bc47-87fe-4fbd-82f8-735d4bc5acf1","ios":"levelo://app?vid=80f1bc47-87fe-4fbd-82f8-735d4bc5acf1"},"vehicle_type_id":"4","last_reported":1723298820,"current_range_meters":7600,"station_id":"ce4bhch2rcd13ifvqeug","pricing_plan_id":"cebpf4jnsgd1na2vs0mg"},{"bike_id":"f2d27c09-4dfb-45e5-bde6-e6e98851255a","system_id":"levelo_inurba_marseille","lat":43.28615,"lon":5.35103,"is_reserved":false,"is_disabled":false,"rental_uris":{"android":"levelo://app?vid=f2d27c09-4dfb-45e5-bde6-e6e98851255a","ios":"levelo://app?vid=f2d27c09-4dfb-45e5-bde6-e6e98851255a"},"vehicle_type_id":"4","last_reported":1723298820,"current_range_meters":31200,"station_id":"ce4bhch2rcd13ifvqeug","pricing_plan_id":"cebpf4jnsgd1na2vs0mg"},{"bike_id":"3d57efd1-2bc3-45da-ad8c-eb5ac7adc42b","system_id":"levelo_inurba_marseille","lat":43.285856,"lon":5.350771,"is_reserved":false,"is_disabled":false,"rental_uris":{"android":"levelo://app?vid=3d57efd1-2bc3-45da-ad8c-eb5ac7adc42b","ios":"levelo://app?vid=3d57efd1-2bc3-45da-ad8c-eb5ac7adc42b"},"vehicle_type_id":"4","last_reported":1723298820,"current_range_meters":27200,"station_id":"ce4bhch2rcd13ifvqeug","pricing_plan_id":"cebpf4jnsgd1na2vs0mg"},{"bike_id":"eb82c363-5a30-4110-a673-4d526b4fe77e","system_id":"levelo_inurba_marseille","lat":43.285856,"lon":5.350771,"is_reserved":false,"is_disabled":false,"rental_uris":{"android":"levelo://app?vid=eb82c363-5a30-4110-a673-4d526b4fe77e","ios":"levelo://app?vid=eb82c363-5a30-4110-a673-4d526b4fe77e"},"vehicle_type_id":"4","last_reported":1723298820,"current_range_meters":15200,"station_id":"ce4bhch2rcd13ifvqeug","pricing_plan_id":"cebpf4jnsgd1na2vs0mg"},{"bike_id":"65c596bb-6b93-4853-bcf1-7cd8a4f58725","system_id":"levelo_inurba_marseille","lat":43.28612,"lon":5.35104,"is_reserved":false,"is_disabled":false,"rental_uris":{"android":"levelo://app?vid=65c596bb-6b93-4853-bcf1-7cd8a4f58725","ios":"levelo://app?vid=65c596bb-6b93-4853-bcf1-7cd8a4f58725"},"vehicle_type_id":"4","last_reported":1723298820,"current_range_meters":17600,"station_id":"ce4bhch2rcd13ifvqeug","pricing_plan_id":"cebpf4jnsgd1na2vs0mg"},{"bike_id":"3774dc72-23fa-448d-a189-d3930b2c605c","system_id":"levelo_inurba_marseille","lat":43.285856,"lon":5.350771,"is_reserved":false,"is_disabled":false,"rental_uris":{"android":"levelo://app?vid=3774dc72-23fa-448d-a189-d3930b2c605c","ios":"levelo://app?vid=3774dc72-23fa-448d-a189-d3930b2c605c"},"vehicle_type_id":"4","last_reported":1723298820,"current_range_meters":15600,"station_id":"ce4bhch2rcd13ifvqeug","pricing_plan_id":"cebpf4jnsgd1na2vs0mg"},{"bike_id":"c50a0ba9-be2b-4ed7-960d-c4d68eac4adb","system_id":"levelo_inurba_marseille","lat":43.28613,"lon":5.35096,"is_reserved":false,"is_disabled":false,"rental_uris":{"android":"levelo://app?vid=c50a0ba9-be2b-4ed7-960d-c4d68eac4adb","ios":"levelo://app?vid=c50a0ba9-be2b-4ed7-960d-c4d68eac4adb"},"vehicle_type_id":"4","last_reported":1723298820,"current_range_meters":31200,"station_id":"ce4bhch2rcd13ifvqeug","pricing_plan_id":"cebpf4jnsgd1na2vs0mg"},{"bike_id":"12a88b45-79ef-4531-98b0-0adfee2dc9ed","system_id":"levelo_inurba_marseille","lat":43.285856,"lon":5.350771,"is_reserved":false,"is_disabled":false,"rental_uris":{"android":"levelo://app?vid=12a88b45-79ef-4531-98b0-0adfee2dc9ed","ios":"levelo://app?vid=12a88b45-79ef-4531-98b0-0adfee2dc9ed"},"vehicle_type_id":"4","last_reported":1723298820,"current_range_meters":2000,"station_id":"ce4bhch2rcd13ifvqeug","pricing_plan_id":"cebpf4jnsgd1na2vs0mg"},{"bike_id":"5679bd13-4cf7-4d28-b518-ec3268d09d9e","system_id":"levelo_inurba_marseille","lat":43.33868,"lon":5.38556,"is_reserved":false,"is_disabled":false,"rental_uris":{"android":"levelo://app?vid=5679bd13-4cf7-4d28-b518-ec3268d09d9e","ios":"levelo://app?vid=5679bd13-4cf7-4d28-b518-ec3268d09d9e"},"vehicle_type_id":"4","last_reported":1723298820,"current_range_meters":0,"station_id":"","pricing_plan_id":"cebpf4jnsgd1na2vs0mg"},{"bike_id":"a168b218-6722-492e-b530-642b05bf35d5","system_id":"levelo_inurba_marseille","lat":43.319179,"lon":5.407725,"is_reserved":false,"is_disabled":false,"rental_uris":{"android":"levelo://app?vid=a168b218-6722-492e-b530-642b05bf35d5","ios":"levelo://app?vid=a168b218-6722-492e-b530-642b05bf35d5"},"vehicle_type_id":"4","last_reported":1723298820,"current_range_meters":31600,"station_id":"ce4bhq12rcd13ifvqhig","pricing_plan_id":"cebpf4jnsgd1na2vs0mg"},{"bike_id":"3ffc75b2-2f54-4f54-a4d5-2149d7a907a4","system_id":"levelo_inurba_marseille","lat":43.319179,"lon":5.407725,"is_reserved":false,"is_disabled":false,"rental_uris":{"android":"levelo://app?vid=3ffc75b2-2f54-4f54-a4d5-2149d7a907a4","ios":"levelo://app?vid=3ffc75b2-2f54-4f54-a4d5-2149d7a907a4"},"vehicle_type_id":"4","last_reported":1723298820,"current_range_meters":26400,"station_id":"ce4bhq12rcd13ifvqhig","pricing_plan_id":"cebpf4jnsgd1na2vs0mg"},{"bike_id":"13a4a2ab-7d60-4bd2-9508-e924f57f68f5","system_id":"levelo_inurba_marseille","lat":43.284793,"lon":5.384119,"is_reserved":false,"is_disabled":false,"rental_uris":{"android":"levelo://app?vid=13a4a2ab-7d60-4bd2-9508-e924f57f68f5","ios":"levelo://app?vid=13a4a2ab-7d60-4bd2-9508-e924f57f68f5"},"vehicle_type_id":"4","last_reported":1723298820,"current_range_meters":15200,"station_id":"ce4bh512rcd13ifvqe3g","pricing_plan_id":"cebpf4jnsgd1na2vs0mg"},{"bike_id":"e6fc101e-4a30-4691-936c-d503a5c83f2d","system_id":"levelo_inurba_marseille","lat":43.284793,"lon":5.384113,"is_reserved":false,"is_disabled":false,"rental_uris":{"android":"levelo://app?vid=e6fc101e-4a30-4691-936c-d503a5c83f2d","ios":"levelo://app?vid=e6fc101e-4a30-4691-936c-d503a5c83f2d"},"vehicle_type_id":"4","last_reported":1723298820,"current_range_meters":30000,"station_id":"ce4bh512rcd13ifvqe3g","pricing_plan_id":"cebpf4jnsgd1na2vs0mg"},{"bike_id":"426dd76b-f62c-48b8-a65e-85f570f947a0","system_id":"levelo_inurba_marseille","lat":43.288501,"lon":5.393087,"is_reserved":false,"is_disabled":false,"rental_uris":{"android":"levelo://app?vid=426dd76b-f62c-48b8-a65e-85f570f947a0","ios":"levelo://app?vid=426dd76b-f62c-48b8-a65e-85f570f947a0"},"vehicle_type_id":"4","last_reported":1723298820,"current_range_meters":6400,"station_id":"ce4bh2p2rcd13ifvqdi0","pricing_plan_id":"cebpf4jnsgd1na2vs0mg"},{"bike_id":"9b3889e2-baec-4bd7-af43-696dbd92104a","system_id":"levelo_inurba_marseille","lat":43.284787,"lon":5.384116,"is_reserved":false,"is_disabled":false,"rental_uris":{"android":"levelo://app?vid=9b3889e2-baec-4bd7-af43-696dbd92104a","ios":"levelo://app?vid=9b3889e2-baec-4bd7-af43-696dbd92104a"},"vehicle_type_id":"4","last_reported":1723298820,"current_range_meters":1200,"station_id":"ce4bh512rcd13ifvqe3g","pricing_plan_id":"cebpf4jnsgd1na2vs0mg"},{"bike_id":"2ec247cb-1cc9-4b60-906a-9fdae87d624c","system_id":"levelo_inurba_marseille","lat":43.283494,"lon":5.380945,"is_reserved":false,"is_disabled":false,"rental_uris":{"android":"levelo://app?vid=2ec247cb-1cc9-4b60-906a-9fdae87d624c","ios":"levelo://app?vid=2ec247cb-1cc9-4b60-906a-9fdae87d624c"},"vehicle_type_id":"4","last_reported":1723298820,"current_range_meters":29600,"station_id":"ce4bh412rcd13ifvqdr0","pricing_plan_id":"cebpf4jnsgd1na2vs0mg"},{"bike_id":"09a338e7-baf7-4469-9a95-afd27cf838ac","system_id":"levelo_inurba_marseille","lat":43.28431,"lon":5.34989,"is_reserved":false,"is_disabled":false,"rental_uris":{"android":"levelo://app?vid=09a338e7-baf7-4469-9a95-afd27cf838ac","ios":"levelo://app?vid=09a338e7-baf7-4469-9a95-afd27cf838ac"},"vehicle_type_id":"4","last_reported":1723298820,"current_range_meters":31200,"station_id":"ce4bhbh2rcd13ifvqepg","pricing_plan_id":"cebpf4jnsgd1na2vs0mg"},{"bike_id":"6ab6eaf2-2974-463c-93e9-21babde2a56f","system_id":"levelo_inurba_marseille","lat":43.284214,"lon":5.349706,"is_reserved":false,"is_disabled":false,"rental_uris":{"android":"levelo://app?vid=6ab6eaf2-2974-463c-93e9-21babde2a56f","ios":"levelo://app?vid=6ab6eaf2-2974-463c-93e9-21babde2a56f"},"vehicle_type_id":"4","last_reported":1723298820,"current_range_meters":30800,"station_id":"ce4bhbh2rcd13ifvqepg","pricing_plan_id":"cebpf4jnsgd1na2vs0mg"},{"bike_id":"85fe16ec-c1c6-49ea-abe0-f95970403e97","system_id":"levelo_inurba_marseille","lat":43.284214,"lon":5.349706,"is_reserved":false,"is_disabled":false,"rental_uris":{"android":"levelo://app?vid=85fe16ec-c1c6-49ea-abe0-f95970403e97","ios":"levelo://app?vid=85fe16ec-c1c6-49ea-abe0-f95970403e97"},"vehicle_type_id":"4","last_reported":1723298820,"current_range_meters":20400,"station_id":"ce4bhbh2rcd13ifvqepg","pricing_plan_id":"cebpf4jnsgd1na2vs0mg"},{"bike_id":"05618a5e-2be4-4b47-9281-8c1b242ff632","system_id":"levelo_inurba_marseille","lat":43.284219,"lon":5.3497,"is_reserved":false,"is_disabled":false,"rental_uris":{"android":"levelo://app?vid=05618a5e-2be4-4b47-9281-8c1b242ff632","ios":"levelo://app?vid=05618a5e-2be4-4b47-9281-8c1b242ff632"},"vehicle_type_id":"4","last_reported":1723298820,"current_range_meters":32000,"station_id":"ce4bhbh2rcd13ifvqepg","pricing_plan_id":"cebpf4jnsgd1na2vs0mg"},{"bike_id":"0647766e-56f1-430c-b3f8-a5e5ed8933d1","system_id":"levelo_inurba_marseille","lat":43.283494,"lon":5.380945,"is_reserved":false,"is_disabled":false,"rental_uris":{"android":"levelo://app?vid=0647766e-56f1-430c-b3f8-a5e5ed8933d1","ios":"levelo://app?vid=0647766e-56f1-430c-b3f8-a5e5ed8933d1"},"vehicle_type_id":"4","last_reported":1723298820,"current_range_meters":0,"station_id":"ce4bh412rcd13ifvqdr0","pricing_plan_id":"cebpf4jnsgd1na2vs0mg"},{"bike_id":"d5e40d94-f779-4ba6-a4b4-c5d581b58ad8","system_id":"levelo_inurba_marseille","lat":43.284219,"lon":5.3497,"is_reserved":false,"is_disabled":false,"rental_uris":{"android":"levelo://app?vid=d5e40d94-f779-4ba6-a4b4-c5d581b58ad8","ios":"levelo://app?vid=d5e40d94-f779-4ba6-a4b4-c5d581b58ad8"},"vehicle_type_id":"4","last_reported":1723298820,"current_range_meters":11200,"station_id":"ce4bhbh2rcd13ifvqepg","pricing_plan_id":"cebpf4jnsgd1na2vs0mg"},{"bike_id":"0b698ef8-8b20-4c6a-941f-fdb2d9acee29","system_id":"levelo_inurba_marseille","lat":43.284219,"lon":5.3497,"is_reserved":false,"is_disabled":false,"rental_uris":{"android":"levelo://app?vid=0b698ef8-8b20-4c6a-941f-fdb2d9acee29","ios":"levelo://app?vid=0b698ef8-8b20-4c6a-941f-fdb2d9acee29"},"vehicle_type_id":"4","last_reported":1723298820,"current_range_meters":28800,"station_id":"ce4bhbh2rcd13ifvqepg","pricing_plan_id":"cebpf4jnsgd1na2vs0mg"},{"bike_id":"53547d30-ab91-4ec5-976c-8c5798a45876","system_id":"levelo_inurba_marseille","lat":43.284243,"lon":5.349927,"is_reserved":false,"is_disabled":false,"rental_uris":{"android":"levelo://app?vid=53547d30-ab91-4ec5-976c-8c5798a45876","ios":"levelo://app?vid=53547d30-ab91-4ec5-976c-8c5798a45876"},"vehicle_type_id":"4","last_reported":1723298820,"current_range_meters":19600,"station_id":"ce4bhbh2rcd13ifvqepg","pricing_plan_id":"cebpf4jnsgd1na2vs0mg"},{"bike_id":"88b64060-9cc5-40a2-839e-2c77dadf46b6","system_id":"levelo_inurba_marseille","lat":43.284219,"lon":5.3497,"is_reserved":false,"is_disabled":false,"rental_uris":{"android":"levelo://app?vid=88b64060-9cc5-40a2-839e-2c77dadf46b6","ios":"levelo://app?vid=88b64060-9cc5-40a2-839e-2c77dadf46b6"},"vehicle_type_id":"4","last_reported":1723298820,"current_range_meters":14800,"station_id":"ce4bhbh2rcd13ifvqepg","pricing_plan_id":"cebpf4jnsgd1na2vs0mg"},{"bike_id":"ca3919b6-8230-4931-a04b-ed3eb6294667","system_id":"levelo_inurba_marseille","lat":43.284219,"lon":5.3497,"is_reserved":false,"is_disabled":false,"rental_uris":{"android":"levelo://app?vid=ca3919b6-8230-4931-a04b-ed3eb6294667","ios":"levelo://app?vid=ca3919b6-8230-4931-a04b-ed3eb6294667"},"vehicle_type_id":"4","last_reported":1723298820,"current_range_meters":5200,"station_id":"ce4bhbh2rcd13ifvqepg","pricing_plan_id":"cebpf4jnsgd1na2vs0mg"},{"bike_id":"bd0c53cf-3e6c-408c-8553-9c108894324d","system_id":"levelo_inurba_marseille","lat":43.284219,"lon":5.3497,"is_reserved":false,"is_disabled":false,"rental_uris":{"android":"levelo://app?vid=bd0c53cf-3e6c-408c-8553-9c108894324d","ios":"levelo://app?vid=bd0c53cf-3e6c-408c-8553-9c108894324d"},"vehicle_type_id":"4","last_reported":1723298820,"current_range_meters":7200,"station_id":"ce4bhbh2rcd13ifvqepg","pricing_plan_id":"cebpf4jnsgd1na2vs0mg"},{"bike_id":"9cf8f4fc-622a-4f54-8a8f-6979ba68c1f5","system_id":"levelo_inurba_marseille","lat":43.28422,"lon":5.34994,"is_reserved":false,"is_disabled":false,"rental_uris":{"android":"levelo://app?vid=9cf8f4fc-622a-4f54-8a8f-6979ba68c1f5","ios":"levelo://app?vid=9cf8f4fc-622a-4f54-8a8f-6979ba68c1f5"},"vehicle_type_id":"4","last_reported":1723298820,"current_range_meters":4400,"station_id":"ce4bhbh2rcd13ifvqepg","pricing_plan_id":"cebpf4jnsgd1na2vs0mg"},{"bike_id":"0663db05-00cf-4838-9915-19074f201c5a","system_id":"levelo_inurba_marseille","lat":43.28424,"lon":5.34987,"is_reserved":false,"is_disabled":false,"rental_uris":{"android":"levelo://app?vid=0663db05-00cf-4838-9915-19074f201c5a","ios":"levelo://app?vid=0663db05-00cf-4838-9915-19074f201c5a"},"vehicle_type_id":"4","last_reported":1723298820,"current_range_meters":19600,"station_id":"ce4bhbh2rcd13ifvqepg","pricing_plan_id":"cebpf4jnsgd1na2vs0mg"},{"bike_id":"964e4e5b-1da1-4211-83f3-782214c3a53a","system_id":"levelo_inurba_marseille","lat":43.284214,"lon":5.349706,"is_reserved":false,"is_disabled":false,"rental_uris":{"android":"levelo://app?vid=964e4e5b-1da1-4211-83f3-782214c3a53a","ios":"levelo://app?vid=964e4e5b-1da1-4211-83f3-782214c3a53a"},"vehicle_type_id":"4","last_reported":1723298820,"current_range_meters":31200,"station_id":"ce4bhbh2rcd13ifvqepg","pricing_plan_id":"cebpf4jnsgd1na2vs0mg"},{"bike_id":"7208e47c-dd3b-4b36-8cc7-7572baf337ff","system_id":"levelo_inurba_marseille","lat":43.284219,"lon":5.3497,"is_reserved":false,"is_disabled":false,"rental_uris":{"android":"levelo://app?vid=7208e47c-dd3b-4b36-8cc7-7572baf337ff","ios":"levelo://app?vid=7208e47c-dd3b-4b36-8cc7-7572baf337ff"},"vehicle_type_id":"4","last_reported":1723298820,"current_range_meters":20800,"station_id":"ce4bhbh2rcd13ifvqepg","pricing_plan_id":"cebpf4jnsgd1na2vs0mg"},{"bike_id":"99f96903-d169-4279-b8cd-0208b048f932","system_id":"levelo_inurba_marseille","lat":43.28421,"lon":5.34994,"is_reserved":false,"is_disabled":false,"rental_uris":{"android":"levelo://app?vid=99f96903-d169-4279-b8cd-0208b048f932","ios":"levelo://app?vid=99f96903-d169-4279-b8cd-0208b048f932"},"vehicle_type_id":"4","last_reported":1723298820,"current_range_meters":4000,"station_id":"ce4bhbh2rcd13ifvqepg","pricing_plan_id":"cebpf4jnsgd1na2vs0mg"},{"bike_id":"e6d0597f-910b-48e4-ace2-f0977b1ffe0b","system_id":"levelo_inurba_marseille","lat":43.28421,"lon":5.34993,"is_reserved":false,"is_disabled":false,"rental_uris":{"android":"levelo://app?vid=e6d0597f-910b-48e4-ace2-f0977b1ffe0b","ios":"levelo://app?vid=e6d0597f-910b-48e4-ace2-f0977b1ffe0b"},"vehicle_type_id":"4","last_reported":1723298820,"current_range_meters":18000,"station_id":"ce4bhbh2rcd13ifvqepg","pricing_plan_id":"cebpf4jnsgd1na2vs0mg"},{"bike_id":"ac1baf67-f49c-4434-a0d0-04cde0068ff3","system_id":"levelo_inurba_marseille","lat":43.2842,"lon":5.34996,"is_reserved":false,"is_disabled":false,"rental_uris":{"android":"levelo://app?vid=ac1baf67-f49c-4434-a0d0-04cde0068ff3","ios":"levelo://app?vid=ac1baf67-f49c-4434-a0d0-04cde0068ff3"},"vehicle_type_id":"4","last_reported":1723298820,"current_range_meters":20000,"station_id":"ce4bhbh2rcd13ifvqepg","pricing_plan_id":"cebpf4jnsgd1na2vs0mg"},{"bike_id":"0adfd043-b0cf-4797-baf0-dd919a96a988","system_id":"levelo_inurba_marseille","lat":43.28421,"lon":5.34991,"is_reserved":false,"is_disabled":false,"rental_uris":{"android":"levelo://app?vid=0adfd043-b0cf-4797-baf0-dd919a96a988","ios":"levelo://app?vid=0adfd043-b0cf-4797-baf0-dd919a96a988"},"vehicle_type_id":"4","last_reported":1723298820,"current_range_meters":11600,"station_id":"ce4bhbh2rcd13ifvqepg","pricing_plan_id":"cebpf4jnsgd1na2vs0mg"},{"bike_id":"a79e7724-f765-43d9-bdee-fd81e5cec099","system_id":"levelo_inurba_marseille","lat":43.28422,"lon":5.349875,"is_reserved":false,"is_disabled":false,"rental_uris":{"android":"levelo://app?vid=a79e7724-f765-43d9-bdee-fd81e5cec099","ios":"levelo://app?vid=a79e7724-f765-43d9-bdee-fd81e5cec099"},"vehicle_type_id":"4","last_reported":1723298820,"current_range_meters":21200,"station_id":"ce4bhbh2rcd13ifvqepg","pricing_plan_id":"cebpf4jnsgd1na2vs0mg"},{"bike_id":"53b53885-654a-40e5-b686-fd4b7f702e95","system_id":"levelo_inurba_marseille","lat":43.2842,"lon":5.34993,"is_reserved":false,"is_disabled":false,"rental_uris":{"android":"levelo://app?vid=53b53885-654a-40e5-b686-fd4b7f702e95","ios":"levelo://app?vid=53b53885-654a-40e5-b686-fd4b7f702e95"},"vehicle_type_id":"4","last_reported":1723298820,"current_range_meters":3200,"station_id":"ce4bhbh2rcd13ifvqepg","pricing_plan_id":"cebpf4jnsgd1na2vs0mg"},{"bike_id":"8a9ad078-435d-4a3f-b395-01c5ccc32399","system_id":"levelo_inurba_marseille","lat":43.28424,"lon":5.34979,"is_reserved":false,"is_disabled":false,"rental_uris":{"android":"levelo://app?vid=8a9ad078-435d-4a3f-b395-01c5ccc32399","ios":"levelo://app?vid=8a9ad078-435d-4a3f-b395-01c5ccc32399"},"vehicle_type_id":"4","last_reported":1723298820,"current_range_meters":18400,"station_id":"ce4bhbh2rcd13ifvqepg","pricing_plan_id":"cebpf4jnsgd1na2vs0mg"},{"bike_id":"166bd757-74cf-4cdb-9c93-b42cd8d306eb","system_id":"levelo_inurba_marseille","lat":43.28425,"lon":5.34974,"is_reserved":false,"is_disabled":false,"rental_uris":{"android":"levelo://app?vid=166bd757-74cf-4cdb-9c93-b42cd8d306eb","ios":"levelo://app?vid=166bd757-74cf-4cdb-9c93-b42cd8d306eb"},"vehicle_type_id":"4","last_reported":1723298820,"current_range_meters":7200,"station_id":"ce4bhbh2rcd13ifvqepg","pricing_plan_id":"cebpf4jnsgd1na2vs0mg"},{"bike_id":"2bbfae0d-520a-46f1-b213-0a1d8cbb97b4","system_id":"levelo_inurba_marseille","lat":43.284219,"lon":5.3497,"is_reserved":false,"is_disabled":false,"rental_uris":{"android":"levelo://app?vid=2bbfae0d-520a-46f1-b213-0a1d8cbb97b4","ios":"levelo://app?vid=2bbfae0d-520a-46f1-b213-0a1d8cbb97b4"},"vehicle_type_id":"4","last_reported":1723298820,"current_range_meters":5200,"station_id":"ce4bhbh2rcd13ifvqepg","pricing_plan_id":"cebpf4jnsgd1na2vs0mg"},{"bike_id":"5d6a30ce-1087-4b7d-84e5-78a201b1c527","system_id":"levelo_inurba_marseille","lat":43.28422,"lon":5.34982,"is_reserved":false,"is_disabled":false,"rental_uris":{"android":"levelo://app?vid=5d6a30ce-1087-4b7d-84e5-78a201b1c527","ios":"levelo://app?vid=5d6a30ce-1087-4b7d-84e5-78a201b1c527"},"vehicle_type_id":"4","last_reported":1723298820,"current_range_meters":16000,"station_id":"ce4bhbh2rcd13ifvqepg","pricing_plan_id":"cebpf4jnsgd1na2vs0mg"},{"bike_id":"0477701a-0c47-468f-9681-186350490b31","system_id":"levelo_inurba_marseille","lat":43.28421,"lon":5.34985,"is_reserved":false,"is_disabled":false,"rental_uris":{"android":"levelo://app?vid=0477701a-0c47-468f-9681-186350490b31","ios":"levelo://app?vid=0477701a-0c47-468f-9681-186350490b31"},"vehicle_type_id":"4","last_reported":1723298820,"current_range_meters":10400,"station_id":"ce4bhbh2rcd13ifvqepg","pricing_plan_id":"cebpf4jnsgd1na2vs0mg"},{"bike_id":"d50b7c14-f120-4fe0-8363-32947ee23101","system_id":"levelo_inurba_marseille","lat":43.284214,"lon":5.349706,"is_reserved":false,"is_disabled":false,"rental_uris":{"android":"levelo://app?vid=d50b7c14-f120-4fe0-8363-32947ee23101","ios":"levelo://app?vid=d50b7c14-f120-4fe0-8363-32947ee23101"},"vehicle_type_id":"4","last_reported":1723298820,"current_range_meters":28800,"station_id":"ce4bhbh2rcd13ifvqepg","pricing_plan_id":"cebpf4jnsgd1na2vs0mg"},{"bike_id":"557e638e-6c94-44d1-bb90-38290290857e","system_id":"levelo_inurba_marseille","lat":43.2842,"lon":5.34987,"is_reserved":false,"is_disabled":false,"rental_uris":{"android":"levelo://app?vid=557e638e-6c94-44d1-bb90-38290290857e","ios":"levelo://app?vid=557e638e-6c94-44d1-bb90-38290290857e"},"vehicle_type_id":"4","last_reported":1723298820,"current_range_meters":17600,"station_id":"ce4bhbh2rcd13ifvqepg","pricing_plan_id":"cebpf4jnsgd1na2vs0mg"},{"bike_id":"e1db5206-ee17-45cc-b0f5-86a360fdb658","system_id":"levelo_inurba_marseille","lat":43.284193,"lon":5.34988,"is_reserved":false,"is_disabled":false,"rental_uris":{"android":"levelo://app?vid=e1db5206-ee17-45cc-b0f5-86a360fdb658","ios":"levelo://app?vid=e1db5206-ee17-45cc-b0f5-86a360fdb658"},"vehicle_type_id":"4","last_reported":1723298820,"current_range_meters":28400,"station_id":"ce4bhbh2rcd13ifvqepg","pricing_plan_id":"cebpf4jnsgd1na2vs0mg"},{"bike_id":"9034b1fd-1b8a-4d37-aff1-a8738cc6e0ef","system_id":"levelo_inurba_marseille","lat":43.28419,"lon":5.34989,"is_reserved":false,"is_disabled":false,"rental_uris":{"android":"levelo://app?vid=9034b1fd-1b8a-4d37-aff1-a8738cc6e0ef","ios":"levelo://app?vid=9034b1fd-1b8a-4d37-aff1-a8738cc6e0ef"},"vehicle_type_id":"4","last_reported":1723298820,"current_range_meters":13600,"station_id":"ce4bhbh2rcd13ifvqepg","pricing_plan_id":"cebpf4jnsgd1na2vs0mg"},{"bike_id":"38860134-ac49-4812-b379-d0e7b60c59d9","system_id":"levelo_inurba_marseille","lat":43.28417,"lon":5.34994,"is_reserved":false,"is_disabled":false,"rental_uris":{"android":"levelo://app?vid=38860134-ac49-4812-b379-d0e7b60c59d9","ios":"levelo://app?vid=38860134-ac49-4812-b379-d0e7b60c59d9"},"vehicle_type_id":"4","last_reported":1723298820,"current_range_meters":26400,"station_id":"ce4bhbh2rcd13ifvqepg","pricing_plan_id":"cebpf4jnsgd1na2vs0mg"},{"bike_id":"035ba61b-03d9-443c-b885-757291d228a7","system_id":"levelo_inurba_marseille","lat":43.284219,"lon":5.3497,"is_reserved":false,"is_disabled":false,"rental_uris":{"android":"levelo://app?vid=035ba61b-03d9-443c-b885-757291d228a7","ios":"levelo://app?vid=035ba61b-03d9-443c-b885-757291d228a7"},"vehicle_type_id":"4","last_reported":1723298820,"current_range_meters":4000,"station_id":"ce4bhbh2rcd13ifvqepg","pricing_plan_id":"cebpf4jnsgd1na2vs0mg"},{"bike_id":"4f68d784-0e8e-425a-a5f3-52592fc84aef","system_id":"levelo_inurba_marseille","lat":43.284219,"lon":5.3497,"is_reserved":false,"is_disabled":false,"rental_uris":{"android":"levelo://app?vid=4f68d784-0e8e-425a-a5f3-52592fc84aef","ios":"levelo://app?vid=4f68d784-0e8e-425a-a5f3-52592fc84aef"},"vehicle_type_id":"4","last_reported":1723298820,"current_range_meters":6400,"station_id":"ce4bhbh2rcd13ifvqepg","pricing_plan_id":"cebpf4jnsgd1na2vs0mg"},{"bike_id":"00d777d9-734c-4d47-9b95-19b87c95470a","system_id":"levelo_inurba_marseille","lat":43.28422,"lon":5.34977,"is_reserved":false,"is_disabled":false,"rental_uris":{"android":"levelo://app?vid=00d777d9-734c-4d47-9b95-19b87c95470a","ios":"levelo://app?vid=00d777d9-734c-4d47-9b95-19b87c95470a"},"vehicle_type_id":"4","last_reported":1723298820,"current_range_meters":20000,"station_id":"ce4bhbh2rcd13ifvqepg","pricing_plan_id":"cebpf4jnsgd1na2vs0mg"},{"bike_id":"280b808d-665b-40b9-b7e3-6354dbd47c9a","system_id":"levelo_inurba_marseille","lat":43.284214,"lon":5.349706,"is_reserved":false,"is_disabled":false,"rental_uris":{"android":"levelo://app?vid=280b808d-665b-40b9-b7e3-6354dbd47c9a","ios":"levelo://app?vid=280b808d-665b-40b9-b7e3-6354dbd47c9a"},"vehicle_type_id":"4","last_reported":1723298820,"current_range_meters":8000,"station_id":"ce4bhbh2rcd13ifvqepg","pricing_plan_id":"cebpf4jnsgd1na2vs0mg"},{"bike_id":"b25e6c00-dfd0-499c-96dc-9e4749cfea13","system_id":"levelo_inurba_marseille","lat":43.28422,"lon":5.34976,"is_reserved":false,"is_disabled":false,"rental_uris":{"android":"levelo://app?vid=b25e6c00-dfd0-499c-96dc-9e4749cfea13","ios":"levelo://app?vid=b25e6c00-dfd0-499c-96dc-9e4749cfea13"},"vehicle_type_id":"4","last_reported":1723298820,"current_range_meters":24800,"station_id":"ce4bhbh2rcd13ifvqepg","pricing_plan_id":"cebpf4jnsgd1na2vs0mg"},{"bike_id":"22926ce4-32b3-4422-8fe6-23878266977e","system_id":"levelo_inurba_marseille","lat":43.284214,"lon":5.349706,"is_reserved":false,"is_disabled":false,"rental_uris":{"android":"levelo://app?vid=22926ce4-32b3-4422-8fe6-23878266977e","ios":"levelo://app?vid=22926ce4-32b3-4422-8fe6-23878266977e"},"vehicle_type_id":"4","last_reported":1723298820,"current_range_meters":5600,"station_id":"ce4bhbh2rcd13ifvqepg","pricing_plan_id":"cebpf4jnsgd1na2vs0mg"},{"bike_id":"95d3b122-3f09-4187-a8de-8af109748549","system_id":"levelo_inurba_marseille","lat":43.28417,"lon":5.34991,"is_reserved":false,"is_disabled":false,"rental_uris":{"android":"levelo://app?vid=95d3b122-3f09-4187-a8de-8af109748549","ios":"levelo://app?vid=95d3b122-3f09-4187-a8de-8af109748549"},"vehicle_type_id":"4","last_reported":1723298820,"current_range_meters":7600,"station_id":"ce4bhbh2rcd13ifvqepg","pricing_plan_id":"cebpf4jnsgd1na2vs0mg"},{"bike_id":"689950ff-6dca-4d43-9eb0-b09cf0b1b59f","system_id":"levelo_inurba_marseille","lat":43.284214,"lon":5.349706,"is_reserved":false,"is_disabled":false,"rental_uris":{"android":"levelo://app?vid=689950ff-6dca-4d43-9eb0-b09cf0b1b59f","ios":"levelo://app?vid=689950ff-6dca-4d43-9eb0-b09cf0b1b59f"},"vehicle_type_id":"4","last_reported":1723298820,"current_range_meters":6000,"station_id":"ce4bhbh2rcd13ifvqepg","pricing_plan_id":"cebpf4jnsgd1na2vs0mg"},{"bike_id":"37f74353-4426-4a00-b215-174f5e36afb9","system_id":"levelo_inurba_marseille","lat":43.28422,"lon":5.34973,"is_reserved":false,"is_disabled":false,"rental_uris":{"android":"levelo://app?vid=37f74353-4426-4a00-b215-174f5e36afb9","ios":"levelo://app?vid=37f74353-4426-4a00-b215-174f5e36afb9"},"vehicle_type_id":"4","last_reported":1723298820,"current_range_meters":20000,"station_id":"ce4bhbh2rcd13ifvqepg","pricing_plan_id":"cebpf4jnsgd1na2vs0mg"},{"bike_id":"401c2560-9788-4e7a-a7e1-bdbe333534a6","system_id":"levelo_inurba_marseille","lat":43.284214,"lon":5.349706,"is_reserved":false,"is_disabled":false,"rental_uris":{"android":"levelo://app?vid=401c2560-9788-4e7a-a7e1-bdbe333534a6","ios":"levelo://app?vid=401c2560-9788-4e7a-a7e1-bdbe333534a6"},"vehicle_type_id":"4","last_reported":1723298820,"current_range_meters":16400,"station_id":"ce4bhbh2rcd13ifvqepg","pricing_plan_id":"cebpf4jnsgd1na2vs0mg"},{"bike_id":"7d5b2709-25e6-4c39-a7d8-b79e402dd7e8","system_id":"levelo_inurba_marseille","lat":43.28416,"lon":5.34989,"is_reserved":false,"is_disabled":false,"rental_uris":{"android":"levelo://app?vid=7d5b2709-25e6-4c39-a7d8-b79e402dd7e8","ios":"levelo://app?vid=7d5b2709-25e6-4c39-a7d8-b79e402dd7e8"},"vehicle_type_id":"4","last_reported":1723298820,"current_range_meters":30800,"station_id":"ce4bhbh2rcd13ifvqepg","pricing_plan_id":"cebpf4jnsgd1na2vs0mg"},{"bike_id":"c8cef44c-1f8a-4dff-85a1-2d68f97d1058","system_id":"levelo_inurba_marseille","lat":43.284219,"lon":5.3497,"is_reserved":false,"is_disabled":false,"rental_uris":{"android":"levelo://app?vid=c8cef44c-1f8a-4dff-85a1-2d68f97d1058","ios":"levelo://app?vid=c8cef44c-1f8a-4dff-85a1-2d68f97d1058"},"vehicle_type_id":"4","last_reported":1723298820,"current_range_meters":1600,"station_id":"ce4bhbh2rcd13ifvqepg","pricing_plan_id":"cebpf4jnsgd1na2vs0mg"},{"bike_id":"55f085cd-7745-4a89-a880-8c0b25143c97","system_id":"levelo_inurba_marseille","lat":43.28415,"lon":5.34989,"is_reserved":false,"is_disabled":false,"rental_uris":{"android":"levelo://app?vid=55f085cd-7745-4a89-a880-8c0b25143c97","ios":"levelo://app?vid=55f085cd-7745-4a89-a880-8c0b25143c97"},"vehicle_type_id":"4","last_reported":1723298820,"current_range_meters":9600,"station_id":"ce4bhbh2rcd13ifvqepg","pricing_plan_id":"cebpf4jnsgd1na2vs0mg"},{"bike_id":"b9212eaf-4d0a-43f4-9949-d350874fce3f","system_id":"levelo_inurba_marseille","lat":43.28413,"lon":5.34994,"is_reserved":false,"is_disabled":false,"rental_uris":{"android":"levelo://app?vid=b9212eaf-4d0a-43f4-9949-d350874fce3f","ios":"levelo://app?vid=b9212eaf-4d0a-43f4-9949-d350874fce3f"},"vehicle_type_id":"4","last_reported":1723298820,"current_range_meters":4000,"station_id":"ce4bhbh2rcd13ifvqepg","pricing_plan_id":"cebpf4jnsgd1na2vs0mg"},{"bike_id":"e8af113f-4040-4a4c-89a0-3be5f388bffe","system_id":"levelo_inurba_marseille","lat":43.28415,"lon":5.34981,"is_reserved":false,"is_disabled":false,"rental_uris":{"android":"levelo://app?vid=e8af113f-4040-4a4c-89a0-3be5f388bffe","ios":"levelo://app?vid=e8af113f-4040-4a4c-89a0-3be5f388bffe"},"vehicle_type_id":"4","last_reported":1723298820,"current_range_meters":14400,"station_id":"ce4bhbh2rcd13ifvqepg","pricing_plan_id":"cebpf4jnsgd1na2vs0mg"},{"bike_id":"c5e2751a-4a8b-4726-8689-b5e1d4f457db","system_id":"levelo_inurba_marseille","lat":43.28415,"lon":5.3498,"is_reserved":false,"is_disabled":false,"rental_uris":{"android":"levelo://app?vid=c5e2751a-4a8b-4726-8689-b5e1d4f457db","ios":"levelo://app?vid=c5e2751a-4a8b-4726-8689-b5e1d4f457db"},"vehicle_type_id":"4","last_reported":1723298820,"current_range_meters":22000,"station_id":"ce4bhbh2rcd13ifvqepg","pricing_plan_id":"cebpf4jnsgd1na2vs0mg"},{"bike_id":"76461450-ac21-46d5-ba8d-d2f68cefdb83","system_id":"levelo_inurba_marseille","lat":43.28414,"lon":5.34981,"is_reserved":false,"is_disabled":false,"rental_uris":{"android":"levelo://app?vid=76461450-ac21-46d5-ba8d-d2f68cefdb83","ios":"levelo://app?vid=76461450-ac21-46d5-ba8d-d2f68cefdb83"},"vehicle_type_id":"4","last_reported":1723298820,"current_range_meters":21200,"station_id":"ce4bhbh2rcd13ifvqepg","pricing_plan_id":"cebpf4jnsgd1na2vs0mg"},{"bike_id":"8871fc60-2337-4789-874d-5037b52f216d","system_id":"levelo_inurba_marseille","lat":43.284123,"lon":5.34986,"is_reserved":false,"is_disabled":false,"rental_uris":{"android":"levelo://app?vid=8871fc60-2337-4789-874d-5037b52f216d","ios":"levelo://app?vid=8871fc60-2337-4789-874d-5037b52f216d"},"vehicle_type_id":"4","last_reported":1723298820,"current_range_meters":6000,"station_id":"ce4bhbh2rcd13ifvqepg","pricing_plan_id":"cebpf4jnsgd1na2vs0mg"},{"bike_id":"90aaae04-9469-4304-8667-a8091fd41d7d","system_id":"levelo_inurba_marseille","lat":43.284146,"lon":5.349786,"is_reserved":false,"is_disabled":false,"rental_uris":{"android":"levelo://app?vid=90aaae04-9469-4304-8667-a8091fd41d7d","ios":"levelo://app?vid=90aaae04-9469-4304-8667-a8091fd41d7d"},"vehicle_type_id":"4","last_reported":1723298820,"current_range_meters":9600,"station_id":"ce4bhbh2rcd13ifvqepg","pricing_plan_id":"cebpf4jnsgd1na2vs0mg"},{"bike_id":"db679ef4-0968-4232-ab93-e70bc7208fde","system_id":"levelo_inurba_marseille","lat":43.2841,"lon":5.3499,"is_reserved":false,"is_disabled":false,"rental_uris":{"android":"levelo://app?vid=db679ef4-0968-4232-ab93-e70bc7208fde","ios":"levelo://app?vid=db679ef4-0968-4232-ab93-e70bc7208fde"},"vehicle_type_id":"4","last_reported":1723298820,"current_range_meters":31200,"station_id":"ce4bhbh2rcd13ifvqepg","pricing_plan_id":"cebpf4jnsgd1na2vs0mg"},{"bike_id":"0d46a1db-5792-45cb-938e-cc217c8b485e","system_id":"levelo_inurba_marseille","lat":43.28414,"lon":5.34977,"is_reserved":false,"is_disabled":false,"rental_uris":{"android":"levelo://app?vid=0d46a1db-5792-45cb-938e-cc217c8b485e","ios":"levelo://app?vid=0d46a1db-5792-45cb-938e-cc217c8b485e"},"vehicle_type_id":"4","last_reported":1723298820,"current_range_meters":25600,"station_id":"ce4bhbh2rcd13ifvqepg","pricing_plan_id":"cebpf4jnsgd1na2vs0mg"},{"bike_id":"edd7f2b5-003b-4d56-9d66-7b5ffef2a8d5","system_id":"levelo_inurba_marseille","lat":43.28412,"lon":5.34983,"is_reserved":false,"is_disabled":false,"rental_uris":{"android":"levelo://app?vid=edd7f2b5-003b-4d56-9d66-7b5ffef2a8d5","ios":"levelo://app?vid=edd7f2b5-003b-4d56-9d66-7b5ffef2a8d5"},"vehicle_type_id":"4","last_reported":1723298820,"current_range_meters":12000,"station_id":"ce4bhbh2rcd13ifvqepg","pricing_plan_id":"cebpf4jnsgd1na2vs0mg"},{"bike_id":"f34900e0-a5f8-46ed-aa22-2c8179d7f403","system_id":"levelo_inurba_marseille","lat":43.28413,"lon":5.34977,"is_reserved":false,"is_disabled":false,"rental_uris":{"android":"levelo://app?vid=f34900e0-a5f8-46ed-aa22-2c8179d7f403","ios":"levelo://app?vid=f34900e0-a5f8-46ed-aa22-2c8179d7f403"},"vehicle_type_id":"4","last_reported":1723298820,"current_range_meters":12800,"station_id":"ce4bhbh2rcd13ifvqepg","pricing_plan_id":"cebpf4jnsgd1na2vs0mg"},{"bike_id":"daf003b4-c580-4497-ac6e-c4fd8b25d1a1","system_id":"levelo_inurba_marseille","lat":43.28405,"lon":5.34988,"is_reserved":false,"is_disabled":false,"rental_uris":{"android":"levelo://app?vid=daf003b4-c580-4497-ac6e-c4fd8b25d1a1","ios":"levelo://app?vid=daf003b4-c580-4497-ac6e-c4fd8b25d1a1"},"vehicle_type_id":"4","last_reported":1723298820,"current_range_meters":6000,"station_id":"ce4bhbh2rcd13ifvqepg","pricing_plan_id":"cebpf4jnsgd1na2vs0mg"},{"bike_id":"a16cb00d-af83-4494-96dd-af251646bcd3","system_id":"levelo_inurba_marseille","lat":43.28407,"lon":5.34975,"is_reserved":false,"is_disabled":false,"rental_uris":{"android":"levelo://app?vid=a16cb00d-af83-4494-96dd-af251646bcd3","ios":"levelo://app?vid=a16cb00d-af83-4494-96dd-af251646bcd3"},"vehicle_type_id":"4","last_reported":1723298820,"current_range_meters":31200,"station_id":"ce4bhbh2rcd13ifvqepg","pricing_plan_id":"cebpf4jnsgd1na2vs0mg"},{"bike_id":"91e2a96f-cb77-4f2e-a445-b4e89d5b4774","system_id":"levelo_inurba_marseille","lat":43.28405,"lon":5.3498,"is_reserved":false,"is_disabled":false,"rental_uris":{"android":"levelo://app?vid=91e2a96f-cb77-4f2e-a445-b4e89d5b4774","ios":"levelo://app?vid=91e2a96f-cb77-4f2e-a445-b4e89d5b4774"},"vehicle_type_id":"4","last_reported":1723298820,"current_range_meters":28800,"station_id":"ce4bhbh2rcd13ifvqepg","pricing_plan_id":"cebpf4jnsgd1na2vs0mg"},{"bike_id":"0c67007f-5a27-46a1-a7af-e9b0a1647ebf","system_id":"levelo_inurba_marseille","lat":43.28406,"lon":5.34973,"is_reserved":false,"is_disabled":false,"rental_uris":{"android":"levelo://app?vid=0c67007f-5a27-46a1-a7af-e9b0a1647ebf","ios":"levelo://app?vid=0c67007f-5a27-46a1-a7af-e9b0a1647ebf"},"vehicle_type_id":"4","last_reported":1723298820,"current_range_meters":31200,"station_id":"ce4bhbh2rcd13ifvqepg","pricing_plan_id":"cebpf4jnsgd1na2vs0mg"},{"bike_id":"9892e132-faa1-4985-a074-afdaf2fbfe9b","system_id":"levelo_inurba_marseille","lat":43.284,"lon":5.34992,"is_reserved":false,"is_disabled":false,"rental_uris":{"android":"levelo://app?vid=9892e132-faa1-4985-a074-afdaf2fbfe9b","ios":"levelo://app?vid=9892e132-faa1-4985-a074-afdaf2fbfe9b"},