{"last_updated":1714928756,"ttl":30,"version":"2.2","data":{"bikes":[{"bike_id":"7f636470-c972-4974-a8d4-10b7764fb554","system_id":"levelo_inurba_marseille","lat":43.313391,"lon":5.36706,"is_reserved":false,"is_disabled":false,"rental_uris":{"android":"levelo://app?vid=7f636470-c972-4974-a8d4-10b7764fb554","ios":"levelo://app?vid=7f636470-c972-4974-a8d4-10b7764fb554"},"vehicle_type_id":"4","last_reported":1714928756,"current_range_meters":5200,"station_id":"ce4bgr92rcd13ifvqc6g","pricing_plan_id":"cebpf4jnsgd1na2vs0mg"},{"bike_id":"84632706-7c06-4732-9541-94395f6313d1","system_id":"levelo_inurba_marseille","lat":43.313391,"lon":5.36706,"is_reserved":false,"is_disabled":false,"rental_uris":{"android":"levelo://app?vid=84632706-7c06-4732-9541-94395f6313d1","ios":"levelo://app?vid=84632706-7c06-4732-9541-94395f6313d1"},"vehicle_type_id":"4","last_reported":1714928756,"current_range_meters":4000,"station_id":"ce4bgr92rcd13ifvqc6g","pricing_plan_id":"cebpf4jnsgd1na2vs0mg"},{"bike_id":"a28fb4f2-3e28-4e42-a7ca-7e7d7dd0ee10","system_id":"levelo_inurba_marseille","lat":43.312239,"lon":5.368562,"is_reserved":false,"is_disabled":false,"rental_uris":{"android":"levelo://app?vid=a28fb4f2-3e28-4e42-a7ca-7e7d7dd0ee10","ios":"levelo://app?vid=a28fb4f2-3e28-4e42-a7ca-7e7d7dd0ee10"},"vehicle_type_id":"4","last_reported":1714928756,"current_range_meters":21200,"station_id":"ce4bgl92rcd13ifvqbq0","pricing_plan_id":"cebpf4jnsgd1na2vs0mg"},{"bike_id":"f6da593e-b316-4c2a-b866-541bb6153424","system_id":"levelo_inurba_marseille","lat":43.312239,"lon":5.368562,"is_reserved":false,"is_disabled":false,"rental_uris":{"android":"levelo://app?vid=f6da593e-b316-4c2a-b866-541bb6153424","ios":"levelo://app?vid=f6da593e-b316-4c2a-b866-541bb6153424"},"vehicle_type_id":"4","last_reported":1714928756,"current_range_meters":16400,"station_id":"ce4bgl92rcd13ifvqbq0","pricing_plan_id":"cebpf4jnsgd1na2vs0mg"},{"bike_id":"cbdfac75-0f2c-4a1f-9959-0b077d341595","system_id":"levelo_inurba_marseille","lat":43.31227,"lon":5.36851,"is_reserved":false,"is_disabled":false,"rental_uris":{"android":"levelo://app?vid=cbdfac75-0f2c-4a1f-9959-0b077d341595","ios":"levelo://app?vid=cbdfac75-0f2c-4a1f-9959-0b077d341595"},"vehicle_type_id":"4","last_reported":1714928756,"current_range_meters":3200,"station_id":"ce4bgl92rcd13ifvqbq0","pricing_plan_id":"cebpf4jnsgd1na2vs0mg"},{"bike_id":"9dba5036-3517-4afa-9ccd-90b9becb4857","system_id":"levelo_inurba_marseille","lat":43.309076,"lon":5.368465,"is_reserved":false,"is_disabled":false,"rental_uris":{"android":"levelo://app?vid=9dba5036-3517-4afa-9ccd-90b9becb4857","ios":"levelo://app?vid=9dba5036-3517-4afa-9ccd-90b9becb4857"},"vehicle_type_id":"4","last_reported":1714928756,"current_range_meters":2800,"station_id":"ce4bgn92rcd13ifvqbvg","pricing_plan_id":"cebpf4jnsgd1na2vs0mg"},{"bike_id":"00cbdb03-6bbf-48ee-a9ae-b1c386802eda","system_id":"levelo_inurba_marseille","lat":43.309076,"lon":5.368465,"is_reserved":false,"is_disabled":false,"rental_uris":{"android":"levelo://app?vid=00cbdb03-6bbf-48ee-a9ae-b1c386802eda","ios":"levelo://app?vid=00cbdb03-6bbf-48ee-a9ae-b1c386802eda"},"vehicle_type_id":"4","last_reported":1714928756,"current_range_meters":16000,"station_id":"ce4bgn92rcd13ifvqbvg","pricing_plan_id":"cebpf4jnsgd1na2vs0mg"},{"bike_id":"a1222c88-6c4c-4eab-bc10-151f9866f2b4","system_id":"levelo_inurba_marseille","lat":43.309076,"lon":5.368465,"is_reserved":false,"is_disabled":false,"rental_uris":{"android":"levelo://app?vid=a1222c88-6c4c-4eab-bc10-151f9866f2b4","ios":"levelo://app?vid=a1222c88-6c4c-4eab-bc10-151f9866f2b4"},"vehicle_type_id":"4","last_reported":1714928756,"current_range_meters":24400,"station_id":"ce4bgn92rcd13ifvqbvg","pricing_plan_id":"cebpf4jnsgd1na2vs0mg"},{"bike_id":"c1c1128b-f235-40b1-bd5a-6bf5f48b1d98","system_id":"levelo_inurba_marseille","lat":43.30537,"lon":5.367345,"is_reserved":false,"is_disabled":false,"rental_uris":{"android":"levelo://app?vid=c1c1128b-f235-40b1-bd5a-6bf5f48b1d98","ios":"levelo://app?vid=c1c1128b-f235-40b1-bd5a-6bf5f48b1d98"},"vehicle_type_id":"4","last_reported":1714928756,"current_range_meters":3200,"station_id":"ce4bgrp2rcd13ifvqc9g","pricing_plan_id":"cebpf4jnsgd1na2vs0mg"},{"bike_id":"0f914564-e5f2-4ccf-acb4-60847e79c5dc","system_id":"levelo_inurba_marseille","lat":43.305712,"lon":5.365641,"is_reserved":false,"is_disabled":false,"rental_uris":{"android":"levelo://app?vid=0f914564-e5f2-4ccf-acb4-60847e79c5dc","ios":"levelo://app?vid=0f914564-e5f2-4ccf-acb4-60847e79c5dc"},"vehicle_type_id":"4","last_reported":1714928756,"current_range_meters":0,"station_id":"ce4bgs12rcd13ifvqcag","pricing_plan_id":"cebpf4jnsgd1na2vs0mg"},{"bike_id":"847d1558-52b7-4633-bf74-f810b02b3d93","system_id":"levelo_inurba_marseille","lat":43.305714,"lon":5.365633,"is_reserved":false,"is_disabled":false,"rental_uris":{"android":"levelo://app?vid=847d1558-52b7-4633-bf74-f810b02b3d93","ios":"levelo://app?vid=847d1558-52b7-4633-bf74-f810b02b3d93"},"vehicle_type_id":"4","last_reported":1714928756,"current_range_meters":4800,"station_id":"ce4bgs12rcd13ifvqcag","pricing_plan_id":"cebpf4jnsgd1na2vs0mg"},{"bike_id":"19337f2f-88b9-45fa-905c-61280e214aa8","system_id":"levelo_inurba_marseille","lat":43.30538,"lon":5.36558,"is_reserved":false,"is_disabled":false,"rental_uris":{"android":"levelo://app?vid=19337f2f-88b9-45fa-905c-61280e214aa8","ios":"levelo://app?vid=19337f2f-88b9-45fa-905c-61280e214aa8"},"vehicle_type_id":"4","last_reported":1714928756,"current_range_meters":0,"station_id":"","pricing_plan_id":"cebpf4jnsgd1na2vs0mg"},{"bike_id":"077f227b-77c9-4917-926a-d0110e852c99","system_id":"levelo_inurba_marseille","lat":43.30536,"lon":5.36557,"is_reserved":false,"is_disabled":false,"rental_uris":{"android":"levelo://app?vid=077f227b-77c9-4917-926a-d0110e852c99","ios":"levelo://app?vid=077f227b-77c9-4917-926a-d0110e852c99"},"vehicle_type_id":"4","last_reported":1714928756,"current_range_meters":0,"station_id":"ce4bgs12rcd13ifvqcag","pricing_plan_id":"cebpf4jnsgd1na2vs0mg"},{"bike_id":"52c18203-4df7-4f3e-864d-d90c7b6c22dc","system_id":"levelo_inurba_marseille","lat":43.30528,"lon":5.36723,"is_reserved":false,"is_disabled":false,"rental_uris":{"android":"levelo://app?vid=52c18203-4df7-4f3e-864d-d90c7b6c22dc","ios":"levelo://app?vid=52c18203-4df7-4f3e-864d-d90c7b6c22dc"},"vehicle_type_id":"4","last_reported":1714928756,"current_range_meters":2000,"station_id":"ce4bgrp2rcd13ifvqc9g","pricing_plan_id":"cebpf4jnsgd1na2vs0mg"},{"bike_id":"098ca026-98f8-4ec7-973e-5c9f2d0abd15","system_id":"levelo_inurba_marseille","lat":43.32014,"lon":5.36552,"is_reserved":false,"is_disabled":false,"rental_uris":{"android":"levelo://app?vid=098ca026-98f8-4ec7-973e-5c9f2d0abd15","ios":"levelo://app?vid=098ca026-98f8-4ec7-973e-5c9f2d0abd15"},"vehicle_type_id":"4","last_reported":1714928756,"current_range_meters":15200,"station_id":"","pricing_plan_id":"cebpf4jnsgd1na2vs0mg"},{"bike_id":"7b6963a2-a1a2-4a26-8eb9-5d2ebddd1bcd","system_id":"levelo_inurba_marseille","lat":43.305714,"lon":5.365633,"is_reserved":false,"is_disabled":false,"rental_uris":{"android":"levelo://app?vid=7b6963a2-a1a2-4a26-8eb9-5d2ebddd1bcd","ios":"levelo://app?vid=7b6963a2-a1a2-4a26-8eb9-5d2ebddd1bcd"},"vehicle_type_id":"4","last_reported":1714928756,"current_range_meters":18000,"station_id":"ce4bgs12rcd13ifvqcag","pricing_plan_id":"cebpf4jnsgd1na2vs0mg"},{"bike_id":"09b134be-637b-4305-ad81-d8e896b737f4","system_id":"levelo_inurba_marseille","lat":43.305714,"lon":5.365633,"is_reserved":false,"is_disabled":false,"rental_uris":{"android":"levelo://app?vid=09b134be-637b-4305-ad81-d8e896b737f4","ios":"levelo://app?vid=09b134be-637b-4305-ad81-d8e896b737f4"},"vehicle_type_id":"4","last_reported":1714928756,"current_range_meters":23600,"station_id":"ce4bgs12rcd13ifvqcag","pricing_plan_id":"cebpf4jnsgd1na2vs0mg"},{"bike_id":"50ff3243-3a4d-4a05-b755-69fb56a83287","system_id":"levelo_inurba_marseille","lat":43.305989,"lon":5.37225,"is_reserved":false,"is_disabled":false,"rental_uris":{"android":"levelo://app?vid=50ff3243-3a4d-4a05-b755-69fb56a83287","ios":"levelo://app?vid=50ff3243-3a4d-4a05-b755-69fb56a83287"},"vehicle_type_id":"4","last_reported":1714928756,"current_range_meters":22800,"station_id":"ce4bgqh2rcd13ifvqc4g","pricing_plan_id":"cebpf4jnsgd1na2vs0mg"},{"bike_id":"c4ad88fa-dbde-4b0f-bbd2-9425cefc8d18","system_id":"levelo_inurba_marseille","lat":43.31126,"lon":5.37761,"is_reserved":false,"is_disabled":false,"rental_uris":{"android":"levelo://app?vid=c4ad88fa-dbde-4b0f-bbd2-9425cefc8d18","ios":"levelo://app?vid=c4ad88fa-dbde-4b0f-bbd2-9425cefc8d18"},"vehicle_type_id":"4","last_reported":1714928756,"current_range_meters":0,"station_id":"ce4bgt92rcd13ifvqcg0","pricing_plan_id":"cebpf4jnsgd1na2vs0mg"},{"bike_id":"2cccca01-8eb7-47fe-a9b8-1da0d4e7b16f","system_id":"levelo_inurba_marseille","lat":43.304365,"lon":5.365962,"is_reserved":false,"is_disabled":false,"rental_uris":{"android":"levelo://app?vid=2cccca01-8eb7-47fe-a9b8-1da0d4e7b16f","ios":"levelo://app?vid=2cccca01-8eb7-47fe-a9b8-1da0d4e7b16f"},"vehicle_type_id":"4","last_reported":1714928756,"current_range_meters":11200,"station_id":"","pricing_plan_id":"cebpf4jnsgd1na2vs0mg"},{"bike_id":"5b4653e7-d4c4-4fd2-a17e-0e8c363b214e","system_id":"levelo_inurba_marseille","lat":43.317075,"lon":5.377367,"is_reserved":false,"is_disabled":false,"rental_uris":{"android":"levelo://app?vid=5b4653e7-d4c4-4fd2-a17e-0e8c363b214e","ios":"levelo://app?vid=5b4653e7-d4c4-4fd2-a17e-0e8c363b214e"},"vehicle_type_id":"4","last_reported":1714928756,"current_range_meters":9200,"station_id":"ce4bgth2rcd13ifvqch0","pricing_plan_id":"cebpf4jnsgd1na2vs0mg"},{"bike_id":"99e868c0-7b59-439b-b0f5-d685b850c670","system_id":"levelo_inurba_marseille","lat":43.30498,"lon":5.37358,"is_reserved":false,"is_disabled":false,"rental_uris":{"android":"levelo://app?vid=99e868c0-7b59-439b-b0f5-d685b850c670","ios":"levelo://app?vid=99e868c0-7b59-439b-b0f5-d685b850c670"},"vehicle_type_id":"4","last_reported":1714928756,"current_range_meters":25200,"station_id":"","pricing_plan_id":"cebpf4jnsgd1na2vs0mg"},{"bike_id":"c3c0c803-d135-4e0f-a88c-91cfb2e2eb6f","system_id":"levelo_inurba_marseille","lat":43.31917,"lon":5.37613,"is_reserved":false,"is_disabled":false,"rental_uris":{"android":"levelo://app?vid=c3c0c803-d135-4e0f-a88c-91cfb2e2eb6f","ios":"levelo://app?vid=c3c0c803-d135-4e0f-a88c-91cfb2e2eb6f"},"vehicle_type_id":"4","last_reported":1714928756,"current_range_meters":0,"station_id":"","pricing_plan_id":"cebpf4jnsgd1na2vs0mg"},{"bike_id":"4ab5672d-b6a8-4cf0-8451-386f2f7f2b6a","system_id":"levelo_inurba_marseille","lat":43.312486,"lon":5.379741,"is_reserved":false,"is_disabled":false,"rental_uris":{"android":"levelo://app?vid=4ab5672d-b6a8-4cf0-8451-386f2f7f2b6a","ios":"levelo://app?vid=4ab5672d-b6a8-4cf0-8451-386f2f7f2b6a"},"vehicle_type_id":"4","last_reported":1714928756,"current_range_meters":2800,"station_id":"","pricing_plan_id":"cebpf4jnsgd1na2vs0mg"},{"bike_id":"8889d630-2e26-4fd7-ac00-bdf9a09a6d4e","system_id":"levelo_inurba_marseille","lat":43.303273,"lon":5.36898,"is_reserved":false,"is_disabled":false,"rental_uris":{"android":"levelo://app?vid=8889d630-2e26-4fd7-ac00-bdf9a09a6d4e","ios":"levelo://app?vid=8889d630-2e26-4fd7-ac00-bdf9a09a6d4e"},"vehicle_type_id":"4","last_reported":1714928756,"current_range_meters":0,"station_id":"ce4bgqh2rcd13ifvqc5g","pricing_plan_id":"cebpf4jnsgd1na2vs0mg"},{"bike_id":"773c3307-2aad-4d9d-b1be-933da65b01ef","system_id":"levelo_inurba_marseille","lat":43.303046,"lon":5.368981,"is_reserved":false,"is_disabled":false,"rental_uris":{"android":"levelo://app?vid=773c3307-2aad-4d9d-b1be-933da65b01ef","ios":"levelo://app?vid=773c3307-2aad-4d9d-b1be-933da65b01ef"},"vehicle_type_id":"4","last_reported":1714928756,"current_range_meters":29200,"station_id":"ce4bgqh2rcd13ifvqc5g","pricing_plan_id":"cebpf4jnsgd1na2vs0mg"},{"bike_id":"3ca16114-b65e-4dc7-b400-1a293f114563","system_id":"levelo_inurba_marseille","lat":43.315289,"lon":5.380349,"is_reserved":false,"is_disabled":false,"rental_uris":{"android":"levelo://app?vid=3ca16114-b65e-4dc7-b400-1a293f114563","ios":"levelo://app?vid=3ca16114-b65e-4dc7-b400-1a293f114563"},"vehicle_type_id":"4","last_reported":1714928756,"current_range_meters":4000,"station_id":"ce4bhsp2rcd13ifvqi50","pricing_plan_id":"cebpf4jnsgd1na2vs0mg"},{"bike_id":"6c66352b-b68d-4f91-ac87-cd94a06a4c8b","system_id":"levelo_inurba_marseille","lat":43.301939,"lon":5.366286,"is_reserved":false,"is_disabled":false,"rental_uris":{"android":"levelo://app?vid=6c66352b-b68d-4f91-ac87-cd94a06a4c8b","ios":"levelo://app?vid=6c66352b-b68d-4f91-ac87-cd94a06a4c8b"},"vehicle_type_id":"4","last_reported":1714928756,"current_range_meters":4400,"station_id":"ce4bgrh2rcd13ifvqc8g","pricing_plan_id":"cebpf4jnsgd1na2vs0mg"},{"bike_id":"2d79832b-b7c8-442b-974b-0b114697f9b4","system_id":"levelo_inurba_marseille","lat":43.308012,"lon":5.381511,"is_reserved":false,"is_disabled":false,"rental_uris":{"android":"levelo://app?vid=2d79832b-b7c8-442b-974b-0b114697f9b4","ios":"levelo://app?vid=2d79832b-b7c8-442b-974b-0b114697f9b4"},"vehicle_type_id":"4","last_reported":1714928756,"current_range_meters":0,"station_id":"ce4bgt12rcd13ifvqce0","pricing_plan_id":"cebpf4jnsgd1na2vs0mg"},{"bike_id":"76a922d9-3cb0-41e2-97c2-c593b3100a25","system_id":"levelo_inurba_marseille","lat":43.304606,"lon":5.379026,"is_reserved":false,"is_disabled":false,"rental_uris":{"android":"levelo://app?vid=76a922d9-3cb0-41e2-97c2-c593b3100a25","ios":"levelo://app?vid=76a922d9-3cb0-41e2-97c2-c593b3100a25"},"vehicle_type_id":"4","last_reported":1714928756,"current_range_meters":2400,"station_id":"ce4bgup2rcd13ifvqcn0","pricing_plan_id":"cebpf4jnsgd1na2vs0mg"},{"bike_id":"03920013-043f-434f-9ab7-dbaac7f0e132","system_id":"levelo_inurba_marseille","lat":43.304606,"lon":5.379026,"is_reserved":false,"is_disabled":false,"rental_uris":{"android":"levelo://app?vid=03920013-043f-434f-9ab7-dbaac7f0e132","ios":"levelo://app?vid=03920013-043f-434f-9ab7-dbaac7f0e132"},"vehicle_type_id":"4","last_reported":1714928756,"current_range_meters":800,"station_id":"ce4bgup2rcd13ifvqcn0","pricing_plan_id":"cebpf4jnsgd1na2vs0mg"},{"bike_id":"f974fb83-0579-462e-8e6d-0be18ba23a8d","system_id":"levelo_inurba_marseille","lat":43.304606,"lon":5.379026,"is_reserved":false,"is_disabled":false,"rental_uris":{"android":"levelo://app?vid=f974fb83-0579-462e-8e6d-0be18ba23a8d","ios":"levelo://app?vid=f974fb83-0579-462e-8e6d-0be18ba23a8d"},"vehicle_type_id":"4","last_reported":1714928756,"current_range_meters":0,"station_id":"ce4bgup2rcd13ifvqcn0","pricing_plan_id":"cebpf4jnsgd1na2vs0mg"},{"bike_id":"2392b20e-0057-4204-8e83-94ee6fb460c8","system_id":"levelo_inurba_marseille","lat":43.304606,"lon":5.379026,"is_reserved":false,"is_disabled":false,"rental_uris":{"android":"levelo://app?vid=2392b20e-0057-4204-8e83-94ee6fb460c8","ios":"levelo://app?vid=2392b20e-0057-4204-8e83-94ee6fb460c8"},"vehicle_type_id":"4","last_reported":1714928756,"current_range_meters":0,"station_id":"ce4bgup2rcd13ifvqcn0","pricing_plan_id":"cebpf4jnsgd1na2vs0mg"},{"bike_id":"679baab9-098a-45dc-a21c-89eed43a2d75","system_id":"levelo_inurba_marseille","lat":43.324771,"lon":5.36557,"is_reserved":false,"is_disabled":false,"rental_uris":{"android":"levelo://app?vid=679baab9-098a-45dc-a21c-89eed43a2d75","ios":"levelo://app?vid=679baab9-098a-45dc-a21c-89eed43a2d75"},"vehicle_type_id":"4","last_reported":1714928756,"current_range_meters":2400,"station_id":"ce4bhs12rcd13ifvqhvg","pricing_plan_id":"cebpf4jnsgd1na2vs0mg"},{"bike_id":"79ef57fb-c15d-48b8-90d9-89e2a995280f","system_id":"levelo_inurba_marseille","lat":43.310804,"lon":5.38359,"is_reserved":false,"is_disabled":false,"rental_uris":{"android":"levelo://app?vid=79ef57fb-c15d-48b8-90d9-89e2a995280f","ios":"levelo://app?vid=79ef57fb-c15d-48b8-90d9-89e2a995280f"},"vehicle_type_id":"4","last_reported":1714928756,"current_range_meters":2800,"station_id":"ce4bgv92rcd13ifvqcr0","pricing_plan_id":"cebpf4jnsgd1na2vs0mg"},{"bike_id":"5cd46c73-c81e-43a1-9c13-4f62e0c4f85f","system_id":"levelo_inurba_marseille","lat":43.319935,"lon":5.381699,"is_reserved":false,"is_disabled":false,"rental_uris":{"android":"levelo://app?vid=5cd46c73-c81e-43a1-9c13-4f62e0c4f85f","ios":"levelo://app?vid=5cd46c73-c81e-43a1-9c13-4f62e0c4f85f"},"vehicle_type_id":"4","last_reported":1714928756,"current_range_meters":5600,"station_id":"ce4bhr12rcd13ifvqhpg","pricing_plan_id":"cebpf4jnsgd1na2vs0mg"},{"bike_id":"e07befc2-9d87-484b-afe2-17bced68ff18","system_id":"levelo_inurba_marseille","lat":43.319935,"lon":5.381699,"is_reserved":false,"is_disabled":false,"rental_uris":{"android":"levelo://app?vid=e07befc2-9d87-484b-afe2-17bced68ff18","ios":"levelo://app?vid=e07befc2-9d87-484b-afe2-17bced68ff18"},"vehicle_type_id":"4","last_reported":1714928756,"current_range_meters":13200,"station_id":"ce4bhr12rcd13ifvqhpg","pricing_plan_id":"cebpf4jnsgd1na2vs0mg"},{"bike_id":"971599e8-7632-40f9-87d7-d3078e01813a","system_id":"levelo_inurba_marseille","lat":43.319935,"lon":5.381699,"is_reserved":false,"is_disabled":false,"rental_uris":{"android":"levelo://app?vid=971599e8-7632-40f9-87d7-d3078e01813a","ios":"levelo://app?vid=971599e8-7632-40f9-87d7-d3078e01813a"},"vehicle_type_id":"4","last_reported":1714928756,"current_range_meters":4800,"station_id":"ce4bhr12rcd13ifvqhpg","pricing_plan_id":"cebpf4jnsgd1na2vs0mg"},{"bike_id":"3c3f4c63-0191-49db-95ab-0430f0c0bffc","system_id":"levelo_inurba_marseille","lat":43.313571,"lon":5.384829,"is_reserved":false,"is_disabled":false,"rental_uris":{"android":"levelo://app?vid=3c3f4c63-0191-49db-95ab-0430f0c0bffc","ios":"levelo://app?vid=3c3f4c63-0191-49db-95ab-0430f0c0bffc"},"vehicle_type_id":"4","last_reported":1714928756,"current_range_meters":28800,"station_id":"ce4bgt92rcd13ifvqcf0","pricing_plan_id":"cebpf4jnsgd1na2vs0mg"},{"bike_id":"1b12b9dc-10bb-48fa-971a-96580f8af409","system_id":"levelo_inurba_marseille","lat":43.29945,"lon":5.36542,"is_reserved":false,"is_disabled":false,"rental_uris":{"android":"levelo://app?vid=1b12b9dc-10bb-48fa-971a-96580f8af409","ios":"levelo://app?vid=1b12b9dc-10bb-48fa-971a-96580f8af409"},"vehicle_type_id":"4","last_reported":1714928756,"current_range_meters":0,"station_id":"ce4bgm92rcd13ifvqbr0","pricing_plan_id":"cebpf4jnsgd1na2vs0mg"},{"bike_id":"7c74ce3a-6d64-431d-bf86-aaedcb3c2c19","system_id":"levelo_inurba_marseille","lat":43.29944,"lon":5.36532,"is_reserved":false,"is_disabled":false,"rental_uris":{"android":"levelo://app?vid=7c74ce3a-6d64-431d-bf86-aaedcb3c2c19","ios":"levelo://app?vid=7c74ce3a-6d64-431d-bf86-aaedcb3c2c19"},"vehicle_type_id":"4","last_reported":1714928756,"current_range_meters":0,"station_id":"ce4bgm92rcd13ifvqbr0","pricing_plan_id":"cebpf4jnsgd1na2vs0mg"},{"bike_id":"9a922c9c-6462-491d-913f-db777509b4c5","system_id":"levelo_inurba_marseille","lat":43.29943,"lon":5.365262,"is_reserved":false,"is_disabled":false,"rental_uris":{"android":"levelo://app?vid=9a922c9c-6462-491d-913f-db777509b4c5","ios":"levelo://app?vid=9a922c9c-6462-491d-913f-db777509b4c5"},"vehicle_type_id":"4","last_reported":1714928756,"current_range_meters":0,"station_id":"ce4bgm92rcd13ifvqbr0","pricing_plan_id":"cebpf4jnsgd1na2vs0mg"},{"bike_id":"da2260b6-4615-4c58-8a7b-a4187b3ff595","system_id":"levelo_inurba_marseille","lat":43.299724,"lon":5.371829,"is_reserved":false,"is_disabled":false,"rental_uris":{"android":"levelo://app?vid=da2260b6-4615-4c58-8a7b-a4187b3ff595","ios":"levelo://app?vid=da2260b6-4615-4c58-8a7b-a4187b3ff595"},"vehicle_type_id":"4","last_reported":1714928756,"current_range_meters":0,"station_id":"ce4bgr92rcd13ifvqc7g","pricing_plan_id":"cebpf4jnsgd1na2vs0mg"},{"bike_id":"8be8d8b3-dbe0-492d-b7a0-8c2a00aaf88c","system_id":"levelo_inurba_marseille","lat":43.299222,"lon":5.365554,"is_reserved":false,"is_disabled":false,"rental_uris":{"android":"levelo://app?vid=8be8d8b3-dbe0-492d-b7a0-8c2a00aaf88c","ios":"levelo://app?vid=8be8d8b3-dbe0-492d-b7a0-8c2a00aaf88c"},"vehicle_type_id":"4","last_reported":1714928756,"current_range_meters":0,"station_id":"ce4bgm92rcd13ifvqbr0","pricing_plan_id":"cebpf4jnsgd1na2vs0mg"},{"bike_id":"63137ec0-b32f-4dc2-b7ea-a16d0ce1c704","system_id":"levelo_inurba_marseille","lat":43.299492,"lon":5.374179,"is_reserved":false,"is_disabled":false,"rental_uris":{"android":"levelo://app?vid=63137ec0-b32f-4dc2-b7ea-a16d0ce1c704","ios":"levelo://app?vid=63137ec0-b32f-4dc2-b7ea-a16d0ce1c704"},"vehicle_type_id":"4","last_reported":1714928756,"current_range_meters":26000,"station_id":"","pricing_plan_id":"cebpf4jnsgd1na2vs0mg"},{"bike_id":"8e1d3838-fb87-460e-854b-2f59bdc5c93d","system_id":"levelo_inurba_marseille","lat":43.29858,"lon":5.36282,"is_reserved":false,"is_disabled":false,"rental_uris":{"android":"levelo://app?vid=8e1d3838-fb87-460e-854b-2f59bdc5c93d","ios":"levelo://app?vid=8e1d3838-fb87-460e-854b-2f59bdc5c93d"},"vehicle_type_id":"4","last_reported":1714928756,"current_range_meters":0,"station_id":"ce4bgpp2rcd13ifvqc3g","pricing_plan_id":"cebpf4jnsgd1na2vs0mg"},{"bike_id":"f00b7882-811b-409b-a206-ea17c06c1bb8","system_id":"levelo_inurba_marseille","lat":43.29856,"lon":5.36284,"is_reserved":false,"is_disabled":false,"rental_uris":{"android":"levelo://app?vid=f00b7882-811b-409b-a206-ea17c06c1bb8","ios":"levelo://app?vid=f00b7882-811b-409b-a206-ea17c06c1bb8"},"vehicle_type_id":"4","last_reported":1714928756,"current_range_meters":0,"station_id":"ce4bgpp2rcd13ifvqc3g","pricing_plan_id":"cebpf4jnsgd1na2vs0mg"},{"bike_id":"986d5866-978e-45d6-8080-b0d2ee1fe736","system_id":"levelo_inurba_marseille","lat":43.298433,"lon":5.362774,"is_reserved":false,"is_disabled":false,"rental_uris":{"android":"levelo://app?vid=986d5866-978e-45d6-8080-b0d2ee1fe736","ios":"levelo://app?vid=986d5866-978e-45d6-8080-b0d2ee1fe736"},"vehicle_type_id":"4","last_reported":1714928756,"current_range_meters":17200,"station_id":"ce4bgpp2rcd13ifvqc3g","pricing_plan_id":"cebpf4jnsgd1na2vs0mg"},{"bike_id":"da9edf8e-e37f-4dbb-8bae-df985e3fadf2","system_id":"levelo_inurba_marseille","lat":43.298433,"lon":5.362774,"is_reserved":false,"is_disabled":false,"rental_uris":{"android":"levelo://app?vid=da9edf8e-e37f-4dbb-8bae-df985e3fadf2","ios":"levelo://app?vid=da9edf8e-e37f-4dbb-8bae-df985e3fadf2"},"vehicle_type_id":"4","last_reported":1714928756,"current_range_meters":10000,"station_id":"ce4bgpp2rcd13ifvqc3g","pricing_plan_id":"cebpf4jnsgd1na2vs0mg"},{"bike_id":"9b54f0b6-643d-4e45-8bc7-3fb233bcdcd1","system_id":"levelo_inurba_marseille","lat":43.298433,"lon":5.362774,"is_reserved":false,"is_disabled":false,"rental_uris":{"android":"levelo://app?vid=9b54f0b6-643d-4e45-8bc7-3fb233bcdcd1","ios":"levelo://app?vid=9b54f0b6-643d-4e45-8bc7-3fb233bcdcd1"},"vehicle_type_id":"4","last_reported":1714928756,"current_range_meters":22800,"station_id":"ce4bgpp2rcd13ifvqc3g","pricing_plan_id":"cebpf4jnsgd1na2vs0mg"},{"bike_id":"6a9e3b28-b3db-40fa-9c2f-a15f9c9efebe","system_id":"levelo_inurba_marseille","lat":43.305364,"lon":5.384119,"is_reserved":false,"is_disabled":false,"rental_uris":{"android":"levelo://app?vid=6a9e3b28-b3db-40fa-9c2f-a15f9c9efebe","ios":"levelo://app?vid=6a9e3b28-b3db-40fa-9c2f-a15f9c9efebe"},"vehicle_type_id":"4","last_reported":1714928756,"current_range_meters":20000,"station_id":"ce4bgg92rcd13ifvqb30","pricing_plan_id":"cebpf4jnsgd1na2vs0mg"},{"bike_id":"dc3e5ba4-7c11-4663-a45d-2c5871f27685","system_id":"levelo_inurba_marseille","lat":43.30537,"lon":5.3843,"is_reserved":false,"is_disabled":false,"rental_uris":{"android":"levelo://app?vid=dc3e5ba4-7c11-4663-a45d-2c5871f27685","ios":"levelo://app?vid=dc3e5ba4-7c11-4663-a45d-2c5871f27685"},"vehicle_type_id":"4","last_reported":1714928756,"current_range_meters":0,"station_id":"ce4bgg92rcd13ifvqb30","pricing_plan_id":"cebpf4jnsgd1na2vs0mg"},{"bike_id":"268f7280-5543-4d3d-bd02-c229f37e4b52","system_id":"levelo_inurba_marseille","lat":43.298433,"lon":5.362774,"is_reserved":false,"is_disabled":false,"rental_uris":{"android":"levelo://app?vid=268f7280-5543-4d3d-bd02-c229f37e4b52","ios":"levelo://app?vid=268f7280-5543-4d3d-bd02-c229f37e4b52"},"vehicle_type_id":"4","last_reported":1714928756,"current_range_meters":15200,"station_id":"ce4bgpp2rcd13ifvqc3g","pricing_plan_id":"cebpf4jnsgd1na2vs0mg"},{"bike_id":"d6f3502b-7b08-4662-9744-c7eebde304b6","system_id":"levelo_inurba_marseille","lat":43.299208,"lon":5.37471,"is_reserved":false,"is_disabled":false,"rental_uris":{"android":"levelo://app?vid=d6f3502b-7b08-4662-9744-c7eebde304b6","ios":"levelo://app?vid=d6f3502b-7b08-4662-9744-c7eebde304b6"},"vehicle_type_id":"4","last_reported":1714928756,"current_range_meters":0,"station_id":"ce4bgjh2rcd13ifvqbg0","pricing_plan_id":"cebpf4jnsgd1na2vs0mg"},{"bike_id":"ef44ac59-a7df-4993-97c9-a2b9aeecdacc","system_id":"levelo_inurba_marseille","lat":43.298433,"lon":5.362774,"is_reserved":false,"is_disabled":false,"rental_uris":{"android":"levelo://app?vid=ef44ac59-a7df-4993-97c9-a2b9aeecdacc","ios":"levelo://app?vid=ef44ac59-a7df-4993-97c9-a2b9aeecdacc"},"vehicle_type_id":"4","last_reported":1714928756,"current_range_meters":12000,"station_id":"ce4bgpp2rcd13ifvqc3g","pricing_plan_id":"cebpf4jnsgd1na2vs0mg"},{"bike_id":"9306a91e-3d94-483a-9787-604b7888e5c3","system_id":"levelo_inurba_marseille","lat":43.322872,"lon":5.382756,"is_reserved":false,"is_disabled":false,"rental_uris":{"android":"levelo://app?vid=9306a91e-3d94-483a-9787-604b7888e5c3","ios":"levelo://app?vid=9306a91e-3d94-483a-9787-604b7888e5c3"},"vehicle_type_id":"4","last_reported":1714928756,"current_range_meters":800,"station_id":"ce4bhr12rcd13ifvqhqg","pricing_plan_id":"cebpf4jnsgd1na2vs0mg"},{"bike_id":"6173d9a4-17b7-4736-9324-0a7998b3b2d8","system_id":"levelo_inurba_marseille","lat":43.299243,"lon":5.374807,"is_reserved":false,"is_disabled":false,"rental_uris":{"android":"levelo://app?vid=6173d9a4-17b7-4736-9324-0a7998b3b2d8","ios":"levelo://app?vid=6173d9a4-17b7-4736-9324-0a7998b3b2d8"},"vehicle_type_id":"4","last_reported":1714928756,"current_range_meters":10400,"station_id":"ce4bgjh2rcd13ifvqbg0","pricing_plan_id":"cebpf4jnsgd1na2vs0mg"},{"bike_id":"e0733567-14e0-41e1-ab75-6038f6ebc05c","system_id":"levelo_inurba_marseille","lat":43.299243,"lon":5.374807,"is_reserved":false,"is_disabled":false,"rental_uris":{"android":"levelo://app?vid=e0733567-14e0-41e1-ab75-6038f6ebc05c","ios":"levelo://app?vid=e0733567-14e0-41e1-ab75-6038f6ebc05c"},"vehicle_type_id":"4","last_reported":1714928756,"current_range_meters":2400,"station_id":"ce4bgjh2rcd13ifvqbg0","pricing_plan_id":"cebpf4jnsgd1na2vs0mg"},{"bike_id":"2b2656d1-4185-4f6e-a6dd-1eb5d9af8463","system_id":"levelo_inurba_marseille","lat":43.297794,"lon":5.370888,"is_reserved":false,"is_disabled":false,"rental_uris":{"android":"levelo://app?vid=2b2656d1-4185-4f6e-a6dd-1eb5d9af8463","ios":"levelo://app?vid=2b2656d1-4185-4f6e-a6dd-1eb5d9af8463"},"vehicle_type_id":"4","last_reported":1714928756,"current_range_meters":6800,"station_id":"ce4bgop2rcd13ifvqc1g","pricing_plan_id":"cebpf4jnsgd1na2vs0mg"},{"bike_id":"7eeb60fe-3c3e-4ab0-a453-87f5844d213a","system_id":"levelo_inurba_marseille","lat":43.29716,"lon":5.36614,"is_reserved":false,"is_disabled":false,"rental_uris":{"android":"levelo://app?vid=7eeb60fe-3c3e-4ab0-a453-87f5844d213a","ios":"levelo://app?vid=7eeb60fe-3c3e-4ab0-a453-87f5844d213a"},"vehicle_type_id":"4","last_reported":1714928756,"current_range_meters":5200,"station_id":"ce4bgup2rcd13ifvqco0","pricing_plan_id":"cebpf4jnsgd1na2vs0mg"},{"bike_id":"55613b7f-828d-4750-99e4-443596943448","system_id":"levelo_inurba_marseille","lat":43.297163,"lon":5.365866,"is_reserved":false,"is_disabled":false,"rental_uris":{"android":"levelo://app?vid=55613b7f-828d-4750-99e4-443596943448","ios":"levelo://app?vid=55613b7f-828d-4750-99e4-443596943448"},"vehicle_type_id":"4","last_reported":1714928756,"current_range_meters":31200,"station_id":"ce4bgn12rcd13ifvqbt0","pricing_plan_id":"cebpf4jnsgd1na2vs0mg"},{"bike_id":"e3401172-7621-4b28-9703-33c82b4cf41e","system_id":"levelo_inurba_marseille","lat":43.297163,"lon":5.365866,"is_reserved":false,"is_disabled":false,"rental_uris":{"android":"levelo://app?vid=e3401172-7621-4b28-9703-33c82b4cf41e","ios":"levelo://app?vid=e3401172-7621-4b28-9703-33c82b4cf41e"},"vehicle_type_id":"4","last_reported":1714928756,"current_range_meters":4000,"station_id":"ce4bgn12rcd13ifvqbt0","pricing_plan_id":"cebpf4jnsgd1na2vs0mg"},{"bike_id":"38659bfc-f45a-4e26-96e3-b9e500ce6158","system_id":"levelo_inurba_marseille","lat":43.297163,"lon":5.365866,"is_reserved":false,"is_disabled":false,"rental_uris":{"android":"levelo://app?vid=38659bfc-f45a-4e26-96e3-b9e500ce6158","ios":"levelo://app?vid=38659bfc-f45a-4e26-96e3-b9e500ce6158"},"vehicle_type_id":"4","last_reported":1714928756,"current_range_meters":1200,"station_id":"ce4bgn12rcd13ifvqbt0","pricing_plan_id":"cebpf4jnsgd1na2vs0mg"},{"bike_id":"a8d833e3-699e-491c-b988-ce348b3528b9","system_id":"levelo_inurba_marseille","lat":43.297123,"lon":5.359833,"is_reserved":false,"is_disabled":false,"rental_uris":{"android":"levelo://app?vid=a8d833e3-699e-491c-b988-ce348b3528b9","ios":"levelo://app?vid=a8d833e3-699e-491c-b988-ce348b3528b9"},"vehicle_type_id":"4","last_reported":1714928756,"current_range_meters":12800,"station_id":"","pricing_plan_id":"cebpf4jnsgd1na2vs0mg"},{"bike_id":"b907f481-0d64-432f-b92c-96f4dee851e0","system_id":"levelo_inurba_marseille","lat":43.2968,"lon":5.37291,"is_reserved":false,"is_disabled":false,"rental_uris":{"android":"levelo://app?vid=b907f481-0d64-432f-b92c-96f4dee851e0","ios":"levelo://app?vid=b907f481-0d64-432f-b92c-96f4dee851e0"},"vehicle_type_id":"4","last_reported":1714928756,"current_range_meters":30000,"station_id":"ce4bgk12rcd13ifvqbj0","pricing_plan_id":"cebpf4jnsgd1na2vs0mg"},{"bike_id":"56e14c08-64f2-4fbb-beb2-d5fb29e74fc9","system_id":"levelo_inurba_marseille","lat":43.2968,"lon":5.37291,"is_reserved":false,"is_disabled":false,"rental_uris":{"android":"levelo://app?vid=56e14c08-64f2-4fbb-beb2-d5fb29e74fc9","ios":"levelo://app?vid=56e14c08-64f2-4fbb-beb2-d5fb29e74fc9"},"vehicle_type_id":"4","last_reported":1714928756,"current_range_meters":3600,"station_id":"ce4bgk12rcd13ifvqbj0","pricing_plan_id":"cebpf4jnsgd1na2vs0mg"},{"bike_id":"1f701b43-8046-441e-9b56-0afcde08550d","system_id":"levelo_inurba_marseille","lat":43.29624,"lon":5.3715,"is_reserved":false,"is_disabled":false,"rental_uris":{"android":"levelo://app?vid=1f701b43-8046-441e-9b56-0afcde08550d","ios":"levelo://app?vid=1f701b43-8046-441e-9b56-0afcde08550d"},"vehicle_type_id":"4","last_reported":1714928756,"current_range_meters":0,"station_id":"ce4bgnh2rcd13ifvqc0g","pricing_plan_id":"cebpf4jnsgd1na2vs0mg"},{"bike_id":"a6c939c3-e6d8-489d-b438-3fe9d56164d2","system_id":"levelo_inurba_marseille","lat":43.29622,"lon":5.37155,"is_reserved":false,"is_disabled":false,"rental_uris":{"android":"levelo://app?vid=a6c939c3-e6d8-489d-b438-3fe9d56164d2","ios":"levelo://app?vid=a6c939c3-e6d8-489d-b438-3fe9d56164d2"},"vehicle_type_id":"4","last_reported":1714928756,"current_range_meters":8800,"station_id":"","pricing_plan_id":"cebpf4jnsgd1na2vs0mg"},{"bike_id":"11ad303d-5aec-4319-bd48-3ba73425e52d","system_id":"levelo_inurba_marseille","lat":43.317557,"lon":5.390173,"is_reserved":false,"is_disabled":false,"rental_uris":{"android":"levelo://app?vid=11ad303d-5aec-4319-bd48-3ba73425e52d","ios":"levelo://app?vid=11ad303d-5aec-4319-bd48-3ba73425e52d"},"vehicle_type_id":"4","last_reported":1714928756,"current_range_meters":12800,"station_id":"ce4bhqp2rcd13ifvqhng","pricing_plan_id":"cebpf4jnsgd1na2vs0mg"},{"bike_id":"b9be7c67-78b9-48a6-9894-40d7b9b60349","system_id":"levelo_inurba_marseille","lat":43.30956,"lon":5.39029,"is_reserved":false,"is_disabled":false,"rental_uris":{"android":"levelo://app?vid=b9be7c67-78b9-48a6-9894-40d7b9b60349","ios":"levelo://app?vid=b9be7c67-78b9-48a6-9894-40d7b9b60349"},"vehicle_type_id":"4","last_reported":1714928756,"current_range_meters":0,"station_id":"ce4bgup2rcd13ifvqco0","pricing_plan_id":"cebpf4jnsgd1na2vs0mg"},{"bike_id":"4d13465e-d7c5-401a-8e6a-5d6ddbc47dc9","system_id":"levelo_inurba_marseille","lat":43.30952,"lon":5.39032,"is_reserved":false,"is_disabled":false,"rental_uris":{"android":"levelo://app?vid=4d13465e-d7c5-401a-8e6a-5d6ddbc47dc9","ios":"levelo://app?vid=4d13465e-d7c5-401a-8e6a-5d6ddbc47dc9"},"vehicle_type_id":"4","last_reported":1714928756,"current_range_meters":0,"station_id":"ce4bgup2rcd13ifvqco0","pricing_plan_id":"cebpf4jnsgd1na2vs0mg"},{"bike_id":"518732a3-e715-4088-bd9d-308da04fad83","system_id":"levelo_inurba_marseille","lat":43.309589,"lon":5.390258,"is_reserved":false,"is_disabled":false,"rental_uris":{"android":"levelo://app?vid=518732a3-e715-4088-bd9d-308da04fad83","ios":"levelo://app?vid=518732a3-e715-4088-bd9d-308da04fad83"},"vehicle_type_id":"4","last_reported":1714928756,"current_range_meters":0,"station_id":"ce4bgup2rcd13ifvqco0","pricing_plan_id":"cebpf4jnsgd1na2vs0mg"},{"bike_id":"35b70ffc-51ea-402e-93f7-932f466d751f","system_id":"levelo_inurba_marseille","lat":43.3176,"lon":5.39015,"is_reserved":false,"is_disabled":false,"rental_uris":{"android":"levelo://app?vid=35b70ffc-51ea-402e-93f7-932f466d751f","ios":"levelo://app?vid=35b70ffc-51ea-402e-93f7-932f466d751f"},"vehicle_type_id":"4","last_reported":1714928756,"current_range_meters":31200,"station_id":"ce4bhqp2rcd13ifvqhng","pricing_plan_id":"cebpf4jnsgd1na2vs0mg"},{"bike_id":"9f50c2c7-96b7-46a1-a6cc-af548076d091","system_id":"levelo_inurba_marseille","lat":43.298037,"lon":5.381066,"is_reserved":false,"is_disabled":false,"rental_uris":{"android":"levelo://app?vid=9f50c2c7-96b7-46a1-a6cc-af548076d091","ios":"levelo://app?vid=9f50c2c7-96b7-46a1-a6cc-af548076d091"},"vehicle_type_id":"4","last_reported":1714928756,"current_range_meters":13600,"station_id":"ce4bgip2rcd13ifvqbb0","pricing_plan_id":"cebpf4jnsgd1na2vs0mg"},{"bike_id":"c63c1900-745d-4c79-8396-7f38165012aa","system_id":"levelo_inurba_marseille","lat":43.298037,"lon":5.381066,"is_reserved":false,"is_disabled":false,"rental_uris":{"android":"levelo://app?vid=c63c1900-745d-4c79-8396-7f38165012aa","ios":"levelo://app?vid=c63c1900-745d-4c79-8396-7f38165012aa"},"vehicle_type_id":"4","last_reported":1714928756,"current_range_meters":0,"station_id":"ce4bgip2rcd13ifvqbb0","pricing_plan_id":"cebpf4jnsgd1na2vs0mg"},{"bike_id":"9381af83-7283-4961-b0cd-36db98597828","system_id":"levelo_inurba_marseille","lat":43.298037,"lon":5.381066,"is_reserved":false,"is_disabled":false,"rental_uris":{"android":"levelo://app?vid=9381af83-7283-4961-b0cd-36db98597828","ios":"levelo://app?vid=9381af83-7283-4961-b0cd-36db98597828"},"vehicle_type_id":"4","last_reported":1714928756,"current_range_meters":400,"station_id":"ce4bgip2rcd13ifvqbb0","pricing_plan_id":"cebpf4jnsgd1na2vs0mg"},{"bike_id":"016c34cc-75a6-4d2e-b607-5382b32b879d","system_id":"levelo_inurba_marseille","lat":43.296277,"lon":5.377108,"is_reserved":false,"is_disabled":false,"rental_uris":{"android":"levelo://app?vid=016c34cc-75a6-4d2e-b607-5382b32b879d","ios":"levelo://app?vid=016c34cc-75a6-4d2e-b607-5382b32b879d"},"vehicle_type_id":"4","last_reported":1714928756,"current_range_meters":21200,"station_id":"ce4bgi92rcd13ifvqb90","pricing_plan_id":"cebpf4jnsgd1na2vs0mg"},{"bike_id":"ea92ef56-0a12-4561-b999-c2a7b71f6523","system_id":"levelo_inurba_marseille","lat":43.296277,"lon":5.377108,"is_reserved":false,"is_disabled":false,"rental_uris":{"android":"levelo://app?vid=ea92ef56-0a12-4561-b999-c2a7b71f6523","ios":"levelo://app?vid=ea92ef56-0a12-4561-b999-c2a7b71f6523"},"vehicle_type_id":"4","last_reported":1714928756,"current_range_meters":12800,"station_id":"ce4bgi92rcd13ifvqb90","pricing_plan_id":"cebpf4jnsgd1na2vs0mg"},{"bike_id":"02cc71ca-0648-493d-a894-89798fc75d13","system_id":"levelo_inurba_marseille","lat":43.297903,"lon":5.381174,"is_reserved":false,"is_disabled":false,"rental_uris":{"android":"levelo://app?vid=02cc71ca-0648-493d-a894-89798fc75d13","ios":"levelo://app?vid=02cc71ca-0648-493d-a894-89798fc75d13"},"vehicle_type_id":"4","last_reported":1714928756,"current_range_meters":0,"station_id":"ce4bgip2rcd13ifvqbb0","pricing_plan_id":"cebpf4jnsgd1na2vs0mg"},{"bike_id":"3bcece3f-736e-463f-8512-de7e78591746","system_id":"levelo_inurba_marseille","lat":43.299707,"lon":5.384859,"is_reserved":false,"is_disabled":false,"rental_uris":{"android":"levelo://app?vid=3bcece3f-736e-463f-8512-de7e78591746","ios":"levelo://app?vid=3bcece3f-736e-463f-8512-de7e78591746"},"vehicle_type_id":"4","last_reported":1714928756,"current_range_meters":3200,"station_id":"ce4bgj92rcd13ifvqbd0","pricing_plan_id":"cebpf4jnsgd1na2vs0mg"},{"bike_id":"bd82215a-9095-409d-ac5f-e421d282b6fc","system_id":"levelo_inurba_marseille","lat":43.29975,"lon":5.38488,"is_reserved":false,"is_disabled":false,"rental_uris":{"android":"levelo://app?vid=bd82215a-9095-409d-ac5f-e421d282b6fc","ios":"levelo://app?vid=bd82215a-9095-409d-ac5f-e421d282b6fc"},"vehicle_type_id":"4","last_reported":1714928756,"current_range_meters":0,"station_id":"ce4bgj92rcd13ifvqbd0","pricing_plan_id":"cebpf4jnsgd1na2vs0mg"},{"bike_id":"ade79891-89f5-47e8-8f3d-4e867760f8e6","system_id":"levelo_inurba_marseille","lat":43.29968,"lon":5.38494,"is_reserved":false,"is_disabled":false,"rental_uris":{"android":"levelo://app?vid=ade79891-89f5-47e8-8f3d-4e867760f8e6","ios":"levelo://app?vid=ade79891-89f5-47e8-8f3d-4e867760f8e6"},"vehicle_type_id":"4","last_reported":1714928756,"current_range_meters":0,"station_id":"ce4bgj92rcd13ifvqbd0","pricing_plan_id":"cebpf4jnsgd1na2vs0mg"},{"bike_id":"4a39b302-b5a2-4539-b586-f66857dbb7c6","system_id":"levelo_inurba_marseille","lat":43.32367,"lon":5.38886,"is_reserved":false,"is_disabled":false,"rental_uris":{"android":"levelo://app?vid=4a39b302-b5a2-4539-b586-f66857dbb7c6","ios":"levelo://app?vid=4a39b302-b5a2-4539-b586-f66857dbb7c6"},"vehicle_type_id":"4","last_reported":1714928756,"current_range_meters":0,"station_id":"ce4bhqp2rcd13ifvqhog","pricing_plan_id":"cebpf4jnsgd1na2vs0mg"},{"bike_id":"1996cb9d-ce14-4f86-85da-4f21cdfdb994","system_id":"levelo_inurba_marseille","lat":43.32367,"lon":5.388836,"is_reserved":false,"is_disabled":false,"rental_uris":{"android":"levelo://app?vid=1996cb9d-ce14-4f86-85da-4f21cdfdb994","ios":"levelo://app?vid=1996cb9d-ce14-4f86-85da-4f21cdfdb994"},"vehicle_type_id":"4","last_reported":1714928756,"current_range_meters":0,"station_id":"ce4bhqp2rcd13ifvqhog","pricing_plan_id":"cebpf4jnsgd1na2vs0mg"},{"bike_id":"05b7d790-4fe8-4a9b-bd1c-23e2032623c9","system_id":"levelo_inurba_marseille","lat":43.32367,"lon":5.388836,"is_reserved":false,"is_disabled":false,"rental_uris":{"android":"levelo://app?vid=05b7d790-4fe8-4a9b-bd1c-23e2032623c9","ios":"levelo://app?vid=05b7d790-4fe8-4a9b-bd1c-23e2032623c9"},"vehicle_type_id":"4","last_reported":1714928756,"current_range_meters":0,"station_id":"ce4bhqp2rcd13ifvqhog","pricing_plan_id":"cebpf4jnsgd1na2vs0mg"},{"bike_id":"b98d1619-8109-4ebe-9407-847d2ba1a52b","system_id":"levelo_inurba_marseille","lat":43.29602,"lon":5.381084,"is_reserved":false,"is_disabled":false,"rental_uris":{"android":"levelo://app?vid=b98d1619-8109-4ebe-9407-847d2ba1a52b","ios":"levelo://app?vid=b98d1619-8109-4ebe-9407-847d2ba1a52b"},"vehicle_type_id":"4","last_reported":1714928756,"current_range_meters":0,"station_id":"ce4bgl12rcd13ifvqbo0","pricing_plan_id":"cebpf4jnsgd1na2vs0mg"},{"bike_id":"22f684e9-2597-4fed-8292-5082cd5a2155","system_id":"levelo_inurba_marseille","lat":43.30678,"lon":5.39295,"is_reserved":false,"is_disabled":false,"rental_uris":{"android":"levelo://app?vid=22f684e9-2597-4fed-8292-5082cd5a2155","ios":"levelo://app?vid=22f684e9-2597-4fed-8292-5082cd5a2155"},"vehicle_type_id":"4","last_reported":1714928756,"current_range_meters":0,"station_id":"","pricing_plan_id":"cebpf4jnsgd1na2vs0mg"},{"bike_id":"c3fe9e24-f9ec-456c-ad9b-dcee075c1bd7","system_id":"levelo_inurba_marseille","lat":43.293259,"lon":5.371586,"is_reserved":false,"is_disabled":false,"rental_uris":{"android":"levelo://app?vid=c3fe9e24-f9ec-456c-ad9b-dcee075c1bd7","ios":"levelo://app?vid=c3fe9e24-f9ec-456c-ad9b-dcee075c1bd7"},"vehicle_type_id":"4","last_reported":1714928756,"current_range_meters":3200,"station_id":"ce4bgh92rcd13ifvqb40","pricing_plan_id":"cebpf4jnsgd1na2vs0mg"},{"bike_id":"07d81044-dbcd-4c01-9fac-0f82b429be37","system_id":"levelo_inurba_marseille","lat":43.29277,"lon":5.36835,"is_reserved":false,"is_disabled":false,"rental_uris":{"android":"levelo://app?vid=07d81044-dbcd-4c01-9fac-0f82b429be37","ios":"levelo://app?vid=07d81044-dbcd-4c01-9fac-0f82b429be37"},"vehicle_type_id":"4","last_reported":1714928756,"current_range_meters":0,"station_id":"ce4bhbp2rcd13ifvqesg","pricing_plan_id":"cebpf4jnsgd1na2vs0mg"},{"bike_id":"321ef3b1-7a21-4936-9b3e-8eaa38008004","system_id":"levelo_inurba_marseille","lat":43.293249,"lon":5.371578,"is_reserved":false,"is_disabled":false,"rental_uris":{"android":"levelo://app?vid=321ef3b1-7a21-4936-9b3e-8eaa38008004","ios":"levelo://app?vid=321ef3b1-7a21-4936-9b3e-8eaa38008004"},"vehicle_type_id":"4","last_reported":1714928756,"current_range_meters":24400,"station_id":"ce4bgh92rcd13ifvqb40","pricing_plan_id":"cebpf4jnsgd1na2vs0mg"},{"bike_id":"09f7cb5d-9edd-47d2-a04e-f1b90dc48fc4","system_id":"levelo_inurba_marseille","lat":43.292749,"lon":5.368402,"is_reserved":false,"is_disabled":false,"rental_uris":{"android":"levelo://app?vid=09f7cb5d-9edd-47d2-a04e-f1b90dc48fc4","ios":"levelo://app?vid=09f7cb5d-9edd-47d2-a04e-f1b90dc48fc4"},"vehicle_type_id":"4","last_reported":1714928756,"current_range_meters":20400,"station_id":"ce4bhbp2rcd13ifvqesg","pricing_plan_id":"cebpf4jnsgd1na2vs0mg"},{"bike_id":"49a71e70-f175-4ce4-9f54-ef168b3b4d33","system_id":"levelo_inurba_marseille","lat":43.293009,"lon":5.374584,"is_reserved":false,"is_disabled":false,"rental_uris":{"android":"levelo://app?vid=49a71e70-f175-4ce4-9f54-ef168b3b4d33","ios":"levelo://app?vid=49a71e70-f175-4ce4-9f54-ef168b3b4d33"},"vehicle_type_id":"4","last_reported":1714928756,"current_range_meters":1200,"station_id":"ce4bgi12rcd13ifvqb70","pricing_plan_id":"cebpf4jnsgd1na2vs0mg"},{"bike_id":"182200fe-116d-483a-a6a1-f85b04fde54d","system_id":"levelo_inurba_marseille","lat":43.29303,"lon":5.37433,"is_reserved":false,"is_disabled":false,"rental_uris":{"android":"levelo://app?vid=182200fe-116d-483a-a6a1-f85b04fde54d","ios":"levelo://app?vid=182200fe-116d-483a-a6a1-f85b04fde54d"},"vehicle_type_id":"4","last_reported":1714928756,"current_range_meters":0,"station_id":"ce4bgi12rcd13ifvqb70","pricing_plan_id":"cebpf4jnsgd1na2vs0mg"},{"bike_id":"f420f391-e5d2-4be4-b146-b2399fa834c2","system_id":"levelo_inurba_marseille","lat":43.29304,"lon":5.37449,"is_reserved":false,"is_disabled":false,"rental_uris":{"android":"levelo://app?vid=f420f391-e5d2-4be4-b146-b2399fa834c2","ios":"levelo://app?vid=f420f391-e5d2-4be4-b146-b2399fa834c2"},"vehicle_type_id":"4","last_reported":1714928756,"current_range_meters":0,"station_id":"ce4bgi12rcd13ifvqb70","pricing_plan_id":"cebpf4jnsgd1na2vs0mg"},{"bike_id":"af905aa2-3e73-44fb-8385-f496f8803d18","system_id":"levelo_inurba_marseille","lat":43.29301,"lon":5.37454,"is_reserved":false,"is_disabled":false,"rental_uris":{"android":"levelo://app?vid=af905aa2-3e73-44fb-8385-f496f8803d18","ios":"levelo://app?vid=af905aa2-3e73-44fb-8385-f496f8803d18"},"vehicle_type_id":"4","last_reported":1714928756,"current_range_meters":0,"station_id":"ce4bgi12rcd13ifvqb70","pricing_plan_id":"cebpf4jnsgd1na2vs0mg"},{"bike_id":"87d6975e-434e-4cdb-b592-8de61d60c161","system_id":"levelo_inurba_marseille","lat":43.293009,"lon":5.374584,"is_reserved":false,"is_disabled":false,"rental_uris":{"android":"levelo://app?vid=87d6975e-434e-4cdb-b592-8de61d60c161","ios":"levelo://app?vid=87d6975e-434e-4cdb-b592-8de61d60c161"},"vehicle_type_id":"4","last_reported":1714928756,"current_range_meters":4400,"station_id":"ce4bgi12rcd13ifvqb70","pricing_plan_id":"cebpf4jnsgd1na2vs0mg"},{"bike_id":"0cef6f97-0d4c-487c-9695-c68007ba4c10","system_id":"levelo_inurba_marseille","lat":43.293009,"lon":5.374584,"is_reserved":false,"is_disabled":false,"rental_uris":{"android":"levelo://app?vid=0cef6f97-0d4c-487c-9695-c68007ba4c10","ios":"levelo://app?vid=0cef6f97-0d4c-487c-9695-c68007ba4c10"},"vehicle_type_id":"4","last_reported":1714928756,"current_range_meters":18400,"station_id":"ce4bgi12rcd13ifvqb70","pricing_plan_id":"cebpf4jnsgd1na2vs0mg"},{"bike_id":"80a95c52-1408-4d6f-8a5c-90994d29ea3f","system_id":"levelo_inurba_marseille","lat":43.302992,"lon":5.392136,"is_reserved":false,"is_disabled":false,"rental_uris":{"android":"levelo://app?vid=80a95c52-1408-4d6f-8a5c-90994d29ea3f","ios":"levelo://app?vid=80a95c52-1408-4d6f-8a5c-90994d29ea3f"},"vehicle_type_id":"4","last_reported":1714928756,"current_range_meters":22400,"station_id":"ce4bgkh2rcd13ifvqbk0","pricing_plan_id":"cebpf4jnsgd1na2vs0mg"},{"bike_id":"d671c029-5530-477a-b573-14af45f79762","system_id":"levelo_inurba_marseille","lat":43.2936,"lon":5.37835,"is_reserved":false,"is_disabled":false,"rental_uris":{"android":"levelo://app?vid=d671c029-5530-477a-b573-14af45f79762","ios":"levelo://app?vid=d671c029-5530-477a-b573-14af45f79762"},"vehicle_type_id":"4","last_reported":1714928756,"current_range_meters":28800,"station_id":"ce4bgjh2rcd13ifvqbf0","pricing_plan_id":"cebpf4jnsgd1na2vs0mg"},{"bike_id":"0c66adba-04fc-4f1b-bebd-e4d00ce9e8e3","system_id":"levelo_inurba_marseille","lat":43.29377,"lon":5.37859,"is_reserved":false,"is_disabled":false,"rental_uris":{"android":"levelo://app?vid=0c66adba-04fc-4f1b-bebd-e4d00ce9e8e3","ios":"levelo://app?vid=0c66adba-04fc-4f1b-bebd-e4d00ce9e8e3"},"vehicle_type_id":"4","last_reported":1714928756,"current_range_meters":0,"station_id":"ce4bgjh2rcd13ifvqbf0","pricing_plan_id":"cebpf4jnsgd1na2vs0mg"},{"bike_id":"2b9c47f4-1d9d-4630-a279-14ae9ee3ab3f","system_id":"levelo_inurba_marseille","lat":43.2936,"lon":5.37835,"is_reserved":false,"is_disabled":false,"rental_uris":{"android":"levelo://app?vid=2b9c47f4-1d9d-4630-a279-14ae9ee3ab3f","ios":"levelo://app?vid=2b9c47f4-1d9d-4630-a279-14ae9ee3ab3f"},"vehicle_type_id":"4","last_reported":1714928756,"current_range_meters":6000,"station_id":"ce4bgjh2rcd13ifvqbf0","pricing_plan_id":"cebpf4jnsgd1na2vs0mg"},{"bike_id":"8b99d157-df46-4425-bd23-4a86b9e2e996","system_id":"levelo_inurba_marseille","lat":43.292311,"lon":5.360731,"is_reserved":false,"is_disabled":false,"rental_uris":{"android":"levelo://app?vid=8b99d157-df46-4425-bd23-4a86b9e2e996","ios":"levelo://app?vid=8b99d157-df46-4425-bd23-4a86b9e2e996"},"vehicle_type_id":"4","last_reported":1714928756,"current_range_meters":0,"station_id":"ce4bhbh2rcd13ifvqeqg","pricing_plan_id":"cebpf4jnsgd1na2vs0mg"},{"bike_id":"dbd5a5c7-3dcf-4c2b-a130-7e7e6105e84f","system_id":"levelo_inurba_marseille","lat":43.29229,"lon":5.36049,"is_reserved":false,"is_disabled":false,"rental_uris":{"android":"levelo://app?vid=dbd5a5c7-3dcf-4c2b-a130-7e7e6105e84f","ios":"levelo://app?vid=dbd5a5c7-3dcf-4c2b-a130-7e7e6105e84f"},"vehicle_type_id":"4","last_reported":1714928756,"current_range_meters":0,"station_id":"ce4bhbh2rcd13ifvqeqg","pricing_plan_id":"cebpf4jnsgd1na2vs0mg"},{"bike_id":"cd299738-eb53-4cf4-84b0-a5823d1f436d","system_id":"levelo_inurba_marseille","lat":43.30085,"lon":5.390856,"is_reserved":false,"is_disabled":false,"rental_uris":{"android":"levelo://app?vid=cd299738-eb53-4cf4-84b0-a5823d1f436d","ios":"levelo://app?vid=cd299738-eb53-4cf4-84b0-a5823d1f436d"},"vehicle_type_id":"4","last_reported":1714928756,"current_range_meters":0,"station_id":"ce4bh192rcd13ifvqdb0","pricing_plan_id":"cebpf4jnsgd1na2vs0mg"},{"bike_id":"f27ff229-0054-4fa3-81b3-1a9092c5dd19","system_id":"levelo_inurba_marseille","lat":43.292311,"lon":5.360731,"is_reserved":false,"is_disabled":false,"rental_uris":{"android":"levelo://app?vid=f27ff229-0054-4fa3-81b3-1a9092c5dd19","ios":"levelo://app?vid=f27ff229-0054-4fa3-81b3-1a9092c5dd19"},"vehicle_type_id":"4","last_reported":1714928756,"current_range_meters":0,"station_id":"ce4bhbh2rcd13ifvqeqg","pricing_plan_id":"cebpf4jnsgd1na2vs0mg"},{"bike_id":"47089ff8-77be-4bea-9ec2-889322ec10ac","system_id":"levelo_inurba_marseille","lat":43.29878,"lon":5.38902,"is_reserved":false,"is_disabled":false,"rental_uris":{"android":"levelo://app?vid=47089ff8-77be-4bea-9ec2-889322ec10ac","ios":"levelo://app?vid=47089ff8-77be-4bea-9ec2-889322ec10ac"},"vehicle_type_id":"4","last_reported":1714928756,"current_range_meters":0,"station_id":"ce4bh392rcd13ifvqdl0","pricing_plan_id":"cebpf4jnsgd1na2vs0mg"},{"bike_id":"c983c83d-7868-42f2-8d28-00acb459aab4","system_id":"levelo_inurba_marseille","lat":43.298764,"lon":5.388973,"is_reserved":false,"is_disabled":false,"rental_uris":{"android":"levelo://app?vid=c983c83d-7868-42f2-8d28-00acb459aab4","ios":"levelo://app?vid=c983c83d-7868-42f2-8d28-00acb459aab4"},"vehicle_type_id":"4","last_reported":1714928756,"current_range_meters":0,"station_id":"ce4bh392rcd13ifvqdl0","pricing_plan_id":"cebpf4jnsgd1na2vs0mg"},{"bike_id":"ebfe3c07-13d2-49d3-9160-9bf322235067","system_id":"levelo_inurba_marseille","lat":43.31329,"lon":5.39696,"is_reserved":false,"is_disabled":false,"rental_uris":{"android":"levelo://app?vid=ebfe3c07-13d2-49d3-9160-9bf322235067","ios":"levelo://app?vid=ebfe3c07-13d2-49d3-9160-9bf322235067"},"vehicle_type_id":"4","last_reported":1714928756,"current_range_meters":14400,"station_id":"ce4bgvp2rcd13ifvqcu0","pricing_plan_id":"cebpf4jnsgd1na2vs0mg"},{"bike_id":"4735fb43-a137-451b-b508-802bec4d7731","system_id":"levelo_inurba_marseille","lat":43.29541,"lon":5.38538,"is_reserved":false,"is_disabled":false,"rental_uris":{"android":"levelo://app?vid=4735fb43-a137-451b-b508-802bec4d7731","ios":"levelo://app?vid=4735fb43-a137-451b-b508-802bec4d7731"},"vehicle_type_id":"4","last_reported":1714928756,"current_range_meters":0,"station_id":"ce4bgih2rcd13ifvqba0","pricing_plan_id":"cebpf4jnsgd1na2vs0mg"},{"bike_id":"4a90d86b-4ffe-4194-b9c5-5509a5d98b04","system_id":"levelo_inurba_marseille","lat":43.295426,"lon":5.385592,"is_reserved":false,"is_disabled":false,"rental_uris":{"android":"levelo://app?vid=4a90d86b-4ffe-4194-b9c5-5509a5d98b04","ios":"levelo://app?vid=4a90d86b-4ffe-4194-b9c5-5509a5d98b04"},"vehicle_type_id":"4","last_reported":1714928756,"current_range_meters":0,"station_id":"ce4bgih2rcd13ifvqba0","pricing_plan_id":"cebpf4jnsgd1na2vs0mg"},{"bike_id":"8756721d-6736-48cf-9a73-f8f0b669f5ca","system_id":"levelo_inurba_marseille","lat":43.29529,"lon":5.385581,"is_reserved":false,"is_disabled":false,"rental_uris":{"android":"levelo://app?vid=8756721d-6736-48cf-9a73-f8f0b669f5ca","ios":"levelo://app?vid=8756721d-6736-48cf-9a73-f8f0b669f5ca"},"vehicle_type_id":"4","last_reported":1714928756,"current_range_meters":4000,"station_id":"ce4bgih2rcd13ifvqba0","pricing_plan_id":"cebpf4jnsgd1na2vs0mg"},{"bike_id":"03e798f5-34d4-4634-a91a-32de6b09af12","system_id":"levelo_inurba_marseille","lat":43.29529,"lon":5.385581,"is_reserved":false,"is_disabled":false,"rental_uris":{"android":"levelo://app?vid=03e798f5-34d4-4634-a91a-32de6b09af12","ios":"levelo://app?vid=03e798f5-34d4-4634-a91a-32de6b09af12"},"vehicle_type_id":"4","last_reported":1714928756,"current_range_meters":0,"station_id":"ce4bgih2rcd13ifvqba0","pricing_plan_id":"cebpf4jnsgd1na2vs0mg"},{"bike_id":"019e0b88-a58c-458e-b691-c571a80f3b1a","system_id":"levelo_inurba_marseille","lat":43.29529,"lon":5.385581,"is_reserved":false,"is_disabled":false,"rental_uris":{"android":"levelo://app?vid=019e0b88-a58c-458e-b691-c571a80f3b1a","ios":"levelo://app?vid=019e0b88-a58c-458e-b691-c571a80f3b1a"},"vehicle_type_id":"4","last_reported":1714928756,"current_range_meters":0,"station_id":"ce4bgih2rcd13ifvqba0","pricing_plan_id":"cebpf4jnsgd1na2vs0mg"},{"bike_id":"ffd4c2d1-ad6b-4eeb-a4bb-cb5e8d79f516","system_id":"levelo_inurba_marseille","lat":43.29529,"lon":5.385581,"is_reserved":false,"is_disabled":false,"rental_uris":{"android":"levelo://app?vid=ffd4c2d1-ad6b-4eeb-a4bb-cb5e8d79f516","ios":"levelo://app?vid=ffd4c2d1-ad6b-4eeb-a4bb-cb5e8d79f516"},"vehicle_type_id":"4","last_reported":1714928756,"current_range_meters":22400,"station_id":"ce4bgih2rcd13ifvqba0","pricing_plan_id":"cebpf4jnsgd1na2vs0mg"},{"bike_id":"7fbb5e2d-e786-4cbc-a8b1-452bcc6a0b8b","system_id":"levelo_inurba_marseille","lat":43.290779,"lon":5.371482,"is_reserved":false,"is_disabled":false,"rental_uris":{"android":"levelo://app?vid=7fbb5e2d-e786-4cbc-a8b1-452bcc6a0b8b","ios":"levelo://app?vid=7fbb5e2d-e786-4cbc-a8b1-452bcc6a0b8b"},"vehicle_type_id":"4","last_reported":1714928756,"current_range_meters":0,"station_id":"ce4bh5p2rcd13ifvqe4g","pricing_plan_id":"cebpf4jnsgd1na2vs0mg"},{"bike_id":"ff41e683-69a1-4d06-8391-449c2621e9fa","system_id":"levelo_inurba_marseille","lat":43.290779,"lon":5.371482,"is_reserved":false,"is_disabled":false,"rental_uris":{"android":"levelo://app?vid=ff41e683-69a1-4d06-8391-449c2621e9fa","ios":"levelo://app?vid=ff41e683-69a1-4d06-8391-449c2621e9fa"},"vehicle_type_id":"4","last_reported":1714928756,"current_range_meters":22000,"station_id":"ce4bh5p2rcd13ifvqe4g","pricing_plan_id":"cebpf4jnsgd1na2vs0mg"},{"bike_id":"fab95083-fe58-4776-87b6-0acb2bad12bd","system_id":"levelo_inurba_marseille","lat":43.295527,"lon":5.386504,"is_reserved":false,"is_disabled":false,"rental_uris":{"android":"levelo://app?vid=fab95083-fe58-4776-87b6-0acb2bad12bd","ios":"levelo://app?vid=fab95083-fe58-4776-87b6-0acb2bad12bd"},"vehicle_type_id":"4","last_reported":1714928756,"current_range_meters":0,"station_id":"ce4bh292rcd13ifvqdf0","pricing_plan_id":"cebpf4jnsgd1na2vs0mg"},{"bike_id":"5ef93c09-c23e-4275-86d1-c34a22d1fc52","system_id":"levelo_inurba_marseille","lat":43.302008,"lon":5.394694,"is_reserved":false,"is_disabled":false,"rental_uris":{"android":"levelo://app?vid=5ef93c09-c23e-4275-86d1-c34a22d1fc52","ios":"levelo://app?vid=5ef93c09-c23e-4275-86d1-c34a22d1fc52"},"vehicle_type_id":"4","last_reported":1714928756,"current_range_meters":21600,"station_id":"ce4bh0p2rcd13ifvqd70","pricing_plan_id":"cebpf4jnsgd1na2vs0mg"},{"bike_id":"7cd19ae9-51ea-4407-b948-bda0276a5b79","system_id":"levelo_inurba_marseille","lat":43.302008,"lon":5.394694,"is_reserved":false,"is_disabled":false,"rental_uris":{"android":"levelo://app?vid=7cd19ae9-51ea-4407-b948-bda0276a5b79","ios":"levelo://app?vid=7cd19ae9-51ea-4407-b948-bda0276a5b79"},"vehicle_type_id":"4","last_reported":1714928756,"current_range_meters":1600,"station_id":"ce4bh0p2rcd13ifvqd70","pricing_plan_id":"cebpf4jnsgd1na2vs0mg"},{"bike_id":"63b1c06b-e298-4355-ba6f-8128cafa74c1","system_id":"levelo_inurba_marseille","lat":43.294628,"lon":5.386223,"is_reserved":false,"is_disabled":false,"rental_uris":{"android":"levelo://app?vid=63b1c06b-e298-4355-ba6f-8128cafa74c1","ios":"levelo://app?vid=63b1c06b-e298-4355-ba6f-8128cafa74c1"},"vehicle_type_id":"4","last_reported":1714928756,"current_range_meters":0,"station_id":"ce4bh2h2rcd13ifvqdh0","pricing_plan_id":"cebpf4jnsgd1na2vs0mg"},{"bike_id":"9f7a4b1b-2e65-4b1e-9d48-2a7c4ecfd6e9","system_id":"levelo_inurba_marseille","lat":43.290624,"lon":5.359245,"is_reserved":false,"is_disabled":false,"rental_uris":{"android":"levelo://app?vid=9f7a4b1b-2e65-4b1e-9d48-2a7c4ecfd6e9","ios":"levelo://app?vid=9f7a4b1b-2e65-4b1e-9d48-2a7c4ecfd6e9"},"vehicle_type_id":"4","last_reported":1714928756,"current_range_meters":14800,"station_id":"ce4bha92rcd13ifvqeg0","pricing_plan_id":"cebpf4jnsgd1na2vs0mg"},{"bike_id":"8f0a1a37-961b-43fa-9a97-297fcb2d8c2b","system_id":"levelo_inurba_marseille","lat":43.294153,"lon":5.386305,"is_reserved":false,"is_disabled":false,"rental_uris":{"android":"levelo://app?vid=8f0a1a37-961b-43fa-9a97-297fcb2d8c2b","ios":"levelo://app?vid=8f0a1a37-961b-43fa-9a97-297fcb2d8c2b"},"vehicle_type_id":"4","last_reported":1714928756,"current_range_meters":4400,"station_id":"ce4bh2h2rcd13ifvqdh0","pricing_plan_id":"cebpf4jnsgd1na2vs0mg"},{"bike_id":"412c2e58-815e-4f25-afcb-bd631547d79c","system_id":"levelo_inurba_marseille","lat":43.294153,"lon":5.386305,"is_reserved":false,"is_disabled":false,"rental_uris":{"android":"levelo://app?vid=412c2e58-815e-4f25-afcb-bd631547d79c","ios":"levelo://app?vid=412c2e58-815e-4f25-afcb-bd631547d79c"},"vehicle_type_id":"4","last_reported":1714928756,"current_range_meters":7600,"station_id":"ce4bh2h2rcd13ifvqdh0","pricing_plan_id":"cebpf4jnsgd1na2vs0mg"},{"bike_id":"03445eba-89df-4017-ad50-fcd74e425345","system_id":"levelo_inurba_marseille","lat":43.294278,"lon":5.386213,"is_reserved":false,"is_disabled":false,"rental_uris":{"android":"levelo://app?vid=03445eba-89df-4017-ad50-fcd74e425345","ios":"levelo://app?vid=03445eba-89df-4017-ad50-fcd74e425345"},"vehicle_type_id":"4","last_reported":1714928756,"current_range_meters":3600,"station_id":"ce4bh2h2rcd13ifvqdh0","pricing_plan_id":"cebpf4jnsgd1na2vs0mg"},{"bike_id":"9244f192-20f6-4853-8085-ebfb7d3053cd","system_id":"levelo_inurba_marseille","lat":43.29423,"lon":5.38617,"is_reserved":false,"is_disabled":false,"rental_uris":{"android":"levelo://app?vid=9244f192-20f6-4853-8085-ebfb7d3053cd","ios":"levelo://app?vid=9244f192-20f6-4853-8085-ebfb7d3053cd"},"vehicle_type_id":"4","last_reported":1714928756,"current_range_meters":5200,"station_id":"ce4bh2h2rcd13ifvqdh0","pricing_plan_id":"cebpf4jnsgd1na2vs0mg"},{"bike_id":"df817235-3b9f-421b-805a-065cdd64affd","system_id":"levelo_inurba_marseille","lat":43.29423,"lon":5.3862,"is_reserved":false,"is_disabled":false,"rental_uris":{"android":"levelo://app?vid=df817235-3b9f-421b-805a-065cdd64affd","ios":"levelo://app?vid=df817235-3b9f-421b-805a-065cdd64affd"},"vehicle_type_id":"4","last_reported":1714928756,"current_range_meters":24000,"station_id":"ce4bh2h2rcd13ifvqdh0","pricing_plan_id":"cebpf4jnsgd1na2vs0mg"},{"bike_id":"fc17981a-d791-447e-8813-14664a7a24d7","system_id":"levelo_inurba_marseille","lat":43.29424,"lon":5.38622,"is_reserved":false,"is_disabled":false,"rental_uris":{"android":"levelo://app?vid=fc17981a-d791-447e-8813-14664a7a24d7","ios":"levelo://app?vid=fc17981a-d791-447e-8813-14664a7a24d7"},"vehicle_type_id":"4","last_reported":1714928756,"current_range_meters":20000,"station_id":"ce4bh2h2rcd13ifvqdh0","pricing_plan_id":"cebpf4jnsgd1na2vs0mg"},{"bike_id":"c8cfa35b-434e-420d-a5c8-22d07e37e042","system_id":"levelo_inurba_marseille","lat":43.2942,"lon":5.38617,"is_reserved":false,"is_disabled":false,"rental_uris":{"android":"levelo://app?vid=c8cfa35b-434e-420d-a5c8-22d07e37e042","ios":"levelo://app?vid=c8cfa35b-434e-420d-a5c8-22d07e37e042"},"vehicle_type_id":"4","last_reported":1714928756,"current_range_meters":22400,"station_id":"ce4bh2h2rcd13ifvqdh0","pricing_plan_id":"cebpf4jnsgd1na2vs0mg"},{"bike_id":"8f035e01-08e2-489d-9e1e-06f73198f37a","system_id":"levelo_inurba_marseille","lat":43.29422,"lon":5.38621,"is_reserved":false,"is_disabled":false,"rental_uris":{"android":"levelo://app?vid=8f035e01-08e2-489d-9e1e-06f73198f37a","ios":"levelo://app?vid=8f035e01-08e2-489d-9e1e-06f73198f37a"},"vehicle_type_id":"4","last_reported":1714928756,"current_range_meters":0,"station_id":"ce4bh2h2rcd13ifvqdh0","pricing_plan_id":"cebpf4jnsgd1na2vs0mg"},{"bike_id":"d8498e28-cd93-40d4-b2dc-4390254dc8c4","system_id":"levelo_inurba_marseille","lat":43.29424,"lon":5.38628,"is_reserved":false,"is_disabled":false,"rental_uris":{"android":"levelo://app?vid=d8498e28-cd93-40d4-b2dc-4390254dc8c4","ios":"levelo://app?vid=d8498e28-cd93-40d4-b2dc-4390254dc8c4"},"vehicle_type_id":"4","last_reported":1714928756,"current_range_meters":2800,"station_id":"ce4bh2h2rcd13ifvqdh0","pricing_plan_id":"cebpf4jnsgd1na2vs0mg"},{"bike_id":"53dd913b-20e4-401d-b92c-936fe2f0b26f","system_id":"levelo_inurba_marseille","lat":43.2942,"lon":5.38622,"is_reserved":false,"is_disabled":false,"rental_uris":{"android":"levelo://app?vid=53dd913b-20e4-401d-b92c-936fe2f0b26f","ios":"levelo://app?vid=53dd913b-20e4-401d-b92c-936fe2f0b26f"},"vehicle_type_id":"4","last_reported":1714928756,"current_range_meters":0,"station_id":"ce4bh2h2rcd13ifvqdh0","pricing_plan_id":"cebpf4jnsgd1na2vs0mg"},{"bike_id":"fa6bf917-6548-4231-8ba1-57c850cfc799","system_id":"levelo_inurba_marseille","lat":43.289478,"lon":5.366428,"is_reserved":false,"is_disabled":false,"rental_uris":{"android":"levelo://app?vid=fa6bf917-6548-4231-8ba1-57c850cfc799","ios":"levelo://app?vid=fa6bf917-6548-4231-8ba1-57c850cfc799"},"vehicle_type_id":"4","last_reported":1714928756,"current_range_meters":3200,"station_id":"ce4bhap2rcd13ifvqek0","pricing_plan_id":"cebpf4jnsgd1na2vs0mg"},{"bike_id":"5cffc890-0d8a-479e-a192-23f54cc0e052","system_id":"levelo_inurba_marseille","lat":43.29417,"lon":5.386188,"is_reserved":false,"is_disabled":false,"rental_uris":{"android":"levelo://app?vid=5cffc890-0d8a-479e-a192-23f54cc0e052","ios":"levelo://app?vid=5cffc890-0d8a-479e-a192-23f54cc0e052"},"vehicle_type_id":"4","last_reported":1714928756,"current_range_meters":15200,"station_id":"ce4bh2h2rcd13ifvqdh0","pricing_plan_id":"cebpf4jnsgd1na2vs0mg"},{"bike_id":"4ee84967-7004-4321-82a5-43b53eb4e424","system_id":"levelo_inurba_marseille","lat":43.29424,"lon":5.38632,"is_reserved":false,"is_disabled":false,"rental_uris":{"android":"levelo://app?vid=4ee84967-7004-4321-82a5-43b53eb4e424","ios":"levelo://app?vid=4ee84967-7004-4321-82a5-43b53eb4e424"},"vehicle_type_id":"4","last_reported":1714928756,"current_range_meters":3200,"station_id":"ce4bh2h2rcd13ifvqdh0","pricing_plan_id":"cebpf4jnsgd1na2vs0mg"},{"bike_id":"8a55a741-556a-4ffd-8804-1014348dd3e6","system_id":"levelo_inurba_marseille","lat":43.29421,"lon":5.38627,"is_reserved":false,"is_disabled":false,"rental_uris":{"android":"levelo://app?vid=8a55a741-556a-4ffd-8804-1014348dd3e6","ios":"levelo://app?vid=8a55a741-556a-4ffd-8804-1014348dd3e6"},"vehicle_type_id":"4","last_reported":1714928756,"current_range_meters":5200,"station_id":"ce4bh2h2rcd13ifvqdh0","pricing_plan_id":"cebpf4jnsgd1na2vs0mg"},{"bike_id":"6e36210d-70b3-4125-8e43-a4f34f43304a","system_id":"levelo_inurba_marseille","lat":43.29422,"lon":5.38629,"is_reserved":false,"is_disabled":false,"rental_uris":{"android":"levelo://app?vid=6e36210d-70b3-4125-8e43-a4f34f43304a","ios":"levelo://app?vid=6e36210d-70b3-4125-8e43-a4f34f43304a"},"vehicle_type_id":"4","last_reported":1714928756,"current_range_meters":17600,"station_id":"ce4bh2h2rcd13ifvqdh0","pricing_plan_id":"cebpf4jnsgd1na2vs0mg"},{"bike_id":"5029f610-a9ae-4fa9-91fb-2590519b6f17","system_id":"levelo_inurba_marseille","lat":43.29419,"lon":5.38626,"is_reserved":false,"is_disabled":false,"rental_uris":{"android":"levelo://app?vid=5029f610-a9ae-4fa9-91fb-2590519b6f17","ios":"levelo://app?vid=5029f610-a9ae-4fa9-91fb-2590519b6f17"},"vehicle_type_id":"4","last_reported":1714928756,"current_range_meters":400,"station_id":"ce4bh2h2rcd13ifvqdh0","pricing_plan_id":"cebpf4jnsgd1na2vs0mg"},{"bike_id":"51d4c113-5c80-41ee-97b7-24942fc2a645","system_id":"levelo_inurba_marseille","lat":43.28946,"lon":5.366347,"is_reserved":false,"is_disabled":false,"rental_uris":{"android":"levelo://app?vid=51d4c113-5c80-41ee-97b7-24942fc2a645","ios":"levelo://app?vid=51d4c113-5c80-41ee-97b7-24942fc2a645"},"vehicle_type_id":"4","last_reported":1714928756,"current_range_meters":0,"station_id":"ce4bhap2rcd13ifvqek0","pricing_plan_id":"cebpf4jnsgd1na2vs0mg"},{"bike_id":"0e726a29-06d8-4192-be9d-f8d08a0b168b","system_id":"levelo_inurba_marseille","lat":43.29419,"lon":5.38627,"is_reserved":false,"is_disabled":false,"rental_uris":{"android":"levelo://app?vid=0e726a29-06d8-4192-be9d-f8d08a0b168b","ios":"levelo://app?vid=0e726a29-06d8-4192-be9d-f8d08a0b168b"},"vehicle_type_id":"4","last_reported":1714928756,"current_range_meters":1200,"station_id":"ce4bh2h2rcd13ifvqdh0","pricing_plan_id":"cebpf4jnsgd1na2vs0mg"},{"bike_id":"fbf49c09-2673-4407-8a4b-23e223917fbe","system_id":"levelo_inurba_marseille","lat":43.28945,"lon":5.36646,"is_reserved":false,"is_disabled":false,"rental_uris":{"android":"levelo://app?vid=fbf49c09-2673-4407-8a4b-23e223917fbe","ios":"levelo://app?vid=fbf49c09-2673-4407-8a4b-23e223917fbe"},"vehicle_type_id":"4","last_reported":1714928756,"current_range_meters":800,"station_id":"ce4bhap2rcd13ifvqek0","pricing_plan_id":"cebpf4jnsgd1na2vs0mg"},{"bike_id":"be4ee3c7-971a-425c-a3fb-2db1b14ba321","system_id":"levelo_inurba_marseille","lat":43.28945,"lon":5.36631,"is_reserved":false,"is_disabled":false,"rental_uris":{"android":"levelo://app?vid=be4ee3c7-971a-425c-a3fb-2db1b14ba321","ios":"levelo://app?vid=be4ee3c7-971a-425c-a3fb-2db1b14ba321"},"vehicle_type_id":"4","last_reported":1714928756,"current_range_meters":26400,"station_id":"ce4bhap2rcd13ifvqek0","pricing_plan_id":"cebpf4jnsgd1na2vs0mg"},{"bike_id":"c1c24a51-eff0-43eb-b645-41f8a30ff9df","system_id":"levelo_inurba_marseille","lat":43.29418,"lon":5.38627,"is_reserved":false,"is_disabled":false,"rental_uris":{"android":"levelo://app?vid=c1c24a51-eff0-43eb-b645-41f8a30ff9df","ios":"levelo://app?vid=c1c24a51-eff0-43eb-b645-41f8a30ff9df"},"vehicle_type_id":"4","last_reported":1714928756,"current_range_meters":10400,"station_id":"ce4bh2h2rcd13ifvqdh0","pricing_plan_id":"cebpf4jnsgd1na2vs0mg"},{"bike_id":"21e707f8-4e93-44c5-81b6-26ba10f5bae3","system_id":"levelo_inurba_marseille","lat":43.294178,"lon":5.386268,"is_reserved":false,"is_disabled":false,"rental_uris":{"android":"levelo://app?vid=21e707f8-4e93-44c5-81b6-26ba10f5bae3","ios":"levelo://app?vid=21e707f8-4e93-44c5-81b6-26ba10f5bae3"},"vehicle_type_id":"4","last_reported":1714928756,"current_range_meters":22000,"station_id":"ce4bh2h2rcd13ifvqdh0","pricing_plan_id":"cebpf4jnsgd1na2vs0mg"},{"bike_id":"f597240f-b10d-45dc-875a-b39bceaa634c","system_id":"levelo_inurba_marseille","lat":43.29419,"lon":5.3863,"is_reserved":false,"is_disabled":false,"rental_uris":{"android":"levelo://app?vid=f597240f-b10d-45dc-875a-b39bceaa634c","ios":"levelo://app?vid=f597240f-b10d-45dc-875a-b39bceaa634c"},"vehicle_type_id":"4","last_reported":1714928756,"current_range_meters":3200,"station_id":"ce4bh2h2rcd13ifvqdh0","pricing_plan_id":"cebpf4jnsgd1na2vs0mg"},{"bike_id":"c63cb9e1-606e-42d9-8c80-beb100523871","system_id":"levelo_inurba_marseille","lat":43.290319,"lon":5.375732,"is_reserved":false,"is_disabled":false,"rental_uris":{"android":"levelo://app?vid=c63cb9e1-606e-42d9-8c80-beb100523871","ios":"levelo://app?vid=c63cb9e1-606e-42d9-8c80-beb100523871"},"vehicle_type_id":"4","last_reported":1714928756,"current_range_meters":11200,"station_id":"ce4bh692rcd13ifvqe90","pricing_plan_id":"cebpf4jnsgd1na2vs0mg"},{"bike_id":"c8b79ef6-649e-4f19-8d77-f15c6d561e8d","system_id":"levelo_inurba_marseille","lat":43.29414,"lon":5.38626,"is_reserved":false,"is_disabled":false,"rental_uris":{"android":"levelo://app?vid=c8b79ef6-649e-4f19-8d77-f15c6d561e8d","ios":"levelo://app?vid=c8b79ef6-649e-4f19-8d77-f15c6d561e8d"},"vehicle_type_id":"4","last_reported":1714928756,"current_range_meters":8400,"station_id":"ce4bh2h2rcd13ifvqdh0","pricing_plan_id":"cebpf4jnsgd1na2vs0mg"},{"bike_id":"39a825ee-5268-49c9-bc31-d1cf3400e2bc","system_id":"levelo_inurba_marseille","lat":43.29418,"lon":5.38634,"is_reserved":false,"is_disabled":false,"rental_uris":{"android":"levelo://app?vid=39a825ee-5268-49c9-bc31-d1cf3400e2bc","ios":"levelo://app?vid=39a825ee-5268-49c9-bc31-d1cf3400e2bc"},"vehicle_type_id":"4","last_reported":1714928756,"current_range_meters":21600,"station_id":"ce4bh2h2rcd13ifvqdh0","pricing_plan_id":"cebpf4jnsgd1na2vs0mg"},{"bike_id":"4aad27af-a401-4c77-90c9-10df54955c32","system_id":"levelo_inurba_marseille","lat":43.29416,"lon":5.38631,"is_reserved":false,"is_disabled":false,"rental_uris":{"android":"levelo://app?vid=4aad27af-a401-4c77-90c9-10df54955c32","ios":"levelo://app?vid=4aad27af-a401-4c77-90c9-10df54955c32"},"vehicle_type_id":"4","last_reported":1714928756,"current_range_meters":800,"station_id":"ce4bh2h2rcd13ifvqdh0","pricing_plan_id":"cebpf4jnsgd1na2vs0mg"},{"bike_id":"802f1cc5-d865-4218-bc66-a7602189cd22","system_id":"levelo_inurba_marseille","lat":43.289393,"lon":5.366353,"is_reserved":false,"is_disabled":false,"rental_uris":{"android":"levelo://app?vid=802f1cc5-d865-4218-bc66-a7602189cd22","ios":"levelo://app?vid=802f1cc5-d865-4218-bc66-a7602189cd22"},"vehicle_type_id":"4","last_reported":1714928756,"current_range_meters":0,"station_id":"ce4bhap2rcd13ifvqek0","pricing_plan_id":"cebpf4jnsgd1na2vs0mg"},{"bike_id":"4f28a0d1-105a-4999-b0c8-53f6143004ca","system_id":"levelo_inurba_marseille","lat":43.29414,"lon":5.38633,"is_reserved":false,"is_disabled":false,"rental_uris":{"android":"levelo://app?vid=4f28a0d1-105a-4999-b0c8-53f6143004ca","ios":"levelo://app?vid=4f28a0d1-105a-4999-b0c8-53f6143004ca"},"vehicle_type_id":"4","last_reported":1714928756,"current_range_meters":20000,"station_id":"ce4bh2h2rcd13ifvqdh0","pricing_plan_id":"cebpf4jnsgd1na2vs0mg"},{"bike_id":"9f0f963e-e4d3-470c-b9f0-d49a4f5d5c38","system_id":"levelo_inurba_marseille","lat":43.289375,"lon":5.366515,"is_reserved":false,"is_disabled":false,"rental_uris":{"android":"levelo://app?vid=9f0f963e-e4d3-470c-b9f0-d49a4f5d5c38","ios":"levelo://app?vid=9f0f963e-e4d3-470c-b9f0-d49a4f5d5c38"},"vehicle_type_id":"4","last_reported":1714928756,"current_range_meters":0,"station_id":"ce4bhap2rcd13ifvqek0","pricing_plan_id":"cebpf4jnsgd1na2vs0mg"},{"bike_id":"725a42da-9dec-467d-84c3-b343d627b8c6","system_id":"levelo_inurba_marseille","lat":43.29422,"lon":5.38651,"is_reserved":false,"is_disabled":false,"rental_uris":{"android":"levelo://app?vid=725a42da-9dec-467d-84c3-b343d627b8c6","ios":"levelo://app?vid=725a42da-9dec-467d-84c3-b343d627b8c6"},"vehicle_type_id":"4","last_reported":1714928756,"current_range_meters":0,"station_id":"ce4bh2h2rcd13ifvqdh0","pricing_plan_id":"cebpf4jnsgd1na2vs0mg"},{"bike_id":"d4fa805f-1d73-4e19-95be-dac398a3458b","system_id":"levelo_inurba_marseille","lat":43.289184,"lon":5.366408,"is_reserved":false,"is_disabled":false,"rental_uris":{"android":"levelo://app?vid=d4fa805f-1d73-4e19-95be-dac398a3458b","ios":"levelo://app?vid=d4fa805f-1d73-4e19-95be-dac398a3458b"},"vehicle_type_id":"4","last_reported":1714928756,"current_range_meters":0,"station_id":"ce4bhap2rcd13ifvqek0","pricing_plan_id":"cebpf4jnsgd1na2vs0mg"},{"bike_id":"eed84951-1526-4e0d-923d-a28cd7bdba9e","system_id":"levelo_inurba_marseille","lat":43.28929,"lon":5.36647,"is_reserved":false,"is_disabled":false,"rental_uris":{"android":"levelo://app?vid=eed84951-1526-4e0d-923d-a28cd7bdba9e","ios":"levelo://app?vid=eed84951-1526-4e0d-923d-a28cd7bdba9e"},"vehicle_type_id":"4","last_reported":1714928756,"current_range_meters":3600,"station_id":"ce4bhap2rcd13ifvqek0","pricing_plan_id":"cebpf4jnsgd1na2vs0mg"},{"bike_id":"18659ab3-07ec-48ef-859a-c4a77b78c50f","system_id":"levelo_inurba_marseille","lat":43.289383,"lon":5.363943,"is_reserved":false,"is_disabled":false,"rental_uris":{"android":"levelo://app?vid=18659ab3-07ec-48ef-859a-c4a77b78c50f","ios":"levelo://app?vid=18659ab3-07ec-48ef-859a-c4a77b78c50f"},"vehicle_type_id":"4","last_reported":1714928756,"current_range_meters":0,"station_id":"ce4bhc92rcd13ifvqetg","pricing_plan_id":"cebpf4jnsgd1na2vs0mg"},{"bike_id":"f399a1c2-572b-4035-8ac5-4e9e4a8d6cbf","system_id":"levelo_inurba_marseille","lat":43.292642,"lon":5.384254,"is_reserved":false,"is_disabled":false,"rental_uris":{"android":"levelo://app?vid=f399a1c2-572b-4035-8ac5-4e9e4a8d6cbf","ios":"levelo://app?vid=f399a1c2-572b-4035-8ac5-4e9e4a8d6cbf"},"vehicle_type_id":"4","last_reported":1714928756,"current_range_meters":22800,"station_id":"ce4bh692rcd13ifvqea0","pricing_plan_id":"cebpf4jnsgd1na2vs0mg"},{"bike_id":"41f7a3db-f571-4adf-8220-efc8d4f6d1b7","system_id":"levelo_inurba_marseille","lat":43.292644,"lon":5.384257,"is_reserved":false,"is_disabled":false,"rental_uris":{"android":"levelo://app?vid=41f7a3db-f571-4adf-8220-efc8d4f6d1b7","ios":"levelo://app?vid=41f7a3db-f571-4adf-8220-efc8d4f6d1b7"},"vehicle_type_id":"4","last_reported":1714928756,"current_range_meters":0,"station_id":"ce4bh692rcd13ifvqea0","pricing_plan_id":"cebpf4jnsgd1na2vs0mg"},{"bike_id":"29533c5e-40f1-4058-b222-6ca8b43fdd6c","system_id":"levelo_inurba_marseille","lat":43.292644,"lon":5.384257,"is_reserved":false,"is_disabled":false,"rental_uris":{"android":"levelo://app?vid=29533c5e-40f1-4058-b222-6ca8b43fdd6c","ios":"levelo://app?vid=29533c5e-40f1-4058-b222-6ca8b43fdd6c"},"vehicle_type_id":"4","last_reported":1714928756,"current_range_meters":13600,"station_id":"ce4bh692rcd13ifvqea0","pricing_plan_id":"cebpf4jnsgd1na2vs0mg"},{"bike_id":"ee59f5ba-a98b-40a2-aae1-647d1b0784f7","system_id":"levelo_inurba_marseille","lat":43.292642,"lon":5.384254,"is_reserved":false,"is_disabled":false,"rental_uris":{"android":"levelo://app?vid=ee59f5ba-a98b-40a2-aae1-647d1b0784f7","ios":"levelo://app?vid=ee59f5ba-a98b-40a2-aae1-647d1b0784f7"},"vehicle_type_id":"4","last_reported":1714928756,"current_range_meters":3600,"station_id":"ce4bh692rcd13ifvqea0","pricing_plan_id":"cebpf4jnsgd1na2vs0mg"},{"bike_id":"fe29f71d-4e42-4dd6-90af-62a51f72a476","system_id":"levelo_inurba_marseille","lat":43.292642,"lon":5.384254,"is_reserved":false,"is_disabled":false,"rental_uris":{"android":"levelo://app?vid=fe29f71d-4e42-4dd6-90af-62a51f72a476","ios":"levelo://app?vid=fe29f71d-4e42-4dd6-90af-62a51f72a476"},"vehicle_type_id":"4","last_reported":1714928756,"current_range_meters":10400,"station_id":"ce4bh692rcd13ifvqea0","pricing_plan_id":"cebpf4jnsgd1na2vs0mg"},{"bike_id":"363ebd33-7dcc-41b7-b2b2-0af7e5085e2b","system_id":"levelo_inurba_marseille","lat":43.292642,"lon":5.384254,"is_reserved":false,"is_disabled":false,"rental_uris":{"android":"levelo://app?vid=363ebd33-7dcc-41b7-b2b2-0af7e5085e2b","ios":"levelo://app?vid=363ebd33-7dcc-41b7-b2b2-0af7e5085e2b"},"vehicle_type_id":"4","last_reported":1714928756,"current_range_meters":0,"station_id":"ce4bh692rcd13ifvqea0","pricing_plan_id":"cebpf4jnsgd1na2vs0mg"},{"bike_id":"ab17d16a-b403-47fb-9787-12ac2a5eeb4a","system_id":"levelo_inurba_marseille","lat":43.292642,"lon":5.384254,"is_reserved":false,"is_disabled":false,"rental_uris":{"android":"levelo://app?vid=ab17d16a-b403-47fb-9787-12ac2a5eeb4a","ios":"levelo://app?vid=ab17d16a-b403-47fb-9787-12ac2a5eeb4a"},"vehicle_type_id":"4","last_reported":1714928756,"current_range_meters":24400,"station_id":"ce4bh692rcd13ifvqea0","pricing_plan_id":"cebpf4jnsgd1na2vs0mg"},{"bike_id":"19231908-8d98-4944-b48f-493f0543fca2","system_id":"levelo_inurba_marseille","lat":43.292644,"lon":5.384257,"is_reserved":false,"is_disabled":false,"rental_uris":{"android":"levelo://app?vid=19231908-8d98-4944-b48f-493f0543fca2","ios":"levelo://app?vid=19231908-8d98-4944-b48f-493f0543fca2"},"vehicle_type_id":"4","last_reported":1714928756,"current_range_meters":24400,"station_id":"ce4bh692rcd13ifvqea0","pricing_plan_id":"cebpf4jnsgd1na2vs0mg"},{"bike_id":"bc23ae2e-9330-4366-885a-1f41c71e48a5","system_id":"levelo_inurba_marseille","lat":43.292642,"lon":5.384254,"is_reserved":false,"is_disabled":false,"rental_uris":{"android":"levelo://app?vid=bc23ae2e-9330-4366-885a-1f41c71e48a5","ios":"levelo://app?vid=bc23ae2e-9330-4366-885a-1f41c71e48a5"},"vehicle_type_id":"4","last_reported":1714928756,"current_range_meters":7200,"station_id":"ce4bh692rcd13ifvqea0","pricing_plan_id":"cebpf4jnsgd1na2vs0mg"},{"bike_id":"8a4bbd6b-bb9e-4bf6-bc1d-27a4943cf659","system_id":"levelo_inurba_marseille","lat":43.292642,"lon":5.384254,"is_reserved":false,"is_disabled":false,"rental_uris":{"android":"levelo://app?vid=8a4bbd6b-bb9e-4bf6-bc1d-27a4943cf659","ios":"levelo://app?vid=8a4bbd6b-bb9e-4bf6-bc1d-27a4943cf659"},"vehicle_type_id":"4","last_reported":1714928756,"current_range_meters":0,"station_id":"ce4bh692rcd13ifvqea0","pricing_plan_id":"cebpf4jnsgd1na2vs0mg"},{"bike_id":"98c1f602-d06d-4d72-b929-b1f57a7826ca","system_id":"levelo_inurba_marseille","lat":43.292644,"lon":5.384257,"is_reserved":false,"is_disabled":false,"rental_uris":{"android":"levelo://app?vid=98c1f602-d06d-4d72-b929-b1f57a7826ca","ios":"levelo://app?vid=98c1f602-d06d-4d72-b929-b1f57a7826ca"},"vehicle_type_id":"4","last_reported":1714928756,"current_range_meters":0,"station_id":"ce4bh692rcd13ifvqea0","pricing_plan_id":"cebpf4jnsgd1na2vs0mg"},{"bike_id":"f1b5ca47-4609-440c-84d5-ea9f9b3899b8","system_id":"levelo_inurba_marseille","lat":43.29266,"lon":5.38439,"is_reserved":false,"is_disabled":false,"rental_uris":{"android":"levelo://app?vid=f1b5ca47-4609-440c-84d5-ea9f9b3899b8","ios":"levelo://app?vid=f1b5ca47-4609-440c-84d5-ea9f9b3899b8"},"vehicle_type_id":"4","last_reported":1714928756,"current_range_meters":0,"station_id":"ce4bh692rcd13ifvqea0","pricing_plan_id":"cebpf4jnsgd1na2vs0mg"},{"bike_id":"73e0dcb7-b93a-4739-85fb-8e135d2f1937","system_id":"levelo_inurba_marseille","lat":43.304274,"lon":5.397513,"is_reserved":false,"is_disabled":false,"rental_uris":{"android":"levelo://app?vid=73e0dcb7-b93a-4739-85fb-8e135d2f1937","ios":"levelo://app?vid=73e0dcb7-b93a-4739-85fb-8e135d2f1937"},"vehicle_type_id":"4","last_reported":1714928756,"current_range_meters":2400,"station_id":"ce4bh092rcd13ifvqd20","pricing_plan_id":"cebpf4jnsgd1na2vs0mg"},{"bike_id":"c3ccd080-f7a9-4a3f-9022-52153cbe28fd","system_id":"levelo_inurba_marseille","lat":43.292644,"lon":5.384257,"is_reserved":false,"is_disabled":false,"rental_uris":{"android":"levelo://app?vid=c3ccd080-f7a9-4a3f-9022-52153cbe28fd","ios":"levelo://app?vid=c3ccd080-f7a9-4a3f-9022-52153cbe28fd"},"vehicle_type_id":"4","last_reported":1714928756,"current_range_meters":400,"station_id":"ce4bh692rcd13ifvqea0","pricing_plan_id":"cebpf4jnsgd1na2vs0mg"},{"bike_id":"eb9ebe0d-4f21-4f4c-b59f-b3a5fc3aa7a4","system_id":"levelo_inurba_marseille","lat":43.292644,"lon":5.384257,"is_reserved":false,"is_disabled":false,"rental_uris":{"android":"levelo://app?vid=eb9ebe0d-4f21-4f4c-b59f-b3a5fc3aa7a4","ios":"levelo://app?vid=eb9ebe0d-4f21-4f4c-b59f-b3a5fc3aa7a4"},"vehicle_type_id":"4","last_reported":1714928756,"current_range_meters":16800,"station_id":"ce4bh692rcd13ifvqea0","pricing_plan_id":"cebpf4jnsgd1na2vs0mg"},{"bike_id":"5854900b-84c2-4226-a041-a82fcd0a0296","system_id":"levelo_inurba_marseille","lat":43.292642,"lon":5.384254,"is_reserved":false,"is_disabled":false,"rental_uris":{"android":"levelo://app?vid=5854900b-84c2-4226-a041-a82fcd0a0296","ios":"levelo://app?vid=5854900b-84c2-4226-a041-a82fcd0a0296"},"vehicle_type_id":"4","last_reported":1714928756,"current_range_meters":0,"station_id":"ce4bh692rcd13ifvqea0","pricing_plan_id":"cebpf4jnsgd1na2vs0mg"},{"bike_id":"3eec496e-59f3-44e5-b960-1065be88bafa","system_id":"levelo_inurba_marseille","lat":43.292642,"lon":5.384254,"is_reserved":false,"is_disabled":false,"rental_uris":{"android":"levelo://app?vid=3eec496e-59f3-44e5-b960-1065be88bafa","ios":"levelo://app?vid=3eec496e-59f3-44e5-b960-1065be88bafa"},"vehicle_type_id":"4","last_reported":1714928756,"current_range_meters":800,"station_id":"ce4bh692rcd13ifvqea0","pricing_plan_id":"cebpf4jnsgd1na2vs0mg"},{"bike_id":"17bf048b-36b2-464b-9c7a-9c5b1542ba4e","system_id":"levelo_inurba_marseille","lat":43.292644,"lon":5.384257,"is_reserved":false,"is_disabled":false,"rental_uris":{"android":"levelo://app?vid=17bf048b-36b2-464b-9c7a-9c5b1542ba4e","ios":"levelo://app?vid=17bf048b-36b2-464b-9c7a-9c5b1542ba4e"},"vehicle_type_id":"4","last_reported":1714928756,"current_range_meters":16400,"station_id":"ce4bh692rcd13ifvqea0","pricing_plan_id":"cebpf4jnsgd1na2vs0mg"},{"bike_id":"fe01a358-5627-464a-a7b2-5d44130cf629","system_id":"levelo_inurba_marseille","lat":43.292644,"lon":5.384257,"is_reserved":false,"is_disabled":false,"rental_uris":{"android":"levelo://app?vid=fe01a358-5627-464a-a7b2-5d44130cf629","ios":"levelo://app?vid=fe01a358-5627-464a-a7b2-5d44130cf629"},"vehicle_type_id":"4","last_reported":1714928756,"current_range_meters":0,"station_id":"ce4bh692rcd13ifvqea0","pricing_plan_id":"cebpf4jnsgd1na2vs0mg"},{"bike_id":"77d309f9-ebe6-456c-8a33-05fd40c2339f","system_id":"levelo_inurba_marseille","lat":43.290104,"lon":5.356111,"is_reserved":false,"is_disabled":false,"rental_uris":{"android":"levelo://app?vid=77d309f9-ebe6-456c-8a33-05fd40c2339f","ios":"levelo://app?vid=77d309f9-ebe6-456c-8a33-05fd40c2339f"},"vehicle_type_id":"4","last_reported":1714928756,"current_range_meters":400,"station_id":"ce4bhb92rcd13ifvqen0","pricing_plan_id":"cebpf4jnsgd1na2vs0mg"},{"bike_id":"896be091-9539-4791-8648-9bf0d598f9ca","system_id":"levelo_inurba_marseille","lat":43.290995,"lon":5.381361,"is_reserved":false,"is_disabled":false,"rental_uris":{"android":"levelo://app?vid=896be091-9539-4791-8648-9bf0d598f9ca","ios":"levelo://app?vid=896be091-9539-4791-8648-9bf0d598f9ca"},"vehicle_type_id":"4","last_reported":1714928756,"current_range_meters":24800,"station_id":"ce4bh512rcd13ifvqe2g","pricing_plan_id":"cebpf4jnsgd1na2vs0mg"},{"bike_id":"c1c730e6-190c-4dc4-89c7-c817a81fa6fc","system_id":"levelo_inurba_marseille","lat":43.290995,"lon":5.381361,"is_reserved":false,"is_disabled":false,"rental_uris":{"android":"levelo://app?vid=c1c730e6-190c-4dc4-89c7-c817a81fa6fc","ios":"levelo://app?vid=c1c730e6-190c-4dc4-89c7-c817a81fa6fc"},"vehicle_type_id":"4","last_reported":1714928756,"current_range_meters":22800,"station_id":"ce4bh512rcd13ifvqe2g","pricing_plan_id":"cebpf4jnsgd1na2vs0mg"},{"bike_id":"8c15ea1f-c41e-44e7-a970-1df30d76d415","system_id":"levelo_inurba_marseille","lat":43.29788,"lon":5.39337,"is_reserved":false,"is_disabled":false,"rental_uris":{"android":"levelo://app?vid=8c15ea1f-c41e-44e7-a970-1df30d76d415","ios":"levelo://app?vid=8c15ea1f-c41e-44e7-a970-1df30d76d415"},"vehicle_type_id":"4","last_reported":1714928756,"current_range_meters":3200,"station_id":"chh1huq6cuj3fo74tm60","pricing_plan_id":"cebpf4jnsgd1na2vs0mg"},{"bike_id":"8f680b42-faa8-4b05-b0d6-f49edc9e94f8","system_id":"levelo_inurba_marseille","lat":43.29782,"lon":5.39336,"is_reserved":false,"is_disabled":false,"rental_uris":{"android":"levelo://app?vid=8f680b42-faa8-4b05-b0d6-f49edc9e94f8","ios":"levelo://app?vid=8f680b42-faa8-4b05-b0d6-f49edc9e94f8"},"vehicle_type_id":"4","last_reported":1714928756,"current_range_meters":7200,"station_id":"chh1huq6cuj3fo74tm60","pricing_plan_id":"cebpf4jnsgd1na2vs0mg"},{"bike_id":"786c8029-cebd-4a29-9d24-484fcf2d51fd","system_id":"levelo_inurba_marseille","lat":43.295169,"lon":5.390426,"is_reserved":false,"is_disabled":false,"rental_uris":{"android":"levelo://app?vid=786c8029-cebd-4a29-9d24-484fcf2d51fd","ios":"levelo://app?vid=786c8029-cebd-4a29-9d24-484fcf2d51fd"},"vehicle_type_id":"4","last_reported":1714928756,"current_range_meters":2000,"station_id":"ce4bh3p2rcd13ifvqdp0","pricing_plan_id":"cebpf4jnsgd1na2vs0mg"},{"bike_id":"5b262c42-1959-4755-ba00-b026210d7a22","system_id":"levelo_inurba_marseille","lat":43.295169,"lon":5.390426,"is_reserved":false,"is_disabled":false,"rental_uris":{"android":"levelo://app?vid=5b262c42-1959-4755-ba00-b026210d7a22","ios":"levelo://app?vid=5b262c42-1959-4755-ba00-b026210d7a22"},"vehicle_type_id":"4","last_reported":1714928756,"current_range_meters":5200,"station_id":"ce4bh3p2rcd13ifvqdp0","pricing_plan_id":"cebpf4jnsgd1na2vs0mg"},{"bike_id":"d325f30c-c58c-48b6-b883-6247150267aa","system_id":"levelo_inurba_marseille","lat":43.295169,"lon":5.390426,"is_reserved":false,"is_disabled":false,"rental_uris":{"android":"levelo://app?vid=d325f30c-c58c-48b6-b883-6247150267aa","ios":"levelo://app?vid=d325f30c-c58c-48b6-b883-6247150267aa"},"vehicle_type_id":"4","last_reported":1714928756,"current_range_meters":20400,"station_id":"ce4bh3p2rcd13ifvqdp0","pricing_plan_id":"cebpf4jnsgd1na2vs0mg"},{"bike_id":"35f86c37-f8ed-4e9b-a5d1-6c032de14145","system_id":"levelo_inurba_marseille","lat":43.33023,"lon":5.39037,"is_reserved":false,"is_disabled":false,"rental_uris":{"android":"levelo://app?vid=35f86c37-f8ed-4e9b-a5d1-6c032de14145","ios":"levelo://app?vid=35f86c37-f8ed-4e9b-a5d1-6c032de14145"},"vehicle_type_id":"4","last_reported":1714928756,"current_range_meters":21600,"station_id":"ce4bhr92rcd13ifvqhrg","pricing_plan_id":"cebpf4jnsgd1na2vs0mg"},{"bike_id":"de76966b-4191-4dc1-9312-4440c482c32f","system_id":"levelo_inurba_marseille","lat":43.289741,"lon":5.378306,"is_reserved":false,"is_disabled":false,"rental_uris":{"android":"levelo://app?vid=de76966b-4191-4dc1-9312-4440c482c32f","ios":"levelo://app?vid=de76966b-4191-4dc1-9312-4440c482c32f"},"vehicle_type_id":"4","last_reported":1714928756,"current_range_meters":24800,"station_id":"ce4bh9p2rcd13ifvqed0","pricing_plan_id":"cebpf4jnsgd1na2vs0mg"},{"bike_id":"ef56561d-8a5a-4e4a-934c-1e2e08240e35","system_id":"levelo_inurba_marseille","lat":43.295169,"lon":5.390426,"is_reserved":false,"is_disabled":false,"rental_uris":{"android":"levelo://app?vid=ef56561d-8a5a-4e4a-934c-1e2e08240e35","ios":"levelo://app?vid=ef56561d-8a5a-4e4a-934c-1e2e08240e35"},"vehicle_type_id":"4","last_reported":1714928756,"current_range_meters":3600,"station_id":"ce4bh3p2rcd13ifvqdp0","pricing_plan_id":"cebpf4jnsgd1na2vs0mg"},{"bike_id":"eda6ff63-ce66-41b3-89d2-bc8629c6e883","system_id":"levelo_inurba_marseille","lat":43.295169,"lon":5.390426,"is_reserved":false,"is_disabled":false,"rental_uris":{"android":"levelo://app?vid=eda6ff63-ce66-41b3-89d2-bc8629c6e883","ios":"levelo://app?vid=eda6ff63-ce66-41b3-89d2-bc8629c6e883"},"vehicle_type_id":"4","last_reported":1714928756,"current_range_meters":21200,"station_id":"ce4bh3p2rcd13ifvqdp0","pricing_plan_id":"cebpf4jnsgd1na2vs0mg"},{"bike_id":"2a91db2a-e3db-4638-8d5c-8b6a7608a426","system_id":"levelo_inurba_marseille","lat":43.295169,"lon":5.390426,"is_reserved":false,"is_disabled":false,"rental_uris":{"android":"levelo://app?vid=2a91db2a-e3db-4638-8d5c-8b6a7608a426","ios":"levelo://app?vid=2a91db2a-e3db-4638-8d5c-8b6a7608a426"},"vehicle_type_id":"4","last_reported":1714928756,"current_range_meters":13600,"station_id":"ce4bh3p2rcd13ifvqdp0","pricing_plan_id":"cebpf4jnsgd1na2vs0mg"},{"bike_id":"82453934-f414-46e1-be1e-595091420854","system_id":"levelo_inurba_marseille","lat":43.295169,"lon":5.390426,"is_reserved":false,"is_disabled":false,"rental_uris":{"android":"levelo://app?vid=82453934-f414-46e1-be1e-595091420854","ios":"levelo://app?vid=82453934-f414-46e1-be1e-595091420854"},"vehicle_type_id":"4","last_reported":1714928756,"current_range_meters":23600,"station_id":"ce4bh3p2rcd13ifvqdp0","pricing_plan_id":"cebpf4jnsgd1na2vs0mg"},{"bike_id":"fb50930e-d9ab-4c58-9038-8b368f6ef1ce","system_id":"levelo_inurba_marseille","lat":43.330301,"lon":5.390509,"is_reserved":false,"is_disabled":false,"rental_uris":{"android":"levelo://app?vid=fb50930e-d9ab-4c58-9038-8b368f6ef1ce","ios":"levelo://app?vid=fb50930e-d9ab-4c58-9038-8b368f6ef1ce"},"vehicle_type_id":"4","last_reported":1714928756,"current_range_meters":16400,"station_id":"ce4bhr92rcd13ifvqhrg","pricing_plan_id":"cebpf4jnsgd1na2vs0mg"},{"bike_id":"63361053-434f-4b5b-8e18-5191e24a4a08","system_id":"levelo_inurba_marseille","lat":43.330442,"lon":5.389148,"is_reserved":false,"is_disabled":false,"rental_uris":{"android":"levelo://app?vid=63361053-434f-4b5b-8e18-5191e24a4a08","ios":"levelo://app?vid=63361053-434f-4b5b-8e18-5191e24a4a08"},"vehicle_type_id":"4","last_reported":1714928756,"current_range_meters":10800,"station_id":"ce4bhr92rcd13ifvqhrg","pricing_plan_id":"cebpf4jnsgd1na2vs0mg"},{"bike_id":"e8d97b8f-6971-4f37-8033-c4835efada8c","system_id":"levelo_inurba_marseille","lat":43.290094,"lon":5.381264,"is_reserved":false,"is_disabled":false,"rental_uris":{"android":"levelo://app?vid=e8d97b8f-6971-4f37-8033-c4835efada8c","ios":"levelo://app?vid=e8d97b8f-6971-4f37-8033-c4835efada8c"},"vehicle_type_id":"4","last_reported":1714928756,"current_range_meters":5200,"station_id":"ce4bh4p2rcd13ifvqe1g","pricing_plan_id":"cebpf4jnsgd1na2vs0mg"},{"bike_id":"a15da84f-e4cb-43b7-9741-2fb871e4d4cc","system_id":"levelo_inurba_marseille","lat":43.2901,"lon":5.381269,"is_reserved":false,"is_disabled":false,"rental_uris":{"android":"levelo://app?vid=a15da84f-e4cb-43b7-9741-2fb871e4d4cc","ios":"levelo://app?vid=a15da84f-e4cb-43b7-9741-2fb871e4d4cc"},"vehicle_type_id":"4","last_reported":1714928756,"current_range_meters":15600,"station_id":"ce4bh4p2rcd13ifvqe1g","pricing_plan_id":"cebpf4jnsgd1na2vs0mg"},{"bike_id":"6d2095b4-5c81-412f-a8bc-d143bf2fd710","system_id":"levelo_inurba_marseille","lat":43.288555,"lon":5.358415,"is_reserved":false,"is_disabled":false,"rental_uris":{"android":"levelo://app?vid=6d2095b4-5c81-412f-a8bc-d143bf2fd710","ios":"levelo://app?vid=6d2095b4-5c81-412f-a8bc-d143bf2fd710"},"vehicle_type_id":"4","last_reported":1714928756,"current_range_meters":0,"station_id":"ce4bhb12rcd13ifvqem0","pricing_plan_id":"cebpf4jnsgd1na2vs0mg"},{"bike_id":"b02d0b29-6ac9-4651-9a05-944a520bee53","system_id":"levelo_inurba_marseille","lat":43.28856,"lon":5.358371,"is_reserved":false,"is_disabled":false,"rental_uris":{"android":"levelo://app?vid=b02d0b29-6ac9-4651-9a05-944a520bee53","ios":"levelo://app?vid=b02d0b29-6ac9-4651-9a05-944a520bee53"},"vehicle_type_id":"4","last_reported":1714928756,"current_range_meters":2000,"station_id":"ce4bhb12rcd13ifvqem0","pricing_plan_id":"cebpf4jnsgd1na2vs0mg"},{"bike_id":"a1d34f53-acae-4845-ad08-7e3d56e5b83d","system_id":"levelo_inurba_marseille","lat":43.309371,"lon":5.401449,"is_reserved":false,"is_disabled":false,"rental_uris":{"android":"levelo://app?vid=a1d34f53-acae-4845-ad08-7e3d56e5b83d","ios":"levelo://app?vid=a1d34f53-acae-4845-ad08-7e3d56e5b83d"},"vehicle_type_id":"4","last_reported":1714928756,"current_range_meters":400,"station_id":"ce4bgvp2rcd13ifvqct0","pricing_plan_id":"cebpf4jnsgd1na2vs0mg"},{"bike_id":"64403d09-5a4b-4f0d-a9c5-3d4be95a7608","system_id":"levelo_inurba_marseille","lat":43.312609,"lon":5.401662,"is_reserved":false,"is_disabled":false,"rental_uris":{"android":"levelo://app?vid=64403d09-5a4b-4f0d-a9c5-3d4be95a7608","ios":"levelo://app?vid=64403d09-5a4b-4f0d-a9c5-3d4be95a7608"},"vehicle_type_id":"4","last_reported":1714928756,"current_range_meters":3200,"station_id":"ce4bh092rcd13ifvqd30","pricing_plan_id":"cebpf4jnsgd1na2vs0mg"},{"bike_id":"293eb740-e10f-4486-bb6c-ec5f32bec2f9","system_id":"levelo_inurba_marseille","lat":43.30945,"lon":5.40144,"is_reserved":false,"is_disabled":false,"rental_uris":{"android":"levelo://app?vid=293eb740-e10f-4486-bb6c-ec5f32bec2f9","ios":"levelo://app?vid=293eb740-e10f-4486-bb6c-ec5f32bec2f9"},"vehicle_type_id":"4","last_reported":1714928756,"current_range_meters":24800,"station_id":"ce4bgvp2rcd13ifvqct0","pricing_plan_id":"cebpf4jnsgd1na2vs0mg"},{"bike_id":"190da919-984f-4fcb-b344-dac7cefade37","system_id":"levelo_inurba_marseille","lat":43.312609,"lon":5.401662,"is_reserved":false,"is_disabled":false,"rental_uris":{"android":"levelo://app?vid=190da919-984f-4fcb-b344-dac7cefade37","ios":"levelo://app?vid=190da919-984f-4fcb-b344-dac7cefade37"},"vehicle_type_id":"4","last_reported":1714928756,"current_range_meters":12000,"station_id":"ce4bh092rcd13ifvqd30","pricing_plan_id":"cebpf4jnsgd1na2vs0mg"},{"bike_id":"22cf14a4-f3a1-429f-ad5d-16b162b67729","system_id":"levelo_inurba_marseille","lat":43.3375,"lon":5.37453,"is_reserved":false,"is_disabled":false,"rental_uris":{"android":"levelo://app?vid=22cf14a4-f3a1-429f-ad5d-16b162b67729","ios":"levelo://app?vid=22cf14a4-f3a1-429f-ad5d-16b162b67729"},"vehicle_type_id":"4","last_reported":1714928756,"current_range_meters":4000,"station_id":"","pricing_plan_id":"cebpf4jnsgd1na2vs0mg"},{"bike_id":"2b1e60a2-ec1f-4f06-804c-0badbdb32c8b","system_id":"levelo_inurba_marseille","lat":43.312609,"lon":5.401662,"is_reserved":false,"is_disabled":false,"rental_uris":{"android":"levelo://app?vid=2b1e60a2-ec1f-4f06-804c-0badbdb32c8b","ios":"levelo://app?vid=2b1e60a2-ec1f-4f06-804c-0badbdb32c8b"},"vehicle_type_id":"4","last_reported":1714928756,"current_range_meters":20000,"station_id":"ce4bh092rcd13ifvqd30","pricing_plan_id":"cebpf4jnsgd1na2vs0mg"},{"bike_id":"01b1b7bd-5dbd-4411-9455-bdf092035ec7","system_id":"levelo_inurba_marseille","lat":43.33747,"lon":5.3748,"is_reserved":false,"is_disabled":false,"rental_uris":{"android":"levelo://app?vid=01b1b7bd-5dbd-4411-9455-bdf092035ec7","ios":"levelo://app?vid=01b1b7bd-5dbd-4411-9455-bdf092035ec7"},"vehicle_type_id":"4","last_reported":1714928756,"current_range_meters":20400,"station_id":"","pricing_plan_id":"cebpf4jnsgd1na2vs0mg"},{"bike_id":"c2965c40-030a-407b-a472-fca5d0db2691","system_id":"levelo_inurba_marseille","lat":43.33747,"lon":5.37484,"is_reserved":false,"is_disabled":false,"rental_uris":{"android":"levelo://app?vid=c2965c40-030a-407b-a472-fca5d0db2691","ios":"levelo://app?vid=c2965c40-030a-407b-a472-fca5d0db2691"},"vehicle_type_id":"4","last_reported":1714928756,"current_range_meters":20400,"station_id":"","pricing_plan_id":"cebpf4jnsgd1na2vs0mg"},{"bike_id":"b7173264-767a-4600-82d6-2fe1ae1d4552","system_id":"levelo_inurba_marseille","lat":43.33755,"lon":5.37485,"is_reserved":false,"is_disabled":false,"rental_uris":{"android":"levelo://app?vid=b7173264-767a-4600-82d6-2fe1ae1d4552","ios":"levelo://app?vid=b7173264-767a-4600-82d6-2fe1ae1d4552"},"vehicle_type_id":"4","last_reported":1714928756,"current_range_meters":30800,"station_id":"","pricing_plan_id":"cebpf4jnsgd1na2vs0mg"},{"bike_id":"55f2cfdd-52cb-475e-88f5-7e8f4f358c94","system_id":"levelo_inurba_marseille","lat":43.29152,"lon":5.38634,"is_reserved":false,"is_disabled":false,"rental_uris":{"android":"levelo://app?vid=55f2cfdd-52cb-475e-88f5-7e8f4f358c94","ios":"levelo://app?vid=55f2cfdd-52cb-475e-88f5-7e8f4f358c94"},"vehicle_type_id":"4","last_reported":1714928756,"current_range_meters":11200,"station_id":"","pricing_plan_id":"cebpf4jnsgd1na2vs0mg"},{"bike_id":"ca8ccd4d-487c-497a-8708-408020f6855c","system_id":"levelo_inurba_marseille","lat":43.337669,"lon":5.374325,"is_reserved":false,"is_disabled":false,"rental_uris":{"android":"levelo://app?vid=ca8ccd4d-487c-497a-8708-408020f6855c","ios":"levelo://app?vid=ca8ccd4d-487c-497a-8708-408020f6855c"},"vehicle_type_id":"4","last_reported":1714928756,"current_range_meters":18400,"station_id":"","pricing_plan_id":"cebpf4jnsgd1na2vs0mg"},{"bike_id":"7a70f605-16aa-4b49-8172-918a32a7fc38","system_id":"levelo_inurba_marseille","lat":43.30642,"lon":5.401031,"is_reserved":false,"is_disabled":false,"rental_uris":{"android":"levelo://app?vid=7a70f605-16aa-4b49-8172-918a32a7fc38","ios":"levelo://app?vid=7a70f605-16aa-4b49-8172-918a32a7fc38"},"vehicle_type_id":"4","last_reported":1714928756,"current_range_meters":14800,"station_id":"ce4bh112rcd13ifvqda0","pricing_plan_id":"cebpf4jnsgd1na2vs0mg"},{"bike_id":"3ea1daee-0f1f-4848-a128-8bf4f9aa4071","system_id":"levelo_inurba_marseille","lat":43.306412,"lon":5.401035,"is_reserved":false,"is_disabled":false,"rental_uris":{"android":"levelo://app?vid=3ea1daee-0f1f-4848-a128-8bf4f9aa4071","ios":"levelo://app?vid=3ea1daee-0f1f-4848-a128-8bf4f9aa4071"},"vehicle_type_id":"4","last_reported":1714928756,"current_range_meters":18000,"station_id":"ce4bh112rcd13ifvqda0","pricing_plan_id":"cebpf4jnsgd1na2vs0mg"},{"bike_id":"353bfa85-b00b-42c0-9889-6d195b35b778","system_id":"levelo_inurba_marseille","lat":43.30642,"lon":5.401031,"is_reserved":false,"is_disabled":false,"rental_uris":{"android":"levelo://app?vid=353bfa85-b00b-42c0-9889-6d195b35b778","ios":"levelo://app?vid=353bfa85-b00b-42c0-9889-6d195b35b778"},"vehicle_type_id":"4","last_reported":1714928756,"current_range_meters":7200,"station_id":"ce4bh112rcd13ifvqda0","pricing_plan_id":"cebpf4jnsgd1na2vs0mg"},{"bike_id":"9d79bc8c-f82d-4632-a56c-c31d415d3e9a","system_id":"levelo_inurba_marseille","lat":43.306412,"lon":5.401035,"is_reserved":false,"is_disabled":false,"rental_uris":{"android":"levelo://app?vid=9d79bc8c-f82d-4632-a56c-c31d415d3e9a","ios":"levelo://app?vid=9d79bc8c-f82d-4632-a56c-c31d415d3e9a"},"vehicle_type_id":"4","last_reported":1714928756,"current_range_meters":4000,"station_id":"ce4bh112rcd13ifvqda0","pricing_plan_id":"cebpf4jnsgd1na2vs0mg"},{"bike_id":"a316ef9e-44a8-4ee4-a3c2-5d10e9f2585b","system_id":"levelo_inurba_marseille","lat":43.297815,"lon":5.393548,"is_reserved":false,"is_disabled":false,"rental_uris":{"android":"levelo://app?vid=a316ef9e-44a8-4ee4-a3c2-5d10e9f2585b","ios":"levelo://app?vid=a316ef9e-44a8-4ee4-a3c2-5d10e9f2585b"},"vehicle_type_id":"4","last_reported":1714928756,"current_range_meters":24800,"station_id":"chh1huq6cuj3fo74tm60","pricing_plan_id":"cebpf4jnsgd1na2vs0mg"},{"bike_id":"3918061c-5ef1-4843-8d64-f5f9e379ef4d","system_id":"levelo_inurba_marseille","lat":43.30125,"lon":5.39857,"is_reserved":false,"is_disabled":false,"rental_uris":{"android":"levelo://app?vid=3918061c-5ef1-4843-8d64-f5f9e379ef4d","ios":"levelo://app?vid=3918061c-5ef1-4843-8d64-f5f9e379ef4d"},"vehicle_type_id":"4","last_reported":1714928756,"current_range_meters":0,"station_id":"ce4bh0h2rcd13ifvqd40","pricing_plan_id":"cebpf4jnsgd1na2vs0mg"},{"bike_id":"faa13ad6-f043-4404-9764-ba74f7b1fa94","system_id":"levelo_inurba_marseille","lat":43.301117,"lon":5.398795,"is_reserved":false,"is_disabled":false,"rental_uris":{"android":"levelo://app?vid=faa13ad6-f043-4404-9764-ba74f7b1fa94","ios":"levelo://app?vid=faa13ad6-f043-4404-9764-ba74f7b1fa94"},"vehicle_type_id":"4","last_reported":1714928756,"current_range_meters":3200,"station_id":"ce4bh0h2rcd13ifvqd40","pricing_plan_id":"cebpf4jnsgd1na2vs0mg"},{"bike_id":"42647ddd-8d42-442e-ab3b-a02b4228996e","system_id":"levelo_inurba_marseille","lat":43.301117,"lon":5.398795,"is_reserved":false,"is_disabled":false,"rental_uris":{"android":"levelo://app?vid=42647ddd-8d42-442e-ab3b-a02b4228996e","ios":"levelo://app?vid=42647ddd-8d42-442e-ab3b-a02b4228996e"},"vehicle_type_id":"4","last_reported":1714928756,"current_range_meters":27600,"station_id":"ce4bh0h2rcd13ifvqd40","pricing_plan_id":"cebpf4jnsgd1na2vs0mg"},{"bike_id":"20bf9144-2fe0-4f25-ab41-2db62ea86cdc","system_id":"levelo_inurba_marseille","lat":43.28727,"lon":5.36078,"is_reserved":false,"is_disabled":false,"rental_uris":{"android":"levelo://app?vid=20bf9144-2fe0-4f25-ab41-2db62ea86cdc","ios":"levelo://app?vid=20bf9144-2fe0-4f25-ab41-2db62ea86cdc"},"vehicle_type_id":"4","last_reported":1714928756,"current_range_meters":10400,"station_id":"cki0cbj6b192h4jlfktg","pricing_plan_id":"cebpf4jnsgd1na2vs0mg"},{"bike_id":"feef85cf-cc5a-4635-8612-2a3c2204f226","system_id":"levelo_inurba_marseille","lat":43.286591,"lon":5.363346,"is_reserved":false,"is_disabled":false,"rental_uris":{"android":"levelo://app?vid=feef85cf-cc5a-4635-8612-2a3c2204f226","ios":"levelo://app?vid=feef85cf-cc5a-4635-8612-2a3c2204f226"},"vehicle_type_id":"4","last_reported":1714928756,"current_range_meters":5200,"station_id":"ce4bhah2rcd13ifvqej0","pricing_plan_id":"cebpf4jnsgd1na2vs0mg"},{"bike_id":"738520a2-4e86-4cf7-b11f-838ed83bf7d5","system_id":"levelo_inurba_marseille","lat":43.290336,"lon":5.386425,"is_reserved":false,"is_disabled":false,"rental_uris":{"android":"levelo://app?vid=738520a2-4e86-4cf7-b11f-838ed83bf7d5","ios":"levelo://app?vid=738520a2-4e86-4cf7-b11f-838ed83bf7d5"},"vehicle_type_id":"4","last_reported":1714928756,"current_range_meters":22800,"station_id":"ce4bh4p2rcd13ifvqe0g","pricing_plan_id":"cebpf4jnsgd1na2vs0mg"},{"bike_id":"ec70d946-cb70-4210-b9ca-08cc9c8d2ffb","system_id":"levelo_inurba_marseille","lat":43.286961,"lon":5.373785,"is_reserved":false,"is_disabled":false,"rental_uris":{"android":"levelo://app?vid=ec70d946-cb70-4210-b9ca-08cc9c8d2ffb","ios":"levelo://app?vid=ec70d946-cb70-4210-b9ca-08cc9c8d2ffb"},"vehicle_type_id":"4","last_reported":1714928756,"current_range_meters":0,"station_id":"ce4bh3p2rcd13ifvqdq0","pricing_plan_id":"cebpf4jnsgd1na2vs0mg"},{"bike_id":"10c160c1-89c8-40bb-99a4-3ba735727848","system_id":"levelo_inurba_marseille","lat":43.286593,"lon":5.363346,"is_reserved":false,"is_disabled":false,"rental_uris":{"android":"levelo://app?vid=10c160c1-89c8-40bb-99a4-3ba735727848","ios":"levelo://app?vid=10c160c1-89c8-40bb-99a4-3ba735727848"},"vehicle_type_id":"4","last_reported":1714928756,"current_range_meters":5200,"station_id":"ce4bhah2rcd13ifvqej0","pricing_plan_id":"cebpf4jnsgd1na2vs0mg"},{"bike_id":"cecdc0f8-4b92-4a75-9266-18705d317dbd","system_id":"levelo_inurba_marseille","lat":43.2987,"lon":5.39736,"is_reserved":false,"is_disabled":false,"rental_uris":{"android":"levelo://app?vid=cecdc0f8-4b92-4a75-9266-18705d317dbd","ios":"levelo://app?vid=cecdc0f8-4b92-4a75-9266-18705d317dbd"},"vehicle_type_id":"4","last_reported":1714928756,"current_range_meters":0,"station_id":"ce4bh0h2rcd13ifvqd50","pricing_plan_id":"cebpf4jnsgd1na2vs0mg"},