{"last_updated":1737627014,"ttl":60,"version":"2.2","data":{"bikes":[{"bike_id":"43513531-b1ac-43c3-b2ff-ca980d6c6eb5","system_id":"levelo_inurba_marseille","lat":43.29586,"lon":5.38097,"is_reserved":false,"is_disabled":false,"rental_uris":{"android":"levelo://app?vid=43513531-b1ac-43c3-b2ff-ca980d6c6eb5","ios":"levelo://app?vid=43513531-b1ac-43c3-b2ff-ca980d6c6eb5"},"vehicle_type_id":"4","last_reported":1737627015,"current_range_meters":38000,"station_id":"ce4bgl12rcd13ifvqbo0","pricing_plan_id":"cebpf4jnsgd1na2vs0mg"},{"bike_id":"629b1bca-8476-4bce-abad-93e113022269","system_id":"levelo_inurba_marseille","lat":43.29223,"lon":5.3607,"is_reserved":false,"is_disabled":false,"rental_uris":{"android":"levelo://app?vid=629b1bca-8476-4bce-abad-93e113022269","ios":"levelo://app?vid=629b1bca-8476-4bce-abad-93e113022269"},"vehicle_type_id":"4","last_reported":1737627015,"current_range_meters":27600,"station_id":"ce4bhbh2rcd13ifvqeqg","pricing_plan_id":"cebpf4jnsgd1na2vs0mg"},{"bike_id":"e7a9d219-cbd7-47d5-a273-74e1a09eebd1","system_id":"levelo_inurba_marseille","lat":43.32475,"lon":5.36582,"is_reserved":false,"is_disabled":false,"rental_uris":{"android":"levelo://app?vid=e7a9d219-cbd7-47d5-a273-74e1a09eebd1","ios":"levelo://app?vid=e7a9d219-cbd7-47d5-a273-74e1a09eebd1"},"vehicle_type_id":"4","last_reported":1737627015,"current_range_meters":16000,"station_id":"ce4bhs12rcd13ifvqhvg","pricing_plan_id":"cebpf4jnsgd1na2vs0mg"},{"bike_id":"9aff2613-f85d-49aa-a3c3-3c3e7031c8e3","system_id":"levelo_inurba_marseille","lat":43.26946,"lon":5.38639,"is_reserved":false,"is_disabled":false,"rental_uris":{"android":"levelo://app?vid=9aff2613-f85d-49aa-a3c3-3c3e7031c8e3","ios":"levelo://app?vid=9aff2613-f85d-49aa-a3c3-3c3e7031c8e3"},"vehicle_type_id":"4","last_reported":1737627015,"current_range_meters":37600,"station_id":"ce4bhh92rcd13ifvqfh0","pricing_plan_id":"cebpf4jnsgd1na2vs0mg"},{"bike_id":"d7369b85-0ac0-45eb-8e9f-e47a4e989adc","system_id":"levelo_inurba_marseille","lat":43.29577,"lon":5.36743,"is_reserved":false,"is_disabled":false,"rental_uris":{"android":"levelo://app?vid=d7369b85-0ac0-45eb-8e9f-e47a4e989adc","ios":"levelo://app?vid=d7369b85-0ac0-45eb-8e9f-e47a4e989adc"},"vehicle_type_id":"4","last_reported":1737627015,"current_range_meters":35600,"station_id":"ce4bgph2rcd13ifvqc2g","pricing_plan_id":"cebpf4jnsgd1na2vs0mg"},{"bike_id":"f7287b9a-d591-427c-a646-35e4fb4a8649","system_id":"levelo_inurba_marseille","lat":43.26198,"lon":5.37458,"is_reserved":false,"is_disabled":false,"rental_uris":{"android":"levelo://app?vid=f7287b9a-d591-427c-a646-35e4fb4a8649","ios":"levelo://app?vid=f7287b9a-d591-427c-a646-35e4fb4a8649"},"vehicle_type_id":"4","last_reported":1737627015,"current_range_meters":34800,"station_id":"ce4bhgp2rcd13ifvqfc0","pricing_plan_id":"cebpf4jnsgd1na2vs0mg"},{"bike_id":"dcf4555a-aebc-4561-8ac8-3e8a57d63da1","system_id":"levelo_inurba_marseille","lat":43.29576,"lon":5.36742,"is_reserved":false,"is_disabled":false,"rental_uris":{"android":"levelo://app?vid=dcf4555a-aebc-4561-8ac8-3e8a57d63da1","ios":"levelo://app?vid=dcf4555a-aebc-4561-8ac8-3e8a57d63da1"},"vehicle_type_id":"4","last_reported":1737627015,"current_range_meters":23200,"station_id":"ce4bgph2rcd13ifvqc2g","pricing_plan_id":"cebpf4jnsgd1na2vs0mg"},{"bike_id":"cc01a69d-a58e-43ce-8178-1c56f048940e","system_id":"levelo_inurba_marseille","lat":43.23141,"lon":5.43713,"is_reserved":false,"is_disabled":false,"rental_uris":{"android":"levelo://app?vid=cc01a69d-a58e-43ce-8178-1c56f048940e","ios":"levelo://app?vid=cc01a69d-a58e-43ce-8178-1c56f048940e"},"vehicle_type_id":"4","last_reported":1737627015,"current_range_meters":6800,"station_id":"ce4bhmp2rcd13ifvqgog","pricing_plan_id":"cebpf4jnsgd1na2vs0mg"},{"bike_id":"86516c8f-eb59-4d5f-a95e-0b0d570c322f","system_id":"levelo_inurba_marseille","lat":43.31356,"lon":5.38497,"is_reserved":false,"is_disabled":false,"rental_uris":{"android":"levelo://app?vid=86516c8f-eb59-4d5f-a95e-0b0d570c322f","ios":"levelo://app?vid=86516c8f-eb59-4d5f-a95e-0b0d570c322f"},"vehicle_type_id":"4","last_reported":1737627015,"current_range_meters":33600,"station_id":"ce4bgt92rcd13ifvqcf0","pricing_plan_id":"cebpf4jnsgd1na2vs0mg"},{"bike_id":"52bfe84c-e6b2-45c9-a02c-0a086a3b4c79","system_id":"levelo_inurba_marseille","lat":43.32489,"lon":5.36617,"is_reserved":false,"is_disabled":false,"rental_uris":{"android":"levelo://app?vid=52bfe84c-e6b2-45c9-a02c-0a086a3b4c79","ios":"levelo://app?vid=52bfe84c-e6b2-45c9-a02c-0a086a3b4c79"},"vehicle_type_id":"4","last_reported":1737627015,"current_range_meters":38800,"station_id":"","pricing_plan_id":"cebpf4jnsgd1na2vs0mg"},{"bike_id":"f9509cf3-61c9-4e98-a3dc-ab6e052fedb5","system_id":"levelo_inurba_marseille","lat":43.24078,"lon":5.37782,"is_reserved":false,"is_disabled":false,"rental_uris":{"android":"levelo://app?vid=f9509cf3-61c9-4e98-a3dc-ab6e052fedb5","ios":"levelo://app?vid=f9509cf3-61c9-4e98-a3dc-ab6e052fedb5"},"vehicle_type_id":"4","last_reported":1737627015,"current_range_meters":38800,"station_id":"ce4bhnp2rcd13ifvqgvg","pricing_plan_id":"cebpf4jnsgd1na2vs0mg"},{"bike_id":"b5cb07e6-6ffd-4db4-8954-0084503b2aef","system_id":"levelo_inurba_marseille","lat":43.33022,"lon":5.39049,"is_reserved":false,"is_disabled":true,"rental_uris":{"android":"levelo://app?vid=b5cb07e6-6ffd-4db4-8954-0084503b2aef","ios":"levelo://app?vid=b5cb07e6-6ffd-4db4-8954-0084503b2aef"},"vehicle_type_id":"4","last_reported":1737627015,"current_range_meters":38000,"station_id":"ce4bhr92rcd13ifvqhrg","pricing_plan_id":"cebpf4jnsgd1na2vs0mg"},{"bike_id":"eceb5636-8c1c-49d8-a959-cb3acbdb650b","system_id":"levelo_inurba_marseille","lat":43.28467,"lon":5.38427,"is_reserved":false,"is_disabled":false,"rental_uris":{"android":"levelo://app?vid=eceb5636-8c1c-49d8-a959-cb3acbdb650b","ios":"levelo://app?vid=eceb5636-8c1c-49d8-a959-cb3acbdb650b"},"vehicle_type_id":"4","last_reported":1737627015,"current_range_meters":33600,"station_id":"ce4bh512rcd13ifvqe3g","pricing_plan_id":"cebpf4jnsgd1na2vs0mg"},{"bike_id":"47a5c903-d960-4eec-b908-6451b150f9f7","system_id":"levelo_inurba_marseille","lat":43.24065,"lon":5.37804,"is_reserved":false,"is_disabled":false,"rental_uris":{"android":"levelo://app?vid=47a5c903-d960-4eec-b908-6451b150f9f7","ios":"levelo://app?vid=47a5c903-d960-4eec-b908-6451b150f9f7"},"vehicle_type_id":"4","last_reported":1737627015,"current_range_meters":39200,"station_id":"ce4bhnp2rcd13ifvqgvg","pricing_plan_id":"cebpf4jnsgd1na2vs0mg"},{"bike_id":"35e73819-702f-40fb-b73f-3677ceab1bf2","system_id":"levelo_inurba_marseille","lat":43.28468,"lon":5.38416,"is_reserved":false,"is_disabled":false,"rental_uris":{"android":"levelo://app?vid=35e73819-702f-40fb-b73f-3677ceab1bf2","ios":"levelo://app?vid=35e73819-702f-40fb-b73f-3677ceab1bf2"},"vehicle_type_id":"4","last_reported":1737627015,"current_range_meters":20400,"station_id":"ce4bh512rcd13ifvqe3g","pricing_plan_id":"cebpf4jnsgd1na2vs0mg"},{"bike_id":"30ed2cc6-f71f-42ec-a788-fecd9edec9ce","system_id":"levelo_inurba_marseille","lat":43.3096,"lon":5.39037,"is_reserved":false,"is_disabled":false,"rental_uris":{"android":"levelo://app?vid=30ed2cc6-f71f-42ec-a788-fecd9edec9ce","ios":"levelo://app?vid=30ed2cc6-f71f-42ec-a788-fecd9edec9ce"},"vehicle_type_id":"4","last_reported":1737627015,"current_range_meters":8400,"station_id":"ce4bgup2rcd13ifvqco0","pricing_plan_id":"cebpf4jnsgd1na2vs0mg"},{"bike_id":"2236f678-2742-4458-b17f-cf2279d3091c","system_id":"levelo_inurba_marseille","lat":43.27891,"lon":5.38031,"is_reserved":false,"is_disabled":false,"rental_uris":{"android":"levelo://app?vid=2236f678-2742-4458-b17f-cf2279d3091c","ios":"levelo://app?vid=2236f678-2742-4458-b17f-cf2279d3091c"},"vehicle_type_id":"4","last_reported":1737627015,"current_range_meters":34800,"station_id":"ce4bhf92rcd13ifvqf50","pricing_plan_id":"cebpf4jnsgd1na2vs0mg"},{"bike_id":"2a80df51-a758-43ec-8377-7504eaafab77","system_id":"levelo_inurba_marseille","lat":43.25936,"lon":5.4091,"is_reserved":false,"is_disabled":false,"rental_uris":{"android":"levelo://app?vid=2a80df51-a758-43ec-8377-7504eaafab77","ios":"levelo://app?vid=2a80df51-a758-43ec-8377-7504eaafab77"},"vehicle_type_id":"4","last_reported":1737627015,"current_range_meters":38800,"station_id":"ce4bhm92rcd13ifvqglg","pricing_plan_id":"cebpf4jnsgd1na2vs0mg"},{"bike_id":"62deda02-398b-428c-93c7-c43dbeb4b460","system_id":"levelo_inurba_marseille","lat":43.31992,"lon":5.3815,"is_reserved":false,"is_disabled":false,"rental_uris":{"android":"levelo://app?vid=62deda02-398b-428c-93c7-c43dbeb4b460","ios":"levelo://app?vid=62deda02-398b-428c-93c7-c43dbeb4b460"},"vehicle_type_id":"4","last_reported":1737627015,"current_range_meters":37600,"station_id":"ce4bhr12rcd13ifvqhpg","pricing_plan_id":"cebpf4jnsgd1na2vs0mg"},{"bike_id":"9e81dc59-8f27-4b8f-b9f5-64c9903a7bf4","system_id":"levelo_inurba_marseille","lat":43.30894,"lon":5.36897,"is_reserved":false,"is_disabled":false,"rental_uris":{"android":"levelo://app?vid=9e81dc59-8f27-4b8f-b9f5-64c9903a7bf4","ios":"levelo://app?vid=9e81dc59-8f27-4b8f-b9f5-64c9903a7bf4"},"vehicle_type_id":"4","last_reported":1737627015,"current_range_meters":36800,"station_id":"ce4bgn92rcd13ifvqbvg","pricing_plan_id":"cebpf4jnsgd1na2vs0mg"},{"bike_id":"4b99948f-ea48-4383-875e-b58ed823d600","system_id":"levelo_inurba_marseille","lat":43.30544,"lon":5.36731,"is_reserved":false,"is_disabled":false,"rental_uris":{"android":"levelo://app?vid=4b99948f-ea48-4383-875e-b58ed823d600","ios":"levelo://app?vid=4b99948f-ea48-4383-875e-b58ed823d600"},"vehicle_type_id":"4","last_reported":1737627015,"current_range_meters":39200,"station_id":"ce4bgrp2rcd13ifvqc9g","pricing_plan_id":"cebpf4jnsgd1na2vs0mg"},{"bike_id":"0bf9b073-e494-4f76-ab48-404bffea4492","system_id":"levelo_inurba_marseille","lat":43.31367,"lon":5.3849,"is_reserved":false,"is_disabled":false,"rental_uris":{"android":"levelo://app?vid=0bf9b073-e494-4f76-ab48-404bffea4492","ios":"levelo://app?vid=0bf9b073-e494-4f76-ab48-404bffea4492"},"vehicle_type_id":"4","last_reported":1737627015,"current_range_meters":28800,"station_id":"ce4bgt92rcd13ifvqcf0","pricing_plan_id":"cebpf4jnsgd1na2vs0mg"},{"bike_id":"9cb1ef9c-a766-4831-a602-6baf1c30a986","system_id":"levelo_inurba_marseille","lat":43.29267,"lon":5.38429,"is_reserved":false,"is_disabled":false,"rental_uris":{"android":"levelo://app?vid=9cb1ef9c-a766-4831-a602-6baf1c30a986","ios":"levelo://app?vid=9cb1ef9c-a766-4831-a602-6baf1c30a986"},"vehicle_type_id":"4","last_reported":1737627015,"current_range_meters":18000,"station_id":"ce4bh692rcd13ifvqea0","pricing_plan_id":"cebpf4jnsgd1na2vs0mg"},{"bike_id":"e38da209-d8d9-4680-be99-11d1954272ef","system_id":"levelo_inurba_marseille","lat":43.26188,"lon":5.3794,"is_reserved":false,"is_disabled":false,"rental_uris":{"android":"levelo://app?vid=e38da209-d8d9-4680-be99-11d1954272ef","ios":"levelo://app?vid=e38da209-d8d9-4680-be99-11d1954272ef"},"vehicle_type_id":"4","last_reported":1737627015,"current_range_meters":38400,"station_id":"ce4bhjp2rcd13ifvqg90","pricing_plan_id":"cebpf4jnsgd1na2vs0mg"},{"bike_id":"9f9f41f2-e2b6-45b3-90e1-8e0c9bf03783","system_id":"levelo_inurba_marseille","lat":43.28394,"lon":5.37535,"is_reserved":false,"is_disabled":false,"rental_uris":{"android":"levelo://app?vid=9f9f41f2-e2b6-45b3-90e1-8e0c9bf03783","ios":"levelo://app?vid=9f9f41f2-e2b6-45b3-90e1-8e0c9bf03783"},"vehicle_type_id":"4","last_reported":1737627015,"current_range_meters":16400,"station_id":"ce4bh412rcd13ifvqds0","pricing_plan_id":"cebpf4jnsgd1na2vs0mg"},{"bike_id":"77f1573a-30a1-4557-8b1e-0b2d3380a621","system_id":"levelo_inurba_marseille","lat":43.2997,"lon":5.37191,"is_reserved":false,"is_disabled":false,"rental_uris":{"android":"levelo://app?vid=77f1573a-30a1-4557-8b1e-0b2d3380a621","ios":"levelo://app?vid=77f1573a-30a1-4557-8b1e-0b2d3380a621"},"vehicle_type_id":"4","last_reported":1737627015,"current_range_meters":28000,"station_id":"ce4bgr92rcd13ifvqc7g","pricing_plan_id":"cebpf4jnsgd1na2vs0mg"},{"bike_id":"5d4fa761-e480-4599-a18e-55917918b6b9","system_id":"levelo_inurba_marseille","lat":43.2315,"lon":5.43722,"is_reserved":false,"is_disabled":false,"rental_uris":{"android":"levelo://app?vid=5d4fa761-e480-4599-a18e-55917918b6b9","ios":"levelo://app?vid=5d4fa761-e480-4599-a18e-55917918b6b9"},"vehicle_type_id":"4","last_reported":1737627015,"current_range_meters":18800,"station_id":"ce4bhmp2rcd13ifvqgog","pricing_plan_id":"cebpf4jnsgd1na2vs0mg"},{"bike_id":"b79fd583-0f35-4890-bc5b-c92796d8cb12","system_id":"levelo_inurba_marseille","lat":43.30149,"lon":5.38101,"is_reserved":false,"is_disabled":false,"rental_uris":{"android":"levelo://app?vid=b79fd583-0f35-4890-bc5b-c92796d8cb12","ios":"levelo://app?vid=b79fd583-0f35-4890-bc5b-c92796d8cb12"},"vehicle_type_id":"4","last_reported":1737627015,"current_range_meters":16000,"station_id":"ce4bgjp2rcd13ifvqbh0","pricing_plan_id":"cebpf4jnsgd1na2vs0mg"},{"bike_id":"adf3c0fc-d185-4660-9571-e3bb74b0545e","system_id":"levelo_inurba_marseille","lat":43.29877,"lon":5.37502,"is_reserved":false,"is_disabled":false,"rental_uris":{"android":"levelo://app?vid=adf3c0fc-d185-4660-9571-e3bb74b0545e","ios":"levelo://app?vid=adf3c0fc-d185-4660-9571-e3bb74b0545e"},"vehicle_type_id":"4","last_reported":1737627015,"current_range_meters":38800,"station_id":"","pricing_plan_id":"cebpf4jnsgd1na2vs0mg"},{"bike_id":"7ac4acd4-bd74-4db4-b010-03d6a4eb59a1","system_id":"levelo_inurba_marseille","lat":43.29501,"lon":5.37521,"is_reserved":false,"is_disabled":false,"rental_uris":{"android":"levelo://app?vid=7ac4acd4-bd74-4db4-b010-03d6a4eb59a1","ios":"levelo://app?vid=7ac4acd4-bd74-4db4-b010-03d6a4eb59a1"},"vehicle_type_id":"4","last_reported":1737627015,"current_range_meters":30800,"station_id":"ce4bgkp2rcd13ifvqbmg","pricing_plan_id":"cebpf4jnsgd1na2vs0mg"},{"bike_id":"b8ebc2f4-f1cf-4888-ba79-1801de2cf3e3","system_id":"levelo_inurba_marseille","lat":43.27491,"lon":5.42463,"is_reserved":false,"is_disabled":false,"rental_uris":{"android":"levelo://app?vid=b8ebc2f4-f1cf-4888-ba79-1801de2cf3e3","ios":"levelo://app?vid=b8ebc2f4-f1cf-4888-ba79-1801de2cf3e3"},"vehicle_type_id":"4","last_reported":1737627015,"current_range_meters":25600,"station_id":"ce4bhn92rcd13ifvqgrg","pricing_plan_id":"cebpf4jnsgd1na2vs0mg"},{"bike_id":"476e1891-c5e3-4d5c-b1b5-9f6fc81f93b2","system_id":"levelo_inurba_marseille","lat":43.29924,"lon":5.3746,"is_reserved":false,"is_disabled":false,"rental_uris":{"android":"levelo://app?vid=476e1891-c5e3-4d5c-b1b5-9f6fc81f93b2","ios":"levelo://app?vid=476e1891-c5e3-4d5c-b1b5-9f6fc81f93b2"},"vehicle_type_id":"4","last_reported":1737627015,"current_range_meters":20800,"station_id":"ce4bgjh2rcd13ifvqbg0","pricing_plan_id":"cebpf4jnsgd1na2vs0mg"},{"bike_id":"4c4299ed-4907-4bf1-b2b1-f5fc1cae552c","system_id":"levelo_inurba_marseille","lat":43.30588,"lon":5.3935,"is_reserved":false,"is_disabled":false,"rental_uris":{"android":"levelo://app?vid=4c4299ed-4907-4bf1-b2b1-f5fc1cae552c","ios":"levelo://app?vid=4c4299ed-4907-4bf1-b2b1-f5fc1cae552c"},"vehicle_type_id":"4","last_reported":1737627015,"current_range_meters":35200,"station_id":"ce4bh0p2rcd13ifvqd80","pricing_plan_id":"cebpf4jnsgd1na2vs0mg"},{"bike_id":"10bb94f4-9067-4b6a-a454-97104e9970d8","system_id":"levelo_inurba_marseille","lat":43.29792,"lon":5.38095,"is_reserved":false,"is_disabled":false,"rental_uris":{"android":"levelo://app?vid=10bb94f4-9067-4b6a-a454-97104e9970d8","ios":"levelo://app?vid=10bb94f4-9067-4b6a-a454-97104e9970d8"},"vehicle_type_id":"4","last_reported":1737627015,"current_range_meters":36400,"station_id":"ce4bgip2rcd13ifvqbb0","pricing_plan_id":"cebpf4jnsgd1na2vs0mg"},{"bike_id":"b29a25d6-fd63-45cc-bcff-78b9e62160ef","system_id":"levelo_inurba_marseille","lat":43.27368,"lon":5.36256,"is_reserved":false,"is_disabled":false,"rental_uris":{"android":"levelo://app?vid=b29a25d6-fd63-45cc-bcff-78b9e62160ef","ios":"levelo://app?vid=b29a25d6-fd63-45cc-bcff-78b9e62160ef"},"vehicle_type_id":"4","last_reported":1737627015,"current_range_meters":38000,"station_id":"ce4bhbh2rcd13ifvqeo0","pricing_plan_id":"cebpf4jnsgd1na2vs0mg"},{"bike_id":"9885c3b6-bcd1-4482-97df-d738948a9fd6","system_id":"levelo_inurba_marseille","lat":43.33607,"lon":5.41021,"is_reserved":false,"is_disabled":false,"rental_uris":{"android":"levelo://app?vid=9885c3b6-bcd1-4482-97df-d738948a9fd6","ios":"levelo://app?vid=9885c3b6-bcd1-4482-97df-d738948a9fd6"},"vehicle_type_id":"4","last_reported":1737627015,"current_range_meters":28000,"station_id":"ce4bhqh2rcd13ifvqhmg","pricing_plan_id":"cebpf4jnsgd1na2vs0mg"},{"bike_id":"4a1877ac-0eba-4d1d-a5b6-5c57a0d326b7","system_id":"levelo_inurba_marseille","lat":43.31072,"lon":5.42449,"is_reserved":false,"is_disabled":false,"rental_uris":{"android":"levelo://app?vid=4a1877ac-0eba-4d1d-a5b6-5c57a0d326b7","ios":"levelo://app?vid=4a1877ac-0eba-4d1d-a5b6-5c57a0d326b7"},"vehicle_type_id":"4","last_reported":1737627015,"current_range_meters":12800,"station_id":"ce4bhp92rcd13ifvqhag","pricing_plan_id":"cebpf4jnsgd1na2vs0mg"},{"bike_id":"4c3fd064-567c-4c07-aded-62366cae8c14","system_id":"levelo_inurba_marseille","lat":43.30269,"lon":5.37711,"is_reserved":false,"is_disabled":false,"rental_uris":{"android":"levelo://app?vid=4c3fd064-567c-4c07-aded-62366cae8c14","ios":"levelo://app?vid=4c3fd064-567c-4c07-aded-62366cae8c14"},"vehicle_type_id":"4","last_reported":1737627015,"current_range_meters":38800,"station_id":"ce4bguh2rcd13ifvqcj0","pricing_plan_id":"cebpf4jnsgd1na2vs0mg"},{"bike_id":"690385e8-71e7-4e2e-86f0-4412257663f3","system_id":"levelo_inurba_marseille","lat":43.27427,"lon":5.39395,"is_reserved":false,"is_disabled":false,"rental_uris":{"android":"levelo://app?vid=690385e8-71e7-4e2e-86f0-4412257663f3","ios":"levelo://app?vid=690385e8-71e7-4e2e-86f0-4412257663f3"},"vehicle_type_id":"4","last_reported":1737627015,"current_range_meters":34800,"station_id":"ce4bhdp2rcd13ifvqf20","pricing_plan_id":"cebpf4jnsgd1na2vs0mg"},{"bike_id":"ac665639-1773-430a-962e-c97c35d88c0d","system_id":"levelo_inurba_marseille","lat":43.3138,"lon":5.38509,"is_reserved":false,"is_disabled":false,"rental_uris":{"android":"levelo://app?vid=ac665639-1773-430a-962e-c97c35d88c0d","ios":"levelo://app?vid=ac665639-1773-430a-962e-c97c35d88c0d"},"vehicle_type_id":"4","last_reported":1737627015,"current_range_meters":19600,"station_id":"ce4bgt92rcd13ifvqcf0","pricing_plan_id":"cebpf4jnsgd1na2vs0mg"},{"bike_id":"b643a99a-69fe-476a-9b0c-812e19557960","system_id":"levelo_inurba_marseille","lat":43.30493,"lon":5.37881,"is_reserved":false,"is_disabled":false,"rental_uris":{"android":"levelo://app?vid=b643a99a-69fe-476a-9b0c-812e19557960","ios":"levelo://app?vid=b643a99a-69fe-476a-9b0c-812e19557960"},"vehicle_type_id":"4","last_reported":1737627015,"current_range_meters":38800,"station_id":"ce4bgup2rcd13ifvqcn0","pricing_plan_id":"cebpf4jnsgd1na2vs0mg"},{"bike_id":"7ace546e-9c67-4124-8420-9ed07a575e5a","system_id":"levelo_inurba_marseille","lat":43.31625,"lon":5.40546,"is_reserved":false,"is_disabled":true,"rental_uris":{"android":"levelo://app?vid=7ace546e-9c67-4124-8420-9ed07a575e5a","ios":"levelo://app?vid=7ace546e-9c67-4124-8420-9ed07a575e5a"},"vehicle_type_id":"4","last_reported":1737627015,"current_range_meters":0,"station_id":"","pricing_plan_id":"cebpf4jnsgd1na2vs0mg"},{"bike_id":"f4064b91-d50f-4faa-b80a-c4b38df2d08b","system_id":"levelo_inurba_marseille","lat":43.22923,"lon":5.35397,"is_reserved":false,"is_disabled":false,"rental_uris":{"android":"levelo://app?vid=f4064b91-d50f-4faa-b80a-c4b38df2d08b","ios":"levelo://app?vid=f4064b91-d50f-4faa-b80a-c4b38df2d08b"},"vehicle_type_id":"4","last_reported":1737627015,"current_range_meters":38800,"station_id":"cpo3532slgdg3j2ikp40","pricing_plan_id":"cebpf4jnsgd1na2vs0mg"},{"bike_id":"79fbb389-20e4-4ca1-95d0-d5c308573137","system_id":"levelo_inurba_marseille","lat":43.24052,"lon":5.37779,"is_reserved":false,"is_disabled":false,"rental_uris":{"android":"levelo://app?vid=79fbb389-20e4-4ca1-95d0-d5c308573137","ios":"levelo://app?vid=79fbb389-20e4-4ca1-95d0-d5c308573137"},"vehicle_type_id":"4","last_reported":1737627015,"current_range_meters":22400,"station_id":"ce4bhnp2rcd13ifvqgvg","pricing_plan_id":"cebpf4jnsgd1na2vs0mg"},{"bike_id":"010d7af0-1cdd-4754-9cac-a1dc0f27c72d","system_id":"levelo_inurba_marseille","lat":43.3309,"lon":5.38225,"is_reserved":false,"is_disabled":false,"rental_uris":{"android":"levelo://app?vid=010d7af0-1cdd-4754-9cac-a1dc0f27c72d","ios":"levelo://app?vid=010d7af0-1cdd-4754-9cac-a1dc0f27c72d"},"vehicle_type_id":"4","last_reported":1737627015,"current_range_meters":26800,"station_id":"","pricing_plan_id":"cebpf4jnsgd1na2vs0mg"},{"bike_id":"5e75dd30-ab3b-44d3-8dcb-cb5fd4a0eb65","system_id":"levelo_inurba_marseille","lat":43.24637,"lon":5.38916,"is_reserved":false,"is_disabled":false,"rental_uris":{"android":"levelo://app?vid=5e75dd30-ab3b-44d3-8dcb-cb5fd4a0eb65","ios":"levelo://app?vid=5e75dd30-ab3b-44d3-8dcb-cb5fd4a0eb65"},"vehicle_type_id":"4","last_reported":1737627015,"current_range_meters":38000,"station_id":"ce4bhg12rcd13ifvqf60","pricing_plan_id":"cebpf4jnsgd1na2vs0mg"},{"bike_id":"fdf93da9-75a1-4a4e-b95e-8126f728c2af","system_id":"levelo_inurba_marseille","lat":43.24177,"lon":5.39734,"is_reserved":false,"is_disabled":false,"rental_uris":{"android":"levelo://app?vid=fdf93da9-75a1-4a4e-b95e-8126f728c2af","ios":"levelo://app?vid=fdf93da9-75a1-4a4e-b95e-8126f728c2af"},"vehicle_type_id":"4","last_reported":1737627015,"current_range_meters":24400,"station_id":"ce4bhn12rcd13ifvqgpg","pricing_plan_id":"cebpf4jnsgd1na2vs0mg"},{"bike_id":"6d736148-0838-4827-bf70-745978854c80","system_id":"levelo_inurba_marseille","lat":43.26195,"lon":5.37929,"is_reserved":false,"is_disabled":false,"rental_uris":{"android":"levelo://app?vid=6d736148-0838-4827-bf70-745978854c80","ios":"levelo://app?vid=6d736148-0838-4827-bf70-745978854c80"},"vehicle_type_id":"4","last_reported":1737627015,"current_range_meters":38800,"station_id":"ce4bhjp2rcd13ifvqg90","pricing_plan_id":"cebpf4jnsgd1na2vs0mg"},{"bike_id":"6ec0ae9c-2577-4624-b08d-4dc408a021cd","system_id":"levelo_inurba_marseille","lat":43.29275,"lon":5.40126,"is_reserved":false,"is_disabled":false,"rental_uris":{"android":"levelo://app?vid=6ec0ae9c-2577-4624-b08d-4dc408a021cd","ios":"levelo://app?vid=6ec0ae9c-2577-4624-b08d-4dc408a021cd"},"vehicle_type_id":"4","last_reported":1737627015,"current_range_meters":28000,"station_id":"ce4bh312rcd13ifvqdk0","pricing_plan_id":"cebpf4jnsgd1na2vs0mg"},{"bike_id":"6c2e2f41-9c52-4308-86ab-09129b1176ab","system_id":"levelo_inurba_marseille","lat":43.30514,"lon":5.36552,"is_reserved":false,"is_disabled":false,"rental_uris":{"android":"levelo://app?vid=6c2e2f41-9c52-4308-86ab-09129b1176ab","ios":"levelo://app?vid=6c2e2f41-9c52-4308-86ab-09129b1176ab"},"vehicle_type_id":"4","last_reported":1737627015,"current_range_meters":32800,"station_id":"ce4bgs12rcd13ifvqcag","pricing_plan_id":"cebpf4jnsgd1na2vs0mg"},{"bike_id":"df570c82-1ba3-4893-abbc-6c8e2015a56b","system_id":"levelo_inurba_marseille","lat":43.31716,"lon":5.40455,"is_reserved":false,"is_disabled":false,"rental_uris":{"android":"levelo://app?vid=df570c82-1ba3-4893-abbc-6c8e2015a56b","ios":"levelo://app?vid=df570c82-1ba3-4893-abbc-6c8e2015a56b"},"vehicle_type_id":"4","last_reported":1737627015,"current_range_meters":19200,"station_id":"ce4bh012rcd13ifvqd00","pricing_plan_id":"cebpf4jnsgd1na2vs0mg"},{"bike_id":"e0c73df8-dcd5-4bdb-aab2-8e04256d7b66","system_id":"levelo_inurba_marseille","lat":43.29069,"lon":5.37165,"is_reserved":false,"is_disabled":false,"rental_uris":{"android":"levelo://app?vid=e0c73df8-dcd5-4bdb-aab2-8e04256d7b66","ios":"levelo://app?vid=e0c73df8-dcd5-4bdb-aab2-8e04256d7b66"},"vehicle_type_id":"4","last_reported":1737627015,"current_range_meters":32000,"station_id":"ce4bh5p2rcd13ifvqe4g","pricing_plan_id":"cebpf4jnsgd1na2vs0mg"},{"bike_id":"65094a7f-b962-43c6-b0af-b51087b9f16f","system_id":"levelo_inurba_marseille","lat":43.2893,"lon":5.36642,"is_reserved":false,"is_disabled":false,"rental_uris":{"android":"levelo://app?vid=65094a7f-b962-43c6-b0af-b51087b9f16f","ios":"levelo://app?vid=65094a7f-b962-43c6-b0af-b51087b9f16f"},"vehicle_type_id":"4","last_reported":1737627015,"current_range_meters":30000,"station_id":"ce4bhap2rcd13ifvqek0","pricing_plan_id":"cebpf4jnsgd1na2vs0mg"},{"bike_id":"9838cc78-2b53-49d3-ae13-82df62c4fd64","system_id":"levelo_inurba_marseille","lat":43.28416,"lon":5.40933,"is_reserved":false,"is_disabled":false,"rental_uris":{"android":"levelo://app?vid=9838cc78-2b53-49d3-ae13-82df62c4fd64","ios":"levelo://app?vid=9838cc78-2b53-49d3-ae13-82df62c4fd64"},"vehicle_type_id":"4","last_reported":1737627015,"current_range_meters":6400,"station_id":"","pricing_plan_id":"cebpf4jnsgd1na2vs0mg"},{"bike_id":"f3ef6cec-33a1-4ae9-94f9-5b6ef04ea4ec","system_id":"levelo_inurba_marseille","lat":43.31326,"lon":5.39705,"is_reserved":false,"is_disabled":false,"rental_uris":{"android":"levelo://app?vid=f3ef6cec-33a1-4ae9-94f9-5b6ef04ea4ec","ios":"levelo://app?vid=f3ef6cec-33a1-4ae9-94f9-5b6ef04ea4ec"},"vehicle_type_id":"4","last_reported":1737627015,"current_range_meters":16400,"station_id":"ce4bgvp2rcd13ifvqcu0","pricing_plan_id":"cebpf4jnsgd1na2vs0mg"},{"bike_id":"d9d67e50-ff60-4024-bb97-06b4cc192a7e","system_id":"levelo_inurba_marseille","lat":43.30243,"lon":5.37472,"is_reserved":false,"is_disabled":true,"rental_uris":{"android":"levelo://app?vid=d9d67e50-ff60-4024-bb97-06b4cc192a7e","ios":"levelo://app?vid=d9d67e50-ff60-4024-bb97-06b4cc192a7e"},"vehicle_type_id":"4","last_reported":1737627015,"current_range_meters":38800,"station_id":"","pricing_plan_id":"cebpf4jnsgd1na2vs0mg"},{"bike_id":"119214ee-6b87-4f01-9e11-980178b3273a","system_id":"levelo_inurba_marseille","lat":43.29563,"lon":5.39993,"is_reserved":false,"is_disabled":true,"rental_uris":{"android":"levelo://app?vid=119214ee-6b87-4f01-9e11-980178b3273a","ios":"levelo://app?vid=119214ee-6b87-4f01-9e11-980178b3273a"},"vehicle_type_id":"4","last_reported":1737627015,"current_range_meters":32000,"station_id":"ce4bh312rcd13ifvqdj0","pricing_plan_id":"cebpf4jnsgd1na2vs0mg"},{"bike_id":"532ce141-6fb4-44aa-a275-8c13d9f2c261","system_id":"levelo_inurba_marseille","lat":43.27203,"lon":5.39201,"is_reserved":false,"is_disabled":false,"rental_uris":{"android":"levelo://app?vid=532ce141-6fb4-44aa-a275-8c13d9f2c261","ios":"levelo://app?vid=532ce141-6fb4-44aa-a275-8c13d9f2c261"},"vehicle_type_id":"4","last_reported":1737627015,"current_range_meters":39200,"station_id":"ce4bhhp2rcd13ifvqfm0","pricing_plan_id":"cebpf4jnsgd1na2vs0mg"},{"bike_id":"19b8198b-0b8b-41c2-8c4a-a703ec5c010b","system_id":"levelo_inurba_marseille","lat":43.30145,"lon":5.38094,"is_reserved":false,"is_disabled":false,"rental_uris":{"android":"levelo://app?vid=19b8198b-0b8b-41c2-8c4a-a703ec5c010b","ios":"levelo://app?vid=19b8198b-0b8b-41c2-8c4a-a703ec5c010b"},"vehicle_type_id":"4","last_reported":1737627015,"current_range_meters":38800,"station_id":"ce4bgjp2rcd13ifvqbh0","pricing_plan_id":"cebpf4jnsgd1na2vs0mg"},{"bike_id":"8e9b16d7-aa98-4495-aaff-c04ab1afcc63","system_id":"levelo_inurba_marseille","lat":43.30166,"lon":5.38089,"is_reserved":false,"is_disabled":false,"rental_uris":{"android":"levelo://app?vid=8e9b16d7-aa98-4495-aaff-c04ab1afcc63","ios":"levelo://app?vid=8e9b16d7-aa98-4495-aaff-c04ab1afcc63"},"vehicle_type_id":"4","last_reported":1737627015,"current_range_meters":31200,"station_id":"ce4bgjp2rcd13ifvqbh0","pricing_plan_id":"cebpf4jnsgd1na2vs0mg"},{"bike_id":"9f96de60-ba44-4c93-9707-a282028a4274","system_id":"levelo_inurba_marseille","lat":43.24173,"lon":5.39714,"is_reserved":false,"is_disabled":false,"rental_uris":{"android":"levelo://app?vid=9f96de60-ba44-4c93-9707-a282028a4274","ios":"levelo://app?vid=9f96de60-ba44-4c93-9707-a282028a4274"},"vehicle_type_id":"4","last_reported":1737627015,"current_range_meters":37600,"station_id":"ce4bhn12rcd13ifvqgpg","pricing_plan_id":"cebpf4jnsgd1na2vs0mg"},{"bike_id":"d08c37a7-7fe0-4179-ac80-eb214b053de8","system_id":"levelo_inurba_marseille","lat":43.32541,"lon":5.41445,"is_reserved":false,"is_disabled":false,"rental_uris":{"android":"levelo://app?vid=d08c37a7-7fe0-4179-ac80-eb214b053de8","ios":"levelo://app?vid=d08c37a7-7fe0-4179-ac80-eb214b053de8"},"vehicle_type_id":"4","last_reported":1737627015,"current_range_meters":38000,"station_id":"ce4bhq12rcd13ifvqhhg","pricing_plan_id":"cebpf4jnsgd1na2vs0mg"},{"bike_id":"2f94ddaf-3e6c-44ee-84f0-e7d186fed9b8","system_id":"levelo_inurba_marseille","lat":43.30909,"lon":5.36851,"is_reserved":false,"is_disabled":false,"rental_uris":{"android":"levelo://app?vid=2f94ddaf-3e6c-44ee-84f0-e7d186fed9b8","ios":"levelo://app?vid=2f94ddaf-3e6c-44ee-84f0-e7d186fed9b8"},"vehicle_type_id":"4","last_reported":1737627015,"current_range_meters":27600,"station_id":"ce4bgn92rcd13ifvqbvg","pricing_plan_id":"cebpf4jnsgd1na2vs0mg"},{"bike_id":"b6a17ddb-9bbb-49ff-bd70-8900a4bca0f7","system_id":"levelo_inurba_marseille","lat":43.30964,"lon":5.39052,"is_reserved":false,"is_disabled":false,"rental_uris":{"android":"levelo://app?vid=b6a17ddb-9bbb-49ff-bd70-8900a4bca0f7","ios":"levelo://app?vid=b6a17ddb-9bbb-49ff-bd70-8900a4bca0f7"},"vehicle_type_id":"4","last_reported":1737627015,"current_range_meters":31200,"station_id":"ce4bgup2rcd13ifvqco0","pricing_plan_id":"cebpf4jnsgd1na2vs0mg"},{"bike_id":"68b608b1-4b2e-42e4-afbb-5cdcf5bc15cf","system_id":"levelo_inurba_marseille","lat":43.26676,"lon":5.38273,"is_reserved":false,"is_disabled":false,"rental_uris":{"android":"levelo://app?vid=68b608b1-4b2e-42e4-afbb-5cdcf5bc15cf","ios":"levelo://app?vid=68b608b1-4b2e-42e4-afbb-5cdcf5bc15cf"},"vehicle_type_id":"4","last_reported":1737627015,"current_range_meters":24800,"station_id":"ce4bhg92rcd13ifvqf90","pricing_plan_id":"cebpf4jnsgd1na2vs0mg"},{"bike_id":"e6e8646a-47fe-42a2-b78a-21530b7ebe2d","system_id":"levelo_inurba_marseille","lat":43.31692,"lon":5.40441,"is_reserved":false,"is_disabled":false,"rental_uris":{"android":"levelo://app?vid=e6e8646a-47fe-42a2-b78a-21530b7ebe2d","ios":"levelo://app?vid=e6e8646a-47fe-42a2-b78a-21530b7ebe2d"},"vehicle_type_id":"4","last_reported":1737627015,"current_range_meters":28400,"station_id":"ce4bh012rcd13ifvqd00","pricing_plan_id":"cebpf4jnsgd1na2vs0mg"},{"bike_id":"110f4d36-27c9-49b8-86bf-d85558408b80","system_id":"levelo_inurba_marseille","lat":43.32312,"lon":5.38963,"is_reserved":false,"is_disabled":false,"rental_uris":{"android":"levelo://app?vid=110f4d36-27c9-49b8-86bf-d85558408b80","ios":"levelo://app?vid=110f4d36-27c9-49b8-86bf-d85558408b80"},"vehicle_type_id":"4","last_reported":1737627015,"current_range_meters":19600,"station_id":"","pricing_plan_id":"cebpf4jnsgd1na2vs0mg"},{"bike_id":"e2151eb3-314b-404c-b259-cf12a3a3e0c6","system_id":"levelo_inurba_marseille","lat":43.31596,"lon":5.40261,"is_reserved":false,"is_disabled":false,"rental_uris":{"android":"levelo://app?vid=e2151eb3-314b-404c-b259-cf12a3a3e0c6","ios":"levelo://app?vid=e2151eb3-314b-404c-b259-cf12a3a3e0c6"},"vehicle_type_id":"4","last_reported":1737627015,"current_range_meters":23200,"station_id":"","pricing_plan_id":"cebpf4jnsgd1na2vs0mg"},{"bike_id":"2a4119c1-0715-44be-8eb6-4bd6b8441ce5","system_id":"levelo_inurba_marseille","lat":43.29842,"lon":5.3627,"is_reserved":false,"is_disabled":false,"rental_uris":{"android":"levelo://app?vid=2a4119c1-0715-44be-8eb6-4bd6b8441ce5","ios":"levelo://app?vid=2a4119c1-0715-44be-8eb6-4bd6b8441ce5"},"vehicle_type_id":"4","last_reported":1737627015,"current_range_meters":22400,"station_id":"ce4bgpp2rcd13ifvqc3g","pricing_plan_id":"cebpf4jnsgd1na2vs0mg"},{"bike_id":"5bc66414-50af-4cae-89c3-2cba4062827e","system_id":"levelo_inurba_marseille","lat":43.29875,"lon":5.375,"is_reserved":false,"is_disabled":false,"rental_uris":{"android":"levelo://app?vid=5bc66414-50af-4cae-89c3-2cba4062827e","ios":"levelo://app?vid=5bc66414-50af-4cae-89c3-2cba4062827e"},"vehicle_type_id":"4","last_reported":1737627015,"current_range_meters":38000,"station_id":"","pricing_plan_id":"cebpf4jnsgd1na2vs0mg"},{"bike_id":"37a5bfaa-bf3c-4576-a034-4184ba5c8c33","system_id":"levelo_inurba_marseille","lat":43.32481,"lon":5.36552,"is_reserved":false,"is_disabled":false,"rental_uris":{"android":"levelo://app?vid=37a5bfaa-bf3c-4576-a034-4184ba5c8c33","ios":"levelo://app?vid=37a5bfaa-bf3c-4576-a034-4184ba5c8c33"},"vehicle_type_id":"4","last_reported":1737627015,"current_range_meters":20800,"station_id":"ce4bhs12rcd13ifvqhvg","pricing_plan_id":"cebpf4jnsgd1na2vs0mg"},{"bike_id":"04de6f23-407d-4fcf-b28c-ee2a21a52bbe","system_id":"levelo_inurba_marseille","lat":43.23164,"lon":5.43712,"is_reserved":false,"is_disabled":false,"rental_uris":{"android":"levelo://app?vid=04de6f23-407d-4fcf-b28c-ee2a21a52bbe","ios":"levelo://app?vid=04de6f23-407d-4fcf-b28c-ee2a21a52bbe"},"vehicle_type_id":"4","last_reported":1737627015,"current_range_meters":29600,"station_id":"ce4bhmp2rcd13ifvqgog","pricing_plan_id":"cebpf4jnsgd1na2vs0mg"},{"bike_id":"d6555a85-9bf9-4f6f-8963-17c7982023b7","system_id":"levelo_inurba_marseille","lat":43.29326,"lon":5.37405,"is_reserved":false,"is_disabled":false,"rental_uris":{"android":"levelo://app?vid=d6555a85-9bf9-4f6f-8963-17c7982023b7","ios":"levelo://app?vid=d6555a85-9bf9-4f6f-8963-17c7982023b7"},"vehicle_type_id":"4","last_reported":1737627015,"current_range_meters":38000,"station_id":"ce4bgi12rcd13ifvqb70","pricing_plan_id":"cebpf4jnsgd1na2vs0mg"},{"bike_id":"050bd42b-0fa4-4ea3-8a02-3c1196960ece","system_id":"levelo_inurba_marseille","lat":43.30547,"lon":5.36541,"is_reserved":false,"is_disabled":false,"rental_uris":{"android":"levelo://app?vid=050bd42b-0fa4-4ea3-8a02-3c1196960ece","ios":"levelo://app?vid=050bd42b-0fa4-4ea3-8a02-3c1196960ece"},"vehicle_type_id":"4","last_reported":1737627015,"current_range_meters":35600,"station_id":"","pricing_plan_id":"cebpf4jnsgd1na2vs0mg"},{"bike_id":"e6840a8c-4383-49e5-88ac-e09a4e9ec394","system_id":"levelo_inurba_marseille","lat":43.31324,"lon":5.39699,"is_reserved":false,"is_disabled":false,"rental_uris":{"android":"levelo://app?vid=e6840a8c-4383-49e5-88ac-e09a4e9ec394","ios":"levelo://app?vid=e6840a8c-4383-49e5-88ac-e09a4e9ec394"},"vehicle_type_id":"4","last_reported":1737627015,"current_range_meters":28000,"station_id":"ce4bgvp2rcd13ifvqcu0","pricing_plan_id":"cebpf4jnsgd1na2vs0mg"},{"bike_id":"3b78501e-373d-4af9-a07c-c1a27585fc17","system_id":"levelo_inurba_marseille","lat":43.29952,"lon":5.41343,"is_reserved":false,"is_disabled":false,"rental_uris":{"android":"levelo://app?vid=3b78501e-373d-4af9-a07c-c1a27585fc17","ios":"levelo://app?vid=3b78501e-373d-4af9-a07c-c1a27585fc17"},"vehicle_type_id":"4","last_reported":1737627015,"current_range_meters":30000,"station_id":"ce4bhp12rcd13ifvqh9g","pricing_plan_id":"cebpf4jnsgd1na2vs0mg"},{"bike_id":"58d694a0-8c3c-447c-979d-d00067af5c1f","system_id":"levelo_inurba_marseille","lat":43.28965,"lon":5.37842,"is_reserved":false,"is_disabled":false,"rental_uris":{"android":"levelo://app?vid=58d694a0-8c3c-447c-979d-d00067af5c1f","ios":"levelo://app?vid=58d694a0-8c3c-447c-979d-d00067af5c1f"},"vehicle_type_id":"4","last_reported":1737627015,"current_range_meters":30000,"station_id":"ce4bh9p2rcd13ifvqed0","pricing_plan_id":"cebpf4jnsgd1na2vs0mg"},{"bike_id":"1970fe03-2a19-4871-a01b-17809d851312","system_id":"levelo_inurba_marseille","lat":43.24385,"lon":5.37071,"is_reserved":false,"is_disabled":false,"rental_uris":{"android":"levelo://app?vid=1970fe03-2a19-4871-a01b-17809d851312","ios":"levelo://app?vid=1970fe03-2a19-4871-a01b-17809d851312"},"vehicle_type_id":"4","last_reported":1737627015,"current_range_meters":24000,"station_id":"ce4bhhh2rcd13ifvqfk0","pricing_plan_id":"cebpf4jnsgd1na2vs0mg"},{"bike_id":"9999a319-4fe3-4fb4-a91e-417112ebc396","system_id":"levelo_inurba_marseille","lat":43.30315,"lon":5.36921,"is_reserved":false,"is_disabled":false,"rental_uris":{"android":"levelo://app?vid=9999a319-4fe3-4fb4-a91e-417112ebc396","ios":"levelo://app?vid=9999a319-4fe3-4fb4-a91e-417112ebc396"},"vehicle_type_id":"4","last_reported":1737627015,"current_range_meters":11200,"station_id":"ce4bgqh2rcd13ifvqc5g","pricing_plan_id":"cebpf4jnsgd1na2vs0mg"},{"bike_id":"1ac06258-ad9a-434b-839f-fd5f6c847dd6","system_id":"levelo_inurba_marseille","lat":43.30533,"lon":5.36707,"is_reserved":false,"is_disabled":false,"rental_uris":{"android":"levelo://app?vid=1ac06258-ad9a-434b-839f-fd5f6c847dd6","ios":"levelo://app?vid=1ac06258-ad9a-434b-839f-fd5f6c847dd6"},"vehicle_type_id":"4","last_reported":1737627015,"current_range_meters":37600,"station_id":"ce4bgrp2rcd13ifvqc9g","pricing_plan_id":"cebpf4jnsgd1na2vs0mg"},{"bike_id":"6440f376-b0ac-4979-8b74-813c76d7599b","system_id":"levelo_inurba_marseille","lat":43.24175,"lon":5.3972,"is_reserved":false,"is_disabled":false,"rental_uris":{"android":"levelo://app?vid=6440f376-b0ac-4979-8b74-813c76d7599b","ios":"levelo://app?vid=6440f376-b0ac-4979-8b74-813c76d7599b"},"vehicle_type_id":"4","last_reported":1737627015,"current_range_meters":25600,"station_id":"ce4bhn12rcd13ifvqgpg","pricing_plan_id":"cebpf4jnsgd1na2vs0mg"},{"bike_id":"f98a7ee0-f9fe-4556-933e-ecf6827038e5","system_id":"levelo_inurba_marseille","lat":43.291846,"lon":5.357196,"is_reserved":false,"is_disabled":false,"rental_uris":{"android":"levelo://app?vid=f98a7ee0-f9fe-4556-933e-ecf6827038e5","ios":"levelo://app?vid=f98a7ee0-f9fe-4556-933e-ecf6827038e5"},"vehicle_type_id":"4","last_reported":1737627015,"current_range_meters":14400,"station_id":"","pricing_plan_id":"cebpf4jnsgd1na2vs0mg"},{"bike_id":"46e55038-fbd6-4771-893c-ab44f3c1642a","system_id":"levelo_inurba_marseille","lat":43.31713,"lon":5.40441,"is_reserved":false,"is_disabled":false,"rental_uris":{"android":"levelo://app?vid=46e55038-fbd6-4771-893c-ab44f3c1642a","ios":"levelo://app?vid=46e55038-fbd6-4771-893c-ab44f3c1642a"},"vehicle_type_id":"4","last_reported":1737627015,"current_range_meters":38800,"station_id":"ce4bh012rcd13ifvqd00","pricing_plan_id":"cebpf4jnsgd1na2vs0mg"},{"bike_id":"bd40e573-f58a-4cf8-8312-31120e7860b1","system_id":"levelo_inurba_marseille","lat":43.337444,"lon":5.374475,"is_reserved":false,"is_disabled":false,"rental_uris":{"android":"levelo://app?vid=bd40e573-f58a-4cf8-8312-31120e7860b1","ios":"levelo://app?vid=bd40e573-f58a-4cf8-8312-31120e7860b1"},"vehicle_type_id":"4","last_reported":1737627015,"current_range_meters":25200,"station_id":"","pricing_plan_id":"cebpf4jnsgd1na2vs0mg"},{"bike_id":"91f957bd-7ae6-4841-8ac4-1ecdcd0c697e","system_id":"levelo_inurba_marseille","lat":43.31586,"lon":5.40197,"is_reserved":false,"is_disabled":false,"rental_uris":{"android":"levelo://app?vid=91f957bd-7ae6-4841-8ac4-1ecdcd0c697e","ios":"levelo://app?vid=91f957bd-7ae6-4841-8ac4-1ecdcd0c697e"},"vehicle_type_id":"4","last_reported":1737627015,"current_range_meters":26000,"station_id":"","pricing_plan_id":"cebpf4jnsgd1na2vs0mg"},{"bike_id":"632b28ad-d7cb-46af-a69c-c857c2a0764e","system_id":"levelo_inurba_marseille","lat":43.2706,"lon":5.40266,"is_reserved":false,"is_disabled":false,"rental_uris":{"android":"levelo://app?vid=632b28ad-d7cb-46af-a69c-c857c2a0764e","ios":"levelo://app?vid=632b28ad-d7cb-46af-a69c-c857c2a0764e"},"vehicle_type_id":"4","last_reported":1737627015,"current_range_meters":16800,"station_id":"ce4bhk92rcd13ifvqgc0","pricing_plan_id":"cebpf4jnsgd1na2vs0mg"},{"bike_id":"97f30324-56af-4610-8e3d-c06b58b423c9","system_id":"levelo_inurba_marseille","lat":43.30455,"lon":5.37917,"is_reserved":false,"is_disabled":false,"rental_uris":{"android":"levelo://app?vid=97f30324-56af-4610-8e3d-c06b58b423c9","ios":"levelo://app?vid=97f30324-56af-4610-8e3d-c06b58b423c9"},"vehicle_type_id":"4","last_reported":1737627015,"current_range_meters":12800,"station_id":"ce4bgup2rcd13ifvqcn0","pricing_plan_id":"cebpf4jnsgd1na2vs0mg"},{"bike_id":"96663138-92b9-4343-9a11-314ee4531fc0","system_id":"levelo_inurba_marseille","lat":43.30791,"lon":5.37637,"is_reserved":false,"is_disabled":true,"rental_uris":{"android":"levelo://app?vid=96663138-92b9-4343-9a11-314ee4531fc0","ios":"levelo://app?vid=96663138-92b9-4343-9a11-314ee4531fc0"},"vehicle_type_id":"4","last_reported":1737627015,"current_range_meters":14800,"station_id":"ce4bgv92rcd13ifvqcq0","pricing_plan_id":"cebpf4jnsgd1na2vs0mg"},{"bike_id":"cc257a19-bf36-400d-8168-b20cd0bca69c","system_id":"levelo_inurba_marseille","lat":43.27201,"lon":5.39189,"is_reserved":false,"is_disabled":false,"rental_uris":{"android":"levelo://app?vid=cc257a19-bf36-400d-8168-b20cd0bca69c","ios":"levelo://app?vid=cc257a19-bf36-400d-8168-b20cd0bca69c"},"vehicle_type_id":"4","last_reported":1737627015,"current_range_meters":32400,"station_id":"ce4bhhp2rcd13ifvqfm0","pricing_plan_id":"cebpf4jnsgd1na2vs0mg"},{"bike_id":"2e2e8490-b92e-4c4b-8457-33e124143e07","system_id":"levelo_inurba_marseille","lat":43.336087,"lon":5.410337,"is_reserved":false,"is_disabled":false,"rental_uris":{"android":"levelo://app?vid=2e2e8490-b92e-4c4b-8457-33e124143e07","ios":"levelo://app?vid=2e2e8490-b92e-4c4b-8457-33e124143e07"},"vehicle_type_id":"4","last_reported":1737627015,"current_range_meters":38800,"station_id":"ce4bhqh2rcd13ifvqhmg","pricing_plan_id":"cebpf4jnsgd1na2vs0mg"},{"bike_id":"cb6450b0-9b57-47e1-8b5f-ecc02f9d18ef","system_id":"levelo_inurba_marseille","lat":43.30176,"lon":5.36622,"is_reserved":false,"is_disabled":false,"rental_uris":{"android":"levelo://app?vid=cb6450b0-9b57-47e1-8b5f-ecc02f9d18ef","ios":"levelo://app?vid=cb6450b0-9b57-47e1-8b5f-ecc02f9d18ef"},"vehicle_type_id":"4","last_reported":1737627015,"current_range_meters":22000,"station_id":"ce4bgrh2rcd13ifvqc8g","pricing_plan_id":"cebpf4jnsgd1na2vs0mg"},{"bike_id":"588e3e0e-8f69-41e7-9333-90e8ac86efc1","system_id":"levelo_inurba_marseille","lat":43.29541,"lon":5.38537,"is_reserved":false,"is_disabled":false,"rental_uris":{"android":"levelo://app?vid=588e3e0e-8f69-41e7-9333-90e8ac86efc1","ios":"levelo://app?vid=588e3e0e-8f69-41e7-9333-90e8ac86efc1"},"vehicle_type_id":"4","last_reported":1737627015,"current_range_meters":20800,"station_id":"ce4bgih2rcd13ifvqba0","pricing_plan_id":"cebpf4jnsgd1na2vs0mg"},{"bike_id":"ce90fea6-ff2a-4d0b-bd4f-45ced0acf4c0","system_id":"levelo_inurba_marseille","lat":43.32349,"lon":5.36749,"is_reserved":false,"is_disabled":false,"rental_uris":{"android":"levelo://app?vid=ce90fea6-ff2a-4d0b-bd4f-45ced0acf4c0","ios":"levelo://app?vid=ce90fea6-ff2a-4d0b-bd4f-45ced0acf4c0"},"vehicle_type_id":"4","last_reported":1737627015,"current_range_meters":12000,"station_id":"ce4bhsh2rcd13ifvqi2g","pricing_plan_id":"cebpf4jnsgd1na2vs0mg"},{"bike_id":"58f3ad54-2bc4-4e41-b27f-6e9d2b21d957","system_id":"levelo_inurba_marseille","lat":43.279,"lon":5.38029,"is_reserved":false,"is_disabled":false,"rental_uris":{"android":"levelo://app?vid=58f3ad54-2bc4-4e41-b27f-6e9d2b21d957","ios":"levelo://app?vid=58f3ad54-2bc4-4e41-b27f-6e9d2b21d957"},"vehicle_type_id":"4","last_reported":1737627015,"current_range_meters":28400,"station_id":"ce4bhf92rcd13ifvqf50","pricing_plan_id":"cebpf4jnsgd1na2vs0mg"},{"bike_id":"ab13439f-1c4b-4b83-ac72-9f4e6d1f64cb","system_id":"levelo_inurba_marseille","lat":43.31247,"lon":5.38004,"is_reserved":false,"is_disabled":true,"rental_uris":{"android":"levelo://app?vid=ab13439f-1c4b-4b83-ac72-9f4e6d1f64cb","ios":"levelo://app?vid=ab13439f-1c4b-4b83-ac72-9f4e6d1f64cb"},"vehicle_type_id":"4","last_reported":1737627015,"current_range_meters":10800,"station_id":"","pricing_plan_id":"cebpf4jnsgd1na2vs0mg"},{"bike_id":"63f79744-d204-4fb1-a491-9d75c387d80c","system_id":"levelo_inurba_marseille","lat":43.30557,"lon":5.36577,"is_reserved":false,"is_disabled":false,"rental_uris":{"android":"levelo://app?vid=63f79744-d204-4fb1-a491-9d75c387d80c","ios":"levelo://app?vid=63f79744-d204-4fb1-a491-9d75c387d80c"},"vehicle_type_id":"4","last_reported":1737627015,"current_range_meters":38800,"station_id":"ce4bgs12rcd13ifvqcag","pricing_plan_id":"cebpf4jnsgd1na2vs0mg"},{"bike_id":"ca8e1a5b-ee68-4c24-b34a-5ed21e6728af","system_id":"levelo_inurba_marseille","lat":43.28714,"lon":5.36689,"is_reserved":false,"is_disabled":false,"rental_uris":{"android":"levelo://app?vid=ca8e1a5b-ee68-4c24-b34a-5ed21e6728af","ios":"levelo://app?vid=ca8e1a5b-ee68-4c24-b34a-5ed21e6728af"},"vehicle_type_id":"4","last_reported":1737627015,"current_range_meters":22400,"station_id":"","pricing_plan_id":"cebpf4jnsgd1na2vs0mg"},{"bike_id":"446337b0-26d0-44c0-b8a0-d07fbd5b17a2","system_id":"levelo_inurba_marseille","lat":43.29304,"lon":5.37439,"is_reserved":false,"is_disabled":false,"rental_uris":{"android":"levelo://app?vid=446337b0-26d0-44c0-b8a0-d07fbd5b17a2","ios":"levelo://app?vid=446337b0-26d0-44c0-b8a0-d07fbd5b17a2"},"vehicle_type_id":"4","last_reported":1737627015,"current_range_meters":30800,"station_id":"ce4bgi12rcd13ifvqb70","pricing_plan_id":"cebpf4jnsgd1na2vs0mg"},{"bike_id":"704b9ac4-08a6-48ef-85ea-bb2a6455baf7","system_id":"levelo_inurba_marseille","lat":43.26184,"lon":5.3794,"is_reserved":false,"is_disabled":false,"rental_uris":{"android":"levelo://app?vid=704b9ac4-08a6-48ef-85ea-bb2a6455baf7","ios":"levelo://app?vid=704b9ac4-08a6-48ef-85ea-bb2a6455baf7"},"vehicle_type_id":"4","last_reported":1737627015,"current_range_meters":38000,"station_id":"ce4bhjp2rcd13ifvqg90","pricing_plan_id":"cebpf4jnsgd1na2vs0mg"},{"bike_id":"dc25515f-2516-4d8e-8ff7-eaa9f571f705","system_id":"levelo_inurba_marseille","lat":43.30089,"lon":5.39084,"is_reserved":false,"is_disabled":true,"rental_uris":{"android":"levelo://app?vid=dc25515f-2516-4d8e-8ff7-eaa9f571f705","ios":"levelo://app?vid=dc25515f-2516-4d8e-8ff7-eaa9f571f705"},"vehicle_type_id":"4","last_reported":1737627015,"current_range_meters":0,"station_id":"ce4bh192rcd13ifvqdb0","pricing_plan_id":"cebpf4jnsgd1na2vs0mg"},{"bike_id":"6d744f18-55f9-4353-afce-bf46cbe886e0","system_id":"levelo_inurba_marseille","lat":43.30169,"lon":5.38095,"is_reserved":false,"is_disabled":false,"rental_uris":{"android":"levelo://app?vid=6d744f18-55f9-4353-afce-bf46cbe886e0","ios":"levelo://app?vid=6d744f18-55f9-4353-afce-bf46cbe886e0"},"vehicle_type_id":"4","last_reported":1737627015,"current_range_meters":22000,"station_id":"ce4bgjp2rcd13ifvqbh0","pricing_plan_id":"cebpf4jnsgd1na2vs0mg"},{"bike_id":"cb89451d-fcbc-47ab-bfa4-263d9c5e103c","system_id":"levelo_inurba_marseille","lat":43.24995,"lon":5.38938,"is_reserved":false,"is_disabled":false,"rental_uris":{"android":"levelo://app?vid=cb89451d-fcbc-47ab-bfa4-263d9c5e103c","ios":"levelo://app?vid=cb89451d-fcbc-47ab-bfa4-263d9c5e103c"},"vehicle_type_id":"4","last_reported":1737627015,"current_range_meters":30400,"station_id":"ce4bhgp2rcd13ifvqfd0","pricing_plan_id":"cebpf4jnsgd1na2vs0mg"},{"bike_id":"c4db15ea-eb22-409d-a92c-518ac96d96dd","system_id":"levelo_inurba_marseille","lat":43.29564,"lon":5.42244,"is_reserved":false,"is_disabled":false,"rental_uris":{"android":"levelo://app?vid=c4db15ea-eb22-409d-a92c-518ac96d96dd","ios":"levelo://app?vid=c4db15ea-eb22-409d-a92c-518ac96d96dd"},"vehicle_type_id":"4","last_reported":1737627015,"current_range_meters":37600,"station_id":"ce4bhph2rcd13ifvqhdg","pricing_plan_id":"cebpf4jnsgd1na2vs0mg"},{"bike_id":"3a584a2d-0bec-48d3-bef1-1f525427e3b5","system_id":"levelo_inurba_marseille","lat":43.31318,"lon":5.39693,"is_reserved":false,"is_disabled":false,"rental_uris":{"android":"levelo://app?vid=3a584a2d-0bec-48d3-bef1-1f525427e3b5","ios":"levelo://app?vid=3a584a2d-0bec-48d3-bef1-1f525427e3b5"},"vehicle_type_id":"4","last_reported":1737627015,"current_range_meters":39200,"station_id":"ce4bgvp2rcd13ifvqcu0","pricing_plan_id":"cebpf4jnsgd1na2vs0mg"},{"bike_id":"6db8d710-0799-43c0-85fe-57e7f9acc12c","system_id":"levelo_inurba_marseille","lat":43.27485,"lon":5.42479,"is_reserved":false,"is_disabled":false,"rental_uris":{"android":"levelo://app?vid=6db8d710-0799-43c0-85fe-57e7f9acc12c","ios":"levelo://app?vid=6db8d710-0799-43c0-85fe-57e7f9acc12c"},"vehicle_type_id":"4","last_reported":1737627015,"current_range_meters":11600,"station_id":"ce4bhn92rcd13ifvqgrg","pricing_plan_id":"cebpf4jnsgd1na2vs0mg"},{"bike_id":"1bf316b5-e489-41ce-8231-0df992cb2b56","system_id":"levelo_inurba_marseille","lat":43.28699,"lon":5.37381,"is_reserved":false,"is_disabled":false,"rental_uris":{"android":"levelo://app?vid=1bf316b5-e489-41ce-8231-0df992cb2b56","ios":"levelo://app?vid=1bf316b5-e489-41ce-8231-0df992cb2b56"},"vehicle_type_id":"4","last_reported":1737627015,"current_range_meters":32000,"station_id":"ce4bh3p2rcd13ifvqdq0","pricing_plan_id":"cebpf4jnsgd1na2vs0mg"},{"bike_id":"2a0e841b-41fb-4b43-8d93-42ba2b03f3a4","system_id":"levelo_inurba_marseille","lat":43.24672,"lon":5.38157,"is_reserved":false,"is_disabled":false,"rental_uris":{"android":"levelo://app?vid=2a0e841b-41fb-4b43-8d93-42ba2b03f3a4","ios":"levelo://app?vid=2a0e841b-41fb-4b43-8d93-42ba2b03f3a4"},"vehicle_type_id":"4","last_reported":1737627015,"current_range_meters":37600,"station_id":"ce4bhih2rcd13ifvqfr0","pricing_plan_id":"cebpf4jnsgd1na2vs0mg"},{"bike_id":"9bfdf7cb-91d1-44ae-89e3-489d8a73d8f7","system_id":"levelo_inurba_marseille","lat":43.32476,"lon":5.36543,"is_reserved":false,"is_disabled":false,"rental_uris":{"android":"levelo://app?vid=9bfdf7cb-91d1-44ae-89e3-489d8a73d8f7","ios":"levelo://app?vid=9bfdf7cb-91d1-44ae-89e3-489d8a73d8f7"},"vehicle_type_id":"4","last_reported":1737627015,"current_range_meters":38400,"station_id":"ce4bhs12rcd13ifvqhvg","pricing_plan_id":"cebpf4jnsgd1na2vs0mg"},{"bike_id":"b961f1cf-d10d-49f9-8fe5-c156ac9fbab7","system_id":"levelo_inurba_marseille","lat":43.30154,"lon":5.38091,"is_reserved":false,"is_disabled":false,"rental_uris":{"android":"levelo://app?vid=b961f1cf-d10d-49f9-8fe5-c156ac9fbab7","ios":"levelo://app?vid=b961f1cf-d10d-49f9-8fe5-c156ac9fbab7"},"vehicle_type_id":"4","last_reported":1737627015,"current_range_meters":32800,"station_id":"ce4bgjp2rcd13ifvqbh0","pricing_plan_id":"cebpf4jnsgd1na2vs0mg"},{"bike_id":"093df64a-8571-43cb-b3e7-2c22d1d6e828","system_id":"levelo_inurba_marseille","lat":43.25927,"lon":5.40916,"is_reserved":false,"is_disabled":false,"rental_uris":{"android":"levelo://app?vid=093df64a-8571-43cb-b3e7-2c22d1d6e828","ios":"levelo://app?vid=093df64a-8571-43cb-b3e7-2c22d1d6e828"},"vehicle_type_id":"4","last_reported":1737627015,"current_range_meters":38400,"station_id":"ce4bhm92rcd13ifvqglg","pricing_plan_id":"cebpf4jnsgd1na2vs0mg"},{"bike_id":"6af01551-9900-4546-99a1-d63a6c9402e6","system_id":"levelo_inurba_marseille","lat":43.30129,"lon":5.37427,"is_reserved":false,"is_disabled":false,"rental_uris":{"android":"levelo://app?vid=6af01551-9900-4546-99a1-d63a6c9402e6","ios":"levelo://app?vid=6af01551-9900-4546-99a1-d63a6c9402e6"},"vehicle_type_id":"4","last_reported":1737627015,"current_range_meters":14000,"station_id":"ce4bgs92rcd13ifvqcc0","pricing_plan_id":"cebpf4jnsgd1na2vs0mg"},{"bike_id":"dc106d26-2435-4fc6-b189-67702605d5dc","system_id":"levelo_inurba_marseille","lat":43.27056,"lon":5.40259,"is_reserved":false,"is_disabled":false,"rental_uris":{"android":"levelo://app?vid=dc106d26-2435-4fc6-b189-67702605d5dc","ios":"levelo://app?vid=dc106d26-2435-4fc6-b189-67702605d5dc"},"vehicle_type_id":"4","last_reported":1737627015,"current_range_meters":24800,"station_id":"ce4bhk92rcd13ifvqgc0","pricing_plan_id":"cebpf4jnsgd1na2vs0mg"},{"bike_id":"62a4859e-3ecc-4714-869d-bc3060ae3156","system_id":"levelo_inurba_marseille","lat":43.2594,"lon":5.40901,"is_reserved":false,"is_disabled":false,"rental_uris":{"android":"levelo://app?vid=62a4859e-3ecc-4714-869d-bc3060ae3156","ios":"levelo://app?vid=62a4859e-3ecc-4714-869d-bc3060ae3156"},"vehicle_type_id":"4","last_reported":1737627015,"current_range_meters":36800,"station_id":"ce4bhm92rcd13ifvqglg","pricing_plan_id":"cebpf4jnsgd1na2vs0mg"},{"bike_id":"a0ea94d5-d4ca-4b99-8b33-7876b74517b4","system_id":"levelo_inurba_marseille","lat":43.30303,"lon":5.36889,"is_reserved":false,"is_disabled":false,"rental_uris":{"android":"levelo://app?vid=a0ea94d5-d4ca-4b99-8b33-7876b74517b4","ios":"levelo://app?vid=a0ea94d5-d4ca-4b99-8b33-7876b74517b4"},"vehicle_type_id":"4","last_reported":1737627015,"current_range_meters":24400,"station_id":"ce4bgqh2rcd13ifvqc5g","pricing_plan_id":"cebpf4jnsgd1na2vs0mg"},{"bike_id":"232b25b7-fa81-4630-9104-082348ac0480","system_id":"levelo_inurba_marseille","lat":43.27995,"lon":5.40035,"is_reserved":false,"is_disabled":false,"rental_uris":{"android":"levelo://app?vid=232b25b7-fa81-4630-9104-082348ac0480","ios":"levelo://app?vid=232b25b7-fa81-4630-9104-082348ac0480"},"vehicle_type_id":"4","last_reported":1737627015,"current_range_meters":38000,"station_id":"ce4bho92rcd13ifvqh4g","pricing_plan_id":"cebpf4jnsgd1na2vs0mg"},{"bike_id":"e27655d4-4288-4bf0-b85c-3c846dba64a1","system_id":"levelo_inurba_marseille","lat":43.29841,"lon":5.36278,"is_reserved":false,"is_disabled":false,"rental_uris":{"android":"levelo://app?vid=e27655d4-4288-4bf0-b85c-3c846dba64a1","ios":"levelo://app?vid=e27655d4-4288-4bf0-b85c-3c846dba64a1"},"vehicle_type_id":"4","last_reported":1737627015,"current_range_meters":38000,"station_id":"ce4bgpp2rcd13ifvqc3g","pricing_plan_id":"cebpf4jnsgd1na2vs0mg"},{"bike_id":"2210b0d1-88f9-4835-8788-875d9b8f5a26","system_id":"levelo_inurba_marseille","lat":43.30481,"lon":5.37903,"is_reserved":false,"is_disabled":false,"rental_uris":{"android":"levelo://app?vid=2210b0d1-88f9-4835-8788-875d9b8f5a26","ios":"levelo://app?vid=2210b0d1-88f9-4835-8788-875d9b8f5a26"},"vehicle_type_id":"4","last_reported":1737627015,"current_range_meters":38800,"station_id":"ce4bgup2rcd13ifvqcn0","pricing_plan_id":"cebpf4jnsgd1na2vs0mg"},{"bike_id":"ccfb2536-57fe-454d-858f-d7397a4801d9","system_id":"levelo_inurba_marseille","lat":43.32484,"lon":5.36564,"is_reserved":false,"is_disabled":false,"rental_uris":{"android":"levelo://app?vid=ccfb2536-57fe-454d-858f-d7397a4801d9","ios":"levelo://app?vid=ccfb2536-57fe-454d-858f-d7397a4801d9"},"vehicle_type_id":"4","last_reported":1737627015,"current_range_meters":38800,"station_id":"ce4bhs12rcd13ifvqhvg","pricing_plan_id":"cebpf4jnsgd1na2vs0mg"},{"bike_id":"dcb048dc-cdc9-4384-89c0-8b2fb6c6a910","system_id":"levelo_inurba_marseille","lat":43.28978,"lon":5.3637,"is_reserved":false,"is_disabled":false,"rental_uris":{"android":"levelo://app?vid=dcb048dc-cdc9-4384-89c0-8b2fb6c6a910","ios":"levelo://app?vid=dcb048dc-cdc9-4384-89c0-8b2fb6c6a910"},"vehicle_type_id":"4","last_reported":1737627015,"current_range_meters":14400,"station_id":"ce4bhc92rcd13ifvqetg","pricing_plan_id":"cebpf4jnsgd1na2vs0mg"},{"bike_id":"3c9d989a-a4b3-473c-8d99-0cb700d4156b","system_id":"levelo_inurba_marseille","lat":43.31526,"lon":5.38049,"is_reserved":false,"is_disabled":false,"rental_uris":{"android":"levelo://app?vid=3c9d989a-a4b3-473c-8d99-0cb700d4156b","ios":"levelo://app?vid=3c9d989a-a4b3-473c-8d99-0cb700d4156b"},"vehicle_type_id":"4","last_reported":1737627015,"current_range_meters":27200,"station_id":"ce4bhsp2rcd13ifvqi50","pricing_plan_id":"cebpf4jnsgd1na2vs0mg"},{"bike_id":"58ec83d8-fd2a-4ea1-a37e-b5f9bbb32c0e","system_id":"levelo_inurba_marseille","lat":43.30952,"lon":5.39018,"is_reserved":false,"is_disabled":false,"rental_uris":{"android":"levelo://app?vid=58ec83d8-fd2a-4ea1-a37e-b5f9bbb32c0e","ios":"levelo://app?vid=58ec83d8-fd2a-4ea1-a37e-b5f9bbb32c0e"},"vehicle_type_id":"4","last_reported":1737627015,"current_range_meters":37600,"station_id":"ce4bgup2rcd13ifvqco0","pricing_plan_id":"cebpf4jnsgd1na2vs0mg"},{"bike_id":"96e0558c-cec8-47c4-89d3-1aa21c4b0119","system_id":"levelo_inurba_marseille","lat":43.257055,"lon":5.418144,"is_reserved":false,"is_disabled":false,"rental_uris":{"android":"levelo://app?vid=96e0558c-cec8-47c4-89d3-1aa21c4b0119","ios":"levelo://app?vid=96e0558c-cec8-47c4-89d3-1aa21c4b0119"},"vehicle_type_id":"4","last_reported":1737627015,"current_range_meters":16400,"station_id":"","pricing_plan_id":"cebpf4jnsgd1na2vs0mg"},{"bike_id":"f214401a-dba5-4f6f-8c9a-9bc928023425","system_id":"levelo_inurba_marseille","lat":43.29034,"lon":5.40021,"is_reserved":false,"is_disabled":false,"rental_uris":{"android":"levelo://app?vid=f214401a-dba5-4f6f-8c9a-9bc928023425","ios":"levelo://app?vid=f214401a-dba5-4f6f-8c9a-9bc928023425"},"vehicle_type_id":"4","last_reported":1737627015,"current_range_meters":38800,"station_id":"ce4bh392rcd13ifvqdm0","pricing_plan_id":"cebpf4jnsgd1na2vs0mg"},{"bike_id":"755fbef0-a8d1-445d-a38a-9354fdc36d67","system_id":"levelo_inurba_marseille","lat":43.24073,"lon":5.37749,"is_reserved":false,"is_disabled":false,"rental_uris":{"android":"levelo://app?vid=755fbef0-a8d1-445d-a38a-9354fdc36d67","ios":"levelo://app?vid=755fbef0-a8d1-445d-a38a-9354fdc36d67"},"vehicle_type_id":"4","last_reported":1737627015,"current_range_meters":17200,"station_id":"ce4bhnp2rcd13ifvqgvg","pricing_plan_id":"cebpf4jnsgd1na2vs0mg"},{"bike_id":"1f8e01be-d60c-4716-89e7-57bcaaa09809","system_id":"levelo_inurba_marseille","lat":43.30147,"lon":5.3877,"is_reserved":false,"is_disabled":false,"rental_uris":{"android":"levelo://app?vid=1f8e01be-d60c-4716-89e7-57bcaaa09809","ios":"levelo://app?vid=1f8e01be-d60c-4716-89e7-57bcaaa09809"},"vehicle_type_id":"4","last_reported":1737627015,"current_range_meters":39200,"station_id":"ce4bhoh2rcd13ifvqh6g","pricing_plan_id":"cebpf4jnsgd1na2vs0mg"},{"bike_id":"bdc9df5b-15df-4da6-8498-c1412c4f1ee3","system_id":"levelo_inurba_marseille","lat":43.26949,"lon":5.38646,"is_reserved":false,"is_disabled":false,"rental_uris":{"android":"levelo://app?vid=bdc9df5b-15df-4da6-8498-c1412c4f1ee3","ios":"levelo://app?vid=bdc9df5b-15df-4da6-8498-c1412c4f1ee3"},"vehicle_type_id":"4","last_reported":1737627015,"current_range_meters":36800,"station_id":"ce4bhh92rcd13ifvqfh0","pricing_plan_id":"cebpf4jnsgd1na2vs0mg"},{"bike_id":"13a64475-e4c7-493c-900a-0bcfe86942ca","system_id":"levelo_inurba_marseille","lat":43.30806,"lon":5.43537,"is_reserved":false,"is_disabled":false,"rental_uris":{"android":"levelo://app?vid=13a64475-e4c7-493c-900a-0bcfe86942ca","ios":"levelo://app?vid=13a64475-e4c7-493c-900a-0bcfe86942ca"},"vehicle_type_id":"4","last_reported":1737627015,"current_range_meters":11600,"station_id":"ce4bhph2rcd13ifvqheg","pricing_plan_id":"cebpf4jnsgd1na2vs0mg"},{"bike_id":"65ba7431-3bcb-4070-aecb-21be9c66116a","system_id":"levelo_inurba_marseille","lat":43.28714,"lon":5.37924,"is_reserved":false,"is_disabled":false,"rental_uris":{"android":"levelo://app?vid=65ba7431-3bcb-4070-aecb-21be9c66116a","ios":"levelo://app?vid=65ba7431-3bcb-4070-aecb-21be9c66116a"},"vehicle_type_id":"4","last_reported":1737627015,"current_range_meters":24000,"station_id":"ce4bh9p2rcd13ifvqec0","pricing_plan_id":"cebpf4jnsgd1na2vs0mg"},{"bike_id":"eec29bcc-4db9-490c-8509-0569ef65d3a4","system_id":"levelo_inurba_marseille","lat":43.23138,"lon":5.43686,"is_reserved":false,"is_disabled":true,"rental_uris":{"android":"levelo://app?vid=eec29bcc-4db9-490c-8509-0569ef65d3a4","ios":"levelo://app?vid=eec29bcc-4db9-490c-8509-0569ef65d3a4"},"vehicle_type_id":"4","last_reported":1737627015,"current_range_meters":0,"station_id":"ce4bhmp2rcd13ifvqgog","pricing_plan_id":"cebpf4jnsgd1na2vs0mg"},{"bike_id":"366618e5-58e4-49a2-b359-c5654fbadc2c","system_id":"levelo_inurba_marseille","lat":43.24067,"lon":5.37744,"is_reserved":false,"is_disabled":false,"rental_uris":{"android":"levelo://app?vid=366618e5-58e4-49a2-b359-c5654fbadc2c","ios":"levelo://app?vid=366618e5-58e4-49a2-b359-c5654fbadc2c"},"vehicle_type_id":"4","last_reported":1737627015,"current_range_meters":18000,"station_id":"ce4bhnp2rcd13ifvqgvg","pricing_plan_id":"cebpf4jnsgd1na2vs0mg"},{"bike_id":"9aab7e05-c60b-4da3-a9e0-3224b710f6be","system_id":"levelo_inurba_marseille","lat":43.31073,"lon":5.38361,"is_reserved":false,"is_disabled":false,"rental_uris":{"android":"levelo://app?vid=9aab7e05-c60b-4da3-a9e0-3224b710f6be","ios":"levelo://app?vid=9aab7e05-c60b-4da3-a9e0-3224b710f6be"},"vehicle_type_id":"4","last_reported":1737627015,"current_range_meters":36800,"station_id":"ce4bgv92rcd13ifvqcr0","pricing_plan_id":"cebpf4jnsgd1na2vs0mg"},{"bike_id":"e91ed29f-6d7c-4e60-8189-11773ebb5840","system_id":"levelo_inurba_marseille","lat":43.25708,"lon":5.41802,"is_reserved":false,"is_disabled":true,"rental_uris":{"android":"levelo://app?vid=e91ed29f-6d7c-4e60-8189-11773ebb5840","ios":"levelo://app?vid=e91ed29f-6d7c-4e60-8189-11773ebb5840"},"vehicle_type_id":"4","last_reported":1737627015,"current_range_meters":29600,"station_id":"","pricing_plan_id":"cebpf4jnsgd1na2vs0mg"},{"bike_id":"8b26ce36-d7ea-468d-a506-81cdced7e6bc","system_id":"levelo_inurba_marseille","lat":43.32365,"lon":5.38881,"is_reserved":false,"is_disabled":false,"rental_uris":{"android":"levelo://app?vid=8b26ce36-d7ea-468d-a506-81cdced7e6bc","ios":"levelo://app?vid=8b26ce36-d7ea-468d-a506-81cdced7e6bc"},"vehicle_type_id":"4","last_reported":1737627015,"current_range_meters":28800,"station_id":"ce4bhqp2rcd13ifvqhog","pricing_plan_id":"cebpf4jnsgd1na2vs0mg"},{"bike_id":"a20b0889-fcde-4bac-9035-b7a880de8195","system_id":"levelo_inurba_marseille","lat":43.27605,"lon":5.3613,"is_reserved":false,"is_disabled":false,"rental_uris":{"android":"levelo://app?vid=a20b0889-fcde-4bac-9035-b7a880de8195","ios":"levelo://app?vid=a20b0889-fcde-4bac-9035-b7a880de8195"},"vehicle_type_id":"4","last_reported":1737627015,"current_range_meters":10800,"station_id":"ce4bgj92rcd13ifvqbe0","pricing_plan_id":"cebpf4jnsgd1na2vs0mg"},{"bike_id":"456ec9d4-da8f-42ae-aa21-7d2249b6bd67","system_id":"levelo_inurba_marseille","lat":43.28414,"lon":5.37525,"is_reserved":false,"is_disabled":false,"rental_uris":{"android":"levelo://app?vid=456ec9d4-da8f-42ae-aa21-7d2249b6bd67","ios":"levelo://app?vid=456ec9d4-da8f-42ae-aa21-7d2249b6bd67"},"vehicle_type_id":"4","last_reported":1737627015,"current_range_meters":31200,"station_id":"ce4bh412rcd13ifvqds0","pricing_plan_id":"cebpf4jnsgd1na2vs0mg"},{"bike_id":"58bd67b2-eea0-4ad2-8092-8cb589d6733b","system_id":"levelo_inurba_marseille","lat":43.30796,"lon":5.43544,"is_reserved":false,"is_disabled":false,"rental_uris":{"android":"levelo://app?vid=58bd67b2-eea0-4ad2-8092-8cb589d6733b","ios":"levelo://app?vid=58bd67b2-eea0-4ad2-8092-8cb589d6733b"},"vehicle_type_id":"4","last_reported":1737627015,"current_range_meters":6000,"station_id":"ce4bhph2rcd13ifvqheg","pricing_plan_id":"cebpf4jnsgd1na2vs0mg"},{"bike_id":"f8216a2b-e7c5-4eea-8c3d-912daef0d729","system_id":"levelo_inurba_marseille","lat":43.298989,"lon":5.43666,"is_reserved":false,"is_disabled":false,"rental_uris":{"android":"levelo://app?vid=f8216a2b-e7c5-4eea-8c3d-912daef0d729","ios":"levelo://app?vid=f8216a2b-e7c5-4eea-8c3d-912daef0d729"},"vehicle_type_id":"4","last_reported":1737627015,"current_range_meters":19600,"station_id":"ce4bhpp2rcd13ifvqhfg","pricing_plan_id":"cebpf4jnsgd1na2vs0mg"},{"bike_id":"174ef919-1de8-4476-8071-7ce5e1cde64a","system_id":"levelo_inurba_marseille","lat":43.26931,"lon":5.38661,"is_reserved":false,"is_disabled":false,"rental_uris":{"android":"levelo://app?vid=174ef919-1de8-4476-8071-7ce5e1cde64a","ios":"levelo://app?vid=174ef919-1de8-4476-8071-7ce5e1cde64a"},"vehicle_type_id":"4","last_reported":1737627015,"current_range_meters":23200,"station_id":"ce4bhh92rcd13ifvqfh0","pricing_plan_id":"cebpf4jnsgd1na2vs0mg"},{"bike_id":"c778869e-b9bf-49a6-a4ac-f17a52c456f7","system_id":"levelo_inurba_marseille","lat":43.30141,"lon":5.38788,"is_reserved":false,"is_disabled":false,"rental_uris":{"android":"levelo://app?vid=c778869e-b9bf-49a6-a4ac-f17a52c456f7","ios":"levelo://app?vid=c778869e-b9bf-49a6-a4ac-f17a52c456f7"},"vehicle_type_id":"4","last_reported":1737627015,"current_range_meters":28800,"station_id":"ce4bghh2rcd13ifvqb60","pricing_plan_id":"cebpf4jnsgd1na2vs0mg"},{"bike_id":"549b1928-e1cf-4e8f-979d-82ddd1e2f667","system_id":"levelo_inurba_marseille","lat":43.31888,"lon":5.4073,"is_reserved":false,"is_disabled":false,"rental_uris":{"android":"levelo://app?vid=549b1928-e1cf-4e8f-979d-82ddd1e2f667","ios":"levelo://app?vid=549b1928-e1cf-4e8f-979d-82ddd1e2f667"},"vehicle_type_id":"4","last_reported":1737627015,"current_range_meters":39200,"station_id":"ce4bhq12rcd13ifvqhig","pricing_plan_id":"cebpf4jnsgd1na2vs0mg"},{"bike_id":"c9b59356-4a07-4507-ba94-9e7752baf636","system_id":"levelo_inurba_marseille","lat":43.30907,"lon":5.36853,"is_reserved":false,"is_disabled":false,"rental_uris":{"android":"levelo://app?vid=c9b59356-4a07-4507-ba94-9e7752baf636","ios":"levelo://app?vid=c9b59356-4a07-4507-ba94-9e7752baf636"},"vehicle_type_id":"4","last_reported":1737627015,"current_range_meters":35200,"station_id":"ce4bgn92rcd13ifvqbvg","pricing_plan_id":"cebpf4jnsgd1na2vs0mg"},{"bike_id":"8e0ddf17-f172-49fd-aa4a-5802e9bc1eb4","system_id":"levelo_inurba_marseille","lat":43.34147,"lon":5.4092,"is_reserved":false,"is_disabled":false,"rental_uris":{"android":"levelo://app?vid=8e0ddf17-f172-49fd-aa4a-5802e9bc1eb4","ios":"levelo://app?vid=8e0ddf17-f172-49fd-aa4a-5802e9bc1eb4"},"vehicle_type_id":"4","last_reported":1737627015,"current_range_meters":39200,"station_id":"ce4bhqh2rcd13ifvqhlg","pricing_plan_id":"cebpf4jnsgd1na2vs0mg"},{"bike_id":"4ec96207-5c88-4957-875c-7fb36b853318","system_id":"levelo_inurba_marseille","lat":43.30965,"lon":5.3903,"is_reserved":false,"is_disabled":false,"rental_uris":{"android":"levelo://app?vid=4ec96207-5c88-4957-875c-7fb36b853318","ios":"levelo://app?vid=4ec96207-5c88-4957-875c-7fb36b853318"},"vehicle_type_id":"4","last_reported":1737627015,"current_range_meters":10000,"station_id":"ce4bgup2rcd13ifvqco0","pricing_plan_id":"cebpf4jnsgd1na2vs0mg"},{"bike_id":"104d2b0a-20ef-4b97-96c3-5231651d9405","system_id":"levelo_inurba_marseille","lat":43.30536,"lon":5.37865,"is_reserved":false,"is_disabled":false,"rental_uris":{"android":"levelo://app?vid=104d2b0a-20ef-4b97-96c3-5231651d9405","ios":"levelo://app?vid=104d2b0a-20ef-4b97-96c3-5231651d9405"},"vehicle_type_id":"4","last_reported":1737627015,"current_range_meters":38800,"station_id":"ce4bgup2rcd13ifvqcn0","pricing_plan_id":"cebpf4jnsgd1na2vs0mg"},{"bike_id":"9863b7f9-4316-4322-9f6c-3cc66b0448e2","system_id":"levelo_inurba_marseille","lat":43.279439,"lon":5.389008,"is_reserved":false,"is_disabled":true,"rental_uris":{"android":"levelo://app?vid=9863b7f9-4316-4322-9f6c-3cc66b0448e2","ios":"levelo://app?vid=9863b7f9-4316-4322-9f6c-3cc66b0448e2"},"vehicle_type_id":"4","last_reported":1737627015,"current_range_meters":25200,"station_id":"","pricing_plan_id":"cebpf4jnsgd1na2vs0mg"},{"bike_id":"8741379d-312c-4f8a-874b-6f14433f6a99","system_id":"levelo_inurba_marseille","lat":43.30551,"lon":5.36543,"is_reserved":false,"is_disabled":false,"rental_uris":{"android":"levelo://app?vid=8741379d-312c-4f8a-874b-6f14433f6a99","ios":"levelo://app?vid=8741379d-312c-4f8a-874b-6f14433f6a99"},"vehicle_type_id":"4","last_reported":1737627015,"current_range_meters":36000,"station_id":"ce4bgs12rcd13ifvqcag","pricing_plan_id":"cebpf4jnsgd1na2vs0mg"},{"bike_id":"8321d96b-90be-4414-a696-09a6390b760d","system_id":"levelo_inurba_marseille","lat":43.30455,"lon":5.37908,"is_reserved":false,"is_disabled":true,"rental_uris":{"android":"levelo://app?vid=8321d96b-90be-4414-a696-09a6390b760d","ios":"levelo://app?vid=8321d96b-90be-4414-a696-09a6390b760d"},"vehicle_type_id":"4","last_reported":1737627015,"current_range_meters":34000,"station_id":"ce4bgup2rcd13ifvqcn0","pricing_plan_id":"cebpf4jnsgd1na2vs0mg"},{"bike_id":"eddb6b89-082b-479c-b34f-44c352a03897","system_id":"levelo_inurba_marseille","lat":43.25484,"lon":5.37671,"is_reserved":false,"is_disabled":false,"rental_uris":{"android":"levelo://app?vid=eddb6b89-082b-479c-b34f-44c352a03897","ios":"levelo://app?vid=eddb6b89-082b-479c-b34f-44c352a03897"},"vehicle_type_id":"4","last_reported":1737627015,"current_range_meters":39200,"station_id":"ce4bhh12rcd13ifvqff0","pricing_plan_id":"cebpf4jnsgd1na2vs0mg"},{"bike_id":"80645ce0-0810-46bd-89be-9d2588c2d6e0","system_id":"levelo_inurba_marseille","lat":43.29301,"lon":5.37432,"is_reserved":false,"is_disabled":false,"rental_uris":{"android":"levelo://app?vid=80645ce0-0810-46bd-89be-9d2588c2d6e0","ios":"levelo://app?vid=80645ce0-0810-46bd-89be-9d2588c2d6e0"},"vehicle_type_id":"4","last_reported":1737627015,"current_range_meters":31200,"station_id":"ce4bgi12rcd13ifvqb70","pricing_plan_id":"cebpf4jnsgd1na2vs0mg"},{"bike_id":"03a47fec-7944-42ca-9bf0-1bd50eb99ab5","system_id":"levelo_inurba_marseille","lat":43.28421,"lon":5.34977,"is_reserved":false,"is_disabled":false,"rental_uris":{"android":"levelo://app?vid=03a47fec-7944-42ca-9bf0-1bd50eb99ab5","ios":"levelo://app?vid=03a47fec-7944-42ca-9bf0-1bd50eb99ab5"},"vehicle_type_id":"4","last_reported":1737627015,"current_range_meters":34800,"station_id":"ce4bhbh2rcd13ifvqepg","pricing_plan_id":"cebpf4jnsgd1na2vs0mg"},{"bike_id":"4cbc6001-4859-491c-8f7b-7c4cb757c724","system_id":"levelo_inurba_marseille","lat":43.30265,"lon":5.37747,"is_reserved":false,"is_disabled":false,"rental_uris":{"android":"levelo://app?vid=4cbc6001-4859-491c-8f7b-7c4cb757c724","ios":"levelo://app?vid=4cbc6001-4859-491c-8f7b-7c4cb757c724"},"vehicle_type_id":"4","last_reported":1737627015,"current_range_meters":38000,"station_id":"ce4bguh2rcd13ifvqcj0","pricing_plan_id":"cebpf4jnsgd1na2vs0mg"},{"bike_id":"66298199-3847-478a-aaf4-8eeb6eae21ba","system_id":"levelo_inurba_marseille","lat":43.29022,"lon":5.39978,"is_reserved":false,"is_disabled":false,"rental_uris":{"android":"levelo://app?vid=66298199-3847-478a-aaf4-8eeb6eae21ba","ios":"levelo://app?vid=66298199-3847-478a-aaf4-8eeb6eae21ba"},"vehicle_type_id":"4","last_reported":1737627015,"current_range_meters":38800,"station_id":"ce4bh392rcd13ifvqdm0","pricing_plan_id":"cebpf4jnsgd1na2vs0mg"},{"bike_id":"dfbd27e7-12bf-4812-80d1-488dbaf230dc","system_id":"levelo_inurba_marseille","lat":43.32492,"lon":5.365561,"is_reserved":false,"is_disabled":false,"rental_uris":{"android":"levelo://app?vid=dfbd27e7-12bf-4812-80d1-488dbaf230dc","ios":"levelo://app?vid=dfbd27e7-12bf-4812-80d1-488dbaf230dc"},"vehicle_type_id":"4","last_reported":1737627015,"current_range_meters":23200,"station_id":"ce4bhs12rcd13ifvqhvg","pricing_plan_id":"cebpf4jnsgd1na2vs0mg"},{"bike_id":"73ad4c6e-44f1-4922-9662-d1557ab428e0","system_id":"levelo_inurba_marseille","lat":43.281,"lon":5.37854,"is_reserved":false,"is_disabled":false,"rental_uris":{"android":"levelo://app?vid=73ad4c6e-44f1-4922-9662-d1557ab428e0","ios":"levelo://app?vid=73ad4c6e-44f1-4922-9662-d1557ab428e0"},"vehicle_type_id":"4","last_reported":1737627015,"current_range_meters":4800,"station_id":"ce4bha12rcd13ifvqee0","pricing_plan_id":"cebpf4jnsgd1na2vs0mg"},{"bike_id":"8060168c-041e-4974-a7b3-6a11d279040b","system_id":"levelo_inurba_marseille","lat":43.298844,"lon":5.384015,"is_reserved":false,"is_disabled":false,"rental_uris":{"android":"levelo://app?vid=8060168c-041e-4974-a7b3-6a11d279040b","ios":"levelo://app?vid=8060168c-041e-4974-a7b3-6a11d279040b"},"vehicle_type_id":"4","last_reported":1737627015,"current_range_meters":17600,"station_id":"ce4bgi92rcd13ifvqb90","pricing_plan_id":"cebpf4jnsgd1na2vs0mg"},{"bike_id":"6d9a4246-24ff-446a-b261-6af59c8b56bf","system_id":"levelo_inurba_marseille","lat":43.29846,"lon":5.36277,"is_reserved":false,"is_disabled":false,"rental_uris":{"android":"levelo://app?vid=6d9a4246-24ff-446a-b261-6af59c8b56bf","ios":"levelo://app?vid=6d9a4246-24ff-446a-b261-6af59c8b56bf"},"vehicle_type_id":"4","last_reported":1737627015,"current_range_meters":24800,"station_id":"ce4bgpp2rcd13ifvqc3g","pricing_plan_id":"cebpf4jnsgd1na2vs0mg"},{"bike_id":"1bf356b9-0346-48ea-82cf-8e5f9ce64345","system_id":"levelo_inurba_marseille","lat":43.33731,"lon":5.39187,"is_reserved":false,"is_disabled":false,"rental_uris":{"android":"levelo://app?vid=1bf356b9-0346-48ea-82cf-8e5f9ce64345","ios":"levelo://app?vid=1bf356b9-0346-48ea-82cf-8e5f9ce64345"},"vehicle_type_id":"4","last_reported":1737627015,"current_range_meters":38800,"station_id":"ce4bhr92rcd13ifvqhsg","pricing_plan_id":"cebpf4jnsgd1na2vs0mg"},{"bike_id":"a353073b-3453-490f-bdfe-01f1c076898b","system_id":"levelo_inurba_marseille","lat":43.31384,"lon":5.3669,"is_reserved":false,"is_disabled":false,"rental_uris":{"android":"levelo://app?vid=a353073b-3453-490f-bdfe-01f1c076898b","ios":"levelo://app?vid=a353073b-3453-490f-bdfe-01f1c076898b"},"vehicle_type_id":"4","last_reported":1737627015,"current_range_meters":26800,"station_id":"","pricing_plan_id":"cebpf4jnsgd1na2vs0mg"},{"bike_id":"49052dc3-4d8a-4007-89e4-6a2b13d47195","system_id":"levelo_inurba_marseille","lat":43.24395,"lon":5.37087,"is_reserved":false,"is_disabled":true,"rental_uris":{"android":"levelo://app?vid=49052dc3-4d8a-4007-89e4-6a2b13d47195","ios":"levelo://app?vid=49052dc3-4d8a-4007-89e4-6a2b13d47195"},"vehicle_type_id":"4","last_reported":1737627015,"current_range_meters":10000,"station_id":"","pricing_plan_id":"cebpf4jnsgd1na2vs0mg"},{"bike_id":"13404d01-1c7c-4d4b-bb24-e98755f8bf24","system_id":"levelo_inurba_marseille","lat":43.30523,"lon":5.3673,"is_reserved":false,"is_disabled":false,"rental_uris":{"android":"levelo://app?vid=13404d01-1c7c-4d4b-bb24-e98755f8bf24","ios":"levelo://app?vid=13404d01-1c7c-4d4b-bb24-e98755f8bf24"},"vehicle_type_id":"4","last_reported":1737627015,"current_range_meters":33200,"station_id":"ce4bgrp2rcd13ifvqc9g","pricing_plan_id":"cebpf4jnsgd1na2vs0mg"},{"bike_id":"5fd5deb8-85db-4c77-9556-3d5346f224b3","system_id":"levelo_inurba_marseille","lat":43.30547,"lon":5.36706,"is_reserved":false,"is_disabled":false,"rental_uris":{"android":"levelo://app?vid=5fd5deb8-85db-4c77-9556-3d5346f224b3","ios":"levelo://app?vid=5fd5deb8-85db-4c77-9556-3d5346f224b3"},"vehicle_type_id":"4","last_reported":1737627015,"current_range_meters":33200,"station_id":"ce4bgrp2rcd13ifvqc9g","pricing_plan_id":"cebpf4jnsgd1na2vs0mg"},{"bike_id":"e6d69e77-2426-40e6-8b56-caff4d581c0e","system_id":"levelo_inurba_marseille","lat":43.29551,"lon":5.42286,"is_reserved":false,"is_disabled":false,"rental_uris":{"android":"levelo://app?vid=e6d69e77-2426-40e6-8b56-caff4d581c0e","ios":"levelo://app?vid=e6d69e77-2426-40e6-8b56-caff4d581c0e"},"vehicle_type_id":"4","last_reported":1737627015,"current_range_meters":38800,"station_id":"ce4bhph2rcd13ifvqhdg","pricing_plan_id":"cebpf4jnsgd1na2vs0mg"},{"bike_id":"33e49ec1-e643-46d4-a198-dba9d4032ebf","system_id":"levelo_inurba_marseille","lat":43.30142,"lon":5.37414,"is_reserved":false,"is_disabled":false,"rental_uris":{"android":"levelo://app?vid=33e49ec1-e643-46d4-a198-dba9d4032ebf","ios":"levelo://app?vid=33e49ec1-e643-46d4-a198-dba9d4032ebf"},"vehicle_type_id":"4","last_reported":1737627015,"current_range_meters":23200,"station_id":"ce4bgs92rcd13ifvqcc0","pricing_plan_id":"cebpf4jnsgd1na2vs0mg"},{"bike_id":"fcd4837f-6e09-4786-bcf5-c3a686cbcfef","system_id":"levelo_inurba_marseille","lat":43.29897,"lon":5.43658,"is_reserved":false,"is_disabled":false,"rental_uris":{"android":"levelo://app?vid=fcd4837f-6e09-4786-bcf5-c3a686cbcfef","ios":"levelo://app?vid=fcd4837f-6e09-4786-bcf5-c3a686cbcfef"},"vehicle_type_id":"4","last_reported":1737627015,"current_range_meters":28800,"station_id":"ce4bhpp2rcd13ifvqhfg","pricing_plan_id":"cebpf4jnsgd1na2vs0mg"},{"bike_id":"51c1070e-6813-43c7-a18c-a032e3325f2b","system_id":"levelo_inurba_marseille","lat":43.29862,"lon":5.39717,"is_reserved":false,"is_disabled":false,"rental_uris":{"android":"levelo://app?vid=51c1070e-6813-43c7-a18c-a032e3325f2b","ios":"levelo://app?vid=51c1070e-6813-43c7-a18c-a032e3325f2b"},"vehicle_type_id":"4","last_reported":1737627015,"current_range_meters":24800,"station_id":"ce4bh0h2rcd13ifvqd50","pricing_plan_id":"cebpf4jnsgd1na2vs0mg"},{"bike_id":"26e8235e-1368-401b-8234-f0b5225ccf46","system_id":"levelo_inurba_marseille","lat":43.29532,"lon":5.37504,"is_reserved":false,"is_disabled":false,"rental_uris":{"android":"levelo://app?vid=26e8235e-1368-401b-8234-f0b5225ccf46","ios":"levelo://app?vid=26e8235e-1368-401b-8234-f0b5225ccf46"},"vehicle_type_id":"4","last_reported":1737627015,"current_range_meters":34000,"station_id":"ce4bgkp2rcd13ifvqbmg","pricing_plan_id":"cebpf4jnsgd1na2vs0mg"},{"bike_id":"be03f043-40b5-4dd7-931d-bea229e80d48","system_id":"levelo_inurba_marseille","lat":43.3031,"lon":5.36902,"is_reserved":false,"is_disabled":false,"rental_uris":{"android":"levelo://app?vid=be03f043-40b5-4dd7-931d-bea229e80d48","ios":"levelo://app?vid=be03f043-40b5-4dd7-931d-bea229e80d48"},"vehicle_type_id":"4","last_reported":1737627015,"current_range_meters":32800,"station_id":"ce4bgqh2rcd13ifvqc5g","pricing_plan_id":"cebpf4jnsgd1na2vs0mg"},{"bike_id":"24e164aa-250c-4851-b38d-e6472dd69705","system_id":"levelo_inurba_marseille","lat":43.29532,"lon":5.37499,"is_reserved":false,"is_disabled":false,"rental_uris":{"android":"levelo://app?vid=24e164aa-250c-4851-b38d-e6472dd69705","ios":"levelo://app?vid=24e164aa-250c-4851-b38d-e6472dd69705"},"vehicle_type_id":"4","last_reported":1737627015,"current_range_meters":16400,"station_id":"ce4bgkp2rcd13ifvqbmg","pricing_plan_id":"cebpf4jnsgd1na2vs0mg"},{"bike_id":"16f0e6b5-d946-47d2-a97c-ad19d0c1e9a1","system_id":"levelo_inurba_marseille","lat":43.30924,"lon":5.36881,"is_reserved":false,"is_disabled":false,"rental_uris":{"android":"levelo://app?vid=16f0e6b5-d946-47d2-a97c-ad19d0c1e9a1","ios":"levelo://app?vid=16f0e6b5-d946-47d2-a97c-ad19d0c1e9a1"},"vehicle_type_id":"4","last_reported":1737627015,"current_range_meters":30800,"station_id":"ce4bgn92rcd13ifvqbvg","pricing_plan_id":"cebpf4jnsgd1na2vs0mg"},{"bike_id":"23cbf68b-004a-4a92-9108-cf5e88d72d1d","system_id":"levelo_inurba_marseille","lat":43.273146,"lon":5.3907,"is_reserved":false,"is_disabled":false,"rental_uris":{"android":"levelo://app?vid=23cbf68b-004a-4a92-9108-cf5e88d72d1d","ios":"levelo://app?vid=23cbf68b-004a-4a92-9108-cf5e88d72d1d"},"vehicle_type_id":"4","last_reported":1737627015,"current_range_meters":39200,"station_id":"ce4bhgp2rcd13ifvqfe0","pricing_plan_id":"cebpf4jnsgd1na2vs0mg"},{"bike_id":"6ad3127b-9f04-4c09-8c11-29b3be8571b8","system_id":"levelo_inurba_marseille","lat":43.26673,"lon":5.3827,"is_reserved":false,"is_disabled":false,"rental_uris":{"android":"levelo://app?vid=6ad3127b-9f04-4c09-8c11-29b3be8571b8","ios":"levelo://app?vid=6ad3127b-9f04-4c09-8c11-29b3be8571b8"},"vehicle_type_id":"4","last_reported":1737627015,"current_range_meters":30000,"station_id":"ce4bhg92rcd13ifvqf90","pricing_plan_id":"cebpf4jnsgd1na2vs0mg"},{"bike_id":"e4758cb0-0367-4c65-b523-571a72650646","system_id":"levelo_inurba_marseille","lat":43.30536,"lon":5.36533,"is_reserved":false,"is_disabled":false,"rental_uris":{"android":"levelo://app?vid=e4758cb0-0367-4c65-b523-571a72650646","ios":"levelo://app?vid=e4758cb0-0367-4c65-b523-571a72650646"},"vehicle_type_id":"4","last_reported":1737627015,"current_range_meters":38800,"station_id":"ce4bgs12rcd13ifvqcag","pricing_plan_id":"cebpf4jnsgd1na2vs0mg"},{"bike_id":"26d96d78-7a29-4ec5-93ac-79ad4342b085","system_id":"levelo_inurba_marseille","lat":43.31324,"lon":5.3971,"is_reserved":false,"is_disabled":false,"rental_uris":{"android":"levelo://app?vid=26d96d78-7a29-4ec5-93ac-79ad4342b085","ios":"levelo://app?vid=26d96d78-7a29-4ec5-93ac-79ad4342b085"},"vehicle_type_id":"4","last_reported":1737627015,"current_range_meters":21600,"station_id":"ce4bgvp2rcd13ifvqcu0","pricing_plan_id":"cebpf4jnsgd1na2vs0mg"},{"bike_id":"bbae0679-f69d-4784-9f84-c3efb359555b","system_id":"levelo_inurba_marseille","lat":43.27667,"lon":5.38876,"is_reserved":false,"is_disabled":false,"rental_uris":{"android":"levelo://app?vid=bbae0679-f69d-4784-9f84-c3efb359555b","ios":"levelo://app?vid=bbae0679-f69d-4784-9f84-c3efb359555b"},"vehicle_type_id":"4","last_reported":1737627015,"current_range_meters":38000,"station_id":"ce4bhi12rcd13ifvqfo0","pricing_plan_id":"cebpf4jnsgd1na2vs0mg"},{"bike_id":"d96f7a91-42fe-404b-b108-4c7a0d7b5adf","system_id":"levelo_inurba_marseille","lat":43.33595,"lon":5.41035,"is_reserved":false,"is_disabled":true,"rental_uris":{"android":"levelo://app?vid=d96f7a91-42fe-404b-b108-4c7a0d7b5adf","ios":"levelo://app?vid=d96f7a91-42fe-404b-b108-4c7a0d7b5adf"},"vehicle_type_id":"4","last_reported":1737627015,"current_range_meters":12800,"station_id":"ce4bhqh2rcd13ifvqhmg","pricing_plan_id":"cebpf4jnsgd1na2vs0mg"},{"bike_id":"2ed35bd3-1fe4-43c7-b8b2-713d0a30cf03","system_id":"levelo_inurba_marseille","lat":43.25573,"lon":5.38249,"is_reserved":false,"is_disabled":false,"rental_uris":{"android":"levelo://app?vid=2ed35bd3-1fe4-43c7-b8b2-713d0a30cf03","ios":"levelo://app?vid=2ed35bd3-1fe4-43c7-b8b2-713d0a30cf03"},"vehicle_type_id":"4","last_reported":1737627015,"current_range_meters":14800,"station_id":"ce4bhih2rcd13ifvqfs0","pricing_plan_id":"cebpf4jnsgd1na2vs0mg"},{"bike_id":"740ca7dc-7fcb-49cd-8b20-28b6f7632f45","system_id":"levelo_inurba_marseille","lat":43.30224,"lon":5.39454,"is_reserved":false,"is_disabled":true,"rental_uris":{"android":"levelo://app?vid=740ca7dc-7fcb-49cd-8b20-28b6f7632f45","ios":"levelo://app?vid=740ca7dc-7fcb-49cd-8b20-28b6f7632f45"},"vehicle_type_id":"4","last_reported":1737627015,"current_range_meters":800,"station_id":"ce4bh0p2rcd13ifvqd70","pricing_plan_id":"cebpf4jnsgd1na2vs0mg"},{"bike_id":"8feb1e8e-5f96-46fb-bd08-eff6d475fec6","system_id":"levelo_inurba_marseille","lat":43.29179,"lon":5.37157,"is_reserved":false,"is_disabled":false,"rental_uris":{"android":"levelo://app?vid=8feb1e8e-5f96-46fb-bd08-eff6d475fec6","ios":"levelo://app?vid=8feb1e8e-5f96-46fb-bd08-eff6d475fec6"},"vehicle_type_id":"4","last_reported":1737627015,"current_range_meters":17600,"station_id":"ce4bha92rcd13ifvqeh0","pricing_plan_id":"cebpf4jnsgd1na2vs0mg"},{"bike_id":"433c5acb-0074-4249-a229-86b8f48bca85","system_id":"levelo_inurba_marseille","lat":43.3055,"lon":5.36563,"is_reserved":false,"is_disabled":true,"rental_uris":{"android":"levelo://app?vid=433c5acb-0074-4249-a229-86b8f48bca85","ios":"levelo://app?vid=433c5acb-0074-4249-a229-86b8f48bca85"},"vehicle_type_id":"4","last_reported":1737627015,"current_range_meters":39200,"station_id":"ce4bgs12rcd13ifvqcag","pricing_plan_id":"cebpf4jnsgd1na2vs0mg"},{"bike_id":"83166b0a-899b-4693-98c4-ffc2b5705e20","system_id":"levelo_inurba_marseille","lat":43.24985,"lon":5.38948,"is_reserved":false,"is_disabled":false,"rental_uris":{"android":"levelo://app?vid=83166b0a-899b-4693-98c4-ffc2b5705e20","ios":"levelo://app?vid=83166b0a-899b-4693-98c4-ffc2b5705e20"},"vehicle_type_id":"4","last_reported":1737627015,"current_range_meters":30000,"station_id":"ce4bhgp2rcd13ifvqfd0","pricing_plan_id":"cebpf4jnsgd1na2vs0mg"},{"bike_id":"adf123f7-dac3-486c-9428-0fa9f3449c81","system_id":"levelo_inurba_marseille","lat":43.26794,"lon":5.39423,"is_reserved":false,"is_disabled":false,"rental_uris":{"android":"levelo://app?vid=adf123f7-dac3-486c-9428-0fa9f3449c81","ios":"levelo://app?vid=adf123f7-dac3-486c-9428-0fa9f3449c81"},"vehicle_type_id":"4","last_reported":1737627015,"current_range_meters":39200,"station_id":"ce4bhh12rcd13ifvqfg0","pricing_plan_id":"cebpf4jnsgd1na2vs0mg"},{"bike_id":"13ff516e-16cf-4543-8540-9030b8b296b4","system_id":"levelo_inurba_marseille","lat":43.231883,"lon":5.355523,"is_reserved":false,"is_disabled":false,"rental_uris":{"android":"levelo://app?vid=13ff516e-16cf-4543-8540-9030b8b296b4","ios":"levelo://app?vid=13ff516e-16cf-4543-8540-9030b8b296b4"},"vehicle_type_id":"4","last_reported":1737627015,"current_range_meters":29600,"station_id":"ce4bhu92rcd13ifvqi70","pricing_plan_id":"cebpf4jnsgd1na2vs0mg"},{"bike_id":"de0ec065-4aaf-40ba-8a36-526b76de18b8","system_id":"levelo_inurba_marseille","lat":43.2418,"lon":5.39733,"is_reserved":false,"is_disabled":false,"rental_uris":{"android":"levelo://app?vid=de0ec065-4aaf-40ba-8a36-526b76de18b8","ios":"levelo://app?vid=de0ec065-4aaf-40ba-8a36-526b76de18b8"},"vehicle_type_id":"4","last_reported":1737627015,"current_range_meters":38800,"station_id":"ce4bhn12rcd13ifvqgpg","pricing_plan_id":"cebpf4jnsgd1na2vs0mg"},{"bike_id":"6b412e3f-934e-4407-858b-fad865be8605","system_id":"levelo_inurba_marseille","lat":43.3049,"lon":5.37896,"is_reserved":false,"is_disabled":true,"rental_uris":{"android":"levelo://app?vid=6b412e3f-934e-4407-858b-fad865be8605","ios":"levelo://app?vid=6b412e3f-934e-4407-858b-fad865be8605"},"vehicle_type_id":"4","last_reported":1737627015,"current_range_meters":36400,"station_id":"ce4bgup2rcd13ifvqcn0","pricing_plan_id":"cebpf4jnsgd1na2vs0mg"},{"bike_id":"dc9afc0d-d533-431b-a32f-6f6423d7880b","system_id":"levelo_inurba_marseille","lat":43.31725,"lon":5.42397,"is_reserved":false,"is_disabled":true,"rental_uris":{"android":"levelo://app?vid=dc9afc0d-d533-431b-a32f-6f6423d7880b","ios":"levelo://app?vid=dc9afc0d-d533-431b-a32f-6f6423d7880b"},"vehicle_type_id":"4","last_reported":1737627015,"current_range_meters":31200,"station_id":"ce4bhp92rcd13ifvqhbg","pricing_plan_id":"cebpf4jnsgd1na2vs0mg"},{"bike_id":"66b87055-efa9-4034-b269-adcca9276c7e","system_id":"levelo_inurba_marseille","lat":43.30173,"lon":5.36622,"is_reserved":false,"is_disabled":false,"rental_uris":{"android":"levelo://app?vid=66b87055-efa9-4034-b269-adcca9276c7e","ios":"levelo://app?vid=66b87055-efa9-4034-b269-adcca9276c7e"},"vehicle_type_id":"4","last_reported":1737627015,"current_range_meters":2000,"station_id":"ce4bgrh2rcd13ifvqc8g","pricing_plan_id":"cebpf4jnsgd1na2vs0mg"},{"bike_id":"b2f004cc-c0f3-4203-a96b-8b31c46e72f3","system_id":"levelo_inurba_marseille","lat":43.31083,"lon":5.42432,"is_reserved":false,"is_disabled":false,"rental_uris":{"android":"levelo://app?vid=b2f004cc-c0f3-4203-a96b-8b31c46e72f3","ios":"levelo://app?vid=b2f004cc-c0f3-4203-a96b-8b31c46e72f3"},"vehicle_type_id":"4","last_reported":1737627015,"current_range_meters":29600,"station_id":"ce4bhp92rcd13ifvqhag","pricing_plan_id":"cebpf4jnsgd1na2vs0mg"},{"bike_id":"1876537c-c9d8-4160-b31c-e17d644f44c6","system_id":"levelo_inurba_marseille","lat":43.32473,"lon":5.3656,"is_reserved":false,"is_disabled":false,"rental_uris":{"android":"levelo://app?vid=1876537c-c9d8-4160-b31c-e17d644f44c6","ios":"levelo://app?vid=1876537c-c9d8-4160-b31c-e17d644f44c6"},"vehicle_type_id":"4","last_reported":1737627015,"current_range_meters":33200,"station_id":"ce4bhs12rcd13ifvqhvg","pricing_plan_id":"cebpf4jnsgd1na2vs0mg"},{"bike_id":"2180075a-8de0-46a9-b4d4-973ce10eef9a","system_id":"levelo_inurba_marseille","lat":43.31685,"lon":5.40474,"is_reserved":false,"is_disabled":false,"rental_uris":{"android":"levelo://app?vid=2180075a-8de0-46a9-b4d4-973ce10eef9a","ios":"levelo://app?vid=2180075a-8de0-46a9-b4d4-973ce10eef9a"},"vehicle_type_id":"4","last_reported":1737627015,"current_range_meters":17600,"station_id":"ce4bh012rcd13ifvqd00","pricing_plan_id":"cebpf4jnsgd1na2vs0mg"},{"bike_id":"c39beb18-b568-4699-95c1-ddaef8c27d01","system_id":"levelo_inurba_marseille","lat":43.30984,"lon":5.39045,"is_reserved":false,"is_disabled":true,"rental_uris":{"android":"levelo://app?vid=c39beb18-b568-4699-95c1-ddaef8c27d01","ios":"levelo://app?vid=c39beb18-b568-4699-95c1-ddaef8c27d01"},"vehicle_type_id":"4","last_reported":1737627015,"current_range_meters":0,"station_id":"ce4bgup2rcd13ifvqco0","pricing_plan_id":"cebpf4jnsgd1na2vs0mg"},{"bike_id":"a4990aa9-5817-4db3-b27e-b46aa302df30","system_id":"levelo_inurba_marseille","lat":43.24056,"lon":5.37765,"is_reserved":false,"is_disabled":false,"rental_uris":{"android":"levelo://app?vid=a4990aa9-5817-4db3-b27e-b46aa302df30","ios":"levelo://app?vid=a4990aa9-5817-4db3-b27e-b46aa302df30"},"vehicle_type_id":"4","last_reported":1737627015,"current_range_meters":29600,"station_id":"ce4bhnp2rcd13ifvqgvg","pricing_plan_id":"cebpf4jnsgd1na2vs0mg"},{"bike_id":"baba38a4-6aab-466f-9aaf-b523220adf40","system_id":"levelo_inurba_marseille","lat":43.30429,"lon":5.38892,"is_reserved":false,"is_disabled":false,"rental_uris":{"android":"levelo://app?vid=baba38a4-6aab-466f-9aaf-b523220adf40","ios":"levelo://app?vid=baba38a4-6aab-466f-9aaf-b523220adf40"},"vehicle_type_id":"4","last_reported":1737627015,"current_range_meters":24400,"station_id":"ce4bgk12rcd13ifvqbi0","pricing_plan_id":"cebpf4jnsgd1na2vs0mg"},{"bike_id":"047de2d8-e2d9-4cca-801a-aea25689a488","system_id":"levelo_inurba_marseille","lat":43.27187,"lon":5.40979,"is_reserved":false,"is_disabled":false,"rental_uris":{"android":"levelo://app?vid=047de2d8-e2d9-4cca-801a-aea25689a488","ios":"levelo://app?vid=047de2d8-e2d9-4cca-801a-aea25689a488"},"vehicle_type_id":"4","last_reported":1737627015,"current_range_meters":39200,"station_id":"ce4bhl12rcd13ifvqgf0","pricing_plan_id":"cebpf4jnsgd1na2vs0mg"},{"bike_id":"37c90366-1f73-41fa-9e11-962522b59f25","system_id":"levelo_inurba_marseille","lat":43.28694,"lon":5.37402,"is_reserved":false,"is_disabled":false,"rental_uris":{"android":"levelo://app?vid=37c90366-1f73-41fa-9e11-962522b59f25","ios":"levelo://app?vid=37c90366-1f73-41fa-9e11-962522b59f25"},"vehicle_type_id":"4","last_reported":1737627015,"current_range_meters":26000,"station_id":"ce4bh3p2rcd13ifvqdq0","pricing_plan_id":"cebpf4jnsgd1na2vs0mg"},{"bike_id":"5b5d4d96-8df1-499e-a530-eead026d912a","system_id":"levelo_inurba_marseille","lat":43.27368,"lon":5.3626,"is_reserved":false,"is_disabled":false,"rental_uris":{"android":"levelo://app?vid=5b5d4d96-8df1-499e-a530-eead026d912a","ios":"levelo://app?vid=5b5d4d96-8df1-499e-a530-eead026d912a"},"vehicle_type_id":"4","last_reported":1737627015,"current_range_meters":37600,"station_id":"ce4bhbh2rcd13ifvqeo0","pricing_plan_id":"cebpf4jnsgd1na2vs0mg"},{"bike_id":"222072f2-c282-4164-bc75-160d4d92c321","system_id":"levelo_inurba_marseille","lat":43.30453,"lon":5.37914,"is_reserved":false,"is_disabled":false,"rental_uris":{"android":"levelo://app?vid=222072f2-c282-4164-bc75-160d4d92c321","ios":"levelo://app?vid=222072f2-c282-4164-bc75-160d4d92c321"},"vehicle_type_id":"4","last_reported":1737627015,"current_range_meters":23200,"station_id":"ce4bgup2rcd13ifvqcn0","pricing_plan_id":"cebpf4jnsgd1na2vs0mg"},{"bike_id":"89e65299-96df-4a7b-a292-6ce6fccd411f","system_id":"levelo_inurba_marseille","lat":43.28978,"lon":5.37827,"is_reserved":false,"is_disabled":false,"rental_uris":{"android":"levelo://app?vid=89e65299-96df-4a7b-a292-6ce6fccd411f","ios":"levelo://app?vid=89e65299-96df-4a7b-a292-6ce6fccd411f"},"vehicle_type_id":"4","last_reported":1737627015,"current_range_meters":37600,"station_id":"ce4bh9p2rcd13ifvqed0","pricing_plan_id":"cebpf4jnsgd1na2vs0mg"},{"bike_id":"d5e580bb-31f1-420b-8967-4ef30e3f9e43","system_id":"levelo_inurba_marseille","lat":43.31095,"lon":5.42418,"is_reserved":false,"is_disabled":false,"rental_uris":{"android":"levelo://app?vid=d5e580bb-31f1-420b-8967-4ef30e3f9e43","ios":"levelo://app?vid=d5e580bb-31f1-420b-8967-4ef30e3f9e43"},"vehicle_type_id":"4","last_reported":1737627015,"current_range_meters":26800,"station_id":"ce4bhp92rcd13ifvqhag","pricing_plan_id":"cebpf4jnsgd1na2vs0mg"},{"bike_id":"68e9c31c-ad3e-43bf-9dd6-a2db62b95ef7","system_id":"levelo_inurba_marseille","lat":43.3247,"lon":5.36559,"is_reserved":false,"is_disabled":false,"rental_uris":{"android":"levelo://app?vid=68e9c31c-ad3e-43bf-9dd6-a2db62b95ef7","ios":"levelo://app?vid=68e9c31c-ad3e-43bf-9dd6-a2db62b95ef7"},"vehicle_type_id":"4","last_reported":1737627015,"current_range_meters":23200,"station_id":"ce4bhs12rcd13ifvqhvg","pricing_plan_id":"cebpf4jnsgd1na2vs0mg"},{"bike_id":"c57a4656-9914-4691-8920-de942ac8d52d","system_id":"levelo_inurba_marseille","lat":43.25006,"lon":5.38951,"is_reserved":false,"is_disabled":false,"rental_uris":{"android":"levelo://app?vid=c57a4656-9914-4691-8920-de942ac8d52d","ios":"levelo://app?vid=c57a4656-9914-4691-8920-de942ac8d52d"},"vehicle_type_id":"4","last_reported":1737627015,"current_range_meters":27200,"station_id":"ce4bhgp2rcd13ifvqfd0","pricing_plan_id":"cebpf4jnsgd1na2vs0mg"},{"bike_id":"b8338bfe-1284-4232-9a51-15bb8e974f1c","system_id":"levelo_inurba_marseille","lat":43.29844,"lon":5.36263,"is_reserved":false,"is_disabled":false,"rental_uris":{"android":"levelo://app?vid=b8338bfe-1284-4232-9a51-15bb8e974f1c","ios":"levelo://app?vid=b8338bfe-1284-4232-9a51-15bb8e974f1c"},"vehicle_type_id":"4","last_reported":1737627015,"current_range_meters":38800,"station_id":"ce4bgpp2rcd13ifvqc3g","pricing_plan_id":"cebpf4jnsgd1na2vs0mg"},{"bike_id":"d44e0181-8fda-48f6-8535-2fda924ce2fd","system_id":"levelo_inurba_marseille","lat":43.29898,"lon":5.43663,"is_reserved":false,"is_disabled":false,"rental_uris":{"android":"levelo://app?vid=d44e0181-8fda-48f6-8535-2fda924ce2fd","ios":"levelo://app?vid=d44e0181-8fda-48f6-8535-2fda924ce2fd"},"vehicle_type_id":"4","last_reported":1737627015,"current_range_meters":4000,"station_id":"ce4bhpp2rcd13ifvqhfg","pricing_plan_id":"cebpf4jnsgd1na2vs0mg"},{"bike_id":"a8726e23-c62e-4886-badc-570732767531","system_id":"levelo_inurba_marseille","lat":43.29297,"lon":5.37432,"is_reserved":false,"is_disabled":false,"rental_uris":{"android":"levelo://app?vid=a8726e23-c62e-4886-badc-570732767531","ios":"levelo://app?vid=a8726e23-c62e-4886-badc-570732767531"},"vehicle_type_id":"4","last_reported":1737627015,"current_range_meters":38800,"station_id":"ce4bgi12rcd13ifvqb70","pricing_plan_id":"cebpf4jnsgd1na2vs0mg"},{"bike_id":"388eee1f-188d-439c-a587-687d6b3c4f0d","system_id":"levelo_inurba_marseille","lat":43.31068,"lon":5.38361,"is_reserved":false,"is_disabled":false,"rental_uris":{"android":"levelo://app?vid=388eee1f-188d-439c-a587-687d6b3c4f0d","ios":"levelo://app?vid=388eee1f-188d-439c-a587-687d6b3c4f0d"},"vehicle_type_id":"4","last_reported":1737627015,"current_range_meters":25600,"station_id":"ce4bgv92rcd13ifvqcr0","pricing_plan_id":"cebpf4jnsgd1na2vs0mg"},{"bike_id":"f15a3926-03ea-4c4b-9f1b-6e7324acfe94","system_id":"levelo_inurba_marseille","lat":43.30931,"lon":5.36846,"is_reserved":false,"is_disabled":false,"rental_uris":{"android":"levelo://app?vid=f15a3926-03ea-4c4b-9f1b-6e7324acfe94","ios":"levelo://app?vid=f15a3926-03ea-4c4b-9f1b-6e7324acfe94"},"vehicle_type_id":"4","last_reported":1737627015,"current_range_meters":14800,"station_id":"ce4bgn92rcd13ifvqbvg","pricing_plan_id":"cebpf4jnsgd1na2vs0mg"},{"bike_id":"0aa76b23-a584-481f-b01e-84e6592d1623","system_id":"levelo_inurba_marseille","lat":43.29703,"lon":5.37697,"is_reserved":false,"is_disabled":false,"rental_uris":{"android":"levelo://app?vid=0aa76b23-a584-481f-b01e-84e6592d1623","ios":"levelo://app?vid=0aa76b23-a584-481f-b01e-84e6592d1623"},"vehicle_type_id":"4","last_reported":1737627015,"current_range_meters":32400,"station_id":"ce4bgkh2rcd13ifvqbl0","pricing_plan_id":"cebpf4jnsgd1na2vs0mg"},{"bike_id":"d22b6dd8-70dd-44e2-b2da-7416379d6042","system_id":"levelo_inurba_marseille","lat":43.26679,"lon":5.38289,"is_reserved":false,"is_disabled":false,"rental_uris":{"android":"levelo://app?vid=d22b6dd8-70dd-44e2-b2da-7416379d6042","ios":"levelo://app?vid=d22b6dd8-70dd-44e2-b2da-7416379d6042"},"vehicle_type_id":"4","last_reported":1737627015,"current_range_meters":38800,"station_id":"ce4bhg92rcd13ifvqf90","pricing_plan_id":"cebpf4jnsgd1na2vs0mg"},{"bike_id":"0aec17a1-d8f2-4e00-b9ec-705d67e6be92","system_id":"levelo_inurba_marseille","lat":43.30557,"lon":5.36557,"is_reserved":false,"is_disabled":false,"rental_uris":{"android":"levelo://app?vid=0aec17a1-d8f2-4e00-b9ec-705d67e6be92","ios":"levelo://app?vid=0aec17a1-d8f2-4e00-b9ec-705d67e6be92"},"vehicle_type_id":"4","last_reported":1737627015,"current_range_meters":24800,"station_id":"ce4bgs12rcd13ifvqcag","pricing_plan_id":"cebpf4jnsgd1na2vs0mg"},{"bike_id":"79806346-ef00-40e4-a531-9c56ff9a9c76","system_id":"levelo_inurba_marseille","lat":43.30458,"lon":5.379027,"is_reserved":false,"is_disabled":false,"rental_uris":{"android":"levelo://app?vid=79806346-ef00-40e4-a531-9c56ff9a9c76","ios":"levelo://app?vid=79806346-ef00-40e4-a531-9c56ff9a9c76"},"vehicle_type_id":"4","last_reported":1737627015,"current_range_meters":36800,"station_id":"ce4bgup2rcd13ifvqcn0","pricing_plan_id":"cebpf4jnsgd1na2vs0mg"},{"bike_id":"79c49610-b1db-4f80-b70f-d282a39244ce","system_id":"levelo_inurba_marseille","lat":43.24074,"lon":5.37767,"is_reserved":false,"is_disabled":false,"rental_uris":{"android":"levelo://app?vid=79c49610-b1db-4f80-b70f-d282a39244ce","ios":"levelo://app?vid=79c49610-b1db-4f80-b70f-d282a39244ce"},"vehicle_type_id":"4","last_reported":1737627015,"current_range_meters":38800,"station_id":"ce4bhnp2rcd13ifvqgvg","pricing_plan_id":"cebpf4jnsgd1na2vs0mg"},{"bike_id":"6321c59a-d6c7-4648-816a-7ced06b020c1","system_id":"levelo_inurba_marseille","lat":43.30189,"lon":5.36648,"is_reserved":false,"is_disabled":false,"rental_uris":{"android":"levelo://app?vid=6321c59a-d6c7-4648-816a-7ced06b020c1","ios":"levelo://app?vid=6321c59a-d6c7-4648-816a-7ced06b020c1"},"vehicle_type_id":"4","last_reported":1737627015,"current_range_meters":39200,"station_id":"ce4bgrh2rcd13ifvqc8g","pricing_plan_id":"cebpf4jnsgd1na2vs0mg"},{"bike_id":"b447f92a-5d99-46a4-b5cc-3590e2b17e81","system_id":"levelo_inurba_marseille","lat":43.29621,"lon":5.37157,"is_reserved":false,"is_disabled":false,"rental_uris":{"android":"levelo://app?vid=b447f92a-5d99-46a4-b5cc-3590e2b17e81","ios":"levelo://app?vid=b447f92a-5d99-46a4-b5cc-3590e2b17e81"},"vehicle_type_id":"4","last_reported":1737627015,"current_range_meters":37600,"station_id":"ce4bgnh2rcd13ifvqc0g","pricing_plan_id":"cebpf4jnsgd1na2vs0mg"},{"bike_id":"73437ec1-c49c-4c1d-87bb-5c89656ded36","system_id":"levelo_inurba_marseille","lat":43.30522,"lon":5.36742,"is_reserved":false,"is_disabled":false,"rental_uris":{"android":"levelo://app?vid=73437ec1-c49c-4c1d-87bb-5c89656ded36","ios":"levelo://app?vid=73437ec1-c49c-4c1d-87bb-5c89656ded36"},"vehicle_type_id":"4","last_reported":1737627015,"current_range_meters":39200,"station_id":"ce4bgrp2rcd13ifvqc9g","pricing_plan_id":"cebpf4jnsgd1na2vs0mg"},{"bike_id":"c433d072-0a66-4269-8237-4a9666d43019","system_id":"levelo_inurba_marseille","lat":43.27186,"lon":5.39176,"is_reserved":false,"is_disabled":false,"rental_uris":{"android":"levelo://app?vid=c433d072-0a66-4269-8237-4a9666d43019","ios":"levelo://app?vid=c433d072-0a66-4269-8237-4a9666d43019"},"vehicle_type_id":"4","last_reported":1737627015,"current_range_meters":39200,"station_id":"ce4bhhp2rcd13ifvqfm0","pricing_plan_id":"cebpf4jnsgd1na2vs0mg"},{"bike_id":"22194593-f787-46d9-8429-b9675a290fcf","system_id":"levelo_inurba_marseille","lat":43.336066,"lon":5.410346,"is_reserved":false,"is_disabled":false,"rental_uris":{"android":"levelo://app?vid=22194593-f787-46d9-8429-b9675a290fcf","ios":"levelo://app?vid=22194593-f787-46d9-8429-b9675a290fcf"},"vehicle_type_id":"4","last_reported":1737627015,"current_range_meters":38800,"station_id":"ce4bhqh2rcd13ifvqhmg","pricing_plan_id":"cebpf4jnsgd1na2vs0mg"},{"bike_id":"1714e45e-7747-4d49-a740-f2b4f1a907bf","system_id":"levelo_inurba_marseille","lat":43.32474,"lon":5.36568,"is_reserved":false,"is_disabled":false,"rental_uris":{"android":"levelo://app?vid=1714e45e-7747-4d49-a740-f2b4f1a907bf","ios":"levelo://app?vid=1714e45e-7747-4d49-a740-f2b4f1a907bf"},"vehicle_type_id":"4","last_reported":1737627015,"current_range_meters":26000,"station_id":"ce4bhs12rcd13ifvqhvg","pricing_plan_id":"cebpf4jnsgd1na2vs0mg"},{"bike_id":"de762dc7-7710-404e-a7fa-92f4936d026f","system_id":"levelo_inurba_marseille","lat":43.29579,"lon":5.36738,"is_reserved":false,"is_disabled":false,"rental_uris":{"android":"levelo://app?vid=de762dc7-7710-404e-a7fa-92f4936d026f","ios":"levelo://app?vid=de762dc7-7710-404e-a7fa-92f4936d026f"},"vehicle_type_id":"4","last_reported":1737627015,"current_range_meters":6400,"station_id":"ce4bgph2rcd13ifvqc2g","pricing_plan_id":"cebpf4jnsgd1na2vs0mg"},{"bike_id":"46f660c8-af06-40e4-8405-1de8488f3c4e","system_id":"levelo_inurba_marseille","lat":43.26681,"lon":5.38264,"is_reserved":false,"is_disabled":false,"rental_uris":{"android":"levelo://app?vid=46f660c8-af06-40e4-8405-1de8488f3c4e","ios":"levelo://app?vid=46f660c8-af06-40e4-8405-1de8488f3c4e"},"vehicle_type_id":"4","last_reported":1737627015,"current_range_meters":35600,"station_id":"ce4bhg92rcd13ifvqf90","pricing_plan_id":"cebpf4jnsgd1na2vs0mg"},{"bike_id":"47078629-c7b7-45ce-8b45-10c5ffa6761f","system_id":"levelo_inurba_marseille","lat":43.26187,"lon":5.3793,"is_reserved":false,"is_disabled":false,"rental_uris":{"android":"levelo://app?vid=47078629-c7b7-45ce-8b45-10c5ffa6761f","ios":"levelo://app?vid=47078629-c7b7-45ce-8b45-10c5ffa6761f"},"vehicle_type_id":"4","last_reported":1737627015,"current_range_meters":26800,"station_id":"ce4bhjp2rcd13ifvqg90","pricing_plan_id":"cebpf4jnsgd1na2vs0mg"},{"bike_id":"eba4adbd-9f00-40cb-ad0d-0aa94c7536f5","system_id":"levelo_inurba_marseille","lat":43.30554,"lon":5.36559,"is_reserved":false,"is_disabled":false,"rental_uris":{"android":"levelo://app?vid=eba4adbd-9f00-40cb-ad0d-0aa94c7536f5","ios":"levelo://app?vid=eba4adbd-9f00-40cb-ad0d-0aa94c7536f5"},