{"last_updated":1746429068,"ttl":60,"version":"2.2","data":{"bikes":[{"bike_id":"ee431cbb-877d-4c13-8c16-79999e3facb4","system_id":"levelo_inurba_marseille","lat":43.3313,"lon":5.43103,"is_reserved":false,"is_disabled":true,"rental_uris":{"android":"levelo://app?vid=ee431cbb-877d-4c13-8c16-79999e3facb4","ios":"levelo://app?vid=ee431cbb-877d-4c13-8c16-79999e3facb4"},"vehicle_type_id":"4","last_reported":1746429068,"current_range_meters":0,"station_id":"","pricing_plan_id":"cebpf4jnsgd1na2vs0mg"},{"bike_id":"ccd5790a-ee27-4b55-8880-7cee5aeb7cdf","system_id":"levelo_inurba_marseille","lat":43.21748,"lon":5.34606,"is_reserved":false,"is_disabled":true,"rental_uris":{"android":"levelo://app?vid=ccd5790a-ee27-4b55-8880-7cee5aeb7cdf","ios":"levelo://app?vid=ccd5790a-ee27-4b55-8880-7cee5aeb7cdf"},"vehicle_type_id":"4","last_reported":1746429068,"current_range_meters":0,"station_id":"","pricing_plan_id":"cebpf4jnsgd1na2vs0mg"},{"bike_id":"2d87f24b-bb92-4f5a-9c64-611905425c8d","system_id":"levelo_inurba_marseille","lat":43.23667,"lon":5.39143,"is_reserved":false,"is_disabled":true,"rental_uris":{"android":"levelo://app?vid=2d87f24b-bb92-4f5a-9c64-611905425c8d","ios":"levelo://app?vid=2d87f24b-bb92-4f5a-9c64-611905425c8d"},"vehicle_type_id":"4","last_reported":1746429068,"current_range_meters":0,"station_id":"","pricing_plan_id":"cebpf4jnsgd1na2vs0mg"},{"bike_id":"570b486c-50df-4f1f-97df-caa86c0d419e","system_id":"levelo_inurba_marseille","lat":43.336973,"lon":5.35577,"is_reserved":false,"is_disabled":true,"rental_uris":{"android":"levelo://app?vid=570b486c-50df-4f1f-97df-caa86c0d419e","ios":"levelo://app?vid=570b486c-50df-4f1f-97df-caa86c0d419e"},"vehicle_type_id":"4","last_reported":1746429068,"current_range_meters":0,"station_id":"","pricing_plan_id":"cebpf4jnsgd1na2vs0mg"},{"bike_id":"e9e1572f-0374-4bcf-914f-8f2eeda7905b","system_id":"levelo_inurba_marseille","lat":43.21228,"lon":5.3508,"is_reserved":false,"is_disabled":true,"rental_uris":{"android":"levelo://app?vid=e9e1572f-0374-4bcf-914f-8f2eeda7905b","ios":"levelo://app?vid=e9e1572f-0374-4bcf-914f-8f2eeda7905b"},"vehicle_type_id":"4","last_reported":1746429068,"current_range_meters":0,"station_id":"","pricing_plan_id":"cebpf4jnsgd1na2vs0mg"},{"bike_id":"ed81ad13-da53-482c-b849-b96a88e788b0","system_id":"levelo_inurba_marseille","lat":43.294501,"lon":5.458021,"is_reserved":false,"is_disabled":true,"rental_uris":{"android":"levelo://app?vid=ed81ad13-da53-482c-b849-b96a88e788b0","ios":"levelo://app?vid=ed81ad13-da53-482c-b849-b96a88e788b0"},"vehicle_type_id":"4","last_reported":1746429068,"current_range_meters":0,"station_id":"","pricing_plan_id":"cebpf4jnsgd1na2vs0mg"},{"bike_id":"e93b949e-1738-47f2-ad13-8f512df2ffaf","system_id":"levelo_inurba_marseille","lat":43.281611,"lon":5.443322,"is_reserved":false,"is_disabled":true,"rental_uris":{"android":"levelo://app?vid=e93b949e-1738-47f2-ad13-8f512df2ffaf","ios":"levelo://app?vid=e93b949e-1738-47f2-ad13-8f512df2ffaf"},"vehicle_type_id":"4","last_reported":1746429068,"current_range_meters":0,"station_id":"","pricing_plan_id":"cebpf4jnsgd1na2vs0mg"},{"bike_id":"049c98b1-a9d3-45ef-99d7-217653f40404","system_id":"levelo_inurba_marseille","lat":43.31225,"lon":5.36856,"is_reserved":false,"is_disabled":true,"rental_uris":{"android":"levelo://app?vid=049c98b1-a9d3-45ef-99d7-217653f40404","ios":"levelo://app?vid=049c98b1-a9d3-45ef-99d7-217653f40404"},"vehicle_type_id":"4","last_reported":1746429068,"current_range_meters":0,"station_id":"ce4bgl92rcd13ifvqbq0","pricing_plan_id":"cebpf4jnsgd1na2vs0mg"},{"bike_id":"c223308a-5bdc-4b64-86e2-2968bef37adb","system_id":"levelo_inurba_marseille","lat":43.30314,"lon":5.36901,"is_reserved":false,"is_disabled":true,"rental_uris":{"android":"levelo://app?vid=c223308a-5bdc-4b64-86e2-2968bef37adb","ios":"levelo://app?vid=c223308a-5bdc-4b64-86e2-2968bef37adb"},"vehicle_type_id":"4","last_reported":1746429068,"current_range_meters":0,"station_id":"ce4bgqh2rcd13ifvqc5g","pricing_plan_id":"cebpf4jnsgd1na2vs0mg"},{"bike_id":"2f400e75-7c89-400b-9aaa-091bebe7c15c","system_id":"levelo_inurba_marseille","lat":43.31055,"lon":5.3835,"is_reserved":false,"is_disabled":true,"rental_uris":{"android":"levelo://app?vid=2f400e75-7c89-400b-9aaa-091bebe7c15c","ios":"levelo://app?vid=2f400e75-7c89-400b-9aaa-091bebe7c15c"},"vehicle_type_id":"4","last_reported":1746429068,"current_range_meters":0,"station_id":"ce4bgv92rcd13ifvqcr0","pricing_plan_id":"cebpf4jnsgd1na2vs0mg"},{"bike_id":"0ecfd02f-f853-4362-9dcd-e959b1ad8321","system_id":"levelo_inurba_marseille","lat":43.24213,"lon":5.39725,"is_reserved":false,"is_disabled":true,"rental_uris":{"android":"levelo://app?vid=0ecfd02f-f853-4362-9dcd-e959b1ad8321","ios":"levelo://app?vid=0ecfd02f-f853-4362-9dcd-e959b1ad8321"},"vehicle_type_id":"4","last_reported":1746429068,"current_range_meters":0,"station_id":"ce4bhn12rcd13ifvqgpg","pricing_plan_id":"cebpf4jnsgd1na2vs0mg"},{"bike_id":"523fb1a4-264e-4f7c-962c-30a14c695e35","system_id":"levelo_inurba_marseille","lat":43.31709,"lon":5.437041,"is_reserved":false,"is_disabled":true,"rental_uris":{"android":"levelo://app?vid=523fb1a4-264e-4f7c-962c-30a14c695e35","ios":"levelo://app?vid=523fb1a4-264e-4f7c-962c-30a14c695e35"},"vehicle_type_id":"4","last_reported":1746429068,"current_range_meters":0,"station_id":"ce4bhp92rcd13ifvqhcg","pricing_plan_id":"cebpf4jnsgd1na2vs0mg"},{"bike_id":"ce7eaa2a-3d8b-45c5-8379-cd758fb93612","system_id":"levelo_inurba_marseille","lat":43.217483,"lon":5.346179,"is_reserved":false,"is_disabled":true,"rental_uris":{"android":"levelo://app?vid=ce7eaa2a-3d8b-45c5-8379-cd758fb93612","ios":"levelo://app?vid=ce7eaa2a-3d8b-45c5-8379-cd758fb93612"},"vehicle_type_id":"4","last_reported":1746429068,"current_range_meters":0,"station_id":"st_cvj6r9ubvosntc0bgbag","pricing_plan_id":"cebpf4jnsgd1na2vs0mg"},{"bike_id":"a62c4081-0a00-4338-a99f-b605c981f909","system_id":"levelo_inurba_marseille","lat":43.21199,"lon":5.35077,"is_reserved":false,"is_disabled":true,"rental_uris":{"android":"levelo://app?vid=a62c4081-0a00-4338-a99f-b605c981f909","ios":"levelo://app?vid=a62c4081-0a00-4338-a99f-b605c981f909"},"vehicle_type_id":"4","last_reported":1746429068,"current_range_meters":0,"station_id":"st_cvj6sg6p6f1abm77japg","pricing_plan_id":"cebpf4jnsgd1na2vs0mg"},{"bike_id":"441771cd-0001-4237-b26e-f2e1502d0768","system_id":"levelo_inurba_marseille","lat":43.236333,"lon":5.366016,"is_reserved":false,"is_disabled":true,"rental_uris":{"android":"levelo://app?vid=441771cd-0001-4237-b26e-f2e1502d0768","ios":"levelo://app?vid=441771cd-0001-4237-b26e-f2e1502d0768"},"vehicle_type_id":"4","last_reported":1746429068,"current_range_meters":400,"station_id":"","pricing_plan_id":"cebpf4jnsgd1na2vs0mg"},{"bike_id":"eee1cd06-b2ff-427f-9a48-b23785e1d631","system_id":"levelo_inurba_marseille","lat":43.296032,"lon":5.367764,"is_reserved":false,"is_disabled":true,"rental_uris":{"android":"levelo://app?vid=eee1cd06-b2ff-427f-9a48-b23785e1d631","ios":"levelo://app?vid=eee1cd06-b2ff-427f-9a48-b23785e1d631"},"vehicle_type_id":"4","last_reported":1746429068,"current_range_meters":400,"station_id":"ce4bgph2rcd13ifvqc2g","pricing_plan_id":"cebpf4jnsgd1na2vs0mg"},{"bike_id":"d5ed7ba7-8e2c-42cb-9d78-fda9b3f7041e","system_id":"levelo_inurba_marseille","lat":43.25111,"lon":5.40324,"is_reserved":false,"is_disabled":true,"rental_uris":{"android":"levelo://app?vid=d5ed7ba7-8e2c-42cb-9d78-fda9b3f7041e","ios":"levelo://app?vid=d5ed7ba7-8e2c-42cb-9d78-fda9b3f7041e"},"vehicle_type_id":"4","last_reported":1746429068,"current_range_meters":400,"station_id":"ce4bhlh2rcd13ifvqgig","pricing_plan_id":"cebpf4jnsgd1na2vs0mg"},{"bike_id":"d5586c93-90e0-4b44-adca-d2a09f47a491","system_id":"levelo_inurba_marseille","lat":43.23142,"lon":5.43726,"is_reserved":false,"is_disabled":true,"rental_uris":{"android":"levelo://app?vid=d5586c93-90e0-4b44-adca-d2a09f47a491","ios":"levelo://app?vid=d5586c93-90e0-4b44-adca-d2a09f47a491"},"vehicle_type_id":"4","last_reported":1746429068,"current_range_meters":400,"station_id":"ce4bhmp2rcd13ifvqgog","pricing_plan_id":"cebpf4jnsgd1na2vs0mg"},{"bike_id":"7a0f5bae-9bc6-4cec-b4a9-81ea62c3cc9c","system_id":"levelo_inurba_marseille","lat":43.3212,"lon":5.36802,"is_reserved":false,"is_disabled":true,"rental_uris":{"android":"levelo://app?vid=7a0f5bae-9bc6-4cec-b4a9-81ea62c3cc9c","ios":"levelo://app?vid=7a0f5bae-9bc6-4cec-b4a9-81ea62c3cc9c"},"vehicle_type_id":"4","last_reported":1746429068,"current_range_meters":400,"station_id":"ce4bhrh2rcd13ifvqhug","pricing_plan_id":"cebpf4jnsgd1na2vs0mg"},{"bike_id":"98648599-d48c-4f96-9a60-36712b18807a","system_id":"levelo_inurba_marseille","lat":43.3148,"lon":5.3857,"is_reserved":false,"is_disabled":true,"rental_uris":{"android":"levelo://app?vid=98648599-d48c-4f96-9a60-36712b18807a","ios":"levelo://app?vid=98648599-d48c-4f96-9a60-36712b18807a"},"vehicle_type_id":"4","last_reported":1746429068,"current_range_meters":800,"station_id":"","pricing_plan_id":"cebpf4jnsgd1na2vs0mg"},{"bike_id":"0139c81b-3678-4800-8454-c4e45f4988a9","system_id":"levelo_inurba_marseille","lat":43.243914,"lon":5.370745,"is_reserved":false,"is_disabled":true,"rental_uris":{"android":"levelo://app?vid=0139c81b-3678-4800-8454-c4e45f4988a9","ios":"levelo://app?vid=0139c81b-3678-4800-8454-c4e45f4988a9"},"vehicle_type_id":"4","last_reported":1746429068,"current_range_meters":800,"station_id":"ce4bhhh2rcd13ifvqfk0","pricing_plan_id":"cebpf4jnsgd1na2vs0mg"},{"bike_id":"e94681a8-12b1-49e4-aff5-cccae9a5f594","system_id":"levelo_inurba_marseille","lat":43.30946,"lon":5.39037,"is_reserved":false,"is_disabled":true,"rental_uris":{"android":"levelo://app?vid=e94681a8-12b1-49e4-aff5-cccae9a5f594","ios":"levelo://app?vid=e94681a8-12b1-49e4-aff5-cccae9a5f594"},"vehicle_type_id":"4","last_reported":1746429068,"current_range_meters":1200,"station_id":"","pricing_plan_id":"cebpf4jnsgd1na2vs0mg"},{"bike_id":"307b91a5-c9a0-4363-a751-7215b3a99316","system_id":"levelo_inurba_marseille","lat":43.29193,"lon":5.36926,"is_reserved":false,"is_disabled":true,"rental_uris":{"android":"levelo://app?vid=307b91a5-c9a0-4363-a751-7215b3a99316","ios":"levelo://app?vid=307b91a5-c9a0-4363-a751-7215b3a99316"},"vehicle_type_id":"4","last_reported":1746429068,"current_range_meters":1600,"station_id":"","pricing_plan_id":"cebpf4jnsgd1na2vs0mg"},{"bike_id":"aee0ffa4-f8e7-411b-9990-27c061edace6","system_id":"levelo_inurba_marseille","lat":43.30461,"lon":5.37899,"is_reserved":false,"is_disabled":true,"rental_uris":{"android":"levelo://app?vid=aee0ffa4-f8e7-411b-9990-27c061edace6","ios":"levelo://app?vid=aee0ffa4-f8e7-411b-9990-27c061edace6"},"vehicle_type_id":"4","last_reported":1746429068,"current_range_meters":1600,"station_id":"ce4bgup2rcd13ifvqcn0","pricing_plan_id":"cebpf4jnsgd1na2vs0mg"},{"bike_id":"802bf52c-7a72-4e0f-a60c-9c1a73c2f67c","system_id":"levelo_inurba_marseille","lat":43.29024,"lon":5.386,"is_reserved":false,"is_disabled":true,"rental_uris":{"android":"levelo://app?vid=802bf52c-7a72-4e0f-a60c-9c1a73c2f67c","ios":"levelo://app?vid=802bf52c-7a72-4e0f-a60c-9c1a73c2f67c"},"vehicle_type_id":"4","last_reported":1746429068,"current_range_meters":2000,"station_id":"ce4bh4p2rcd13ifvqe0g","pricing_plan_id":"cebpf4jnsgd1na2vs0mg"},{"bike_id":"8df37787-a611-4ce6-9e65-032cb168f59b","system_id":"levelo_inurba_marseille","lat":43.21216,"lon":5.35068,"is_reserved":false,"is_disabled":true,"rental_uris":{"android":"levelo://app?vid=8df37787-a611-4ce6-9e65-032cb168f59b","ios":"levelo://app?vid=8df37787-a611-4ce6-9e65-032cb168f59b"},"vehicle_type_id":"4","last_reported":1746429068,"current_range_meters":2000,"station_id":"st_cvj6sg6p6f1abm77japg","pricing_plan_id":"cebpf4jnsgd1na2vs0mg"},{"bike_id":"dfb3396e-96f5-457c-af11-f6f27dad33e9","system_id":"levelo_inurba_marseille","lat":43.27189,"lon":5.36479,"is_reserved":false,"is_disabled":false,"rental_uris":{"android":"levelo://app?vid=dfb3396e-96f5-457c-af11-f6f27dad33e9","ios":"levelo://app?vid=dfb3396e-96f5-457c-af11-f6f27dad33e9"},"vehicle_type_id":"4","last_reported":1746429068,"current_range_meters":2800,"station_id":"","pricing_plan_id":"cebpf4jnsgd1na2vs0mg"},{"bike_id":"64ba6523-9743-49dd-913d-3313ff12a650","system_id":"levelo_inurba_marseille","lat":43.313706,"lon":5.366855,"is_reserved":false,"is_disabled":false,"rental_uris":{"android":"levelo://app?vid=64ba6523-9743-49dd-913d-3313ff12a650","ios":"levelo://app?vid=64ba6523-9743-49dd-913d-3313ff12a650"},"vehicle_type_id":"4","last_reported":1746429068,"current_range_meters":2800,"station_id":"","pricing_plan_id":"cebpf4jnsgd1na2vs0mg"},{"bike_id":"8df6e310-0880-40a9-a691-cd475dfa3928","system_id":"levelo_inurba_marseille","lat":43.285768,"lon":5.442471,"is_reserved":false,"is_disabled":false,"rental_uris":{"android":"levelo://app?vid=8df6e310-0880-40a9-a691-cd475dfa3928","ios":"levelo://app?vid=8df6e310-0880-40a9-a691-cd475dfa3928"},"vehicle_type_id":"4","last_reported":1746429068,"current_range_meters":2800,"station_id":"","pricing_plan_id":"cebpf4jnsgd1na2vs0mg"},{"bike_id":"fefd08ec-5881-4aed-9781-2a8173dd5fb9","system_id":"levelo_inurba_marseille","lat":43.29418,"lon":5.38256,"is_reserved":false,"is_disabled":false,"rental_uris":{"android":"levelo://app?vid=fefd08ec-5881-4aed-9781-2a8173dd5fb9","ios":"levelo://app?vid=fefd08ec-5881-4aed-9781-2a8173dd5fb9"},"vehicle_type_id":"4","last_reported":1746429068,"current_range_meters":2800,"station_id":"","pricing_plan_id":"cebpf4jnsgd1na2vs0mg"},{"bike_id":"904da2f3-38ec-4c15-a8af-e181b8005916","system_id":"levelo_inurba_marseille","lat":43.29891,"lon":5.38902,"is_reserved":false,"is_disabled":false,"rental_uris":{"android":"levelo://app?vid=904da2f3-38ec-4c15-a8af-e181b8005916","ios":"levelo://app?vid=904da2f3-38ec-4c15-a8af-e181b8005916"},"vehicle_type_id":"4","last_reported":1746429068,"current_range_meters":2800,"station_id":"ce4bh392rcd13ifvqdl0","pricing_plan_id":"cebpf4jnsgd1na2vs0mg"},{"bike_id":"1296afef-ba07-4745-83ee-8f1692e404fb","system_id":"levelo_inurba_marseille","lat":43.29036,"lon":5.37572,"is_reserved":false,"is_disabled":false,"rental_uris":{"android":"levelo://app?vid=1296afef-ba07-4745-83ee-8f1692e404fb","ios":"levelo://app?vid=1296afef-ba07-4745-83ee-8f1692e404fb"},"vehicle_type_id":"4","last_reported":1746429068,"current_range_meters":2800,"station_id":"ce4bh692rcd13ifvqe90","pricing_plan_id":"cebpf4jnsgd1na2vs0mg"},{"bike_id":"17cd42e0-f3d6-4b5d-a7a7-aae4daea5f81","system_id":"levelo_inurba_marseille","lat":43.211925,"lon":5.350785,"is_reserved":false,"is_disabled":false,"rental_uris":{"android":"levelo://app?vid=17cd42e0-f3d6-4b5d-a7a7-aae4daea5f81","ios":"levelo://app?vid=17cd42e0-f3d6-4b5d-a7a7-aae4daea5f81"},"vehicle_type_id":"4","last_reported":1746429068,"current_range_meters":3200,"station_id":"","pricing_plan_id":"cebpf4jnsgd1na2vs0mg"},{"bike_id":"8aac989b-dd52-4d93-a67f-e014cb35a4cf","system_id":"levelo_inurba_marseille","lat":43.28355,"lon":5.38102,"is_reserved":false,"is_disabled":false,"rental_uris":{"android":"levelo://app?vid=8aac989b-dd52-4d93-a67f-e014cb35a4cf","ios":"levelo://app?vid=8aac989b-dd52-4d93-a67f-e014cb35a4cf"},"vehicle_type_id":"4","last_reported":1746429068,"current_range_meters":3200,"station_id":"ce4bh412rcd13ifvqdr0","pricing_plan_id":"cebpf4jnsgd1na2vs0mg"},{"bike_id":"3ab3c86e-8d2f-4e36-8bad-85bca3eb2e34","system_id":"levelo_inurba_marseille","lat":43.21754,"lon":5.34573,"is_reserved":false,"is_disabled":false,"rental_uris":{"android":"levelo://app?vid=3ab3c86e-8d2f-4e36-8bad-85bca3eb2e34","ios":"levelo://app?vid=3ab3c86e-8d2f-4e36-8bad-85bca3eb2e34"},"vehicle_type_id":"4","last_reported":1746429068,"current_range_meters":3200,"station_id":"st_cvj6r9ubvosntc0bgbag","pricing_plan_id":"cebpf4jnsgd1na2vs0mg"},{"bike_id":"0c270d1c-37b1-48d4-87cb-6e5693fdfa70","system_id":"levelo_inurba_marseille","lat":43.24072,"lon":5.37763,"is_reserved":false,"is_disabled":false,"rental_uris":{"android":"levelo://app?vid=0c270d1c-37b1-48d4-87cb-6e5693fdfa70","ios":"levelo://app?vid=0c270d1c-37b1-48d4-87cb-6e5693fdfa70"},"vehicle_type_id":"4","last_reported":1746429068,"current_range_meters":4000,"station_id":"ce4bhnp2rcd13ifvqgvg","pricing_plan_id":"cebpf4jnsgd1na2vs0mg"},{"bike_id":"e9c24f3d-2135-45ef-8f3e-49aaf01d2847","system_id":"levelo_inurba_marseille","lat":43.2628,"lon":5.37474,"is_reserved":false,"is_disabled":false,"rental_uris":{"android":"levelo://app?vid=e9c24f3d-2135-45ef-8f3e-49aaf01d2847","ios":"levelo://app?vid=e9c24f3d-2135-45ef-8f3e-49aaf01d2847"},"vehicle_type_id":"4","last_reported":1746429068,"current_range_meters":4400,"station_id":"","pricing_plan_id":"cebpf4jnsgd1na2vs0mg"},{"bike_id":"735ced18-b136-4cb1-9e48-a29a6e9ad686","system_id":"levelo_inurba_marseille","lat":43.25719,"lon":5.41107,"is_reserved":false,"is_disabled":false,"rental_uris":{"android":"levelo://app?vid=735ced18-b136-4cb1-9e48-a29a6e9ad686","ios":"levelo://app?vid=735ced18-b136-4cb1-9e48-a29a6e9ad686"},"vehicle_type_id":"4","last_reported":1746429068,"current_range_meters":4400,"station_id":"ce4bhkp2rcd13ifvqgd0","pricing_plan_id":"cebpf4jnsgd1na2vs0mg"},{"bike_id":"97a157a8-485f-4ff1-ad7e-65a87dc55125","system_id":"levelo_inurba_marseille","lat":43.272162,"lon":5.410763,"is_reserved":false,"is_disabled":false,"rental_uris":{"android":"levelo://app?vid=97a157a8-485f-4ff1-ad7e-65a87dc55125","ios":"levelo://app?vid=97a157a8-485f-4ff1-ad7e-65a87dc55125"},"vehicle_type_id":"4","last_reported":1746429068,"current_range_meters":4400,"station_id":"ce4bhl12rcd13ifvqgf0","pricing_plan_id":"cebpf4jnsgd1na2vs0mg"},{"bike_id":"ee64fd8c-faa3-4107-a7d6-b5ab52a3bfeb","system_id":"levelo_inurba_marseille","lat":43.30917,"lon":5.3685,"is_reserved":false,"is_disabled":false,"rental_uris":{"android":"levelo://app?vid=ee64fd8c-faa3-4107-a7d6-b5ab52a3bfeb","ios":"levelo://app?vid=ee64fd8c-faa3-4107-a7d6-b5ab52a3bfeb"},"vehicle_type_id":"4","last_reported":1746429068,"current_range_meters":4800,"station_id":"ce4bgn92rcd13ifvqbvg","pricing_plan_id":"cebpf4jnsgd1na2vs0mg"},{"bike_id":"439e4105-849a-45e6-8497-faf7502b9224","system_id":"levelo_inurba_marseille","lat":43.30969,"lon":5.39035,"is_reserved":false,"is_disabled":false,"rental_uris":{"android":"levelo://app?vid=439e4105-849a-45e6-8497-faf7502b9224","ios":"levelo://app?vid=439e4105-849a-45e6-8497-faf7502b9224"},"vehicle_type_id":"4","last_reported":1746429068,"current_range_meters":4800,"station_id":"ce4bgup2rcd13ifvqco0","pricing_plan_id":"cebpf4jnsgd1na2vs0mg"},{"bike_id":"7f7138b9-0550-4c27-b6ac-ffcccf55da5e","system_id":"levelo_inurba_marseille","lat":43.26553,"lon":5.37284,"is_reserved":false,"is_disabled":false,"rental_uris":{"android":"levelo://app?vid=7f7138b9-0550-4c27-b6ac-ffcccf55da5e","ios":"levelo://app?vid=7f7138b9-0550-4c27-b6ac-ffcccf55da5e"},"vehicle_type_id":"4","last_reported":1746429068,"current_range_meters":4800,"station_id":"ce4bhg12rcd13ifvqf70","pricing_plan_id":"cebpf4jnsgd1na2vs0mg"},{"bike_id":"6c267926-d3ae-465b-ab08-7fd28ac529e0","system_id":"levelo_inurba_marseille","lat":43.2418,"lon":5.39728,"is_reserved":false,"is_disabled":false,"rental_uris":{"android":"levelo://app?vid=6c267926-d3ae-465b-ab08-7fd28ac529e0","ios":"levelo://app?vid=6c267926-d3ae-465b-ab08-7fd28ac529e0"},"vehicle_type_id":"4","last_reported":1746429068,"current_range_meters":4800,"station_id":"ce4bhn12rcd13ifvqgpg","pricing_plan_id":"cebpf4jnsgd1na2vs0mg"},{"bike_id":"6c9949a5-08b3-4f70-8646-e2ee22338a27","system_id":"levelo_inurba_marseille","lat":43.27393,"lon":5.39043,"is_reserved":false,"is_disabled":false,"rental_uris":{"android":"levelo://app?vid=6c9949a5-08b3-4f70-8646-e2ee22338a27","ios":"levelo://app?vid=6c9949a5-08b3-4f70-8646-e2ee22338a27"},"vehicle_type_id":"4","last_reported":1746429068,"current_range_meters":5600,"station_id":"","pricing_plan_id":"cebpf4jnsgd1na2vs0mg"},{"bike_id":"188b19a2-82b0-4973-ac05-60fb0b1f800d","system_id":"levelo_inurba_marseille","lat":43.26946,"lon":5.38631,"is_reserved":false,"is_disabled":false,"rental_uris":{"android":"levelo://app?vid=188b19a2-82b0-4973-ac05-60fb0b1f800d","ios":"levelo://app?vid=188b19a2-82b0-4973-ac05-60fb0b1f800d"},"vehicle_type_id":"4","last_reported":1746429068,"current_range_meters":5600,"station_id":"ce4bhh92rcd13ifvqfh0","pricing_plan_id":"cebpf4jnsgd1na2vs0mg"},{"bike_id":"4d9c785a-6a14-4f60-8bcb-eb74d56c9262","system_id":"levelo_inurba_marseille","lat":43.27123,"lon":5.42241,"is_reserved":false,"is_disabled":false,"rental_uris":{"android":"levelo://app?vid=4d9c785a-6a14-4f60-8bcb-eb74d56c9262","ios":"levelo://app?vid=4d9c785a-6a14-4f60-8bcb-eb74d56c9262"},"vehicle_type_id":"4","last_reported":1746429068,"current_range_meters":6000,"station_id":"","pricing_plan_id":"cebpf4jnsgd1na2vs0mg"},{"bike_id":"f56979cd-ee41-4894-9341-086b4077c3d1","system_id":"levelo_inurba_marseille","lat":43.30198,"lon":5.36616,"is_reserved":false,"is_disabled":false,"rental_uris":{"android":"levelo://app?vid=f56979cd-ee41-4894-9341-086b4077c3d1","ios":"levelo://app?vid=f56979cd-ee41-4894-9341-086b4077c3d1"},"vehicle_type_id":"4","last_reported":1746429068,"current_range_meters":6000,"station_id":"ce4bgrh2rcd13ifvqc8g","pricing_plan_id":"cebpf4jnsgd1na2vs0mg"},{"bike_id":"5c9dd6f7-5aa2-4737-aecd-852f9c336272","system_id":"levelo_inurba_marseille","lat":43.24679,"lon":5.38155,"is_reserved":false,"is_disabled":false,"rental_uris":{"android":"levelo://app?vid=5c9dd6f7-5aa2-4737-aecd-852f9c336272","ios":"levelo://app?vid=5c9dd6f7-5aa2-4737-aecd-852f9c336272"},"vehicle_type_id":"4","last_reported":1746429068,"current_range_meters":6000,"station_id":"ce4bhih2rcd13ifvqfr0","pricing_plan_id":"cebpf4jnsgd1na2vs0mg"},{"bike_id":"18539263-e890-4ff3-a47e-4358a385e3b0","system_id":"levelo_inurba_marseille","lat":43.29987,"lon":5.37175,"is_reserved":false,"is_disabled":false,"rental_uris":{"android":"levelo://app?vid=18539263-e890-4ff3-a47e-4358a385e3b0","ios":"levelo://app?vid=18539263-e890-4ff3-a47e-4358a385e3b0"},"vehicle_type_id":"4","last_reported":1746429068,"current_range_meters":6400,"station_id":"ce4bgr92rcd13ifvqc7g","pricing_plan_id":"cebpf4jnsgd1na2vs0mg"},{"bike_id":"6472e670-6d75-46d7-a613-2ce6ea87951e","system_id":"levelo_inurba_marseille","lat":43.29036,"lon":5.37569,"is_reserved":false,"is_disabled":false,"rental_uris":{"android":"levelo://app?vid=6472e670-6d75-46d7-a613-2ce6ea87951e","ios":"levelo://app?vid=6472e670-6d75-46d7-a613-2ce6ea87951e"},"vehicle_type_id":"4","last_reported":1746429068,"current_range_meters":6400,"station_id":"ce4bh692rcd13ifvqe90","pricing_plan_id":"cebpf4jnsgd1na2vs0mg"},{"bike_id":"a7cd7cac-5a32-4d14-92f2-2738618b7e69","system_id":"levelo_inurba_marseille","lat":43.2594,"lon":5.40911,"is_reserved":false,"is_disabled":false,"rental_uris":{"android":"levelo://app?vid=a7cd7cac-5a32-4d14-92f2-2738618b7e69","ios":"levelo://app?vid=a7cd7cac-5a32-4d14-92f2-2738618b7e69"},"vehicle_type_id":"4","last_reported":1746429068,"current_range_meters":6400,"station_id":"ce4bhm92rcd13ifvqglg","pricing_plan_id":"cebpf4jnsgd1na2vs0mg"},{"bike_id":"401cc479-1bac-40f0-a531-9f4b9cc18b25","system_id":"levelo_inurba_marseille","lat":43.27497,"lon":5.42466,"is_reserved":false,"is_disabled":false,"rental_uris":{"android":"levelo://app?vid=401cc479-1bac-40f0-a531-9f4b9cc18b25","ios":"levelo://app?vid=401cc479-1bac-40f0-a531-9f4b9cc18b25"},"vehicle_type_id":"4","last_reported":1746429068,"current_range_meters":6400,"station_id":"ce4bhn92rcd13ifvqgrg","pricing_plan_id":"cebpf4jnsgd1na2vs0mg"},{"bike_id":"994cb299-4d06-4ca1-9250-b738c867699f","system_id":"levelo_inurba_marseille","lat":43.24059,"lon":5.3775,"is_reserved":false,"is_disabled":false,"rental_uris":{"android":"levelo://app?vid=994cb299-4d06-4ca1-9250-b738c867699f","ios":"levelo://app?vid=994cb299-4d06-4ca1-9250-b738c867699f"},"vehicle_type_id":"4","last_reported":1746429068,"current_range_meters":6400,"station_id":"ce4bhnp2rcd13ifvqgvg","pricing_plan_id":"cebpf4jnsgd1na2vs0mg"},{"bike_id":"c53232e3-959a-449e-a738-36bdca657254","system_id":"levelo_inurba_marseille","lat":43.26688,"lon":5.3828,"is_reserved":false,"is_disabled":false,"rental_uris":{"android":"levelo://app?vid=c53232e3-959a-449e-a738-36bdca657254","ios":"levelo://app?vid=c53232e3-959a-449e-a738-36bdca657254"},"vehicle_type_id":"4","last_reported":1746429068,"current_range_meters":6800,"station_id":"ce4bhg92rcd13ifvqf90","pricing_plan_id":"cebpf4jnsgd1na2vs0mg"},{"bike_id":"404da817-f031-4950-ba8b-2104a38b67fb","system_id":"levelo_inurba_marseille","lat":43.271756,"lon":5.410028,"is_reserved":false,"is_disabled":false,"rental_uris":{"android":"levelo://app?vid=404da817-f031-4950-ba8b-2104a38b67fb","ios":"levelo://app?vid=404da817-f031-4950-ba8b-2104a38b67fb"},"vehicle_type_id":"4","last_reported":1746429068,"current_range_meters":6800,"station_id":"ce4bhl12rcd13ifvqgf0","pricing_plan_id":"cebpf4jnsgd1na2vs0mg"},{"bike_id":"30e9e160-dd44-4d8a-9f6b-462e00eb332a","system_id":"levelo_inurba_marseille","lat":43.275,"lon":5.42462,"is_reserved":false,"is_disabled":false,"rental_uris":{"android":"levelo://app?vid=30e9e160-dd44-4d8a-9f6b-462e00eb332a","ios":"levelo://app?vid=30e9e160-dd44-4d8a-9f6b-462e00eb332a"},"vehicle_type_id":"4","last_reported":1746429068,"current_range_meters":6800,"station_id":"ce4bhn92rcd13ifvqgrg","pricing_plan_id":"cebpf4jnsgd1na2vs0mg"},{"bike_id":"c7721381-4822-4e5c-b852-29469111a93d","system_id":"levelo_inurba_marseille","lat":43.24067,"lon":5.37766,"is_reserved":false,"is_disabled":false,"rental_uris":{"android":"levelo://app?vid=c7721381-4822-4e5c-b852-29469111a93d","ios":"levelo://app?vid=c7721381-4822-4e5c-b852-29469111a93d"},"vehicle_type_id":"4","last_reported":1746429068,"current_range_meters":6800,"station_id":"ce4bhnp2rcd13ifvqgvg","pricing_plan_id":"cebpf4jnsgd1na2vs0mg"},{"bike_id":"49c6181b-8f01-4828-a9e9-7d33a14e68c9","system_id":"levelo_inurba_marseille","lat":43.24083,"lon":5.37753,"is_reserved":false,"is_disabled":false,"rental_uris":{"android":"levelo://app?vid=49c6181b-8f01-4828-a9e9-7d33a14e68c9","ios":"levelo://app?vid=49c6181b-8f01-4828-a9e9-7d33a14e68c9"},"vehicle_type_id":"4","last_reported":1746429068,"current_range_meters":6800,"station_id":"ce4bhnp2rcd13ifvqgvg","pricing_plan_id":"cebpf4jnsgd1na2vs0mg"},{"bike_id":"ec93380d-7b90-4f55-954c-15196220a862","system_id":"levelo_inurba_marseille","lat":43.30533,"lon":5.36552,"is_reserved":false,"is_disabled":false,"rental_uris":{"android":"levelo://app?vid=ec93380d-7b90-4f55-954c-15196220a862","ios":"levelo://app?vid=ec93380d-7b90-4f55-954c-15196220a862"},"vehicle_type_id":"4","last_reported":1746429068,"current_range_meters":7200,"station_id":"ce4bgs12rcd13ifvqcag","pricing_plan_id":"cebpf4jnsgd1na2vs0mg"},{"bike_id":"6bfbb116-0497-430b-92bf-ec271b411f23","system_id":"levelo_inurba_marseille","lat":43.24402,"lon":5.37049,"is_reserved":false,"is_disabled":false,"rental_uris":{"android":"levelo://app?vid=6bfbb116-0497-430b-92bf-ec271b411f23","ios":"levelo://app?vid=6bfbb116-0497-430b-92bf-ec271b411f23"},"vehicle_type_id":"4","last_reported":1746429068,"current_range_meters":7200,"station_id":"ce4bhhh2rcd13ifvqfk0","pricing_plan_id":"cebpf4jnsgd1na2vs0mg"},{"bike_id":"51e137dc-06d4-4721-8a2f-24e002c6d5d0","system_id":"levelo_inurba_marseille","lat":43.2406,"lon":5.3774,"is_reserved":false,"is_disabled":false,"rental_uris":{"android":"levelo://app?vid=51e137dc-06d4-4721-8a2f-24e002c6d5d0","ios":"levelo://app?vid=51e137dc-06d4-4721-8a2f-24e002c6d5d0"},"vehicle_type_id":"4","last_reported":1746429068,"current_range_meters":7200,"station_id":"ce4bhnp2rcd13ifvqgvg","pricing_plan_id":"cebpf4jnsgd1na2vs0mg"},{"bike_id":"57ce2cb0-c1ee-48da-9f69-6cd6cf2307d5","system_id":"levelo_inurba_marseille","lat":43.30391,"lon":5.42477,"is_reserved":false,"is_disabled":false,"rental_uris":{"android":"levelo://app?vid=57ce2cb0-c1ee-48da-9f69-6cd6cf2307d5","ios":"levelo://app?vid=57ce2cb0-c1ee-48da-9f69-6cd6cf2307d5"},"vehicle_type_id":"4","last_reported":1746429068,"current_range_meters":7200,"station_id":"ce4bhoh2rcd13ifvqh6g","pricing_plan_id":"cebpf4jnsgd1na2vs0mg"},{"bike_id":"4e192de9-15c3-4b3f-b111-35f9533f5273","system_id":"levelo_inurba_marseille","lat":43.31083,"lon":5.42429,"is_reserved":false,"is_disabled":false,"rental_uris":{"android":"levelo://app?vid=4e192de9-15c3-4b3f-b111-35f9533f5273","ios":"levelo://app?vid=4e192de9-15c3-4b3f-b111-35f9533f5273"},"vehicle_type_id":"4","last_reported":1746429068,"current_range_meters":7200,"station_id":"ce4bhp92rcd13ifvqhag","pricing_plan_id":"cebpf4jnsgd1na2vs0mg"},{"bike_id":"5cb514da-8890-4dea-a26e-2faf3b2b093b","system_id":"levelo_inurba_marseille","lat":43.31088,"lon":5.42443,"is_reserved":false,"is_disabled":false,"rental_uris":{"android":"levelo://app?vid=5cb514da-8890-4dea-a26e-2faf3b2b093b","ios":"levelo://app?vid=5cb514da-8890-4dea-a26e-2faf3b2b093b"},"vehicle_type_id":"4","last_reported":1746429068,"current_range_meters":7200,"station_id":"ce4bhp92rcd13ifvqhag","pricing_plan_id":"cebpf4jnsgd1na2vs0mg"},{"bike_id":"d55c8237-2304-4efd-993e-dc727f0f1b6a","system_id":"levelo_inurba_marseille","lat":43.22506,"lon":5.34774,"is_reserved":false,"is_disabled":false,"rental_uris":{"android":"levelo://app?vid=d55c8237-2304-4efd-993e-dc727f0f1b6a","ios":"levelo://app?vid=d55c8237-2304-4efd-993e-dc727f0f1b6a"},"vehicle_type_id":"4","last_reported":1746429068,"current_range_meters":7200,"station_id":"st_cvj5dfep6f1abm77gieg","pricing_plan_id":"cebpf4jnsgd1na2vs0mg"},{"bike_id":"98c95373-3ba1-4376-995b-6af0d97c6f0a","system_id":"levelo_inurba_marseille","lat":43.28566,"lon":5.40063,"is_reserved":false,"is_disabled":false,"rental_uris":{"android":"levelo://app?vid=98c95373-3ba1-4376-995b-6af0d97c6f0a","ios":"levelo://app?vid=98c95373-3ba1-4376-995b-6af0d97c6f0a"},"vehicle_type_id":"4","last_reported":1746429068,"current_range_meters":8000,"station_id":"","pricing_plan_id":"cebpf4jnsgd1na2vs0mg"},{"bike_id":"09bf453b-83a3-4bd1-8bd1-c0e9b54e4cca","system_id":"levelo_inurba_marseille","lat":43.27502,"lon":5.42448,"is_reserved":false,"is_disabled":false,"rental_uris":{"android":"levelo://app?vid=09bf453b-83a3-4bd1-8bd1-c0e9b54e4cca","ios":"levelo://app?vid=09bf453b-83a3-4bd1-8bd1-c0e9b54e4cca"},"vehicle_type_id":"4","last_reported":1746429068,"current_range_meters":8000,"station_id":"ce4bhn92rcd13ifvqgrg","pricing_plan_id":"cebpf4jnsgd1na2vs0mg"},{"bike_id":"917d3dfe-fe05-4d62-b132-42ecb62bc09e","system_id":"levelo_inurba_marseille","lat":43.303515,"lon":5.42292,"is_reserved":false,"is_disabled":false,"rental_uris":{"android":"levelo://app?vid=917d3dfe-fe05-4d62-b132-42ecb62bc09e","ios":"levelo://app?vid=917d3dfe-fe05-4d62-b132-42ecb62bc09e"},"vehicle_type_id":"4","last_reported":1746429068,"current_range_meters":8000,"station_id":"ce4bhoh2rcd13ifvqh6g","pricing_plan_id":"cebpf4jnsgd1na2vs0mg"},{"bike_id":"aedf206f-89f3-4f30-9da6-56fb7ff8915b","system_id":"levelo_inurba_marseille","lat":43.281088,"lon":5.403936,"is_reserved":false,"is_disabled":false,"rental_uris":{"android":"levelo://app?vid=aedf206f-89f3-4f30-9da6-56fb7ff8915b","ios":"levelo://app?vid=aedf206f-89f3-4f30-9da6-56fb7ff8915b"},"vehicle_type_id":"4","last_reported":1746429068,"current_range_meters":8400,"station_id":"","pricing_plan_id":"cebpf4jnsgd1na2vs0mg"},{"bike_id":"d093ace3-d1b3-4c5a-8ce9-e4972a5f26f5","system_id":"levelo_inurba_marseille","lat":43.27496,"lon":5.42457,"is_reserved":false,"is_disabled":false,"rental_uris":{"android":"levelo://app?vid=d093ace3-d1b3-4c5a-8ce9-e4972a5f26f5","ios":"levelo://app?vid=d093ace3-d1b3-4c5a-8ce9-e4972a5f26f5"},"vehicle_type_id":"4","last_reported":1746429068,"current_range_meters":8400,"station_id":"ce4bhn92rcd13ifvqgrg","pricing_plan_id":"cebpf4jnsgd1na2vs0mg"},{"bike_id":"bd278318-d5f1-4ccf-9ac5-893e7bd91ba3","system_id":"levelo_inurba_marseille","lat":43.323656,"lon":5.367656,"is_reserved":false,"is_disabled":false,"rental_uris":{"android":"levelo://app?vid=bd278318-d5f1-4ccf-9ac5-893e7bd91ba3","ios":"levelo://app?vid=bd278318-d5f1-4ccf-9ac5-893e7bd91ba3"},"vehicle_type_id":"4","last_reported":1746429068,"current_range_meters":8400,"station_id":"ce4bhsh2rcd13ifvqi2g","pricing_plan_id":"cebpf4jnsgd1na2vs0mg"},{"bike_id":"2f131fd0-e1be-4ccc-a311-f28c7924de44","system_id":"levelo_inurba_marseille","lat":43.26787,"lon":5.39417,"is_reserved":false,"is_disabled":false,"rental_uris":{"android":"levelo://app?vid=2f131fd0-e1be-4ccc-a311-f28c7924de44","ios":"levelo://app?vid=2f131fd0-e1be-4ccc-a311-f28c7924de44"},"vehicle_type_id":"4","last_reported":1746429068,"current_range_meters":8800,"station_id":"ce4bhh12rcd13ifvqfg0","pricing_plan_id":"cebpf4jnsgd1na2vs0mg"},{"bike_id":"77e5fc0c-8247-4eae-976e-b65c5c479c47","system_id":"levelo_inurba_marseille","lat":43.24401,"lon":5.3706,"is_reserved":false,"is_disabled":false,"rental_uris":{"android":"levelo://app?vid=77e5fc0c-8247-4eae-976e-b65c5c479c47","ios":"levelo://app?vid=77e5fc0c-8247-4eae-976e-b65c5c479c47"},"vehicle_type_id":"4","last_reported":1746429068,"current_range_meters":8800,"station_id":"ce4bhhh2rcd13ifvqfk0","pricing_plan_id":"cebpf4jnsgd1na2vs0mg"},{"bike_id":"2a0baa54-a4a1-49ca-a07b-b1778b885a9f","system_id":"levelo_inurba_marseille","lat":43.24167,"lon":5.39736,"is_reserved":false,"is_disabled":false,"rental_uris":{"android":"levelo://app?vid=2a0baa54-a4a1-49ca-a07b-b1778b885a9f","ios":"levelo://app?vid=2a0baa54-a4a1-49ca-a07b-b1778b885a9f"},"vehicle_type_id":"4","last_reported":1746429068,"current_range_meters":8800,"station_id":"ce4bhn12rcd13ifvqgpg","pricing_plan_id":"cebpf4jnsgd1na2vs0mg"},{"bike_id":"f09c17ff-e87d-444e-8d6d-d04c240314cb","system_id":"levelo_inurba_marseille","lat":43.30942,"lon":5.39039,"is_reserved":false,"is_disabled":false,"rental_uris":{"android":"levelo://app?vid=f09c17ff-e87d-444e-8d6d-d04c240314cb","ios":"levelo://app?vid=f09c17ff-e87d-444e-8d6d-d04c240314cb"},"vehicle_type_id":"4","last_reported":1746429068,"current_range_meters":9200,"station_id":"","pricing_plan_id":"cebpf4jnsgd1na2vs0mg"},{"bike_id":"26041b1f-bf05-4248-b8f5-229a08c6e70f","system_id":"levelo_inurba_marseille","lat":43.28449,"lon":5.431875,"is_reserved":false,"is_disabled":false,"rental_uris":{"android":"levelo://app?vid=26041b1f-bf05-4248-b8f5-229a08c6e70f","ios":"levelo://app?vid=26041b1f-bf05-4248-b8f5-229a08c6e70f"},"vehicle_type_id":"4","last_reported":1746429068,"current_range_meters":9200,"station_id":"","pricing_plan_id":"cebpf4jnsgd1na2vs0mg"},{"bike_id":"11e449b2-acad-4b2b-b811-47bd1346b7a8","system_id":"levelo_inurba_marseille","lat":43.24415,"lon":5.37048,"is_reserved":false,"is_disabled":false,"rental_uris":{"android":"levelo://app?vid=11e449b2-acad-4b2b-b811-47bd1346b7a8","ios":"levelo://app?vid=11e449b2-acad-4b2b-b811-47bd1346b7a8"},"vehicle_type_id":"4","last_reported":1746429068,"current_range_meters":9200,"station_id":"ce4bhhh2rcd13ifvqfk0","pricing_plan_id":"cebpf4jnsgd1na2vs0mg"},{"bike_id":"b8ebe123-18b6-4e5d-addb-12ec10c089ac","system_id":"levelo_inurba_marseille","lat":43.32177,"lon":5.36766,"is_reserved":false,"is_disabled":false,"rental_uris":{"android":"levelo://app?vid=b8ebe123-18b6-4e5d-addb-12ec10c089ac","ios":"levelo://app?vid=b8ebe123-18b6-4e5d-addb-12ec10c089ac"},"vehicle_type_id":"4","last_reported":1746429068,"current_range_meters":9600,"station_id":"","pricing_plan_id":"cebpf4jnsgd1na2vs0mg"},{"bike_id":"0bc49e2f-6d49-432e-8ecb-e635f17b3817","system_id":"levelo_inurba_marseille","lat":43.26229,"lon":5.40445,"is_reserved":false,"is_disabled":false,"rental_uris":{"android":"levelo://app?vid=0bc49e2f-6d49-432e-8ecb-e635f17b3817","ios":"levelo://app?vid=0bc49e2f-6d49-432e-8ecb-e635f17b3817"},"vehicle_type_id":"4","last_reported":1746429068,"current_range_meters":9600,"station_id":"ce4bhmh2rcd13ifvqgmg","pricing_plan_id":"cebpf4jnsgd1na2vs0mg"},{"bike_id":"cec02868-da4c-46a9-bbda-15dc1c82835b","system_id":"levelo_inurba_marseille","lat":43.23151,"lon":5.43726,"is_reserved":false,"is_disabled":false,"rental_uris":{"android":"levelo://app?vid=cec02868-da4c-46a9-bbda-15dc1c82835b","ios":"levelo://app?vid=cec02868-da4c-46a9-bbda-15dc1c82835b"},"vehicle_type_id":"4","last_reported":1746429068,"current_range_meters":9600,"station_id":"ce4bhmp2rcd13ifvqgog","pricing_plan_id":"cebpf4jnsgd1na2vs0mg"},{"bike_id":"10fa59ce-c249-4991-8845-0acc789b9453","system_id":"levelo_inurba_marseille","lat":43.24185,"lon":5.39716,"is_reserved":false,"is_disabled":false,"rental_uris":{"android":"levelo://app?vid=10fa59ce-c249-4991-8845-0acc789b9453","ios":"levelo://app?vid=10fa59ce-c249-4991-8845-0acc789b9453"},"vehicle_type_id":"4","last_reported":1746429068,"current_range_meters":9600,"station_id":"ce4bhn12rcd13ifvqgpg","pricing_plan_id":"cebpf4jnsgd1na2vs0mg"},{"bike_id":"40b796b3-3168-4979-ab11-fe3c17a90ad2","system_id":"levelo_inurba_marseille","lat":43.27505,"lon":5.42461,"is_reserved":false,"is_disabled":false,"rental_uris":{"android":"levelo://app?vid=40b796b3-3168-4979-ab11-fe3c17a90ad2","ios":"levelo://app?vid=40b796b3-3168-4979-ab11-fe3c17a90ad2"},"vehicle_type_id":"4","last_reported":1746429068,"current_range_meters":9600,"station_id":"ce4bhn92rcd13ifvqgrg","pricing_plan_id":"cebpf4jnsgd1na2vs0mg"},{"bike_id":"21d658eb-7b58-4380-a350-e1f94b4b0e20","system_id":"levelo_inurba_marseille","lat":43.32538,"lon":5.41426,"is_reserved":false,"is_disabled":false,"rental_uris":{"android":"levelo://app?vid=21d658eb-7b58-4380-a350-e1f94b4b0e20","ios":"levelo://app?vid=21d658eb-7b58-4380-a350-e1f94b4b0e20"},"vehicle_type_id":"4","last_reported":1746429068,"current_range_meters":9600,"station_id":"ce4bhq12rcd13ifvqhhg","pricing_plan_id":"cebpf4jnsgd1na2vs0mg"},{"bike_id":"e6a7b0e6-b96e-4491-9dad-1722052aca3b","system_id":"levelo_inurba_marseille","lat":43.2747,"lon":5.4234,"is_reserved":false,"is_disabled":false,"rental_uris":{"android":"levelo://app?vid=e6a7b0e6-b96e-4491-9dad-1722052aca3b","ios":"levelo://app?vid=e6a7b0e6-b96e-4491-9dad-1722052aca3b"},"vehicle_type_id":"4","last_reported":1746429068,"current_range_meters":10000,"station_id":"","pricing_plan_id":"cebpf4jnsgd1na2vs0mg"},{"bike_id":"11eef216-7e8f-4889-ba47-3ce5dbf772e4","system_id":"levelo_inurba_marseille","lat":43.30276,"lon":5.37715,"is_reserved":false,"is_disabled":false,"rental_uris":{"android":"levelo://app?vid=11eef216-7e8f-4889-ba47-3ce5dbf772e4","ios":"levelo://app?vid=11eef216-7e8f-4889-ba47-3ce5dbf772e4"},"vehicle_type_id":"4","last_reported":1746429068,"current_range_meters":10000,"station_id":"ce4bguh2rcd13ifvqcj0","pricing_plan_id":"cebpf4jnsgd1na2vs0mg"},{"bike_id":"ea356f0d-ac09-41bd-ad7f-6aa844ff8cc2","system_id":"levelo_inurba_marseille","lat":43.26221,"lon":5.40454,"is_reserved":false,"is_disabled":false,"rental_uris":{"android":"levelo://app?vid=ea356f0d-ac09-41bd-ad7f-6aa844ff8cc2","ios":"levelo://app?vid=ea356f0d-ac09-41bd-ad7f-6aa844ff8cc2"},"vehicle_type_id":"4","last_reported":1746429068,"current_range_meters":10000,"station_id":"ce4bhmh2rcd13ifvqgmg","pricing_plan_id":"cebpf4jnsgd1na2vs0mg"},{"bike_id":"e84eee43-7ebe-4b56-a08b-27d6e58561fd","system_id":"levelo_inurba_marseille","lat":43.24253,"lon":5.39833,"is_reserved":false,"is_disabled":false,"rental_uris":{"android":"levelo://app?vid=e84eee43-7ebe-4b56-a08b-27d6e58561fd","ios":"levelo://app?vid=e84eee43-7ebe-4b56-a08b-27d6e58561fd"},"vehicle_type_id":"4","last_reported":1746429068,"current_range_meters":10000,"station_id":"ce4bhn12rcd13ifvqgpg","pricing_plan_id":"cebpf4jnsgd1na2vs0mg"},{"bike_id":"88bd25bc-264b-48fe-9fc6-e9c707f75094","system_id":"levelo_inurba_marseille","lat":43.27492,"lon":5.42449,"is_reserved":false,"is_disabled":false,"rental_uris":{"android":"levelo://app?vid=88bd25bc-264b-48fe-9fc6-e9c707f75094","ios":"levelo://app?vid=88bd25bc-264b-48fe-9fc6-e9c707f75094"},"vehicle_type_id":"4","last_reported":1746429068,"current_range_meters":10800,"station_id":"ce4bhn92rcd13ifvqgrg","pricing_plan_id":"cebpf4jnsgd1na2vs0mg"},{"bike_id":"5e56e552-fad4-4e39-b928-1b78c88ca25f","system_id":"levelo_inurba_marseille","lat":43.240853,"lon":5.377467,"is_reserved":false,"is_disabled":false,"rental_uris":{"android":"levelo://app?vid=5e56e552-fad4-4e39-b928-1b78c88ca25f","ios":"levelo://app?vid=5e56e552-fad4-4e39-b928-1b78c88ca25f"},"vehicle_type_id":"4","last_reported":1746429068,"current_range_meters":10800,"station_id":"ce4bhnp2rcd13ifvqgvg","pricing_plan_id":"cebpf4jnsgd1na2vs0mg"},{"bike_id":"43f220ab-0408-46b3-abe5-60437ce3bc1e","system_id":"levelo_inurba_marseille","lat":43.231896,"lon":5.355592,"is_reserved":false,"is_disabled":false,"rental_uris":{"android":"levelo://app?vid=43f220ab-0408-46b3-abe5-60437ce3bc1e","ios":"levelo://app?vid=43f220ab-0408-46b3-abe5-60437ce3bc1e"},"vehicle_type_id":"4","last_reported":1746429068,"current_range_meters":10800,"station_id":"ce4bhu92rcd13ifvqi70","pricing_plan_id":"cebpf4jnsgd1na2vs0mg"},{"bike_id":"999d5d04-dc79-42e0-b674-fb08865a0e39","system_id":"levelo_inurba_marseille","lat":43.31883,"lon":5.40739,"is_reserved":false,"is_disabled":false,"rental_uris":{"android":"levelo://app?vid=999d5d04-dc79-42e0-b674-fb08865a0e39","ios":"levelo://app?vid=999d5d04-dc79-42e0-b674-fb08865a0e39"},"vehicle_type_id":"4","last_reported":1746429068,"current_range_meters":11200,"station_id":"ce4bhq12rcd13ifvqhig","pricing_plan_id":"cebpf4jnsgd1na2vs0mg"},{"bike_id":"f82da221-9da0-4961-ba2c-086a8895ab5a","system_id":"levelo_inurba_marseille","lat":43.29723,"lon":5.37687,"is_reserved":false,"is_disabled":false,"rental_uris":{"android":"levelo://app?vid=f82da221-9da0-4961-ba2c-086a8895ab5a","ios":"levelo://app?vid=f82da221-9da0-4961-ba2c-086a8895ab5a"},"vehicle_type_id":"4","last_reported":1746429068,"current_range_meters":11600,"station_id":"ce4bgkh2rcd13ifvqbl0","pricing_plan_id":"cebpf4jnsgd1na2vs0mg"},{"bike_id":"578732df-51ae-47a2-8d9a-a3a489ba150f","system_id":"levelo_inurba_marseille","lat":43.29565,"lon":5.4226,"is_reserved":false,"is_disabled":false,"rental_uris":{"android":"levelo://app?vid=578732df-51ae-47a2-8d9a-a3a489ba150f","ios":"levelo://app?vid=578732df-51ae-47a2-8d9a-a3a489ba150f"},"vehicle_type_id":"4","last_reported":1746429068,"current_range_meters":11600,"station_id":"ce4bhph2rcd13ifvqhdg","pricing_plan_id":"cebpf4jnsgd1na2vs0mg"},{"bike_id":"565e5ae1-d8be-40dd-b6a5-a2b43a133388","system_id":"levelo_inurba_marseille","lat":43.30891,"lon":5.3719,"is_reserved":false,"is_disabled":false,"rental_uris":{"android":"levelo://app?vid=565e5ae1-d8be-40dd-b6a5-a2b43a133388","ios":"levelo://app?vid=565e5ae1-d8be-40dd-b6a5-a2b43a133388"},"vehicle_type_id":"4","last_reported":1746429068,"current_range_meters":12000,"station_id":"ce4bguh2rcd13ifvqckg","pricing_plan_id":"cebpf4jnsgd1na2vs0mg"},{"bike_id":"f3b63c94-4ac9-4e75-8b87-9174e4f7ecb5","system_id":"levelo_inurba_marseille","lat":43.30895,"lon":5.36837,"is_reserved":false,"is_disabled":false,"rental_uris":{"android":"levelo://app?vid=f3b63c94-4ac9-4e75-8b87-9174e4f7ecb5","ios":"levelo://app?vid=f3b63c94-4ac9-4e75-8b87-9174e4f7ecb5"},"vehicle_type_id":"4","last_reported":1746429068,"current_range_meters":12400,"station_id":"ce4bgn92rcd13ifvqbvg","pricing_plan_id":"cebpf4jnsgd1na2vs0mg"},{"bike_id":"66e9dc35-79ab-4074-a3e5-3218893c2258","system_id":"levelo_inurba_marseille","lat":43.30931,"lon":5.37182,"is_reserved":false,"is_disabled":false,"rental_uris":{"android":"levelo://app?vid=66e9dc35-79ab-4074-a3e5-3218893c2258","ios":"levelo://app?vid=66e9dc35-79ab-4074-a3e5-3218893c2258"},"vehicle_type_id":"4","last_reported":1746429068,"current_range_meters":12400,"station_id":"ce4bguh2rcd13ifvqckg","pricing_plan_id":"cebpf4jnsgd1na2vs0mg"},{"bike_id":"0f8b00dd-02cc-4427-85a8-06040fbf5eb9","system_id":"levelo_inurba_marseille","lat":43.23186,"lon":5.3999,"is_reserved":false,"is_disabled":false,"rental_uris":{"android":"levelo://app?vid=0f8b00dd-02cc-4427-85a8-06040fbf5eb9","ios":"levelo://app?vid=0f8b00dd-02cc-4427-85a8-06040fbf5eb9"},"vehicle_type_id":"4","last_reported":1746429068,"current_range_meters":12400,"station_id":"ce4bhn12rcd13ifvqgqg","pricing_plan_id":"cebpf4jnsgd1na2vs0mg"},{"bike_id":"6541fd63-6c6b-4f6b-b5ad-83b6829727f2","system_id":"levelo_inurba_marseille","lat":43.27485,"lon":5.4246,"is_reserved":false,"is_disabled":false,"rental_uris":{"android":"levelo://app?vid=6541fd63-6c6b-4f6b-b5ad-83b6829727f2","ios":"levelo://app?vid=6541fd63-6c6b-4f6b-b5ad-83b6829727f2"},"vehicle_type_id":"4","last_reported":1746429068,"current_range_meters":12800,"station_id":"ce4bhn92rcd13ifvqgrg","pricing_plan_id":"cebpf4jnsgd1na2vs0mg"},{"bike_id":"4b26eea2-1003-47cb-947f-d6f76a5c0c89","system_id":"levelo_inurba_marseille","lat":43.320972,"lon":5.367753,"is_reserved":false,"is_disabled":false,"rental_uris":{"android":"levelo://app?vid=4b26eea2-1003-47cb-947f-d6f76a5c0c89","ios":"levelo://app?vid=4b26eea2-1003-47cb-947f-d6f76a5c0c89"},"vehicle_type_id":"4","last_reported":1746429068,"current_range_meters":12800,"station_id":"ce4bhrh2rcd13ifvqhug","pricing_plan_id":"cebpf4jnsgd1na2vs0mg"},{"bike_id":"d342a70b-0490-4dea-b796-15cb5536d152","system_id":"levelo_inurba_marseille","lat":43.32091,"lon":5.36795,"is_reserved":false,"is_disabled":false,"rental_uris":{"android":"levelo://app?vid=d342a70b-0490-4dea-b796-15cb5536d152","ios":"levelo://app?vid=d342a70b-0490-4dea-b796-15cb5536d152"},"vehicle_type_id":"4","last_reported":1746429068,"current_range_meters":12800,"station_id":"ce4bhrh2rcd13ifvqhug","pricing_plan_id":"cebpf4jnsgd1na2vs0mg"},{"bike_id":"fdd57315-9847-491f-93f0-1a6aad4ba1d7","system_id":"levelo_inurba_marseille","lat":43.316853,"lon":5.404633,"is_reserved":false,"is_disabled":false,"rental_uris":{"android":"levelo://app?vid=fdd57315-9847-491f-93f0-1a6aad4ba1d7","ios":"levelo://app?vid=fdd57315-9847-491f-93f0-1a6aad4ba1d7"},"vehicle_type_id":"4","last_reported":1746429068,"current_range_meters":13600,"station_id":"ce4bh012rcd13ifvqd00","pricing_plan_id":"cebpf4jnsgd1na2vs0mg"},{"bike_id":"0dbe3dde-cc75-4fa3-88a8-bf4884d4c18e","system_id":"levelo_inurba_marseille","lat":43.24398,"lon":5.3706,"is_reserved":false,"is_disabled":false,"rental_uris":{"android":"levelo://app?vid=0dbe3dde-cc75-4fa3-88a8-bf4884d4c18e","ios":"levelo://app?vid=0dbe3dde-cc75-4fa3-88a8-bf4884d4c18e"},"vehicle_type_id":"4","last_reported":1746429068,"current_range_meters":13600,"station_id":"ce4bhhh2rcd13ifvqfk0","pricing_plan_id":"cebpf4jnsgd1na2vs0mg"},{"bike_id":"cb0a7ff5-b4ff-4d3e-8306-c149ade4bdfb","system_id":"levelo_inurba_marseille","lat":43.272145,"lon":5.39195,"is_reserved":false,"is_disabled":false,"rental_uris":{"android":"levelo://app?vid=cb0a7ff5-b4ff-4d3e-8306-c149ade4bdfb","ios":"levelo://app?vid=cb0a7ff5-b4ff-4d3e-8306-c149ade4bdfb"},"vehicle_type_id":"4","last_reported":1746429068,"current_range_meters":13600,"station_id":"ce4bhhp2rcd13ifvqfm0","pricing_plan_id":"cebpf4jnsgd1na2vs0mg"},{"bike_id":"bb0d5e0e-5e3b-4dfa-bd76-d908f509bad1","system_id":"levelo_inurba_marseille","lat":43.27512,"lon":5.42478,"is_reserved":false,"is_disabled":false,"rental_uris":{"android":"levelo://app?vid=bb0d5e0e-5e3b-4dfa-bd76-d908f509bad1","ios":"levelo://app?vid=bb0d5e0e-5e3b-4dfa-bd76-d908f509bad1"},"vehicle_type_id":"4","last_reported":1746429068,"current_range_meters":14000,"station_id":"ce4bhn92rcd13ifvqgrg","pricing_plan_id":"cebpf4jnsgd1na2vs0mg"},{"bike_id":"052ae931-d246-417f-a779-9d77ffcefbbe","system_id":"levelo_inurba_marseille","lat":43.27499,"lon":5.42451,"is_reserved":false,"is_disabled":false,"rental_uris":{"android":"levelo://app?vid=052ae931-d246-417f-a779-9d77ffcefbbe","ios":"levelo://app?vid=052ae931-d246-417f-a779-9d77ffcefbbe"},"vehicle_type_id":"4","last_reported":1746429068,"current_range_meters":14000,"station_id":"ce4bhn92rcd13ifvqgrg","pricing_plan_id":"cebpf4jnsgd1na2vs0mg"},{"bike_id":"6d778b8d-a86d-425d-866d-3c1461659aed","system_id":"levelo_inurba_marseille","lat":43.24097,"lon":5.37731,"is_reserved":false,"is_disabled":false,"rental_uris":{"android":"levelo://app?vid=6d778b8d-a86d-425d-866d-3c1461659aed","ios":"levelo://app?vid=6d778b8d-a86d-425d-866d-3c1461659aed"},"vehicle_type_id":"4","last_reported":1746429068,"current_range_meters":14000,"station_id":"ce4bhnp2rcd13ifvqgvg","pricing_plan_id":"cebpf4jnsgd1na2vs0mg"},{"bike_id":"cffbacbf-4858-4766-9076-5a03ad48e077","system_id":"levelo_inurba_marseille","lat":43.24063,"lon":5.37752,"is_reserved":false,"is_disabled":false,"rental_uris":{"android":"levelo://app?vid=cffbacbf-4858-4766-9076-5a03ad48e077","ios":"levelo://app?vid=cffbacbf-4858-4766-9076-5a03ad48e077"},"vehicle_type_id":"4","last_reported":1746429068,"current_range_meters":14000,"station_id":"ce4bhnp2rcd13ifvqgvg","pricing_plan_id":"cebpf4jnsgd1na2vs0mg"},{"bike_id":"1885e4e4-787e-4399-a182-13afb5671e8f","system_id":"levelo_inurba_marseille","lat":43.31782,"lon":5.39087,"is_reserved":false,"is_disabled":false,"rental_uris":{"android":"levelo://app?vid=1885e4e4-787e-4399-a182-13afb5671e8f","ios":"levelo://app?vid=1885e4e4-787e-4399-a182-13afb5671e8f"},"vehicle_type_id":"4","last_reported":1746429068,"current_range_meters":14400,"station_id":"","pricing_plan_id":"cebpf4jnsgd1na2vs0mg"},{"bike_id":"3ff1331f-d2b9-4db6-9af0-17b5a04341a5","system_id":"levelo_inurba_marseille","lat":43.24322,"lon":5.38008,"is_reserved":false,"is_disabled":false,"rental_uris":{"android":"levelo://app?vid=3ff1331f-d2b9-4db6-9af0-17b5a04341a5","ios":"levelo://app?vid=3ff1331f-d2b9-4db6-9af0-17b5a04341a5"},"vehicle_type_id":"4","last_reported":1746429068,"current_range_meters":14800,"station_id":"","pricing_plan_id":"cebpf4jnsgd1na2vs0mg"},{"bike_id":"a7393548-1ca4-426f-bec8-e094325f844e","system_id":"levelo_inurba_marseille","lat":43.26265,"lon":5.37439,"is_reserved":false,"is_disabled":false,"rental_uris":{"android":"levelo://app?vid=a7393548-1ca4-426f-bec8-e094325f844e","ios":"levelo://app?vid=a7393548-1ca4-426f-bec8-e094325f844e"},"vehicle_type_id":"4","last_reported":1746429068,"current_range_meters":15200,"station_id":"","pricing_plan_id":"cebpf4jnsgd1na2vs0mg"},{"bike_id":"d252a272-7b85-44ee-b117-a17b072d1a91","system_id":"levelo_inurba_marseille","lat":43.21791,"lon":5.34592,"is_reserved":false,"is_disabled":false,"rental_uris":{"android":"levelo://app?vid=d252a272-7b85-44ee-b117-a17b072d1a91","ios":"levelo://app?vid=d252a272-7b85-44ee-b117-a17b072d1a91"},"vehicle_type_id":"4","last_reported":1746429068,"current_range_meters":15200,"station_id":"","pricing_plan_id":"cebpf4jnsgd1na2vs0mg"},{"bike_id":"89c1c22e-4deb-4a12-b25d-9d0f09a1f79b","system_id":"levelo_inurba_marseille","lat":43.21771,"lon":5.34602,"is_reserved":false,"is_disabled":false,"rental_uris":{"android":"levelo://app?vid=89c1c22e-4deb-4a12-b25d-9d0f09a1f79b","ios":"levelo://app?vid=89c1c22e-4deb-4a12-b25d-9d0f09a1f79b"},"vehicle_type_id":"4","last_reported":1746429068,"current_range_meters":15200,"station_id":"st_cvj6r9ubvosntc0bgbag","pricing_plan_id":"cebpf4jnsgd1na2vs0mg"},{"bike_id":"574f9534-6b0b-43b3-a942-c6870095631b","system_id":"levelo_inurba_marseille","lat":43.285945,"lon":5.37075,"is_reserved":false,"is_disabled":false,"rental_uris":{"android":"levelo://app?vid=574f9534-6b0b-43b3-a942-c6870095631b","ios":"levelo://app?vid=574f9534-6b0b-43b3-a942-c6870095631b"},"vehicle_type_id":"4","last_reported":1746429068,"current_range_meters":16400,"station_id":"","pricing_plan_id":"cebpf4jnsgd1na2vs0mg"},{"bike_id":"0e42e81c-9a07-4a97-bdd7-e94210c258de","system_id":"levelo_inurba_marseille","lat":43.245842,"lon":5.404925,"is_reserved":false,"is_disabled":false,"rental_uris":{"android":"levelo://app?vid=0e42e81c-9a07-4a97-bdd7-e94210c258de","ios":"levelo://app?vid=0e42e81c-9a07-4a97-bdd7-e94210c258de"},"vehicle_type_id":"4","last_reported":1746429068,"current_range_meters":16400,"station_id":"","pricing_plan_id":"cebpf4jnsgd1na2vs0mg"},{"bike_id":"f6990bbf-7200-4595-9d3c-805bae17a99e","system_id":"levelo_inurba_marseille","lat":43.22504,"lon":5.34785,"is_reserved":false,"is_disabled":false,"rental_uris":{"android":"levelo://app?vid=f6990bbf-7200-4595-9d3c-805bae17a99e","ios":"levelo://app?vid=f6990bbf-7200-4595-9d3c-805bae17a99e"},"vehicle_type_id":"4","last_reported":1746429068,"current_range_meters":16400,"station_id":"","pricing_plan_id":"cebpf4jnsgd1na2vs0mg"},{"bike_id":"36839d2f-f3fb-4ae5-87d2-3bdb958b3981","system_id":"levelo_inurba_marseille","lat":43.26194,"lon":5.3793,"is_reserved":false,"is_disabled":false,"rental_uris":{"android":"levelo://app?vid=36839d2f-f3fb-4ae5-87d2-3bdb958b3981","ios":"levelo://app?vid=36839d2f-f3fb-4ae5-87d2-3bdb958b3981"},"vehicle_type_id":"4","last_reported":1746429068,"current_range_meters":16400,"station_id":"ce4bhjp2rcd13ifvqg90","pricing_plan_id":"cebpf4jnsgd1na2vs0mg"},{"bike_id":"db0e0ddb-0230-4f44-ba3e-6dcb98b952cd","system_id":"levelo_inurba_marseille","lat":43.231939,"lon":5.355619,"is_reserved":false,"is_disabled":false,"rental_uris":{"android":"levelo://app?vid=db0e0ddb-0230-4f44-ba3e-6dcb98b952cd","ios":"levelo://app?vid=db0e0ddb-0230-4f44-ba3e-6dcb98b952cd"},"vehicle_type_id":"4","last_reported":1746429068,"current_range_meters":16400,"station_id":"ce4bhu92rcd13ifvqi70","pricing_plan_id":"cebpf4jnsgd1na2vs0mg"},{"bike_id":"49110bfb-6f6c-4de8-b19f-6edc8de53d84","system_id":"levelo_inurba_marseille","lat":43.31341,"lon":5.36723,"is_reserved":false,"is_disabled":false,"rental_uris":{"android":"levelo://app?vid=49110bfb-6f6c-4de8-b19f-6edc8de53d84","ios":"levelo://app?vid=49110bfb-6f6c-4de8-b19f-6edc8de53d84"},"vehicle_type_id":"4","last_reported":1746429068,"current_range_meters":16800,"station_id":"ce4bgr92rcd13ifvqc6g","pricing_plan_id":"cebpf4jnsgd1na2vs0mg"},{"bike_id":"9f977756-2a18-487d-83f5-77ee142fe9f3","system_id":"levelo_inurba_marseille","lat":43.26207,"lon":5.37937,"is_reserved":false,"is_disabled":false,"rental_uris":{"android":"levelo://app?vid=9f977756-2a18-487d-83f5-77ee142fe9f3","ios":"levelo://app?vid=9f977756-2a18-487d-83f5-77ee142fe9f3"},"vehicle_type_id":"4","last_reported":1746429068,"current_range_meters":16800,"station_id":"ce4bhjp2rcd13ifvqg90","pricing_plan_id":"cebpf4jnsgd1na2vs0mg"},{"bike_id":"bbba4a42-41f1-4d4c-a0ec-15062e1d6496","system_id":"levelo_inurba_marseille","lat":43.308032,"lon":5.435333,"is_reserved":false,"is_disabled":false,"rental_uris":{"android":"levelo://app?vid=bbba4a42-41f1-4d4c-a0ec-15062e1d6496","ios":"levelo://app?vid=bbba4a42-41f1-4d4c-a0ec-15062e1d6496"},"vehicle_type_id":"4","last_reported":1746429068,"current_range_meters":16800,"station_id":"ce4bhph2rcd13ifvqheg","pricing_plan_id":"cebpf4jnsgd1na2vs0mg"},{"bike_id":"1e787ecd-2869-4a0d-8ca0-8671348ec2f2","system_id":"levelo_inurba_marseille","lat":43.33612,"lon":5.41029,"is_reserved":false,"is_disabled":false,"rental_uris":{"android":"levelo://app?vid=1e787ecd-2869-4a0d-8ca0-8671348ec2f2","ios":"levelo://app?vid=1e787ecd-2869-4a0d-8ca0-8671348ec2f2"},"vehicle_type_id":"4","last_reported":1746429068,"current_range_meters":16800,"station_id":"ce4bhqh2rcd13ifvqhmg","pricing_plan_id":"cebpf4jnsgd1na2vs0mg"},{"bike_id":"e1d15e84-d6fb-420d-9d5f-fbfefb0e382f","system_id":"levelo_inurba_marseille","lat":43.2898,"lon":5.37833,"is_reserved":false,"is_disabled":false,"rental_uris":{"android":"levelo://app?vid=e1d15e84-d6fb-420d-9d5f-fbfefb0e382f","ios":"levelo://app?vid=e1d15e84-d6fb-420d-9d5f-fbfefb0e382f"},"vehicle_type_id":"4","last_reported":1746429068,"current_range_meters":17200,"station_id":"ce4bh9p2rcd13ifvqed0","pricing_plan_id":"cebpf4jnsgd1na2vs0mg"},{"bike_id":"f96986fc-b7e6-4eca-b5c2-41660de4bcff","system_id":"levelo_inurba_marseille","lat":43.26482,"lon":5.39556,"is_reserved":false,"is_disabled":false,"rental_uris":{"android":"levelo://app?vid=f96986fc-b7e6-4eca-b5c2-41660de4bcff","ios":"levelo://app?vid=f96986fc-b7e6-4eca-b5c2-41660de4bcff"},"vehicle_type_id":"4","last_reported":1746429068,"current_range_meters":17200,"station_id":"ce4bhi12rcd13ifvqfq0","pricing_plan_id":"cebpf4jnsgd1na2vs0mg"},{"bike_id":"34e2a7ec-dde3-4ed7-84e4-3b88c255eee2","system_id":"levelo_inurba_marseille","lat":43.24047,"lon":5.37774,"is_reserved":false,"is_disabled":false,"rental_uris":{"android":"levelo://app?vid=34e2a7ec-dde3-4ed7-84e4-3b88c255eee2","ios":"levelo://app?vid=34e2a7ec-dde3-4ed7-84e4-3b88c255eee2"},"vehicle_type_id":"4","last_reported":1746429068,"current_range_meters":17200,"station_id":"ce4bhnp2rcd13ifvqgvg","pricing_plan_id":"cebpf4jnsgd1na2vs0mg"},{"bike_id":"2dce38cf-a8d4-49cd-9fcf-ef494d90a125","system_id":"levelo_inurba_marseille","lat":43.2714,"lon":5.36371,"is_reserved":false,"is_disabled":false,"rental_uris":{"android":"levelo://app?vid=2dce38cf-a8d4-49cd-9fcf-ef494d90a125","ios":"levelo://app?vid=2dce38cf-a8d4-49cd-9fcf-ef494d90a125"},"vehicle_type_id":"4","last_reported":1746429068,"current_range_meters":17600,"station_id":"","pricing_plan_id":"cebpf4jnsgd1na2vs0mg"},{"bike_id":"8b2285d3-d248-444c-a9fa-a333a1711750","system_id":"levelo_inurba_marseille","lat":43.286721,"lon":5.373254,"is_reserved":false,"is_disabled":false,"rental_uris":{"android":"levelo://app?vid=8b2285d3-d248-444c-a9fa-a333a1711750","ios":"levelo://app?vid=8b2285d3-d248-444c-a9fa-a333a1711750"},"vehicle_type_id":"4","last_reported":1746429068,"current_range_meters":17600,"station_id":"","pricing_plan_id":"cebpf4jnsgd1na2vs0mg"},{"bike_id":"5ae1c0ef-61b2-4409-9b64-e7d5002ba633","system_id":"levelo_inurba_marseille","lat":43.286164,"lon":5.384739,"is_reserved":false,"is_disabled":false,"rental_uris":{"android":"levelo://app?vid=5ae1c0ef-61b2-4409-9b64-e7d5002ba633","ios":"levelo://app?vid=5ae1c0ef-61b2-4409-9b64-e7d5002ba633"},"vehicle_type_id":"4","last_reported":1746429068,"current_range_meters":17600,"station_id":"ce4bgs12rcd13ifvqcag","pricing_plan_id":"cebpf4jnsgd1na2vs0mg"},{"bike_id":"fedc619d-d7cc-4df1-a967-c5d0953b5b95","system_id":"levelo_inurba_marseille","lat":43.24594,"lon":5.408421,"is_reserved":false,"is_disabled":false,"rental_uris":{"android":"levelo://app?vid=fedc619d-d7cc-4df1-a967-c5d0953b5b95","ios":"levelo://app?vid=fedc619d-d7cc-4df1-a967-c5d0953b5b95"},"vehicle_type_id":"4","last_reported":1746429068,"current_range_meters":18000,"station_id":"","pricing_plan_id":"cebpf4jnsgd1na2vs0mg"},{"bike_id":"32dfec79-448b-4953-93c9-6dfa5e45ba65","system_id":"levelo_inurba_marseille","lat":43.3092,"lon":5.36857,"is_reserved":false,"is_disabled":false,"rental_uris":{"android":"levelo://app?vid=32dfec79-448b-4953-93c9-6dfa5e45ba65","ios":"levelo://app?vid=32dfec79-448b-4953-93c9-6dfa5e45ba65"},"vehicle_type_id":"4","last_reported":1746429068,"current_range_meters":18000,"station_id":"ce4bgn92rcd13ifvqbvg","pricing_plan_id":"cebpf4jnsgd1na2vs0mg"},{"bike_id":"7403290a-734e-4772-88e8-054ccb286dcd","system_id":"levelo_inurba_marseille","lat":43.23176,"lon":5.39985,"is_reserved":false,"is_disabled":false,"rental_uris":{"android":"levelo://app?vid=7403290a-734e-4772-88e8-054ccb286dcd","ios":"levelo://app?vid=7403290a-734e-4772-88e8-054ccb286dcd"},"vehicle_type_id":"4","last_reported":1746429068,"current_range_meters":18000,"station_id":"ce4bhn12rcd13ifvqgqg","pricing_plan_id":"cebpf4jnsgd1na2vs0mg"},{"bike_id":"b98dfc66-3570-4d96-afda-2a6e161dfb3b","system_id":"levelo_inurba_marseille","lat":43.24064,"lon":5.3773,"is_reserved":false,"is_disabled":false,"rental_uris":{"android":"levelo://app?vid=b98dfc66-3570-4d96-afda-2a6e161dfb3b","ios":"levelo://app?vid=b98dfc66-3570-4d96-afda-2a6e161dfb3b"},"vehicle_type_id":"4","last_reported":1746429068,"current_range_meters":18000,"station_id":"ce4bhnp2rcd13ifvqgvg","pricing_plan_id":"cebpf4jnsgd1na2vs0mg"},{"bike_id":"52056814-b84e-40b7-b3e4-cbb9fb94c70a","system_id":"levelo_inurba_marseille","lat":43.3133,"lon":5.36747,"is_reserved":false,"is_disabled":false,"rental_uris":{"android":"levelo://app?vid=52056814-b84e-40b7-b3e4-cbb9fb94c70a","ios":"levelo://app?vid=52056814-b84e-40b7-b3e4-cbb9fb94c70a"},"vehicle_type_id":"4","last_reported":1746429068,"current_range_meters":18800,"station_id":"ce4bgr92rcd13ifvqc6g","pricing_plan_id":"cebpf4jnsgd1na2vs0mg"},{"bike_id":"c17ec4bf-310d-4972-b758-999b778878e3","system_id":"levelo_inurba_marseille","lat":43.30156,"lon":5.37407,"is_reserved":false,"is_disabled":false,"rental_uris":{"android":"levelo://app?vid=c17ec4bf-310d-4972-b758-999b778878e3","ios":"levelo://app?vid=c17ec4bf-310d-4972-b758-999b778878e3"},"vehicle_type_id":"4","last_reported":1746429068,"current_range_meters":18800,"station_id":"ce4bgs92rcd13ifvqcc0","pricing_plan_id":"cebpf4jnsgd1na2vs0mg"},{"bike_id":"432ed289-f332-4e09-aeec-e4ee1e3b0015","system_id":"levelo_inurba_marseille","lat":43.30971,"lon":5.39039,"is_reserved":false,"is_disabled":false,"rental_uris":{"android":"levelo://app?vid=432ed289-f332-4e09-aeec-e4ee1e3b0015","ios":"levelo://app?vid=432ed289-f332-4e09-aeec-e4ee1e3b0015"},"vehicle_type_id":"4","last_reported":1746429068,"current_range_meters":18800,"station_id":"ce4bgup2rcd13ifvqco0","pricing_plan_id":"cebpf4jnsgd1na2vs0mg"},{"bike_id":"96e070da-b0e6-4861-a7e6-1c419a119de3","system_id":"levelo_inurba_marseille","lat":43.31341,"lon":5.36717,"is_reserved":false,"is_disabled":false,"rental_uris":{"android":"levelo://app?vid=96e070da-b0e6-4861-a7e6-1c419a119de3","ios":"levelo://app?vid=96e070da-b0e6-4861-a7e6-1c419a119de3"},"vehicle_type_id":"4","last_reported":1746429068,"current_range_meters":19200,"station_id":"ce4bgr92rcd13ifvqc6g","pricing_plan_id":"cebpf4jnsgd1na2vs0mg"},{"bike_id":"683d55af-43bd-4b00-9ecc-672c5a033b51","system_id":"levelo_inurba_marseille","lat":43.29035,"lon":5.3756,"is_reserved":false,"is_disabled":false,"rental_uris":{"android":"levelo://app?vid=683d55af-43bd-4b00-9ecc-672c5a033b51","ios":"levelo://app?vid=683d55af-43bd-4b00-9ecc-672c5a033b51"},"vehicle_type_id":"4","last_reported":1746429068,"current_range_meters":19200,"station_id":"ce4bh692rcd13ifvqe90","pricing_plan_id":"cebpf4jnsgd1na2vs0mg"},{"bike_id":"21a4b78c-5f0d-4732-914a-f21e5d98f8f2","system_id":"levelo_inurba_marseille","lat":43.3086,"lon":5.36671,"is_reserved":false,"is_disabled":false,"rental_uris":{"android":"levelo://app?vid=21a4b78c-5f0d-4732-914a-f21e5d98f8f2","ios":"levelo://app?vid=21a4b78c-5f0d-4732-914a-f21e5d98f8f2"},"vehicle_type_id":"4","last_reported":1746429068,"current_range_meters":19600,"station_id":"","pricing_plan_id":"cebpf4jnsgd1na2vs0mg"},{"bike_id":"f6544c52-88b9-4cda-9dbf-aae9ea9a024e","system_id":"levelo_inurba_marseille","lat":43.30483,"lon":5.37455,"is_reserved":false,"is_disabled":false,"rental_uris":{"android":"levelo://app?vid=f6544c52-88b9-4cda-9dbf-aae9ea9a024e","ios":"levelo://app?vid=f6544c52-88b9-4cda-9dbf-aae9ea9a024e"},"vehicle_type_id":"4","last_reported":1746429068,"current_range_meters":19600,"station_id":"ce4bgl92rcd13ifvqbq0","pricing_plan_id":"cebpf4jnsgd1na2vs0mg"},{"bike_id":"80fb5645-3b6b-421f-a6d7-4eeffca5e943","system_id":"levelo_inurba_marseille","lat":43.31337,"lon":5.36719,"is_reserved":false,"is_disabled":false,"rental_uris":{"android":"levelo://app?vid=80fb5645-3b6b-421f-a6d7-4eeffca5e943","ios":"levelo://app?vid=80fb5645-3b6b-421f-a6d7-4eeffca5e943"},"vehicle_type_id":"4","last_reported":1746429068,"current_range_meters":19600,"station_id":"ce4bgr92rcd13ifvqc6g","pricing_plan_id":"cebpf4jnsgd1na2vs0mg"},{"bike_id":"3192b24b-ef8b-4b76-8d5d-84d383217578","system_id":"levelo_inurba_marseille","lat":43.30158,"lon":5.37421,"is_reserved":false,"is_disabled":false,"rental_uris":{"android":"levelo://app?vid=3192b24b-ef8b-4b76-8d5d-84d383217578","ios":"levelo://app?vid=3192b24b-ef8b-4b76-8d5d-84d383217578"},"vehicle_type_id":"4","last_reported":1746429068,"current_range_meters":19600,"station_id":"ce4bgs92rcd13ifvqcc0","pricing_plan_id":"cebpf4jnsgd1na2vs0mg"},{"bike_id":"faf6234b-1411-4632-ada8-13426621a092","system_id":"levelo_inurba_marseille","lat":43.30895,"lon":5.3718,"is_reserved":false,"is_disabled":false,"rental_uris":{"android":"levelo://app?vid=faf6234b-1411-4632-ada8-13426621a092","ios":"levelo://app?vid=faf6234b-1411-4632-ada8-13426621a092"},"vehicle_type_id":"4","last_reported":1746429068,"current_range_meters":19600,"station_id":"ce4bguh2rcd13ifvqckg","pricing_plan_id":"cebpf4jnsgd1na2vs0mg"},{"bike_id":"12527328-da35-465e-812b-a78dfb76e0d9","system_id":"levelo_inurba_marseille","lat":43.25936,"lon":5.409,"is_reserved":false,"is_disabled":false,"rental_uris":{"android":"levelo://app?vid=12527328-da35-465e-812b-a78dfb76e0d9","ios":"levelo://app?vid=12527328-da35-465e-812b-a78dfb76e0d9"},"vehicle_type_id":"4","last_reported":1746429068,"current_range_meters":20000,"station_id":"ce4bhm92rcd13ifvqglg","pricing_plan_id":"cebpf4jnsgd1na2vs0mg"},{"bike_id":"8399309c-e7d9-45c5-a06a-10d979307adc","system_id":"levelo_inurba_marseille","lat":43.27504,"lon":5.42455,"is_reserved":false,"is_disabled":false,"rental_uris":{"android":"levelo://app?vid=8399309c-e7d9-45c5-a06a-10d979307adc","ios":"levelo://app?vid=8399309c-e7d9-45c5-a06a-10d979307adc"},"vehicle_type_id":"4","last_reported":1746429068,"current_range_meters":20000,"station_id":"ce4bhn92rcd13ifvqgrg","pricing_plan_id":"cebpf4jnsgd1na2vs0mg"},{"bike_id":"243b49a7-8924-4b7d-8d65-fa1ee8c16a75","system_id":"levelo_inurba_marseille","lat":43.29049,"lon":5.40516,"is_reserved":false,"is_disabled":false,"rental_uris":{"android":"levelo://app?vid=243b49a7-8924-4b7d-8d65-fa1ee8c16a75","ios":"levelo://app?vid=243b49a7-8924-4b7d-8d65-fa1ee8c16a75"},"vehicle_type_id":"4","last_reported":1746429068,"current_range_meters":20400,"station_id":"","pricing_plan_id":"cebpf4jnsgd1na2vs0mg"},{"bike_id":"81f3bcbf-bd02-4339-9f25-62936d8e1fe2","system_id":"levelo_inurba_marseille","lat":43.31212,"lon":5.36834,"is_reserved":false,"is_disabled":false,"rental_uris":{"android":"levelo://app?vid=81f3bcbf-bd02-4339-9f25-62936d8e1fe2","ios":"levelo://app?vid=81f3bcbf-bd02-4339-9f25-62936d8e1fe2"},"vehicle_type_id":"4","last_reported":1746429068,"current_range_meters":20400,"station_id":"ce4bgl92rcd13ifvqbq0","pricing_plan_id":"cebpf4jnsgd1na2vs0mg"},{"bike_id":"5b8f06bc-052a-454a-b1dc-55ff1d1e7111","system_id":"levelo_inurba_marseille","lat":43.31356,"lon":5.36701,"is_reserved":false,"is_disabled":false,"rental_uris":{"android":"levelo://app?vid=5b8f06bc-052a-454a-b1dc-55ff1d1e7111","ios":"levelo://app?vid=5b8f06bc-052a-454a-b1dc-55ff1d1e7111"},"vehicle_type_id":"4","last_reported":1746429068,"current_range_meters":20400,"station_id":"ce4bgr92rcd13ifvqc6g","pricing_plan_id":"cebpf4jnsgd1na2vs0mg"},{"bike_id":"d8e8fe79-f6a0-4ea6-b50f-9d2d73af46e9","system_id":"levelo_inurba_marseille","lat":43.30537,"lon":5.36716,"is_reserved":false,"is_disabled":false,"rental_uris":{"android":"levelo://app?vid=d8e8fe79-f6a0-4ea6-b50f-9d2d73af46e9","ios":"levelo://app?vid=d8e8fe79-f6a0-4ea6-b50f-9d2d73af46e9"},"vehicle_type_id":"4","last_reported":1746429068,"current_range_meters":20400,"station_id":"ce4bgrp2rcd13ifvqc9g","pricing_plan_id":"cebpf4jnsgd1na2vs0mg"},{"bike_id":"31faf35d-feea-4414-93f4-09489f19c1c2","system_id":"levelo_inurba_marseille","lat":43.270593,"lon":5.422771,"is_reserved":false,"is_disabled":false,"rental_uris":{"android":"levelo://app?vid=31faf35d-feea-4414-93f4-09489f19c1c2","ios":"levelo://app?vid=31faf35d-feea-4414-93f4-09489f19c1c2"},"vehicle_type_id":"4","last_reported":1746429068,"current_range_meters":20400,"station_id":"ce4bhk92rcd13ifvqgb0","pricing_plan_id":"cebpf4jnsgd1na2vs0mg"},{"bike_id":"7c05ee85-d9df-45aa-bd9e-72b0d6f2b0e0","system_id":"levelo_inurba_marseille","lat":43.28701,"lon":5.39993,"is_reserved":false,"is_disabled":false,"rental_uris":{"android":"levelo://app?vid=7c05ee85-d9df-45aa-bd9e-72b0d6f2b0e0","ios":"levelo://app?vid=7c05ee85-d9df-45aa-bd9e-72b0d6f2b0e0"},"vehicle_type_id":"4","last_reported":1746429068,"current_range_meters":20400,"station_id":"ce4bho92rcd13ifvqh3g","pricing_plan_id":"cebpf4jnsgd1na2vs0mg"},{"bike_id":"e6fcdebb-7b2e-485e-a715-3ecc58645bc4","system_id":"levelo_inurba_marseille","lat":43.27994,"lon":5.4001,"is_reserved":false,"is_disabled":false,"rental_uris":{"android":"levelo://app?vid=e6fcdebb-7b2e-485e-a715-3ecc58645bc4","ios":"levelo://app?vid=e6fcdebb-7b2e-485e-a715-3ecc58645bc4"},"vehicle_type_id":"4","last_reported":1746429068,"current_range_meters":20400,"station_id":"ce4bho92rcd13ifvqh4g","pricing_plan_id":"cebpf4jnsgd1na2vs0mg"},{"bike_id":"1095fd34-0fa1-4b6d-a8a4-acaf5d66834c","system_id":"levelo_inurba_marseille","lat":43.32338,"lon":5.40621,"is_reserved":false,"is_disabled":false,"rental_uris":{"android":"levelo://app?vid=1095fd34-0fa1-4b6d-a8a4-acaf5d66834c","ios":"levelo://app?vid=1095fd34-0fa1-4b6d-a8a4-acaf5d66834c"},"vehicle_type_id":"4","last_reported":1746429068,"current_range_meters":20400,"station_id":"ce4bhq92rcd13ifvqhjg","pricing_plan_id":"cebpf4jnsgd1na2vs0mg"},{"bike_id":"86b93b16-87a0-4fbf-a3d1-c409da7732b0","system_id":"levelo_inurba_marseille","lat":43.293396,"lon":5.371296,"is_reserved":false,"is_disabled":false,"rental_uris":{"android":"levelo://app?vid=86b93b16-87a0-4fbf-a3d1-c409da7732b0","ios":"levelo://app?vid=86b93b16-87a0-4fbf-a3d1-c409da7732b0"},"vehicle_type_id":"4","last_reported":1746429068,"current_range_meters":20800,"station_id":"","pricing_plan_id":"cebpf4jnsgd1na2vs0mg"},{"bike_id":"8c27c8e4-e2eb-48c5-9f83-2716245dea48","system_id":"levelo_inurba_marseille","lat":43.309,"lon":5.37183,"is_reserved":false,"is_disabled":false,"rental_uris":{"android":"levelo://app?vid=8c27c8e4-e2eb-48c5-9f83-2716245dea48","ios":"levelo://app?vid=8c27c8e4-e2eb-48c5-9f83-2716245dea48"},"vehicle_type_id":"4","last_reported":1746429068,"current_range_meters":20800,"station_id":"ce4bguh2rcd13ifvqckg","pricing_plan_id":"cebpf4jnsgd1na2vs0mg"},{"bike_id":"d1d83ecf-c678-4016-bab8-6da44094225f","system_id":"levelo_inurba_marseille","lat":43.29089,"lon":5.38137,"is_reserved":false,"is_disabled":false,"rental_uris":{"android":"levelo://app?vid=d1d83ecf-c678-4016-bab8-6da44094225f","ios":"levelo://app?vid=d1d83ecf-c678-4016-bab8-6da44094225f"},"vehicle_type_id":"4","last_reported":1746429068,"current_range_meters":20800,"station_id":"ce4bh512rcd13ifvqe2g","pricing_plan_id":"cebpf4jnsgd1na2vs0mg"},{"bike_id":"d4f6b9d7-a1e2-42ac-9fe1-75c7c9bda882","system_id":"levelo_inurba_marseille","lat":43.32085,"lon":5.36776,"is_reserved":false,"is_disabled":false,"rental_uris":{"android":"levelo://app?vid=d4f6b9d7-a1e2-42ac-9fe1-75c7c9bda882","ios":"levelo://app?vid=d4f6b9d7-a1e2-42ac-9fe1-75c7c9bda882"},"vehicle_type_id":"4","last_reported":1746429068,"current_range_meters":20800,"station_id":"ce4bhrh2rcd13ifvqhug","pricing_plan_id":"cebpf4jnsgd1na2vs0mg"},{"bike_id":"1defc0cc-b574-4a3c-b9f0-e1ad7b926ebf","system_id":"levelo_inurba_marseille","lat":43.2418,"lon":5.36403,"is_reserved":false,"is_disabled":false,"rental_uris":{"android":"levelo://app?vid=1defc0cc-b574-4a3c-b9f0-e1ad7b926ebf","ios":"levelo://app?vid=1defc0cc-b574-4a3c-b9f0-e1ad7b926ebf"},"vehicle_type_id":"4","last_reported":1746429068,"current_range_meters":20800,"station_id":"cpo36qri1sfpv3e86is0","pricing_plan_id":"cebpf4jnsgd1na2vs0mg"},{"bike_id":"c8ea744e-0e2a-416b-a9e8-6cada3fb6084","system_id":"levelo_inurba_marseille","lat":43.283447,"lon":5.381057,"is_reserved":false,"is_disabled":false,"rental_uris":{"android":"levelo://app?vid=c8ea744e-0e2a-416b-a9e8-6cada3fb6084","ios":"levelo://app?vid=c8ea744e-0e2a-416b-a9e8-6cada3fb6084"},"vehicle_type_id":"4","last_reported":1746429068,"current_range_meters":21600,"station_id":"","pricing_plan_id":"cebpf4jnsgd1na2vs0mg"},{"bike_id":"254eda0a-ac6c-45ac-bab9-9735976f4f64","system_id":"levelo_inurba_marseille","lat":43.29313,"lon":5.37176,"is_reserved":false,"is_disabled":false,"rental_uris":{"android":"levelo://app?vid=254eda0a-ac6c-45ac-bab9-9735976f4f64","ios":"levelo://app?vid=254eda0a-ac6c-45ac-bab9-9735976f4f64"},"vehicle_type_id":"4","last_reported":1746429068,"current_range_meters":21600,"station_id":"ce4bgh92rcd13ifvqb40","pricing_plan_id":"cebpf4jnsgd1na2vs0mg"},{"bike_id":"46d808d5-e081-4aef-b333-f88261782d4c","system_id":"levelo_inurba_marseille","lat":43.27666,"lon":5.38869,"is_reserved":false,"is_disabled":false,"rental_uris":{"android":"levelo://app?vid=46d808d5-e081-4aef-b333-f88261782d4c","ios":"levelo://app?vid=46d808d5-e081-4aef-b333-f88261782d4c"},"vehicle_type_id":"4","last_reported":1746429068,"current_range_meters":21600,"station_id":"ce4bhi12rcd13ifvqfo0","pricing_plan_id":"cebpf4jnsgd1na2vs0mg"},{"bike_id":"788046ab-4020-4c6e-a0e2-de3aee25f874","system_id":"levelo_inurba_marseille","lat":43.21218,"lon":5.35072,"is_reserved":false,"is_disabled":false,"rental_uris":{"android":"levelo://app?vid=788046ab-4020-4c6e-a0e2-de3aee25f874","ios":"levelo://app?vid=788046ab-4020-4c6e-a0e2-de3aee25f874"},"vehicle_type_id":"4","last_reported":1746429068,"current_range_meters":21600,"station_id":"st_cvj6sg6p6f1abm77japg","pricing_plan_id":"cebpf4jnsgd1na2vs0mg"},{"bike_id":"4387b91f-91cf-4d93-b705-761bf7ab612e","system_id":"levelo_inurba_marseille","lat":43.25942,"lon":5.40897,"is_reserved":false,"is_disabled":false,"rental_uris":{"android":"levelo://app?vid=4387b91f-91cf-4d93-b705-761bf7ab612e","ios":"levelo://app?vid=4387b91f-91cf-4d93-b705-761bf7ab612e"},"vehicle_type_id":"4","last_reported":1746429068,"current_range_meters":22400,"station_id":"ce4bhm92rcd13ifvqglg","pricing_plan_id":"cebpf4jnsgd1na2vs0mg"},{"bike_id":"af17a578-bfae-410a-bf89-46220deebe2b","system_id":"levelo_inurba_marseille","lat":43.31084,"lon":5.42428,"is_reserved":false,"is_disabled":false,"rental_uris":{"android":"levelo://app?vid=af17a578-bfae-410a-bf89-46220deebe2b","ios":"levelo://app?vid=af17a578-bfae-410a-bf89-46220deebe2b"},"vehicle_type_id":"4","last_reported":1746429068,"current_range_meters":22800,"station_id":"ce4bhp92rcd13ifvqhag","pricing_plan_id":"cebpf4jnsgd1na2vs0mg"},{"bike_id":"3303a1e3-114c-417f-b25c-6a53c25ccb6e","system_id":"levelo_inurba_marseille","lat":43.31224,"lon":5.36835,"is_reserved":false,"is_disabled":false,"rental_uris":{"android":"levelo://app?vid=3303a1e3-114c-417f-b25c-6a53c25ccb6e","ios":"levelo://app?vid=3303a1e3-114c-417f-b25c-6a53c25ccb6e"},"vehicle_type_id":"4","last_reported":1746429068,"current_range_meters":23200,"station_id":"ce4bgl92rcd13ifvqbq0","pricing_plan_id":"cebpf4jnsgd1na2vs0mg"},{"bike_id":"cd622f1f-ff9b-4f86-9e1c-9f3f75e90cd2","system_id":"levelo_inurba_marseille","lat":43.26685,"lon":5.38272,"is_reserved":false,"is_disabled":false,"rental_uris":{"android":"levelo://app?vid=cd622f1f-ff9b-4f86-9e1c-9f3f75e90cd2","ios":"levelo://app?vid=cd622f1f-ff9b-4f86-9e1c-9f3f75e90cd2"},"vehicle_type_id":"4","last_reported":1746429068,"current_range_meters":23200,"station_id":"ce4bhg92rcd13ifvqf90","pricing_plan_id":"cebpf4jnsgd1na2vs0mg"},{"bike_id":"ec3acd01-fb9a-4c60-a3b4-c15f95e1b05d","system_id":"levelo_inurba_marseille","lat":43.24387,"lon":5.3706,"is_reserved":false,"is_disabled":false,"rental_uris":{"android":"levelo://app?vid=ec3acd01-fb9a-4c60-a3b4-c15f95e1b05d","ios":"levelo://app?vid=ec3acd01-fb9a-4c60-a3b4-c15f95e1b05d"},"vehicle_type_id":"4","last_reported":1746429068,"current_range_meters":23200,"station_id":"ce4bhhh2rcd13ifvqfk0","pricing_plan_id":"cebpf4jnsgd1na2vs0mg"},{"bike_id":"65ee47cb-6e19-4849-9768-1105be3571ff","system_id":"levelo_inurba_marseille","lat":43.2781,"lon":5.40711,"is_reserved":false,"is_disabled":false,"rental_uris":{"android":"levelo://app?vid=65ee47cb-6e19-4849-9768-1105be3571ff","ios":"levelo://app?vid=65ee47cb-6e19-4849-9768-1105be3571ff"},"vehicle_type_id":"4","last_reported":1746429068,"current_range_meters":23200,"station_id":"ce4bhnh2rcd13ifvqgtg","pricing_plan_id":"cebpf4jnsgd1na2vs0mg"},{"bike_id":"d3a852b4-655d-4d40-9d50-42e796c56f96","system_id":"levelo_inurba_marseille","lat":43.323564,"lon":5.367564,"is_reserved":false,"is_disabled":false,"rental_uris":{"android":"levelo://app?vid=d3a852b4-655d-4d40-9d50-42e796c56f96","ios":"levelo://app?vid=d3a852b4-655d-4d40-9d50-42e796c56f96"},"vehicle_type_id":"4","last_reported":1746429068,"current_range_meters":23200,"station_id":"ce4bhsh2rcd13ifvqi2g","pricing_plan_id":"cebpf4jnsgd1na2vs0mg"},{"bike_id":"972a616d-654c-49f0-b6fe-da1b7767ec8b","system_id":"levelo_inurba_marseille","lat":43.30144,"lon":5.38078,"is_reserved":false,"is_disabled":false,"rental_uris":{"android":"levelo://app?vid=972a616d-654c-49f0-b6fe-da1b7767ec8b","ios":"levelo://app?vid=972a616d-654c-49f0-b6fe-da1b7767ec8b"},"vehicle_type_id":"4","last_reported":1746429068,"current_range_meters":24000,"station_id":"ce4bgjp2rcd13ifvqbh0","pricing_plan_id":"cebpf4jnsgd1na2vs0mg"},{"bike_id":"a19cf8a8-1b18-422a-83c6-ff08c29e7403","system_id":"levelo_inurba_marseille","lat":43.30918,"lon":5.36866,"is_reserved":false,"is_disabled":false,"rental_uris":{"android":"levelo://app?vid=a19cf8a8-1b18-422a-83c6-ff08c29e7403","ios":"levelo://app?vid=a19cf8a8-1b18-422a-83c6-ff08c29e7403"},"vehicle_type_id":"4","last_reported":1746429068,"current_range_meters":24000,"station_id":"ce4bgn92rcd13ifvqbvg","pricing_plan_id":"cebpf4jnsgd1na2vs0mg"},{"bike_id":"3ac854ed-ac69-40c3-9017-e41caba1f1e8","system_id":"levelo_inurba_marseille","lat":43.25933,"lon":5.40914,"is_reserved":false,"is_disabled":false,"rental_uris":{"android":"levelo://app?vid=3ac854ed-ac69-40c3-9017-e41caba1f1e8","ios":"levelo://app?vid=3ac854ed-ac69-40c3-9017-e41caba1f1e8"},"vehicle_type_id":"4","last_reported":1746429068,"current_range_meters":24000,"station_id":"ce4bhm92rcd13ifvqglg","pricing_plan_id":"cebpf4jnsgd1na2vs0mg"},{"bike_id":"a1cc4850-8efe-4632-82ca-fac143a6ffde","system_id":"levelo_inurba_marseille","lat":43.27494,"lon":5.4245,"is_reserved":false,"is_disabled":false,"rental_uris":{"android":"levelo://app?vid=a1cc4850-8efe-4632-82ca-fac143a6ffde","ios":"levelo://app?vid=a1cc4850-8efe-4632-82ca-fac143a6ffde"},"vehicle_type_id":"4","last_reported":1746429068,"current_range_meters":24000,"station_id":"ce4bhn92rcd13ifvqgrg","pricing_plan_id":"cebpf4jnsgd1na2vs0mg"},{"bike_id":"6d93e44c-2c69-47b6-b13e-cc57673c4a3d","system_id":"levelo_inurba_marseille","lat":43.31709,"lon":5.40471,"is_reserved":false,"is_disabled":false,"rental_uris":{"android":"levelo://app?vid=6d93e44c-2c69-47b6-b13e-cc57673c4a3d","ios":"levelo://app?vid=6d93e44c-2c69-47b6-b13e-cc57673c4a3d"},"vehicle_type_id":"4","last_reported":1746429068,"current_range_meters":24400,"station_id":"ce4bh012rcd13ifvqd00","pricing_plan_id":"cebpf4jnsgd1na2vs0mg"},{"bike_id":"638d16bc-c6e8-422e-8907-cb54e849c916","system_id":"levelo_inurba_marseille","lat":43.22963,"lon":5.35358,"is_reserved":false,"is_disabled":false,"rental_uris":{"android":"levelo://app?vid=638d16bc-c6e8-422e-8907-cb54e849c916","ios":"levelo://app?vid=638d16bc-c6e8-422e-8907-cb54e849c916"},"vehicle_type_id":"4","last_reported":1746429068,"current_range_meters":24400,"station_id":"cpo3532slgdg3j2ikp40","pricing_plan_id":"cebpf4jnsgd1na2vs0mg"},{"bike_id":"4e2841b6-72d8-46b9-a02b-8a31a02b484c","system_id":"levelo_inurba_marseille","lat":43.29047,"lon":5.43938,"is_reserved":false,"is_disabled":false,"rental_uris":{"android":"levelo://app?vid=4e2841b6-72d8-46b9-a02b-8a31a02b484c","ios":"levelo://app?vid=4e2841b6-72d8-46b9-a02b-8a31a02b484c"},"vehicle_type_id":"4","last_reported":1746429068,"current_range_meters":24800,"station_id":"","pricing_plan_id":"cebpf4jnsgd1na2vs0mg"},{"bike_id":"cde0fa0e-c4c6-4bc4-a852-f4c917846b32","system_id":"levelo_inurba_marseille","lat":43.22811,"lon":5.35917,"is_reserved":false,"is_disabled":false,"rental_uris":{"android":"levelo://app?vid=cde0fa0e-c4c6-4bc4-a852-f4c917846b32","ios":"levelo://app?vid=cde0fa0e-c4c6-4bc4-a852-f4c917846b32"},"vehicle_type_id":"4","last_reported":1746429068,"current_range_meters":24800,"station_id":"","pricing_plan_id":"cebpf4jnsgd1na2vs0mg"},{"bike_id":"3bb772c7-f122-4417-92c6-a4dffeefc2f4","system_id":"levelo_inurba_marseille","lat":43.29836,"lon":5.37418,"is_reserved":false,"is_disabled":false,"rental_uris":{"android":"levelo://app?vid=3bb772c7-f122-4417-92c6-a4dffeefc2f4","ios":"levelo://app?vid=3bb772c7-f122-4417-92c6-a4dffeefc2f4"},"vehicle_type_id":"4","last_reported":1746429068,"current_range_meters":24800,"station_id":"","pricing_plan_id":"cebpf4jnsgd1na2vs0mg"},{"bike_id":"85459a33-8124-4185-adc2-1863b5747afb","system_id":"levelo_inurba_marseille","lat":43.30434,"lon":5.38883,"is_reserved":false,"is_disabled":false,"rental_uris":{"android":"levelo://app?vid=85459a33-8124-4185-adc2-1863b5747afb","ios":"levelo://app?vid=85459a33-8124-4185-adc2-1863b5747afb"},"vehicle_type_id":"4","last_reported":1746429068,"current_range_meters":24800,"station_id":"ce4bgk12rcd13ifvqbi0","pricing_plan_id":"cebpf4jnsgd1na2vs0mg"},{"bike_id":"751bbba6-1c62-431c-bce7-50c1dacf1b13","system_id":"levelo_inurba_marseille","lat":43.24183,"lon":5.39721,"is_reserved":false,"is_disabled":false,"rental_uris":{"android":"levelo://app?vid=751bbba6-1c62-431c-bce7-50c1dacf1b13","ios":"levelo://app?vid=751bbba6-1c62-431c-bce7-50c1dacf1b13"},"vehicle_type_id":"4","last_reported":1746429068,"current_range_meters":24800,"station_id":"ce4bhn12rcd13ifvqgpg","pricing_plan_id":"cebpf4jnsgd1na2vs0mg"},{"bike_id":"4e32be63-9d1b-43cc-9b89-7b46a65d9e82","system_id":"levelo_inurba_marseille","lat":43.33794,"lon":5.37436,"is_reserved":false,"is_disabled":false,"rental_uris":{"android":"levelo://app?vid=4e32be63-9d1b-43cc-9b89-7b46a65d9e82","ios":"levelo://app?vid=4e32be63-9d1b-43cc-9b89-7b46a65d9e82"},"vehicle_type_id":"4","last_reported":1746429068,"current_range_meters":25200,"station_id":"","pricing_plan_id":"cebpf4jnsgd1na2vs0mg"},{"bike_id":"72733650-f9c4-49ed-a5bc-970b808f3779","system_id":"levelo_inurba_marseille","lat":43.29301,"lon":5.37455,"is_reserved":false,"is_disabled":false,"rental_uris":{"android":"levelo://app?vid=72733650-f9c4-49ed-a5bc-970b808f3779","ios":"levelo://app?vid=72733650-f9c4-49ed-a5bc-970b808f3779"},"vehicle_type_id":"4","last_reported":1746429068,"current_range_meters":25200,"station_id":"ce4bgi12rcd13ifvqb70","pricing_plan_id":"cebpf4jnsgd1na2vs0mg"},{"bike_id":"1ad0877a-dd44-4673-8171-ad79b46d9578","system_id":"levelo_inurba_marseille","lat":43.30915,"lon":5.36844,"is_reserved":false,"is_disabled":false,"rental_uris":{"android":"levelo://app?vid=1ad0877a-dd44-4673-8171-ad79b46d9578","ios":"levelo://app?vid=1ad0877a-dd44-4673-8171-ad79b46d9578"},"vehicle_type_id":"4","last_reported":1746429068,"current_range_meters":25200,"station_id":"ce4bgn92rcd13ifvqbvg","pricing_plan_id":"cebpf4jnsgd1na2vs0mg"},{"bike_id":"c0e2eb01-219c-4f4b-9af9-9fb402dea3ab","system_id":"levelo_inurba_marseille","lat":43.30505,"lon":5.365263,"is_reserved":false,"is_disabled":false,"rental_uris":{"android":"levelo://app?vid=c0e2eb01-219c-4f4b-9af9-9fb402dea3ab","ios":"levelo://app?vid=c0e2eb01-219c-4f4b-9af9-9fb402dea3ab"},"vehicle_type_id":"4","last_reported":1746429068,"current_range_meters":25200,"station_id":"ce4bgs12rcd13ifvqcag","pricing_plan_id":"cebpf4jnsgd1na2vs0mg"},{"bike_id":"487b94a4-1bf8-4b53-baf1-f3ea77f8609f","system_id":"levelo_inurba_marseille","lat":43.25934,"lon":5.4085,"is_reserved":false,"is_disabled":false,"rental_uris":{"android":"levelo://app?vid=487b94a4-1bf8-4b53-baf1-f3ea77f8609f","ios":"levelo://app?vid=487b94a4-1bf8-4b53-baf1-f3ea77f8609f"},"vehicle_type_id":"4","last_reported":1746429068,"current_range_meters":25200,"station_id":"ce4bhm92rcd13ifvqglg","pricing_plan_id":"cebpf4jnsgd1na2vs0mg"},{"bike_id":"d63ae83f-02b7-4956-be89-4dbafa95b24b","system_id":"levelo_inurba_marseille","lat":43.26212,"lon":5.40472,"is_reserved":false,"is_disabled":false,"rental_uris":{"android":"levelo://app?vid=d63ae83f-02b7-4956-be89-4dbafa95b24b","ios":"levelo://app?vid=d63ae83f-02b7-4956-be89-4dbafa95b24b"},"vehicle_type_id":"4","last_reported":1746429068,"current_range_meters":25200,"station_id":"ce4bhmh2rcd13ifvqgmg","pricing_plan_id":"cebpf4jnsgd1na2vs0mg"},{"bike_id":"be1d9b21-a5df-4064-819b-45209a23686c","system_id":"levelo_inurba_marseille","lat":43.24077,"lon":5.37755,"is_reserved":false,"is_disabled":false,"rental_uris":{"android":"levelo://app?vid=be1d9b21-a5df-4064-819b-45209a23686c","ios":"levelo://app?vid=be1d9b21-a5df-4064-819b-45209a23686c"},"vehicle_type_id":"4","last_reported":1746429068,"current_range_meters":25200,"station_id":"ce4bhnp2rcd13ifvqgvg","pricing_plan_id":"cebpf4jnsgd1na2vs0mg"},{"bike_id":"3a63acc5-b352-4e5e-8ce6-37badecb6507","system_id":"levelo_inurba_marseille","lat":43.29483,"lon":5.4181,"is_reserved":false,"is_disabled":false,"rental_uris":{"android":"levelo://app?vid=3a63acc5-b352-4e5e-8ce6-37badecb6507","ios":"levelo://app?vid=3a63acc5-b352-4e5e-8ce6-37badecb6507"},"vehicle_type_id":"4","last_reported":1746429068,"current_range_meters":25600,"station_id":"","pricing_plan_id":"cebpf4jnsgd1na2vs0mg"},{"bike_id":"d7aaa223-ee1b-4652-ab87-8f75c33c9aa1","system_id":"levelo_inurba_marseille","lat":43.29275,"lon":5.40116,"is_reserved":false,"is_disabled":false,"rental_uris":{"android":"levelo://app?vid=d7aaa223-ee1b-4652-ab87-8f75c33c9aa1","ios":"levelo://app?vid=d7aaa223-ee1b-4652-ab87-8f75c33c9aa1"},"vehicle_type_id":"4","last_reported":1746429068,"current_range_meters":25600,"station_id":"ce4bh312rcd13ifvqdk0","pricing_plan_id":"cebpf4jnsgd1na2vs0mg"},{"bike_id":"0756c920-9814-452f-b44e-309e886cee7f","system_id":"levelo_inurba_marseille","lat":43.25716,"lon":5.41112,"is_reserved":false,"is_disabled":false,"rental_uris":{"android":"levelo://app?vid=0756c920-9814-452f-b44e-309e886cee7f","ios":"levelo://app?vid=0756c920-9814-452f-b44e-309e886cee7f"},"vehicle_type_id":"4","last_reported":1746429068,"current_range_meters":25600,"station_id":"ce4bhkp2rcd13ifvqgd0","pricing_plan_id":"cebpf4jnsgd1na2vs0mg"},{"bike_id":"42bae21e-c9ac-4ffb-ad76-b64a7c64a0bc","system_id":"levelo_inurba_marseille","lat":43.25936,"lon":5.40905,"is_reserved":false,"is_disabled":false,"rental_uris":{"android":"levelo://app?vid=42bae21e-c9ac-4ffb-ad76-b64a7c64a0bc","ios":"levelo://app?vid=42bae21e-c9ac-4ffb-ad76-b64a7c64a0bc"},"vehicle_type_id":"4","last_reported":1746429068,"current_range_meters":25600,"station_id":"ce4bhm92rcd13ifvqglg","pricing_plan_id":"cebpf4jnsgd1na2vs0mg"},{"bike_id":"cb1f6fb2-2e83-48df-8d6f-7a7c563122c2","system_id":"levelo_inurba_marseille","lat":43.27496,"lon":5.42455,"is_reserved":false,"is_disabled":false,"rental_uris":{"android":"levelo://app?vid=cb1f6fb2-2e83-48df-8d6f-7a7c563122c2","ios":"levelo://app?vid=cb1f6fb2-2e83-48df-8d6f-7a7c563122c2"},"vehicle_type_id":"4","last_reported":1746429068,"current_range_meters":25600,"station_id":"ce4bhn92rcd13ifvqgrg","pricing_plan_id":"cebpf4jnsgd1na2vs0mg"},{"bike_id":"8b7881b4-354b-4228-9f27-1662847dd245","system_id":"levelo_inurba_marseille","lat":43.27823,"lon":5.40714,"is_reserved":false,"is_disabled":false,"rental_uris":{"android":"levelo://app?vid=8b7881b4-354b-4228-9f27-1662847dd245","ios":"levelo://app?vid=8b7881b4-354b-4228-9f27-1662847dd245"},"vehicle_type_id":"4","last_reported":1746429068,"current_range_meters":25600,"station_id":"ce4bhnh2rcd13ifvqgtg","pricing_plan_id":"cebpf4jnsgd1na2vs0mg"},{"bike_id":"f454bcb1-3032-4670-87bd-a47772f38b85","system_id":"levelo_inurba_marseille","lat":43.24072,"lon":5.37763,"is_reserved":false,"is_disabled":false,"rental_uris":{"android":"levelo://app?vid=f454bcb1-3032-4670-87bd-a47772f38b85","ios":"levelo://app?vid=f454bcb1-3032-4670-87bd-a47772f38b85"},"vehicle_type_id":"4","last_reported":1746429068,"current_range_meters":25600,"station_id":"ce4bhnp2rcd13ifvqgvg","pricing_plan_id":"cebpf4jnsgd1na2vs0mg"},{"bike_id":"7437c8be-5d8a-460b-82ae-6bd48b9a0624","system_id":"levelo_inurba_marseille","lat":43.240713,"lon":5.377655,"is_reserved":false,"is_disabled":false,"rental_uris":{"android":"levelo://app?vid=7437c8be-5d8a-460b-82ae-6bd48b9a0624","ios":"levelo://app?vid=7437c8be-5d8a-460b-82ae-6bd48b9a0624"},"vehicle_type_id":"4","last_reported":1746429068,"current_range_meters":25600,"station_id":"ce4bhnp2rcd13ifvqgvg","pricing_plan_id":"cebpf4jnsgd1na2vs0mg"},{"bike_id":"62bd38f6-07e1-4bee-89ab-371ee001e3bc","system_id":"levelo_inurba_marseille","lat":43.27946,"lon":5.41034,"is_reserved":false,"is_disabled":false,"rental_uris":{"android":"levelo://app?vid=62bd38f6-07e1-4bee-89ab-371ee001e3bc","ios":"levelo://app?vid=62bd38f6-07e1-4bee-89ab-371ee001e3bc"},"vehicle_type_id":"4","last_reported":1746429068,"current_range_meters":25600,"station_id":"ce4bhnp2rcd13ifvqh0g","pricing_plan_id":"cebpf4jnsgd1na2vs0mg"},{"bike_id":"154c82b7-d3b9-4d64-931d-1f3c72ab6318","system_id":"levelo_inurba_marseille","lat":43.30543,"lon":5.38429,"is_reserved":false,"is_disabled":false,"rental_uris":{"android":"levelo://app?vid=154c82b7-d3b9-4d64-931d-1f3c72ab6318","ios":"levelo://app?vid=154c82b7-d3b9-4d64-931d-1f3c72ab6318"},"vehicle_type_id":"4","last_reported":1746429068,"current_range_meters":26000,"station_id":"ce4bgg92rcd13ifvqb30","pricing_plan_id":"cebpf4jnsgd1na2vs0mg"},{"bike_id":"3b8abfc1-a688-4612-9d4a-2a6b1c7c250e","system_id":"levelo_inurba_marseille","lat":43.30147,"lon":5.37399,"is_reserved":false,"is_disabled":false,"rental_uris":{"android":"levelo://app?vid=3b8abfc1-a688-4612-9d4a-2a6b1c7c250e","ios":"levelo://app?vid=3b8abfc1-a688-4612-9d4a-2a6b1c7c250e"},"vehicle_type_id":"4","last_reported":1746429068,"current_range_meters":26000,"station_id":"ce4bgs92rcd13ifvqcc0","pricing_plan_id":"cebpf4jnsgd1na2vs0mg"},{"bike_id":"0aa5b90f-550a-4efd-9bbc-22b1b2133141","system_id":"levelo_inurba_marseille","lat":43.271034,"lon":5.422495,"is_reserved":false,"is_disabled":false,"rental_uris":{"android":"levelo://app?vid=0aa5b90f-550a-4efd-9bbc-22b1b2133141","ios":"levelo://app?vid=0aa5b90f-550a-4efd-9bbc-22b1b2133141"},"vehicle_type_id":"4","last_reported":1746429068,"current_range_meters":26000,"station_id":"ce4bhk92rcd13ifvqgb0","pricing_plan_id":"cebpf4jnsgd1na2vs0mg"},{"bike_id":"01d37dcf-7daa-4fc6-8683-fe1a33ef1e32","system_id":"levelo_inurba_marseille","lat":43.25944,"lon":5.40937,"is_reserved":false,"is_disabled":false,"rental_uris":{"android":"levelo://app?vid=01d37dcf-7daa-4fc6-8683-fe1a33ef1e32","ios":"levelo://app?vid=01d37dcf-7daa-4fc6-8683-fe1a33ef1e32"},"vehicle_type_id":"4","last_reported":1746429068,"current_range_meters":26000,"station_id":"ce4bhm92rcd13ifvqglg","pricing_plan_id":"cebpf4jnsgd1na2vs0mg"},{"bike_id":"6f10c397-2fb9-4802-915f-b2f2dce9e14a","system_id":"levelo_inurba_marseille","lat":43.23057,"lon":5.3549,"is_reserved":false,"is_disabled":false,"rental_uris":{"android":"levelo://app?vid=6f10c397-2fb9-4802-915f-b2f2dce9e14a","ios":"levelo://app?vid=6f10c397-2fb9-4802-915f-b2f2dce9e14a"},"vehicle_type_id":"4","last_reported":1746429068,"current_range_meters":26000,"station_id":"cpo3342slgdg3j2ifvpg","pricing_plan_id":"cebpf4jnsgd1na2vs0mg"},{"bike_id":"1bcedd05-90fb-4c2c-b71e-896ea9a48d5f","system_id":"levelo_inurba_marseille","lat":43.293089,"lon":5.434588,"is_reserved":false,"is_disabled":false,"rental_uris":{"android":"levelo://app?vid=1bcedd05-90fb-4c2c-b71e-896ea9a48d5f","ios":"levelo://app?vid=1bcedd05-90fb-4c2c-b71e-896ea9a48d5f"},"vehicle_type_id":"4","last_reported":1746429068,"current_range_meters":26800,"station_id":"","pricing_plan_id":"cebpf4jnsgd1na2vs0mg"},{"bike_id":"c54b3709-1397-4e99-8c95-e1852b307785","system_id":"levelo_inurba_marseille","lat":43.30306,"lon":5.36889,"is_reserved":false,"is_disabled":false,"rental_uris":{"android":"levelo://app?vid=c54b3709-1397-4e99-8c95-e1852b307785","ios":"levelo://app?vid=c54b3709-1397-4e99-8c95-e1852b307785"},"vehicle_type_id":"4","last_reported":1746429068,"current_range_meters":26800,"station_id":"ce4bgqh2rcd13ifvqc5g","pricing_plan_id":"cebpf4jnsgd1na2vs0mg"},{"bike_id":"7889296b-01a7-41a4-a4f3-61d808b876c6","system_id":"levelo_inurba_marseille","lat":43.30148,"lon":5.3742,"is_reserved":false,"is_disabled":false,"rental_uris":{"android":"levelo://app?vid=7889296b-01a7-41a4-a4f3-61d808b876c6","ios":"levelo://app?vid=7889296b-01a7-41a4-a4f3-61d808b876c6"},"vehicle_type_id":"4","last_reported":1746429068,"current_range_meters":26800,"station_id":"ce4bgs92rcd13ifvqcc0","pricing_plan_id":"cebpf4jnsgd1na2vs0mg"},{"bike_id":"44831dd8-ead3-45cf-98c9-1f16b936c215","system_id":"levelo_inurba_marseille","lat":43.2758,"lon":5.38419,"is_reserved":false,"is_disabled":false,"rental_uris":{"android":"levelo://app?vid=44831dd8-ead3-45cf-98c9-1f16b936c215","ios":"levelo://app?vid=44831dd8-ead3-45cf-98c9-1f16b936c215"},"vehicle_type_id":"4","last_reported":1746429068,"current_range_meters":26800,"station_id":"ce4bhh92rcd13ifvqfi0","pricing_plan_id":"cebpf4jnsgd1na2vs0mg"},{"bike_id":"977f4bb4-3d44-493d-b5a1-22093907125a","system_id":"levelo_inurba_marseille","lat":43.27089,"lon":5.42281,"is_reserved":false,"is_disabled":false,"rental_uris":{"android":"levelo://app?vid=977f4bb4-3d44-493d-b5a1-22093907125a","ios":"levelo://app?vid=977f4bb4-3d44-493d-b5a1-22093907125a"},"vehicle_type_id":"4","last_reported":1746429068,"current_range_meters":26800,"station_id":"ce4bhk92rcd13ifvqgb0","pricing_plan_id":"cebpf4jnsgd1na2vs0mg"},{"bike_id":"1df7dfbc-0320-4d92-8e52-b134f887e146","system_id":"levelo_inurba_marseille","lat":43.25934,"lon":5.40906,"is_reserved":false,"is_disabled":false,"rental_uris":{"android":"levelo://app?vid=1df7dfbc-0320-4d92-8e52-b134f887e146","ios":"levelo://app?vid=1df7dfbc-0320-4d92-8e52-b134f887e146"},"vehicle_type_id":"4","last_reported":1746429068,"current_range_meters":26800,"station_id":"ce4bhm92rcd13ifvqglg","pricing_plan_id":"cebpf4jnsgd1na2vs0mg"},{"bike_id":"f8b0b83e-3275-4842-8279-54953a201dd7","system_id":"levelo_inurba_marseille","lat":43.26239,"lon":5.4045,"is_reserved":false,"is_disabled":false,"rental_uris":{"android":"levelo://app?vid=f8b0b83e-3275-4842-8279-54953a201dd7","ios":"levelo://app?vid=f8b0b83e-3275-4842-8279-54953a201dd7"},"vehicle_type_id":"4","last_reported":1746429068,"current_range_meters":26800,"station_id":"ce4bhmh2rcd13ifvqgmg","pricing_plan_id":"cebpf4jnsgd1na2vs0mg"},{"bike_id":"4b206db5-c967-4c71-882b-386efc859abe","system_id":"levelo_inurba_marseille","lat":43.27508,"lon":5.42441,"is_reserved":false,"is_disabled":false,"rental_uris":{"android":"levelo://app?vid=4b206db5-c967-4c71-882b-386efc859abe","ios":"levelo://app?vid=4b206db5-c967-4c71-882b-386efc859abe"},"vehicle_type_id":"4","last_reported":1746429068,"current_range_meters":26800,"station_id":"ce4bhn92rcd13ifvqgrg","pricing_plan_id":"cebpf4jnsgd1na2vs0mg"},{"bike_id":"242059a5-003b-4bf1-89b7-1b3314f16e6c","system_id":"levelo_inurba_marseille","lat":43.24084,"lon":5.37752,"is_reserved":false,"is_disabled":false,"rental_uris":{"android":"levelo://app?vid=242059a5-003b-4bf1-89b7-1b3314f16e6c","ios":"levelo://app?vid=242059a5-003b-4bf1-89b7-1b3314f16e6c"},"vehicle_type_id":"4","last_reported":1746429068,"current_range_meters":26800,"station_id":"ce4bhnp2rcd13ifvqgvg","pricing_plan_id":"cebpf4jnsgd1na2vs0mg"},{"bike_id":"4ad03ea1-f288-4498-a293-934bc1232552","system_id":"levelo_inurba_marseille","lat":43.33723,"lon":5.39182,"is_reserved":false,"is_disabled":false,"rental_uris":{"android":"levelo://app?vid=4ad03ea1-f288-4498-a293-934bc1232552","ios":"levelo://app?vid=4ad03ea1-f288-4498-a293-934bc1232552"},"vehicle_type_id":"4","last_reported":1746429068,"current_range_meters":26800,"station_id":"ce4bhr92rcd13ifvqhsg","pricing_plan_id":"cebpf4jnsgd1na2vs0mg"},{"bike_id":"8ce612cb-4505-43e8-9327-6527444ee299","system_id":"levelo_inurba_marseille","lat":43.309,"lon":5.37178,"is_reserved":false,"is_disabled":false,"rental_uris":{"android":"levelo://app?vid=8ce612cb-4505-43e8-9327-6527444ee299","ios":"levelo://app?vid=8ce612cb-4505-43e8-9327-6527444ee299"},"vehicle_type_id":"4","last_reported":1746429068,"current_range_meters":27200,"station_id":"ce4bguh2rcd13ifvqckg","pricing_plan_id":"cebpf4jnsgd1na2vs0mg"},{"bike_id":"857e7590-97ea-4f55-ae7c-036d8099eb42","system_id":"levelo_inurba_marseille","lat":43.25578,"lon":5.38223,"is_reserved":false,"is_disabled":false,"rental_uris":{"android":"levelo://app?vid=857e7590-97ea-4f55-ae7c-036d8099eb42","ios":"levelo://app?vid=857e7590-97ea-4f55-ae7c-036d8099eb42"},"vehicle_type_id":"4","last_reported":1746429068,"current_range_meters":27200,"station_id":"ce4bhih2rcd13ifvqfs0","pricing_plan_id":"cebpf4jnsgd1na2vs0mg"},{"bike_id":"66eddbaa-84f8-4a9f-ab63-e426e160b1f6","system_id":"levelo_inurba_marseille","lat":43.25948,"lon":5.40901,"is_reserved":false,"is_disabled":false,"rental_uris":{"android":"levelo://app?vid=66eddbaa-84f8-4a9f-ab63-e426e160b1f6","ios":"levelo://app?vid=66eddbaa-84f8-4a9f-ab63-e426e160b1f6"},"vehicle_type_id":"4","last_reported":1746429068,"current_range_meters":27200,"station_id":"ce4bhm92rcd13ifvqglg","pricing_plan_id":"cebpf4jnsgd1na2vs0mg"},{"bike_id":"79b06513-1be3-43fd-a1aa-b7c7c6c1c8db","system_id":"levelo_inurba_marseille","lat":43.308064,"lon":5.435331,"is_reserved":false,"is_disabled":false,"rental_uris":{"android":"levelo://app?vid=79b06513-1be3-43fd-a1aa-b7c7c6c1c8db","ios":"levelo://app?vid=79b06513-1be3-43fd-a1aa-b7c7c6c1c8db"},"vehicle_type_id":"4","last_reported":1746429068,"current_range_meters":27200,"station_id":"ce4bhph2rcd13ifvqheg","pricing_plan_id":"cebpf4jnsgd1na2vs0mg"},{"bike_id":"210058a4-c255-4e01-986f-7e4b35c69cfa","system_id":"levelo_inurba_marseille","lat":43.30902,"lon":5.36844,"is_reserved":false,"is_disabled":false,"rental_uris":{"android":"levelo://app?vid=210058a4-c255-4e01-986f-7e4b35c69cfa","ios":"levelo://app?vid=210058a4-c255-4e01-986f-7e4b35c69cfa"},"vehicle_type_id":"4","last_reported":1746429068,"current_range_meters":27600,"station_id":"ce4bgn92rcd13ifvqbvg","pricing_plan_id":"cebpf4jnsgd1na2vs0mg"},{"bike_id":"2fba2a55-9c95-4241-ab2c-46bd317d0654","system_id":"levelo_inurba_marseille","lat":43.30953,"lon":5.39029,"is_reserved":false,"is_disabled":false,"rental_uris":{"android":"levelo://app?vid=2fba2a55-9c95-4241-ab2c-46bd317d0654","ios":"levelo://app?vid=2fba2a55-9c95-4241-ab2c-46bd317d0654"},"vehicle_type_id":"4","last_reported":1746429068,"current_range_meters":27600,"station_id":"ce4bgup2rcd13ifvqco0","pricing_plan_id":"cebpf4jnsgd1na2vs0mg"},{"bike_id":"7e58533c-6e99-49b2-aa19-279baf411c23","system_id":"levelo_inurba_marseille","lat":43.26233,"lon":5.40466,"is_reserved":false,"is_disabled":false,"rental_uris":{"android":"levelo://app?vid=7e58533c-6e99-49b2-aa19-279baf411c23","ios":"levelo://app?vid=7e58533c-6e99-49b2-aa19-279baf411c23"},"vehicle_type_id":"4","last_reported":1746429068,"current_range_meters":27600,"station_id":"ce4bhmh2rcd13ifvqgmg","pricing_plan_id":"cebpf4jnsgd1na2vs0mg"},{"bike_id":"fa02d5da-a6c8-4512-94f1-aeb32d688931","system_id":"levelo_inurba_marseille","lat":43.24183,"lon":5.39724,"is_reserved":false,"is_disabled":false,"rental_uris":{"android":"levelo://app?vid=fa02d5da-a6c8-4512-94f1-aeb32d688931","ios":"levelo://app?vid=fa02d5da-a6c8-4512-94f1-aeb32d688931"},"vehicle_type_id":"4","last_reported":1746429068,"current_range_meters":27600,"station_id":"ce4bhn12rcd13ifvqgpg","pricing_plan_id":"cebpf4jnsgd1na2vs0mg"},{"bike_id":"89a87ac7-bc3b-476b-9481-69c3b8e589cc","system_id":"levelo_inurba_marseille","lat":43.285018,"lon":5.370748,"is_reserved":false,"is_disabled":false,"rental_uris":{"android":"levelo://app?vid=89a87ac7-bc3b-476b-9481-69c3b8e589cc","ios":"levelo://app?vid=89a87ac7-bc3b-476b-9481-69c3b8e589cc"},"vehicle_type_id":"4","last_reported":1746429068,"current_range_meters":28000,"station_id":"","pricing_plan_id":"cebpf4jnsgd1na2vs0mg"},{"bike_id":"4a3e8c45-bb88-43e6-aa71-62c51cdba0d7","system_id":"levelo_inurba_marseille","lat":43.303135,"lon":5.391795,"is_reserved":false,"is_disabled":false,"rental_uris":{"android":"levelo://app?vid=4a3e8c45-bb88-43e6-aa71-62c51cdba0d7","ios":"levelo://app?vid=4a3e8c45-bb88-43e6-aa71-62c51cdba0d7"},"vehicle_type_id":"4","last_reported":1746429068,"current_range_meters":28000,"station_id":"ce4bgkh2rcd13ifvqbk0","pricing_plan_id":"cebpf4jnsgd1na2vs0mg"},{"bike_id":"97b81e5c-adb6-4316-908f-82cb8bcc9226","system_id":"levelo_inurba_marseille","lat":43.31248,"lon":5.36865,"is_reserved":false,"is_disabled":false,"rental_uris":{"android":"levelo://app?vid=97b81e5c-adb6-4316-908f-82cb8bcc9226","ios":"levelo://app?vid=97b81e5c-adb6-4316-908f-82cb8bcc9226"},"vehicle_type_id":"4","last_reported":1746429068,"current_range_meters":28000,"station_id":"ce4bgl92rcd13ifvqbq0","pricing_plan_id":"cebpf4jnsgd1na2vs0mg"},{"bike_id":"d5b5dfd7-c64a-42cb-9895-be50a44e3169","system_id":"levelo_inurba_marseille","lat":43.30562,"lon":5.36555,"is_reserved":false,"is_disabled":false,"rental_uris":{"android":"levelo://app?vid=d5b5dfd7-c64a-42cb-9895-be50a44e3169","ios":"levelo://app?vid=d5b5dfd7-c64a-42cb-9895-be50a44e3169"},