{"last_updated":1735978277,"ttl":60,"version":"2.2","data":{"bikes":[{"bike_id":"7e37bb78-6df8-4065-a33a-785e0d2acb31","system_id":"levelo_inurba_marseille","lat":43.29186,"lon":5.35798,"is_reserved":false,"is_disabled":false,"rental_uris":{"android":"levelo://app?vid=7e37bb78-6df8-4065-a33a-785e0d2acb31","ios":"levelo://app?vid=7e37bb78-6df8-4065-a33a-785e0d2acb31"},"vehicle_type_id":"4","last_reported":1735978277,"current_range_meters":38800,"station_id":"ce4bhb12rcd13ifvqel0","pricing_plan_id":"cebpf4jnsgd1na2vs0mg"},{"bike_id":"d1c7e603-0dce-465b-b799-1856c2d7e025","system_id":"levelo_inurba_marseille","lat":43.29371,"lon":5.3785,"is_reserved":false,"is_disabled":false,"rental_uris":{"android":"levelo://app?vid=d1c7e603-0dce-465b-b799-1856c2d7e025","ios":"levelo://app?vid=d1c7e603-0dce-465b-b799-1856c2d7e025"},"vehicle_type_id":"4","last_reported":1735978277,"current_range_meters":39200,"station_id":"ce4bgjh2rcd13ifvqbf0","pricing_plan_id":"cebpf4jnsgd1na2vs0mg"},{"bike_id":"bf54e88b-da3f-4189-8098-c83ac2078216","system_id":"levelo_inurba_marseille","lat":43.279435,"lon":5.410414,"is_reserved":false,"is_disabled":false,"rental_uris":{"android":"levelo://app?vid=bf54e88b-da3f-4189-8098-c83ac2078216","ios":"levelo://app?vid=bf54e88b-da3f-4189-8098-c83ac2078216"},"vehicle_type_id":"4","last_reported":1735978277,"current_range_meters":24800,"station_id":"ce4bhnp2rcd13ifvqh0g","pricing_plan_id":"cebpf4jnsgd1na2vs0mg"},{"bike_id":"8a1c8515-1ea6-4df4-8053-9c02da774842","system_id":"levelo_inurba_marseille","lat":43.306569,"lon":5.400922,"is_reserved":false,"is_disabled":true,"rental_uris":{"android":"levelo://app?vid=8a1c8515-1ea6-4df4-8053-9c02da774842","ios":"levelo://app?vid=8a1c8515-1ea6-4df4-8053-9c02da774842"},"vehicle_type_id":"4","last_reported":1735978277,"current_range_meters":1600,"station_id":"ce4bh112rcd13ifvqda0","pricing_plan_id":"cebpf4jnsgd1na2vs0mg"},{"bike_id":"7ebb8584-61a3-4124-a2af-8145a28fbd50","system_id":"levelo_inurba_marseille","lat":43.31173,"lon":5.38691,"is_reserved":false,"is_disabled":false,"rental_uris":{"android":"levelo://app?vid=7ebb8584-61a3-4124-a2af-8145a28fbd50","ios":"levelo://app?vid=7ebb8584-61a3-4124-a2af-8145a28fbd50"},"vehicle_type_id":"4","last_reported":1735978277,"current_range_meters":37600,"station_id":"ce4bgv12rcd13ifvqcp0","pricing_plan_id":"cebpf4jnsgd1na2vs0mg"},{"bike_id":"05793010-67bf-4cf9-85c1-266c8ecb0e3c","system_id":"levelo_inurba_marseille","lat":43.2396,"lon":5.36631,"is_reserved":false,"is_disabled":false,"rental_uris":{"android":"levelo://app?vid=05793010-67bf-4cf9-85c1-266c8ecb0e3c","ios":"levelo://app?vid=05793010-67bf-4cf9-85c1-266c8ecb0e3c"},"vehicle_type_id":"4","last_reported":1735978277,"current_range_meters":33600,"station_id":"ce4bhi12rcd13ifvqfp0","pricing_plan_id":"cebpf4jnsgd1na2vs0mg"},{"bike_id":"f384c3fa-1379-45bb-873d-560539185d63","system_id":"levelo_inurba_marseille","lat":43.32108,"lon":5.36768,"is_reserved":false,"is_disabled":false,"rental_uris":{"android":"levelo://app?vid=f384c3fa-1379-45bb-873d-560539185d63","ios":"levelo://app?vid=f384c3fa-1379-45bb-873d-560539185d63"},"vehicle_type_id":"4","last_reported":1735978277,"current_range_meters":28800,"station_id":"ce4bhrh2rcd13ifvqhug","pricing_plan_id":"cebpf4jnsgd1na2vs0mg"},{"bike_id":"ca4beb2c-c4d8-484f-9237-25798230877a","system_id":"levelo_inurba_marseille","lat":43.290022,"lon":5.356088,"is_reserved":false,"is_disabled":false,"rental_uris":{"android":"levelo://app?vid=ca4beb2c-c4d8-484f-9237-25798230877a","ios":"levelo://app?vid=ca4beb2c-c4d8-484f-9237-25798230877a"},"vehicle_type_id":"4","last_reported":1735978277,"current_range_meters":39200,"station_id":"ce4bhb92rcd13ifvqen0","pricing_plan_id":"cebpf4jnsgd1na2vs0mg"},{"bike_id":"cdc4b0cc-0711-4b56-904c-59d269c327ef","system_id":"levelo_inurba_marseille","lat":43.31333,"lon":5.39726,"is_reserved":false,"is_disabled":false,"rental_uris":{"android":"levelo://app?vid=cdc4b0cc-0711-4b56-904c-59d269c327ef","ios":"levelo://app?vid=cdc4b0cc-0711-4b56-904c-59d269c327ef"},"vehicle_type_id":"4","last_reported":1735978277,"current_range_meters":37600,"station_id":"ce4bgvp2rcd13ifvqcu0","pricing_plan_id":"cebpf4jnsgd1na2vs0mg"},{"bike_id":"e1dfcdee-18af-407f-9a6c-807a8fefbf81","system_id":"levelo_inurba_marseille","lat":43.29006,"lon":5.35621,"is_reserved":false,"is_disabled":false,"rental_uris":{"android":"levelo://app?vid=e1dfcdee-18af-407f-9a6c-807a8fefbf81","ios":"levelo://app?vid=e1dfcdee-18af-407f-9a6c-807a8fefbf81"},"vehicle_type_id":"4","last_reported":1735978277,"current_range_meters":38800,"station_id":"ce4bhb92rcd13ifvqen0","pricing_plan_id":"cebpf4jnsgd1na2vs0mg"},{"bike_id":"c817df19-d350-4aff-b4f5-f81966d20238","system_id":"levelo_inurba_marseille","lat":43.29299,"lon":5.37468,"is_reserved":false,"is_disabled":false,"rental_uris":{"android":"levelo://app?vid=c817df19-d350-4aff-b4f5-f81966d20238","ios":"levelo://app?vid=c817df19-d350-4aff-b4f5-f81966d20238"},"vehicle_type_id":"4","last_reported":1735978277,"current_range_meters":28000,"station_id":"ce4bgi12rcd13ifvqb70","pricing_plan_id":"cebpf4jnsgd1na2vs0mg"},{"bike_id":"36d0910b-d540-4d75-b065-f044cb5b6555","system_id":"levelo_inurba_marseille","lat":43.29588,"lon":5.36734,"is_reserved":false,"is_disabled":false,"rental_uris":{"android":"levelo://app?vid=36d0910b-d540-4d75-b065-f044cb5b6555","ios":"levelo://app?vid=36d0910b-d540-4d75-b065-f044cb5b6555"},"vehicle_type_id":"4","last_reported":1735978277,"current_range_meters":38000,"station_id":"ce4bgph2rcd13ifvqc2g","pricing_plan_id":"cebpf4jnsgd1na2vs0mg"},{"bike_id":"9ed1d7d7-aa53-4a59-8c2f-3f877ca0891a","system_id":"levelo_inurba_marseille","lat":43.27956,"lon":5.41057,"is_reserved":false,"is_disabled":false,"rental_uris":{"android":"levelo://app?vid=9ed1d7d7-aa53-4a59-8c2f-3f877ca0891a","ios":"levelo://app?vid=9ed1d7d7-aa53-4a59-8c2f-3f877ca0891a"},"vehicle_type_id":"4","last_reported":1735978277,"current_range_meters":33600,"station_id":"ce4bhnp2rcd13ifvqh0g","pricing_plan_id":"cebpf4jnsgd1na2vs0mg"},{"bike_id":"4d1eafbe-660d-4c9b-9367-9cbdced45039","system_id":"levelo_inurba_marseille","lat":43.30468,"lon":5.37915,"is_reserved":false,"is_disabled":false,"rental_uris":{"android":"levelo://app?vid=4d1eafbe-660d-4c9b-9367-9cbdced45039","ios":"levelo://app?vid=4d1eafbe-660d-4c9b-9367-9cbdced45039"},"vehicle_type_id":"4","last_reported":1735978277,"current_range_meters":37600,"station_id":"ce4bgup2rcd13ifvqcn0","pricing_plan_id":"cebpf4jnsgd1na2vs0mg"},{"bike_id":"fe3aafb8-a6b4-4a18-a86a-13b013e22a76","system_id":"levelo_inurba_marseille","lat":43.315004,"lon":5.373034,"is_reserved":false,"is_disabled":false,"rental_uris":{"android":"levelo://app?vid=fe3aafb8-a6b4-4a18-a86a-13b013e22a76","ios":"levelo://app?vid=fe3aafb8-a6b4-4a18-a86a-13b013e22a76"},"vehicle_type_id":"4","last_reported":1735978277,"current_range_meters":36800,"station_id":"ce4bgt12rcd13ifvqcd0","pricing_plan_id":"cebpf4jnsgd1na2vs0mg"},{"bike_id":"a5e8d165-70e0-422e-a09a-e4ad1afc121d","system_id":"levelo_inurba_marseille","lat":43.28412,"lon":5.41275,"is_reserved":false,"is_disabled":true,"rental_uris":{"android":"levelo://app?vid=a5e8d165-70e0-422e-a09a-e4ad1afc121d","ios":"levelo://app?vid=a5e8d165-70e0-422e-a09a-e4ad1afc121d"},"vehicle_type_id":"4","last_reported":1735978277,"current_range_meters":27600,"station_id":"","pricing_plan_id":"cebpf4jnsgd1na2vs0mg"},{"bike_id":"116f92ae-65b4-4f7c-a23b-1117c0a69b33","system_id":"levelo_inurba_marseille","lat":43.28613,"lon":5.35101,"is_reserved":false,"is_disabled":false,"rental_uris":{"android":"levelo://app?vid=116f92ae-65b4-4f7c-a23b-1117c0a69b33","ios":"levelo://app?vid=116f92ae-65b4-4f7c-a23b-1117c0a69b33"},"vehicle_type_id":"4","last_reported":1735978277,"current_range_meters":24400,"station_id":"ce4bhch2rcd13ifvqeug","pricing_plan_id":"cebpf4jnsgd1na2vs0mg"},{"bike_id":"efe82dc4-c15f-4046-9226-91dca361e6bd","system_id":"levelo_inurba_marseille","lat":43.25575,"lon":5.38236,"is_reserved":false,"is_disabled":false,"rental_uris":{"android":"levelo://app?vid=efe82dc4-c15f-4046-9226-91dca361e6bd","ios":"levelo://app?vid=efe82dc4-c15f-4046-9226-91dca361e6bd"},"vehicle_type_id":"4","last_reported":1735978277,"current_range_meters":38000,"station_id":"ce4bhih2rcd13ifvqfs0","pricing_plan_id":"cebpf4jnsgd1na2vs0mg"},{"bike_id":"0a72fabb-c385-470f-8026-c60effe2f3f0","system_id":"levelo_inurba_marseille","lat":43.29689,"lon":5.35976,"is_reserved":false,"is_disabled":false,"rental_uris":{"android":"levelo://app?vid=0a72fabb-c385-470f-8026-c60effe2f3f0","ios":"levelo://app?vid=0a72fabb-c385-470f-8026-c60effe2f3f0"},"vehicle_type_id":"4","last_reported":1735978277,"current_range_meters":22000,"station_id":"","pricing_plan_id":"cebpf4jnsgd1na2vs0mg"},{"bike_id":"03355e91-3b50-4c56-8615-3f7a81903865","system_id":"levelo_inurba_marseille","lat":43.30169,"lon":5.38088,"is_reserved":false,"is_disabled":false,"rental_uris":{"android":"levelo://app?vid=03355e91-3b50-4c56-8615-3f7a81903865","ios":"levelo://app?vid=03355e91-3b50-4c56-8615-3f7a81903865"},"vehicle_type_id":"4","last_reported":1735978277,"current_range_meters":38400,"station_id":"ce4bgjp2rcd13ifvqbh0","pricing_plan_id":"cebpf4jnsgd1na2vs0mg"},{"bike_id":"76d392c8-6dd4-4fbf-b626-27c2990c047b","system_id":"levelo_inurba_marseille","lat":43.28152,"lon":5.42786,"is_reserved":false,"is_disabled":false,"rental_uris":{"android":"levelo://app?vid=76d392c8-6dd4-4fbf-b626-27c2990c047b","ios":"levelo://app?vid=76d392c8-6dd4-4fbf-b626-27c2990c047b"},"vehicle_type_id":"4","last_reported":1735978277,"current_range_meters":12400,"station_id":"","pricing_plan_id":"cebpf4jnsgd1na2vs0mg"},{"bike_id":"ebb56956-e2e2-4f51-8f7a-80ccc26c078c","system_id":"levelo_inurba_marseille","lat":43.28176,"lon":5.42622,"is_reserved":false,"is_disabled":false,"rental_uris":{"android":"levelo://app?vid=ebb56956-e2e2-4f51-8f7a-80ccc26c078c","ios":"levelo://app?vid=ebb56956-e2e2-4f51-8f7a-80ccc26c078c"},"vehicle_type_id":"4","last_reported":1735978277,"current_range_meters":28400,"station_id":"ce4bhnh2rcd13ifvqgug","pricing_plan_id":"cebpf4jnsgd1na2vs0mg"},{"bike_id":"7653e4dc-dde3-44a0-90b1-c01d8f4ac579","system_id":"levelo_inurba_marseille","lat":43.239622,"lon":5.366409,"is_reserved":false,"is_disabled":false,"rental_uris":{"android":"levelo://app?vid=7653e4dc-dde3-44a0-90b1-c01d8f4ac579","ios":"levelo://app?vid=7653e4dc-dde3-44a0-90b1-c01d8f4ac579"},"vehicle_type_id":"4","last_reported":1735978277,"current_range_meters":4800,"station_id":"ce4bhi12rcd13ifvqfp0","pricing_plan_id":"cebpf4jnsgd1na2vs0mg"},{"bike_id":"46681a0e-77c7-4e8c-9bb0-8038ae70f7ff","system_id":"levelo_inurba_marseille","lat":43.30322,"lon":5.36899,"is_reserved":false,"is_disabled":false,"rental_uris":{"android":"levelo://app?vid=46681a0e-77c7-4e8c-9bb0-8038ae70f7ff","ios":"levelo://app?vid=46681a0e-77c7-4e8c-9bb0-8038ae70f7ff"},"vehicle_type_id":"4","last_reported":1735978277,"current_range_meters":38800,"station_id":"ce4bgqh2rcd13ifvqc5g","pricing_plan_id":"cebpf4jnsgd1na2vs0mg"},{"bike_id":"593d8424-f565-422e-8480-e0f50e2c043e","system_id":"levelo_inurba_marseille","lat":43.27951,"lon":5.387091,"is_reserved":false,"is_disabled":true,"rental_uris":{"android":"levelo://app?vid=593d8424-f565-422e-8480-e0f50e2c043e","ios":"levelo://app?vid=593d8424-f565-422e-8480-e0f50e2c043e"},"vehicle_type_id":"4","last_reported":1735978277,"current_range_meters":37600,"station_id":"ce4bhg12rcd13ifvqf80","pricing_plan_id":"cebpf4jnsgd1na2vs0mg"},{"bike_id":"53bf85fe-dd63-4844-ad95-abf78e8c02a9","system_id":"levelo_inurba_marseille","lat":43.30185,"lon":5.36602,"is_reserved":false,"is_disabled":false,"rental_uris":{"android":"levelo://app?vid=53bf85fe-dd63-4844-ad95-abf78e8c02a9","ios":"levelo://app?vid=53bf85fe-dd63-4844-ad95-abf78e8c02a9"},"vehicle_type_id":"4","last_reported":1735978277,"current_range_meters":30000,"station_id":"ce4bgrh2rcd13ifvqc8g","pricing_plan_id":"cebpf4jnsgd1na2vs0mg"},{"bike_id":"b2aa002a-204a-4b80-9d0b-d9f09c9d5fa1","system_id":"levelo_inurba_marseille","lat":43.3361,"lon":5.41027,"is_reserved":false,"is_disabled":false,"rental_uris":{"android":"levelo://app?vid=b2aa002a-204a-4b80-9d0b-d9f09c9d5fa1","ios":"levelo://app?vid=b2aa002a-204a-4b80-9d0b-d9f09c9d5fa1"},"vehicle_type_id":"4","last_reported":1735978277,"current_range_meters":25200,"station_id":"ce4bhqh2rcd13ifvqhmg","pricing_plan_id":"cebpf4jnsgd1na2vs0mg"},{"bike_id":"c1fbacba-07fa-4084-9309-d9b176bb6829","system_id":"levelo_inurba_marseille","lat":43.28662,"lon":5.36358,"is_reserved":false,"is_disabled":false,"rental_uris":{"android":"levelo://app?vid=c1fbacba-07fa-4084-9309-d9b176bb6829","ios":"levelo://app?vid=c1fbacba-07fa-4084-9309-d9b176bb6829"},"vehicle_type_id":"4","last_reported":1735978277,"current_range_meters":38800,"station_id":"ce4bhah2rcd13ifvqej0","pricing_plan_id":"cebpf4jnsgd1na2vs0mg"},{"bike_id":"15d7971b-eed3-4b6e-8e61-b40a5a6478e8","system_id":"levelo_inurba_marseille","lat":43.30579,"lon":5.37216,"is_reserved":false,"is_disabled":false,"rental_uris":{"android":"levelo://app?vid=15d7971b-eed3-4b6e-8e61-b40a5a6478e8","ios":"levelo://app?vid=15d7971b-eed3-4b6e-8e61-b40a5a6478e8"},"vehicle_type_id":"4","last_reported":1735978277,"current_range_meters":39200,"station_id":"ce4bgqh2rcd13ifvqc4g","pricing_plan_id":"cebpf4jnsgd1na2vs0mg"},{"bike_id":"9d281a53-6992-4392-9438-72ec394ec5a5","system_id":"levelo_inurba_marseille","lat":43.24415,"lon":5.37033,"is_reserved":false,"is_disabled":false,"rental_uris":{"android":"levelo://app?vid=9d281a53-6992-4392-9438-72ec394ec5a5","ios":"levelo://app?vid=9d281a53-6992-4392-9438-72ec394ec5a5"},"vehicle_type_id":"4","last_reported":1735978277,"current_range_meters":6800,"station_id":"ce4bhhh2rcd13ifvqfk0","pricing_plan_id":"cebpf4jnsgd1na2vs0mg"},{"bike_id":"eb09bd5e-b0d3-4b59-b9d4-1e064baa5923","system_id":"levelo_inurba_marseille","lat":43.28022,"lon":5.36957,"is_reserved":false,"is_disabled":true,"rental_uris":{"android":"levelo://app?vid=eb09bd5e-b0d3-4b59-b9d4-1e064baa5923","ios":"levelo://app?vid=eb09bd5e-b0d3-4b59-b9d4-1e064baa5923"},"vehicle_type_id":"4","last_reported":1735978277,"current_range_meters":1200,"station_id":"ce4bha12rcd13ifvqef0","pricing_plan_id":"cebpf4jnsgd1na2vs0mg"},{"bike_id":"6c92faae-448f-4fcd-b837-c7db2ff4caee","system_id":"levelo_inurba_marseille","lat":43.3063,"lon":5.40089,"is_reserved":false,"is_disabled":false,"rental_uris":{"android":"levelo://app?vid=6c92faae-448f-4fcd-b837-c7db2ff4caee","ios":"levelo://app?vid=6c92faae-448f-4fcd-b837-c7db2ff4caee"},"vehicle_type_id":"4","last_reported":1735978277,"current_range_meters":38000,"station_id":"ce4bh112rcd13ifvqda0","pricing_plan_id":"cebpf4jnsgd1na2vs0mg"},{"bike_id":"b3e2621b-8dba-4ed9-979c-bd4efd9c46e9","system_id":"levelo_inurba_marseille","lat":43.29191,"lon":5.39315,"is_reserved":false,"is_disabled":false,"rental_uris":{"android":"levelo://app?vid=b3e2621b-8dba-4ed9-979c-bd4efd9c46e9","ios":"levelo://app?vid=b3e2621b-8dba-4ed9-979c-bd4efd9c46e9"},"vehicle_type_id":"4","last_reported":1735978277,"current_range_meters":38800,"station_id":"ce4bh192rcd13ifvqdd0","pricing_plan_id":"cebpf4jnsgd1na2vs0mg"},{"bike_id":"7816c12e-61a1-48b1-b7a9-75d01de1e070","system_id":"levelo_inurba_marseille","lat":43.28947,"lon":5.36402,"is_reserved":false,"is_disabled":false,"rental_uris":{"android":"levelo://app?vid=7816c12e-61a1-48b1-b7a9-75d01de1e070","ios":"levelo://app?vid=7816c12e-61a1-48b1-b7a9-75d01de1e070"},"vehicle_type_id":"4","last_reported":1735978277,"current_range_meters":38800,"station_id":"ce4bhc92rcd13ifvqetg","pricing_plan_id":"cebpf4jnsgd1na2vs0mg"},{"bike_id":"a7372f70-ee95-48b9-a7fc-4423c57fc977","system_id":"levelo_inurba_marseille","lat":43.255803,"lon":5.382407,"is_reserved":false,"is_disabled":false,"rental_uris":{"android":"levelo://app?vid=a7372f70-ee95-48b9-a7fc-4423c57fc977","ios":"levelo://app?vid=a7372f70-ee95-48b9-a7fc-4423c57fc977"},"vehicle_type_id":"4","last_reported":1735978277,"current_range_meters":35200,"station_id":"ce4bhih2rcd13ifvqfs0","pricing_plan_id":"cebpf4jnsgd1na2vs0mg"},{"bike_id":"8e73d16b-1acc-4f69-b015-05407354b4ca","system_id":"levelo_inurba_marseille","lat":43.28975,"lon":5.3784,"is_reserved":false,"is_disabled":false,"rental_uris":{"android":"levelo://app?vid=8e73d16b-1acc-4f69-b015-05407354b4ca","ios":"levelo://app?vid=8e73d16b-1acc-4f69-b015-05407354b4ca"},"vehicle_type_id":"4","last_reported":1735978277,"current_range_meters":24800,"station_id":"ce4bh9p2rcd13ifvqed0","pricing_plan_id":"cebpf4jnsgd1na2vs0mg"},{"bike_id":"8134c671-2ab1-454b-8dc5-429e4b508ef7","system_id":"levelo_inurba_marseille","lat":43.267994,"lon":5.402636,"is_reserved":false,"is_disabled":false,"rental_uris":{"android":"levelo://app?vid=8134c671-2ab1-454b-8dc5-429e4b508ef7","ios":"levelo://app?vid=8134c671-2ab1-454b-8dc5-429e4b508ef7"},"vehicle_type_id":"4","last_reported":1735978277,"current_range_meters":34800,"station_id":"ce501612rcd8frsf0b60","pricing_plan_id":"cebpf4jnsgd1na2vs0mg"},{"bike_id":"1edca33b-8d82-4613-945e-057a682428fe","system_id":"levelo_inurba_marseille","lat":43.33115,"lon":5.3822,"is_reserved":false,"is_disabled":false,"rental_uris":{"android":"levelo://app?vid=1edca33b-8d82-4613-945e-057a682428fe","ios":"levelo://app?vid=1edca33b-8d82-4613-945e-057a682428fe"},"vehicle_type_id":"4","last_reported":1735978277,"current_range_meters":30400,"station_id":"","pricing_plan_id":"cebpf4jnsgd1na2vs0mg"},{"bike_id":"fb0d5d50-2cba-4668-8a68-53b559a0ffc7","system_id":"levelo_inurba_marseille","lat":43.246672,"lon":5.381703,"is_reserved":false,"is_disabled":false,"rental_uris":{"android":"levelo://app?vid=fb0d5d50-2cba-4668-8a68-53b559a0ffc7","ios":"levelo://app?vid=fb0d5d50-2cba-4668-8a68-53b559a0ffc7"},"vehicle_type_id":"4","last_reported":1735978277,"current_range_meters":31200,"station_id":"ce4bhih2rcd13ifvqfr0","pricing_plan_id":"cebpf4jnsgd1na2vs0mg"},{"bike_id":"0c3b96ff-9de9-4b06-a81b-acb466115de3","system_id":"levelo_inurba_marseille","lat":43.25537,"lon":5.37659,"is_reserved":false,"is_disabled":false,"rental_uris":{"android":"levelo://app?vid=0c3b96ff-9de9-4b06-a81b-acb466115de3","ios":"levelo://app?vid=0c3b96ff-9de9-4b06-a81b-acb466115de3"},"vehicle_type_id":"4","last_reported":1735978277,"current_range_meters":36800,"station_id":"ce4bhh12rcd13ifvqff0","pricing_plan_id":"cebpf4jnsgd1na2vs0mg"},{"bike_id":"7f19a19c-d1b3-49ca-8538-1dc8022ef981","system_id":"levelo_inurba_marseille","lat":43.32111,"lon":5.36769,"is_reserved":false,"is_disabled":false,"rental_uris":{"android":"levelo://app?vid=7f19a19c-d1b3-49ca-8538-1dc8022ef981","ios":"levelo://app?vid=7f19a19c-d1b3-49ca-8538-1dc8022ef981"},"vehicle_type_id":"4","last_reported":1735978277,"current_range_meters":20800,"station_id":"ce4bhrh2rcd13ifvqhug","pricing_plan_id":"cebpf4jnsgd1na2vs0mg"},{"bike_id":"938f72f5-d3ed-4ad0-b720-47ecf0cb2559","system_id":"levelo_inurba_marseille","lat":43.28571,"lon":5.39505,"is_reserved":false,"is_disabled":false,"rental_uris":{"android":"levelo://app?vid=938f72f5-d3ed-4ad0-b720-47ecf0cb2559","ios":"levelo://app?vid=938f72f5-d3ed-4ad0-b720-47ecf0cb2559"},"vehicle_type_id":"4","last_reported":1735978277,"current_range_meters":38800,"station_id":"ce4bh292rcd13ifvqdg0","pricing_plan_id":"cebpf4jnsgd1na2vs0mg"},{"bike_id":"51c290a2-7515-4009-a711-4b6a24869285","system_id":"levelo_inurba_marseille","lat":43.30147,"lon":5.38073,"is_reserved":false,"is_disabled":false,"rental_uris":{"android":"levelo://app?vid=51c290a2-7515-4009-a711-4b6a24869285","ios":"levelo://app?vid=51c290a2-7515-4009-a711-4b6a24869285"},"vehicle_type_id":"4","last_reported":1735978277,"current_range_meters":38800,"station_id":"ce4bgjp2rcd13ifvqbh0","pricing_plan_id":"cebpf4jnsgd1na2vs0mg"},{"bike_id":"22dcddca-903e-4320-8758-4e730ed46e04","system_id":"levelo_inurba_marseille","lat":43.30882,"lon":5.39631,"is_reserved":false,"is_disabled":false,"rental_uris":{"android":"levelo://app?vid=22dcddca-903e-4320-8758-4e730ed46e04","ios":"levelo://app?vid=22dcddca-903e-4320-8758-4e730ed46e04"},"vehicle_type_id":"4","last_reported":1735978277,"current_range_meters":10000,"station_id":"ce4bh012rcd13ifvqcv0","pricing_plan_id":"cebpf4jnsgd1na2vs0mg"},{"bike_id":"b1f3e3b6-c999-4928-a924-99b5d3df209a","system_id":"levelo_inurba_marseille","lat":43.28998,"lon":5.35615,"is_reserved":false,"is_disabled":false,"rental_uris":{"android":"levelo://app?vid=b1f3e3b6-c999-4928-a924-99b5d3df209a","ios":"levelo://app?vid=b1f3e3b6-c999-4928-a924-99b5d3df209a"},"vehicle_type_id":"4","last_reported":1735978277,"current_range_meters":31200,"station_id":"ce4bhb92rcd13ifvqen0","pricing_plan_id":"cebpf4jnsgd1na2vs0mg"},{"bike_id":"77fb0e47-adbd-428a-8fb5-d537014b31f5","system_id":"levelo_inurba_marseille","lat":43.29809,"lon":5.38094,"is_reserved":false,"is_disabled":false,"rental_uris":{"android":"levelo://app?vid=77fb0e47-adbd-428a-8fb5-d537014b31f5","ios":"levelo://app?vid=77fb0e47-adbd-428a-8fb5-d537014b31f5"},"vehicle_type_id":"4","last_reported":1735978277,"current_range_meters":38000,"station_id":"ce4bgip2rcd13ifvqbb0","pricing_plan_id":"cebpf4jnsgd1na2vs0mg"},{"bike_id":"900befed-316a-4022-9675-3a013ee278fe","system_id":"levelo_inurba_marseille","lat":43.32356,"lon":5.36762,"is_reserved":false,"is_disabled":true,"rental_uris":{"android":"levelo://app?vid=900befed-316a-4022-9675-3a013ee278fe","ios":"levelo://app?vid=900befed-316a-4022-9675-3a013ee278fe"},"vehicle_type_id":"4","last_reported":1735978277,"current_range_meters":30400,"station_id":"ce4bhsh2rcd13ifvqi2g","pricing_plan_id":"cebpf4jnsgd1na2vs0mg"},{"bike_id":"2d501b20-a059-4090-bcbd-11ae141d8fcf","system_id":"levelo_inurba_marseille","lat":43.2871,"lon":5.37395,"is_reserved":false,"is_disabled":false,"rental_uris":{"android":"levelo://app?vid=2d501b20-a059-4090-bcbd-11ae141d8fcf","ios":"levelo://app?vid=2d501b20-a059-4090-bcbd-11ae141d8fcf"},"vehicle_type_id":"4","last_reported":1735978277,"current_range_meters":30800,"station_id":"ce4bh3p2rcd13ifvqdq0","pricing_plan_id":"cebpf4jnsgd1na2vs0mg"},{"bike_id":"3c7472a4-a45c-4f46-a692-aa44ebf92f21","system_id":"levelo_inurba_marseille","lat":43.27408,"lon":5.39406,"is_reserved":false,"is_disabled":false,"rental_uris":{"android":"levelo://app?vid=3c7472a4-a45c-4f46-a692-aa44ebf92f21","ios":"levelo://app?vid=3c7472a4-a45c-4f46-a692-aa44ebf92f21"},"vehicle_type_id":"4","last_reported":1735978277,"current_range_meters":28000,"station_id":"ce4bhdp2rcd13ifvqf20","pricing_plan_id":"cebpf4jnsgd1na2vs0mg"},{"bike_id":"058ecb54-af3e-4e44-a703-6e3c9b29c958","system_id":"levelo_inurba_marseille","lat":43.29004,"lon":5.35602,"is_reserved":false,"is_disabled":false,"rental_uris":{"android":"levelo://app?vid=058ecb54-af3e-4e44-a703-6e3c9b29c958","ios":"levelo://app?vid=058ecb54-af3e-4e44-a703-6e3c9b29c958"},"vehicle_type_id":"4","last_reported":1735978277,"current_range_meters":38400,"station_id":"ce4bhb92rcd13ifvqen0","pricing_plan_id":"cebpf4jnsgd1na2vs0mg"},{"bike_id":"f0ead5dd-c086-40ba-b637-5a58405b88b0","system_id":"levelo_inurba_marseille","lat":43.25109,"lon":5.40315,"is_reserved":false,"is_disabled":true,"rental_uris":{"android":"levelo://app?vid=f0ead5dd-c086-40ba-b637-5a58405b88b0","ios":"levelo://app?vid=f0ead5dd-c086-40ba-b637-5a58405b88b0"},"vehicle_type_id":"4","last_reported":1735978277,"current_range_meters":2000,"station_id":"ce4bhlh2rcd13ifvqgig","pricing_plan_id":"cebpf4jnsgd1na2vs0mg"},{"bike_id":"b5b2166a-b0b8-4fc4-9960-24fcf8dddf0c","system_id":"levelo_inurba_marseille","lat":43.30748,"lon":5.37881,"is_reserved":false,"is_disabled":false,"rental_uris":{"android":"levelo://app?vid=b5b2166a-b0b8-4fc4-9960-24fcf8dddf0c","ios":"levelo://app?vid=b5b2166a-b0b8-4fc4-9960-24fcf8dddf0c"},"vehicle_type_id":"4","last_reported":1735978277,"current_range_meters":8400,"station_id":"","pricing_plan_id":"cebpf4jnsgd1na2vs0mg"},{"bike_id":"488fb926-8856-44ac-8ca8-0d639bff2a36","system_id":"levelo_inurba_marseille","lat":43.3016,"lon":5.3807,"is_reserved":false,"is_disabled":false,"rental_uris":{"android":"levelo://app?vid=488fb926-8856-44ac-8ca8-0d639bff2a36","ios":"levelo://app?vid=488fb926-8856-44ac-8ca8-0d639bff2a36"},"vehicle_type_id":"4","last_reported":1735978277,"current_range_meters":30800,"station_id":"ce4bgjp2rcd13ifvqbh0","pricing_plan_id":"cebpf4jnsgd1na2vs0mg"},{"bike_id":"ea7050ff-7aa9-43ba-b203-b876f0962480","system_id":"levelo_inurba_marseille","lat":43.28001,"lon":5.400212,"is_reserved":false,"is_disabled":true,"rental_uris":{"android":"levelo://app?vid=ea7050ff-7aa9-43ba-b203-b876f0962480","ios":"levelo://app?vid=ea7050ff-7aa9-43ba-b203-b876f0962480"},"vehicle_type_id":"4","last_reported":1735978277,"current_range_meters":0,"station_id":"ce4bho92rcd13ifvqh4g","pricing_plan_id":"cebpf4jnsgd1na2vs0mg"},{"bike_id":"ace1766f-9b12-46d0-9afa-fd9b29f81ec7","system_id":"levelo_inurba_marseille","lat":43.30445,"lon":5.38888,"is_reserved":false,"is_disabled":false,"rental_uris":{"android":"levelo://app?vid=ace1766f-9b12-46d0-9afa-fd9b29f81ec7","ios":"levelo://app?vid=ace1766f-9b12-46d0-9afa-fd9b29f81ec7"},"vehicle_type_id":"4","last_reported":1735978277,"current_range_meters":36000,"station_id":"ce4bgk12rcd13ifvqbi0","pricing_plan_id":"cebpf4jnsgd1na2vs0mg"},{"bike_id":"13e1d001-5304-4440-8773-a99209b55da5","system_id":"levelo_inurba_marseille","lat":43.267892,"lon":5.394199,"is_reserved":false,"is_disabled":false,"rental_uris":{"android":"levelo://app?vid=13e1d001-5304-4440-8773-a99209b55da5","ios":"levelo://app?vid=13e1d001-5304-4440-8773-a99209b55da5"},"vehicle_type_id":"4","last_reported":1735978277,"current_range_meters":38000,"station_id":"ce4bhh12rcd13ifvqfg0","pricing_plan_id":"cebpf4jnsgd1na2vs0mg"},{"bike_id":"013a03d3-efe2-4f14-ab94-9d9f117fe332","system_id":"levelo_inurba_marseille","lat":43.26564,"lon":5.37278,"is_reserved":false,"is_disabled":true,"rental_uris":{"android":"levelo://app?vid=013a03d3-efe2-4f14-ab94-9d9f117fe332","ios":"levelo://app?vid=013a03d3-efe2-4f14-ab94-9d9f117fe332"},"vehicle_type_id":"4","last_reported":1735978277,"current_range_meters":0,"station_id":"ce4bhg12rcd13ifvqf70","pricing_plan_id":"cebpf4jnsgd1na2vs0mg"},{"bike_id":"2332862a-3884-4317-af82-ee9793e9b62c","system_id":"levelo_inurba_marseille","lat":43.240818,"lon":5.377336,"is_reserved":false,"is_disabled":false,"rental_uris":{"android":"levelo://app?vid=2332862a-3884-4317-af82-ee9793e9b62c","ios":"levelo://app?vid=2332862a-3884-4317-af82-ee9793e9b62c"},"vehicle_type_id":"4","last_reported":1735978277,"current_range_meters":17200,"station_id":"ce4bhnp2rcd13ifvqgvg","pricing_plan_id":"cebpf4jnsgd1na2vs0mg"},{"bike_id":"2dc8a66d-24cf-4895-80e5-0d94d1246134","system_id":"levelo_inurba_marseille","lat":43.28036,"lon":5.36941,"is_reserved":false,"is_disabled":false,"rental_uris":{"android":"levelo://app?vid=2dc8a66d-24cf-4895-80e5-0d94d1246134","ios":"levelo://app?vid=2dc8a66d-24cf-4895-80e5-0d94d1246134"},"vehicle_type_id":"4","last_reported":1735978277,"current_range_meters":17600,"station_id":"ce4bha12rcd13ifvqef0","pricing_plan_id":"cebpf4jnsgd1na2vs0mg"},{"bike_id":"2a583d9b-e42e-4633-b002-dbbb4f9b26aa","system_id":"levelo_inurba_marseille","lat":43.29949,"lon":5.36543,"is_reserved":false,"is_disabled":false,"rental_uris":{"android":"levelo://app?vid=2a583d9b-e42e-4633-b002-dbbb4f9b26aa","ios":"levelo://app?vid=2a583d9b-e42e-4633-b002-dbbb4f9b26aa"},"vehicle_type_id":"4","last_reported":1735978277,"current_range_meters":22000,"station_id":"ce4bgm92rcd13ifvqbr0","pricing_plan_id":"cebpf4jnsgd1na2vs0mg"},{"bike_id":"d0943ec1-121d-4618-a29a-f7c35af8f741","system_id":"levelo_inurba_marseille","lat":43.251209,"lon":5.403256,"is_reserved":false,"is_disabled":false,"rental_uris":{"android":"levelo://app?vid=d0943ec1-121d-4618-a29a-f7c35af8f741","ios":"levelo://app?vid=d0943ec1-121d-4618-a29a-f7c35af8f741"},"vehicle_type_id":"4","last_reported":1735978277,"current_range_meters":16400,"station_id":"ce4bhlh2rcd13ifvqgig","pricing_plan_id":"cebpf4jnsgd1na2vs0mg"},{"bike_id":"b196ede2-15dc-4193-a4cf-026c9e7d182c","system_id":"levelo_inurba_marseille","lat":43.3268,"lon":5.40972,"is_reserved":false,"is_disabled":false,"rental_uris":{"android":"levelo://app?vid=b196ede2-15dc-4193-a4cf-026c9e7d182c","ios":"levelo://app?vid=b196ede2-15dc-4193-a4cf-026c9e7d182c"},"vehicle_type_id":"4","last_reported":1735978277,"current_range_meters":22400,"station_id":"ce4bhpp2rcd13ifvqhgg","pricing_plan_id":"cebpf4jnsgd1na2vs0mg"},{"bike_id":"af6f5cf6-fe33-49d4-9b2b-a069d115dde7","system_id":"levelo_inurba_marseille","lat":43.29851,"lon":5.36289,"is_reserved":false,"is_disabled":false,"rental_uris":{"android":"levelo://app?vid=af6f5cf6-fe33-49d4-9b2b-a069d115dde7","ios":"levelo://app?vid=af6f5cf6-fe33-49d4-9b2b-a069d115dde7"},"vehicle_type_id":"4","last_reported":1735978277,"current_range_meters":20000,"station_id":"ce4bgpp2rcd13ifvqc3g","pricing_plan_id":"cebpf4jnsgd1na2vs0mg"},{"bike_id":"3a269826-99f7-4419-932c-0eb0bed13f31","system_id":"levelo_inurba_marseille","lat":43.23955,"lon":5.36627,"is_reserved":false,"is_disabled":false,"rental_uris":{"android":"levelo://app?vid=3a269826-99f7-4419-932c-0eb0bed13f31","ios":"levelo://app?vid=3a269826-99f7-4419-932c-0eb0bed13f31"},"vehicle_type_id":"4","last_reported":1735978277,"current_range_meters":25600,"station_id":"ce4bhi12rcd13ifvqfp0","pricing_plan_id":"cebpf4jnsgd1na2vs0mg"},{"bike_id":"187242c6-6bf3-4f6c-be6f-031703a6b4d1","system_id":"levelo_inurba_marseille","lat":43.25116,"lon":5.40322,"is_reserved":false,"is_disabled":false,"rental_uris":{"android":"levelo://app?vid=187242c6-6bf3-4f6c-be6f-031703a6b4d1","ios":"levelo://app?vid=187242c6-6bf3-4f6c-be6f-031703a6b4d1"},"vehicle_type_id":"4","last_reported":1735978277,"current_range_meters":27200,"station_id":"ce4bhlh2rcd13ifvqgig","pricing_plan_id":"cebpf4jnsgd1na2vs0mg"},{"bike_id":"01a892c4-6d34-4a6b-9f97-5324cd46aa08","system_id":"levelo_inurba_marseille","lat":43.28967,"lon":5.37855,"is_reserved":false,"is_disabled":true,"rental_uris":{"android":"levelo://app?vid=01a892c4-6d34-4a6b-9f97-5324cd46aa08","ios":"levelo://app?vid=01a892c4-6d34-4a6b-9f97-5324cd46aa08"},"vehicle_type_id":"4","last_reported":1735978277,"current_range_meters":37600,"station_id":"ce4bh9p2rcd13ifvqed0","pricing_plan_id":"cebpf4jnsgd1na2vs0mg"},{"bike_id":"7ab9c58a-6b74-449b-aa1a-6a6ce724462a","system_id":"levelo_inurba_marseille","lat":43.28436,"lon":5.39181,"is_reserved":false,"is_disabled":false,"rental_uris":{"android":"levelo://app?vid=7ab9c58a-6b74-449b-aa1a-6a6ce724462a","ios":"levelo://app?vid=7ab9c58a-6b74-449b-aa1a-6a6ce724462a"},"vehicle_type_id":"4","last_reported":1735978277,"current_range_meters":36400,"station_id":"ce4bhoh2rcd13ifvqh5g","pricing_plan_id":"cebpf4jnsgd1na2vs0mg"},{"bike_id":"d085f58b-745f-4180-b55b-83a215dc4056","system_id":"levelo_inurba_marseille","lat":43.27949,"lon":5.38725,"is_reserved":false,"is_disabled":false,"rental_uris":{"android":"levelo://app?vid=d085f58b-745f-4180-b55b-83a215dc4056","ios":"levelo://app?vid=d085f58b-745f-4180-b55b-83a215dc4056"},"vehicle_type_id":"4","last_reported":1735978277,"current_range_meters":27200,"station_id":"ce4bhg12rcd13ifvqf80","pricing_plan_id":"cebpf4jnsgd1na2vs0mg"},{"bike_id":"fe1f3da4-6e4f-4c85-95e0-2c21d9cb2095","system_id":"levelo_inurba_marseille","lat":43.30466,"lon":5.37908,"is_reserved":false,"is_disabled":true,"rental_uris":{"android":"levelo://app?vid=fe1f3da4-6e4f-4c85-95e0-2c21d9cb2095","ios":"levelo://app?vid=fe1f3da4-6e4f-4c85-95e0-2c21d9cb2095"},"vehicle_type_id":"4","last_reported":1735978277,"current_range_meters":30800,"station_id":"ce4bgup2rcd13ifvqcn0","pricing_plan_id":"cebpf4jnsgd1na2vs0mg"},{"bike_id":"06b66b8d-520d-4bd7-b5a7-b437c244ff77","system_id":"levelo_inurba_marseille","lat":43.27322,"lon":5.39083,"is_reserved":false,"is_disabled":false,"rental_uris":{"android":"levelo://app?vid=06b66b8d-520d-4bd7-b5a7-b437c244ff77","ios":"levelo://app?vid=06b66b8d-520d-4bd7-b5a7-b437c244ff77"},"vehicle_type_id":"4","last_reported":1735978277,"current_range_meters":28000,"station_id":"ce4bhgp2rcd13ifvqfe0","pricing_plan_id":"cebpf4jnsgd1na2vs0mg"},{"bike_id":"c38119df-a0cc-4d53-851b-aebce98309d3","system_id":"levelo_inurba_marseille","lat":43.25003,"lon":5.38902,"is_reserved":false,"is_disabled":false,"rental_uris":{"android":"levelo://app?vid=c38119df-a0cc-4d53-851b-aebce98309d3","ios":"levelo://app?vid=c38119df-a0cc-4d53-851b-aebce98309d3"},"vehicle_type_id":"4","last_reported":1735978277,"current_range_meters":5600,"station_id":"ce4bhgp2rcd13ifvqfd0","pricing_plan_id":"cebpf4jnsgd1na2vs0mg"},{"bike_id":"969c8a84-cf60-4395-8c81-a1d2e7dc81af","system_id":"levelo_inurba_marseille","lat":43.258618,"lon":5.399029,"is_reserved":false,"is_disabled":false,"rental_uris":{"android":"levelo://app?vid=969c8a84-cf60-4395-8c81-a1d2e7dc81af","ios":"levelo://app?vid=969c8a84-cf60-4395-8c81-a1d2e7dc81af"},"vehicle_type_id":"4","last_reported":1735978277,"current_range_meters":22000,"station_id":"ce4bhl92rcd13ifvqghg","pricing_plan_id":"cebpf4jnsgd1na2vs0mg"},{"bike_id":"86ae6cd6-b3ea-41c6-8785-41c214e26f50","system_id":"levelo_inurba_marseille","lat":43.30087,"lon":5.39079,"is_reserved":false,"is_disabled":false,"rental_uris":{"android":"levelo://app?vid=86ae6cd6-b3ea-41c6-8785-41c214e26f50","ios":"levelo://app?vid=86ae6cd6-b3ea-41c6-8785-41c214e26f50"},"vehicle_type_id":"4","last_reported":1735978277,"current_range_meters":38800,"station_id":"ce4bh192rcd13ifvqdb0","pricing_plan_id":"cebpf4jnsgd1na2vs0mg"},{"bike_id":"d06765fb-ae36-4bd9-824c-0b5234000b68","system_id":"levelo_inurba_marseille","lat":43.251175,"lon":5.403177,"is_reserved":false,"is_disabled":false,"rental_uris":{"android":"levelo://app?vid=d06765fb-ae36-4bd9-824c-0b5234000b68","ios":"levelo://app?vid=d06765fb-ae36-4bd9-824c-0b5234000b68"},"vehicle_type_id":"4","last_reported":1735978277,"current_range_meters":38800,"station_id":"ce4bhlh2rcd13ifvqgig","pricing_plan_id":"cebpf4jnsgd1na2vs0mg"},{"bike_id":"e62a9961-12fa-4314-af24-7ed97deb9ffe","system_id":"levelo_inurba_marseille","lat":43.313566,"lon":5.385016,"is_reserved":false,"is_disabled":false,"rental_uris":{"android":"levelo://app?vid=e62a9961-12fa-4314-af24-7ed97deb9ffe","ios":"levelo://app?vid=e62a9961-12fa-4314-af24-7ed97deb9ffe"},"vehicle_type_id":"4","last_reported":1735978277,"current_range_meters":14000,"station_id":"ce4bgt92rcd13ifvqcf0","pricing_plan_id":"cebpf4jnsgd1na2vs0mg"},{"bike_id":"f3d41f41-839d-41a5-aa6d-f2ba87ff18f0","system_id":"levelo_inurba_marseille","lat":43.24076,"lon":5.37759,"is_reserved":false,"is_disabled":true,"rental_uris":{"android":"levelo://app?vid=f3d41f41-839d-41a5-aa6d-f2ba87ff18f0","ios":"levelo://app?vid=f3d41f41-839d-41a5-aa6d-f2ba87ff18f0"},"vehicle_type_id":"4","last_reported":1735978277,"current_range_meters":400,"station_id":"ce4bhnp2rcd13ifvqgvg","pricing_plan_id":"cebpf4jnsgd1na2vs0mg"},{"bike_id":"6d14468d-d4fe-4fb2-b1d6-ebb52c384fb6","system_id":"levelo_inurba_marseille","lat":43.319932,"lon":5.381501,"is_reserved":false,"is_disabled":false,"rental_uris":{"android":"levelo://app?vid=6d14468d-d4fe-4fb2-b1d6-ebb52c384fb6","ios":"levelo://app?vid=6d14468d-d4fe-4fb2-b1d6-ebb52c384fb6"},"vehicle_type_id":"4","last_reported":1735978277,"current_range_meters":37600,"station_id":"ce4bhr12rcd13ifvqhpg","pricing_plan_id":"cebpf4jnsgd1na2vs0mg"},{"bike_id":"4b03cd5f-9e8c-4d47-9e0b-af68ce649735","system_id":"levelo_inurba_marseille","lat":43.28944,"lon":5.39625,"is_reserved":false,"is_disabled":false,"rental_uris":{"android":"levelo://app?vid=4b03cd5f-9e8c-4d47-9e0b-af68ce649735","ios":"levelo://app?vid=4b03cd5f-9e8c-4d47-9e0b-af68ce649735"},"vehicle_type_id":"4","last_reported":1735978277,"current_range_meters":38800,"station_id":"ce4bh3h2rcd13ifvqdn0","pricing_plan_id":"cebpf4jnsgd1na2vs0mg"},{"bike_id":"2f857458-45ae-4306-9ffb-5d94252d59a5","system_id":"levelo_inurba_marseille","lat":43.246424,"lon":5.389101,"is_reserved":false,"is_disabled":false,"rental_uris":{"android":"levelo://app?vid=2f857458-45ae-4306-9ffb-5d94252d59a5","ios":"levelo://app?vid=2f857458-45ae-4306-9ffb-5d94252d59a5"},"vehicle_type_id":"4","last_reported":1735978277,"current_range_meters":38800,"station_id":"ce4bhg12rcd13ifvqf60","pricing_plan_id":"cebpf4jnsgd1na2vs0mg"},{"bike_id":"1bc3f17f-3a03-40ea-93bc-69b7882c5876","system_id":"levelo_inurba_marseille","lat":43.33725,"lon":5.39183,"is_reserved":false,"is_disabled":false,"rental_uris":{"android":"levelo://app?vid=1bc3f17f-3a03-40ea-93bc-69b7882c5876","ios":"levelo://app?vid=1bc3f17f-3a03-40ea-93bc-69b7882c5876"},"vehicle_type_id":"4","last_reported":1735978277,"current_range_meters":38800,"station_id":"ce4bhr92rcd13ifvqhsg","pricing_plan_id":"cebpf4jnsgd1na2vs0mg"},{"bike_id":"7b78d5e2-5142-402d-a4f8-0f3037a6c533","system_id":"levelo_inurba_marseille","lat":43.26946,"lon":5.38629,"is_reserved":false,"is_disabled":true,"rental_uris":{"android":"levelo://app?vid=7b78d5e2-5142-402d-a4f8-0f3037a6c533","ios":"levelo://app?vid=7b78d5e2-5142-402d-a4f8-0f3037a6c533"},"vehicle_type_id":"4","last_reported":1735978277,"current_range_meters":12800,"station_id":"ce4bhh92rcd13ifvqfh0","pricing_plan_id":"cebpf4jnsgd1na2vs0mg"},{"bike_id":"cbb6eaa8-2a66-410e-9a99-0cc5daa01219","system_id":"levelo_inurba_marseille","lat":43.290045,"lon":5.356095,"is_reserved":false,"is_disabled":true,"rental_uris":{"android":"levelo://app?vid=cbb6eaa8-2a66-410e-9a99-0cc5daa01219","ios":"levelo://app?vid=cbb6eaa8-2a66-410e-9a99-0cc5daa01219"},"vehicle_type_id":"4","last_reported":1735978277,"current_range_meters":38800,"station_id":"ce4bhb92rcd13ifvqen0","pricing_plan_id":"cebpf4jnsgd1na2vs0mg"},{"bike_id":"00b0c897-4e8f-453d-8e9d-6135317dff3d","system_id":"levelo_inurba_marseille","lat":43.29558,"lon":5.42253,"is_reserved":false,"is_disabled":false,"rental_uris":{"android":"levelo://app?vid=00b0c897-4e8f-453d-8e9d-6135317dff3d","ios":"levelo://app?vid=00b0c897-4e8f-453d-8e9d-6135317dff3d"},"vehicle_type_id":"4","last_reported":1735978277,"current_range_meters":38000,"station_id":"ce4bhph2rcd13ifvqhdg","pricing_plan_id":"cebpf4jnsgd1na2vs0mg"},{"bike_id":"d0d21930-fe1d-478b-8251-bcf89564599d","system_id":"levelo_inurba_marseille","lat":43.29543,"lon":5.42275,"is_reserved":false,"is_disabled":false,"rental_uris":{"android":"levelo://app?vid=d0d21930-fe1d-478b-8251-bcf89564599d","ios":"levelo://app?vid=d0d21930-fe1d-478b-8251-bcf89564599d"},"vehicle_type_id":"4","last_reported":1735978277,"current_range_meters":30000,"station_id":"ce4bhph2rcd13ifvqhdg","pricing_plan_id":"cebpf4jnsgd1na2vs0mg"},{"bike_id":"555f7e8a-25ab-41f1-ab6e-3a9e595ad032","system_id":"levelo_inurba_marseille","lat":43.29966,"lon":5.37147,"is_reserved":false,"is_disabled":false,"rental_uris":{"android":"levelo://app?vid=555f7e8a-25ab-41f1-ab6e-3a9e595ad032","ios":"levelo://app?vid=555f7e8a-25ab-41f1-ab6e-3a9e595ad032"},"vehicle_type_id":"4","last_reported":1735978277,"current_range_meters":38000,"station_id":"ce4bgr92rcd13ifvqc7g","pricing_plan_id":"cebpf4jnsgd1na2vs0mg"},{"bike_id":"ef650c97-676b-47d7-bbac-7a4cdccbedab","system_id":"levelo_inurba_marseille","lat":43.30658,"lon":5.40053,"is_reserved":false,"is_disabled":false,"rental_uris":{"android":"levelo://app?vid=ef650c97-676b-47d7-bbac-7a4cdccbedab","ios":"levelo://app?vid=ef650c97-676b-47d7-bbac-7a4cdccbedab"},"vehicle_type_id":"4","last_reported":1735978277,"current_range_meters":38800,"station_id":"ce4bh112rcd13ifvqda0","pricing_plan_id":"cebpf4jnsgd1na2vs0mg"},{"bike_id":"7facf5dc-2dca-40fb-abf1-f4666c23c735","system_id":"levelo_inurba_marseille","lat":43.26681,"lon":5.38267,"is_reserved":false,"is_disabled":false,"rental_uris":{"android":"levelo://app?vid=7facf5dc-2dca-40fb-abf1-f4666c23c735","ios":"levelo://app?vid=7facf5dc-2dca-40fb-abf1-f4666c23c735"},"vehicle_type_id":"4","last_reported":1735978277,"current_range_meters":27200,"station_id":"ce4bhg92rcd13ifvqf90","pricing_plan_id":"cebpf4jnsgd1na2vs0mg"},{"bike_id":"1237c156-cfa6-45ec-9298-949dcdbd11b6","system_id":"levelo_inurba_marseille","lat":43.27373,"lon":5.36243,"is_reserved":false,"is_disabled":false,"rental_uris":{"android":"levelo://app?vid=1237c156-cfa6-45ec-9298-949dcdbd11b6","ios":"levelo://app?vid=1237c156-cfa6-45ec-9298-949dcdbd11b6"},"vehicle_type_id":"4","last_reported":1735978277,"current_range_meters":37600,"station_id":"ce4bhbh2rcd13ifvqeo0","pricing_plan_id":"cebpf4jnsgd1na2vs0mg"},{"bike_id":"cb9ddef6-e3ca-4d83-8257-6a73eb8266c6","system_id":"levelo_inurba_marseille","lat":43.32662,"lon":5.40985,"is_reserved":false,"is_disabled":false,"rental_uris":{"android":"levelo://app?vid=cb9ddef6-e3ca-4d83-8257-6a73eb8266c6","ios":"levelo://app?vid=cb9ddef6-e3ca-4d83-8257-6a73eb8266c6"},"vehicle_type_id":"4","last_reported":1735978277,"current_range_meters":36400,"station_id":"ce4bhpp2rcd13ifvqhgg","pricing_plan_id":"cebpf4jnsgd1na2vs0mg"},{"bike_id":"7b9e134f-1d5b-46f5-87f8-6cc312c5778f","system_id":"levelo_inurba_marseille","lat":43.22943,"lon":5.35377,"is_reserved":false,"is_disabled":false,"rental_uris":{"android":"levelo://app?vid=7b9e134f-1d5b-46f5-87f8-6cc312c5778f","ios":"levelo://app?vid=7b9e134f-1d5b-46f5-87f8-6cc312c5778f"},"vehicle_type_id":"4","last_reported":1735978277,"current_range_meters":38000,"station_id":"cpo3532slgdg3j2ikp40","pricing_plan_id":"cebpf4jnsgd1na2vs0mg"},{"bike_id":"c0a41200-1ce4-4b17-a1dd-d6d86b277ca4","system_id":"levelo_inurba_marseille","lat":43.28042,"lon":5.36952,"is_reserved":false,"is_disabled":false,"rental_uris":{"android":"levelo://app?vid=c0a41200-1ce4-4b17-a1dd-d6d86b277ca4","ios":"levelo://app?vid=c0a41200-1ce4-4b17-a1dd-d6d86b277ca4"},"vehicle_type_id":"4","last_reported":1735978277,"current_range_meters":38800,"station_id":"ce4bha12rcd13ifvqef0","pricing_plan_id":"cebpf4jnsgd1na2vs0mg"},{"bike_id":"135cf862-1e80-4855-8234-457b3ef98c02","system_id":"levelo_inurba_marseille","lat":43.29583,"lon":5.3674,"is_reserved":false,"is_disabled":false,"rental_uris":{"android":"levelo://app?vid=135cf862-1e80-4855-8234-457b3ef98c02","ios":"levelo://app?vid=135cf862-1e80-4855-8234-457b3ef98c02"},"vehicle_type_id":"4","last_reported":1735978277,"current_range_meters":8800,"station_id":"ce4bgph2rcd13ifvqc2g","pricing_plan_id":"cebpf4jnsgd1na2vs0mg"},{"bike_id":"29bfc3c6-909c-4ce4-9af7-610a2e74c011","system_id":"levelo_inurba_marseille","lat":43.29592,"lon":5.38097,"is_reserved":false,"is_disabled":false,"rental_uris":{"android":"levelo://app?vid=29bfc3c6-909c-4ce4-9af7-610a2e74c011","ios":"levelo://app?vid=29bfc3c6-909c-4ce4-9af7-610a2e74c011"},"vehicle_type_id":"4","last_reported":1735978277,"current_range_meters":32800,"station_id":"ce4bgl12rcd13ifvqbo0","pricing_plan_id":"cebpf4jnsgd1na2vs0mg"},{"bike_id":"b6bb9f04-4321-49e9-99be-1ec01f122623","system_id":"levelo_inurba_marseille","lat":43.274449,"lon":5.394091,"is_reserved":false,"is_disabled":false,"rental_uris":{"android":"levelo://app?vid=b6bb9f04-4321-49e9-99be-1ec01f122623","ios":"levelo://app?vid=b6bb9f04-4321-49e9-99be-1ec01f122623"},"vehicle_type_id":"4","last_reported":1735978277,"current_range_meters":38400,"station_id":"ce4bhdp2rcd13ifvqf20","pricing_plan_id":"cebpf4jnsgd1na2vs0mg"},{"bike_id":"34825794-d565-4dbd-8cbe-c88df4608f04","system_id":"levelo_inurba_marseille","lat":43.2781,"lon":5.40712,"is_reserved":false,"is_disabled":false,"rental_uris":{"android":"levelo://app?vid=34825794-d565-4dbd-8cbe-c88df4608f04","ios":"levelo://app?vid=34825794-d565-4dbd-8cbe-c88df4608f04"},"vehicle_type_id":"4","last_reported":1735978277,"current_range_meters":38000,"station_id":"ce4bhnh2rcd13ifvqgtg","pricing_plan_id":"cebpf4jnsgd1na2vs0mg"},{"bike_id":"22308760-02d1-4ce3-9d13-2ae253cf9675","system_id":"levelo_inurba_marseille","lat":43.33729,"lon":5.3918,"is_reserved":false,"is_disabled":false,"rental_uris":{"android":"levelo://app?vid=22308760-02d1-4ce3-9d13-2ae253cf9675","ios":"levelo://app?vid=22308760-02d1-4ce3-9d13-2ae253cf9675"},"vehicle_type_id":"4","last_reported":1735978277,"current_range_meters":38800,"station_id":"ce4bhr92rcd13ifvqhsg","pricing_plan_id":"cebpf4jnsgd1na2vs0mg"},{"bike_id":"9085f317-eea3-445b-8bdd-28ff00ca8048","system_id":"levelo_inurba_marseille","lat":43.26699,"lon":5.38272,"is_reserved":false,"is_disabled":false,"rental_uris":{"android":"levelo://app?vid=9085f317-eea3-445b-8bdd-28ff00ca8048","ios":"levelo://app?vid=9085f317-eea3-445b-8bdd-28ff00ca8048"},"vehicle_type_id":"4","last_reported":1735978277,"current_range_meters":32000,"station_id":"ce4bhg92rcd13ifvqf90","pricing_plan_id":"cebpf4jnsgd1na2vs0mg"},{"bike_id":"a6f828f1-5f97-4da7-bf33-7d48a155db3e","system_id":"levelo_inurba_marseille","lat":43.27841,"lon":5.39196,"is_reserved":false,"is_disabled":false,"rental_uris":{"android":"levelo://app?vid=a6f828f1-5f97-4da7-bf33-7d48a155db3e","ios":"levelo://app?vid=a6f828f1-5f97-4da7-bf33-7d48a155db3e"},"vehicle_type_id":"4","last_reported":1735978277,"current_range_meters":27600,"station_id":"ce4bhjp2rcd13ifvqga0","pricing_plan_id":"cebpf4jnsgd1na2vs0mg"},{"bike_id":"109249d2-7daf-4296-bfbc-45d5163d23df","system_id":"levelo_inurba_marseille","lat":43.30659,"lon":5.37237,"is_reserved":false,"is_disabled":true,"rental_uris":{"android":"levelo://app?vid=109249d2-7daf-4296-bfbc-45d5163d23df","ios":"levelo://app?vid=109249d2-7daf-4296-bfbc-45d5163d23df"},"vehicle_type_id":"4","last_reported":1735978277,"current_range_meters":29600,"station_id":"","pricing_plan_id":"cebpf4jnsgd1na2vs0mg"},{"bike_id":"0d2af419-b932-4758-89fb-ab0fc6fe2641","system_id":"levelo_inurba_marseille","lat":43.304104,"lon":5.412883,"is_reserved":false,"is_disabled":false,"rental_uris":{"android":"levelo://app?vid=0d2af419-b932-4758-89fb-ab0fc6fe2641","ios":"levelo://app?vid=0d2af419-b932-4758-89fb-ab0fc6fe2641"},"vehicle_type_id":"4","last_reported":1735978277,"current_range_meters":16000,"station_id":"ce4bhop2rcd13ifvqh8g","pricing_plan_id":"cebpf4jnsgd1na2vs0mg"},{"bike_id":"e4f1d7f7-1c65-4b71-a2e9-b5c8e7d0e0c5","system_id":"levelo_inurba_marseille","lat":43.251187,"lon":5.4032,"is_reserved":false,"is_disabled":false,"rental_uris":{"android":"levelo://app?vid=e4f1d7f7-1c65-4b71-a2e9-b5c8e7d0e0c5","ios":"levelo://app?vid=e4f1d7f7-1c65-4b71-a2e9-b5c8e7d0e0c5"},"vehicle_type_id":"4","last_reported":1735978277,"current_range_meters":6800,"station_id":"ce4bhlh2rcd13ifvqgig","pricing_plan_id":"cebpf4jnsgd1na2vs0mg"},{"bike_id":"fa095c06-c069-42fb-b1e8-050190f66519","system_id":"levelo_inurba_marseille","lat":43.25494,"lon":5.37653,"is_reserved":false,"is_disabled":false,"rental_uris":{"android":"levelo://app?vid=fa095c06-c069-42fb-b1e8-050190f66519","ios":"levelo://app?vid=fa095c06-c069-42fb-b1e8-050190f66519"},"vehicle_type_id":"4","last_reported":1735978277,"current_range_meters":7200,"station_id":"ce4bhh12rcd13ifvqff0","pricing_plan_id":"cebpf4jnsgd1na2vs0mg"},{"bike_id":"8a94385a-5ec5-4b84-a374-9fa96b860c6e","system_id":"levelo_inurba_marseille","lat":43.312756,"lon":5.401703,"is_reserved":false,"is_disabled":false,"rental_uris":{"android":"levelo://app?vid=8a94385a-5ec5-4b84-a374-9fa96b860c6e","ios":"levelo://app?vid=8a94385a-5ec5-4b84-a374-9fa96b860c6e"},"vehicle_type_id":"4","last_reported":1735978277,"current_range_meters":27600,"station_id":"ce4bh092rcd13ifvqd30","pricing_plan_id":"cebpf4jnsgd1na2vs0mg"},{"bike_id":"40977940-0cd3-4c4e-ab13-342c16c738ab","system_id":"levelo_inurba_marseille","lat":43.24651,"lon":5.388948,"is_reserved":false,"is_disabled":false,"rental_uris":{"android":"levelo://app?vid=40977940-0cd3-4c4e-ab13-342c16c738ab","ios":"levelo://app?vid=40977940-0cd3-4c4e-ab13-342c16c738ab"},"vehicle_type_id":"4","last_reported":1735978277,"current_range_meters":15200,"station_id":"ce4bhg12rcd13ifvqf60","pricing_plan_id":"cebpf4jnsgd1na2vs0mg"},{"bike_id":"0fb09dc4-c559-469b-b944-d0167194cfca","system_id":"levelo_inurba_marseille","lat":43.27951,"lon":5.41033,"is_reserved":false,"is_disabled":false,"rental_uris":{"android":"levelo://app?vid=0fb09dc4-c559-469b-b944-d0167194cfca","ios":"levelo://app?vid=0fb09dc4-c559-469b-b944-d0167194cfca"},"vehicle_type_id":"4","last_reported":1735978277,"current_range_meters":38000,"station_id":"ce4bhnp2rcd13ifvqh0g","pricing_plan_id":"cebpf4jnsgd1na2vs0mg"},{"bike_id":"6befa724-a01f-4ce7-a943-40045c8a7a16","system_id":"levelo_inurba_marseille","lat":43.26941,"lon":5.38887,"is_reserved":false,"is_disabled":false,"rental_uris":{"android":"levelo://app?vid=6befa724-a01f-4ce7-a943-40045c8a7a16","ios":"levelo://app?vid=6befa724-a01f-4ce7-a943-40045c8a7a16"},"vehicle_type_id":"4","last_reported":1735978277,"current_range_meters":36400,"station_id":"ce4bhhh2rcd13ifvqfl0","pricing_plan_id":"cebpf4jnsgd1na2vs0mg"},{"bike_id":"37b7d8de-7cec-49cf-8527-82e8b4cc4c67","system_id":"levelo_inurba_marseille","lat":43.27091,"lon":5.41524,"is_reserved":false,"is_disabled":false,"rental_uris":{"android":"levelo://app?vid=37b7d8de-7cec-49cf-8527-82e8b4cc4c67","ios":"levelo://app?vid=37b7d8de-7cec-49cf-8527-82e8b4cc4c67"},"vehicle_type_id":"4","last_reported":1735978277,"current_range_meters":28400,"station_id":"","pricing_plan_id":"cebpf4jnsgd1na2vs0mg"},{"bike_id":"6c0950ff-ad32-4545-a3b0-d009b8de7beb","system_id":"levelo_inurba_marseille","lat":43.26496,"lon":5.39539,"is_reserved":false,"is_disabled":false,"rental_uris":{"android":"levelo://app?vid=6c0950ff-ad32-4545-a3b0-d009b8de7beb","ios":"levelo://app?vid=6c0950ff-ad32-4545-a3b0-d009b8de7beb"},"vehicle_type_id":"4","last_reported":1735978277,"current_range_meters":38800,"station_id":"ce4bhi12rcd13ifvqfq0","pricing_plan_id":"cebpf4jnsgd1na2vs0mg"},{"bike_id":"641d8acc-50b2-4173-ab23-c70f2a11d28e","system_id":"levelo_inurba_marseille","lat":43.28148,"lon":5.4263,"is_reserved":false,"is_disabled":true,"rental_uris":{"android":"levelo://app?vid=641d8acc-50b2-4173-ab23-c70f2a11d28e","ios":"levelo://app?vid=641d8acc-50b2-4173-ab23-c70f2a11d28e"},"vehicle_type_id":"4","last_reported":1735978277,"current_range_meters":37600,"station_id":"ce4bhnh2rcd13ifvqgug","pricing_plan_id":"cebpf4jnsgd1na2vs0mg"},{"bike_id":"0a903dd4-aa5a-4030-b502-395f71036d16","system_id":"levelo_inurba_marseille","lat":43.24657,"lon":5.38155,"is_reserved":false,"is_disabled":false,"rental_uris":{"android":"levelo://app?vid=0a903dd4-aa5a-4030-b502-395f71036d16","ios":"levelo://app?vid=0a903dd4-aa5a-4030-b502-395f71036d16"},"vehicle_type_id":"4","last_reported":1735978277,"current_range_meters":28000,"station_id":"ce4bhih2rcd13ifvqfr0","pricing_plan_id":"cebpf4jnsgd1na2vs0mg"},{"bike_id":"8e936699-fb94-4c05-a18e-6a31521ab968","system_id":"levelo_inurba_marseille","lat":43.28505,"lon":5.358845,"is_reserved":false,"is_disabled":true,"rental_uris":{"android":"levelo://app?vid=8e936699-fb94-4c05-a18e-6a31521ab968","ios":"levelo://app?vid=8e936699-fb94-4c05-a18e-6a31521ab968"},"vehicle_type_id":"4","last_reported":1735978277,"current_range_meters":31200,"station_id":"ce4bhah2rcd13ifvqei0","pricing_plan_id":"cebpf4jnsgd1na2vs0mg"},{"bike_id":"237a0d5a-8195-4695-b7fc-17dfb3b6dfc0","system_id":"levelo_inurba_marseille","lat":43.2861,"lon":5.37068,"is_reserved":false,"is_disabled":false,"rental_uris":{"android":"levelo://app?vid=237a0d5a-8195-4695-b7fc-17dfb3b6dfc0","ios":"levelo://app?vid=237a0d5a-8195-4695-b7fc-17dfb3b6dfc0"},"vehicle_type_id":"4","last_reported":1735978277,"current_range_meters":17200,"station_id":"ce4bht12rcd13ifvqi60","pricing_plan_id":"cebpf4jnsgd1na2vs0mg"},{"bike_id":"4ae935ee-85f2-47bc-85b6-0463aa6a82e0","system_id":"levelo_inurba_marseille","lat":43.28678,"lon":5.38638,"is_reserved":false,"is_disabled":false,"rental_uris":{"android":"levelo://app?vid=4ae935ee-85f2-47bc-85b6-0463aa6a82e0","ios":"levelo://app?vid=4ae935ee-85f2-47bc-85b6-0463aa6a82e0"},"vehicle_type_id":"4","last_reported":1735978277,"current_range_meters":34800,"station_id":"ce4bh492rcd13ifvqdug","pricing_plan_id":"cebpf4jnsgd1na2vs0mg"},{"bike_id":"3a3a4eb7-ea9e-4f95-973d-bbbd1fc7238b","system_id":"levelo_inurba_marseille","lat":43.27975,"lon":5.41656,"is_reserved":false,"is_disabled":false,"rental_uris":{"android":"levelo://app?vid=3a3a4eb7-ea9e-4f95-973d-bbbd1fc7238b","ios":"levelo://app?vid=3a3a4eb7-ea9e-4f95-973d-bbbd1fc7238b"},"vehicle_type_id":"4","last_reported":1735978277,"current_range_meters":36800,"station_id":"ce4bho12rcd13ifvqh1g","pricing_plan_id":"cebpf4jnsgd1na2vs0mg"},{"bike_id":"bd609247-c05b-4bfd-8224-3974e4956916","system_id":"levelo_inurba_marseille","lat":43.30895,"lon":5.368516,"is_reserved":false,"is_disabled":true,"rental_uris":{"android":"levelo://app?vid=bd609247-c05b-4bfd-8224-3974e4956916","ios":"levelo://app?vid=bd609247-c05b-4bfd-8224-3974e4956916"},"vehicle_type_id":"4","last_reported":1735978277,"current_range_meters":36800,"station_id":"ce4bgn92rcd13ifvqbvg","pricing_plan_id":"cebpf4jnsgd1na2vs0mg"},{"bike_id":"7023404b-8be7-4ebd-b50a-d6abd594a7f9","system_id":"levelo_inurba_marseille","lat":43.25732,"lon":5.41106,"is_reserved":false,"is_disabled":false,"rental_uris":{"android":"levelo://app?vid=7023404b-8be7-4ebd-b50a-d6abd594a7f9","ios":"levelo://app?vid=7023404b-8be7-4ebd-b50a-d6abd594a7f9"},"vehicle_type_id":"4","last_reported":1735978277,"current_range_meters":38800,"station_id":"ce4bhkp2rcd13ifvqgd0","pricing_plan_id":"cebpf4jnsgd1na2vs0mg"},{"bike_id":"0a3ae262-e4e9-456e-b2b6-83dd5ef5dc3a","system_id":"levelo_inurba_marseille","lat":43.30527,"lon":5.36534,"is_reserved":false,"is_disabled":false,"rental_uris":{"android":"levelo://app?vid=0a3ae262-e4e9-456e-b2b6-83dd5ef5dc3a","ios":"levelo://app?vid=0a3ae262-e4e9-456e-b2b6-83dd5ef5dc3a"},"vehicle_type_id":"4","last_reported":1735978277,"current_range_meters":37600,"station_id":"ce4bgs12rcd13ifvqcag","pricing_plan_id":"cebpf4jnsgd1na2vs0mg"},{"bike_id":"b50c1e04-9c20-4daa-ad06-7d854e9beedd","system_id":"levelo_inurba_marseille","lat":43.26197,"lon":5.37455,"is_reserved":false,"is_disabled":false,"rental_uris":{"android":"levelo://app?vid=b50c1e04-9c20-4daa-ad06-7d854e9beedd","ios":"levelo://app?vid=b50c1e04-9c20-4daa-ad06-7d854e9beedd"},"vehicle_type_id":"4","last_reported":1735978277,"current_range_meters":34000,"station_id":"ce4bhgp2rcd13ifvqfc0","pricing_plan_id":"cebpf4jnsgd1na2vs0mg"},{"bike_id":"fe6f290f-0e15-46b1-9ee2-787dc5c43fe5","system_id":"levelo_inurba_marseille","lat":43.29564,"lon":5.42256,"is_reserved":false,"is_disabled":false,"rental_uris":{"android":"levelo://app?vid=fe6f290f-0e15-46b1-9ee2-787dc5c43fe5","ios":"levelo://app?vid=fe6f290f-0e15-46b1-9ee2-787dc5c43fe5"},"vehicle_type_id":"4","last_reported":1735978277,"current_range_meters":15200,"station_id":"ce4bhph2rcd13ifvqhdg","pricing_plan_id":"cebpf4jnsgd1na2vs0mg"},{"bike_id":"26c5324c-4029-40f8-8a47-a09a636f20e2","system_id":"levelo_inurba_marseille","lat":43.30094,"lon":5.39074,"is_reserved":false,"is_disabled":false,"rental_uris":{"android":"levelo://app?vid=26c5324c-4029-40f8-8a47-a09a636f20e2","ios":"levelo://app?vid=26c5324c-4029-40f8-8a47-a09a636f20e2"},"vehicle_type_id":"4","last_reported":1735978277,"current_range_meters":38800,"station_id":"ce4bh192rcd13ifvqdb0","pricing_plan_id":"cebpf4jnsgd1na2vs0mg"},{"bike_id":"96bda347-866d-4dff-98a3-e2ed393f23fc","system_id":"levelo_inurba_marseille","lat":43.30336,"lon":5.4349,"is_reserved":false,"is_disabled":false,"rental_uris":{"android":"levelo://app?vid=96bda347-866d-4dff-98a3-e2ed393f23fc","ios":"levelo://app?vid=96bda347-866d-4dff-98a3-e2ed393f23fc"},"vehicle_type_id":"4","last_reported":1735978277,"current_range_meters":24400,"station_id":"","pricing_plan_id":"cebpf4jnsgd1na2vs0mg"},{"bike_id":"1d0ee6fa-7e84-4bad-a513-32569bfb99a6","system_id":"levelo_inurba_marseille","lat":43.27436,"lon":5.39395,"is_reserved":false,"is_disabled":false,"rental_uris":{"android":"levelo://app?vid=1d0ee6fa-7e84-4bad-a513-32569bfb99a6","ios":"levelo://app?vid=1d0ee6fa-7e84-4bad-a513-32569bfb99a6"},"vehicle_type_id":"4","last_reported":1735978277,"current_range_meters":38800,"station_id":"ce4bhdp2rcd13ifvqf20","pricing_plan_id":"cebpf4jnsgd1na2vs0mg"},{"bike_id":"d1bd4f0e-c325-415d-9d63-e6cf1bffab21","system_id":"levelo_inurba_marseille","lat":43.3204,"lon":5.41564,"is_reserved":false,"is_disabled":false,"rental_uris":{"android":"levelo://app?vid=d1bd4f0e-c325-415d-9d63-e6cf1bffab21","ios":"levelo://app?vid=d1bd4f0e-c325-415d-9d63-e6cf1bffab21"},"vehicle_type_id":"4","last_reported":1735978277,"current_range_meters":38800,"station_id":"ce4bhq92rcd13ifvqhkg","pricing_plan_id":"cebpf4jnsgd1na2vs0mg"},{"bike_id":"2ff0edbb-1120-44a4-b8a8-0b9a430d70c1","system_id":"levelo_inurba_marseille","lat":43.30438,"lon":5.38862,"is_reserved":false,"is_disabled":false,"rental_uris":{"android":"levelo://app?vid=2ff0edbb-1120-44a4-b8a8-0b9a430d70c1","ios":"levelo://app?vid=2ff0edbb-1120-44a4-b8a8-0b9a430d70c1"},"vehicle_type_id":"4","last_reported":1735978277,"current_range_meters":37600,"station_id":"ce4bgk12rcd13ifvqbi0","pricing_plan_id":"cebpf4jnsgd1na2vs0mg"},{"bike_id":"983a939f-0c90-4b41-8e07-1ba37a328643","system_id":"levelo_inurba_marseille","lat":43.24175,"lon":5.36391,"is_reserved":false,"is_disabled":false,"rental_uris":{"android":"levelo://app?vid=983a939f-0c90-4b41-8e07-1ba37a328643","ios":"levelo://app?vid=983a939f-0c90-4b41-8e07-1ba37a328643"},"vehicle_type_id":"4","last_reported":1735978277,"current_range_meters":25600,"station_id":"cpo36qri1sfpv3e86is0","pricing_plan_id":"cebpf4jnsgd1na2vs0mg"},{"bike_id":"0d36baca-b4e4-4eb6-85e9-d02c7038df15","system_id":"levelo_inurba_marseille","lat":43.30546,"lon":5.36518,"is_reserved":false,"is_disabled":true,"rental_uris":{"android":"levelo://app?vid=0d36baca-b4e4-4eb6-85e9-d02c7038df15","ios":"levelo://app?vid=0d36baca-b4e4-4eb6-85e9-d02c7038df15"},"vehicle_type_id":"4","last_reported":1735978277,"current_range_meters":28000,"station_id":"ce4bgs12rcd13ifvqcag","pricing_plan_id":"cebpf4jnsgd1na2vs0mg"},{"bike_id":"f109cb44-778a-4750-a80a-baeff700215f","system_id":"levelo_inurba_marseille","lat":43.29026,"lon":5.38647,"is_reserved":false,"is_disabled":false,"rental_uris":{"android":"levelo://app?vid=f109cb44-778a-4750-a80a-baeff700215f","ios":"levelo://app?vid=f109cb44-778a-4750-a80a-baeff700215f"},"vehicle_type_id":"4","last_reported":1735978277,"current_range_meters":28000,"station_id":"ce4bh4p2rcd13ifvqe0g","pricing_plan_id":"cebpf4jnsgd1na2vs0mg"},{"bike_id":"dbd7f6c9-df67-46d9-a336-d417ecad0d25","system_id":"levelo_inurba_marseille","lat":43.29905,"lon":5.4365,"is_reserved":false,"is_disabled":true,"rental_uris":{"android":"levelo://app?vid=dbd7f6c9-df67-46d9-a336-d417ecad0d25","ios":"levelo://app?vid=dbd7f6c9-df67-46d9-a336-d417ecad0d25"},"vehicle_type_id":"4","last_reported":1735978277,"current_range_meters":35200,"station_id":"ce4bhpp2rcd13ifvqhfg","pricing_plan_id":"cebpf4jnsgd1na2vs0mg"},{"bike_id":"376c5e24-8c99-4a45-b448-d5554cb31c99","system_id":"levelo_inurba_marseille","lat":43.28721,"lon":5.39991,"is_reserved":false,"is_disabled":true,"rental_uris":{"android":"levelo://app?vid=376c5e24-8c99-4a45-b448-d5554cb31c99","ios":"levelo://app?vid=376c5e24-8c99-4a45-b448-d5554cb31c99"},"vehicle_type_id":"4","last_reported":1735978277,"current_range_meters":36400,"station_id":"ce4bho92rcd13ifvqh3g","pricing_plan_id":"cebpf4jnsgd1na2vs0mg"},{"bike_id":"dfc8a5ce-5ff4-4c79-bd9d-48e6c81f2d38","system_id":"levelo_inurba_marseille","lat":43.28617,"lon":5.37054,"is_reserved":false,"is_disabled":false,"rental_uris":{"android":"levelo://app?vid=dfc8a5ce-5ff4-4c79-bd9d-48e6c81f2d38","ios":"levelo://app?vid=dfc8a5ce-5ff4-4c79-bd9d-48e6c81f2d38"},"vehicle_type_id":"4","last_reported":1735978277,"current_range_meters":25600,"station_id":"ce4bht12rcd13ifvqi60","pricing_plan_id":"cebpf4jnsgd1na2vs0mg"},{"bike_id":"7c863057-f1ae-4435-9460-2cc51ef60299","system_id":"levelo_inurba_marseille","lat":43.29217,"lon":5.36082,"is_reserved":false,"is_disabled":true,"rental_uris":{"android":"levelo://app?vid=7c863057-f1ae-4435-9460-2cc51ef60299","ios":"levelo://app?vid=7c863057-f1ae-4435-9460-2cc51ef60299"},"vehicle_type_id":"4","last_reported":1735978277,"current_range_meters":30800,"station_id":"ce4bhbh2rcd13ifvqeqg","pricing_plan_id":"cebpf4jnsgd1na2vs0mg"},{"bike_id":"349a4ab8-6f13-4948-be71-abaadb9466ee","system_id":"levelo_inurba_marseille","lat":43.24072,"lon":5.3775,"is_reserved":false,"is_disabled":false,"rental_uris":{"android":"levelo://app?vid=349a4ab8-6f13-4948-be71-abaadb9466ee","ios":"levelo://app?vid=349a4ab8-6f13-4948-be71-abaadb9466ee"},"vehicle_type_id":"4","last_reported":1735978277,"current_range_meters":36400,"station_id":"ce4bhnp2rcd13ifvqgvg","pricing_plan_id":"cebpf4jnsgd1na2vs0mg"},{"bike_id":"5dbf4810-c90d-4839-a2c7-8564aa375bae","system_id":"levelo_inurba_marseille","lat":43.29296,"lon":5.37454,"is_reserved":false,"is_disabled":false,"rental_uris":{"android":"levelo://app?vid=5dbf4810-c90d-4839-a2c7-8564aa375bae","ios":"levelo://app?vid=5dbf4810-c90d-4839-a2c7-8564aa375bae"},"vehicle_type_id":"4","last_reported":1735978277,"current_range_meters":36800,"station_id":"ce4bgi12rcd13ifvqb70","pricing_plan_id":"cebpf4jnsgd1na2vs0mg"},{"bike_id":"118168c9-86b3-425c-949e-b122423d2196","system_id":"levelo_inurba_marseille","lat":43.25823,"lon":5.39427,"is_reserved":false,"is_disabled":false,"rental_uris":{"android":"levelo://app?vid=118168c9-86b3-425c-949e-b122423d2196","ios":"levelo://app?vid=118168c9-86b3-425c-949e-b122423d2196"},"vehicle_type_id":"4","last_reported":1735978277,"current_range_meters":38800,"station_id":"ce4bhip2rcd13ifvqft0","pricing_plan_id":"cebpf4jnsgd1na2vs0mg"},{"bike_id":"a5857756-0478-41f2-bfa4-405eeda359bc","system_id":"levelo_inurba_marseille","lat":43.26668,"lon":5.38272,"is_reserved":false,"is_disabled":false,"rental_uris":{"android":"levelo://app?vid=a5857756-0478-41f2-bfa4-405eeda359bc","ios":"levelo://app?vid=a5857756-0478-41f2-bfa4-405eeda359bc"},"vehicle_type_id":"4","last_reported":1735978277,"current_range_meters":38800,"station_id":"ce4bhg92rcd13ifvqf90","pricing_plan_id":"cebpf4jnsgd1na2vs0mg"},{"bike_id":"e9c9ac99-6db0-4a19-9854-52585a709e6e","system_id":"levelo_inurba_marseille","lat":43.29581,"lon":5.36738,"is_reserved":false,"is_disabled":false,"rental_uris":{"android":"levelo://app?vid=e9c9ac99-6db0-4a19-9854-52585a709e6e","ios":"levelo://app?vid=e9c9ac99-6db0-4a19-9854-52585a709e6e"},"vehicle_type_id":"4","last_reported":1735978277,"current_range_meters":35200,"station_id":"ce4bgph2rcd13ifvqc2g","pricing_plan_id":"cebpf4jnsgd1na2vs0mg"},{"bike_id":"1f7cd740-2c18-4894-a0a5-47e69df84924","system_id":"levelo_inurba_marseille","lat":43.24991,"lon":5.38949,"is_reserved":false,"is_disabled":false,"rental_uris":{"android":"levelo://app?vid=1f7cd740-2c18-4894-a0a5-47e69df84924","ios":"levelo://app?vid=1f7cd740-2c18-4894-a0a5-47e69df84924"},"vehicle_type_id":"4","last_reported":1735978277,"current_range_meters":32000,"station_id":"ce4bhgp2rcd13ifvqfd0","pricing_plan_id":"cebpf4jnsgd1na2vs0mg"},{"bike_id":"f3998a04-3b93-4948-8eb7-aa16047370fd","system_id":"levelo_inurba_marseille","lat":43.27951,"lon":5.41045,"is_reserved":false,"is_disabled":false,"rental_uris":{"android":"levelo://app?vid=f3998a04-3b93-4948-8eb7-aa16047370fd","ios":"levelo://app?vid=f3998a04-3b93-4948-8eb7-aa16047370fd"},"vehicle_type_id":"4","last_reported":1735978277,"current_range_meters":14400,"station_id":"ce4bhnp2rcd13ifvqh0g","pricing_plan_id":"cebpf4jnsgd1na2vs0mg"},{"bike_id":"94978c18-c7ac-49d8-9c72-40484a75119d","system_id":"levelo_inurba_marseille","lat":43.29002,"lon":5.35596,"is_reserved":false,"is_disabled":false,"rental_uris":{"android":"levelo://app?vid=94978c18-c7ac-49d8-9c72-40484a75119d","ios":"levelo://app?vid=94978c18-c7ac-49d8-9c72-40484a75119d"},"vehicle_type_id":"4","last_reported":1735978277,"current_range_meters":38800,"station_id":"ce4bhb92rcd13ifvqen0","pricing_plan_id":"cebpf4jnsgd1na2vs0mg"},{"bike_id":"f3435332-11c4-4ce2-9f7e-083072d5319f","system_id":"levelo_inurba_marseille","lat":43.25504,"lon":5.37642,"is_reserved":false,"is_disabled":false,"rental_uris":{"android":"levelo://app?vid=f3435332-11c4-4ce2-9f7e-083072d5319f","ios":"levelo://app?vid=f3435332-11c4-4ce2-9f7e-083072d5319f"},"vehicle_type_id":"4","last_reported":1735978277,"current_range_meters":19200,"station_id":"ce4bhh12rcd13ifvqff0","pricing_plan_id":"cebpf4jnsgd1na2vs0mg"},{"bike_id":"ae269516-63cb-416b-964a-217904f9d7b3","system_id":"levelo_inurba_marseille","lat":43.23192,"lon":5.39985,"is_reserved":false,"is_disabled":false,"rental_uris":{"android":"levelo://app?vid=ae269516-63cb-416b-964a-217904f9d7b3","ios":"levelo://app?vid=ae269516-63cb-416b-964a-217904f9d7b3"},"vehicle_type_id":"4","last_reported":1735978277,"current_range_meters":9600,"station_id":"ce4bhn12rcd13ifvqgqg","pricing_plan_id":"cebpf4jnsgd1na2vs0mg"},{"bike_id":"c150b4c3-2169-48df-a9d5-cdbc11d0c0c7","system_id":"levelo_inurba_marseille","lat":43.292,"lon":5.36058,"is_reserved":false,"is_disabled":true,"rental_uris":{"android":"levelo://app?vid=c150b4c3-2169-48df-a9d5-cdbc11d0c0c7","ios":"levelo://app?vid=c150b4c3-2169-48df-a9d5-cdbc11d0c0c7"},"vehicle_type_id":"4","last_reported":1735978277,"current_range_meters":9600,"station_id":"ce4bhbh2rcd13ifvqeqg","pricing_plan_id":"cebpf4jnsgd1na2vs0mg"},{"bike_id":"b484e738-44ba-4a75-b698-b38576d896fa","system_id":"levelo_inurba_marseille","lat":43.27664,"lon":5.38896,"is_reserved":false,"is_disabled":false,"rental_uris":{"android":"levelo://app?vid=b484e738-44ba-4a75-b698-b38576d896fa","ios":"levelo://app?vid=b484e738-44ba-4a75-b698-b38576d896fa"},"vehicle_type_id":"4","last_reported":1735978277,"current_range_meters":32400,"station_id":"ce4bhi12rcd13ifvqfo0","pricing_plan_id":"cebpf4jnsgd1na2vs0mg"},{"bike_id":"fe403691-7441-47d1-b7fe-b8357fcf3929","system_id":"levelo_inurba_marseille","lat":43.28441,"lon":5.39201,"is_reserved":false,"is_disabled":false,"rental_uris":{"android":"levelo://app?vid=fe403691-7441-47d1-b7fe-b8357fcf3929","ios":"levelo://app?vid=fe403691-7441-47d1-b7fe-b8357fcf3929"},"vehicle_type_id":"4","last_reported":1735978277,"current_range_meters":7200,"station_id":"ce4bh492rcd13ifvqdug","pricing_plan_id":"cebpf4jnsgd1na2vs0mg"},{"bike_id":"d7a02a89-4954-456d-81ac-6cbad04e26c2","system_id":"levelo_inurba_marseille","lat":43.28676,"lon":5.36325,"is_reserved":false,"is_disabled":false,"rental_uris":{"android":"levelo://app?vid=d7a02a89-4954-456d-81ac-6cbad04e26c2","ios":"levelo://app?vid=d7a02a89-4954-456d-81ac-6cbad04e26c2"},"vehicle_type_id":"4","last_reported":1735978277,"current_range_meters":38800,"station_id":"ce4bhah2rcd13ifvqej0","pricing_plan_id":"cebpf4jnsgd1na2vs0mg"},{"bike_id":"be558537-8dd8-4b3a-bb76-a7452ba544cf","system_id":"levelo_inurba_marseille","lat":43.31274,"lon":5.40157,"is_reserved":false,"is_disabled":true,"rental_uris":{"android":"levelo://app?vid=be558537-8dd8-4b3a-bb76-a7452ba544cf","ios":"levelo://app?vid=be558537-8dd8-4b3a-bb76-a7452ba544cf"},"vehicle_type_id":"4","last_reported":1735978277,"current_range_meters":8800,"station_id":"ce4bh092rcd13ifvqd30","pricing_plan_id":"cebpf4jnsgd1na2vs0mg"},{"bike_id":"eaecfcca-aa89-4e9a-8d17-c5be1539665b","system_id":"levelo_inurba_marseille","lat":43.28269,"lon":5.35046,"is_reserved":false,"is_disabled":true,"rental_uris":{"android":"levelo://app?vid=eaecfcca-aa89-4e9a-8d17-c5be1539665b","ios":"levelo://app?vid=eaecfcca-aa89-4e9a-8d17-c5be1539665b"},"vehicle_type_id":"4","last_reported":1735978277,"current_range_meters":7200,"station_id":"ce4bhbp2rcd13ifvqerg","pricing_plan_id":"cebpf4jnsgd1na2vs0mg"},{"bike_id":"896797d5-e48c-435a-a4ff-c7d0b4682116","system_id":"levelo_inurba_marseille","lat":43.27813,"lon":5.40721,"is_reserved":false,"is_disabled":false,"rental_uris":{"android":"levelo://app?vid=896797d5-e48c-435a-a4ff-c7d0b4682116","ios":"levelo://app?vid=896797d5-e48c-435a-a4ff-c7d0b4682116"},"vehicle_type_id":"4","last_reported":1735978277,"current_range_meters":28000,"station_id":"ce4bhnh2rcd13ifvqgtg","pricing_plan_id":"cebpf4jnsgd1na2vs0mg"},{"bike_id":"728e33c6-8a0a-4e9a-a5b8-1b6363b44aeb","system_id":"levelo_inurba_marseille","lat":43.29003,"lon":5.35596,"is_reserved":false,"is_disabled":false,"rental_uris":{"android":"levelo://app?vid=728e33c6-8a0a-4e9a-a5b8-1b6363b44aeb","ios":"levelo://app?vid=728e33c6-8a0a-4e9a-a5b8-1b6363b44aeb"},"vehicle_type_id":"4","last_reported":1735978277,"current_range_meters":38000,"station_id":"ce4bhb92rcd13ifvqen0","pricing_plan_id":"cebpf4jnsgd1na2vs0mg"},{"bike_id":"13ef7d4c-1aac-463f-b78f-283376e4de16","system_id":"levelo_inurba_marseille","lat":43.22922,"lon":5.35376,"is_reserved":false,"is_disabled":false,"rental_uris":{"android":"levelo://app?vid=13ef7d4c-1aac-463f-b78f-283376e4de16","ios":"levelo://app?vid=13ef7d4c-1aac-463f-b78f-283376e4de16"},"vehicle_type_id":"4","last_reported":1735978277,"current_range_meters":38000,"station_id":"cpo3532slgdg3j2ikp40","pricing_plan_id":"cebpf4jnsgd1na2vs0mg"},{"bike_id":"cf54008b-27af-48d5-90e3-f17a9778834c","system_id":"levelo_inurba_marseille","lat":43.31351,"lon":5.3849,"is_reserved":false,"is_disabled":false,"rental_uris":{"android":"levelo://app?vid=cf54008b-27af-48d5-90e3-f17a9778834c","ios":"levelo://app?vid=cf54008b-27af-48d5-90e3-f17a9778834c"},"vehicle_type_id":"4","last_reported":1735978277,"current_range_meters":36400,"station_id":"ce4bgt92rcd13ifvqcf0","pricing_plan_id":"cebpf4jnsgd1na2vs0mg"},{"bike_id":"2a5f3b0a-f9d0-48ea-9bef-aa26f1f028b8","system_id":"levelo_inurba_marseille","lat":43.25724,"lon":5.41103,"is_reserved":false,"is_disabled":false,"rental_uris":{"android":"levelo://app?vid=2a5f3b0a-f9d0-48ea-9bef-aa26f1f028b8","ios":"levelo://app?vid=2a5f3b0a-f9d0-48ea-9bef-aa26f1f028b8"},"vehicle_type_id":"4","last_reported":1735978277,"current_range_meters":38800,"station_id":"ce4bhkp2rcd13ifvqgd0","pricing_plan_id":"cebpf4jnsgd1na2vs0mg"},{"bike_id":"3b123c2a-2f45-40a4-99ee-394de99fe1b6","system_id":"levelo_inurba_marseille","lat":43.29782,"lon":5.39339,"is_reserved":false,"is_disabled":false,"rental_uris":{"android":"levelo://app?vid=3b123c2a-2f45-40a4-99ee-394de99fe1b6","ios":"levelo://app?vid=3b123c2a-2f45-40a4-99ee-394de99fe1b6"},"vehicle_type_id":"4","last_reported":1735978277,"current_range_meters":39200,"station_id":"chh1huq6cuj3fo74tm60","pricing_plan_id":"cebpf4jnsgd1na2vs0mg"},{"bike_id":"0fe51e2a-6ba3-400a-8679-dc5ed19a829b","system_id":"levelo_inurba_marseille","lat":43.30919,"lon":5.40163,"is_reserved":false,"is_disabled":false,"rental_uris":{"android":"levelo://app?vid=0fe51e2a-6ba3-400a-8679-dc5ed19a829b","ios":"levelo://app?vid=0fe51e2a-6ba3-400a-8679-dc5ed19a829b"},"vehicle_type_id":"4","last_reported":1735978277,"current_range_meters":38800,"station_id":"ce4bgvp2rcd13ifvqct0","pricing_plan_id":"cebpf4jnsgd1na2vs0mg"},{"bike_id":"f3c12ef4-82bd-48ff-8ba6-8f2c9a44f8b9","system_id":"levelo_inurba_marseille","lat":43.24806,"lon":5.37457,"is_reserved":false,"is_disabled":false,"rental_uris":{"android":"levelo://app?vid=f3c12ef4-82bd-48ff-8ba6-8f2c9a44f8b9","ios":"levelo://app?vid=f3c12ef4-82bd-48ff-8ba6-8f2c9a44f8b9"},"vehicle_type_id":"4","last_reported":1735978277,"current_range_meters":38000,"station_id":"ce4bhgh2rcd13ifvqfb0","pricing_plan_id":"cebpf4jnsgd1na2vs0mg"},{"bike_id":"7d430f43-95c5-4363-9f87-1d675dddcbf2","system_id":"levelo_inurba_marseille","lat":43.25066,"lon":5.39508,"is_reserved":false,"is_disabled":false,"rental_uris":{"android":"levelo://app?vid=7d430f43-95c5-4363-9f87-1d675dddcbf2","ios":"levelo://app?vid=7d430f43-95c5-4363-9f87-1d675dddcbf2"},"vehicle_type_id":"4","last_reported":1735978277,"current_range_meters":37600,"station_id":"ce4bhm12rcd13ifvqgkg","pricing_plan_id":"cebpf4jnsgd1na2vs0mg"},{"bike_id":"c023bde9-ffda-4fe0-b15d-b0ad0e628af2","system_id":"levelo_inurba_marseille","lat":43.25492,"lon":5.37645,"is_reserved":false,"is_disabled":false,"rental_uris":{"android":"levelo://app?vid=c023bde9-ffda-4fe0-b15d-b0ad0e628af2","ios":"levelo://app?vid=c023bde9-ffda-4fe0-b15d-b0ad0e628af2"},"vehicle_type_id":"4","last_reported":1735978277,"current_range_meters":35600,"station_id":"ce4bhh12rcd13ifvqff0","pricing_plan_id":"cebpf4jnsgd1na2vs0mg"},{"bike_id":"68ef66f0-dd96-424a-ba29-3c004929578e","system_id":"levelo_inurba_marseille","lat":43.23195,"lon":5.39972,"is_reserved":false,"is_disabled":false,"rental_uris":{"android":"levelo://app?vid=68ef66f0-dd96-424a-ba29-3c004929578e","ios":"levelo://app?vid=68ef66f0-dd96-424a-ba29-3c004929578e"},"vehicle_type_id":"4","last_reported":1735978277,"current_range_meters":38000,"station_id":"ce4bhn12rcd13ifvqgqg","pricing_plan_id":"cebpf4jnsgd1na2vs0mg"},{"bike_id":"725999bb-8b32-4e5b-95fc-d63880a1b626","system_id":"levelo_inurba_marseille","lat":43.32658,"lon":5.40996,"is_reserved":false,"is_disabled":false,"rental_uris":{"android":"levelo://app?vid=725999bb-8b32-4e5b-95fc-d63880a1b626","ios":"levelo://app?vid=725999bb-8b32-4e5b-95fc-d63880a1b626"},"vehicle_type_id":"4","last_reported":1735978277,"current_range_meters":38800,"station_id":"ce4bhpp2rcd13ifvqhgg","pricing_plan_id":"cebpf4jnsgd1na2vs0mg"},{"bike_id":"c9004ac3-42ab-4865-aaf3-98f250762289","system_id":"levelo_inurba_marseille","lat":43.30149,"lon":5.37407,"is_reserved":false,"is_disabled":false,"rental_uris":{"android":"levelo://app?vid=c9004ac3-42ab-4865-aaf3-98f250762289","ios":"levelo://app?vid=c9004ac3-42ab-4865-aaf3-98f250762289"},"vehicle_type_id":"4","last_reported":1735978277,"current_range_meters":38800,"station_id":"ce4bgs92rcd13ifvqcc0","pricing_plan_id":"cebpf4jnsgd1na2vs0mg"},{"bike_id":"eae11c21-0e68-4841-b456-38f5bd6f851c","system_id":"levelo_inurba_marseille","lat":43.26789,"lon":5.39407,"is_reserved":false,"is_disabled":false,"rental_uris":{"android":"levelo://app?vid=eae11c21-0e68-4841-b456-38f5bd6f851c","ios":"levelo://app?vid=eae11c21-0e68-4841-b456-38f5bd6f851c"},"vehicle_type_id":"4","last_reported":1735978277,"current_range_meters":16000,"station_id":"ce4bhh12rcd13ifvqfg0","pricing_plan_id":"cebpf4jnsgd1na2vs0mg"},{"bike_id":"270f72ca-6ff0-4006-b955-8701cfe72efd","system_id":"levelo_inurba_marseille","lat":43.29251,"lon":5.40103,"is_reserved":false,"is_disabled":true,"rental_uris":{"android":"levelo://app?vid=270f72ca-6ff0-4006-b955-8701cfe72efd","ios":"levelo://app?vid=270f72ca-6ff0-4006-b955-8701cfe72efd"},"vehicle_type_id":"4","last_reported":1735978277,"current_range_meters":7200,"station_id":"ce4bh312rcd13ifvqdk0","pricing_plan_id":"cebpf4jnsgd1na2vs0mg"},{"bike_id":"1bc9b002-2ce3-4a68-9106-e1b275d6ad9f","system_id":"levelo_inurba_marseille","lat":43.32043,"lon":5.41549,"is_reserved":false,"is_disabled":false,"rental_uris":{"android":"levelo://app?vid=1bc9b002-2ce3-4a68-9106-e1b275d6ad9f","ios":"levelo://app?vid=1bc9b002-2ce3-4a68-9106-e1b275d6ad9f"},"vehicle_type_id":"4","last_reported":1735978277,"current_range_meters":14400,"station_id":"ce4bhq92rcd13ifvqhkg","pricing_plan_id":"cebpf4jnsgd1na2vs0mg"},{"bike_id":"16ef519c-c129-4a25-869c-377cd2829023","system_id":"levelo_inurba_marseille","lat":43.319995,"lon":5.381464,"is_reserved":false,"is_disabled":false,"rental_uris":{"android":"levelo://app?vid=16ef519c-c129-4a25-869c-377cd2829023","ios":"levelo://app?vid=16ef519c-c129-4a25-869c-377cd2829023"},"vehicle_type_id":"4","last_reported":1735978277,"current_range_meters":24800,"station_id":"ce4bhr12rcd13ifvqhpg","pricing_plan_id":"cebpf4jnsgd1na2vs0mg"},{"bike_id":"dcbbbac4-6615-48d1-aecd-87a0c7ad19b6","system_id":"levelo_inurba_marseille","lat":43.324808,"lon":5.365576,"is_reserved":false,"is_disabled":false,"rental_uris":{"android":"levelo://app?vid=dcbbbac4-6615-48d1-aecd-87a0c7ad19b6","ios":"levelo://app?vid=dcbbbac4-6615-48d1-aecd-87a0c7ad19b6"},"vehicle_type_id":"4","last_reported":1735978277,"current_range_meters":38800,"station_id":"ce4bhs12rcd13ifvqhvg","pricing_plan_id":"cebpf4jnsgd1na2vs0mg"},{"bike_id":"b5de95e0-8f34-41aa-a5fc-c4e76e03a994","system_id":"levelo_inurba_marseille","lat":43.28085,"lon":5.39674,"is_reserved":false,"is_disabled":true,"rental_uris":{"android":"levelo://app?vid=b5de95e0-8f34-41aa-a5fc-c4e76e03a994","ios":"levelo://app?vid=b5de95e0-8f34-41aa-a5fc-c4e76e03a994"},"vehicle_type_id":"4","last_reported":1735978277,"current_range_meters":36800,"station_id":"ce4bho12rcd13ifvqh2g","pricing_plan_id":"cebpf4jnsgd1na2vs0mg"},{"bike_id":"759be572-b19d-406e-a346-0fb62285ee94","system_id":"levelo_inurba_marseille","lat":43.28705,"lon":5.37394,"is_reserved":false,"is_disabled":false,"rental_uris":{"android":"levelo://app?vid=759be572-b19d-406e-a346-0fb62285ee94","ios":"levelo://app?vid=759be572-b19d-406e-a346-0fb62285ee94"},"vehicle_type_id":"4","last_reported":1735978277,"current_range_meters":28400,"station_id":"ce4bh3p2rcd13ifvqdq0","pricing_plan_id":"cebpf4jnsgd1na2vs0mg"},{"bike_id":"2bd213f6-7c3b-4206-a8d7-1b059cfadb7f","system_id":"levelo_inurba_marseille","lat":43.33728,"lon":5.39186,"is_reserved":false,"is_disabled":false,"rental_uris":{"android":"levelo://app?vid=2bd213f6-7c3b-4206-a8d7-1b059cfadb7f","ios":"levelo://app?vid=2bd213f6-7c3b-4206-a8d7-1b059cfadb7f"},"vehicle_type_id":"4","last_reported":1735978277,"current_range_meters":38800,"station_id":"ce4bhr92rcd13ifvqhsg","pricing_plan_id":"cebpf4jnsgd1na2vs0mg"},{"bike_id":"4e2e926a-cc62-4529-8b24-3abbcf0f0be2","system_id":"levelo_inurba_marseille","lat":43.23187,"lon":5.35558,"is_reserved":false,"is_disabled":false,"rental_uris":{"android":"levelo://app?vid=4e2e926a-cc62-4529-8b24-3abbcf0f0be2","ios":"levelo://app?vid=4e2e926a-cc62-4529-8b24-3abbcf0f0be2"},"vehicle_type_id":"4","last_reported":1735978277,"current_range_meters":29600,"station_id":"ce4bhu92rcd13ifvqi70","pricing_plan_id":"cebpf4jnsgd1na2vs0mg"},{"bike_id":"8dcee21a-1bcd-4586-954f-877fd5cefc47","system_id":"levelo_inurba_marseille","lat":43.29678,"lon":5.37294,"is_reserved":false,"is_disabled":false,"rental_uris":{"android":"levelo://app?vid=8dcee21a-1bcd-4586-954f-877fd5cefc47","ios":"levelo://app?vid=8dcee21a-1bcd-4586-954f-877fd5cefc47"},"vehicle_type_id":"4","last_reported":1735978277,"current_range_meters":38000,"station_id":"ce4bgk12rcd13ifvqbj0","pricing_plan_id":"cebpf4jnsgd1na2vs0mg"},{"bike_id":"6ff7a661-2f44-4088-86bb-65af247efcf3","system_id":"levelo_inurba_marseille","lat":43.30317,"lon":5.40443,"is_reserved":false,"is_disabled":false,"rental_uris":{"android":"levelo://app?vid=6ff7a661-2f44-4088-86bb-65af247efcf3","ios":"levelo://app?vid=6ff7a661-2f44-4088-86bb-65af247efcf3"},"vehicle_type_id":"4","last_reported":1735978277,"current_range_meters":36400,"station_id":"ce4bh012rcd13ifvqd10","pricing_plan_id":"cebpf4jnsgd1na2vs0mg"},{"bike_id":"16bca792-170f-4fc8-b366-3673e97ab09d","system_id":"levelo_inurba_marseille","lat":43.30162,"lon":5.38093,"is_reserved":false,"is_disabled":false,"rental_uris":{"android":"levelo://app?vid=16bca792-170f-4fc8-b366-3673e97ab09d","ios":"levelo://app?vid=16bca792-170f-4fc8-b366-3673e97ab09d"},"vehicle_type_id":"4","last_reported":1735978277,"current_range_meters":38400,"station_id":"ce4bgjp2rcd13ifvqbh0","pricing_plan_id":"cebpf4jnsgd1na2vs0mg"},{"bike_id":"563ce97f-df8f-4ecd-9a64-bee9d9631aba","system_id":"levelo_inurba_marseille","lat":43.29971,"lon":5.37178,"is_reserved":false,"is_disabled":false,"rental_uris":{"android":"levelo://app?vid=563ce97f-df8f-4ecd-9a64-bee9d9631aba","ios":"levelo://app?vid=563ce97f-df8f-4ecd-9a64-bee9d9631aba"},"vehicle_type_id":"4","last_reported":1735978277,"current_range_meters":25600,"station_id":"ce4bgr92rcd13ifvqc7g","pricing_plan_id":"cebpf4jnsgd1na2vs0mg"},{"bike_id":"5e584ae4-fb04-4605-b8fd-532b0218e039","system_id":"levelo_inurba_marseille","lat":43.336099,"lon":5.410254,"is_reserved":false,"is_disabled":false,"rental_uris":{"android":"levelo://app?vid=5e584ae4-fb04-4605-b8fd-532b0218e039","ios":"levelo://app?vid=5e584ae4-fb04-4605-b8fd-532b0218e039"},"vehicle_type_id":"4","last_reported":1735978277,"current_range_meters":16000,"station_id":"ce4bhqh2rcd13ifvqhmg","pricing_plan_id":"cebpf4jnsgd1na2vs0mg"},{"bike_id":"e14fc727-e110-4847-a3c5-e82ea6a6fcb8","system_id":"levelo_inurba_marseille","lat":43.28932,"lon":5.39578,"is_reserved":false,"is_disabled":false,"rental_uris":{"android":"levelo://app?vid=e14fc727-e110-4847-a3c5-e82ea6a6fcb8","ios":"levelo://app?vid=e14fc727-e110-4847-a3c5-e82ea6a6fcb8"},"vehicle_type_id":"4","last_reported":1735978277,"current_range_meters":12400,"station_id":"ce4bh3h2rcd13ifvqdn0","pricing_plan_id":"cebpf4jnsgd1na2vs0mg"},{"bike_id":"93b0597b-4e60-4277-8289-d05658c8f11f","system_id":"levelo_inurba_marseille","lat":43.25125,"lon":5.40325,"is_reserved":false,"is_disabled":false,"rental_uris":{"android":"levelo://app?vid=93b0597b-4e60-4277-8289-d05658c8f11f","ios":"levelo://app?vid=93b0597b-4e60-4277-8289-d05658c8f11f"},"vehicle_type_id":"4","last_reported":1735978277,"current_range_meters":24400,"station_id":"ce4bhlh2rcd13ifvqgig","pricing_plan_id":"cebpf4jnsgd1na2vs0mg"},{"bike_id":"791dec88-10e9-48b5-9fc6-b0acca6d5c2e","system_id":"levelo_inurba_marseille","lat":43.29304,"lon":5.3743,"is_reserved":false,"is_disabled":true,"rental_uris":{"android":"levelo://app?vid=791dec88-10e9-48b5-9fc6-b0acca6d5c2e","ios":"levelo://app?vid=791dec88-10e9-48b5-9fc6-b0acca6d5c2e"},"vehicle_type_id":"4","last_reported":1735978277,"current_range_meters":0,"station_id":"ce4bgi12rcd13ifvqb70","pricing_plan_id":"cebpf4jnsgd1na2vs0mg"},{"bike_id":"ea1081ab-636c-44a8-8e22-c79cb504ca08","system_id":"levelo_inurba_marseille","lat":43.2956,"lon":5.39969,"is_reserved":false,"is_disabled":false,"rental_uris":{"android":"levelo://app?vid=ea1081ab-636c-44a8-8e22-c79cb504ca08","ios":"levelo://app?vid=ea1081ab-636c-44a8-8e22-c79cb504ca08"},"vehicle_type_id":"4","last_reported":1735978277,"current_range_meters":38800,"station_id":"ce4bh312rcd13ifvqdj0","pricing_plan_id":"cebpf4jnsgd1na2vs0mg"},{"bike_id":"a71cb8b6-ab0b-4810-8102-1180edbff67c","system_id":"levelo_inurba_marseille","lat":43.29815,"lon":5.38065,"is_reserved":false,"is_disabled":false,"rental_uris":{"android":"levelo://app?vid=a71cb8b6-ab0b-4810-8102-1180edbff67c","ios":"levelo://app?vid=a71cb8b6-ab0b-4810-8102-1180edbff67c"},"vehicle_type_id":"4","last_reported":1735978277,"current_range_meters":39200,"station_id":"ce4bgip2rcd13ifvqbb0","pricing_plan_id":"cebpf4jnsgd1na2vs0mg"},{"bike_id":"34617586-430d-4b7a-9eab-a1013b7c582e","system_id":"levelo_inurba_marseille","lat":43.289759,"lon":5.378435,"is_reserved":false,"is_disabled":true,"rental_uris":{"android":"levelo://app?vid=34617586-430d-4b7a-9eab-a1013b7c582e","ios":"levelo://app?vid=34617586-430d-4b7a-9eab-a1013b7c582e"},"vehicle_type_id":"4","last_reported":1735978277,"current_range_meters":28400,"station_id":"ce4bh9p2rcd13ifvqed0","pricing_plan_id":"cebpf4jnsgd1na2vs0mg"},{"bike_id":"48d2688d-946c-4cd9-95b1-87f4dc14a3ad","system_id":"levelo_inurba_marseille","lat":43.27926,"lon":5.41172,"is_reserved":false,"is_disabled":false,"rental_uris":{"android":"levelo://app?vid=48d2688d-946c-4cd9-95b1-87f4dc14a3ad","ios":"levelo://app?vid=48d2688d-946c-4cd9-95b1-87f4dc14a3ad"},"vehicle_type_id":"4","last_reported":1735978277,"current_range_meters":14400,"station_id":"","pricing_plan_id":"cebpf4jnsgd1na2vs0mg"},{"bike_id":"0c10e7c0-277f-4c05-a957-8241d256638d","system_id":"levelo_inurba_marseille","lat":43.28437,"lon":5.39184,"is_reserved":false,"is_disabled":false,"rental_uris":{"android":"levelo://app?vid=0c10e7c0-277f-4c05-a957-8241d256638d","ios":"levelo://app?vid=0c10e7c0-277f-4c05-a957-8241d256638d"},"vehicle_type_id":"4","last_reported":1735978277,"current_range_meters":34000,"station_id":"ce4bhoh2rcd13ifvqh5g","pricing_plan_id":"cebpf4jnsgd1na2vs0mg"},{"bike_id":"96ba7f26-1810-4a4d-90e4-a07a1e6cacee","system_id":"levelo_inurba_marseille","lat":43.24789,"lon":5.37449,"is_reserved":false,"is_disabled":false,"rental_uris":{"android":"levelo://app?vid=96ba7f26-1810-4a4d-90e4-a07a1e6cacee","ios":"levelo://app?vid=96ba7f26-1810-4a4d-90e4-a07a1e6cacee"},"vehicle_type_id":"4","last_reported":1735978277,"current_range_meters":24800,"station_id":"ce4bhgh2rcd13ifvqfb0","pricing_plan_id":"cebpf4jnsgd1na2vs0mg"},{"bike_id":"d9676b1a-df49-429f-b317-1de61bb96597","system_id":"levelo_inurba_marseille","lat":43.28618,"lon":5.35103,"is_reserved":false,"is_disabled":false,"rental_uris":{"android":"levelo://app?vid=d9676b1a-df49-429f-b317-1de61bb96597","ios":"levelo://app?vid=d9676b1a-df49-429f-b317-1de61bb96597"},"vehicle_type_id":"4","last_reported":1735978277,"current_range_meters":31200,"station_id":"ce4bhch2rcd13ifvqeug","pricing_plan_id":"cebpf4jnsgd1na2vs0mg"},{"bike_id":"ea5d824c-5457-4946-afb7-19a6d01b74af","system_id":"levelo_inurba_marseille","lat":43.26942,"lon":5.38899,"is_reserved":false,"is_disabled":false,"rental_uris":{"android":"levelo://app?vid=ea5d824c-5457-4946-afb7-19a6d01b74af","ios":"levelo://app?vid=ea5d824c-5457-4946-afb7-19a6d01b74af"},"vehicle_type_id":"4","last_reported":1735978277,"current_range_meters":38000,"station_id":"ce4bhhh2rcd13ifvqfl0","pricing_plan_id":"cebpf4jnsgd1na2vs0mg"},{"bike_id":"e40b8873-a7cf-4e56-b106-d515344f64c4","system_id":"levelo_inurba_marseille","lat":43.231931,"lon":5.355556,"is_reserved":false,"is_disabled":false,"rental_uris":{"android":"levelo://app?vid=e40b8873-a7cf-4e56-b106-d515344f64c4","ios":"levelo://app?vid=e40b8873-a7cf-4e56-b106-d515344f64c4"},"vehicle_type_id":"4","last_reported":1735978277,"current_range_meters":38800,"station_id":"ce4bhu92rcd13ifvqi70","pricing_plan_id":"cebpf4jnsgd1na2vs0mg"},{"bike_id":"bbf998ea-d252-4590-8711-16d78ff4b07c","system_id":"levelo_inurba_marseille","lat":43.24647,"lon":5.38887,"is_reserved":false,"is_disabled":false,"rental_uris":{"android":"levelo://app?vid=bbf998ea-d252-4590-8711-16d78ff4b07c","ios":"levelo://app?vid=bbf998ea-d252-4590-8711-16d78ff4b07c"},"vehicle_type_id":"4","last_reported":1735978277,"current_range_meters":38400,"station_id":"ce4bhg12rcd13ifvqf60","pricing_plan_id":"cebpf4jnsgd1na2vs0mg"},{"bike_id":"2f4f6916-6fa5-41fd-bb6c-752a1e31cb90","system_id":"levelo_inurba_marseille","lat":43.29224,"lon":5.36058,"is_reserved":false,"is_disabled":false,"rental_uris":{"android":"levelo://app?vid=2f4f6916-6fa5-41fd-bb6c-752a1e31cb90","ios":"levelo://app?vid=2f4f6916-6fa5-41fd-bb6c-752a1e31cb90"},"vehicle_type_id":"4","last_reported":1735978277,"current_range_meters":34000,"station_id":"ce4bhbh2rcd13ifvqeqg","pricing_plan_id":"cebpf4jnsgd1na2vs0mg"},{"bike_id":"5250f7d4-1da6-441d-b627-ab92cb7e088d","system_id":"levelo_inurba_marseille","lat":43.24825,"lon":5.37396,"is_reserved":false,"is_disabled":true,"rental_uris":{"android":"levelo://app?vid=5250f7d4-1da6-441d-b627-ab92cb7e088d","ios":"levelo://app?vid=5250f7d4-1da6-441d-b627-ab92cb7e088d"},"vehicle_type_id":"4","last_reported":1735978277,"current_range_meters":26000,"station_id":"","pricing_plan_id":"cebpf4jnsgd1na2vs0mg"},{"bike_id":"c76f010e-8b23-4840-a7a5-a9a5d3648fa3","system_id":"levelo_inurba_marseille","lat":43.309,"lon":5.37179,"is_reserved":false,"is_disabled":true,"rental_uris":{"android":"levelo://app?vid=c76f010e-8b23-4840-a7a5-a9a5d3648fa3","ios":"levelo://app?vid=c76f010e-8b23-4840-a7a5-a9a5d3648fa3"},"vehicle_type_id":"4","last_reported":1735978277,"current_range_meters":9200,"station_id":"ce4bguh2rcd13ifvqckg","pricing_plan_id":"cebpf4jnsgd1na2vs0mg"},{"bike_id":"6f21fba1-6f8e-47c4-a476-286cca5f9cc6","system_id":"levelo_inurba_marseille","lat":43.28276,"lon":5.35072,"is_reserved":false,"is_disabled":true,"rental_uris":{"android":"levelo://app?vid=6f21fba1-6f8e-47c4-a476-286cca5f9cc6","ios":"levelo://app?vid=6f21fba1-6f8e-47c4-a476-286cca5f9cc6"},"vehicle_type_id":"4","last_reported":1735978277,"current_range_meters":4000,"station_id":"ce4bhbp2rcd13ifvqerg","pricing_plan_id":"cebpf4jnsgd1na2vs0mg"},{"bike_id":"09e64385-2ecb-4bb9-b546-a98347585cb3","system_id":"levelo_inurba_marseille","lat":43.3057,"lon":5.37217,"is_reserved":false,"is_disabled":false,"rental_uris":{"android":"levelo://app?vid=09e64385-2ecb-4bb9-b546-a98347585cb3","ios":"levelo://app?vid=09e64385-2ecb-4bb9-b546-a98347585cb3"},"vehicle_type_id":"4","last_reported":1735978277,"current_range_meters":39200,"station_id":"ce4bgqh2rcd13ifvqc4g","pricing_plan_id":"cebpf4jnsgd1na2vs0mg"},{"bike_id":"067a14cd-d2e4-467c-88bd-28fc181bd951","system_id":"levelo_inurba_marseille","lat":43.28717,"lon":5.37404,"is_reserved":false,"is_disabled":false,"rental_uris":{"android":"levelo://app?vid=067a14cd-d2e4-467c-88bd-28fc181bd951","ios":"levelo://app?vid=067a14cd-d2e4-467c-88bd-28fc181bd951"},"vehicle_type_id":"4","last_reported":1735978277,"current_range_meters":38800,"station_id":"ce4bh3p2rcd13ifvqdq0","pricing_plan_id":"cebpf4jnsgd1na2vs0mg"},{"bike_id":"8a2871f5-9447-484d-9926-098aa750c257","system_id":"levelo_inurba_marseille","lat":43.28404,"lon":5.3751,"is_reserved":false,"is_disabled":false,"rental_uris":{"android":"levelo://app?vid=8a2871f5-9447-484d-9926-098aa750c257","ios":"levelo://app?vid=8a2871f5-9447-484d-9926-098aa750c257"},"vehicle_type_id":"4","last_reported":1735978277,"current_range_meters":22400,"station_id":"ce4bh412rcd13ifvqds0","pricing_plan_id":"cebpf4jnsgd1na2vs0mg"},{"bike_id":"4eea4ba4-b591-434c-8374-6eb211ed15d6","system_id":"levelo_inurba_marseille","lat":43.28705,"lon":5.37385,"is_reserved":false,"is_disabled":false,"rental_uris":{"android":"levelo://app?vid=4eea4ba4-b591-434c-8374-6eb211ed15d6","ios":"levelo://app?vid=4eea4ba4-b591-434c-8374-6eb211ed15d6"},"vehicle_type_id":"4","last_reported":1735978277,"current_range_meters":20800,"station_id":"ce4bh3p2rcd13ifvqdq0","pricing_plan_id":"cebpf4jnsgd1na2vs0mg"},{"bike_id":"1c02ae40-e43c-4632-b75b-2df9308dc3fe","system_id":"levelo_inurba_marseille","lat":43.33764,"lon":5.37445,"is_reserved":false,"is_disabled":false,"rental_uris":{"android":"levelo://app?vid=1c02ae40-e43c-4632-b75b-2df9308dc3fe","ios":"levelo://app?vid=1c02ae40-e43c-4632-b75b-2df9308dc3fe"},"vehicle_type_id":"4","last_reported":1735978277,"current_range_meters":30800,"station_id":"","pricing_plan_id":"cebpf4jnsgd1na2vs0mg"},{"bike_id":"e0a17fdd-f816-499e-8295-a9ce94a610e8","system_id":"levelo_inurba_marseille","lat":43.29712,"lon":5.36602,"is_reserved":false,"is_disabled":false,"rental_uris":{"android":"levelo://app?vid=e0a17fdd-f816-499e-8295-a9ce94a610e8","ios":"levelo://app?vid=e0a17fdd-f816-499e-8295-a9ce94a610e8"},"vehicle_type_id":"4","last_reported":1735978277,"current_range_meters":29600,"station_id":"ce4bgn12rcd13ifvqbt0","pricing_plan_id":"cebpf4jnsgd1na2vs0mg"},{"bike_id":"16ce16b9-b2cd-4fe2-9df1-754160a4f5ce","system_id":"levelo_inurba_marseille","lat":43.28436,"lon":5.39172,"is_reserved":false,"is_disabled":false,"rental_uris":{"android":"levelo://app?vid=16ce16b9-b2cd-4fe2-9df1-754160a4f5ce","ios":"levelo://app?vid=16ce16b9-b2cd-4fe2-9df1-754160a4f5ce"},"vehicle_type_id":"4","last_reported":1735978277,"current_range_meters":28400,"station_id":"ce4bhoh2rcd13ifvqh5g","pricing_plan_id":"cebpf4jnsgd1na2vs0mg"},{"bike_id":"5b31f532-8cdc-4374-a449-6c9c7fdbd8b7","system_id":"levelo_inurba_marseille","lat":43.282592,"lon":5.350776,"is_reserved":false,"is_disabled":false,"rental_uris":{"android":"levelo://app?vid=5b31f532-8cdc-4374-a449-6c9c7fdbd8b7","ios":"levelo://app?vid=5b31f532-8cdc-4374-a449-6c9c7fdbd8b7"},"vehicle_type_id":"4","last_reported":1735978277,"current_range_meters":27600,"station_id":"ce4bhbp2rcd13ifvqerg","pricing_plan_id":"cebpf4jnsgd1na2vs0mg"},{"bike_id":"941b6922-c132-47c2-b426-f0b2c37af18f","system_id":"levelo_inurba_marseille","lat":43.24809,"lon":5.37459,"is_reserved":false,"is_disabled":false,"rental_uris":{"android":"levelo://app?vid=941b6922-c132-47c2-b426-f0b2c37af18f","ios":"levelo://app?vid=941b6922-c132-47c2-b426-f0b2c37af18f"},"vehicle_type_id":"4","last_reported":1735978277,"current_range_meters":29600,"station_id":"ce4bhgh2rcd13ifvqfb0","pricing_plan_id":"cebpf4jnsgd1na2vs0mg"},{"bike_id":"262b0d7a-b83b-40f1-bc54-810a9a289441","system_id":"levelo_inurba_marseille","lat":43.29182,"lon":5.35808,"is_reserved":false,"is_disabled":false,"rental_uris":{"android":"levelo://app?vid=262b0d7a-b83b-40f1-bc54-810a9a289441","ios":"levelo://app?vid=262b0d7a-b83b-40f1-bc54-810a9a289441"},"vehicle_type_id":"4","last_reported":1735978277,"current_range_meters":39200,"station_id":"ce4bhb12rcd13ifvqel0","pricing_plan_id":"cebpf4jnsgd1na2vs0mg"},{"bike_id":"85cba0a3-d6ec-4723-83bf-95316674cece","system_id":"levelo_inurba_marseille","lat":43.2756,"lon":5.38412,"is_reserved":false,"is_disabled":true,"rental_uris":{"android":"levelo://app?vid=85cba0a3-d6ec-4723-83bf-95316674cece","ios":"levelo://app?vid=85cba0a3-d6ec-4723-83bf-95316674cece"},"vehicle_type_id":"4","last_reported":1735978277,"current_range_meters":6800,"station_id":"ce4bhh92rcd13ifvqfi0","pricing_plan_id":"cebpf4jnsgd1na2vs0mg"},{"bike_id":"d5355d3d-6620-4d8e-801e-d620f116c682","system_id":"levelo_inurba_marseille","lat":43.2306,"lon":5.35501,"is_reserved":false,"is_disabled":false,"rental_uris":{"android":"levelo://app?vid=d5355d3d-6620-4d8e-801e-d620f116c682","ios":"levelo://app?vid=d5355d3d-6620-4d8e-801e-d620f116c682"},"vehicle_type_id":"4","last_reported":1735978277,"current_range_meters":20000,"station_id":"cpo3342slgdg3j2ifvpg","pricing_plan_id":"cebpf4jnsgd1na2vs0mg"},{"bike_id":"235534bd-ca53-418b-8c6c-404f024bf9f1","system_id":"levelo_inurba_marseille","lat":43.28032,"lon":5.36923,"is_reserved":false,"is_disabled":false,"rental_uris":{"android":"levelo://app?vid=235534bd-ca53-418b-8c6c-404f024bf9f1","ios":"levelo://app?vid=235534bd-ca53-418b-8c6c-404f024bf9f1"},"vehicle_type_id":"4","last_reported":1735978277,"current_range_meters":22800,"station_id":"ce4bha12rcd13ifvqef0","pricing_plan_id":"cebpf4jnsgd1na2vs0mg"},{"bike_id":"3498144d-bb2d-4193-ae5b-ba6d2f0a3b93","system_id":"levelo_inurba_marseille","lat":43.32494,"lon":5.3671,"is_reserved":false,"is_disabled":false,"rental_uris":{"android":"levelo://app?vid=3498144d-bb2d-4193-ae5b-ba6d2f0a3b93","ios":"levelo://app?vid=3498144d-bb2d-4193-ae5b-ba6d2f0a3b93"},"vehicle_type_id":"4","last_reported":1735978277,"current_range_meters":36800,"station_id":"","pricing_plan_id":"cebpf4jnsgd1na2vs0mg"},{"bike_id":"fed231b8-8d55-420b-88e1-a67f860fe4c7","system_id":"levelo_inurba_marseille","lat":43.31168,"lon":5.38589,"is_reserved":false,"is_disabled":false,"rental_uris":{"android":"levelo://app?vid=fed231b8-8d55-420b-88e1-a67f860fe4c7","ios":"levelo://app?vid=fed231b8-8d55-420b-88e1-a67f860fe4c7"},"vehicle_type_id":"4","last_reported":1735978277,"current_range_meters":16800,"station_id":"ce4bgv12rcd13ifvqcp0","pricing_plan_id":"cebpf4jnsgd1na2vs0mg"},{"bike_id":"7c21aec4-aee8-4865-a194-7579d6c16e4a","system_id":"levelo_inurba_marseille","lat":43.29804,"lon":5.38084,"is_reserved":false,"is_disabled":false,"rental_uris":{"android":"levelo://app?vid=7c21aec4-aee8-4865-a194-7579d6c16e4a","ios":"levelo://app?vid=7c21aec4-aee8-4865-a194-7579d6c16e4a"},"vehicle_type_id":"4","last_reported":1735978277,"current_range_meters":38000,"station_id":"ce4bgip2rcd13ifvqbb0","pricing_plan_id":"cebpf4jnsgd1na2vs0mg"},{"bike_id":"9106d3ff-fc86-4d68-9c8d-6412f9d842de","system_id":"levelo_inurba_marseille","lat":43.25479,"lon":5.37658,"is_reserved":false,"is_disabled":false,"rental_uris":{"android":"levelo://app?vid=9106d3ff-fc86-4d68-9c8d-6412f9d842de","ios":"levelo://app?vid=9106d3ff-fc86-4d68-9c8d-6412f9d842de"},"vehicle_type_id":"4","last_reported":1735978277,"current_range_meters":38800,"station_id":"ce4bhh12rcd13ifvqff0","pricing_plan_id":"cebpf4jnsgd1na2vs0mg"},{"bike_id":"20a40771-05e4-4491-8593-80a44dd596df","system_id":"levelo_inurba_marseille","lat":43.28715,"lon":5.36101,"is_reserved":false,"is_disabled":true,"rental_uris":{"android":"levelo://app?vid=20a40771-05e4-4491-8593-80a44dd596df","ios":"levelo://app?vid=20a40771-05e4-4491-8593-80a44dd596df"},"vehicle_type_id":"4","last_reported":1735978277,"current_range_meters":20000,"station_id":"cki0cbj6b192h4jlfktg","pricing_plan_id":"cebpf4jnsgd1na2vs0mg"},{"bike_id":"a42de11a-927c-411f-a1bb-af5f58568286","system_id":"levelo_inurba_marseille","lat":43.30247,"lon":5.37732,"is_reserved":false,"is_disabled":false,"rental_uris":{"android":"levelo://app?vid=a42de11a-927c-411f-a1bb-af5f58568286","ios":"levelo://app?vid=a42de11a-927c-411f-a1bb-af5f58568286"},"vehicle_type_id":"4","last_reported":1735978277,"current_range_meters":24400,"station_id":"ce4bguh2rcd13ifvqcj0","pricing_plan_id":"cebpf4jnsgd1na2vs0mg"},{"bike_id":"70c2848a-e325-4867-a87b-ec2e5af222ca","system_id":"levelo_inurba_marseille","lat":43.31082,"lon":5.42424,"is_reserved":false,"is_disabled":false,"rental_uris":{"android":"levelo://app?vid=70c2848a-e325-4867-a87b-ec2e5af222ca","ios":"levelo://app?vid=70c2848a-e325-4867-a87b-ec2e5af222ca"},"vehicle_type_id":"4","last_reported":1735978277,"current_range_meters":38000,"station_id":"ce4bhp92rcd13ifvqhag","pricing_plan_id":"cebpf4jnsgd1na2vs0mg"},{"bike_id":"a3e2ab21-81f2-4b57-8449-f6b06a85eff9","system_id":"levelo_inurba_marseille","lat":43.24808,"lon":5.37435,"is_reserved":false,"is_disabled":false,"rental_uris":{"android":"levelo://app?vid=a3e2ab21-81f2-4b57-8449-f6b06a85eff9","ios":"levelo://app?vid=a3e2ab21-81f2-4b57-8449-f6b06a85eff9"},"vehicle_type_id":"4","last_reported":1735978277,"current_range_meters":17600,"station_id":"ce4bhgh2rcd13ifvqfb0","pricing_plan_id":"cebpf4jnsgd1na2vs0mg"},{"bike_id":"48dab017-3f42-472f-871a-513ce2bb3aac","system_id":"levelo_inurba_marseille","lat":43.23144,"lon":5.43727,"is_reserved":false,"is_disabled":false,"rental_uris":{"android":"levelo://app?vid=48dab017-3f42-472f-871a-513ce2bb3aac","ios":"levelo://app?vid=48dab017-3f42-472f-871a-513ce2bb3aac"},"vehicle_type_id":"4","last_reported":1735978277,"current_range_meters":38000,"station_id":"ce4bhmp2rcd13ifvqgog","pricing_plan_id":"cebpf4jnsgd1na2vs0mg"},{"bike_id":"c2d3fd37-520e-47f5-9553-43dacdd55650","system_id":"levelo_inurba_marseille","lat":43.305534,"lon":5.384002,"is_reserved":false,"is_disabled":false,"rental_uris":{"android":"levelo://app?vid=c2d3fd37-520e-47f5-9553-43dacdd55650","ios":"levelo://app?vid=c2d3fd37-520e-47f5-9553-43dacdd55650"},"vehicle_type_id":"4","last_reported":1735978277,"current_range_meters":28800,"station_id":"ce4bgg92rcd13ifvqb30","pricing_plan_id":"cebpf4jnsgd1na2vs0mg"},{"bike_id":"4933aa85-174f-4619-b884-90d047cff55f","system_id":"levelo_inurba_marseille","lat":43.28,"lon":5.40011,"is_reserved":false,"is_disabled":false,"rental_uris":{"android":"levelo://app?vid=4933aa85-174f-4619-b884-90d047cff55f","ios":"levelo://app?vid=4933aa85-174f-4619-b884-90d047cff55f"},"vehicle_type_id":"4","last_reported":1735978277,"current_range_meters":30000,"station_id":"ce4bho92rcd13ifvqh4g","pricing_plan_id":"cebpf4jnsgd1na2vs0mg"},{"bike_id":"d014f699-d84d-436b-b3bf-8c059d18ea89","system_id":"levelo_inurba_marseille","lat":43.22925,"lon":5.35379,"is_reserved":false,"is_disabled":false,"rental_uris":{"android":"levelo://app?vid=d014f699-d84d-436b-b3bf-8c059d18ea89","ios":"levelo://app?vid=d014f699-d84d-436b-b3bf-8c059d18ea89"},"vehicle_type_id":"4","last_reported":1735978277,"current_range_meters":23200,"station_id":"cpo3532slgdg3j2ikp40","pricing_plan_id":"cebpf4jnsgd1na2vs0mg"},{"bike_id":"47f4101f-25f5-4bde-a825-148c2b532f65","system_id":"levelo_inurba_marseille","lat":43.31275,"lon":5.40168,"is_reserved":false,"is_disabled":false,"rental_uris":{"android":"levelo://app?vid=47f4101f-25f5-4bde-a825-148c2b532f65","ios":"levelo://app?vid=47f4101f-25f5-4bde-a825-148c2b532f65"},"vehicle_type_id":"4","last_reported":1735978277,"current_range_meters":34000,"station_id":"ce4bh092rcd13ifvqd30","pricing_plan_id":"cebpf4jnsgd1na2vs0mg"},{"bike_id":"7b35b2a8-3878-4ec8-b9c2-66dde2137aeb","system_id":"levelo_inurba_marseille","lat":43.25115,"lon":5.40324,"is_reserved":false,"is_disabled":true,"rental_uris":{"android":"levelo://app?vid=7b35b2a8-3878-4ec8-b9c2-66dde2137aeb","ios":"levelo://app?vid=7b35b2a8-3878-4ec8-b9c2-66dde2137aeb"},"vehicle_type_id":"4","last_reported":1735978277,"current_range_meters":400,"station_id":"ce4bhlh2rcd13ifvqgig","pricing_plan_id":"cebpf4jnsgd1na2vs0mg"},{"bike_id":"c14d1989-a72f-4241-a582-39661d0bcfcf","system_id":"levelo_inurba_marseille","lat":43.23199,"lon":5.35549,"is_reserved":false,"is_disabled":false,"rental_uris":{"android":"levelo://app?vid=c14d1989-a72f-4241-a582-39661d0bcfcf","ios":"levelo://app?vid=c14d1989-a72f-4241-a582-39661d0bcfcf"},"vehicle_type_id":"4","last_reported":1735978277,"current_range_meters":38800,"station_id":"ce4bhu92rcd13ifvqi70","pricing_plan_id":"cebpf4jnsgd1na2vs0mg"},