{"last_updated":1736352688,"ttl":60,"version":"2.2","data":{"bikes":[{"bike_id":"e53ee841-b694-4ec4-b3ba-f18d13a12fbf","system_id":"levelo_inurba_marseille","lat":43.33013,"lon":5.39034,"is_reserved":false,"is_disabled":false,"rental_uris":{"android":"levelo://app?vid=e53ee841-b694-4ec4-b3ba-f18d13a12fbf","ios":"levelo://app?vid=e53ee841-b694-4ec4-b3ba-f18d13a12fbf"},"vehicle_type_id":"4","last_reported":1736352688,"current_range_meters":20000,"station_id":"ce4bhr92rcd13ifvqhrg","pricing_plan_id":"cebpf4jnsgd1na2vs0mg"},{"bike_id":"ca7ee0c1-e5b3-4355-9ce0-f8bd5a1b780f","system_id":"levelo_inurba_marseille","lat":43.30353,"lon":5.41878,"is_reserved":false,"is_disabled":false,"rental_uris":{"android":"levelo://app?vid=ca7ee0c1-e5b3-4355-9ce0-f8bd5a1b780f","ios":"levelo://app?vid=ca7ee0c1-e5b3-4355-9ce0-f8bd5a1b780f"},"vehicle_type_id":"4","last_reported":1736352688,"current_range_meters":12800,"station_id":"ce4bhop2rcd13ifvqh7g","pricing_plan_id":"cebpf4jnsgd1na2vs0mg"},{"bike_id":"424b02a3-71fc-4629-934b-0ffcd9c06e9e","system_id":"levelo_inurba_marseille","lat":43.308889,"lon":5.39655,"is_reserved":false,"is_disabled":false,"rental_uris":{"android":"levelo://app?vid=424b02a3-71fc-4629-934b-0ffcd9c06e9e","ios":"levelo://app?vid=424b02a3-71fc-4629-934b-0ffcd9c06e9e"},"vehicle_type_id":"4","last_reported":1736352688,"current_range_meters":38800,"station_id":"ce4bh012rcd13ifvqcv0","pricing_plan_id":"cebpf4jnsgd1na2vs0mg"},{"bike_id":"662b0f60-c988-46ba-9432-caa0f17cfd87","system_id":"levelo_inurba_marseille","lat":43.2737,"lon":5.36254,"is_reserved":false,"is_disabled":false,"rental_uris":{"android":"levelo://app?vid=662b0f60-c988-46ba-9432-caa0f17cfd87","ios":"levelo://app?vid=662b0f60-c988-46ba-9432-caa0f17cfd87"},"vehicle_type_id":"4","last_reported":1736352688,"current_range_meters":34000,"station_id":"ce4bhbh2rcd13ifvqeo0","pricing_plan_id":"cebpf4jnsgd1na2vs0mg"},{"bike_id":"079a2489-d193-414b-8b47-82e93bfb4b65","system_id":"levelo_inurba_marseille","lat":43.289013,"lon":5.379927,"is_reserved":false,"is_disabled":false,"rental_uris":{"android":"levelo://app?vid=079a2489-d193-414b-8b47-82e93bfb4b65","ios":"levelo://app?vid=079a2489-d193-414b-8b47-82e93bfb4b65"},"vehicle_type_id":"4","last_reported":1736352688,"current_range_meters":37600,"station_id":"","pricing_plan_id":"cebpf4jnsgd1na2vs0mg"},{"bike_id":"d1244aa9-0aef-4cc0-95b0-1ab2bc0f68a2","system_id":"levelo_inurba_marseille","lat":43.2719,"lon":5.41002,"is_reserved":false,"is_disabled":false,"rental_uris":{"android":"levelo://app?vid=d1244aa9-0aef-4cc0-95b0-1ab2bc0f68a2","ios":"levelo://app?vid=d1244aa9-0aef-4cc0-95b0-1ab2bc0f68a2"},"vehicle_type_id":"4","last_reported":1736352688,"current_range_meters":37600,"station_id":"ce4bhl12rcd13ifvqgf0","pricing_plan_id":"cebpf4jnsgd1na2vs0mg"},{"bike_id":"95441836-7d57-4a6c-8cdb-64e7d50c6a32","system_id":"levelo_inurba_marseille","lat":43.25869,"lon":5.39899,"is_reserved":false,"is_disabled":false,"rental_uris":{"android":"levelo://app?vid=95441836-7d57-4a6c-8cdb-64e7d50c6a32","ios":"levelo://app?vid=95441836-7d57-4a6c-8cdb-64e7d50c6a32"},"vehicle_type_id":"4","last_reported":1736352688,"current_range_meters":39200,"station_id":"ce4bhl92rcd13ifvqghg","pricing_plan_id":"cebpf4jnsgd1na2vs0mg"},{"bike_id":"784c114c-6b4b-4d66-8437-8a364b7d7999","system_id":"levelo_inurba_marseille","lat":43.33712,"lon":5.39158,"is_reserved":false,"is_disabled":false,"rental_uris":{"android":"levelo://app?vid=784c114c-6b4b-4d66-8437-8a364b7d7999","ios":"levelo://app?vid=784c114c-6b4b-4d66-8437-8a364b7d7999"},"vehicle_type_id":"4","last_reported":1736352688,"current_range_meters":35200,"station_id":"ce4bhr92rcd13ifvqhsg","pricing_plan_id":"cebpf4jnsgd1na2vs0mg"},{"bike_id":"fe3704b1-1297-4b6e-a8fc-011883cc7d92","system_id":"levelo_inurba_marseille","lat":43.25497,"lon":5.37677,"is_reserved":false,"is_disabled":false,"rental_uris":{"android":"levelo://app?vid=fe3704b1-1297-4b6e-a8fc-011883cc7d92","ios":"levelo://app?vid=fe3704b1-1297-4b6e-a8fc-011883cc7d92"},"vehicle_type_id":"4","last_reported":1736352688,"current_range_meters":20800,"station_id":"ce4bhh12rcd13ifvqff0","pricing_plan_id":"cebpf4jnsgd1na2vs0mg"},{"bike_id":"bea45c2c-316a-4b4f-8b18-6e2627f503a5","system_id":"levelo_inurba_marseille","lat":43.28617,"lon":5.35096,"is_reserved":false,"is_disabled":false,"rental_uris":{"android":"levelo://app?vid=bea45c2c-316a-4b4f-8b18-6e2627f503a5","ios":"levelo://app?vid=bea45c2c-316a-4b4f-8b18-6e2627f503a5"},"vehicle_type_id":"4","last_reported":1736352688,"current_range_meters":30000,"station_id":"ce4bhch2rcd13ifvqeug","pricing_plan_id":"cebpf4jnsgd1na2vs0mg"},{"bike_id":"2a250d61-8a11-4f0c-8194-7f90eada69de","system_id":"levelo_inurba_marseille","lat":43.3133,"lon":5.39684,"is_reserved":false,"is_disabled":false,"rental_uris":{"android":"levelo://app?vid=2a250d61-8a11-4f0c-8194-7f90eada69de","ios":"levelo://app?vid=2a250d61-8a11-4f0c-8194-7f90eada69de"},"vehicle_type_id":"4","last_reported":1736352688,"current_range_meters":27600,"station_id":"ce4bgvp2rcd13ifvqcu0","pricing_plan_id":"cebpf4jnsgd1na2vs0mg"},{"bike_id":"a9edd39b-2753-4de9-ad60-a7d0e413d73c","system_id":"levelo_inurba_marseille","lat":43.24807,"lon":5.37452,"is_reserved":false,"is_disabled":false,"rental_uris":{"android":"levelo://app?vid=a9edd39b-2753-4de9-ad60-a7d0e413d73c","ios":"levelo://app?vid=a9edd39b-2753-4de9-ad60-a7d0e413d73c"},"vehicle_type_id":"4","last_reported":1736352688,"current_range_meters":37600,"station_id":"ce4bhgh2rcd13ifvqfb0","pricing_plan_id":"cebpf4jnsgd1na2vs0mg"},{"bike_id":"f40a23e1-4db4-43c9-bf26-5d3436aadc87","system_id":"levelo_inurba_marseille","lat":43.28371,"lon":5.386454,"is_reserved":false,"is_disabled":true,"rental_uris":{"android":"levelo://app?vid=f40a23e1-4db4-43c9-bf26-5d3436aadc87","ios":"levelo://app?vid=f40a23e1-4db4-43c9-bf26-5d3436aadc87"},"vehicle_type_id":"4","last_reported":1736352688,"current_range_meters":37600,"station_id":"ce4bh492rcd13ifvqdvg","pricing_plan_id":"cebpf4jnsgd1na2vs0mg"},{"bike_id":"a8ce43be-4cc1-4b4c-a3a3-d5048bc9b7fa","system_id":"levelo_inurba_marseille","lat":43.33027,"lon":5.3904,"is_reserved":false,"is_disabled":false,"rental_uris":{"android":"levelo://app?vid=a8ce43be-4cc1-4b4c-a3a3-d5048bc9b7fa","ios":"levelo://app?vid=a8ce43be-4cc1-4b4c-a3a3-d5048bc9b7fa"},"vehicle_type_id":"4","last_reported":1736352688,"current_range_meters":37600,"station_id":"ce4bhr92rcd13ifvqhrg","pricing_plan_id":"cebpf4jnsgd1na2vs0mg"},{"bike_id":"73eb524f-2d58-4a00-9fa5-76f6077910dd","system_id":"levelo_inurba_marseille","lat":43.23193,"lon":5.39999,"is_reserved":false,"is_disabled":true,"rental_uris":{"android":"levelo://app?vid=73eb524f-2d58-4a00-9fa5-76f6077910dd","ios":"levelo://app?vid=73eb524f-2d58-4a00-9fa5-76f6077910dd"},"vehicle_type_id":"4","last_reported":1736352688,"current_range_meters":12000,"station_id":"ce4bhn12rcd13ifvqgqg","pricing_plan_id":"cebpf4jnsgd1na2vs0mg"},{"bike_id":"c13e404c-3822-47fa-98e3-b2f91eef48ac","system_id":"levelo_inurba_marseille","lat":43.28967,"lon":5.39684,"is_reserved":false,"is_disabled":false,"rental_uris":{"android":"levelo://app?vid=c13e404c-3822-47fa-98e3-b2f91eef48ac","ios":"levelo://app?vid=c13e404c-3822-47fa-98e3-b2f91eef48ac"},"vehicle_type_id":"4","last_reported":1736352688,"current_range_meters":16400,"station_id":"","pricing_plan_id":"cebpf4jnsgd1na2vs0mg"},{"bike_id":"2199d219-e0ca-4b28-a772-ba63161f237a","system_id":"levelo_inurba_marseille","lat":43.32108,"lon":5.36771,"is_reserved":false,"is_disabled":false,"rental_uris":{"android":"levelo://app?vid=2199d219-e0ca-4b28-a772-ba63161f237a","ios":"levelo://app?vid=2199d219-e0ca-4b28-a772-ba63161f237a"},"vehicle_type_id":"4","last_reported":1736352688,"current_range_meters":18000,"station_id":"ce4bhrh2rcd13ifvqhug","pricing_plan_id":"cebpf4jnsgd1na2vs0mg"},{"bike_id":"a81f0b25-2849-4974-9edb-1a08c6c0db79","system_id":"levelo_inurba_marseille","lat":43.23151,"lon":5.43705,"is_reserved":false,"is_disabled":false,"rental_uris":{"android":"levelo://app?vid=a81f0b25-2849-4974-9edb-1a08c6c0db79","ios":"levelo://app?vid=a81f0b25-2849-4974-9edb-1a08c6c0db79"},"vehicle_type_id":"4","last_reported":1736352688,"current_range_meters":38800,"station_id":"ce4bhmp2rcd13ifvqgog","pricing_plan_id":"cebpf4jnsgd1na2vs0mg"},{"bike_id":"57c4f29a-4c3a-46c7-b489-c2dfb21b38d8","system_id":"levelo_inurba_marseille","lat":43.28659,"lon":5.36347,"is_reserved":false,"is_disabled":false,"rental_uris":{"android":"levelo://app?vid=57c4f29a-4c3a-46c7-b489-c2dfb21b38d8","ios":"levelo://app?vid=57c4f29a-4c3a-46c7-b489-c2dfb21b38d8"},"vehicle_type_id":"4","last_reported":1736352688,"current_range_meters":11600,"station_id":"ce4bhah2rcd13ifvqej0","pricing_plan_id":"cebpf4jnsgd1na2vs0mg"},{"bike_id":"4e0b40f3-d6ee-4bf1-97d1-78bdbcea5d06","system_id":"levelo_inurba_marseille","lat":43.30804,"lon":5.38165,"is_reserved":false,"is_disabled":false,"rental_uris":{"android":"levelo://app?vid=4e0b40f3-d6ee-4bf1-97d1-78bdbcea5d06","ios":"levelo://app?vid=4e0b40f3-d6ee-4bf1-97d1-78bdbcea5d06"},"vehicle_type_id":"4","last_reported":1736352688,"current_range_meters":28000,"station_id":"ce4bgt12rcd13ifvqce0","pricing_plan_id":"cebpf4jnsgd1na2vs0mg"},{"bike_id":"e9811af6-2b58-44bf-8a8f-1cf010738c20","system_id":"levelo_inurba_marseille","lat":43.23209,"lon":5.39977,"is_reserved":false,"is_disabled":false,"rental_uris":{"android":"levelo://app?vid=e9811af6-2b58-44bf-8a8f-1cf010738c20","ios":"levelo://app?vid=e9811af6-2b58-44bf-8a8f-1cf010738c20"},"vehicle_type_id":"4","last_reported":1736352688,"current_range_meters":27200,"station_id":"ce4bhn12rcd13ifvqgqg","pricing_plan_id":"cebpf4jnsgd1na2vs0mg"},{"bike_id":"a5ec1af6-cb0a-4d0d-a225-d2cea0bc3bf0","system_id":"levelo_inurba_marseille","lat":43.24388,"lon":5.37061,"is_reserved":false,"is_disabled":false,"rental_uris":{"android":"levelo://app?vid=a5ec1af6-cb0a-4d0d-a225-d2cea0bc3bf0","ios":"levelo://app?vid=a5ec1af6-cb0a-4d0d-a225-d2cea0bc3bf0"},"vehicle_type_id":"4","last_reported":1736352688,"current_range_meters":26000,"station_id":"ce4bhhh2rcd13ifvqfk0","pricing_plan_id":"cebpf4jnsgd1na2vs0mg"},{"bike_id":"c2db8e30-9123-457b-9793-749757086728","system_id":"levelo_inurba_marseille","lat":43.2906,"lon":5.37168,"is_reserved":false,"is_disabled":false,"rental_uris":{"android":"levelo://app?vid=c2db8e30-9123-457b-9793-749757086728","ios":"levelo://app?vid=c2db8e30-9123-457b-9793-749757086728"},"vehicle_type_id":"4","last_reported":1736352688,"current_range_meters":4400,"station_id":"ce4bh5p2rcd13ifvqe4g","pricing_plan_id":"cebpf4jnsgd1na2vs0mg"},{"bike_id":"d9d853dc-1c12-4580-bbd0-b7beab22ca27","system_id":"levelo_inurba_marseille","lat":43.29026,"lon":5.38139,"is_reserved":false,"is_disabled":false,"rental_uris":{"android":"levelo://app?vid=d9d853dc-1c12-4580-bbd0-b7beab22ca27","ios":"levelo://app?vid=d9d853dc-1c12-4580-bbd0-b7beab22ca27"},"vehicle_type_id":"4","last_reported":1736352688,"current_range_meters":38800,"station_id":"ce4bh4p2rcd13ifvqe1g","pricing_plan_id":"cebpf4jnsgd1na2vs0mg"},{"bike_id":"cb2b6336-78ab-4eb9-af67-e32e664641da","system_id":"levelo_inurba_marseille","lat":43.23159,"lon":5.43704,"is_reserved":false,"is_disabled":false,"rental_uris":{"android":"levelo://app?vid=cb2b6336-78ab-4eb9-af67-e32e664641da","ios":"levelo://app?vid=cb2b6336-78ab-4eb9-af67-e32e664641da"},"vehicle_type_id":"4","last_reported":1736352688,"current_range_meters":38800,"station_id":"ce4bhmp2rcd13ifvqgog","pricing_plan_id":"cebpf4jnsgd1na2vs0mg"},{"bike_id":"b3e8a142-768b-4d34-93d8-6fd0d09a4f96","system_id":"levelo_inurba_marseille","lat":43.32659,"lon":5.40982,"is_reserved":false,"is_disabled":false,"rental_uris":{"android":"levelo://app?vid=b3e8a142-768b-4d34-93d8-6fd0d09a4f96","ios":"levelo://app?vid=b3e8a142-768b-4d34-93d8-6fd0d09a4f96"},"vehicle_type_id":"4","last_reported":1736352688,"current_range_meters":35600,"station_id":"ce4bhpp2rcd13ifvqhgg","pricing_plan_id":"cebpf4jnsgd1na2vs0mg"},{"bike_id":"efccb482-d7c6-4432-9665-469acaba209e","system_id":"levelo_inurba_marseille","lat":43.24075,"lon":5.3776,"is_reserved":false,"is_disabled":false,"rental_uris":{"android":"levelo://app?vid=efccb482-d7c6-4432-9665-469acaba209e","ios":"levelo://app?vid=efccb482-d7c6-4432-9665-469acaba209e"},"vehicle_type_id":"4","last_reported":1736352688,"current_range_meters":24400,"station_id":"ce4bhnp2rcd13ifvqgvg","pricing_plan_id":"cebpf4jnsgd1na2vs0mg"},{"bike_id":"d7846072-173d-4efe-a1f7-3c806ad27ea1","system_id":"levelo_inurba_marseille","lat":43.30268,"lon":5.40073,"is_reserved":false,"is_disabled":false,"rental_uris":{"android":"levelo://app?vid=d7846072-173d-4efe-a1f7-3c806ad27ea1","ios":"levelo://app?vid=d7846072-173d-4efe-a1f7-3c806ad27ea1"},"vehicle_type_id":"4","last_reported":1736352688,"current_range_meters":37600,"station_id":"ce4bgvh2rcd13ifvqcs0","pricing_plan_id":"cebpf4jnsgd1na2vs0mg"},{"bike_id":"df02e1b6-3a50-4ccf-933f-7b5e41abfc53","system_id":"levelo_inurba_marseille","lat":43.31319,"lon":5.39706,"is_reserved":false,"is_disabled":false,"rental_uris":{"android":"levelo://app?vid=df02e1b6-3a50-4ccf-933f-7b5e41abfc53","ios":"levelo://app?vid=df02e1b6-3a50-4ccf-933f-7b5e41abfc53"},"vehicle_type_id":"4","last_reported":1736352688,"current_range_meters":38800,"station_id":"ce4bgvp2rcd13ifvqcu0","pricing_plan_id":"cebpf4jnsgd1na2vs0mg"},{"bike_id":"e601d8b6-f206-400a-be15-a8cb866ef7c3","system_id":"levelo_inurba_marseille","lat":43.29368,"lon":5.37857,"is_reserved":false,"is_disabled":true,"rental_uris":{"android":"levelo://app?vid=e601d8b6-f206-400a-be15-a8cb866ef7c3","ios":"levelo://app?vid=e601d8b6-f206-400a-be15-a8cb866ef7c3"},"vehicle_type_id":"4","last_reported":1736352688,"current_range_meters":38800,"station_id":"ce4bgjh2rcd13ifvqbf0","pricing_plan_id":"cebpf4jnsgd1na2vs0mg"},{"bike_id":"be4c59f4-a498-44be-a430-245c96b05e75","system_id":"levelo_inurba_marseille","lat":43.32853,"lon":5.39179,"is_reserved":false,"is_disabled":false,"rental_uris":{"android":"levelo://app?vid=be4c59f4-a498-44be-a430-245c96b05e75","ios":"levelo://app?vid=be4c59f4-a498-44be-a430-245c96b05e75"},"vehicle_type_id":"4","last_reported":1736352688,"current_range_meters":16000,"station_id":"","pricing_plan_id":"cebpf4jnsgd1na2vs0mg"},{"bike_id":"feeeae9a-4bcc-477a-bc8c-e9391fa8aedd","system_id":"levelo_inurba_marseille","lat":43.29184,"lon":5.39325,"is_reserved":false,"is_disabled":true,"rental_uris":{"android":"levelo://app?vid=feeeae9a-4bcc-477a-bc8c-e9391fa8aedd","ios":"levelo://app?vid=feeeae9a-4bcc-477a-bc8c-e9391fa8aedd"},"vehicle_type_id":"4","last_reported":1736352688,"current_range_meters":3200,"station_id":"ce4bh192rcd13ifvqdd0","pricing_plan_id":"cebpf4jnsgd1na2vs0mg"},{"bike_id":"dbe4d7d2-95f9-4a28-b000-f9ac7c3f52eb","system_id":"levelo_inurba_marseille","lat":43.29202,"lon":5.39296,"is_reserved":false,"is_disabled":true,"rental_uris":{"android":"levelo://app?vid=dbe4d7d2-95f9-4a28-b000-f9ac7c3f52eb","ios":"levelo://app?vid=dbe4d7d2-95f9-4a28-b000-f9ac7c3f52eb"},"vehicle_type_id":"4","last_reported":1736352688,"current_range_meters":3200,"station_id":"ce4bh192rcd13ifvqdd0","pricing_plan_id":"cebpf4jnsgd1na2vs0mg"},{"bike_id":"b02ae6ee-06d8-4b9f-9872-c8fcf9b7576a","system_id":"levelo_inurba_marseille","lat":43.30553,"lon":5.36524,"is_reserved":false,"is_disabled":true,"rental_uris":{"android":"levelo://app?vid=b02ae6ee-06d8-4b9f-9872-c8fcf9b7576a","ios":"levelo://app?vid=b02ae6ee-06d8-4b9f-9872-c8fcf9b7576a"},"vehicle_type_id":"4","last_reported":1736352688,"current_range_meters":24800,"station_id":"ce4bgs12rcd13ifvqcag","pricing_plan_id":"cebpf4jnsgd1na2vs0mg"},{"bike_id":"6c8c065c-4f64-45a3-975e-0153510e3a84","system_id":"levelo_inurba_marseille","lat":43.25583,"lon":5.38222,"is_reserved":false,"is_disabled":false,"rental_uris":{"android":"levelo://app?vid=6c8c065c-4f64-45a3-975e-0153510e3a84","ios":"levelo://app?vid=6c8c065c-4f64-45a3-975e-0153510e3a84"},"vehicle_type_id":"4","last_reported":1736352688,"current_range_meters":16000,"station_id":"ce4bhih2rcd13ifvqfs0","pricing_plan_id":"cebpf4jnsgd1na2vs0mg"},{"bike_id":"bc56798a-5ce1-40dc-91c4-09605433014b","system_id":"levelo_inurba_marseille","lat":43.302485,"lon":5.400615,"is_reserved":false,"is_disabled":false,"rental_uris":{"android":"levelo://app?vid=bc56798a-5ce1-40dc-91c4-09605433014b","ios":"levelo://app?vid=bc56798a-5ce1-40dc-91c4-09605433014b"},"vehicle_type_id":"4","last_reported":1736352688,"current_range_meters":25600,"station_id":"ce4bgvh2rcd13ifvqcs0","pricing_plan_id":"cebpf4jnsgd1na2vs0mg"},{"bike_id":"41b383cc-f942-4df9-9eb2-295b8701d0b2","system_id":"levelo_inurba_marseille","lat":43.2669,"lon":5.38276,"is_reserved":false,"is_disabled":false,"rental_uris":{"android":"levelo://app?vid=41b383cc-f942-4df9-9eb2-295b8701d0b2","ios":"levelo://app?vid=41b383cc-f942-4df9-9eb2-295b8701d0b2"},"vehicle_type_id":"4","last_reported":1736352688,"current_range_meters":20000,"station_id":"ce4bhg92rcd13ifvqf90","pricing_plan_id":"cebpf4jnsgd1na2vs0mg"},{"bike_id":"9aec225d-a400-4174-9206-a94af0438f62","system_id":"levelo_inurba_marseille","lat":43.29553,"lon":5.42277,"is_reserved":false,"is_disabled":false,"rental_uris":{"android":"levelo://app?vid=9aec225d-a400-4174-9206-a94af0438f62","ios":"levelo://app?vid=9aec225d-a400-4174-9206-a94af0438f62"},"vehicle_type_id":"4","last_reported":1736352688,"current_range_meters":10800,"station_id":"ce4bhph2rcd13ifvqhdg","pricing_plan_id":"cebpf4jnsgd1na2vs0mg"},{"bike_id":"e18cef36-1b1a-47e9-8095-d7483e62dbc2","system_id":"levelo_inurba_marseille","lat":43.29569,"lon":5.39977,"is_reserved":false,"is_disabled":false,"rental_uris":{"android":"levelo://app?vid=e18cef36-1b1a-47e9-8095-d7483e62dbc2","ios":"levelo://app?vid=e18cef36-1b1a-47e9-8095-d7483e62dbc2"},"vehicle_type_id":"4","last_reported":1736352688,"current_range_meters":7200,"station_id":"ce4bh312rcd13ifvqdj0","pricing_plan_id":"cebpf4jnsgd1na2vs0mg"},{"bike_id":"539cfc70-6517-404c-927e-027a24ed8205","system_id":"levelo_inurba_marseille","lat":43.28936,"lon":5.36635,"is_reserved":false,"is_disabled":false,"rental_uris":{"android":"levelo://app?vid=539cfc70-6517-404c-927e-027a24ed8205","ios":"levelo://app?vid=539cfc70-6517-404c-927e-027a24ed8205"},"vehicle_type_id":"4","last_reported":1736352688,"current_range_meters":38800,"station_id":"ce4bhap2rcd13ifvqek0","pricing_plan_id":"cebpf4jnsgd1na2vs0mg"},{"bike_id":"b6ca5cdc-d5b4-46c8-b52f-7964fa270343","system_id":"levelo_inurba_marseille","lat":43.26689,"lon":5.38269,"is_reserved":false,"is_disabled":false,"rental_uris":{"android":"levelo://app?vid=b6ca5cdc-d5b4-46c8-b52f-7964fa270343","ios":"levelo://app?vid=b6ca5cdc-d5b4-46c8-b52f-7964fa270343"},"vehicle_type_id":"4","last_reported":1736352688,"current_range_meters":27600,"station_id":"ce4bhg92rcd13ifvqf90","pricing_plan_id":"cebpf4jnsgd1na2vs0mg"},{"bike_id":"36479580-68f4-4928-91cd-3fabbbb2b0c5","system_id":"levelo_inurba_marseille","lat":43.30429,"lon":5.38891,"is_reserved":false,"is_disabled":false,"rental_uris":{"android":"levelo://app?vid=36479580-68f4-4928-91cd-3fabbbb2b0c5","ios":"levelo://app?vid=36479580-68f4-4928-91cd-3fabbbb2b0c5"},"vehicle_type_id":"4","last_reported":1736352688,"current_range_meters":20000,"station_id":"ce4bgk12rcd13ifvqbi0","pricing_plan_id":"cebpf4jnsgd1na2vs0mg"},{"bike_id":"0bb18fce-6faa-40ab-8066-a4cf72d623a7","system_id":"levelo_inurba_marseille","lat":43.28706,"lon":5.37391,"is_reserved":false,"is_disabled":false,"rental_uris":{"android":"levelo://app?vid=0bb18fce-6faa-40ab-8066-a4cf72d623a7","ios":"levelo://app?vid=0bb18fce-6faa-40ab-8066-a4cf72d623a7"},"vehicle_type_id":"4","last_reported":1736352688,"current_range_meters":32000,"station_id":"ce4bh3p2rcd13ifvqdq0","pricing_plan_id":"cebpf4jnsgd1na2vs0mg"},{"bike_id":"c8b08eb9-0be1-4342-ae9f-cef28ab80002","system_id":"levelo_inurba_marseille","lat":43.31077,"lon":5.38356,"is_reserved":false,"is_disabled":false,"rental_uris":{"android":"levelo://app?vid=c8b08eb9-0be1-4342-ae9f-cef28ab80002","ios":"levelo://app?vid=c8b08eb9-0be1-4342-ae9f-cef28ab80002"},"vehicle_type_id":"4","last_reported":1736352688,"current_range_meters":30400,"station_id":"ce4bgv92rcd13ifvqcr0","pricing_plan_id":"cebpf4jnsgd1na2vs0mg"},{"bike_id":"83e7e804-2b99-4e06-93a6-e481d372b06c","system_id":"levelo_inurba_marseille","lat":43.27819,"lon":5.40724,"is_reserved":false,"is_disabled":false,"rental_uris":{"android":"levelo://app?vid=83e7e804-2b99-4e06-93a6-e481d372b06c","ios":"levelo://app?vid=83e7e804-2b99-4e06-93a6-e481d372b06c"},"vehicle_type_id":"4","last_reported":1736352688,"current_range_meters":23200,"station_id":"ce4bhnh2rcd13ifvqgtg","pricing_plan_id":"cebpf4jnsgd1na2vs0mg"},{"bike_id":"f5ca1501-67dc-4227-a538-3638c9573471","system_id":"levelo_inurba_marseille","lat":43.25722,"lon":5.41103,"is_reserved":false,"is_disabled":false,"rental_uris":{"android":"levelo://app?vid=f5ca1501-67dc-4227-a538-3638c9573471","ios":"levelo://app?vid=f5ca1501-67dc-4227-a538-3638c9573471"},"vehicle_type_id":"4","last_reported":1736352688,"current_range_meters":38800,"station_id":"ce4bhkp2rcd13ifvqgd0","pricing_plan_id":"cebpf4jnsgd1na2vs0mg"},{"bike_id":"bd93e039-8312-422d-b562-d45f6831b1fa","system_id":"levelo_inurba_marseille","lat":43.26553,"lon":5.37279,"is_reserved":false,"is_disabled":false,"rental_uris":{"android":"levelo://app?vid=bd93e039-8312-422d-b562-d45f6831b1fa","ios":"levelo://app?vid=bd93e039-8312-422d-b562-d45f6831b1fa"},"vehicle_type_id":"4","last_reported":1736352688,"current_range_meters":26800,"station_id":"ce4bhg12rcd13ifvqf70","pricing_plan_id":"cebpf4jnsgd1na2vs0mg"},{"bike_id":"968fa33e-9f62-4eb8-838d-2d72e317c1f9","system_id":"levelo_inurba_marseille","lat":43.28854,"lon":5.35855,"is_reserved":false,"is_disabled":false,"rental_uris":{"android":"levelo://app?vid=968fa33e-9f62-4eb8-838d-2d72e317c1f9","ios":"levelo://app?vid=968fa33e-9f62-4eb8-838d-2d72e317c1f9"},"vehicle_type_id":"4","last_reported":1736352688,"current_range_meters":38800,"station_id":"ce4bhb12rcd13ifvqem0","pricing_plan_id":"cebpf4jnsgd1na2vs0mg"},{"bike_id":"e0c5bcca-f38c-4415-8d3c-64dad8e411d9","system_id":"levelo_inurba_marseille","lat":43.27378,"lon":5.36263,"is_reserved":false,"is_disabled":false,"rental_uris":{"android":"levelo://app?vid=e0c5bcca-f38c-4415-8d3c-64dad8e411d9","ios":"levelo://app?vid=e0c5bcca-f38c-4415-8d3c-64dad8e411d9"},"vehicle_type_id":"4","last_reported":1736352688,"current_range_meters":38800,"station_id":"ce4bhbh2rcd13ifvqeo0","pricing_plan_id":"cebpf4jnsgd1na2vs0mg"},{"bike_id":"128e494f-c5f6-49d1-8da7-12ffc5ea9838","system_id":"levelo_inurba_marseille","lat":43.24168,"lon":5.36394,"is_reserved":false,"is_disabled":false,"rental_uris":{"android":"levelo://app?vid=128e494f-c5f6-49d1-8da7-12ffc5ea9838","ios":"levelo://app?vid=128e494f-c5f6-49d1-8da7-12ffc5ea9838"},"vehicle_type_id":"4","last_reported":1736352688,"current_range_meters":16800,"station_id":"cpo36qri1sfpv3e86is0","pricing_plan_id":"cebpf4jnsgd1na2vs0mg"},{"bike_id":"523990ad-0d95-4b74-83eb-93c5a1fd9b65","system_id":"levelo_inurba_marseille","lat":43.2987,"lon":5.39729,"is_reserved":false,"is_disabled":false,"rental_uris":{"android":"levelo://app?vid=523990ad-0d95-4b74-83eb-93c5a1fd9b65","ios":"levelo://app?vid=523990ad-0d95-4b74-83eb-93c5a1fd9b65"},"vehicle_type_id":"4","last_reported":1736352688,"current_range_meters":28800,"station_id":"ce4bh0h2rcd13ifvqd50","pricing_plan_id":"cebpf4jnsgd1na2vs0mg"},{"bike_id":"87cd4c8e-dd31-49cb-a754-0e97614559ef","system_id":"levelo_inurba_marseille","lat":43.29376,"lon":5.37848,"is_reserved":false,"is_disabled":false,"rental_uris":{"android":"levelo://app?vid=87cd4c8e-dd31-49cb-a754-0e97614559ef","ios":"levelo://app?vid=87cd4c8e-dd31-49cb-a754-0e97614559ef"},"vehicle_type_id":"4","last_reported":1736352688,"current_range_meters":30800,"station_id":"ce4bgjh2rcd13ifvqbf0","pricing_plan_id":"cebpf4jnsgd1na2vs0mg"},{"bike_id":"afd4d053-5b2c-4b95-974c-108689eb1cdd","system_id":"levelo_inurba_marseille","lat":43.27193,"lon":5.40992,"is_reserved":false,"is_disabled":false,"rental_uris":{"android":"levelo://app?vid=afd4d053-5b2c-4b95-974c-108689eb1cdd","ios":"levelo://app?vid=afd4d053-5b2c-4b95-974c-108689eb1cdd"},"vehicle_type_id":"4","last_reported":1736352688,"current_range_meters":38000,"station_id":"ce4bhl12rcd13ifvqgf0","pricing_plan_id":"cebpf4jnsgd1na2vs0mg"},{"bike_id":"ef864054-fc20-4487-92c3-167f2c96fb92","system_id":"levelo_inurba_marseille","lat":43.31479,"lon":5.37304,"is_reserved":false,"is_disabled":false,"rental_uris":{"android":"levelo://app?vid=ef864054-fc20-4487-92c3-167f2c96fb92","ios":"levelo://app?vid=ef864054-fc20-4487-92c3-167f2c96fb92"},"vehicle_type_id":"4","last_reported":1736352688,"current_range_meters":29600,"station_id":"ce4bgt12rcd13ifvqcd0","pricing_plan_id":"cebpf4jnsgd1na2vs0mg"},{"bike_id":"607f36c7-3f25-43a0-aea5-52069d6de697","system_id":"levelo_inurba_marseille","lat":43.28701,"lon":5.37389,"is_reserved":false,"is_disabled":false,"rental_uris":{"android":"levelo://app?vid=607f36c7-3f25-43a0-aea5-52069d6de697","ios":"levelo://app?vid=607f36c7-3f25-43a0-aea5-52069d6de697"},"vehicle_type_id":"4","last_reported":1736352688,"current_range_meters":28400,"station_id":"ce4bh3p2rcd13ifvqdq0","pricing_plan_id":"cebpf4jnsgd1na2vs0mg"},{"bike_id":"1cafc361-0291-43e2-b429-7dcbabfda053","system_id":"levelo_inurba_marseille","lat":43.29302,"lon":5.37459,"is_reserved":false,"is_disabled":false,"rental_uris":{"android":"levelo://app?vid=1cafc361-0291-43e2-b429-7dcbabfda053","ios":"levelo://app?vid=1cafc361-0291-43e2-b429-7dcbabfda053"},"vehicle_type_id":"4","last_reported":1736352688,"current_range_meters":12400,"station_id":"ce4bgi12rcd13ifvqb70","pricing_plan_id":"cebpf4jnsgd1na2vs0mg"},{"bike_id":"667893b9-e86d-490f-a72b-001a8a93a915","system_id":"levelo_inurba_marseille","lat":43.30599,"lon":5.37214,"is_reserved":false,"is_disabled":false,"rental_uris":{"android":"levelo://app?vid=667893b9-e86d-490f-a72b-001a8a93a915","ios":"levelo://app?vid=667893b9-e86d-490f-a72b-001a8a93a915"},"vehicle_type_id":"4","last_reported":1736352688,"current_range_meters":35200,"station_id":"ce4bgqh2rcd13ifvqc4g","pricing_plan_id":"cebpf4jnsgd1na2vs0mg"},{"bike_id":"7e647b87-ee39-48c8-8a57-8ca415c7293d","system_id":"levelo_inurba_marseille","lat":43.23064,"lon":5.35489,"is_reserved":false,"is_disabled":false,"rental_uris":{"android":"levelo://app?vid=7e647b87-ee39-48c8-8a57-8ca415c7293d","ios":"levelo://app?vid=7e647b87-ee39-48c8-8a57-8ca415c7293d"},"vehicle_type_id":"4","last_reported":1736352688,"current_range_meters":36800,"station_id":"cpo3342slgdg3j2ifvpg","pricing_plan_id":"cebpf4jnsgd1na2vs0mg"},{"bike_id":"0b2ae5f0-35aa-4038-afed-c6f5edc043e0","system_id":"levelo_inurba_marseille","lat":43.27373,"lon":5.36248,"is_reserved":false,"is_disabled":false,"rental_uris":{"android":"levelo://app?vid=0b2ae5f0-35aa-4038-afed-c6f5edc043e0","ios":"levelo://app?vid=0b2ae5f0-35aa-4038-afed-c6f5edc043e0"},"vehicle_type_id":"4","last_reported":1736352688,"current_range_meters":36400,"station_id":"ce4bhbh2rcd13ifvqeo0","pricing_plan_id":"cebpf4jnsgd1na2vs0mg"},{"bike_id":"ec871138-61ad-41e1-acd3-7372904dde2d","system_id":"levelo_inurba_marseille","lat":43.24551,"lon":5.39528,"is_reserved":false,"is_disabled":false,"rental_uris":{"android":"levelo://app?vid=ec871138-61ad-41e1-acd3-7372904dde2d","ios":"levelo://app?vid=ec871138-61ad-41e1-acd3-7372904dde2d"},"vehicle_type_id":"4","last_reported":1736352688,"current_range_meters":38800,"station_id":"ce4bhlp2rcd13ifvqgjg","pricing_plan_id":"cebpf4jnsgd1na2vs0mg"},{"bike_id":"102cb488-e37e-4a25-ae00-7f174450be41","system_id":"levelo_inurba_marseille","lat":43.275617,"lon":5.384248,"is_reserved":false,"is_disabled":true,"rental_uris":{"android":"levelo://app?vid=102cb488-e37e-4a25-ae00-7f174450be41","ios":"levelo://app?vid=102cb488-e37e-4a25-ae00-7f174450be41"},"vehicle_type_id":"4","last_reported":1736352688,"current_range_meters":1200,"station_id":"ce4bhh92rcd13ifvqfi0","pricing_plan_id":"cebpf4jnsgd1na2vs0mg"},{"bike_id":"295b1cd6-ba86-4be2-a2a5-dfa1adb3f42f","system_id":"levelo_inurba_marseille","lat":43.31078,"lon":5.40098,"is_reserved":false,"is_disabled":false,"rental_uris":{"android":"levelo://app?vid=295b1cd6-ba86-4be2-a2a5-dfa1adb3f42f","ios":"levelo://app?vid=295b1cd6-ba86-4be2-a2a5-dfa1adb3f42f"},"vehicle_type_id":"4","last_reported":1736352688,"current_range_meters":18000,"station_id":"","pricing_plan_id":"cebpf4jnsgd1na2vs0mg"},{"bike_id":"eb0656b7-67de-4260-b67c-b9031deeaa0d","system_id":"levelo_inurba_marseille","lat":43.29054,"lon":5.35921,"is_reserved":false,"is_disabled":false,"rental_uris":{"android":"levelo://app?vid=eb0656b7-67de-4260-b67c-b9031deeaa0d","ios":"levelo://app?vid=eb0656b7-67de-4260-b67c-b9031deeaa0d"},"vehicle_type_id":"4","last_reported":1736352688,"current_range_meters":11600,"station_id":"ce4bha92rcd13ifvqeg0","pricing_plan_id":"cebpf4jnsgd1na2vs0mg"},{"bike_id":"c00adc61-52cb-4003-80be-896057156f78","system_id":"levelo_inurba_marseille","lat":43.25575,"lon":5.38233,"is_reserved":false,"is_disabled":false,"rental_uris":{"android":"levelo://app?vid=c00adc61-52cb-4003-80be-896057156f78","ios":"levelo://app?vid=c00adc61-52cb-4003-80be-896057156f78"},"vehicle_type_id":"4","last_reported":1736352688,"current_range_meters":33200,"station_id":"ce4bhih2rcd13ifvqfs0","pricing_plan_id":"cebpf4jnsgd1na2vs0mg"},{"bike_id":"c9587219-053c-4f1f-ae0c-baf71d7b0465","system_id":"levelo_inurba_marseille","lat":43.27813,"lon":5.40705,"is_reserved":false,"is_disabled":false,"rental_uris":{"android":"levelo://app?vid=c9587219-053c-4f1f-ae0c-baf71d7b0465","ios":"levelo://app?vid=c9587219-053c-4f1f-ae0c-baf71d7b0465"},"vehicle_type_id":"4","last_reported":1736352688,"current_range_meters":28000,"station_id":"ce4bhnh2rcd13ifvqgtg","pricing_plan_id":"cebpf4jnsgd1na2vs0mg"},{"bike_id":"4db3f818-4750-4b0f-bfb7-7f7f491458d7","system_id":"levelo_inurba_marseille","lat":43.28845,"lon":5.35846,"is_reserved":false,"is_disabled":false,"rental_uris":{"android":"levelo://app?vid=4db3f818-4750-4b0f-bfb7-7f7f491458d7","ios":"levelo://app?vid=4db3f818-4750-4b0f-bfb7-7f7f491458d7"},"vehicle_type_id":"4","last_reported":1736352688,"current_range_meters":38800,"station_id":"ce4bhb12rcd13ifvqem0","pricing_plan_id":"cebpf4jnsgd1na2vs0mg"},{"bike_id":"11d07089-c5fa-485c-a301-bf7c13747aef","system_id":"levelo_inurba_marseille","lat":43.28602,"lon":5.37073,"is_reserved":false,"is_disabled":false,"rental_uris":{"android":"levelo://app?vid=11d07089-c5fa-485c-a301-bf7c13747aef","ios":"levelo://app?vid=11d07089-c5fa-485c-a301-bf7c13747aef"},"vehicle_type_id":"4","last_reported":1736352688,"current_range_meters":32400,"station_id":"ce4bht12rcd13ifvqi60","pricing_plan_id":"cebpf4jnsgd1na2vs0mg"},{"bike_id":"e39f6b1f-389e-44fc-b750-d548ad83bcc0","system_id":"levelo_inurba_marseille","lat":43.26808,"lon":5.40267,"is_reserved":false,"is_disabled":false,"rental_uris":{"android":"levelo://app?vid=e39f6b1f-389e-44fc-b750-d548ad83bcc0","ios":"levelo://app?vid=e39f6b1f-389e-44fc-b750-d548ad83bcc0"},"vehicle_type_id":"4","last_reported":1736352688,"current_range_meters":36400,"station_id":"ce501612rcd8frsf0b60","pricing_plan_id":"cebpf4jnsgd1na2vs0mg"},{"bike_id":"80716bfe-ce4c-458a-a817-cd7a4ffc01a2","system_id":"levelo_inurba_marseille","lat":43.3172,"lon":5.37767,"is_reserved":false,"is_disabled":false,"rental_uris":{"android":"levelo://app?vid=80716bfe-ce4c-458a-a817-cd7a4ffc01a2","ios":"levelo://app?vid=80716bfe-ce4c-458a-a817-cd7a4ffc01a2"},"vehicle_type_id":"4","last_reported":1736352688,"current_range_meters":30400,"station_id":"ce4bgth2rcd13ifvqch0","pricing_plan_id":"cebpf4jnsgd1na2vs0mg"},{"bike_id":"999a84c4-5a48-4fab-8075-54499b7975c4","system_id":"levelo_inurba_marseille","lat":43.29261,"lon":5.3686,"is_reserved":false,"is_disabled":false,"rental_uris":{"android":"levelo://app?vid=999a84c4-5a48-4fab-8075-54499b7975c4","ios":"levelo://app?vid=999a84c4-5a48-4fab-8075-54499b7975c4"},"vehicle_type_id":"4","last_reported":1736352688,"current_range_meters":24400,"station_id":"ce4bhbp2rcd13ifvqesg","pricing_plan_id":"cebpf4jnsgd1na2vs0mg"},{"bike_id":"b61919d1-3ab2-4f12-905a-a929d645cb78","system_id":"levelo_inurba_marseille","lat":43.24673,"lon":5.38164,"is_reserved":false,"is_disabled":false,"rental_uris":{"android":"levelo://app?vid=b61919d1-3ab2-4f12-905a-a929d645cb78","ios":"levelo://app?vid=b61919d1-3ab2-4f12-905a-a929d645cb78"},"vehicle_type_id":"4","last_reported":1736352688,"current_range_meters":12400,"station_id":"ce4bhih2rcd13ifvqfr0","pricing_plan_id":"cebpf4jnsgd1na2vs0mg"},{"bike_id":"39faa2fe-395f-49c9-9056-e37436793a85","system_id":"levelo_inurba_marseille","lat":43.30325,"lon":5.40441,"is_reserved":false,"is_disabled":true,"rental_uris":{"android":"levelo://app?vid=39faa2fe-395f-49c9-9056-e37436793a85","ios":"levelo://app?vid=39faa2fe-395f-49c9-9056-e37436793a85"},"vehicle_type_id":"4","last_reported":1736352688,"current_range_meters":32000,"station_id":"ce4bh012rcd13ifvqd10","pricing_plan_id":"cebpf4jnsgd1na2vs0mg"},{"bike_id":"995c0590-781a-4b91-89cd-c0aeaeb619c1","system_id":"levelo_inurba_marseille","lat":43.285767,"lon":5.370912,"is_reserved":false,"is_disabled":true,"rental_uris":{"android":"levelo://app?vid=995c0590-781a-4b91-89cd-c0aeaeb619c1","ios":"levelo://app?vid=995c0590-781a-4b91-89cd-c0aeaeb619c1"},"vehicle_type_id":"4","last_reported":1736352688,"current_range_meters":1600,"station_id":"ce4bht12rcd13ifvqi60","pricing_plan_id":"cebpf4jnsgd1na2vs0mg"},{"bike_id":"4057a6a5-62d0-4a8f-bb97-2a269af90373","system_id":"levelo_inurba_marseille","lat":43.25718,"lon":5.41108,"is_reserved":false,"is_disabled":true,"rental_uris":{"android":"levelo://app?vid=4057a6a5-62d0-4a8f-bb97-2a269af90373","ios":"levelo://app?vid=4057a6a5-62d0-4a8f-bb97-2a269af90373"},"vehicle_type_id":"4","last_reported":1736352688,"current_range_meters":0,"station_id":"ce4bhkp2rcd13ifvqgd0","pricing_plan_id":"cebpf4jnsgd1na2vs0mg"},{"bike_id":"4ec56ec3-cf8f-4886-b076-cc5d3cbb7081","system_id":"levelo_inurba_marseille","lat":43.30429,"lon":5.38889,"is_reserved":false,"is_disabled":false,"rental_uris":{"android":"levelo://app?vid=4ec56ec3-cf8f-4886-b076-cc5d3cbb7081","ios":"levelo://app?vid=4ec56ec3-cf8f-4886-b076-cc5d3cbb7081"},"vehicle_type_id":"4","last_reported":1736352688,"current_range_meters":17600,"station_id":"ce4bgk12rcd13ifvqbi0","pricing_plan_id":"cebpf4jnsgd1na2vs0mg"},{"bike_id":"eb3ee3c6-993f-4792-b10f-591ea0967275","system_id":"levelo_inurba_marseille","lat":43.29623,"lon":5.3716,"is_reserved":false,"is_disabled":false,"rental_uris":{"android":"levelo://app?vid=eb3ee3c6-993f-4792-b10f-591ea0967275","ios":"levelo://app?vid=eb3ee3c6-993f-4792-b10f-591ea0967275"},"vehicle_type_id":"4","last_reported":1736352688,"current_range_meters":28800,"station_id":"","pricing_plan_id":"cebpf4jnsgd1na2vs0mg"},{"bike_id":"b69e39e4-e108-465d-bddd-4ffc1dea8f10","system_id":"levelo_inurba_marseille","lat":43.25721,"lon":5.41113,"is_reserved":false,"is_disabled":false,"rental_uris":{"android":"levelo://app?vid=b69e39e4-e108-465d-bddd-4ffc1dea8f10","ios":"levelo://app?vid=b69e39e4-e108-465d-bddd-4ffc1dea8f10"},"vehicle_type_id":"4","last_reported":1736352688,"current_range_meters":38800,"station_id":"ce4bhkp2rcd13ifvqgd0","pricing_plan_id":"cebpf4jnsgd1na2vs0mg"},{"bike_id":"f2536309-8d2b-4ccd-86e1-4c168080c77c","system_id":"levelo_inurba_marseille","lat":43.23209,"lon":5.35536,"is_reserved":false,"is_disabled":false,"rental_uris":{"android":"levelo://app?vid=f2536309-8d2b-4ccd-86e1-4c168080c77c","ios":"levelo://app?vid=f2536309-8d2b-4ccd-86e1-4c168080c77c"},"vehicle_type_id":"4","last_reported":1736352688,"current_range_meters":10000,"station_id":"ce4bhu92rcd13ifvqi70","pricing_plan_id":"cebpf4jnsgd1na2vs0mg"},{"bike_id":"2dc0cd94-2acb-4f56-93e5-409e69127dfc","system_id":"levelo_inurba_marseille","lat":43.29307,"lon":5.37467,"is_reserved":false,"is_disabled":false,"rental_uris":{"android":"levelo://app?vid=2dc0cd94-2acb-4f56-93e5-409e69127dfc","ios":"levelo://app?vid=2dc0cd94-2acb-4f56-93e5-409e69127dfc"},"vehicle_type_id":"4","last_reported":1736352688,"current_range_meters":8000,"station_id":"ce4bgi12rcd13ifvqb70","pricing_plan_id":"cebpf4jnsgd1na2vs0mg"},{"bike_id":"e0c957b0-0ab9-462e-86f3-9ef42f07a577","system_id":"levelo_inurba_marseille","lat":43.28683,"lon":5.3867,"is_reserved":false,"is_disabled":false,"rental_uris":{"android":"levelo://app?vid=e0c957b0-0ab9-462e-86f3-9ef42f07a577","ios":"levelo://app?vid=e0c957b0-0ab9-462e-86f3-9ef42f07a577"},"vehicle_type_id":"4","last_reported":1736352688,"current_range_meters":37600,"station_id":"ce4bh492rcd13ifvqdug","pricing_plan_id":"cebpf4jnsgd1na2vs0mg"},{"bike_id":"b8b738cb-ef0c-4357-b3a7-9b64021e64ef","system_id":"levelo_inurba_marseille","lat":43.33024,"lon":5.39038,"is_reserved":false,"is_disabled":false,"rental_uris":{"android":"levelo://app?vid=b8b738cb-ef0c-4357-b3a7-9b64021e64ef","ios":"levelo://app?vid=b8b738cb-ef0c-4357-b3a7-9b64021e64ef"},"vehicle_type_id":"4","last_reported":1736352688,"current_range_meters":37600,"station_id":"ce4bhr92rcd13ifvqhrg","pricing_plan_id":"cebpf4jnsgd1na2vs0mg"},{"bike_id":"c855f78b-1225-43ed-85ea-3b0e72157c58","system_id":"levelo_inurba_marseille","lat":43.30769,"lon":5.376,"is_reserved":false,"is_disabled":false,"rental_uris":{"android":"levelo://app?vid=c855f78b-1225-43ed-85ea-3b0e72157c58","ios":"levelo://app?vid=c855f78b-1225-43ed-85ea-3b0e72157c58"},"vehicle_type_id":"4","last_reported":1736352688,"current_range_meters":38800,"station_id":"ce4bgv92rcd13ifvqcq0","pricing_plan_id":"cebpf4jnsgd1na2vs0mg"},{"bike_id":"cd403c2e-0711-42e0-849c-eda3784427c2","system_id":"levelo_inurba_marseille","lat":43.29034,"lon":5.38119,"is_reserved":false,"is_disabled":false,"rental_uris":{"android":"levelo://app?vid=cd403c2e-0711-42e0-849c-eda3784427c2","ios":"levelo://app?vid=cd403c2e-0711-42e0-849c-eda3784427c2"},"vehicle_type_id":"4","last_reported":1736352688,"current_range_meters":38800,"station_id":"ce4bh4p2rcd13ifvqe1g","pricing_plan_id":"cebpf4jnsgd1na2vs0mg"},{"bike_id":"afd79043-9917-4c6b-b7f5-b849068786e6","system_id":"levelo_inurba_marseille","lat":43.27313,"lon":5.39091,"is_reserved":false,"is_disabled":false,"rental_uris":{"android":"levelo://app?vid=afd79043-9917-4c6b-b7f5-b849068786e6","ios":"levelo://app?vid=afd79043-9917-4c6b-b7f5-b849068786e6"},"vehicle_type_id":"4","last_reported":1736352688,"current_range_meters":38800,"station_id":"ce4bhgp2rcd13ifvqfe0","pricing_plan_id":"cebpf4jnsgd1na2vs0mg"},{"bike_id":"7dc9f4e4-e98a-4b71-a686-89dfaf0faabe","system_id":"levelo_inurba_marseille","lat":43.26207,"lon":5.37444,"is_reserved":false,"is_disabled":false,"rental_uris":{"android":"levelo://app?vid=7dc9f4e4-e98a-4b71-a686-89dfaf0faabe","ios":"levelo://app?vid=7dc9f4e4-e98a-4b71-a686-89dfaf0faabe"},"vehicle_type_id":"4","last_reported":1736352688,"current_range_meters":34800,"station_id":"ce4bhgp2rcd13ifvqfc0","pricing_plan_id":"cebpf4jnsgd1na2vs0mg"},{"bike_id":"a023b9e2-2413-4b3d-a218-b9727e7097b5","system_id":"levelo_inurba_marseille","lat":43.292991,"lon":5.374633,"is_reserved":false,"is_disabled":true,"rental_uris":{"android":"levelo://app?vid=a023b9e2-2413-4b3d-a218-b9727e7097b5","ios":"levelo://app?vid=a023b9e2-2413-4b3d-a218-b9727e7097b5"},"vehicle_type_id":"4","last_reported":1736352688,"current_range_meters":33600,"station_id":"ce4bgi12rcd13ifvqb70","pricing_plan_id":"cebpf4jnsgd1na2vs0mg"},{"bike_id":"412c961b-9eee-480e-9da4-be4fd2e54380","system_id":"levelo_inurba_marseille","lat":43.29551,"lon":5.42285,"is_reserved":false,"is_disabled":false,"rental_uris":{"android":"levelo://app?vid=412c961b-9eee-480e-9da4-be4fd2e54380","ios":"levelo://app?vid=412c961b-9eee-480e-9da4-be4fd2e54380"},"vehicle_type_id":"4","last_reported":1736352688,"current_range_meters":38800,"station_id":"ce4bhph2rcd13ifvqhdg","pricing_plan_id":"cebpf4jnsgd1na2vs0mg"},{"bike_id":"0738368e-bb66-45af-a35b-10f02dbbeef6","system_id":"levelo_inurba_marseille","lat":43.27818,"lon":5.40697,"is_reserved":false,"is_disabled":false,"rental_uris":{"android":"levelo://app?vid=0738368e-bb66-45af-a35b-10f02dbbeef6","ios":"levelo://app?vid=0738368e-bb66-45af-a35b-10f02dbbeef6"},"vehicle_type_id":"4","last_reported":1736352688,"current_range_meters":30000,"station_id":"ce4bhnh2rcd13ifvqgtg","pricing_plan_id":"cebpf4jnsgd1na2vs0mg"},{"bike_id":"4795cc5a-7058-456b-bbbb-cdaf0bc9586c","system_id":"levelo_inurba_marseille","lat":43.29978,"lon":5.38483,"is_reserved":false,"is_disabled":true,"rental_uris":{"android":"levelo://app?vid=4795cc5a-7058-456b-bbbb-cdaf0bc9586c","ios":"levelo://app?vid=4795cc5a-7058-456b-bbbb-cdaf0bc9586c"},"vehicle_type_id":"4","last_reported":1736352688,"current_range_meters":38400,"station_id":"ce4bgj92rcd13ifvqbd0","pricing_plan_id":"cebpf4jnsgd1na2vs0mg"},{"bike_id":"2ba1cc1b-fbaf-43c5-ac84-985ae2363c15","system_id":"levelo_inurba_marseille","lat":43.31712,"lon":5.43704,"is_reserved":false,"is_disabled":false,"rental_uris":{"android":"levelo://app?vid=2ba1cc1b-fbaf-43c5-ac84-985ae2363c15","ios":"levelo://app?vid=2ba1cc1b-fbaf-43c5-ac84-985ae2363c15"},"vehicle_type_id":"4","last_reported":1736352688,"current_range_meters":14400,"station_id":"ce4bhp92rcd13ifvqhcg","pricing_plan_id":"cebpf4jnsgd1na2vs0mg"},{"bike_id":"d02f1fa8-cecb-45dd-b6b1-cdf3151e1f9b","system_id":"levelo_inurba_marseille","lat":43.28425,"lon":5.34985,"is_reserved":false,"is_disabled":false,"rental_uris":{"android":"levelo://app?vid=d02f1fa8-cecb-45dd-b6b1-cdf3151e1f9b","ios":"levelo://app?vid=d02f1fa8-cecb-45dd-b6b1-cdf3151e1f9b"},"vehicle_type_id":"4","last_reported":1736352688,"current_range_meters":28400,"station_id":"ce4bhbh2rcd13ifvqepg","pricing_plan_id":"cebpf4jnsgd1na2vs0mg"},{"bike_id":"2825a119-5b5a-4630-b83a-5a86bf58ccad","system_id":"levelo_inurba_marseille","lat":43.31267,"lon":5.37362,"is_reserved":false,"is_disabled":false,"rental_uris":{"android":"levelo://app?vid=2825a119-5b5a-4630-b83a-5a86bf58ccad","ios":"levelo://app?vid=2825a119-5b5a-4630-b83a-5a86bf58ccad"},"vehicle_type_id":"4","last_reported":1736352688,"current_range_meters":9200,"station_id":"","pricing_plan_id":"cebpf4jnsgd1na2vs0mg"},{"bike_id":"ba8ba352-d516-4458-9df7-d48624981837","system_id":"levelo_inurba_marseille","lat":43.30468,"lon":5.37897,"is_reserved":false,"is_disabled":false,"rental_uris":{"android":"levelo://app?vid=ba8ba352-d516-4458-9df7-d48624981837","ios":"levelo://app?vid=ba8ba352-d516-4458-9df7-d48624981837"},"vehicle_type_id":"4","last_reported":1736352688,"current_range_meters":37600,"station_id":"ce4bgup2rcd13ifvqcn0","pricing_plan_id":"cebpf4jnsgd1na2vs0mg"},{"bike_id":"b90023b0-7488-401d-b7e9-7d42852f2c28","system_id":"levelo_inurba_marseille","lat":43.26497,"lon":5.39558,"is_reserved":false,"is_disabled":false,"rental_uris":{"android":"levelo://app?vid=b90023b0-7488-401d-b7e9-7d42852f2c28","ios":"levelo://app?vid=b90023b0-7488-401d-b7e9-7d42852f2c28"},"vehicle_type_id":"4","last_reported":1736352688,"current_range_meters":8000,"station_id":"ce4bhi12rcd13ifvqfq0","pricing_plan_id":"cebpf4jnsgd1na2vs0mg"},{"bike_id":"b874864c-32f1-4fca-a1a5-3447e4d282b7","system_id":"levelo_inurba_marseille","lat":43.29161,"lon":5.37168,"is_reserved":false,"is_disabled":false,"rental_uris":{"android":"levelo://app?vid=b874864c-32f1-4fca-a1a5-3447e4d282b7","ios":"levelo://app?vid=b874864c-32f1-4fca-a1a5-3447e4d282b7"},"vehicle_type_id":"4","last_reported":1736352688,"current_range_meters":37600,"station_id":"ce4bha92rcd13ifvqeh0","pricing_plan_id":"cebpf4jnsgd1na2vs0mg"},{"bike_id":"1662ecf0-7b04-48fa-892f-303d9d467c3d","system_id":"levelo_inurba_marseille","lat":43.29581,"lon":5.36741,"is_reserved":false,"is_disabled":false,"rental_uris":{"android":"levelo://app?vid=1662ecf0-7b04-48fa-892f-303d9d467c3d","ios":"levelo://app?vid=1662ecf0-7b04-48fa-892f-303d9d467c3d"},"vehicle_type_id":"4","last_reported":1736352688,"current_range_meters":10000,"station_id":"ce4bgph2rcd13ifvqc2g","pricing_plan_id":"cebpf4jnsgd1na2vs0mg"},{"bike_id":"84e666da-67af-4688-95c7-a611aeedd4ee","system_id":"levelo_inurba_marseille","lat":43.31665,"lon":5.40681,"is_reserved":false,"is_disabled":false,"rental_uris":{"android":"levelo://app?vid=84e666da-67af-4688-95c7-a611aeedd4ee","ios":"levelo://app?vid=84e666da-67af-4688-95c7-a611aeedd4ee"},"vehicle_type_id":"4","last_reported":1736352688,"current_range_meters":33200,"station_id":"","pricing_plan_id":"cebpf4jnsgd1na2vs0mg"},{"bike_id":"7bf67b61-16da-435e-97f2-608f7f7d82f7","system_id":"levelo_inurba_marseille","lat":43.2984,"lon":5.3626,"is_reserved":false,"is_disabled":false,"rental_uris":{"android":"levelo://app?vid=7bf67b61-16da-435e-97f2-608f7f7d82f7","ios":"levelo://app?vid=7bf67b61-16da-435e-97f2-608f7f7d82f7"},"vehicle_type_id":"4","last_reported":1736352688,"current_range_meters":38800,"station_id":"ce4bgpp2rcd13ifvqc3g","pricing_plan_id":"cebpf4jnsgd1na2vs0mg"},{"bike_id":"fb82947e-c4a1-4fe2-99e9-cd358b3581a4","system_id":"levelo_inurba_marseille","lat":43.28982,"lon":5.37844,"is_reserved":false,"is_disabled":false,"rental_uris":{"android":"levelo://app?vid=fb82947e-c4a1-4fe2-99e9-cd358b3581a4","ios":"levelo://app?vid=fb82947e-c4a1-4fe2-99e9-cd358b3581a4"},"vehicle_type_id":"4","last_reported":1736352688,"current_range_meters":29600,"station_id":"ce4bh9p2rcd13ifvqed0","pricing_plan_id":"cebpf4jnsgd1na2vs0mg"},{"bike_id":"f5b2de69-ea07-4b33-a436-49a7f21ea0f9","system_id":"levelo_inurba_marseille","lat":43.29594,"lon":5.36705,"is_reserved":false,"is_disabled":false,"rental_uris":{"android":"levelo://app?vid=f5b2de69-ea07-4b33-a436-49a7f21ea0f9","ios":"levelo://app?vid=f5b2de69-ea07-4b33-a436-49a7f21ea0f9"},"vehicle_type_id":"4","last_reported":1736352688,"current_range_meters":38800,"station_id":"ce4bgph2rcd13ifvqc2g","pricing_plan_id":"cebpf4jnsgd1na2vs0mg"},{"bike_id":"7a0a8a69-615c-43f3-a001-073b74f4a57b","system_id":"levelo_inurba_marseille","lat":43.2558,"lon":5.38233,"is_reserved":false,"is_disabled":false,"rental_uris":{"android":"levelo://app?vid=7a0a8a69-615c-43f3-a001-073b74f4a57b","ios":"levelo://app?vid=7a0a8a69-615c-43f3-a001-073b74f4a57b"},"vehicle_type_id":"4","last_reported":1736352688,"current_range_meters":34800,"station_id":"ce4bhih2rcd13ifvqfs0","pricing_plan_id":"cebpf4jnsgd1na2vs0mg"},{"bike_id":"16c041a2-2249-42ba-83f9-aa1e63bb87f4","system_id":"levelo_inurba_marseille","lat":43.2828,"lon":5.35064,"is_reserved":false,"is_disabled":false,"rental_uris":{"android":"levelo://app?vid=16c041a2-2249-42ba-83f9-aa1e63bb87f4","ios":"levelo://app?vid=16c041a2-2249-42ba-83f9-aa1e63bb87f4"},"vehicle_type_id":"4","last_reported":1736352688,"current_range_meters":31200,"station_id":"ce4bhbp2rcd13ifvqerg","pricing_plan_id":"cebpf4jnsgd1na2vs0mg"},{"bike_id":"d03baa4e-a1ff-4dbb-aa3a-8f7610789178","system_id":"levelo_inurba_marseille","lat":43.33724,"lon":5.39181,"is_reserved":false,"is_disabled":false,"rental_uris":{"android":"levelo://app?vid=d03baa4e-a1ff-4dbb-aa3a-8f7610789178","ios":"levelo://app?vid=d03baa4e-a1ff-4dbb-aa3a-8f7610789178"},"vehicle_type_id":"4","last_reported":1736352688,"current_range_meters":38800,"station_id":"ce4bhr92rcd13ifvqhsg","pricing_plan_id":"cebpf4jnsgd1na2vs0mg"},{"bike_id":"98209f35-e1f1-4314-8331-390098c11944","system_id":"levelo_inurba_marseille","lat":43.27837,"lon":5.39212,"is_reserved":false,"is_disabled":false,"rental_uris":{"android":"levelo://app?vid=98209f35-e1f1-4314-8331-390098c11944","ios":"levelo://app?vid=98209f35-e1f1-4314-8331-390098c11944"},"vehicle_type_id":"4","last_reported":1736352688,"current_range_meters":24800,"station_id":"ce4bhjp2rcd13ifvqga0","pricing_plan_id":"cebpf4jnsgd1na2vs0mg"},{"bike_id":"5cbc2cb3-489b-4757-bef9-84c199a03c26","system_id":"levelo_inurba_marseille","lat":43.23962,"lon":5.36626,"is_reserved":false,"is_disabled":false,"rental_uris":{"android":"levelo://app?vid=5cbc2cb3-489b-4757-bef9-84c199a03c26","ios":"levelo://app?vid=5cbc2cb3-489b-4757-bef9-84c199a03c26"},"vehicle_type_id":"4","last_reported":1736352688,"current_range_meters":8000,"station_id":"ce4bhi12rcd13ifvqfp0","pricing_plan_id":"cebpf4jnsgd1na2vs0mg"},{"bike_id":"82ae2c22-2b71-4fc9-88f8-064d0ccb9414","system_id":"levelo_inurba_marseille","lat":43.25584,"lon":5.38225,"is_reserved":false,"is_disabled":false,"rental_uris":{"android":"levelo://app?vid=82ae2c22-2b71-4fc9-88f8-064d0ccb9414","ios":"levelo://app?vid=82ae2c22-2b71-4fc9-88f8-064d0ccb9414"},"vehicle_type_id":"4","last_reported":1736352688,"current_range_meters":18800,"station_id":"ce4bhih2rcd13ifvqfs0","pricing_plan_id":"cebpf4jnsgd1na2vs0mg"},{"bike_id":"6af9adfa-4c76-4cc8-a28e-db45e5b44d54","system_id":"levelo_inurba_marseille","lat":43.28146,"lon":5.42637,"is_reserved":false,"is_disabled":false,"rental_uris":{"android":"levelo://app?vid=6af9adfa-4c76-4cc8-a28e-db45e5b44d54","ios":"levelo://app?vid=6af9adfa-4c76-4cc8-a28e-db45e5b44d54"},"vehicle_type_id":"4","last_reported":1736352688,"current_range_meters":12000,"station_id":"ce4bhnh2rcd13ifvqgug","pricing_plan_id":"cebpf4jnsgd1na2vs0mg"},{"bike_id":"24ff687b-d059-40f7-a282-6a1d8b1383ae","system_id":"levelo_inurba_marseille","lat":43.25588,"lon":5.38221,"is_reserved":false,"is_disabled":false,"rental_uris":{"android":"levelo://app?vid=24ff687b-d059-40f7-a282-6a1d8b1383ae","ios":"levelo://app?vid=24ff687b-d059-40f7-a282-6a1d8b1383ae"},"vehicle_type_id":"4","last_reported":1736352688,"current_range_meters":6800,"station_id":"ce4bhih2rcd13ifvqfs0","pricing_plan_id":"cebpf4jnsgd1na2vs0mg"},{"bike_id":"890a0a4e-ddb2-486e-91d7-e432b3142fba","system_id":"levelo_inurba_marseille","lat":43.31326,"lon":5.39687,"is_reserved":false,"is_disabled":false,"rental_uris":{"android":"levelo://app?vid=890a0a4e-ddb2-486e-91d7-e432b3142fba","ios":"levelo://app?vid=890a0a4e-ddb2-486e-91d7-e432b3142fba"},"vehicle_type_id":"4","last_reported":1736352688,"current_range_meters":26800,"station_id":"ce4bgvp2rcd13ifvqcu0","pricing_plan_id":"cebpf4jnsgd1na2vs0mg"},{"bike_id":"c8620edc-4b1a-4a54-992f-df9b92a06d3c","system_id":"levelo_inurba_marseille","lat":43.29058,"lon":5.35914,"is_reserved":false,"is_disabled":false,"rental_uris":{"android":"levelo://app?vid=c8620edc-4b1a-4a54-992f-df9b92a06d3c","ios":"levelo://app?vid=c8620edc-4b1a-4a54-992f-df9b92a06d3c"},"vehicle_type_id":"4","last_reported":1736352688,"current_range_meters":32400,"station_id":"ce4bha92rcd13ifvqeg0","pricing_plan_id":"cebpf4jnsgd1na2vs0mg"},{"bike_id":"b3d6f5f9-ebba-4ea6-8828-5347bc46d415","system_id":"levelo_inurba_marseille","lat":43.29303,"lon":5.37461,"is_reserved":false,"is_disabled":false,"rental_uris":{"android":"levelo://app?vid=b3d6f5f9-ebba-4ea6-8828-5347bc46d415","ios":"levelo://app?vid=b3d6f5f9-ebba-4ea6-8828-5347bc46d415"},"vehicle_type_id":"4","last_reported":1736352688,"current_range_meters":13600,"station_id":"ce4bgi12rcd13ifvqb70","pricing_plan_id":"cebpf4jnsgd1na2vs0mg"},{"bike_id":"b753435e-f6bb-4c1f-9e42-1ce67c2a1696","system_id":"levelo_inurba_marseille","lat":43.27508,"lon":5.42444,"is_reserved":false,"is_disabled":true,"rental_uris":{"android":"levelo://app?vid=b753435e-f6bb-4c1f-9e42-1ce67c2a1696","ios":"levelo://app?vid=b753435e-f6bb-4c1f-9e42-1ce67c2a1696"},"vehicle_type_id":"4","last_reported":1736352688,"current_range_meters":0,"station_id":"ce4bhn92rcd13ifvqgrg","pricing_plan_id":"cebpf4jnsgd1na2vs0mg"},{"bike_id":"45a2c051-dfb3-4537-ba9c-33219043c3d3","system_id":"levelo_inurba_marseille","lat":43.29282,"lon":5.36842,"is_reserved":false,"is_disabled":true,"rental_uris":{"android":"levelo://app?vid=45a2c051-dfb3-4537-ba9c-33219043c3d3","ios":"levelo://app?vid=45a2c051-dfb3-4537-ba9c-33219043c3d3"},"vehicle_type_id":"4","last_reported":1736352688,"current_range_meters":0,"station_id":"ce4bhbp2rcd13ifvqesg","pricing_plan_id":"cebpf4jnsgd1na2vs0mg"},{"bike_id":"7b71d2b1-0f5f-48b8-a921-ed516ad36cfa","system_id":"levelo_inurba_marseille","lat":43.231468,"lon":5.437222,"is_reserved":false,"is_disabled":false,"rental_uris":{"android":"levelo://app?vid=7b71d2b1-0f5f-48b8-a921-ed516ad36cfa","ios":"levelo://app?vid=7b71d2b1-0f5f-48b8-a921-ed516ad36cfa"},"vehicle_type_id":"4","last_reported":1736352688,"current_range_meters":18000,"station_id":"ce4bhmp2rcd13ifvqgog","pricing_plan_id":"cebpf4jnsgd1na2vs0mg"},{"bike_id":"61f80575-9f0e-4647-b8bb-2460d9473614","system_id":"levelo_inurba_marseille","lat":43.27574,"lon":5.38418,"is_reserved":false,"is_disabled":true,"rental_uris":{"android":"levelo://app?vid=61f80575-9f0e-4647-b8bb-2460d9473614","ios":"levelo://app?vid=61f80575-9f0e-4647-b8bb-2460d9473614"},"vehicle_type_id":"4","last_reported":1736352688,"current_range_meters":0,"station_id":"ce4bhh92rcd13ifvqfi0","pricing_plan_id":"cebpf4jnsgd1na2vs0mg"},{"bike_id":"7618ced7-b343-464e-817b-57b857eb31e9","system_id":"levelo_inurba_marseille","lat":43.28619,"lon":5.35096,"is_reserved":false,"is_disabled":false,"rental_uris":{"android":"levelo://app?vid=7618ced7-b343-464e-817b-57b857eb31e9","ios":"levelo://app?vid=7618ced7-b343-464e-817b-57b857eb31e9"},"vehicle_type_id":"4","last_reported":1736352688,"current_range_meters":24400,"station_id":"ce4bhch2rcd13ifvqeug","pricing_plan_id":"cebpf4jnsgd1na2vs0mg"},{"bike_id":"37d8e1ef-d932-49d7-b893-49542cf44d13","system_id":"levelo_inurba_marseille","lat":43.32345,"lon":5.40629,"is_reserved":false,"is_disabled":true,"rental_uris":{"android":"levelo://app?vid=37d8e1ef-d932-49d7-b893-49542cf44d13","ios":"levelo://app?vid=37d8e1ef-d932-49d7-b893-49542cf44d13"},"vehicle_type_id":"4","last_reported":1736352688,"current_range_meters":0,"station_id":"ce4bhq92rcd13ifvqhjg","pricing_plan_id":"cebpf4jnsgd1na2vs0mg"},{"bike_id":"32a4fb87-34f7-41cc-a1bf-df05e6828b58","system_id":"levelo_inurba_marseille","lat":43.31332,"lon":5.39704,"is_reserved":false,"is_disabled":false,"rental_uris":{"android":"levelo://app?vid=32a4fb87-34f7-41cc-a1bf-df05e6828b58","ios":"levelo://app?vid=32a4fb87-34f7-41cc-a1bf-df05e6828b58"},"vehicle_type_id":"4","last_reported":1736352688,"current_range_meters":38800,"station_id":"ce4bgvp2rcd13ifvqcu0","pricing_plan_id":"cebpf4jnsgd1na2vs0mg"},{"bike_id":"2fb2dacf-3d4e-4430-81c0-eadf3a585aa3","system_id":"levelo_inurba_marseille","lat":43.29022,"lon":5.38131,"is_reserved":false,"is_disabled":false,"rental_uris":{"android":"levelo://app?vid=2fb2dacf-3d4e-4430-81c0-eadf3a585aa3","ios":"levelo://app?vid=2fb2dacf-3d4e-4430-81c0-eadf3a585aa3"},"vehicle_type_id":"4","last_reported":1736352688,"current_range_meters":38000,"station_id":"ce4bh4p2rcd13ifvqe1g","pricing_plan_id":"cebpf4jnsgd1na2vs0mg"},{"bike_id":"665b6f15-ae32-484c-8a18-f3992221abd2","system_id":"levelo_inurba_marseille","lat":43.25822,"lon":5.39404,"is_reserved":false,"is_disabled":false,"rental_uris":{"android":"levelo://app?vid=665b6f15-ae32-484c-8a18-f3992221abd2","ios":"levelo://app?vid=665b6f15-ae32-484c-8a18-f3992221abd2"},"vehicle_type_id":"4","last_reported":1736352688,"current_range_meters":12400,"station_id":"ce4bhip2rcd13ifvqft0","pricing_plan_id":"cebpf4jnsgd1na2vs0mg"},{"bike_id":"63c817a8-7fe4-4bba-9c1c-70e578257f97","system_id":"levelo_inurba_marseille","lat":43.23965,"lon":5.36646,"is_reserved":false,"is_disabled":true,"rental_uris":{"android":"levelo://app?vid=63c817a8-7fe4-4bba-9c1c-70e578257f97","ios":"levelo://app?vid=63c817a8-7fe4-4bba-9c1c-70e578257f97"},"vehicle_type_id":"4","last_reported":1736352688,"current_range_meters":1200,"station_id":"ce4bhi12rcd13ifvqfp0","pricing_plan_id":"cebpf4jnsgd1na2vs0mg"},{"bike_id":"9b2f55e0-edd8-4d6c-b73b-00ee1872c633","system_id":"levelo_inurba_marseille","lat":43.33021,"lon":5.39028,"is_reserved":false,"is_disabled":false,"rental_uris":{"android":"levelo://app?vid=9b2f55e0-edd8-4d6c-b73b-00ee1872c633","ios":"levelo://app?vid=9b2f55e0-edd8-4d6c-b73b-00ee1872c633"},"vehicle_type_id":"4","last_reported":1736352688,"current_range_meters":12800,"station_id":"ce4bhr92rcd13ifvqhrg","pricing_plan_id":"cebpf4jnsgd1na2vs0mg"},{"bike_id":"91aae5cf-068f-4218-a6f9-db21593b4dfe","system_id":"levelo_inurba_marseille","lat":43.25923,"lon":5.40864,"is_reserved":false,"is_disabled":false,"rental_uris":{"android":"levelo://app?vid=91aae5cf-068f-4218-a6f9-db21593b4dfe","ios":"levelo://app?vid=91aae5cf-068f-4218-a6f9-db21593b4dfe"},"vehicle_type_id":"4","last_reported":1736352688,"current_range_meters":38800,"station_id":"ce4bhm92rcd13ifvqglg","pricing_plan_id":"cebpf4jnsgd1na2vs0mg"},{"bike_id":"9dfc2224-e2f5-40ac-9ff2-743c9226a3ce","system_id":"levelo_inurba_marseille","lat":43.27997,"lon":5.40009,"is_reserved":false,"is_disabled":false,"rental_uris":{"android":"levelo://app?vid=9dfc2224-e2f5-40ac-9ff2-743c9226a3ce","ios":"levelo://app?vid=9dfc2224-e2f5-40ac-9ff2-743c9226a3ce"},"vehicle_type_id":"4","last_reported":1736352688,"current_range_meters":37600,"station_id":"ce4bho92rcd13ifvqh4g","pricing_plan_id":"cebpf4jnsgd1na2vs0mg"},{"bike_id":"ec070c9b-b204-4195-8da4-627432f984a9","system_id":"levelo_inurba_marseille","lat":43.26212,"lon":5.37441,"is_reserved":false,"is_disabled":false,"rental_uris":{"android":"levelo://app?vid=ec070c9b-b204-4195-8da4-627432f984a9","ios":"levelo://app?vid=ec070c9b-b204-4195-8da4-627432f984a9"},"vehicle_type_id":"4","last_reported":1736352688,"current_range_meters":34000,"station_id":"ce4bhgp2rcd13ifvqfc0","pricing_plan_id":"cebpf4jnsgd1na2vs0mg"},{"bike_id":"62f17cb9-2c66-4cff-81db-916d063de829","system_id":"levelo_inurba_marseille","lat":43.3301,"lon":5.3903,"is_reserved":false,"is_disabled":false,"rental_uris":{"android":"levelo://app?vid=62f17cb9-2c66-4cff-81db-916d063de829","ios":"levelo://app?vid=62f17cb9-2c66-4cff-81db-916d063de829"},"vehicle_type_id":"4","last_reported":1736352688,"current_range_meters":38800,"station_id":"ce4bhr92rcd13ifvqhrg","pricing_plan_id":"cebpf4jnsgd1na2vs0mg"},{"bike_id":"c6470ca7-0d06-42bc-af5a-e3ecae92fae2","system_id":"levelo_inurba_marseille","lat":43.27955,"lon":5.387,"is_reserved":false,"is_disabled":false,"rental_uris":{"android":"levelo://app?vid=c6470ca7-0d06-42bc-af5a-e3ecae92fae2","ios":"levelo://app?vid=c6470ca7-0d06-42bc-af5a-e3ecae92fae2"},"vehicle_type_id":"4","last_reported":1736352688,"current_range_meters":38800,"station_id":"ce4bhg12rcd13ifvqf80","pricing_plan_id":"cebpf4jnsgd1na2vs0mg"},{"bike_id":"f162e091-eaf8-40f8-b4ce-6d0b5a00bdb2","system_id":"levelo_inurba_marseille","lat":43.2803,"lon":5.36936,"is_reserved":false,"is_disabled":false,"rental_uris":{"android":"levelo://app?vid=f162e091-eaf8-40f8-b4ce-6d0b5a00bdb2","ios":"levelo://app?vid=f162e091-eaf8-40f8-b4ce-6d0b5a00bdb2"},"vehicle_type_id":"4","last_reported":1736352688,"current_range_meters":34000,"station_id":"ce4bha12rcd13ifvqef0","pricing_plan_id":"cebpf4jnsgd1na2vs0mg"},{"bike_id":"64e43754-579d-462e-a1e5-f17e1c068bca","system_id":"levelo_inurba_marseille","lat":43.28271,"lon":5.35071,"is_reserved":false,"is_disabled":false,"rental_uris":{"android":"levelo://app?vid=64e43754-579d-462e-a1e5-f17e1c068bca","ios":"levelo://app?vid=64e43754-579d-462e-a1e5-f17e1c068bca"},"vehicle_type_id":"4","last_reported":1736352688,"current_range_meters":18800,"station_id":"ce4bhbp2rcd13ifvqerg","pricing_plan_id":"cebpf4jnsgd1na2vs0mg"},{"bike_id":"db657076-5d98-41da-860a-11779a937773","system_id":"levelo_inurba_marseille","lat":43.26809,"lon":5.40244,"is_reserved":false,"is_disabled":false,"rental_uris":{"android":"levelo://app?vid=db657076-5d98-41da-860a-11779a937773","ios":"levelo://app?vid=db657076-5d98-41da-860a-11779a937773"},"vehicle_type_id":"4","last_reported":1736352688,"current_range_meters":26800,"station_id":"ce501612rcd8frsf0b60","pricing_plan_id":"cebpf4jnsgd1na2vs0mg"},{"bike_id":"5907104a-fc5f-413a-905a-45a3e219ba01","system_id":"levelo_inurba_marseille","lat":43.29786,"lon":5.37098,"is_reserved":false,"is_disabled":false,"rental_uris":{"android":"levelo://app?vid=5907104a-fc5f-413a-905a-45a3e219ba01","ios":"levelo://app?vid=5907104a-fc5f-413a-905a-45a3e219ba01"},"vehicle_type_id":"4","last_reported":1736352688,"current_range_meters":28000,"station_id":"ce4bgop2rcd13ifvqc1g","pricing_plan_id":"cebpf4jnsgd1na2vs0mg"},{"bike_id":"60ce1b70-e47d-4caf-abee-52e7d5bfe299","system_id":"levelo_inurba_marseille","lat":43.24648,"lon":5.3889,"is_reserved":false,"is_disabled":false,"rental_uris":{"android":"levelo://app?vid=60ce1b70-e47d-4caf-abee-52e7d5bfe299","ios":"levelo://app?vid=60ce1b70-e47d-4caf-abee-52e7d5bfe299"},"vehicle_type_id":"4","last_reported":1736352688,"current_range_meters":38800,"station_id":"ce4bhg12rcd13ifvqf60","pricing_plan_id":"cebpf4jnsgd1na2vs0mg"},{"bike_id":"56535f07-2c23-4e55-9d86-aa493eb5458b","system_id":"levelo_inurba_marseille","lat":43.28372,"lon":5.3864,"is_reserved":false,"is_disabled":false,"rental_uris":{"android":"levelo://app?vid=56535f07-2c23-4e55-9d86-aa493eb5458b","ios":"levelo://app?vid=56535f07-2c23-4e55-9d86-aa493eb5458b"},"vehicle_type_id":"4","last_reported":1736352688,"current_range_meters":16000,"station_id":"ce4bh492rcd13ifvqdvg","pricing_plan_id":"cebpf4jnsgd1na2vs0mg"},{"bike_id":"805ac0db-3bf6-4fe5-bf7f-f6cda41e35f2","system_id":"levelo_inurba_marseille","lat":43.26791,"lon":5.39407,"is_reserved":false,"is_disabled":false,"rental_uris":{"android":"levelo://app?vid=805ac0db-3bf6-4fe5-bf7f-f6cda41e35f2","ios":"levelo://app?vid=805ac0db-3bf6-4fe5-bf7f-f6cda41e35f2"},"vehicle_type_id":"4","last_reported":1736352688,"current_range_meters":38800,"station_id":"ce4bhh12rcd13ifvqfg0","pricing_plan_id":"cebpf4jnsgd1na2vs0mg"},{"bike_id":"6334e71e-10f4-40c4-8360-44ef7aa5daad","system_id":"levelo_inurba_marseille","lat":43.29583,"lon":5.36743,"is_reserved":false,"is_disabled":false,"rental_uris":{"android":"levelo://app?vid=6334e71e-10f4-40c4-8360-44ef7aa5daad","ios":"levelo://app?vid=6334e71e-10f4-40c4-8360-44ef7aa5daad"},"vehicle_type_id":"4","last_reported":1736352688,"current_range_meters":28400,"station_id":"","pricing_plan_id":"cebpf4jnsgd1na2vs0mg"},{"bike_id":"ba2a18e9-d2a5-4fc8-a4b6-3b6ef76241df","system_id":"levelo_inurba_marseille","lat":43.25578,"lon":5.38216,"is_reserved":false,"is_disabled":false,"rental_uris":{"android":"levelo://app?vid=ba2a18e9-d2a5-4fc8-a4b6-3b6ef76241df","ios":"levelo://app?vid=ba2a18e9-d2a5-4fc8-a4b6-3b6ef76241df"},"vehicle_type_id":"4","last_reported":1736352688,"current_range_meters":26000,"station_id":"ce4bhih2rcd13ifvqfs0","pricing_plan_id":"cebpf4jnsgd1na2vs0mg"},{"bike_id":"48ce03f6-f3a8-490e-8671-5ca1c760d650","system_id":"levelo_inurba_marseille","lat":43.28948,"lon":5.36631,"is_reserved":false,"is_disabled":true,"rental_uris":{"android":"levelo://app?vid=48ce03f6-f3a8-490e-8671-5ca1c760d650","ios":"levelo://app?vid=48ce03f6-f3a8-490e-8671-5ca1c760d650"},"vehicle_type_id":"4","last_reported":1736352688,"current_range_meters":38400,"station_id":"ce4bhap2rcd13ifvqek0","pricing_plan_id":"cebpf4jnsgd1na2vs0mg"},{"bike_id":"acf90bd7-cd2c-4673-ae7d-70fe925296cd","system_id":"levelo_inurba_marseille","lat":43.28726,"lon":5.37936,"is_reserved":false,"is_disabled":false,"rental_uris":{"android":"levelo://app?vid=acf90bd7-cd2c-4673-ae7d-70fe925296cd","ios":"levelo://app?vid=acf90bd7-cd2c-4673-ae7d-70fe925296cd"},"vehicle_type_id":"4","last_reported":1736352688,"current_range_meters":10800,"station_id":"ce4bh9p2rcd13ifvqec0","pricing_plan_id":"cebpf4jnsgd1na2vs0mg"},{"bike_id":"f1ac381a-1b3b-49da-b4e2-849dcac1f0a1","system_id":"levelo_inurba_marseille","lat":43.25712,"lon":5.41112,"is_reserved":false,"is_disabled":false,"rental_uris":{"android":"levelo://app?vid=f1ac381a-1b3b-49da-b4e2-849dcac1f0a1","ios":"levelo://app?vid=f1ac381a-1b3b-49da-b4e2-849dcac1f0a1"},"vehicle_type_id":"4","last_reported":1736352688,"current_range_meters":38400,"station_id":"ce4bhkp2rcd13ifvqgd0","pricing_plan_id":"cebpf4jnsgd1na2vs0mg"},{"bike_id":"6c9daffc-e174-4a9a-8b3e-30a6cf4027c8","system_id":"levelo_inurba_marseille","lat":43.32105,"lon":5.367783,"is_reserved":false,"is_disabled":false,"rental_uris":{"android":"levelo://app?vid=6c9daffc-e174-4a9a-8b3e-30a6cf4027c8","ios":"levelo://app?vid=6c9daffc-e174-4a9a-8b3e-30a6cf4027c8"},"vehicle_type_id":"4","last_reported":1736352688,"current_range_meters":20400,"station_id":"ce4bhrh2rcd13ifvqhug","pricing_plan_id":"cebpf4jnsgd1na2vs0mg"},{"bike_id":"93b7e7bc-917a-4253-af1e-71755c2c5a70","system_id":"levelo_inurba_marseille","lat":43.29619,"lon":5.37711,"is_reserved":false,"is_disabled":true,"rental_uris":{"android":"levelo://app?vid=93b7e7bc-917a-4253-af1e-71755c2c5a70","ios":"levelo://app?vid=93b7e7bc-917a-4253-af1e-71755c2c5a70"},"vehicle_type_id":"4","last_reported":1736352688,"current_range_meters":16800,"station_id":"ce4bgi92rcd13ifvqb90","pricing_plan_id":"cebpf4jnsgd1na2vs0mg"},{"bike_id":"b30fc8f3-e478-4e9d-a45a-e65088763ba0","system_id":"levelo_inurba_marseille","lat":43.29379,"lon":5.37275,"is_reserved":false,"is_disabled":false,"rental_uris":{"android":"levelo://app?vid=b30fc8f3-e478-4e9d-a45a-e65088763ba0","ios":"levelo://app?vid=b30fc8f3-e478-4e9d-a45a-e65088763ba0"},"vehicle_type_id":"4","last_reported":1736352688,"current_range_meters":38000,"station_id":"","pricing_plan_id":"cebpf4jnsgd1na2vs0mg"},{"bike_id":"9bc08367-0578-4066-804d-469c1c224792","system_id":"levelo_inurba_marseille","lat":43.32011,"lon":5.41508,"is_reserved":false,"is_disabled":false,"rental_uris":{"android":"levelo://app?vid=9bc08367-0578-4066-804d-469c1c224792","ios":"levelo://app?vid=9bc08367-0578-4066-804d-469c1c224792"},"vehicle_type_id":"4","last_reported":1736352688,"current_range_meters":36000,"station_id":"ce4bhq92rcd13ifvqhkg","pricing_plan_id":"cebpf4jnsgd1na2vs0mg"},{"bike_id":"49f71cfb-5f4f-4efd-8023-2c4eb676a391","system_id":"levelo_inurba_marseille","lat":43.24187,"lon":5.3638,"is_reserved":false,"is_disabled":false,"rental_uris":{"android":"levelo://app?vid=49f71cfb-5f4f-4efd-8023-2c4eb676a391","ios":"levelo://app?vid=49f71cfb-5f4f-4efd-8023-2c4eb676a391"},"vehicle_type_id":"4","last_reported":1736352688,"current_range_meters":36800,"station_id":"cpo36qri1sfpv3e86is0","pricing_plan_id":"cebpf4jnsgd1na2vs0mg"},{"bike_id":"a2c61229-d7c3-4f99-99e9-40860fc8966a","system_id":"levelo_inurba_marseille","lat":43.27832,"lon":5.40729,"is_reserved":false,"is_disabled":false,"rental_uris":{"android":"levelo://app?vid=a2c61229-d7c3-4f99-99e9-40860fc8966a","ios":"levelo://app?vid=a2c61229-d7c3-4f99-99e9-40860fc8966a"},"vehicle_type_id":"4","last_reported":1736352688,"current_range_meters":38000,"station_id":"ce4bhnh2rcd13ifvqgtg","pricing_plan_id":"cebpf4jnsgd1na2vs0mg"},{"bike_id":"5e853599-88a7-4cbf-907e-37b55ffdd3b0","system_id":"levelo_inurba_marseille","lat":43.30136,"lon":5.38784,"is_reserved":false,"is_disabled":false,"rental_uris":{"android":"levelo://app?vid=5e853599-88a7-4cbf-907e-37b55ffdd3b0","ios":"levelo://app?vid=5e853599-88a7-4cbf-907e-37b55ffdd3b0"},"vehicle_type_id":"4","last_reported":1736352688,"current_range_meters":17600,"station_id":"ce4bhoh2rcd13ifvqh6g","pricing_plan_id":"cebpf4jnsgd1na2vs0mg"},{"bike_id":"b1c05a28-e862-4024-a61b-ab8d551b8107","system_id":"levelo_inurba_marseille","lat":43.330285,"lon":5.390365,"is_reserved":false,"is_disabled":false,"rental_uris":{"android":"levelo://app?vid=b1c05a28-e862-4024-a61b-ab8d551b8107","ios":"levelo://app?vid=b1c05a28-e862-4024-a61b-ab8d551b8107"},"vehicle_type_id":"4","last_reported":1736352688,"current_range_meters":38000,"station_id":"ce4bhr92rcd13ifvqhrg","pricing_plan_id":"cebpf4jnsgd1na2vs0mg"},{"bike_id":"30f12004-38e9-469d-a819-1c825686a374","system_id":"levelo_inurba_marseille","lat":43.27322,"lon":5.39081,"is_reserved":false,"is_disabled":false,"rental_uris":{"android":"levelo://app?vid=30f12004-38e9-469d-a819-1c825686a374","ios":"levelo://app?vid=30f12004-38e9-469d-a819-1c825686a374"},"vehicle_type_id":"4","last_reported":1736352688,"current_range_meters":9200,"station_id":"ce4bhgp2rcd13ifvqfe0","pricing_plan_id":"cebpf4jnsgd1na2vs0mg"},{"bike_id":"c3fed3ff-6b92-4fcd-9518-3530a380cb58","system_id":"levelo_inurba_marseille","lat":43.2894,"lon":5.36403,"is_reserved":false,"is_disabled":true,"rental_uris":{"android":"levelo://app?vid=c3fed3ff-6b92-4fcd-9518-3530a380cb58","ios":"levelo://app?vid=c3fed3ff-6b92-4fcd-9518-3530a380cb58"},"vehicle_type_id":"4","last_reported":1736352688,"current_range_meters":38800,"station_id":"ce4bhc92rcd13ifvqetg","pricing_plan_id":"cebpf4jnsgd1na2vs0mg"},{"bike_id":"1e2223a2-c032-49e7-8dbf-982df86a0520","system_id":"levelo_inurba_marseille","lat":43.22921,"lon":5.35379,"is_reserved":false,"is_disabled":false,"rental_uris":{"android":"levelo://app?vid=1e2223a2-c032-49e7-8dbf-982df86a0520","ios":"levelo://app?vid=1e2223a2-c032-49e7-8dbf-982df86a0520"},"vehicle_type_id":"4","last_reported":1736352688,"current_range_meters":2800,"station_id":"cpo3532slgdg3j2ikp40","pricing_plan_id":"cebpf4jnsgd1na2vs0mg"},{"bike_id":"3759cfd5-03c3-4c7b-a343-a09826b1cf56","system_id":"levelo_inurba_marseille","lat":43.29841,"lon":5.36259,"is_reserved":false,"is_disabled":false,"rental_uris":{"android":"levelo://app?vid=3759cfd5-03c3-4c7b-a343-a09826b1cf56","ios":"levelo://app?vid=3759cfd5-03c3-4c7b-a343-a09826b1cf56"},"vehicle_type_id":"4","last_reported":1736352688,"current_range_meters":38800,"station_id":"ce4bgpp2rcd13ifvqc3g","pricing_plan_id":"cebpf4jnsgd1na2vs0mg"},{"bike_id":"7ac3d444-b1cd-44b8-9ff6-0b078ebd3993","system_id":"levelo_inurba_marseille","lat":43.29302,"lon":5.371598,"is_reserved":false,"is_disabled":false,"rental_uris":{"android":"levelo://app?vid=7ac3d444-b1cd-44b8-9ff6-0b078ebd3993","ios":"levelo://app?vid=7ac3d444-b1cd-44b8-9ff6-0b078ebd3993"},"vehicle_type_id":"4","last_reported":1736352688,"current_range_meters":8800,"station_id":"","pricing_plan_id":"cebpf4jnsgd1na2vs0mg"},{"bike_id":"8938c717-7214-4127-a5d5-13fbcb9a21ba","system_id":"levelo_inurba_marseille","lat":43.30154,"lon":5.3739,"is_reserved":false,"is_disabled":false,"rental_uris":{"android":"levelo://app?vid=8938c717-7214-4127-a5d5-13fbcb9a21ba","ios":"levelo://app?vid=8938c717-7214-4127-a5d5-13fbcb9a21ba"},"vehicle_type_id":"4","last_reported":1736352688,"current_range_meters":36400,"station_id":"ce4bgs92rcd13ifvqcc0","pricing_plan_id":"cebpf4jnsgd1na2vs0mg"},{"bike_id":"be8a233f-ad85-41b2-af03-bfa1e3033438","system_id":"levelo_inurba_marseille","lat":43.232,"lon":5.35541,"is_reserved":false,"is_disabled":false,"rental_uris":{"android":"levelo://app?vid=be8a233f-ad85-41b2-af03-bfa1e3033438","ios":"levelo://app?vid=be8a233f-ad85-41b2-af03-bfa1e3033438"},"vehicle_type_id":"4","last_reported":1736352688,"current_range_meters":31200,"station_id":"ce4bhu92rcd13ifvqi70","pricing_plan_id":"cebpf4jnsgd1na2vs0mg"},{"bike_id":"98ab625c-a622-4213-ba12-d88b9b4c3cc4","system_id":"levelo_inurba_marseille","lat":43.28845,"lon":5.35839,"is_reserved":false,"is_disabled":false,"rental_uris":{"android":"levelo://app?vid=98ab625c-a622-4213-ba12-d88b9b4c3cc4","ios":"levelo://app?vid=98ab625c-a622-4213-ba12-d88b9b4c3cc4"},"vehicle_type_id":"4","last_reported":1736352688,"current_range_meters":38800,"station_id":"ce4bhb12rcd13ifvqem0","pricing_plan_id":"cebpf4jnsgd1na2vs0mg"},{"bike_id":"20e38a1d-ddfa-49cd-945d-c3172a22a6cd","system_id":"levelo_inurba_marseille","lat":43.26184,"lon":5.37469,"is_reserved":false,"is_disabled":false,"rental_uris":{"android":"levelo://app?vid=20e38a1d-ddfa-49cd-945d-c3172a22a6cd","ios":"levelo://app?vid=20e38a1d-ddfa-49cd-945d-c3172a22a6cd"},"vehicle_type_id":"4","last_reported":1736352688,"current_range_meters":38800,"station_id":"ce4bhgp2rcd13ifvqfc0","pricing_plan_id":"cebpf4jnsgd1na2vs0mg"},{"bike_id":"65e45bc2-89fc-4f49-a256-2a9100c411cb","system_id":"levelo_inurba_marseille","lat":43.26786,"lon":5.39415,"is_reserved":false,"is_disabled":false,"rental_uris":{"android":"levelo://app?vid=65e45bc2-89fc-4f49-a256-2a9100c411cb","ios":"levelo://app?vid=65e45bc2-89fc-4f49-a256-2a9100c411cb"},"vehicle_type_id":"4","last_reported":1736352688,"current_range_meters":38800,"station_id":"ce4bhh12rcd13ifvqfg0","pricing_plan_id":"cebpf4jnsgd1na2vs0mg"},{"bike_id":"d4dae7b9-c169-4f05-90f9-e4f29a8f097c","system_id":"levelo_inurba_marseille","lat":43.29044,"lon":5.37568,"is_reserved":false,"is_disabled":false,"rental_uris":{"android":"levelo://app?vid=d4dae7b9-c169-4f05-90f9-e4f29a8f097c","ios":"levelo://app?vid=d4dae7b9-c169-4f05-90f9-e4f29a8f097c"},"vehicle_type_id":"4","last_reported":1736352688,"current_range_meters":38000,"station_id":"ce4bh692rcd13ifvqe90","pricing_plan_id":"cebpf4jnsgd1na2vs0mg"},{"bike_id":"e92013d7-e7fd-4a70-b5fb-40e0e2348217","system_id":"levelo_inurba_marseille","lat":43.29622,"lon":5.37723,"is_reserved":false,"is_disabled":true,"rental_uris":{"android":"levelo://app?vid=e92013d7-e7fd-4a70-b5fb-40e0e2348217","ios":"levelo://app?vid=e92013d7-e7fd-4a70-b5fb-40e0e2348217"},"vehicle_type_id":"4","last_reported":1736352688,"current_range_meters":38000,"station_id":"ce4bgi92rcd13ifvqb90","pricing_plan_id":"cebpf4jnsgd1na2vs0mg"},{"bike_id":"73a4e391-710f-48d2-a903-19a2a8689c73","system_id":"levelo_inurba_marseille","lat":43.28355,"lon":5.39853,"is_reserved":false,"is_disabled":false,"rental_uris":{"android":"levelo://app?vid=73a4e391-710f-48d2-a903-19a2a8689c73","ios":"levelo://app?vid=73a4e391-710f-48d2-a903-19a2a8689c73"},"vehicle_type_id":"4","last_reported":1736352688,"current_range_meters":30000,"station_id":"","pricing_plan_id":"cebpf4jnsgd1na2vs0mg"},{"bike_id":"ddbf1e4a-4ecd-43de-bfb4-3a04b54f3b6e","system_id":"levelo_inurba_marseille","lat":43.31027,"lon":5.40224,"is_reserved":false,"is_disabled":false,"rental_uris":{"android":"levelo://app?vid=ddbf1e4a-4ecd-43de-bfb4-3a04b54f3b6e","ios":"levelo://app?vid=ddbf1e4a-4ecd-43de-bfb4-3a04b54f3b6e"},"vehicle_type_id":"4","last_reported":1736352688,"current_range_meters":29600,"station_id":"ce4bgvp2rcd13ifvqct0","pricing_plan_id":"cebpf4jnsgd1na2vs0mg"},{"bike_id":"0686a8cb-2b76-4424-87d1-4f58c91d61f2","system_id":"levelo_inurba_marseille","lat":43.25711,"lon":5.4111,"is_reserved":false,"is_disabled":false,"rental_uris":{"android":"levelo://app?vid=0686a8cb-2b76-4424-87d1-4f58c91d61f2","ios":"levelo://app?vid=0686a8cb-2b76-4424-87d1-4f58c91d61f2"},"vehicle_type_id":"4","last_reported":1736352688,"current_range_meters":38800,"station_id":"ce4bhkp2rcd13ifvqgd0","pricing_plan_id":"cebpf4jnsgd1na2vs0mg"},{"bike_id":"16131e43-fb97-44bc-b7d7-625677ae8169","system_id":"levelo_inurba_marseille","lat":43.29263,"lon":5.40904,"is_reserved":false,"is_disabled":false,"rental_uris":{"android":"levelo://app?vid=16131e43-fb97-44bc-b7d7-625677ae8169","ios":"levelo://app?vid=16131e43-fb97-44bc-b7d7-625677ae8169"},"vehicle_type_id":"4","last_reported":1736352688,"current_range_meters":22400,"station_id":"ce4bh192rcd13ifvqdc0","pricing_plan_id":"cebpf4jnsgd1na2vs0mg"},{"bike_id":"ad1dff91-2f95-4984-91ce-84be50678298","system_id":"levelo_inurba_marseille","lat":43.262141,"lon":5.379247,"is_reserved":false,"is_disabled":false,"rental_uris":{"android":"levelo://app?vid=ad1dff91-2f95-4984-91ce-84be50678298","ios":"levelo://app?vid=ad1dff91-2f95-4984-91ce-84be50678298"},"vehicle_type_id":"4","last_reported":1736352688,"current_range_meters":35200,"station_id":"ce4bhjp2rcd13ifvqg90","pricing_plan_id":"cebpf4jnsgd1na2vs0mg"},{"bike_id":"1f13abda-0c2f-485b-b7d9-de8f3b464a21","system_id":"levelo_inurba_marseille","lat":43.29612,"lon":5.37718,"is_reserved":false,"is_disabled":true,"rental_uris":{"android":"levelo://app?vid=1f13abda-0c2f-485b-b7d9-de8f3b464a21","ios":"levelo://app?vid=1f13abda-0c2f-485b-b7d9-de8f3b464a21"},"vehicle_type_id":"4","last_reported":1736352688,"current_range_meters":37600,"station_id":"ce4bgi92rcd13ifvqb90","pricing_plan_id":"cebpf4jnsgd1na2vs0mg"},{"bike_id":"34cb8090-cfb8-4338-aee7-9c83eb7af208","system_id":"levelo_inurba_marseille","lat":43.311313,"lon":5.37769,"is_reserved":false,"is_disabled":false,"rental_uris":{"android":"levelo://app?vid=34cb8090-cfb8-4338-aee7-9c83eb7af208","ios":"levelo://app?vid=34cb8090-cfb8-4338-aee7-9c83eb7af208"},"vehicle_type_id":"4","last_reported":1736352688,"current_range_meters":29600,"station_id":"ce4bgt92rcd13ifvqcg0","pricing_plan_id":"cebpf4jnsgd1na2vs0mg"},{"bike_id":"ca5b73b8-bbae-4af5-a5a9-ad3889f9d436","system_id":"levelo_inurba_marseille","lat":43.27369,"lon":5.36254,"is_reserved":false,"is_disabled":false,"rental_uris":{"android":"levelo://app?vid=ca5b73b8-bbae-4af5-a5a9-ad3889f9d436","ios":"levelo://app?vid=ca5b73b8-bbae-4af5-a5a9-ad3889f9d436"},"vehicle_type_id":"4","last_reported":1736352688,"current_range_meters":38800,"station_id":"ce4bhbh2rcd13ifvqeo0","pricing_plan_id":"cebpf4jnsgd1na2vs0mg"},{"bike_id":"ad28bd53-1c8c-44ea-9a1c-1e5a5b2498fe","system_id":"levelo_inurba_marseille","lat":43.24171,"lon":5.36396,"is_reserved":false,"is_disabled":false,"rental_uris":{"android":"levelo://app?vid=ad28bd53-1c8c-44ea-9a1c-1e5a5b2498fe","ios":"levelo://app?vid=ad28bd53-1c8c-44ea-9a1c-1e5a5b2498fe"},"vehicle_type_id":"4","last_reported":1736352688,"current_range_meters":18800,"station_id":"cpo36qri1sfpv3e86is0","pricing_plan_id":"cebpf4jnsgd1na2vs0mg"},{"bike_id":"247347ad-5bef-4bd7-b4b8-b4f9435b48aa","system_id":"levelo_inurba_marseille","lat":43.26781,"lon":5.39428,"is_reserved":false,"is_disabled":false,"rental_uris":{"android":"levelo://app?vid=247347ad-5bef-4bd7-b4b8-b4f9435b48aa","ios":"levelo://app?vid=247347ad-5bef-4bd7-b4b8-b4f9435b48aa"},"vehicle_type_id":"4","last_reported":1736352688,"current_range_meters":38000,"station_id":"ce4bhh12rcd13ifvqfg0","pricing_plan_id":"cebpf4jnsgd1na2vs0mg"},{"bike_id":"f6ae521f-d87c-4b63-b4de-80ac52808b29","system_id":"levelo_inurba_marseille","lat":43.30611,"lon":5.37224,"is_reserved":false,"is_disabled":false,"rental_uris":{"android":"levelo://app?vid=f6ae521f-d87c-4b63-b4de-80ac52808b29","ios":"levelo://app?vid=f6ae521f-d87c-4b63-b4de-80ac52808b29"},"vehicle_type_id":"4","last_reported":1736352688,"current_range_meters":30800,"station_id":"ce4bgqh2rcd13ifvqc4g","pricing_plan_id":"cebpf4jnsgd1na2vs0mg"},{"bike_id":"5d2999e4-a22f-42d1-a4bf-5642695f0a99","system_id":"levelo_inurba_marseille","lat":43.29053,"lon":5.35892,"is_reserved":false,"is_disabled":false,"rental_uris":{"android":"levelo://app?vid=5d2999e4-a22f-42d1-a4bf-5642695f0a99","ios":"levelo://app?vid=5d2999e4-a22f-42d1-a4bf-5642695f0a99"},"vehicle_type_id":"4","last_reported":1736352688,"current_range_meters":35600,"station_id":"ce4bha92rcd13ifvqeg0","pricing_plan_id":"cebpf4jnsgd1na2vs0mg"},{"bike_id":"cac63351-e0d5-45ef-aec5-8adc937bf9f0","system_id":"levelo_inurba_marseille","lat":43.31279,"lon":5.40163,"is_reserved":false,"is_disabled":false,"rental_uris":{"android":"levelo://app?vid=cac63351-e0d5-45ef-aec5-8adc937bf9f0","ios":"levelo://app?vid=cac63351-e0d5-45ef-aec5-8adc937bf9f0"},"vehicle_type_id":"4","last_reported":1736352688,"current_range_meters":38800,"station_id":"ce4bh092rcd13ifvqd30","pricing_plan_id":"cebpf4jnsgd1na2vs0mg"},{"bike_id":"c8ebe7df-006f-4929-bdb9-97e0f784e301","system_id":"levelo_inurba_marseille","lat":43.29585,"lon":5.36739,"is_reserved":false,"is_disabled":false,"rental_uris":{"android":"levelo://app?vid=c8ebe7df-006f-4929-bdb9-97e0f784e301","ios":"levelo://app?vid=c8ebe7df-006f-4929-bdb9-97e0f784e301"},"vehicle_type_id":"4","last_reported":1736352688,"current_range_meters":38800,"station_id":"ce4bgph2rcd13ifvqc2g","pricing_plan_id":"cebpf4jnsgd1na2vs0mg"},{"bike_id":"cecb496a-19a6-4ad5-b31b-eac3846b2c8c","system_id":"levelo_inurba_marseille","lat":43.29395,"lon":5.37847,"is_reserved":false,"is_disabled":true,"rental_uris":{"android":"levelo://app?vid=cecb496a-19a6-4ad5-b31b-eac3846b2c8c","ios":"levelo://app?vid=cecb496a-19a6-4ad5-b31b-eac3846b2c8c"},"vehicle_type_id":"4","last_reported":1736352688,"current_range_meters":2000,"station_id":"ce4bgjh2rcd13ifvqbf0","pricing_plan_id":"cebpf4jnsgd1na2vs0mg"},{"bike_id":"ed707477-34b8-443a-81cf-19ccbdc232f1","system_id":"levelo_inurba_marseille","lat":43.300036,"lon":5.404984,"is_reserved":false,"is_disabled":false,"rental_uris":{"android":"levelo://app?vid=ed707477-34b8-443a-81cf-19ccbdc232f1","ios":"levelo://app?vid=ed707477-34b8-443a-81cf-19ccbdc232f1"},"vehicle_type_id":"4","last_reported":1736352688,"current_range_meters":34000,"station_id":"ce4bgt12rcd13ifvqcd0","pricing_plan_id":"cebpf4jnsgd1na2vs0mg"},{"bike_id":"1eaabab8-2049-48b4-abbd-d6b2411bfb42","system_id":"levelo_inurba_marseille","lat":43.29581,"lon":5.36747,"is_reserved":false,"is_disabled":false,"rental_uris":{"android":"levelo://app?vid=1eaabab8-2049-48b4-abbd-d6b2411bfb42","ios":"levelo://app?vid=1eaabab8-2049-48b4-abbd-d6b2411bfb42"},"vehicle_type_id":"4","last_reported":1736352688,"current_range_meters":36800,"station_id":"ce4bgph2rcd13ifvqc2g","pricing_plan_id":"cebpf4jnsgd1na2vs0mg"},{"bike_id":"47fce4f8-7718-407d-9dee-89ea3cf87e47","system_id":"levelo_inurba_marseille","lat":43.229166,"lon":5.353718,"is_reserved":false,"is_disabled":false,"rental_uris":{"android":"levelo://app?vid=47fce4f8-7718-407d-9dee-89ea3cf87e47","ios":"levelo://app?vid=47fce4f8-7718-407d-9dee-89ea3cf87e47"},"vehicle_type_id":"4","last_reported":1736352688,"current_range_meters":24400,"station_id":"cpo3532slgdg3j2ikp40","pricing_plan_id":"cebpf4jnsgd1na2vs0mg"},{"bike_id":"9b8394f4-8355-4766-83cc-d75e5933c4be","system_id":"levelo_inurba_marseille","lat":43.31755,"lon":5.39015,"is_reserved":false,"is_disabled":false,"rental_uris":{"android":"levelo://app?vid=9b8394f4-8355-4766-83cc-d75e5933c4be","ios":"levelo://app?vid=9b8394f4-8355-4766-83cc-d75e5933c4be"},"vehicle_type_id":"4","last_reported":1736352688,"current_range_meters":22800,"station_id":"ce4bhqp2rcd13ifvqhng","pricing_plan_id":"cebpf4jnsgd1na2vs0mg"},{"bike_id":"e1c96e15-8c1f-44db-bd4b-d97fe47974bb","system_id":"levelo_inurba_marseille","lat":43.28657,"lon":5.35121,"is_reserved":false,"is_disabled":false,"rental_uris":{"android":"levelo://app?vid=e1c96e15-8c1f-44db-bd4b-d97fe47974bb","ios":"levelo://app?vid=e1c96e15-8c1f-44db-bd4b-d97fe47974bb"},"vehicle_type_id":"4","last_reported":1736352688,"current_range_meters":38000,"station_id":"ce4bhch2rcd13ifvqeug","pricing_plan_id":"cebpf4jnsgd1na2vs0mg"},{"bike_id":"1ace9e65-a3fc-4489-a313-689327305bfa","system_id":"levelo_inurba_marseille","lat":43.29787,"lon":5.39345,"is_reserved":false,"is_disabled":false,"rental_uris":{"android":"levelo://app?vid=1ace9e65-a3fc-4489-a313-689327305bfa","ios":"levelo://app?vid=1ace9e65-a3fc-4489-a313-689327305bfa"},"vehicle_type_id":"4","last_reported":1736352688,"current_range_meters":28800,"station_id":"chh1huq6cuj3fo74tm60","pricing_plan_id":"cebpf4jnsgd1na2vs0mg"},{"bike_id":"2752747f-48be-4547-bc3f-7f3d03ebcf13","system_id":"levelo_inurba_marseille","lat":43.29099,"lon":5.38145,"is_reserved":false,"is_disabled":false,"rental_uris":{"android":"levelo://app?vid=2752747f-48be-4547-bc3f-7f3d03ebcf13","ios":"levelo://app?vid=2752747f-48be-4547-bc3f-7f3d03ebcf13"},"vehicle_type_id":"4","last_reported":1736352688,"current_range_meters":4400,"station_id":"ce4bh512rcd13ifvqe2g","pricing_plan_id":"cebpf4jnsgd1na2vs0mg"},{"bike_id":"c5972b95-4d37-4c88-8e88-1c6d4f26f397","system_id":"levelo_inurba_marseille","lat":43.27071,"lon":5.4026,"is_reserved":false,"is_disabled":false,"rental_uris":{"android":"levelo://app?vid=c5972b95-4d37-4c88-8e88-1c6d4f26f397","ios":"levelo://app?vid=c5972b95-4d37-4c88-8e88-1c6d4f26f397"},"vehicle_type_id":"4","last_reported":1736352688,"current_range_meters":16000,"station_id":"ce4bhk92rcd13ifvqgc0","pricing_plan_id":"cebpf4jnsgd1na2vs0mg"},{"bike_id":"7bc5649e-6bf9-44e0-81e0-4779df803f45","system_id":"levelo_inurba_marseille","lat":43.28153,"lon":5.42633,"is_reserved":false,"is_disabled":true,"rental_uris":{"android":"levelo://app?vid=7bc5649e-6bf9-44e0-81e0-4779df803f45","ios":"levelo://app?vid=7bc5649e-6bf9-44e0-81e0-4779df803f45"},"vehicle_type_id":"4","last_reported":1736352688,"current_range_meters":0,"station_id":"ce4bhnh2rcd13ifvqgug","pricing_plan_id":"cebpf4jnsgd1na2vs0mg"},{"bike_id":"589ff427-7f96-42f4-8329-98df85bb3cc4","system_id":"levelo_inurba_marseille","lat":43.33026,"lon":5.39043,"is_reserved":false,"is_disabled":false,"rental_uris":{"android":"levelo://app?vid=589ff427-7f96-42f4-8329-98df85bb3cc4","ios":"levelo://app?vid=589ff427-7f96-42f4-8329-98df85bb3cc4"},"vehicle_type_id":"4","last_reported":1736352688,"current_range_meters":28000,"station_id":"ce4bhr92rcd13ifvqhrg","pricing_plan_id":"cebpf4jnsgd1na2vs0mg"},{"bike_id":"f4bbe9aa-6525-43bc-8798-653f0a3feaaa","system_id":"levelo_inurba_marseille","lat":43.25089,"lon":5.39518,"is_reserved":false,"is_disabled":false,"rental_uris":{"android":"levelo://app?vid=f4bbe9aa-6525-43bc-8798-653f0a3feaaa","ios":"levelo://app?vid=f4bbe9aa-6525-43bc-8798-653f0a3feaaa"},"vehicle_type_id":"4","last_reported":1736352688,"current_range_meters":23200,"station_id":"ce4bhm12rcd13ifvqgkg","pricing_plan_id":"cebpf4jnsgd1na2vs0mg"},{"bike_id":"f9efbbe1-0d60-4ea5-97ac-1ddd2b6b1763","system_id":"levelo_inurba_marseille","lat":43.30542,"lon":5.38414,"is_reserved":false,"is_disabled":false,"rental_uris":{"android":"levelo://app?vid=f9efbbe1-0d60-4ea5-97ac-1ddd2b6b1763","ios":"levelo://app?vid=f9efbbe1-0d60-4ea5-97ac-1ddd2b6b1763"},"vehicle_type_id":"4","last_reported":1736352688,"current_range_meters":6800,"station_id":"ce4bgg92rcd13ifvqb30","pricing_plan_id":"cebpf4jnsgd1na2vs0mg"},{"bike_id":"a74a7bb3-4105-413b-a160-114d121df1ad","system_id":"levelo_inurba_marseille","lat":43.29031,"lon":5.35907,"is_reserved":false,"is_disabled":false,"rental_uris":{"android":"levelo://app?vid=a74a7bb3-4105-413b-a160-114d121df1ad","ios":"levelo://app?vid=a74a7bb3-4105-413b-a160-114d121df1ad"},"vehicle_type_id":"4","last_reported":1736352688,"current_range_meters":38800,"station_id":"ce4bha92rcd13ifvqeg0","pricing_plan_id":"cebpf4jnsgd1na2vs0mg"},{"bike_id":"77140e92-43d3-4e9c-b1bf-1a7db1513194","system_id":"levelo_inurba_marseille","lat":43.27814,"lon":5.40704,"is_reserved":false,"is_disabled":false,"rental_uris":{"android":"levelo://app?vid=77140e92-43d3-4e9c-b1bf-1a7db1513194","ios":"levelo://app?vid=77140e92-43d3-4e9c-b1bf-1a7db1513194"},"vehicle_type_id":"4","last_reported":1736352688,"current_range_meters":38800,"station_id":"ce4bhnh2rcd13ifvqgtg","pricing_plan_id":"cebpf4jnsgd1na2vs0mg"},{"bike_id":"ca7de738-3c01-4f5d-8549-2d91a1447786","system_id":"levelo_inurba_marseille","lat":43.27942,"lon":5.4104,"is_reserved":false,"is_disabled":false,"rental_uris":{"android":"levelo://app?vid=ca7de738-3c01-4f5d-8549-2d91a1447786","ios":"levelo://app?vid=ca7de738-3c01-4f5d-8549-2d91a1447786"},"vehicle_type_id":"4","last_reported":1736352688,"current_range_meters":35600,"station_id":"ce4bhnp2rcd13ifvqh0g","pricing_plan_id":"cebpf4jnsgd1na2vs0mg"},{"bike_id":"8d0e4650-64da-4420-8b09-d5a58e3c1e75","system_id":"levelo_inurba_marseille","lat":43.29973,"lon":5.37171,"is_reserved":false,"is_disabled":false,"rental_uris":{"android":"levelo://app?vid=8d0e4650-64da-4420-8b09-d5a58e3c1e75","ios":"levelo://app?vid=8d0e4650-64da-4420-8b09-d5a58e3c1e75"},"vehicle_type_id":"4","last_reported":1736352688,"current_range_meters":20000,"station_id":"ce4bgr92rcd13ifvqc7g","pricing_plan_id":"cebpf4jnsgd1na2vs0mg"},{"bike_id":"0ce73ae1-b154-43da-a4ed-8140bf82ff61","system_id":"levelo_inurba_marseille","lat":43.28611,"lon":5.35097,"is_reserved":false,"is_disabled":true,"rental_uris":{"android":"levelo://app?vid=0ce73ae1-b154-43da-a4ed-8140bf82ff61","ios":"levelo://app?vid=0ce73ae1-b154-43da-a4ed-8140bf82ff61"},"vehicle_type_id":"4","last_reported":1736352688,"current_range_meters":0,"station_id":"ce4bhch2rcd13ifvqeug","pricing_plan_id":"cebpf4jnsgd1na2vs0mg"},{"bike_id":"c2e8d092-df93-467c-9bc2-30fb162a1a11","system_id":"levelo_inurba_marseille","lat":43.32366,"lon":5.38888,"is_reserved":false,"is_disabled":false,"rental_uris":{"android":"levelo://app?vid=c2e8d092-df93-467c-9bc2-30fb162a1a11","ios":"levelo://app?vid=c2e8d092-df93-467c-9bc2-30fb162a1a11"},"vehicle_type_id":"4","last_reported":1736352688,"current_range_meters":20000,"station_id":"ce4bhqp2rcd13ifvqhog","pricing_plan_id":"cebpf4jnsgd1na2vs0mg"},{"bike_id":"fc16b4ca-3f6b-4afa-92ce-20d3d57aa176","system_id":"levelo_inurba_marseille","lat":43.24559,"lon":5.39528,"is_reserved":false,"is_disabled":false,"rental_uris":{"android":"levelo://app?vid=fc16b4ca-3f6b-4afa-92ce-20d3d57aa176","ios":"levelo://app?vid=fc16b4ca-3f6b-4afa-92ce-20d3d57aa176"},"vehicle_type_id":"4","last_reported":1736352688,"current_range_meters":36800,"station_id":"ce4bhlp2rcd13ifvqgjg","pricing_plan_id":"cebpf4jnsgd1na2vs0mg"},{"bike_id":"2087c673-8bc9-4b01-b827-0ee077a6c1a0","system_id":"levelo_inurba_marseille","lat":43.26199,"lon":5.37442,"is_reserved":false,"is_disabled":false,"rental_uris":{"android":"levelo://app?vid=2087c673-8bc9-4b01-b827-0ee077a6c1a0","ios":"levelo://app?vid=2087c673-8bc9-4b01-b827-0ee077a6c1a0"},"vehicle_type_id":"4","last_reported":1736352688,"current_range_meters":28800,"station_id":"ce4bhgp2rcd13ifvqfc0","pricing_plan_id":"cebpf4jnsgd1na2vs0mg"},{"bike_id":"8a3e6b18-2c2b-49ca-9f0a-506d1fa5a0a1","system_id":"levelo_inurba_marseille","lat":43.27574,"lon":5.38415,"is_reserved":false,"is_disabled":false,"rental_uris":{"android":"levelo://app?vid=8a3e6b18-2c2b-49ca-9f0a-506d1fa5a0a1","ios":"levelo://app?vid=8a3e6b18-2c2b-49ca-9f0a-506d1fa5a0a1"},"vehicle_type_id":"4","last_reported":1736352688,"current_range_meters":38800,"station_id":"ce4bhh92rcd13ifvqfi0","pricing_plan_id":"cebpf4jnsgd1na2vs0mg"},{"bike_id":"00078eda-2ff6-4cf3-a5b4-64f4b7f5c985","system_id":"levelo_inurba_marseille","lat":43.29513,"lon":5.39392,"is_reserved":false,"is_disabled":true,"rental_uris":{"android":"levelo://app?vid=00078eda-2ff6-4cf3-a5b4-64f4b7f5c985","ios":"levelo://app?vid=00078eda-2ff6-4cf3-a5b4-64f4b7f5c985"},"vehicle_type_id":"4","last_reported":1736352688,"current_range_meters":4000,"station_id":"ce4bh292rcd13ifvqdf0","pricing_plan_id":"cebpf4jnsgd1na2vs0mg"},{"bike_id":"1503ad97-5730-4c9b-9999-7064ebe2cad5","system_id":"levelo_inurba_marseille","lat":43.29408,"lon":5.38633,"is_reserved":false,"is_disabled":false,"rental_uris":{"android":"levelo://app?vid=1503ad97-5730-4c9b-9999-7064ebe2cad5","ios":"levelo://app?vid=1503ad97-5730-4c9b-9999-7064ebe2cad5"},"vehicle_type_id":"4","last_reported":1736352688,"current_range_meters":17600,"station_id":"ce4bh2h2rcd13ifvqdh0","pricing_plan_id":"cebpf4jnsgd1na2vs0mg"},{"bike_id":"c2a7d9e7-4327-4946-89c8-36c870c045a8","system_id":"levelo_inurba_marseille","lat":43.25929,"lon":5.40859,"is_reserved":false,"is_disabled":false,"rental_uris":{"android":"levelo://app?vid=c2a7d9e7-4327-4946-89c8-36c870c045a8","ios":"levelo://app?vid=c2a7d9e7-4327-4946-89c8-36c870c045a8"},"vehicle_type_id":"4","last_reported":1736352688,"current_range_meters":28400,"station_id":"ce4bhm92rcd13ifvqglg","pricing_plan_id":"cebpf4jnsgd1na2vs0mg"},{"bike_id":"6f4f7cd4-04bd-4ff2-888a-2e933861228e","system_id":"levelo_inurba_marseille","lat":43.30356,"lon":5.41883,"is_reserved":false,"is_disabled":false,"rental_uris":{"android":"levelo://app?vid=6f4f7cd4-04bd-4ff2-888a-2e933861228e","ios":"levelo://app?vid=6f4f7cd4-04bd-4ff2-888a-2e933861228e"},"vehicle_type_id":"4","last_reported":1736352688,"current_range_meters":28000,"station_id":"ce4bhop2rcd13ifvqh7g","pricing_plan_id":"cebpf4jnsgd1na2vs0mg"},{"bike_id":"50c34ebb-5ab3-4c5f-bb8d-95c2d360e913","system_id":"levelo_inurba_marseille","lat":43.24657,"lon":5.389,"is_reserved":false,"is_disabled":false,"rental_uris":{"android":"levelo://app?vid=50c34ebb-5ab3-4c5f-bb8d-95c2d360e913","ios":"levelo://app?vid=50c34ebb-5ab3-4c5f-bb8d-95c2d360e913"},"vehicle_type_id":"4","last_reported":1736352688,"current_range_meters":39200,"station_id":"ce4bhg12rcd13ifvqf60","pricing_plan_id":"cebpf4jnsgd1na2vs0mg"},{"bike_id":"c9a9b866-78de-4142-b4b0-d265a4ec9669","system_id":"levelo_inurba_marseille","lat":43.29825,"lon":5.43703,"is_reserved":false,"is_disabled":false,"rental_uris":{"android":"levelo://app?vid=c9a9b866-78de-4142-b4b0-d265a4ec9669","ios":"levelo://app?vid=c9a9b866-78de-4142-b4b0-d265a4ec9669"},"vehicle_type_id":"4","last_reported":1736352688,"current_range_meters":16400,"station_id":"","pricing_plan_id":"cebpf4jnsgd1na2vs0mg"},{"bike_id":"e9fad1e2-4dc7-4f19-a657-eac573518993","system_id":"levelo_inurba_marseille","lat":43.26487,"lon":5.3955,"is_reserved":false,"is_disabled":false,"rental_uris":{"android":"levelo://app?vid=e9fad1e2-4dc7-4f19-a657-eac573518993","ios":"levelo://app?vid=e9fad1e2-4dc7-4f19-a657-eac573518993"},"vehicle_type_id":"4","last_reported":1736352688,"current_range_meters":17600,"station_id":"ce4bhi12rcd13ifvqfq0","pricing_plan_id":"cebpf4jnsgd1na2vs0mg"},{"bike_id":"20adb5be-d904-46a9-b08c-a717b9364494","system_id":"levelo_inurba_marseille","lat":43.27206,"lon":5.3919,"is_reserved":false,"is_disabled":true,"rental_uris":{"android":"levelo://app?vid=20adb5be-d904-46a9-b08c-a717b9364494","ios":"levelo://app?vid=20adb5be-d904-46a9-b08c-a717b9364494"},"vehicle_type_id":"4","last_reported":1736352688,"current_range_meters":800,"station_id":"ce4bhhp2rcd13ifvqfm0","pricing_plan_id":"cebpf4jnsgd1na2vs0mg"},{"bike_id":"a182a1fd-ef07-4d89-93fc-b80046ed0ade","system_id":"levelo_inurba_marseille","lat":43.26805,"lon":5.402721,"is_reserved":false,"is_disabled":false,"rental_uris":{"android":"levelo://app?vid=a182a1fd-ef07-4d89-93fc-b80046ed0ade","ios":"levelo://app?vid=a182a1fd-ef07-4d89-93fc-b80046ed0ade"},"vehicle_type_id":"4","last_reported":1736352688,"current_range_meters":33600,"station_id":"ce501612rcd8frsf0b60","pricing_plan_id":"cebpf4jnsgd1na2vs0mg"},{"bike_id":"ef006d64-66ae-4aab-93c7-1f8fb577dba7","system_id":"levelo_inurba_marseille","lat":43.27896,"lon":5.38005,"is_reserved":false,"is_disabled":false,"rental_uris":{"android":"levelo://app?vid=ef006d64-66ae-4aab-93c7-1f8fb577dba7","ios":"levelo://app?vid=ef006d64-66ae-4aab-93c7-1f8fb577dba7"},"vehicle_type_id":"4","last_reported":1736352688,"current_range_meters":8000,"station_id":"ce4bhf92rcd13ifvqf50","pricing_plan_id":"cebpf4jnsgd1na2vs0mg"},{"bike_id":"c833d07d-e828-4a83-a675-76086963257a","system_id":"levelo_inurba_marseille","lat":43.24552,"lon":5.39501,"is_reserved":false,"is_disabled":false,"rental_uris":{"android":"levelo://app?vid=c833d07d-e828-4a83-a675-76086963257a","ios":"levelo://app?vid=c833d07d-e828-4a83-a675-76086963257a"},"vehicle_type_id":"4","last_reported":1736352688,"current_range_meters":38800,"station_id":"ce4bhlp2rcd13ifvqgjg","pricing_plan_id":"cebpf4jnsgd1na2vs0mg"},{"bike_id":"af751043-fb90-46f1-b529-a109fc2fef21","system_id":"levelo_inurba_marseille","lat":43.2904,"lon":5.37566,"is_reserved":false,"is_disabled":false,"rental_uris":{"android":"levelo://app?vid=af751043-fb90-46f1-b529-a109fc2fef21","ios":"levelo://app?vid=af751043-fb90-46f1-b529-a109fc2fef21"},"vehicle_type_id":"4","last_reported":1736352688,"current_range_meters":4400,"station_id":"ce4bh692rcd13ifvqe90","pricing_plan_id":"cebpf4jnsgd1na2vs0mg"},{"bike_id":"4f3f1397-3d29-4b8e-ad89-2dd14f11b6c5","system_id":"levelo_inurba_marseille","lat":43.27675,"lon":5.38883,"is_reserved":false,"is_disabled":false,"rental_uris":{"android":"levelo://app?vid=4f3f1397-3d29-4b8e-ad89-2dd14f11b6c5","ios":"levelo://app?vid=4f3f1397-3d29-4b8e-ad89-2dd14f11b6c5"},"vehicle_type_id":"4","last_reported":1736352688,"current_range_meters":24400,"station_id":"ce4bhi12rcd13ifvqfo0","pricing_plan_id":"cebpf4jnsgd1na2vs0mg"},{"bike_id":"e7bf0cdb-94e3-4c98-af70-0b5528bb8e8f","system_id":"levelo_inurba_marseille","lat":43.31328,"lon":5.39723,"is_reserved":false,"is_disabled":false,"rental_uris":{"android":"levelo://app?vid=e7bf0cdb-94e3-4c98-af70-0b5528bb8e8f","ios":"levelo://app?vid=e7bf0cdb-94e3-4c98-af70-0b5528bb8e8f"},"vehicle_type_id":"4","last_reported":1736352688,"current_range_meters":20000,"station_id":"ce4bgvp2rcd13ifvqcu0","pricing_plan_id":"cebpf4jnsgd1na2vs0mg"},{"bike_id":"567dbc2a-6c6d-41de-a127-a286ce1ae190","system_id":"levelo_inurba_marseille","lat":43.28002,"lon":5.40034,"is_reserved":false,"is_disabled":false,"rental_uris":{"android":"levelo://app?vid=567dbc2a-6c6d-41de-a127-a286ce1ae190","ios":"levelo://app?vid=567dbc2a-6c6d-41de-a127-a286ce1ae190"},"vehicle_type_id":"4","last_reported":1736352688,"current_range_meters":9200,"station_id":"ce4bho92rcd13ifvqh4g","pricing_plan_id":"cebpf4jnsgd1na2vs0mg"},{"bike_id":"fc4f973c-c491-4458-ba80-cfebf7c8dd0d","system_id":"levelo_inurba_marseille","lat":43.22935,"lon":5.35373,"is_reserved":false,"is_disabled":true,"rental_uris":{"android":"levelo://app?vid=fc4f973c-c491-4458-ba80-cfebf7c8dd0d","ios":"levelo://app?vid=fc4f973c-c491-4458-ba80-cfebf7c8dd0d"},"vehicle_type_id":"4","last_reported":1736352688,"current_range_meters":400,"station_id":"cpo3532slgdg3j2ikp40","pricing_plan_id":"cebpf4jnsgd1na2vs0mg"},{"bike_id":"f95277d2-6f50-4971-a5d0-0408234d7c69","system_id":"levelo_inurba_marseille","lat":43.26813,"lon":5.4022,"is_reserved":false,"is_disabled":false,"rental_uris":{"android":"levelo://app?vid=f95277d2-6f50-4971-a5d0-0408234d7c69","ios":"levelo://app?vid=f95277d2-6f50-4971-a5d0-0408234d7c69"},"vehicle_type_id":"4","last_reported":1736352688,"current_range_meters":18000,"station_id":"ce501612rcd8frsf0b60","pricing_plan_id":"cebpf4jnsgd1na2vs0mg"},{"bike_id":"63da2ccd-322f-4664-8fc3-e2e18e3c4164","system_id":"levelo_inurba_marseille","lat":43.28568,"lon":5.39497,"is_reserved":false,"is_disabled":false,"rental_uris":{"android":"levelo://app?vid=63da2ccd-322f-4664-8fc3-e2e18e3c4164","ios":"levelo://app?vid=63da2ccd-322f-4664-8fc3-e2e18e3c4164"},"vehicle_type_id":"4","last_reported":1736352688,"current_range_meters":28800,"station_id":"ce4bh292rcd13ifvqdg0","pricing_plan_id":"cebpf4jnsgd1na2vs0mg"},{"bike_id":"eb700a83-d115-4392-bd52-c7a8ef04eacc","system_id":"levelo_inurba_marseille","lat":43.26798,"lon":5.39435,"is_reserved":false,"is_disabled":false,"rental_uris":{"android":"levelo://app?vid=eb700a83-d115-4392-bd52-c7a8ef04eacc","ios":"levelo://app?vid=eb700a83-d115-4392-bd52-c7a8ef04eacc"},"vehicle_type_id":"4","last_reported":1736352688,"current_range_meters":11600,"station_id":"ce4bhh12rcd13ifvqfg0","pricing_plan_id":"cebpf4jnsgd1na2vs0mg"},{"bike_id":"5c50c34b-891f-4b03-a326-1b3f3e73e4f8","system_id":"levelo_inurba_marseille","lat":43.29163,"lon":5.37159,"is_reserved":false,"is_disabled":false,"rental_uris":{"android":"levelo://app?vid=5c50c34b-891f-4b03-a326-1b3f3e73e4f8","ios":"levelo://app?vid=5c50c34b-891f-4b03-a326-1b3f3e73e4f8"},"vehicle_type_id":"4","last_reported":1736352688,"current_range_meters":38000,"station_id":"ce4bha92rcd13ifvqeh0","pricing_plan_id":"cebpf4jnsgd1na2vs0mg"},{"bike_id":"fc7ae45b-afc1-49a3-97d8-11832ea99abb","system_id":"levelo_inurba_marseille","lat":43.29853,"lon":5.36281,"is_reserved":false,"is_disabled":true,"rental_uris":{"android":"levelo://app?vid=fc7ae45b-afc1-49a3-97d8-11832ea99abb","ios":"levelo://app?vid=fc7ae45b-afc1-49a3-97d8-11832ea99abb"},"vehicle_type_id":"4","last_reported":1736352688,"current_range_meters":36800,"station_id":"ce4bgpp2rcd13ifvqc3g","pricing_plan_id":"cebpf4jnsgd1na2vs0mg"},{"bike_id":"6fdecff2-2545-405f-8c66-4d246590b289","system_id":"levelo_inurba_marseille","lat":43.24166,"lon":5.36404,"is_reserved":false,"is_disabled":false,"rental_uris":{"android":"levelo://app?vid=6fdecff2-2545-405f-8c66-4d246590b289","ios":"levelo://app?vid=6fdecff2-2545-405f-8c66-4d246590b289"},"vehicle_type_id":"4","last_reported":1736352688,"current_range_meters":24000,"station_id":"cpo36qri1sfpv3e86is0","pricing_plan_id":"cebpf4jnsgd1na2vs0mg"},{"bike_id":"5fdebe0d-c94a-4338-87e3-57cc2425f0f6","system_id":"levelo_inurba_marseille","lat":43.29981,"lon":5.37187,"is_reserved":false,"is_disabled":false,"rental_uris":{"android":"levelo://app?vid=5fdebe0d-c94a-4338-87e3-57cc2425f0f6","ios":"levelo://app?vid=5fdebe0d-c94a-4338-87e3-57cc2425f0f6"},"vehicle_type_id":"4","last_reported":1736352688,"current_range_meters":18000,"station_id":"ce4bgr92rcd13ifvqc7g","pricing_plan_id":"cebpf4jnsgd1na2vs0mg"},{"bike_id":"c62b7144-ccf8-4fb1-ae70-3ec671fa919c","system_id":"levelo_inurba_marseille","lat":43.24798,"lon":5.37441,"is_reserved":false,"is_disabled":false,"rental_uris":{"android":"levelo://app?vid=c62b7144-ccf8-4fb1-ae70-3ec671fa919c","ios":"levelo://app?vid=c62b7144-ccf8-4fb1-ae70-3ec671fa919c"},"vehicle_type_id":"4","last_reported":1736352688,"current_range_meters":32400,"station_id":"ce4bhgh2rcd13ifvqfb0","pricing_plan_id":"cebpf4jnsgd1na2vs0mg"},