{"last_updated":1734642488,"ttl":60,"version":"2.2","data":{"bikes":[{"bike_id":"ce3ad4fb-407d-452a-9b24-6f0170e14c82","system_id":"levelo_inurba_marseille","lat":43.28856,"lon":5.39314,"is_reserved":false,"is_disabled":false,"rental_uris":{"android":"levelo://app?vid=ce3ad4fb-407d-452a-9b24-6f0170e14c82","ios":"levelo://app?vid=ce3ad4fb-407d-452a-9b24-6f0170e14c82"},"vehicle_type_id":"4","last_reported":1734642488,"current_range_meters":24800,"station_id":"ce4bh2p2rcd13ifvqdi0","pricing_plan_id":"cebpf4jnsgd1na2vs0mg"},{"bike_id":"74dc27b5-e2a4-4b1e-9dc3-5894ac4bda0a","system_id":"levelo_inurba_marseille","lat":43.29797,"lon":5.37257,"is_reserved":false,"is_disabled":true,"rental_uris":{"android":"levelo://app?vid=74dc27b5-e2a4-4b1e-9dc3-5894ac4bda0a","ios":"levelo://app?vid=74dc27b5-e2a4-4b1e-9dc3-5894ac4bda0a"},"vehicle_type_id":"4","last_reported":1734642488,"current_range_meters":0,"station_id":"","pricing_plan_id":"cebpf4jnsgd1na2vs0mg"},{"bike_id":"eb156c91-5c91-4664-a66b-8fb17c1b7811","system_id":"levelo_inurba_marseille","lat":43.28444,"lon":5.39189,"is_reserved":false,"is_disabled":false,"rental_uris":{"android":"levelo://app?vid=eb156c91-5c91-4664-a66b-8fb17c1b7811","ios":"levelo://app?vid=eb156c91-5c91-4664-a66b-8fb17c1b7811"},"vehicle_type_id":"4","last_reported":1734642488,"current_range_meters":38800,"station_id":"ce4bhoh2rcd13ifvqh5g","pricing_plan_id":"cebpf4jnsgd1na2vs0mg"},{"bike_id":"d8e2b32b-975c-4ebb-8a62-f249de1e3a1d","system_id":"levelo_inurba_marseille","lat":43.28459,"lon":5.35881,"is_reserved":false,"is_disabled":false,"rental_uris":{"android":"levelo://app?vid=d8e2b32b-975c-4ebb-8a62-f249de1e3a1d","ios":"levelo://app?vid=d8e2b32b-975c-4ebb-8a62-f249de1e3a1d"},"vehicle_type_id":"4","last_reported":1734642488,"current_range_meters":24800,"station_id":"ce4bhah2rcd13ifvqei0","pricing_plan_id":"cebpf4jnsgd1na2vs0mg"},{"bike_id":"26820210-ecc1-45e6-ba91-b125210aa70f","system_id":"levelo_inurba_marseille","lat":43.3237,"lon":5.3887,"is_reserved":false,"is_disabled":false,"rental_uris":{"android":"levelo://app?vid=26820210-ecc1-45e6-ba91-b125210aa70f","ios":"levelo://app?vid=26820210-ecc1-45e6-ba91-b125210aa70f"},"vehicle_type_id":"4","last_reported":1734642488,"current_range_meters":37600,"station_id":"ce4bhqp2rcd13ifvqhog","pricing_plan_id":"cebpf4jnsgd1na2vs0mg"},{"bike_id":"bcf311ce-7da6-4b77-86ac-5310e5fffbc2","system_id":"levelo_inurba_marseille","lat":43.30924,"lon":5.40178,"is_reserved":false,"is_disabled":false,"rental_uris":{"android":"levelo://app?vid=bcf311ce-7da6-4b77-86ac-5310e5fffbc2","ios":"levelo://app?vid=bcf311ce-7da6-4b77-86ac-5310e5fffbc2"},"vehicle_type_id":"4","last_reported":1734642488,"current_range_meters":38800,"station_id":"ce4bgvp2rcd13ifvqct0","pricing_plan_id":"cebpf4jnsgd1na2vs0mg"},{"bike_id":"0b3c962c-40d1-4375-b60d-644d72aaacf1","system_id":"levelo_inurba_marseille","lat":43.28012,"lon":5.40403,"is_reserved":false,"is_disabled":true,"rental_uris":{"android":"levelo://app?vid=0b3c962c-40d1-4375-b60d-644d72aaacf1","ios":"levelo://app?vid=0b3c962c-40d1-4375-b60d-644d72aaacf1"},"vehicle_type_id":"4","last_reported":1734642488,"current_range_meters":0,"station_id":"","pricing_plan_id":"cebpf4jnsgd1na2vs0mg"},{"bike_id":"67ab154a-5ebb-400b-8fe1-02ec2579bea3","system_id":"levelo_inurba_marseille","lat":43.31277,"lon":5.40164,"is_reserved":false,"is_disabled":false,"rental_uris":{"android":"levelo://app?vid=67ab154a-5ebb-400b-8fe1-02ec2579bea3","ios":"levelo://app?vid=67ab154a-5ebb-400b-8fe1-02ec2579bea3"},"vehicle_type_id":"4","last_reported":1734642488,"current_range_meters":39200,"station_id":"ce4bh092rcd13ifvqd30","pricing_plan_id":"cebpf4jnsgd1na2vs0mg"},{"bike_id":"b3ca4fe4-550c-42a3-b98d-0ca615b243f9","system_id":"levelo_inurba_marseille","lat":43.28734,"lon":5.36085,"is_reserved":false,"is_disabled":false,"rental_uris":{"android":"levelo://app?vid=b3ca4fe4-550c-42a3-b98d-0ca615b243f9","ios":"levelo://app?vid=b3ca4fe4-550c-42a3-b98d-0ca615b243f9"},"vehicle_type_id":"4","last_reported":1734642488,"current_range_meters":21600,"station_id":"cki0cbj6b192h4jlfktg","pricing_plan_id":"cebpf4jnsgd1na2vs0mg"},{"bike_id":"5abc4305-44cb-445d-915f-5ede4fe79280","system_id":"levelo_inurba_marseille","lat":43.29802,"lon":5.37101,"is_reserved":false,"is_disabled":false,"rental_uris":{"android":"levelo://app?vid=5abc4305-44cb-445d-915f-5ede4fe79280","ios":"levelo://app?vid=5abc4305-44cb-445d-915f-5ede4fe79280"},"vehicle_type_id":"4","last_reported":1734642488,"current_range_meters":16400,"station_id":"ce4bgop2rcd13ifvqc1g","pricing_plan_id":"cebpf4jnsgd1na2vs0mg"},{"bike_id":"6dbd45f5-882d-4325-9c7e-f0f72386c6da","system_id":"levelo_inurba_marseille","lat":43.23866,"lon":5.37403,"is_reserved":false,"is_disabled":false,"rental_uris":{"android":"levelo://app?vid=6dbd45f5-882d-4325-9c7e-f0f72386c6da","ios":"levelo://app?vid=6dbd45f5-882d-4325-9c7e-f0f72386c6da"},"vehicle_type_id":"4","last_reported":1734642488,"current_range_meters":7200,"station_id":"","pricing_plan_id":"cebpf4jnsgd1na2vs0mg"},{"bike_id":"1cdfd12b-6391-4ec2-a79d-92933987f841","system_id":"levelo_inurba_marseille","lat":43.29606,"lon":5.36742,"is_reserved":false,"is_disabled":false,"rental_uris":{"android":"levelo://app?vid=1cdfd12b-6391-4ec2-a79d-92933987f841","ios":"levelo://app?vid=1cdfd12b-6391-4ec2-a79d-92933987f841"},"vehicle_type_id":"4","last_reported":1734642488,"current_range_meters":39200,"station_id":"ce4bgph2rcd13ifvqc2g","pricing_plan_id":"cebpf4jnsgd1na2vs0mg"},{"bike_id":"01b0ec31-8514-452a-a545-341b5c177c7b","system_id":"levelo_inurba_marseille","lat":43.27435,"lon":5.39413,"is_reserved":false,"is_disabled":false,"rental_uris":{"android":"levelo://app?vid=01b0ec31-8514-452a-a545-341b5c177c7b","ios":"levelo://app?vid=01b0ec31-8514-452a-a545-341b5c177c7b"},"vehicle_type_id":"4","last_reported":1734642488,"current_range_meters":38800,"station_id":"ce4bhdp2rcd13ifvqf20","pricing_plan_id":"cebpf4jnsgd1na2vs0mg"},{"bike_id":"93cd12d2-ee52-454b-a1c6-a2a94b1185da","system_id":"levelo_inurba_marseille","lat":43.24819,"lon":5.37453,"is_reserved":false,"is_disabled":false,"rental_uris":{"android":"levelo://app?vid=93cd12d2-ee52-454b-a1c6-a2a94b1185da","ios":"levelo://app?vid=93cd12d2-ee52-454b-a1c6-a2a94b1185da"},"vehicle_type_id":"4","last_reported":1734642488,"current_range_meters":39200,"station_id":"ce4bhgh2rcd13ifvqfb0","pricing_plan_id":"cebpf4jnsgd1na2vs0mg"},{"bike_id":"02bf8158-426b-4335-9b97-c473816a1fd2","system_id":"levelo_inurba_marseille","lat":43.25871,"lon":5.39503,"is_reserved":false,"is_disabled":false,"rental_uris":{"android":"levelo://app?vid=02bf8158-426b-4335-9b97-c473816a1fd2","ios":"levelo://app?vid=02bf8158-426b-4335-9b97-c473816a1fd2"},"vehicle_type_id":"4","last_reported":1734642488,"current_range_meters":38800,"station_id":"ce4bhip2rcd13ifvqft0","pricing_plan_id":"cebpf4jnsgd1na2vs0mg"},{"bike_id":"5b3c1ffc-f106-4d19-bf23-7476188deeb8","system_id":"levelo_inurba_marseille","lat":43.308863,"lon":5.378124,"is_reserved":false,"is_disabled":false,"rental_uris":{"android":"levelo://app?vid=5b3c1ffc-f106-4d19-bf23-7476188deeb8","ios":"levelo://app?vid=5b3c1ffc-f106-4d19-bf23-7476188deeb8"},"vehicle_type_id":"4","last_reported":1734642488,"current_range_meters":20800,"station_id":"","pricing_plan_id":"cebpf4jnsgd1na2vs0mg"},{"bike_id":"53c5dd90-208e-4b14-9aec-3133385e99e3","system_id":"levelo_inurba_marseille","lat":43.29563,"lon":5.4228,"is_reserved":false,"is_disabled":false,"rental_uris":{"android":"levelo://app?vid=53c5dd90-208e-4b14-9aec-3133385e99e3","ios":"levelo://app?vid=53c5dd90-208e-4b14-9aec-3133385e99e3"},"vehicle_type_id":"4","last_reported":1734642488,"current_range_meters":38000,"station_id":"ce4bhph2rcd13ifvqhdg","pricing_plan_id":"cebpf4jnsgd1na2vs0mg"},{"bike_id":"7609a639-2c5b-452a-98fd-96e0760d1c95","system_id":"levelo_inurba_marseille","lat":43.30131,"lon":5.39857,"is_reserved":false,"is_disabled":false,"rental_uris":{"android":"levelo://app?vid=7609a639-2c5b-452a-98fd-96e0760d1c95","ios":"levelo://app?vid=7609a639-2c5b-452a-98fd-96e0760d1c95"},"vehicle_type_id":"4","last_reported":1734642488,"current_range_meters":24000,"station_id":"ce4bh0h2rcd13ifvqd40","pricing_plan_id":"cebpf4jnsgd1na2vs0mg"},{"bike_id":"cc3fa2e6-b492-4bfb-aaa2-b9a694b168ca","system_id":"levelo_inurba_marseille","lat":43.28355,"lon":5.38119,"is_reserved":false,"is_disabled":false,"rental_uris":{"android":"levelo://app?vid=cc3fa2e6-b492-4bfb-aaa2-b9a694b168ca","ios":"levelo://app?vid=cc3fa2e6-b492-4bfb-aaa2-b9a694b168ca"},"vehicle_type_id":"4","last_reported":1734642488,"current_range_meters":32000,"station_id":"ce4bh412rcd13ifvqdr0","pricing_plan_id":"cebpf4jnsgd1na2vs0mg"},{"bike_id":"3e4f676d-42a7-4985-b794-0ba08e8e5a0c","system_id":"levelo_inurba_marseille","lat":43.29278,"lon":5.40111,"is_reserved":false,"is_disabled":false,"rental_uris":{"android":"levelo://app?vid=3e4f676d-42a7-4985-b794-0ba08e8e5a0c","ios":"levelo://app?vid=3e4f676d-42a7-4985-b794-0ba08e8e5a0c"},"vehicle_type_id":"4","last_reported":1734642488,"current_range_meters":22000,"station_id":"ce4bh312rcd13ifvqdk0","pricing_plan_id":"cebpf4jnsgd1na2vs0mg"},{"bike_id":"ed705206-44e5-4571-b7f9-8f68d933bad2","system_id":"levelo_inurba_marseille","lat":43.31068,"lon":5.38349,"is_reserved":false,"is_disabled":false,"rental_uris":{"android":"levelo://app?vid=ed705206-44e5-4571-b7f9-8f68d933bad2","ios":"levelo://app?vid=ed705206-44e5-4571-b7f9-8f68d933bad2"},"vehicle_type_id":"4","last_reported":1734642488,"current_range_meters":24400,"station_id":"ce4bgv92rcd13ifvqcr0","pricing_plan_id":"cebpf4jnsgd1na2vs0mg"},{"bike_id":"77a61cc1-836d-4826-a8a3-4913a33b3db8","system_id":"levelo_inurba_marseille","lat":43.29029,"lon":5.37555,"is_reserved":false,"is_disabled":false,"rental_uris":{"android":"levelo://app?vid=77a61cc1-836d-4826-a8a3-4913a33b3db8","ios":"levelo://app?vid=77a61cc1-836d-4826-a8a3-4913a33b3db8"},"vehicle_type_id":"4","last_reported":1734642488,"current_range_meters":38000,"station_id":"ce4bh692rcd13ifvqe90","pricing_plan_id":"cebpf4jnsgd1na2vs0mg"},{"bike_id":"85f27a5d-9af7-4b09-a20c-f802a8f11d6d","system_id":"levelo_inurba_marseille","lat":43.32662,"lon":5.40986,"is_reserved":false,"is_disabled":false,"rental_uris":{"android":"levelo://app?vid=85f27a5d-9af7-4b09-a20c-f802a8f11d6d","ios":"levelo://app?vid=85f27a5d-9af7-4b09-a20c-f802a8f11d6d"},"vehicle_type_id":"4","last_reported":1734642488,"current_range_meters":16000,"station_id":"ce4bhpp2rcd13ifvqhgg","pricing_plan_id":"cebpf4jnsgd1na2vs0mg"},{"bike_id":"d34bdf4f-71bc-4ae4-b273-f3852ddc692a","system_id":"levelo_inurba_marseille","lat":43.33756,"lon":5.37472,"is_reserved":false,"is_disabled":false,"rental_uris":{"android":"levelo://app?vid=d34bdf4f-71bc-4ae4-b273-f3852ddc692a","ios":"levelo://app?vid=d34bdf4f-71bc-4ae4-b273-f3852ddc692a"},"vehicle_type_id":"4","last_reported":1734642488,"current_range_meters":36000,"station_id":"","pricing_plan_id":"cebpf4jnsgd1na2vs0mg"},{"bike_id":"f64d73d0-f96c-4455-a454-0974d8a22425","system_id":"levelo_inurba_marseille","lat":43.30663,"lon":5.36846,"is_reserved":false,"is_disabled":true,"rental_uris":{"android":"levelo://app?vid=f64d73d0-f96c-4455-a454-0974d8a22425","ios":"levelo://app?vid=f64d73d0-f96c-4455-a454-0974d8a22425"},"vehicle_type_id":"4","last_reported":1734642488,"current_range_meters":0,"station_id":"","pricing_plan_id":"cebpf4jnsgd1na2vs0mg"},{"bike_id":"64ede71d-097c-4cc5-9d7f-15e785be5875","system_id":"levelo_inurba_marseille","lat":43.29572,"lon":5.39969,"is_reserved":false,"is_disabled":false,"rental_uris":{"android":"levelo://app?vid=64ede71d-097c-4cc5-9d7f-15e785be5875","ios":"levelo://app?vid=64ede71d-097c-4cc5-9d7f-15e785be5875"},"vehicle_type_id":"4","last_reported":1734642488,"current_range_meters":19200,"station_id":"ce4bh312rcd13ifvqdj0","pricing_plan_id":"cebpf4jnsgd1na2vs0mg"},{"bike_id":"c7a472ed-6dc3-4cde-83b8-4deb8af0b49b","system_id":"levelo_inurba_marseille","lat":43.24385,"lon":5.37063,"is_reserved":false,"is_disabled":false,"rental_uris":{"android":"levelo://app?vid=c7a472ed-6dc3-4cde-83b8-4deb8af0b49b","ios":"levelo://app?vid=c7a472ed-6dc3-4cde-83b8-4deb8af0b49b"},"vehicle_type_id":"4","last_reported":1734642488,"current_range_meters":24400,"station_id":"ce4bhhh2rcd13ifvqfk0","pricing_plan_id":"cebpf4jnsgd1na2vs0mg"},{"bike_id":"72fe9c1f-18bb-4fe5-853a-b05e2d7a6744","system_id":"levelo_inurba_marseille","lat":43.31659,"lon":5.40496,"is_reserved":false,"is_disabled":false,"rental_uris":{"android":"levelo://app?vid=72fe9c1f-18bb-4fe5-853a-b05e2d7a6744","ios":"levelo://app?vid=72fe9c1f-18bb-4fe5-853a-b05e2d7a6744"},"vehicle_type_id":"4","last_reported":1734642488,"current_range_meters":38800,"station_id":"ce4bh012rcd13ifvqd00","pricing_plan_id":"cebpf4jnsgd1na2vs0mg"},{"bike_id":"cab9e6ce-0220-464b-a267-42775b277e8b","system_id":"levelo_inurba_marseille","lat":43.28,"lon":5.4166,"is_reserved":false,"is_disabled":false,"rental_uris":{"android":"levelo://app?vid=cab9e6ce-0220-464b-a267-42775b277e8b","ios":"levelo://app?vid=cab9e6ce-0220-464b-a267-42775b277e8b"},"vehicle_type_id":"4","last_reported":1734642488,"current_range_meters":38800,"station_id":"ce4bho12rcd13ifvqh1g","pricing_plan_id":"cebpf4jnsgd1na2vs0mg"},{"bike_id":"b042baac-48e3-41d4-beca-2c2cc4a183f1","system_id":"levelo_inurba_marseille","lat":43.23199,"lon":5.35547,"is_reserved":false,"is_disabled":false,"rental_uris":{"android":"levelo://app?vid=b042baac-48e3-41d4-beca-2c2cc4a183f1","ios":"levelo://app?vid=b042baac-48e3-41d4-beca-2c2cc4a183f1"},"vehicle_type_id":"4","last_reported":1734642488,"current_range_meters":38800,"station_id":"ce4bhu92rcd13ifvqi70","pricing_plan_id":"cebpf4jnsgd1na2vs0mg"},{"bike_id":"3f443adb-8044-4158-a85a-9b8bba412b74","system_id":"levelo_inurba_marseille","lat":43.30415,"lon":5.41281,"is_reserved":false,"is_disabled":false,"rental_uris":{"android":"levelo://app?vid=3f443adb-8044-4158-a85a-9b8bba412b74","ios":"levelo://app?vid=3f443adb-8044-4158-a85a-9b8bba412b74"},"vehicle_type_id":"4","last_reported":1734642488,"current_range_meters":35600,"station_id":"ce4bhop2rcd13ifvqh8g","pricing_plan_id":"cebpf4jnsgd1na2vs0mg"},{"bike_id":"b0a13592-7cce-4d9c-b407-7810a71613ab","system_id":"levelo_inurba_marseille","lat":43.28693,"lon":5.36118,"is_reserved":false,"is_disabled":false,"rental_uris":{"android":"levelo://app?vid=b0a13592-7cce-4d9c-b407-7810a71613ab","ios":"levelo://app?vid=b0a13592-7cce-4d9c-b407-7810a71613ab"},"vehicle_type_id":"4","last_reported":1734642488,"current_range_meters":38400,"station_id":"cki0cbj6b192h4jlfktg","pricing_plan_id":"cebpf4jnsgd1na2vs0mg"},{"bike_id":"1d908478-e7ce-4ae8-966e-c7fea97fe9b6","system_id":"levelo_inurba_marseille","lat":43.31076,"lon":5.38339,"is_reserved":false,"is_disabled":false,"rental_uris":{"android":"levelo://app?vid=1d908478-e7ce-4ae8-966e-c7fea97fe9b6","ios":"levelo://app?vid=1d908478-e7ce-4ae8-966e-c7fea97fe9b6"},"vehicle_type_id":"4","last_reported":1734642488,"current_range_meters":7200,"station_id":"ce4bgv92rcd13ifvqcr0","pricing_plan_id":"cebpf4jnsgd1na2vs0mg"},{"bike_id":"48402390-8bf8-4527-8226-790169c2cea8","system_id":"levelo_inurba_marseille","lat":43.24069,"lon":5.37768,"is_reserved":false,"is_disabled":false,"rental_uris":{"android":"levelo://app?vid=48402390-8bf8-4527-8226-790169c2cea8","ios":"levelo://app?vid=48402390-8bf8-4527-8226-790169c2cea8"},"vehicle_type_id":"4","last_reported":1734642488,"current_range_meters":32800,"station_id":"ce4bhnp2rcd13ifvqgvg","pricing_plan_id":"cebpf4jnsgd1na2vs0mg"},{"bike_id":"8c4ecedf-c52e-488a-b2f9-f8570f79cdde","system_id":"levelo_inurba_marseille","lat":43.28079,"lon":5.39659,"is_reserved":false,"is_disabled":false,"rental_uris":{"android":"levelo://app?vid=8c4ecedf-c52e-488a-b2f9-f8570f79cdde","ios":"levelo://app?vid=8c4ecedf-c52e-488a-b2f9-f8570f79cdde"},"vehicle_type_id":"4","last_reported":1734642488,"current_range_meters":39200,"station_id":"ce4bho12rcd13ifvqh2g","pricing_plan_id":"cebpf4jnsgd1na2vs0mg"},{"bike_id":"3f35c514-84c7-403c-be41-f914dbb94369","system_id":"levelo_inurba_marseille","lat":43.2465,"lon":5.38907,"is_reserved":false,"is_disabled":false,"rental_uris":{"android":"levelo://app?vid=3f35c514-84c7-403c-be41-f914dbb94369","ios":"levelo://app?vid=3f35c514-84c7-403c-be41-f914dbb94369"},"vehicle_type_id":"4","last_reported":1734642488,"current_range_meters":38000,"station_id":"ce4bhg12rcd13ifvqf60","pricing_plan_id":"cebpf4jnsgd1na2vs0mg"},{"bike_id":"27572b69-5a13-49f8-ad75-4b6f705686e5","system_id":"levelo_inurba_marseille","lat":43.28107,"lon":5.37834,"is_reserved":false,"is_disabled":true,"rental_uris":{"android":"levelo://app?vid=27572b69-5a13-49f8-ad75-4b6f705686e5","ios":"levelo://app?vid=27572b69-5a13-49f8-ad75-4b6f705686e5"},"vehicle_type_id":"4","last_reported":1734642488,"current_range_meters":0,"station_id":"ce4bha12rcd13ifvqee0","pricing_plan_id":"cebpf4jnsgd1na2vs0mg"},{"bike_id":"f20cd36c-a895-444d-b8aa-a67ddb893a61","system_id":"levelo_inurba_marseille","lat":43.30644,"lon":5.401,"is_reserved":false,"is_disabled":true,"rental_uris":{"android":"levelo://app?vid=f20cd36c-a895-444d-b8aa-a67ddb893a61","ios":"levelo://app?vid=f20cd36c-a895-444d-b8aa-a67ddb893a61"},"vehicle_type_id":"4","last_reported":1734642488,"current_range_meters":7200,"station_id":"ce4bh112rcd13ifvqda0","pricing_plan_id":"cebpf4jnsgd1na2vs0mg"},{"bike_id":"16e12f51-ad12-4e66-8e8e-837d51fccc74","system_id":"levelo_inurba_marseille","lat":43.288523,"lon":5.364023,"is_reserved":false,"is_disabled":false,"rental_uris":{"android":"levelo://app?vid=16e12f51-ad12-4e66-8e8e-837d51fccc74","ios":"levelo://app?vid=16e12f51-ad12-4e66-8e8e-837d51fccc74"},"vehicle_type_id":"4","last_reported":1734642488,"current_range_meters":37600,"station_id":"ce4bhah2rcd13ifvqej0","pricing_plan_id":"cebpf4jnsgd1na2vs0mg"},{"bike_id":"45eef7a2-7813-485d-b132-f34196de9793","system_id":"levelo_inurba_marseille","lat":43.28728,"lon":5.36114,"is_reserved":false,"is_disabled":false,"rental_uris":{"android":"levelo://app?vid=45eef7a2-7813-485d-b132-f34196de9793","ios":"levelo://app?vid=45eef7a2-7813-485d-b132-f34196de9793"},"vehicle_type_id":"4","last_reported":1734642488,"current_range_meters":24000,"station_id":"cki0cbj6b192h4jlfktg","pricing_plan_id":"cebpf4jnsgd1na2vs0mg"},{"bike_id":"7d8b4789-db38-4881-a12e-8303c1c118b0","system_id":"levelo_inurba_marseille","lat":43.30314,"lon":5.36648,"is_reserved":false,"is_disabled":false,"rental_uris":{"android":"levelo://app?vid=7d8b4789-db38-4881-a12e-8303c1c118b0","ios":"levelo://app?vid=7d8b4789-db38-4881-a12e-8303c1c118b0"},"vehicle_type_id":"4","last_reported":1734642488,"current_range_meters":30000,"station_id":"","pricing_plan_id":"cebpf4jnsgd1na2vs0mg"},{"bike_id":"6c5459ab-5984-44c9-a229-59b97b67109c","system_id":"levelo_inurba_marseille","lat":43.28433,"lon":5.39168,"is_reserved":false,"is_disabled":false,"rental_uris":{"android":"levelo://app?vid=6c5459ab-5984-44c9-a229-59b97b67109c","ios":"levelo://app?vid=6c5459ab-5984-44c9-a229-59b97b67109c"},"vehicle_type_id":"4","last_reported":1734642488,"current_range_meters":3600,"station_id":"ce4bhoh2rcd13ifvqh5g","pricing_plan_id":"cebpf4jnsgd1na2vs0mg"},{"bike_id":"58b6f3a8-2b95-4b3b-9992-0c91c081074c","system_id":"levelo_inurba_marseille","lat":43.29075,"lon":5.37166,"is_reserved":false,"is_disabled":false,"rental_uris":{"android":"levelo://app?vid=58b6f3a8-2b95-4b3b-9992-0c91c081074c","ios":"levelo://app?vid=58b6f3a8-2b95-4b3b-9992-0c91c081074c"},"vehicle_type_id":"4","last_reported":1734642488,"current_range_meters":34800,"station_id":"ce4bh5p2rcd13ifvqe4g","pricing_plan_id":"cebpf4jnsgd1na2vs0mg"},{"bike_id":"44b6c3ee-7488-4157-b9ef-2f58ca2940e7","system_id":"levelo_inurba_marseille","lat":43.29259,"lon":5.38447,"is_reserved":false,"is_disabled":false,"rental_uris":{"android":"levelo://app?vid=44b6c3ee-7488-4157-b9ef-2f58ca2940e7","ios":"levelo://app?vid=44b6c3ee-7488-4157-b9ef-2f58ca2940e7"},"vehicle_type_id":"4","last_reported":1734642488,"current_range_meters":3200,"station_id":"ce4bh692rcd13ifvqea0","pricing_plan_id":"cebpf4jnsgd1na2vs0mg"},{"bike_id":"fd516522-efeb-4c3a-b168-4e7991d4eb25","system_id":"levelo_inurba_marseille","lat":43.24079,"lon":5.37752,"is_reserved":false,"is_disabled":false,"rental_uris":{"android":"levelo://app?vid=fd516522-efeb-4c3a-b168-4e7991d4eb25","ios":"levelo://app?vid=fd516522-efeb-4c3a-b168-4e7991d4eb25"},"vehicle_type_id":"4","last_reported":1734642488,"current_range_meters":23200,"station_id":"ce4bhnp2rcd13ifvqgvg","pricing_plan_id":"cebpf4jnsgd1na2vs0mg"},{"bike_id":"0ce0b7d0-4bfe-446a-a863-e10bbe23e480","system_id":"levelo_inurba_marseille","lat":43.29417,"lon":5.38631,"is_reserved":false,"is_disabled":false,"rental_uris":{"android":"levelo://app?vid=0ce0b7d0-4bfe-446a-a863-e10bbe23e480","ios":"levelo://app?vid=0ce0b7d0-4bfe-446a-a863-e10bbe23e480"},"vehicle_type_id":"4","last_reported":1734642488,"current_range_meters":4800,"station_id":"ce4bh2h2rcd13ifvqdh0","pricing_plan_id":"cebpf4jnsgd1na2vs0mg"},{"bike_id":"ef2e42d7-adfb-4e08-8992-94a17c47e449","system_id":"levelo_inurba_marseille","lat":43.26201,"lon":5.3793,"is_reserved":false,"is_disabled":false,"rental_uris":{"android":"levelo://app?vid=ef2e42d7-adfb-4e08-8992-94a17c47e449","ios":"levelo://app?vid=ef2e42d7-adfb-4e08-8992-94a17c47e449"},"vehicle_type_id":"4","last_reported":1734642488,"current_range_meters":20800,"station_id":"ce4bhjp2rcd13ifvqg90","pricing_plan_id":"cebpf4jnsgd1na2vs0mg"},{"bike_id":"e3abb7e0-9fa8-46b1-a69d-69b2f3b7f2a3","system_id":"levelo_inurba_marseille","lat":43.28113,"lon":5.37832,"is_reserved":false,"is_disabled":false,"rental_uris":{"android":"levelo://app?vid=e3abb7e0-9fa8-46b1-a69d-69b2f3b7f2a3","ios":"levelo://app?vid=e3abb7e0-9fa8-46b1-a69d-69b2f3b7f2a3"},"vehicle_type_id":"4","last_reported":1734642488,"current_range_meters":28000,"station_id":"ce4bha12rcd13ifvqee0","pricing_plan_id":"cebpf4jnsgd1na2vs0mg"},{"bike_id":"b827482b-491b-49f0-9af1-6b17ef328db5","system_id":"levelo_inurba_marseille","lat":43.2799,"lon":5.38672,"is_reserved":false,"is_disabled":false,"rental_uris":{"android":"levelo://app?vid=b827482b-491b-49f0-9af1-6b17ef328db5","ios":"levelo://app?vid=b827482b-491b-49f0-9af1-6b17ef328db5"},"vehicle_type_id":"4","last_reported":1734642488,"current_range_meters":38800,"station_id":"ce4bhg12rcd13ifvqf80","pricing_plan_id":"cebpf4jnsgd1na2vs0mg"},{"bike_id":"a96f8774-a97f-4b65-805d-d0914b73d9f5","system_id":"levelo_inurba_marseille","lat":43.29421,"lon":5.38615,"is_reserved":false,"is_disabled":false,"rental_uris":{"android":"levelo://app?vid=a96f8774-a97f-4b65-805d-d0914b73d9f5","ios":"levelo://app?vid=a96f8774-a97f-4b65-805d-d0914b73d9f5"},"vehicle_type_id":"4","last_reported":1734642488,"current_range_meters":21600,"station_id":"ce4bh2h2rcd13ifvqdh0","pricing_plan_id":"cebpf4jnsgd1na2vs0mg"},{"bike_id":"ffda3fca-b6ff-4e46-a1b0-89acd0c28db2","system_id":"levelo_inurba_marseille","lat":43.29412,"lon":5.3863,"is_reserved":false,"is_disabled":false,"rental_uris":{"android":"levelo://app?vid=ffda3fca-b6ff-4e46-a1b0-89acd0c28db2","ios":"levelo://app?vid=ffda3fca-b6ff-4e46-a1b0-89acd0c28db2"},"vehicle_type_id":"4","last_reported":1734642488,"current_range_meters":18000,"station_id":"ce4bh2h2rcd13ifvqdh0","pricing_plan_id":"cebpf4jnsgd1na2vs0mg"},{"bike_id":"c5d3dda4-9397-4823-9c8b-ea8eda2ab949","system_id":"levelo_inurba_marseille","lat":43.23957,"lon":5.36646,"is_reserved":false,"is_disabled":false,"rental_uris":{"android":"levelo://app?vid=c5d3dda4-9397-4823-9c8b-ea8eda2ab949","ios":"levelo://app?vid=c5d3dda4-9397-4823-9c8b-ea8eda2ab949"},"vehicle_type_id":"4","last_reported":1734642488,"current_range_meters":37600,"station_id":"ce4bhi12rcd13ifvqfp0","pricing_plan_id":"cebpf4jnsgd1na2vs0mg"},{"bike_id":"d6476ffb-c54d-49d0-adbe-c1aa50bd5a5e","system_id":"levelo_inurba_marseille","lat":43.29415,"lon":5.38634,"is_reserved":false,"is_disabled":false,"rental_uris":{"android":"levelo://app?vid=d6476ffb-c54d-49d0-adbe-c1aa50bd5a5e","ios":"levelo://app?vid=d6476ffb-c54d-49d0-adbe-c1aa50bd5a5e"},"vehicle_type_id":"4","last_reported":1734642488,"current_range_meters":37600,"station_id":"ce4bh2h2rcd13ifvqdh0","pricing_plan_id":"cebpf4jnsgd1na2vs0mg"},{"bike_id":"1ed2500c-6d93-4829-99f6-330416fef6bc","system_id":"levelo_inurba_marseille","lat":43.30643,"lon":5.40084,"is_reserved":false,"is_disabled":false,"rental_uris":{"android":"levelo://app?vid=1ed2500c-6d93-4829-99f6-330416fef6bc","ios":"levelo://app?vid=1ed2500c-6d93-4829-99f6-330416fef6bc"},"vehicle_type_id":"4","last_reported":1734642488,"current_range_meters":16400,"station_id":"ce4bh112rcd13ifvqda0","pricing_plan_id":"cebpf4jnsgd1na2vs0mg"},{"bike_id":"b11dec3c-37ae-4e5f-a182-7db8571c22d2","system_id":"levelo_inurba_marseille","lat":43.2991,"lon":5.4368,"is_reserved":false,"is_disabled":false,"rental_uris":{"android":"levelo://app?vid=b11dec3c-37ae-4e5f-a182-7db8571c22d2","ios":"levelo://app?vid=b11dec3c-37ae-4e5f-a182-7db8571c22d2"},"vehicle_type_id":"4","last_reported":1734642488,"current_range_meters":35200,"station_id":"ce4bhpp2rcd13ifvqhfg","pricing_plan_id":"cebpf4jnsgd1na2vs0mg"},{"bike_id":"38cd9618-79a9-4f99-a82d-b058223cf2c2","system_id":"levelo_inurba_marseille","lat":43.31278,"lon":5.40165,"is_reserved":false,"is_disabled":false,"rental_uris":{"android":"levelo://app?vid=38cd9618-79a9-4f99-a82d-b058223cf2c2","ios":"levelo://app?vid=38cd9618-79a9-4f99-a82d-b058223cf2c2"},"vehicle_type_id":"4","last_reported":1734642488,"current_range_meters":38800,"station_id":"ce4bh092rcd13ifvqd30","pricing_plan_id":"cebpf4jnsgd1na2vs0mg"},{"bike_id":"72492ff3-d3e5-4b81-822b-1d3357339451","system_id":"levelo_inurba_marseille","lat":43.2909,"lon":5.39931,"is_reserved":false,"is_disabled":true,"rental_uris":{"android":"levelo://app?vid=72492ff3-d3e5-4b81-822b-1d3357339451","ios":"levelo://app?vid=72492ff3-d3e5-4b81-822b-1d3357339451"},"vehicle_type_id":"4","last_reported":1734642488,"current_range_meters":34800,"station_id":"","pricing_plan_id":"cebpf4jnsgd1na2vs0mg"},{"bike_id":"5ad6b2aa-0559-42ee-b90e-7d6b2e938e1d","system_id":"levelo_inurba_marseille","lat":43.29571,"lon":5.39977,"is_reserved":false,"is_disabled":false,"rental_uris":{"android":"levelo://app?vid=5ad6b2aa-0559-42ee-b90e-7d6b2e938e1d","ios":"levelo://app?vid=5ad6b2aa-0559-42ee-b90e-7d6b2e938e1d"},"vehicle_type_id":"4","last_reported":1734642488,"current_range_meters":3200,"station_id":"ce4bh312rcd13ifvqdj0","pricing_plan_id":"cebpf4jnsgd1na2vs0mg"},{"bike_id":"68cc3280-8c90-422e-b1e6-051d15979724","system_id":"levelo_inurba_marseille","lat":43.23196,"lon":5.39991,"is_reserved":false,"is_disabled":false,"rental_uris":{"android":"levelo://app?vid=68cc3280-8c90-422e-b1e6-051d15979724","ios":"levelo://app?vid=68cc3280-8c90-422e-b1e6-051d15979724"},"vehicle_type_id":"4","last_reported":1734642488,"current_range_meters":20400,"station_id":"ce4bhn12rcd13ifvqgqg","pricing_plan_id":"cebpf4jnsgd1na2vs0mg"},{"bike_id":"2f3ffe14-db03-4fbe-b9e8-6285c689975c","system_id":"levelo_inurba_marseille","lat":43.31325,"lon":5.39724,"is_reserved":false,"is_disabled":false,"rental_uris":{"android":"levelo://app?vid=2f3ffe14-db03-4fbe-b9e8-6285c689975c","ios":"levelo://app?vid=2f3ffe14-db03-4fbe-b9e8-6285c689975c"},"vehicle_type_id":"4","last_reported":1734642488,"current_range_meters":18000,"station_id":"ce4bgvp2rcd13ifvqcu0","pricing_plan_id":"cebpf4jnsgd1na2vs0mg"},{"bike_id":"c6eac602-9754-4e9d-8972-87c49c925ed4","system_id":"levelo_inurba_marseille","lat":43.27813,"lon":5.4071,"is_reserved":false,"is_disabled":false,"rental_uris":{"android":"levelo://app?vid=c6eac602-9754-4e9d-8972-87c49c925ed4","ios":"levelo://app?vid=c6eac602-9754-4e9d-8972-87c49c925ed4"},"vehicle_type_id":"4","last_reported":1734642488,"current_range_meters":38800,"station_id":"ce4bhnh2rcd13ifvqgtg","pricing_plan_id":"cebpf4jnsgd1na2vs0mg"},{"bike_id":"829137e0-4e72-4164-b199-ceb19f2bf2f1","system_id":"levelo_inurba_marseille","lat":43.30786,"lon":5.37641,"is_reserved":false,"is_disabled":false,"rental_uris":{"android":"levelo://app?vid=829137e0-4e72-4164-b199-ceb19f2bf2f1","ios":"levelo://app?vid=829137e0-4e72-4164-b199-ceb19f2bf2f1"},"vehicle_type_id":"4","last_reported":1734642488,"current_range_meters":38800,"station_id":"ce4bgv92rcd13ifvqcq0","pricing_plan_id":"cebpf4jnsgd1na2vs0mg"},{"bike_id":"ea28306e-dbd4-4a4a-91e6-65cb7d489490","system_id":"levelo_inurba_marseille","lat":43.28942,"lon":5.36618,"is_reserved":false,"is_disabled":false,"rental_uris":{"android":"levelo://app?vid=ea28306e-dbd4-4a4a-91e6-65cb7d489490","ios":"levelo://app?vid=ea28306e-dbd4-4a4a-91e6-65cb7d489490"},"vehicle_type_id":"4","last_reported":1734642488,"current_range_meters":39200,"station_id":"ce4bhap2rcd13ifvqek0","pricing_plan_id":"cebpf4jnsgd1na2vs0mg"},{"bike_id":"8224f0ea-658b-4ed2-b6e1-796d18f2b69e","system_id":"levelo_inurba_marseille","lat":43.28107,"lon":5.37835,"is_reserved":false,"is_disabled":false,"rental_uris":{"android":"levelo://app?vid=8224f0ea-658b-4ed2-b6e1-796d18f2b69e","ios":"levelo://app?vid=8224f0ea-658b-4ed2-b6e1-796d18f2b69e"},"vehicle_type_id":"4","last_reported":1734642488,"current_range_meters":33200,"station_id":"ce4bha12rcd13ifvqee0","pricing_plan_id":"cebpf4jnsgd1na2vs0mg"},{"bike_id":"42d89b09-ccee-40d4-9c6c-36dfdc476453","system_id":"levelo_inurba_marseille","lat":43.29419,"lon":5.38636,"is_reserved":false,"is_disabled":false,"rental_uris":{"android":"levelo://app?vid=42d89b09-ccee-40d4-9c6c-36dfdc476453","ios":"levelo://app?vid=42d89b09-ccee-40d4-9c6c-36dfdc476453"},"vehicle_type_id":"4","last_reported":1734642488,"current_range_meters":15200,"station_id":"ce4bh2h2rcd13ifvqdh0","pricing_plan_id":"cebpf4jnsgd1na2vs0mg"},{"bike_id":"9c6cca73-42ab-4f2e-b254-1fe60ef32b35","system_id":"levelo_inurba_marseille","lat":43.289219,"lon":5.384039,"is_reserved":false,"is_disabled":false,"rental_uris":{"android":"levelo://app?vid=9c6cca73-42ab-4f2e-b254-1fe60ef32b35","ios":"levelo://app?vid=9c6cca73-42ab-4f2e-b254-1fe60ef32b35"},"vehicle_type_id":"4","last_reported":1734642488,"current_range_meters":28400,"station_id":"ce4bh612rcd13ifvqe6g","pricing_plan_id":"cebpf4jnsgd1na2vs0mg"},{"bike_id":"370b1eb6-4f45-4760-84c5-106172693f5d","system_id":"levelo_inurba_marseille","lat":43.23963,"lon":5.36637,"is_reserved":false,"is_disabled":false,"rental_uris":{"android":"levelo://app?vid=370b1eb6-4f45-4760-84c5-106172693f5d","ios":"levelo://app?vid=370b1eb6-4f45-4760-84c5-106172693f5d"},"vehicle_type_id":"4","last_reported":1734642488,"current_range_meters":26800,"station_id":"ce4bhi12rcd13ifvqfp0","pricing_plan_id":"cebpf4jnsgd1na2vs0mg"},{"bike_id":"12fffd88-e70f-4326-9e8a-6725aded36e6","system_id":"levelo_inurba_marseille","lat":43.26801,"lon":5.40272,"is_reserved":false,"is_disabled":false,"rental_uris":{"android":"levelo://app?vid=12fffd88-e70f-4326-9e8a-6725aded36e6","ios":"levelo://app?vid=12fffd88-e70f-4326-9e8a-6725aded36e6"},"vehicle_type_id":"4","last_reported":1734642488,"current_range_meters":12400,"station_id":"ce501612rcd8frsf0b60","pricing_plan_id":"cebpf4jnsgd1na2vs0mg"},{"bike_id":"782bcbf2-b7de-4b04-bebc-aaa0329dd90c","system_id":"levelo_inurba_marseille","lat":43.23203,"lon":5.355548,"is_reserved":false,"is_disabled":false,"rental_uris":{"android":"levelo://app?vid=782bcbf2-b7de-4b04-bebc-aaa0329dd90c","ios":"levelo://app?vid=782bcbf2-b7de-4b04-bebc-aaa0329dd90c"},"vehicle_type_id":"4","last_reported":1734642488,"current_range_meters":38400,"station_id":"ce4bhu92rcd13ifvqi70","pricing_plan_id":"cebpf4jnsgd1na2vs0mg"},{"bike_id":"37a27d0f-052c-4fc2-bbb9-7ae126b9828e","system_id":"levelo_inurba_marseille","lat":43.30886,"lon":5.39638,"is_reserved":false,"is_disabled":false,"rental_uris":{"android":"levelo://app?vid=37a27d0f-052c-4fc2-bbb9-7ae126b9828e","ios":"levelo://app?vid=37a27d0f-052c-4fc2-bbb9-7ae126b9828e"},"vehicle_type_id":"4","last_reported":1734642488,"current_range_meters":10000,"station_id":"ce4bh012rcd13ifvqcv0","pricing_plan_id":"cebpf4jnsgd1na2vs0mg"},{"bike_id":"67e590f7-0feb-4571-9ae2-729bb19e5be9","system_id":"levelo_inurba_marseille","lat":43.2846,"lon":5.3588,"is_reserved":false,"is_disabled":false,"rental_uris":{"android":"levelo://app?vid=67e590f7-0feb-4571-9ae2-729bb19e5be9","ios":"levelo://app?vid=67e590f7-0feb-4571-9ae2-729bb19e5be9"},"vehicle_type_id":"4","last_reported":1734642488,"current_range_meters":18800,"station_id":"ce4bhah2rcd13ifvqei0","pricing_plan_id":"cebpf4jnsgd1na2vs0mg"},{"bike_id":"f3ed4d03-fbb7-4607-89f8-c22b48e6261d","system_id":"levelo_inurba_marseille","lat":43.29971,"lon":5.38495,"is_reserved":false,"is_disabled":false,"rental_uris":{"android":"levelo://app?vid=f3ed4d03-fbb7-4607-89f8-c22b48e6261d","ios":"levelo://app?vid=f3ed4d03-fbb7-4607-89f8-c22b48e6261d"},"vehicle_type_id":"4","last_reported":1734642488,"current_range_meters":32800,"station_id":"ce4bgj92rcd13ifvqbd0","pricing_plan_id":"cebpf4jnsgd1na2vs0mg"},{"bike_id":"2fde1f92-3827-4c76-8ad9-2db1a9a74cf3","system_id":"levelo_inurba_marseille","lat":43.295507,"lon":5.374903,"is_reserved":false,"is_disabled":true,"rental_uris":{"android":"levelo://app?vid=2fde1f92-3827-4c76-8ad9-2db1a9a74cf3","ios":"levelo://app?vid=2fde1f92-3827-4c76-8ad9-2db1a9a74cf3"},"vehicle_type_id":"4","last_reported":1734642488,"current_range_meters":0,"station_id":"","pricing_plan_id":"cebpf4jnsgd1na2vs0mg"},{"bike_id":"54bdaae5-4c71-4618-a0f5-ee631d4b576e","system_id":"levelo_inurba_marseille","lat":43.29439,"lon":5.39734,"is_reserved":false,"is_disabled":false,"rental_uris":{"android":"levelo://app?vid=54bdaae5-4c71-4618-a0f5-ee631d4b576e","ios":"levelo://app?vid=54bdaae5-4c71-4618-a0f5-ee631d4b576e"},"vehicle_type_id":"4","last_reported":1734642488,"current_range_meters":21600,"station_id":"ce4bh3h2rcd13ifvqdo0","pricing_plan_id":"cebpf4jnsgd1na2vs0mg"},{"bike_id":"96ff88dc-8cf7-4b0f-a345-fa00220da932","system_id":"levelo_inurba_marseille","lat":43.27418,"lon":5.42402,"is_reserved":false,"is_disabled":true,"rental_uris":{"android":"levelo://app?vid=96ff88dc-8cf7-4b0f-a345-fa00220da932","ios":"levelo://app?vid=96ff88dc-8cf7-4b0f-a345-fa00220da932"},"vehicle_type_id":"4","last_reported":1734642488,"current_range_meters":0,"station_id":"","pricing_plan_id":"cebpf4jnsgd1na2vs0mg"},{"bike_id":"1897ad2d-5c02-4d9f-ba4c-937899dfbdc3","system_id":"levelo_inurba_marseille","lat":43.24374,"lon":5.37062,"is_reserved":false,"is_disabled":false,"rental_uris":{"android":"levelo://app?vid=1897ad2d-5c02-4d9f-ba4c-937899dfbdc3","ios":"levelo://app?vid=1897ad2d-5c02-4d9f-ba4c-937899dfbdc3"},"vehicle_type_id":"4","last_reported":1734642488,"current_range_meters":39200,"station_id":"ce4bhhh2rcd13ifvqfk0","pricing_plan_id":"cebpf4jnsgd1na2vs0mg"},{"bike_id":"65beeeaa-6e76-40b2-ae80-6ac75a3b3354","system_id":"levelo_inurba_marseille","lat":43.29447,"lon":5.39746,"is_reserved":false,"is_disabled":false,"rental_uris":{"android":"levelo://app?vid=65beeeaa-6e76-40b2-ae80-6ac75a3b3354","ios":"levelo://app?vid=65beeeaa-6e76-40b2-ae80-6ac75a3b3354"},"vehicle_type_id":"4","last_reported":1734642488,"current_range_meters":39200,"station_id":"ce4bh3h2rcd13ifvqdo0","pricing_plan_id":"cebpf4jnsgd1na2vs0mg"},{"bike_id":"e2d5bb68-b78d-4d1a-9d46-f9895ac2b623","system_id":"levelo_inurba_marseille","lat":43.28454,"lon":5.35887,"is_reserved":false,"is_disabled":false,"rental_uris":{"android":"levelo://app?vid=e2d5bb68-b78d-4d1a-9d46-f9895ac2b623","ios":"levelo://app?vid=e2d5bb68-b78d-4d1a-9d46-f9895ac2b623"},"vehicle_type_id":"4","last_reported":1734642488,"current_range_meters":38800,"station_id":"ce4bhah2rcd13ifvqei0","pricing_plan_id":"cebpf4jnsgd1na2vs0mg"},{"bike_id":"d544ae98-0128-4d06-9321-3538d08c4bd5","system_id":"levelo_inurba_marseille","lat":43.27908,"lon":5.38016,"is_reserved":false,"is_disabled":false,"rental_uris":{"android":"levelo://app?vid=d544ae98-0128-4d06-9321-3538d08c4bd5","ios":"levelo://app?vid=d544ae98-0128-4d06-9321-3538d08c4bd5"},"vehicle_type_id":"4","last_reported":1734642488,"current_range_meters":38800,"station_id":"ce4bhf92rcd13ifvqf50","pricing_plan_id":"cebpf4jnsgd1na2vs0mg"},{"bike_id":"76149aba-788f-404a-9c6c-040f61c91c7a","system_id":"levelo_inurba_marseille","lat":43.23182,"lon":5.3999,"is_reserved":false,"is_disabled":false,"rental_uris":{"android":"levelo://app?vid=76149aba-788f-404a-9c6c-040f61c91c7a","ios":"levelo://app?vid=76149aba-788f-404a-9c6c-040f61c91c7a"},"vehicle_type_id":"4","last_reported":1734642488,"current_range_meters":35200,"station_id":"ce4bhn12rcd13ifvqgqg","pricing_plan_id":"cebpf4jnsgd1na2vs0mg"},{"bike_id":"a0e02353-ac7e-4756-8dda-e0f4614b6d79","system_id":"levelo_inurba_marseille","lat":43.28951,"lon":5.3639,"is_reserved":false,"is_disabled":false,"rental_uris":{"android":"levelo://app?vid=a0e02353-ac7e-4756-8dda-e0f4614b6d79","ios":"levelo://app?vid=a0e02353-ac7e-4756-8dda-e0f4614b6d79"},"vehicle_type_id":"4","last_reported":1734642488,"current_range_meters":12000,"station_id":"ce4bhc92rcd13ifvqetg","pricing_plan_id":"cebpf4jnsgd1na2vs0mg"},{"bike_id":"52ccca9f-7c09-4d07-a40a-63dfec450a38","system_id":"levelo_inurba_marseille","lat":43.30535,"lon":5.38422,"is_reserved":false,"is_disabled":false,"rental_uris":{"android":"levelo://app?vid=52ccca9f-7c09-4d07-a40a-63dfec450a38","ios":"levelo://app?vid=52ccca9f-7c09-4d07-a40a-63dfec450a38"},"vehicle_type_id":"4","last_reported":1734642488,"current_range_meters":35600,"station_id":"ce4bgg92rcd13ifvqb30","pricing_plan_id":"cebpf4jnsgd1na2vs0mg"},{"bike_id":"7d3284d5-3f82-4c96-9ecc-ae4492d2655a","system_id":"levelo_inurba_marseille","lat":43.33025,"lon":5.390349,"is_reserved":false,"is_disabled":false,"rental_uris":{"android":"levelo://app?vid=7d3284d5-3f82-4c96-9ecc-ae4492d2655a","ios":"levelo://app?vid=7d3284d5-3f82-4c96-9ecc-ae4492d2655a"},"vehicle_type_id":"4","last_reported":1734642488,"current_range_meters":39200,"station_id":"ce4bhr92rcd13ifvqhrg","pricing_plan_id":"cebpf4jnsgd1na2vs0mg"},{"bike_id":"330bf880-e1f5-4f4a-b329-f0f879268631","system_id":"levelo_inurba_marseille","lat":43.28856,"lon":5.39324,"is_reserved":false,"is_disabled":true,"rental_uris":{"android":"levelo://app?vid=330bf880-e1f5-4f4a-b329-f0f879268631","ios":"levelo://app?vid=330bf880-e1f5-4f4a-b329-f0f879268631"},"vehicle_type_id":"4","last_reported":1734642488,"current_range_meters":18800,"station_id":"ce4bh2p2rcd13ifvqdi0","pricing_plan_id":"cebpf4jnsgd1na2vs0mg"},{"bike_id":"44127e4e-8e84-4a38-89f7-8f4efb63f7a5","system_id":"levelo_inurba_marseille","lat":43.31194,"lon":5.3676,"is_reserved":false,"is_disabled":true,"rental_uris":{"android":"levelo://app?vid=44127e4e-8e84-4a38-89f7-8f4efb63f7a5","ios":"levelo://app?vid=44127e4e-8e84-4a38-89f7-8f4efb63f7a5"},"vehicle_type_id":"4","last_reported":1734642488,"current_range_meters":0,"station_id":"","pricing_plan_id":"cebpf4jnsgd1na2vs0mg"},{"bike_id":"4c5cdf28-9f8a-48e8-9806-9dada88c6695","system_id":"levelo_inurba_marseille","lat":43.28458,"lon":5.35892,"is_reserved":false,"is_disabled":false,"rental_uris":{"android":"levelo://app?vid=4c5cdf28-9f8a-48e8-9806-9dada88c6695","ios":"levelo://app?vid=4c5cdf28-9f8a-48e8-9806-9dada88c6695"},"vehicle_type_id":"4","last_reported":1734642488,"current_range_meters":14000,"station_id":"ce4bhah2rcd13ifvqei0","pricing_plan_id":"cebpf4jnsgd1na2vs0mg"},{"bike_id":"60c24abf-7634-4c1d-be8e-3905917c0f35","system_id":"levelo_inurba_marseille","lat":43.26058,"lon":5.39389,"is_reserved":false,"is_disabled":false,"rental_uris":{"android":"levelo://app?vid=60c24abf-7634-4c1d-be8e-3905917c0f35","ios":"levelo://app?vid=60c24abf-7634-4c1d-be8e-3905917c0f35"},"vehicle_type_id":"4","last_reported":1734642488,"current_range_meters":28000,"station_id":"ce4bhh92rcd13ifvqfj0","pricing_plan_id":"cebpf4jnsgd1na2vs0mg"},{"bike_id":"672fcf6f-8699-4143-9c5f-2e6d1ee3aa80","system_id":"levelo_inurba_marseille","lat":43.30555,"lon":5.36705,"is_reserved":false,"is_disabled":true,"rental_uris":{"android":"levelo://app?vid=672fcf6f-8699-4143-9c5f-2e6d1ee3aa80","ios":"levelo://app?vid=672fcf6f-8699-4143-9c5f-2e6d1ee3aa80"},"vehicle_type_id":"4","last_reported":1734642488,"current_range_meters":38400,"station_id":"ce4bgrp2rcd13ifvqc9g","pricing_plan_id":"cebpf4jnsgd1na2vs0mg"},{"bike_id":"be3db16f-1636-4a9f-82f2-e0282dd0c7c9","system_id":"levelo_inurba_marseille","lat":43.29599,"lon":5.38107,"is_reserved":false,"is_disabled":false,"rental_uris":{"android":"levelo://app?vid=be3db16f-1636-4a9f-82f2-e0282dd0c7c9","ios":"levelo://app?vid=be3db16f-1636-4a9f-82f2-e0282dd0c7c9"},"vehicle_type_id":"4","last_reported":1734642488,"current_range_meters":19200,"station_id":"ce4bgl12rcd13ifvqbo0","pricing_plan_id":"cebpf4jnsgd1na2vs0mg"},{"bike_id":"fa450f79-0071-470a-a8a0-47379ffcc822","system_id":"levelo_inurba_marseille","lat":43.25094,"lon":5.39528,"is_reserved":false,"is_disabled":false,"rental_uris":{"android":"levelo://app?vid=fa450f79-0071-470a-a8a0-47379ffcc822","ios":"levelo://app?vid=fa450f79-0071-470a-a8a0-47379ffcc822"},"vehicle_type_id":"4","last_reported":1734642488,"current_range_meters":14400,"station_id":"ce4bhm12rcd13ifvqgkg","pricing_plan_id":"cebpf4jnsgd1na2vs0mg"},{"bike_id":"defb9ed8-50de-4040-a509-a2d631e09253","system_id":"levelo_inurba_marseille","lat":43.30181,"lon":5.36628,"is_reserved":false,"is_disabled":false,"rental_uris":{"android":"levelo://app?vid=defb9ed8-50de-4040-a509-a2d631e09253","ios":"levelo://app?vid=defb9ed8-50de-4040-a509-a2d631e09253"},"vehicle_type_id":"4","last_reported":1734642488,"current_range_meters":30000,"station_id":"ce4bgrh2rcd13ifvqc8g","pricing_plan_id":"cebpf4jnsgd1na2vs0mg"},{"bike_id":"bd828256-fc5a-49d0-9c1e-43ee23217c0e","system_id":"levelo_inurba_marseille","lat":43.29529,"lon":5.38542,"is_reserved":false,"is_disabled":false,"rental_uris":{"android":"levelo://app?vid=bd828256-fc5a-49d0-9c1e-43ee23217c0e","ios":"levelo://app?vid=bd828256-fc5a-49d0-9c1e-43ee23217c0e"},"vehicle_type_id":"4","last_reported":1734642488,"current_range_meters":33600,"station_id":"ce4bgih2rcd13ifvqba0","pricing_plan_id":"cebpf4jnsgd1na2vs0mg"},{"bike_id":"1ed431a0-c404-460c-8b06-9b7816088b4f","system_id":"levelo_inurba_marseille","lat":43.32336,"lon":5.40625,"is_reserved":false,"is_disabled":false,"rental_uris":{"android":"levelo://app?vid=1ed431a0-c404-460c-8b06-9b7816088b4f","ios":"levelo://app?vid=1ed431a0-c404-460c-8b06-9b7816088b4f"},"vehicle_type_id":"4","last_reported":1734642488,"current_range_meters":38800,"station_id":"ce4bhq92rcd13ifvqhjg","pricing_plan_id":"cebpf4jnsgd1na2vs0mg"},{"bike_id":"88d0fca1-50cd-440e-a583-785fe0c07914","system_id":"levelo_inurba_marseille","lat":43.28463,"lon":5.37944,"is_reserved":false,"is_disabled":false,"rental_uris":{"android":"levelo://app?vid=88d0fca1-50cd-440e-a583-785fe0c07914","ios":"levelo://app?vid=88d0fca1-50cd-440e-a583-785fe0c07914"},"vehicle_type_id":"4","last_reported":1734642488,"current_range_meters":7200,"station_id":"","pricing_plan_id":"cebpf4jnsgd1na2vs0mg"},{"bike_id":"62159b96-70de-4225-a341-fe8203f1c374","system_id":"levelo_inurba_marseille","lat":43.28957,"lon":5.39638,"is_reserved":false,"is_disabled":true,"rental_uris":{"android":"levelo://app?vid=62159b96-70de-4225-a341-fe8203f1c374","ios":"levelo://app?vid=62159b96-70de-4225-a341-fe8203f1c374"},"vehicle_type_id":"4","last_reported":1734642488,"current_range_meters":36800,"station_id":"ce4bh3h2rcd13ifvqdn0","pricing_plan_id":"cebpf4jnsgd1na2vs0mg"},{"bike_id":"082b9dc7-e8a3-434e-aeac-7bf84280d6b9","system_id":"levelo_inurba_marseille","lat":43.29575,"lon":5.37508,"is_reserved":false,"is_disabled":true,"rental_uris":{"android":"levelo://app?vid=082b9dc7-e8a3-434e-aeac-7bf84280d6b9","ios":"levelo://app?vid=082b9dc7-e8a3-434e-aeac-7bf84280d6b9"},"vehicle_type_id":"4","last_reported":1734642488,"current_range_meters":1200,"station_id":"ce4bgh92rcd13ifvqb50","pricing_plan_id":"cebpf4jnsgd1na2vs0mg"},{"bike_id":"a3a571c6-8845-42a4-8992-06668f8c35ed","system_id":"levelo_inurba_marseille","lat":43.2904,"lon":5.37563,"is_reserved":false,"is_disabled":false,"rental_uris":{"android":"levelo://app?vid=a3a571c6-8845-42a4-8992-06668f8c35ed","ios":"levelo://app?vid=a3a571c6-8845-42a4-8992-06668f8c35ed"},"vehicle_type_id":"4","last_reported":1734642488,"current_range_meters":38800,"station_id":"ce4bh692rcd13ifvqe90","pricing_plan_id":"cebpf4jnsgd1na2vs0mg"},{"bike_id":"218a6f05-c850-453d-9a56-d3821e2b7e8c","system_id":"levelo_inurba_marseille","lat":43.29254,"lon":5.38436,"is_reserved":false,"is_disabled":false,"rental_uris":{"android":"levelo://app?vid=218a6f05-c850-453d-9a56-d3821e2b7e8c","ios":"levelo://app?vid=218a6f05-c850-453d-9a56-d3821e2b7e8c"},"vehicle_type_id":"4","last_reported":1734642488,"current_range_meters":38800,"station_id":"ce4bh692rcd13ifvqea0","pricing_plan_id":"cebpf4jnsgd1na2vs0mg"},{"bike_id":"259b259b-bfc6-4967-b65d-29f75a5b0a35","system_id":"levelo_inurba_marseille","lat":43.30133,"lon":5.38779,"is_reserved":false,"is_disabled":false,"rental_uris":{"android":"levelo://app?vid=259b259b-bfc6-4967-b65d-29f75a5b0a35","ios":"levelo://app?vid=259b259b-bfc6-4967-b65d-29f75a5b0a35"},"vehicle_type_id":"4","last_reported":1734642488,"current_range_meters":10800,"station_id":"ce4bghh2rcd13ifvqb60","pricing_plan_id":"cebpf4jnsgd1na2vs0mg"},{"bike_id":"4d6fb150-9ef4-4945-8999-98e47e4c07bc","system_id":"levelo_inurba_marseille","lat":43.30695,"lon":5.36954,"is_reserved":false,"is_disabled":false,"rental_uris":{"android":"levelo://app?vid=4d6fb150-9ef4-4945-8999-98e47e4c07bc","ios":"levelo://app?vid=4d6fb150-9ef4-4945-8999-98e47e4c07bc"},"vehicle_type_id":"4","last_reported":1734642488,"current_range_meters":26000,"station_id":"","pricing_plan_id":"cebpf4jnsgd1na2vs0mg"},{"bike_id":"c8a9df44-c9a1-43c7-addd-475d94f4c5ab","system_id":"levelo_inurba_marseille","lat":43.27317,"lon":5.39085,"is_reserved":false,"is_disabled":true,"rental_uris":{"android":"levelo://app?vid=c8a9df44-c9a1-43c7-addd-475d94f4c5ab","ios":"levelo://app?vid=c8a9df44-c9a1-43c7-addd-475d94f4c5ab"},"vehicle_type_id":"4","last_reported":1734642488,"current_range_meters":38800,"station_id":"ce4bhgp2rcd13ifvqfe0","pricing_plan_id":"cebpf4jnsgd1na2vs0mg"},{"bike_id":"6cf000fd-5b77-4506-bae1-c96c94a25c09","system_id":"levelo_inurba_marseille","lat":43.29261,"lon":5.38443,"is_reserved":false,"is_disabled":false,"rental_uris":{"android":"levelo://app?vid=6cf000fd-5b77-4506-bae1-c96c94a25c09","ios":"levelo://app?vid=6cf000fd-5b77-4506-bae1-c96c94a25c09"},"vehicle_type_id":"4","last_reported":1734642488,"current_range_meters":38800,"station_id":"ce4bh692rcd13ifvqea0","pricing_plan_id":"cebpf4jnsgd1na2vs0mg"},{"bike_id":"bd3c2355-6ccf-4e6b-9d87-090641e8e6d3","system_id":"levelo_inurba_marseille","lat":43.29262,"lon":5.38444,"is_reserved":false,"is_disabled":false,"rental_uris":{"android":"levelo://app?vid=bd3c2355-6ccf-4e6b-9d87-090641e8e6d3","ios":"levelo://app?vid=bd3c2355-6ccf-4e6b-9d87-090641e8e6d3"},"vehicle_type_id":"4","last_reported":1734642488,"current_range_meters":29600,"station_id":"ce4bh692rcd13ifvqea0","pricing_plan_id":"cebpf4jnsgd1na2vs0mg"},{"bike_id":"a2ffdd54-5331-4e30-b1a2-d9d954b150f4","system_id":"levelo_inurba_marseille","lat":43.25731,"lon":5.41102,"is_reserved":false,"is_disabled":false,"rental_uris":{"android":"levelo://app?vid=a2ffdd54-5331-4e30-b1a2-d9d954b150f4","ios":"levelo://app?vid=a2ffdd54-5331-4e30-b1a2-d9d954b150f4"},"vehicle_type_id":"4","last_reported":1734642488,"current_range_meters":32400,"station_id":"ce4bhkp2rcd13ifvqgd0","pricing_plan_id":"cebpf4jnsgd1na2vs0mg"},{"bike_id":"4e3e3e1f-e195-42d1-b4ca-bc82422c4c9a","system_id":"levelo_inurba_marseille","lat":43.29419,"lon":5.38635,"is_reserved":false,"is_disabled":false,"rental_uris":{"android":"levelo://app?vid=4e3e3e1f-e195-42d1-b4ca-bc82422c4c9a","ios":"levelo://app?vid=4e3e3e1f-e195-42d1-b4ca-bc82422c4c9a"},"vehicle_type_id":"4","last_reported":1734642488,"current_range_meters":22400,"station_id":"ce4bh2h2rcd13ifvqdh0","pricing_plan_id":"cebpf4jnsgd1na2vs0mg"},{"bike_id":"8feb334f-b96d-4160-ba78-1811ff906a49","system_id":"levelo_inurba_marseille","lat":43.30314,"lon":5.36908,"is_reserved":false,"is_disabled":true,"rental_uris":{"android":"levelo://app?vid=8feb334f-b96d-4160-ba78-1811ff906a49","ios":"levelo://app?vid=8feb334f-b96d-4160-ba78-1811ff906a49"},"vehicle_type_id":"4","last_reported":1734642488,"current_range_meters":35200,"station_id":"ce4bgqh2rcd13ifvqc5g","pricing_plan_id":"cebpf4jnsgd1na2vs0mg"},{"bike_id":"df609213-4f03-423d-a027-9336b146a373","system_id":"levelo_inurba_marseille","lat":43.275674,"lon":5.384134,"is_reserved":false,"is_disabled":false,"rental_uris":{"android":"levelo://app?vid=df609213-4f03-423d-a027-9336b146a373","ios":"levelo://app?vid=df609213-4f03-423d-a027-9336b146a373"},"vehicle_type_id":"4","last_reported":1734642488,"current_range_meters":38800,"station_id":"ce4bhh92rcd13ifvqfi0","pricing_plan_id":"cebpf4jnsgd1na2vs0mg"},{"bike_id":"a2556b02-a46f-40fc-83fb-d4423cb32ea6","system_id":"levelo_inurba_marseille","lat":43.28102,"lon":5.3784,"is_reserved":false,"is_disabled":false,"rental_uris":{"android":"levelo://app?vid=a2556b02-a46f-40fc-83fb-d4423cb32ea6","ios":"levelo://app?vid=a2556b02-a46f-40fc-83fb-d4423cb32ea6"},"vehicle_type_id":"4","last_reported":1734642488,"current_range_meters":29600,"station_id":"ce4bha12rcd13ifvqee0","pricing_plan_id":"cebpf4jnsgd1na2vs0mg"},{"bike_id":"4f28b8fa-4d85-468d-96da-729f3e39ddf8","system_id":"levelo_inurba_marseille","lat":43.30325,"lon":5.40441,"is_reserved":false,"is_disabled":false,"rental_uris":{"android":"levelo://app?vid=4f28b8fa-4d85-468d-96da-729f3e39ddf8","ios":"levelo://app?vid=4f28b8fa-4d85-468d-96da-729f3e39ddf8"},"vehicle_type_id":"4","last_reported":1734642488,"current_range_meters":31200,"station_id":"ce4bh012rcd13ifvqd10","pricing_plan_id":"cebpf4jnsgd1na2vs0mg"},{"bike_id":"b6275950-f469-4e2f-b75e-19cc4edf958f","system_id":"levelo_inurba_marseille","lat":43.28103,"lon":5.37845,"is_reserved":false,"is_disabled":false,"rental_uris":{"android":"levelo://app?vid=b6275950-f469-4e2f-b75e-19cc4edf958f","ios":"levelo://app?vid=b6275950-f469-4e2f-b75e-19cc4edf958f"},"vehicle_type_id":"4","last_reported":1734642488,"current_range_meters":39200,"station_id":"ce4bha12rcd13ifvqee0","pricing_plan_id":"cebpf4jnsgd1na2vs0mg"},{"bike_id":"30cf218e-0565-4b4d-b831-6b6e7547fc40","system_id":"levelo_inurba_marseille","lat":43.26804,"lon":5.40265,"is_reserved":false,"is_disabled":false,"rental_uris":{"android":"levelo://app?vid=30cf218e-0565-4b4d-b831-6b6e7547fc40","ios":"levelo://app?vid=30cf218e-0565-4b4d-b831-6b6e7547fc40"},"vehicle_type_id":"4","last_reported":1734642488,"current_range_meters":38800,"station_id":"ce501612rcd8frsf0b60","pricing_plan_id":"cebpf4jnsgd1na2vs0mg"},{"bike_id":"cae49f96-6bd5-4eb4-9bc2-69846f8c6523","system_id":"levelo_inurba_marseille","lat":43.28678,"lon":5.38662,"is_reserved":false,"is_disabled":false,"rental_uris":{"android":"levelo://app?vid=cae49f96-6bd5-4eb4-9bc2-69846f8c6523","ios":"levelo://app?vid=cae49f96-6bd5-4eb4-9bc2-69846f8c6523"},"vehicle_type_id":"4","last_reported":1734642488,"current_range_meters":39200,"station_id":"ce4bh492rcd13ifvqdug","pricing_plan_id":"cebpf4jnsgd1na2vs0mg"},{"bike_id":"8cded77d-8314-4492-9fa7-86aa7fe24e2b","system_id":"levelo_inurba_marseille","lat":43.29524,"lon":5.39401,"is_reserved":false,"is_disabled":false,"rental_uris":{"android":"levelo://app?vid=8cded77d-8314-4492-9fa7-86aa7fe24e2b","ios":"levelo://app?vid=8cded77d-8314-4492-9fa7-86aa7fe24e2b"},"vehicle_type_id":"4","last_reported":1734642488,"current_range_meters":14800,"station_id":"ce4bh292rcd13ifvqdf0","pricing_plan_id":"cebpf4jnsgd1na2vs0mg"},{"bike_id":"15325906-de2c-484c-92ac-8f84e535d613","system_id":"levelo_inurba_marseille","lat":43.25109,"lon":5.40329,"is_reserved":false,"is_disabled":false,"rental_uris":{"android":"levelo://app?vid=15325906-de2c-484c-92ac-8f84e535d613","ios":"levelo://app?vid=15325906-de2c-484c-92ac-8f84e535d613"},"vehicle_type_id":"4","last_reported":1734642488,"current_range_meters":19200,"station_id":"ce4bhlh2rcd13ifvqgig","pricing_plan_id":"cebpf4jnsgd1na2vs0mg"},{"bike_id":"73fdfca7-1d8b-4e17-85ad-77c27d8788aa","system_id":"levelo_inurba_marseille","lat":43.28712,"lon":5.37948,"is_reserved":false,"is_disabled":false,"rental_uris":{"android":"levelo://app?vid=73fdfca7-1d8b-4e17-85ad-77c27d8788aa","ios":"levelo://app?vid=73fdfca7-1d8b-4e17-85ad-77c27d8788aa"},"vehicle_type_id":"4","last_reported":1734642488,"current_range_meters":19200,"station_id":"ce4bh9p2rcd13ifvqec0","pricing_plan_id":"cebpf4jnsgd1na2vs0mg"},{"bike_id":"752a477e-a849-48b3-b5e8-161560225228","system_id":"levelo_inurba_marseille","lat":43.29253,"lon":5.38439,"is_reserved":false,"is_disabled":false,"rental_uris":{"android":"levelo://app?vid=752a477e-a849-48b3-b5e8-161560225228","ios":"levelo://app?vid=752a477e-a849-48b3-b5e8-161560225228"},"vehicle_type_id":"4","last_reported":1734642488,"current_range_meters":38800,"station_id":"ce4bh692rcd13ifvqea0","pricing_plan_id":"cebpf4jnsgd1na2vs0mg"},{"bike_id":"7575b20b-a03e-4095-b227-41818472a023","system_id":"levelo_inurba_marseille","lat":43.2898,"lon":5.37832,"is_reserved":false,"is_disabled":false,"rental_uris":{"android":"levelo://app?vid=7575b20b-a03e-4095-b227-41818472a023","ios":"levelo://app?vid=7575b20b-a03e-4095-b227-41818472a023"},"vehicle_type_id":"4","last_reported":1734642488,"current_range_meters":36400,"station_id":"ce4bh9p2rcd13ifvqed0","pricing_plan_id":"cebpf4jnsgd1na2vs0mg"},{"bike_id":"b3e44f5e-a70f-401e-bcf5-8f35bb8c64c5","system_id":"levelo_inurba_marseille","lat":43.29276,"lon":5.40118,"is_reserved":false,"is_disabled":false,"rental_uris":{"android":"levelo://app?vid=b3e44f5e-a70f-401e-bcf5-8f35bb8c64c5","ios":"levelo://app?vid=b3e44f5e-a70f-401e-bcf5-8f35bb8c64c5"},"vehicle_type_id":"4","last_reported":1734642488,"current_range_meters":38800,"station_id":"ce4bh312rcd13ifvqdk0","pricing_plan_id":"cebpf4jnsgd1na2vs0mg"},{"bike_id":"0ba90ca4-d8fb-42a4-bf65-05f5ececdb90","system_id":"levelo_inurba_marseille","lat":43.29784,"lon":5.37092,"is_reserved":false,"is_disabled":false,"rental_uris":{"android":"levelo://app?vid=0ba90ca4-d8fb-42a4-bf65-05f5ececdb90","ios":"levelo://app?vid=0ba90ca4-d8fb-42a4-bf65-05f5ececdb90"},"vehicle_type_id":"4","last_reported":1734642488,"current_range_meters":22400,"station_id":"ce4bgop2rcd13ifvqc1g","pricing_plan_id":"cebpf4jnsgd1na2vs0mg"},{"bike_id":"17b2d2b0-9855-46b4-a478-0bd9c7277056","system_id":"levelo_inurba_marseille","lat":43.30904,"lon":5.37844,"is_reserved":false,"is_disabled":true,"rental_uris":{"android":"levelo://app?vid=17b2d2b0-9855-46b4-a478-0bd9c7277056","ios":"levelo://app?vid=17b2d2b0-9855-46b4-a478-0bd9c7277056"},"vehicle_type_id":"4","last_reported":1734642488,"current_range_meters":0,"station_id":"","pricing_plan_id":"cebpf4jnsgd1na2vs0mg"},{"bike_id":"4828f3b9-c720-46e9-9ac1-272643fdf3d6","system_id":"levelo_inurba_marseille","lat":43.280348,"lon":5.369486,"is_reserved":false,"is_disabled":false,"rental_uris":{"android":"levelo://app?vid=4828f3b9-c720-46e9-9ac1-272643fdf3d6","ios":"levelo://app?vid=4828f3b9-c720-46e9-9ac1-272643fdf3d6"},"vehicle_type_id":"4","last_reported":1734642488,"current_range_meters":30000,"station_id":"ce4bha12rcd13ifvqef0","pricing_plan_id":"cebpf4jnsgd1na2vs0mg"},{"bike_id":"ee564002-2796-4452-9350-37ac1308b62d","system_id":"levelo_inurba_marseille","lat":43.26946,"lon":5.40251,"is_reserved":false,"is_disabled":false,"rental_uris":{"android":"levelo://app?vid=ee564002-2796-4452-9350-37ac1308b62d","ios":"levelo://app?vid=ee564002-2796-4452-9350-37ac1308b62d"},"vehicle_type_id":"4","last_reported":1734642488,"current_range_meters":38000,"station_id":"cjm6bp8fraef2m0cb0m0","pricing_plan_id":"cebpf4jnsgd1na2vs0mg"},{"bike_id":"6f0dc6ae-ac63-4f7a-8f7e-d4d4c5fb924c","system_id":"levelo_inurba_marseille","lat":43.29541,"lon":5.3855,"is_reserved":false,"is_disabled":false,"rental_uris":{"android":"levelo://app?vid=6f0dc6ae-ac63-4f7a-8f7e-d4d4c5fb924c","ios":"levelo://app?vid=6f0dc6ae-ac63-4f7a-8f7e-d4d4c5fb924c"},"vehicle_type_id":"4","last_reported":1734642488,"current_range_meters":38000,"station_id":"ce4bgih2rcd13ifvqba0","pricing_plan_id":"cebpf4jnsgd1na2vs0mg"},{"bike_id":"53242dd0-d374-4458-9f38-7cd8c0e6d88b","system_id":"levelo_inurba_marseille","lat":43.28427,"lon":5.37508,"is_reserved":false,"is_disabled":false,"rental_uris":{"android":"levelo://app?vid=53242dd0-d374-4458-9f38-7cd8c0e6d88b","ios":"levelo://app?vid=53242dd0-d374-4458-9f38-7cd8c0e6d88b"},"vehicle_type_id":"4","last_reported":1734642488,"current_range_meters":22000,"station_id":"ce4bh412rcd13ifvqds0","pricing_plan_id":"cebpf4jnsgd1na2vs0mg"},{"bike_id":"01ac8352-e33d-4bd4-bb93-d7381b658f36","system_id":"levelo_inurba_marseille","lat":43.32365,"lon":5.38882,"is_reserved":false,"is_disabled":false,"rental_uris":{"android":"levelo://app?vid=01ac8352-e33d-4bd4-bb93-d7381b658f36","ios":"levelo://app?vid=01ac8352-e33d-4bd4-bb93-d7381b658f36"},"vehicle_type_id":"4","last_reported":1734642488,"current_range_meters":12400,"station_id":"ce4bhqp2rcd13ifvqhog","pricing_plan_id":"cebpf4jnsgd1na2vs0mg"},{"bike_id":"eb9df37c-e45e-4aec-900e-821b458bfea8","system_id":"levelo_inurba_marseille","lat":43.29187,"lon":5.39326,"is_reserved":false,"is_disabled":false,"rental_uris":{"android":"levelo://app?vid=eb9df37c-e45e-4aec-900e-821b458bfea8","ios":"levelo://app?vid=eb9df37c-e45e-4aec-900e-821b458bfea8"},"vehicle_type_id":"4","last_reported":1734642488,"current_range_meters":32400,"station_id":"ce4bh192rcd13ifvqdd0","pricing_plan_id":"cebpf4jnsgd1na2vs0mg"},{"bike_id":"29218885-1c50-43e0-a925-2ca4c134e5a9","system_id":"levelo_inurba_marseille","lat":43.30933,"lon":5.40149,"is_reserved":false,"is_disabled":false,"rental_uris":{"android":"levelo://app?vid=29218885-1c50-43e0-a925-2ca4c134e5a9","ios":"levelo://app?vid=29218885-1c50-43e0-a925-2ca4c134e5a9"},"vehicle_type_id":"4","last_reported":1734642488,"current_range_meters":38800,"station_id":"ce4bgvp2rcd13ifvqct0","pricing_plan_id":"cebpf4jnsgd1na2vs0mg"},{"bike_id":"ebf39951-abff-4f4e-a169-bf35d1b0d961","system_id":"levelo_inurba_marseille","lat":43.28345,"lon":5.38102,"is_reserved":false,"is_disabled":false,"rental_uris":{"android":"levelo://app?vid=ebf39951-abff-4f4e-a169-bf35d1b0d961","ios":"levelo://app?vid=ebf39951-abff-4f4e-a169-bf35d1b0d961"},"vehicle_type_id":"4","last_reported":1734642488,"current_range_meters":31200,"station_id":"ce4bh412rcd13ifvqdr0","pricing_plan_id":"cebpf4jnsgd1na2vs0mg"},{"bike_id":"ed754773-b6de-463a-8f19-f8fe53ccd562","system_id":"levelo_inurba_marseille","lat":43.28498,"lon":5.38577,"is_reserved":false,"is_disabled":false,"rental_uris":{"android":"levelo://app?vid=ed754773-b6de-463a-8f19-f8fe53ccd562","ios":"levelo://app?vid=ed754773-b6de-463a-8f19-f8fe53ccd562"},"vehicle_type_id":"4","last_reported":1734642488,"current_range_meters":38800,"station_id":"ce4bh8p2rcd13ifvqeb0","pricing_plan_id":"cebpf4jnsgd1na2vs0mg"},{"bike_id":"6dd7ced6-a614-45f4-afdd-d21affa34a4d","system_id":"levelo_inurba_marseille","lat":43.28459,"lon":5.35891,"is_reserved":false,"is_disabled":false,"rental_uris":{"android":"levelo://app?vid=6dd7ced6-a614-45f4-afdd-d21affa34a4d","ios":"levelo://app?vid=6dd7ced6-a614-45f4-afdd-d21affa34a4d"},"vehicle_type_id":"4","last_reported":1734642488,"current_range_meters":36800,"station_id":"ce4bhah2rcd13ifvqei0","pricing_plan_id":"cebpf4jnsgd1na2vs0mg"},{"bike_id":"1908cece-809f-4547-a252-1da450c21f63","system_id":"levelo_inurba_marseille","lat":43.27811,"lon":5.40707,"is_reserved":false,"is_disabled":false,"rental_uris":{"android":"levelo://app?vid=1908cece-809f-4547-a252-1da450c21f63","ios":"levelo://app?vid=1908cece-809f-4547-a252-1da450c21f63"},"vehicle_type_id":"4","last_reported":1734642488,"current_range_meters":10800,"station_id":"ce4bhnh2rcd13ifvqgtg","pricing_plan_id":"cebpf4jnsgd1na2vs0mg"},{"bike_id":"56de57e6-ae21-4e3b-a334-ab6dc3039e0d","system_id":"levelo_inurba_marseille","lat":43.31167,"lon":5.38718,"is_reserved":false,"is_disabled":false,"rental_uris":{"android":"levelo://app?vid=56de57e6-ae21-4e3b-a334-ab6dc3039e0d","ios":"levelo://app?vid=56de57e6-ae21-4e3b-a334-ab6dc3039e0d"},"vehicle_type_id":"4","last_reported":1734642488,"current_range_meters":18800,"station_id":"ce4bgv12rcd13ifvqcp0","pricing_plan_id":"cebpf4jnsgd1na2vs0mg"},{"bike_id":"0a751186-01f8-453d-9242-0795772b0426","system_id":"levelo_inurba_marseille","lat":43.2926,"lon":5.38445,"is_reserved":false,"is_disabled":false,"rental_uris":{"android":"levelo://app?vid=0a751186-01f8-453d-9242-0795772b0426","ios":"levelo://app?vid=0a751186-01f8-453d-9242-0795772b0426"},"vehicle_type_id":"4","last_reported":1734642488,"current_range_meters":38000,"station_id":"ce4bh692rcd13ifvqea0","pricing_plan_id":"cebpf4jnsgd1na2vs0mg"},{"bike_id":"52e0e9d9-612a-4926-9813-fe34f9a03919","system_id":"levelo_inurba_marseille","lat":43.29874,"lon":5.38911,"is_reserved":false,"is_disabled":false,"rental_uris":{"android":"levelo://app?vid=52e0e9d9-612a-4926-9813-fe34f9a03919","ios":"levelo://app?vid=52e0e9d9-612a-4926-9813-fe34f9a03919"},"vehicle_type_id":"4","last_reported":1734642488,"current_range_meters":17600,"station_id":"ce4bh392rcd13ifvqdl0","pricing_plan_id":"cebpf4jnsgd1na2vs0mg"},{"bike_id":"e6de4f74-4c83-4b63-828e-407f36881c0b","system_id":"levelo_inurba_marseille","lat":43.29271,"lon":5.38457,"is_reserved":false,"is_disabled":false,"rental_uris":{"android":"levelo://app?vid=e6de4f74-4c83-4b63-828e-407f36881c0b","ios":"levelo://app?vid=e6de4f74-4c83-4b63-828e-407f36881c0b"},"vehicle_type_id":"4","last_reported":1734642488,"current_range_meters":16400,"station_id":"ce4bh692rcd13ifvqea0","pricing_plan_id":"cebpf4jnsgd1na2vs0mg"},{"bike_id":"43287f02-73d9-4a20-a594-6adb897e2612","system_id":"levelo_inurba_marseille","lat":43.29772,"lon":5.37105,"is_reserved":false,"is_disabled":false,"rental_uris":{"android":"levelo://app?vid=43287f02-73d9-4a20-a594-6adb897e2612","ios":"levelo://app?vid=43287f02-73d9-4a20-a594-6adb897e2612"},"vehicle_type_id":"4","last_reported":1734642488,"current_range_meters":28800,"station_id":"ce4bgop2rcd13ifvqc1g","pricing_plan_id":"cebpf4jnsgd1na2vs0mg"},{"bike_id":"9b4e8892-0a38-47e0-b669-2cacac85c950","system_id":"levelo_inurba_marseille","lat":43.30548,"lon":5.36527,"is_reserved":false,"is_disabled":false,"rental_uris":{"android":"levelo://app?vid=9b4e8892-0a38-47e0-b669-2cacac85c950","ios":"levelo://app?vid=9b4e8892-0a38-47e0-b669-2cacac85c950"},"vehicle_type_id":"4","last_reported":1734642488,"current_range_meters":38800,"station_id":"ce4bgs12rcd13ifvqcag","pricing_plan_id":"cebpf4jnsgd1na2vs0mg"},{"bike_id":"275c8729-7ec6-449e-8a5b-704994a1d376","system_id":"levelo_inurba_marseille","lat":43.29543,"lon":5.38547,"is_reserved":false,"is_disabled":false,"rental_uris":{"android":"levelo://app?vid=275c8729-7ec6-449e-8a5b-704994a1d376","ios":"levelo://app?vid=275c8729-7ec6-449e-8a5b-704994a1d376"},"vehicle_type_id":"4","last_reported":1734642488,"current_range_meters":38800,"station_id":"ce4bgih2rcd13ifvqba0","pricing_plan_id":"cebpf4jnsgd1na2vs0mg"},{"bike_id":"d03d3e55-b313-4f91-a0c3-6838be182556","system_id":"levelo_inurba_marseille","lat":43.33024,"lon":5.39035,"is_reserved":false,"is_disabled":false,"rental_uris":{"android":"levelo://app?vid=d03d3e55-b313-4f91-a0c3-6838be182556","ios":"levelo://app?vid=d03d3e55-b313-4f91-a0c3-6838be182556"},"vehicle_type_id":"4","last_reported":1734642488,"current_range_meters":25200,"station_id":"ce4bhr92rcd13ifvqhrg","pricing_plan_id":"cebpf4jnsgd1na2vs0mg"},{"bike_id":"d4a92d73-458f-4633-b078-8b09bedbb320","system_id":"levelo_inurba_marseille","lat":43.31326,"lon":5.39695,"is_reserved":false,"is_disabled":false,"rental_uris":{"android":"levelo://app?vid=d4a92d73-458f-4633-b078-8b09bedbb320","ios":"levelo://app?vid=d4a92d73-458f-4633-b078-8b09bedbb320"},"vehicle_type_id":"4","last_reported":1734642488,"current_range_meters":38000,"station_id":"ce4bgvp2rcd13ifvqcu0","pricing_plan_id":"cebpf4jnsgd1na2vs0mg"},{"bike_id":"2a12bde8-ca1e-4ca8-8cbb-8dbf9a638106","system_id":"levelo_inurba_marseille","lat":43.2319,"lon":5.35551,"is_reserved":false,"is_disabled":false,"rental_uris":{"android":"levelo://app?vid=2a12bde8-ca1e-4ca8-8cbb-8dbf9a638106","ios":"levelo://app?vid=2a12bde8-ca1e-4ca8-8cbb-8dbf9a638106"},"vehicle_type_id":"4","last_reported":1734642488,"current_range_meters":28000,"station_id":"ce4bhu92rcd13ifvqi70","pricing_plan_id":"cebpf4jnsgd1na2vs0mg"},{"bike_id":"82b98b08-cf84-40f3-a0a4-1136038c5b5f","system_id":"levelo_inurba_marseille","lat":43.28843,"lon":5.35837,"is_reserved":false,"is_disabled":false,"rental_uris":{"android":"levelo://app?vid=82b98b08-cf84-40f3-a0a4-1136038c5b5f","ios":"levelo://app?vid=82b98b08-cf84-40f3-a0a4-1136038c5b5f"},"vehicle_type_id":"4","last_reported":1734642488,"current_range_meters":36800,"station_id":"ce4bhb12rcd13ifvqem0","pricing_plan_id":"cebpf4jnsgd1na2vs0mg"},{"bike_id":"d34fd185-d309-466a-8bf9-b686d379d484","system_id":"levelo_inurba_marseille","lat":43.31071,"lon":5.38347,"is_reserved":false,"is_disabled":false,"rental_uris":{"android":"levelo://app?vid=d34fd185-d309-466a-8bf9-b686d379d484","ios":"levelo://app?vid=d34fd185-d309-466a-8bf9-b686d379d484"},"vehicle_type_id":"4","last_reported":1734642488,"current_range_meters":26000,"station_id":"ce4bgv92rcd13ifvqcr0","pricing_plan_id":"cebpf4jnsgd1na2vs0mg"},{"bike_id":"ed7b170e-4179-4214-ab88-365fece662ac","system_id":"levelo_inurba_marseille","lat":43.296,"lon":5.38115,"is_reserved":false,"is_disabled":false,"rental_uris":{"android":"levelo://app?vid=ed7b170e-4179-4214-ab88-365fece662ac","ios":"levelo://app?vid=ed7b170e-4179-4214-ab88-365fece662ac"},"vehicle_type_id":"4","last_reported":1734642488,"current_range_meters":32400,"station_id":"ce4bgl12rcd13ifvqbo0","pricing_plan_id":"cebpf4jnsgd1na2vs0mg"},{"bike_id":"09e160dc-9004-4761-890b-e2fd94af8faa","system_id":"levelo_inurba_marseille","lat":43.30884,"lon":5.39632,"is_reserved":false,"is_disabled":false,"rental_uris":{"android":"levelo://app?vid=09e160dc-9004-4761-890b-e2fd94af8faa","ios":"levelo://app?vid=09e160dc-9004-4761-890b-e2fd94af8faa"},"vehicle_type_id":"4","last_reported":1734642488,"current_range_meters":33600,"station_id":"ce4bh012rcd13ifvqcv0","pricing_plan_id":"cebpf4jnsgd1na2vs0mg"},{"bike_id":"c2a0043c-59b5-4f51-b693-8b4b904b8dec","system_id":"levelo_inurba_marseille","lat":43.31066,"lon":5.38359,"is_reserved":false,"is_disabled":false,"rental_uris":{"android":"levelo://app?vid=c2a0043c-59b5-4f51-b693-8b4b904b8dec","ios":"levelo://app?vid=c2a0043c-59b5-4f51-b693-8b4b904b8dec"},"vehicle_type_id":"4","last_reported":1734642488,"current_range_meters":28000,"station_id":"ce4bgv92rcd13ifvqcr0","pricing_plan_id":"cebpf4jnsgd1na2vs0mg"},{"bike_id":"96d01823-b579-45ee-ae04-404bd1c72ad1","system_id":"levelo_inurba_marseille","lat":43.29192,"lon":5.39321,"is_reserved":false,"is_disabled":false,"rental_uris":{"android":"levelo://app?vid=96d01823-b579-45ee-ae04-404bd1c72ad1","ios":"levelo://app?vid=96d01823-b579-45ee-ae04-404bd1c72ad1"},"vehicle_type_id":"4","last_reported":1734642488,"current_range_meters":34800,"station_id":"ce4bh192rcd13ifvqdd0","pricing_plan_id":"cebpf4jnsgd1na2vs0mg"},{"bike_id":"df784841-9a24-4ff5-bc98-630963ba4ed4","system_id":"levelo_inurba_marseille","lat":43.29529,"lon":5.38544,"is_reserved":false,"is_disabled":false,"rental_uris":{"android":"levelo://app?vid=df784841-9a24-4ff5-bc98-630963ba4ed4","ios":"levelo://app?vid=df784841-9a24-4ff5-bc98-630963ba4ed4"},"vehicle_type_id":"4","last_reported":1734642488,"current_range_meters":38800,"station_id":"ce4bgih2rcd13ifvqba0","pricing_plan_id":"cebpf4jnsgd1na2vs0mg"},{"bike_id":"b002d028-e42c-46e2-93ce-a18a7a90546e","system_id":"levelo_inurba_marseille","lat":43.322898,"lon":5.382671,"is_reserved":false,"is_disabled":false,"rental_uris":{"android":"levelo://app?vid=b002d028-e42c-46e2-93ce-a18a7a90546e","ios":"levelo://app?vid=b002d028-e42c-46e2-93ce-a18a7a90546e"},"vehicle_type_id":"4","last_reported":1734642488,"current_range_meters":21600,"station_id":"ce4bhr12rcd13ifvqhqg","pricing_plan_id":"cebpf4jnsgd1na2vs0mg"},{"bike_id":"8d2d1fc5-8995-4400-8cfc-148fb6ed4a6d","system_id":"levelo_inurba_marseille","lat":43.27498,"lon":5.42449,"is_reserved":false,"is_disabled":false,"rental_uris":{"android":"levelo://app?vid=8d2d1fc5-8995-4400-8cfc-148fb6ed4a6d","ios":"levelo://app?vid=8d2d1fc5-8995-4400-8cfc-148fb6ed4a6d"},"vehicle_type_id":"4","last_reported":1734642488,"current_range_meters":38800,"station_id":"ce4bhn92rcd13ifvqgrg","pricing_plan_id":"cebpf4jnsgd1na2vs0mg"},{"bike_id":"8cf5dce1-141e-48cf-816b-74dc2a4ad579","system_id":"levelo_inurba_marseille","lat":43.2957,"lon":5.37516,"is_reserved":false,"is_disabled":true,"rental_uris":{"android":"levelo://app?vid=8cf5dce1-141e-48cf-816b-74dc2a4ad579","ios":"levelo://app?vid=8cf5dce1-141e-48cf-816b-74dc2a4ad579"},"vehicle_type_id":"4","last_reported":1734642488,"current_range_meters":36800,"station_id":"ce4bgh92rcd13ifvqb50","pricing_plan_id":"cebpf4jnsgd1na2vs0mg"},{"bike_id":"f27d7682-cdb6-44d9-8892-167d5437c582","system_id":"levelo_inurba_marseille","lat":43.280337,"lon":5.369411,"is_reserved":false,"is_disabled":false,"rental_uris":{"android":"levelo://app?vid=f27d7682-cdb6-44d9-8892-167d5437c582","ios":"levelo://app?vid=f27d7682-cdb6-44d9-8892-167d5437c582"},"vehicle_type_id":"4","last_reported":1734642488,"current_range_meters":19600,"station_id":"ce4bha12rcd13ifvqef0","pricing_plan_id":"cebpf4jnsgd1na2vs0mg"},{"bike_id":"f23efe61-0104-4164-a2df-9fbf471f6daa","system_id":"levelo_inurba_marseille","lat":43.26488,"lon":5.39549,"is_reserved":false,"is_disabled":true,"rental_uris":{"android":"levelo://app?vid=f23efe61-0104-4164-a2df-9fbf471f6daa","ios":"levelo://app?vid=f23efe61-0104-4164-a2df-9fbf471f6daa"},"vehicle_type_id":"4","last_reported":1734642488,"current_range_meters":4400,"station_id":"ce4bhi12rcd13ifvqfq0","pricing_plan_id":"cebpf4jnsgd1na2vs0mg"},{"bike_id":"4a2ed701-2a80-4530-b3c3-33278d204efb","system_id":"levelo_inurba_marseille","lat":43.29928,"lon":5.3748,"is_reserved":false,"is_disabled":false,"rental_uris":{"android":"levelo://app?vid=4a2ed701-2a80-4530-b3c3-33278d204efb","ios":"levelo://app?vid=4a2ed701-2a80-4530-b3c3-33278d204efb"},"vehicle_type_id":"4","last_reported":1734642488,"current_range_meters":20000,"station_id":"ce4bgjh2rcd13ifvqbg0","pricing_plan_id":"cebpf4jnsgd1na2vs0mg"},{"bike_id":"94e6a837-692a-4c6e-860f-bd56f9eee603","system_id":"levelo_inurba_marseille","lat":43.30789,"lon":5.37658,"is_reserved":false,"is_disabled":false,"rental_uris":{"android":"levelo://app?vid=94e6a837-692a-4c6e-860f-bd56f9eee603","ios":"levelo://app?vid=94e6a837-692a-4c6e-860f-bd56f9eee603"},"vehicle_type_id":"4","last_reported":1734642488,"current_range_meters":34000,"station_id":"ce4bgv92rcd13ifvqcq0","pricing_plan_id":"cebpf4jnsgd1na2vs0mg"},{"bike_id":"b44f9236-c33f-43b3-ab7e-0f32e9951c9e","system_id":"levelo_inurba_marseille","lat":43.23189,"lon":5.35558,"is_reserved":false,"is_disabled":false,"rental_uris":{"android":"levelo://app?vid=b44f9236-c33f-43b3-ab7e-0f32e9951c9e","ios":"levelo://app?vid=b44f9236-c33f-43b3-ab7e-0f32e9951c9e"},"vehicle_type_id":"4","last_reported":1734642488,"current_range_meters":9200,"station_id":"ce4bhu92rcd13ifvqi70","pricing_plan_id":"cebpf4jnsgd1na2vs0mg"},{"bike_id":"4620dcd9-c3a6-4871-8162-c4a28f6d33ca","system_id":"levelo_inurba_marseille","lat":43.3188,"lon":5.40736,"is_reserved":false,"is_disabled":true,"rental_uris":{"android":"levelo://app?vid=4620dcd9-c3a6-4871-8162-c4a28f6d33ca","ios":"levelo://app?vid=4620dcd9-c3a6-4871-8162-c4a28f6d33ca"},"vehicle_type_id":"4","last_reported":1734642488,"current_range_meters":39200,"station_id":"ce4bhq12rcd13ifvqhig","pricing_plan_id":"cebpf4jnsgd1na2vs0mg"},{"bike_id":"6e608818-1db2-4182-8679-2e4fec211f12","system_id":"levelo_inurba_marseille","lat":43.31167,"lon":5.38732,"is_reserved":false,"is_disabled":false,"rental_uris":{"android":"levelo://app?vid=6e608818-1db2-4182-8679-2e4fec211f12","ios":"levelo://app?vid=6e608818-1db2-4182-8679-2e4fec211f12"},"vehicle_type_id":"4","last_reported":1734642488,"current_range_meters":34000,"station_id":"ce4bgv12rcd13ifvqcp0","pricing_plan_id":"cebpf4jnsgd1na2vs0mg"},{"bike_id":"a4f8f860-7da9-41b3-ba5c-03c4bf52b373","system_id":"levelo_inurba_marseille","lat":43.31325,"lon":5.39691,"is_reserved":false,"is_disabled":true,"rental_uris":{"android":"levelo://app?vid=a4f8f860-7da9-41b3-ba5c-03c4bf52b373","ios":"levelo://app?vid=a4f8f860-7da9-41b3-ba5c-03c4bf52b373"},"vehicle_type_id":"4","last_reported":1734642488,"current_range_meters":800,"station_id":"ce4bgvp2rcd13ifvqcu0","pricing_plan_id":"cebpf4jnsgd1na2vs0mg"},{"bike_id":"bc03db78-13f5-4eb3-8825-1473e4d86c90","system_id":"levelo_inurba_marseille","lat":43.2979,"lon":5.39347,"is_reserved":false,"is_disabled":false,"rental_uris":{"android":"levelo://app?vid=bc03db78-13f5-4eb3-8825-1473e4d86c90","ios":"levelo://app?vid=bc03db78-13f5-4eb3-8825-1473e4d86c90"},"vehicle_type_id":"4","last_reported":1734642488,"current_range_meters":39200,"station_id":"chh1huq6cuj3fo74tm60","pricing_plan_id":"cebpf4jnsgd1na2vs0mg"},{"bike_id":"e547e21c-1484-4643-b569-ed0cf2a32d36","system_id":"levelo_inurba_marseille","lat":43.24674,"lon":5.38143,"is_reserved":false,"is_disabled":false,"rental_uris":{"android":"levelo://app?vid=e547e21c-1484-4643-b569-ed0cf2a32d36","ios":"levelo://app?vid=e547e21c-1484-4643-b569-ed0cf2a32d36"},"vehicle_type_id":"4","last_reported":1734642488,"current_range_meters":39200,"station_id":"ce4bhih2rcd13ifvqfr0","pricing_plan_id":"cebpf4jnsgd1na2vs0mg"},{"bike_id":"b5b3837f-5e02-4def-9495-b31b79600261","system_id":"levelo_inurba_marseille","lat":43.32343,"lon":5.40621,"is_reserved":false,"is_disabled":false,"rental_uris":{"android":"levelo://app?vid=b5b3837f-5e02-4def-9495-b31b79600261","ios":"levelo://app?vid=b5b3837f-5e02-4def-9495-b31b79600261"},"vehicle_type_id":"4","last_reported":1734642488,"current_range_meters":26000,"station_id":"ce4bhq92rcd13ifvqhjg","pricing_plan_id":"cebpf4jnsgd1na2vs0mg"},{"bike_id":"4b6932e5-8250-4775-ae99-f3af739f32e3","system_id":"levelo_inurba_marseille","lat":43.31526,"lon":5.38038,"is_reserved":false,"is_disabled":false,"rental_uris":{"android":"levelo://app?vid=4b6932e5-8250-4775-ae99-f3af739f32e3","ios":"levelo://app?vid=4b6932e5-8250-4775-ae99-f3af739f32e3"},"vehicle_type_id":"4","last_reported":1734642488,"current_range_meters":30000,"station_id":"ce4bhsp2rcd13ifvqi50","pricing_plan_id":"cebpf4jnsgd1na2vs0mg"},{"bike_id":"48bd608f-85bc-4b07-9175-79b02463ae92","system_id":"levelo_inurba_marseille","lat":43.29559,"lon":5.42287,"is_reserved":false,"is_disabled":false,"rental_uris":{"android":"levelo://app?vid=48bd608f-85bc-4b07-9175-79b02463ae92","ios":"levelo://app?vid=48bd608f-85bc-4b07-9175-79b02463ae92"},"vehicle_type_id":"4","last_reported":1734642488,"current_range_meters":6400,"station_id":"ce4bhph2rcd13ifvqhdg","pricing_plan_id":"cebpf4jnsgd1na2vs0mg"},{"bike_id":"0f70da87-3837-4a1e-b64f-ed3d553df758","system_id":"levelo_inurba_marseille","lat":43.255,"lon":5.37641,"is_reserved":false,"is_disabled":false,"rental_uris":{"android":"levelo://app?vid=0f70da87-3837-4a1e-b64f-ed3d553df758","ios":"levelo://app?vid=0f70da87-3837-4a1e-b64f-ed3d553df758"},"vehicle_type_id":"4","last_reported":1734642488,"current_range_meters":39200,"station_id":"ce4bhh12rcd13ifvqff0","pricing_plan_id":"cebpf4jnsgd1na2vs0mg"},{"bike_id":"0ee567dd-8d1f-4513-95d0-49b3aea08c53","system_id":"levelo_inurba_marseille","lat":43.30879,"lon":5.37194,"is_reserved":false,"is_disabled":true,"rental_uris":{"android":"levelo://app?vid=0ee567dd-8d1f-4513-95d0-49b3aea08c53","ios":"levelo://app?vid=0ee567dd-8d1f-4513-95d0-49b3aea08c53"},"vehicle_type_id":"4","last_reported":1734642488,"current_range_meters":27600,"station_id":"ce4bguh2rcd13ifvqckg","pricing_plan_id":"cebpf4jnsgd1na2vs0mg"},{"bike_id":"b52c10f4-1f06-453c-bfdf-7d6729ecfe9c","system_id":"levelo_inurba_marseille","lat":43.2318,"lon":5.39984,"is_reserved":false,"is_disabled":false,"rental_uris":{"android":"levelo://app?vid=b52c10f4-1f06-453c-bfdf-7d6729ecfe9c","ios":"levelo://app?vid=b52c10f4-1f06-453c-bfdf-7d6729ecfe9c"},"vehicle_type_id":"4","last_reported":1734642488,"current_range_meters":37600,"station_id":"ce4bhn12rcd13ifvqgqg","pricing_plan_id":"cebpf4jnsgd1na2vs0mg"},{"bike_id":"5c909c62-734e-4a3b-87af-fa5b1774cce4","system_id":"levelo_inurba_marseille","lat":43.23184,"lon":5.39984,"is_reserved":false,"is_disabled":false,"rental_uris":{"android":"levelo://app?vid=5c909c62-734e-4a3b-87af-fa5b1774cce4","ios":"levelo://app?vid=5c909c62-734e-4a3b-87af-fa5b1774cce4"},"vehicle_type_id":"4","last_reported":1734642488,"current_range_meters":33600,"station_id":"ce4bhn12rcd13ifvqgqg","pricing_plan_id":"cebpf4jnsgd1na2vs0mg"},{"bike_id":"87ea2282-7236-454a-a021-e08bfe13ea3d","system_id":"levelo_inurba_marseille","lat":43.28026,"lon":5.36936,"is_reserved":false,"is_disabled":false,"rental_uris":{"android":"levelo://app?vid=87ea2282-7236-454a-a021-e08bfe13ea3d","ios":"levelo://app?vid=87ea2282-7236-454a-a021-e08bfe13ea3d"},"vehicle_type_id":"4","last_reported":1734642488,"current_range_meters":39200,"station_id":"ce4bha12rcd13ifvqef0","pricing_plan_id":"cebpf4jnsgd1na2vs0mg"},{"bike_id":"dcbe64cd-9357-420f-b290-dbaf86f13455","system_id":"levelo_inurba_marseille","lat":43.33021,"lon":5.39036,"is_reserved":false,"is_disabled":false,"rental_uris":{"android":"levelo://app?vid=dcbe64cd-9357-420f-b290-dbaf86f13455","ios":"levelo://app?vid=dcbe64cd-9357-420f-b290-dbaf86f13455"},"vehicle_type_id":"4","last_reported":1734642488,"current_range_meters":38800,"station_id":"ce4bhr92rcd13ifvqhrg","pricing_plan_id":"cebpf4jnsgd1na2vs0mg"},{"bike_id":"bb79b6ad-5b7c-46be-bc8a-aa502f4ba4ee","system_id":"levelo_inurba_marseille","lat":43.29189,"lon":5.35813,"is_reserved":false,"is_disabled":false,"rental_uris":{"android":"levelo://app?vid=bb79b6ad-5b7c-46be-bc8a-aa502f4ba4ee","ios":"levelo://app?vid=bb79b6ad-5b7c-46be-bc8a-aa502f4ba4ee"},"vehicle_type_id":"4","last_reported":1734642488,"current_range_meters":38800,"station_id":"ce4bhb12rcd13ifvqel0","pricing_plan_id":"cebpf4jnsgd1na2vs0mg"},{"bike_id":"8fb8bc1c-60e9-4605-b1e3-07ddfa8d5745","system_id":"levelo_inurba_marseille","lat":43.29445,"lon":5.39756,"is_reserved":false,"is_disabled":false,"rental_uris":{"android":"levelo://app?vid=8fb8bc1c-60e9-4605-b1e3-07ddfa8d5745","ios":"levelo://app?vid=8fb8bc1c-60e9-4605-b1e3-07ddfa8d5745"},"vehicle_type_id":"4","last_reported":1734642488,"current_range_meters":38800,"station_id":"ce4bh3h2rcd13ifvqdo0","pricing_plan_id":"cebpf4jnsgd1na2vs0mg"},{"bike_id":"44464573-5630-404b-a999-698ba48ab6b8","system_id":"levelo_inurba_marseille","lat":43.27178,"lon":5.40994,"is_reserved":false,"is_disabled":false,"rental_uris":{"android":"levelo://app?vid=44464573-5630-404b-a999-698ba48ab6b8","ios":"levelo://app?vid=44464573-5630-404b-a999-698ba48ab6b8"},"vehicle_type_id":"4","last_reported":1734642488,"current_range_meters":38800,"station_id":"ce4bhl12rcd13ifvqgf0","pricing_plan_id":"cebpf4jnsgd1na2vs0mg"},{"bike_id":"6092e4d7-956b-4a00-a15b-04d401a7abe3","system_id":"levelo_inurba_marseille","lat":43.28487,"lon":5.38423,"is_reserved":false,"is_disabled":true,"rental_uris":{"android":"levelo://app?vid=6092e4d7-956b-4a00-a15b-04d401a7abe3","ios":"levelo://app?vid=6092e4d7-956b-4a00-a15b-04d401a7abe3"},"vehicle_type_id":"4","last_reported":1734642488,"current_range_meters":29600,"station_id":"ce4bh512rcd13ifvqe3g","pricing_plan_id":"cebpf4jnsgd1na2vs0mg"},{"bike_id":"2e0a4273-9b64-4eb1-8d1b-b8e55991eb0a","system_id":"levelo_inurba_marseille","lat":43.27261,"lon":5.40072,"is_reserved":false,"is_disabled":false,"rental_uris":{"android":"levelo://app?vid=2e0a4273-9b64-4eb1-8d1b-b8e55991eb0a","ios":"levelo://app?vid=2e0a4273-9b64-4eb1-8d1b-b8e55991eb0a"},"vehicle_type_id":"4","last_reported":1734642488,"current_range_meters":3600,"station_id":"","pricing_plan_id":"cebpf4jnsgd1na2vs0mg"},{"bike_id":"0391c006-ec43-49fa-8940-87deadb582b4","system_id":"levelo_inurba_marseille","lat":43.29276,"lon":5.36834,"is_reserved":false,"is_disabled":false,"rental_uris":{"android":"levelo://app?vid=0391c006-ec43-49fa-8940-87deadb582b4","ios":"levelo://app?vid=0391c006-ec43-49fa-8940-87deadb582b4"},"vehicle_type_id":"4","last_reported":1734642488,"current_range_meters":6800,"station_id":"ce4bhbp2rcd13ifvqesg","pricing_plan_id":"cebpf4jnsgd1na2vs0mg"},{"bike_id":"3c8fa5c9-de8f-4837-ad65-0da846e013c3","system_id":"levelo_inurba_marseille","lat":43.31752,"lon":5.39014,"is_reserved":false,"is_disabled":false,"rental_uris":{"android":"levelo://app?vid=3c8fa5c9-de8f-4837-ad65-0da846e013c3","ios":"levelo://app?vid=3c8fa5c9-de8f-4837-ad65-0da846e013c3"},"vehicle_type_id":"4","last_reported":1734642488,"current_range_meters":38800,"station_id":"ce4bhqp2rcd13ifvqhng","pricing_plan_id":"cebpf4jnsgd1na2vs0mg"},{"bike_id":"f957ffa3-7b76-4b18-bb62-81627d313cf8","system_id":"levelo_inurba_marseille","lat":43.23199,"lon":5.3556,"is_reserved":false,"is_disabled":false,"rental_uris":{"android":"levelo://app?vid=f957ffa3-7b76-4b18-bb62-81627d313cf8","ios":"levelo://app?vid=f957ffa3-7b76-4b18-bb62-81627d313cf8"},"vehicle_type_id":"4","last_reported":1734642488,"current_range_meters":32800,"station_id":"ce4bhu92rcd13ifvqi70","pricing_plan_id":"cebpf4jnsgd1na2vs0mg"},{"bike_id":"5dd95ec7-a282-40a6-a0fe-4e2e61de4064","system_id":"levelo_inurba_marseille","lat":43.26337,"lon":5.40142,"is_reserved":false,"is_disabled":false,"rental_uris":{"android":"levelo://app?vid=5dd95ec7-a282-40a6-a0fe-4e2e61de4064","ios":"levelo://app?vid=5dd95ec7-a282-40a6-a0fe-4e2e61de4064"},"vehicle_type_id":"4","last_reported":1734642488,"current_range_meters":10000,"station_id":"","pricing_plan_id":"cebpf4jnsgd1na2vs0mg"},{"bike_id":"4f82c1ba-14ff-4966-ac06-28da01e82cf4","system_id":"levelo_inurba_marseille","lat":43.27906,"lon":5.39579,"is_reserved":false,"is_disabled":false,"rental_uris":{"android":"levelo://app?vid=4f82c1ba-14ff-4966-ac06-28da01e82cf4","ios":"levelo://app?vid=4f82c1ba-14ff-4966-ac06-28da01e82cf4"},"vehicle_type_id":"4","last_reported":1734642488,"current_range_meters":29600,"station_id":"ce4bhf92rcd13ifvqf40","pricing_plan_id":"cebpf4jnsgd1na2vs0mg"},{"bike_id":"5f95dcdc-b7ed-4b2d-bb9c-c1b46e433a17","system_id":"levelo_inurba_marseille","lat":43.31328,"lon":5.39705,"is_reserved":false,"is_disabled":false,"rental_uris":{"android":"levelo://app?vid=5f95dcdc-b7ed-4b2d-bb9c-c1b46e433a17","ios":"levelo://app?vid=5f95dcdc-b7ed-4b2d-bb9c-c1b46e433a17"},"vehicle_type_id":"4","last_reported":1734642488,"current_range_meters":36800,"station_id":"ce4bgvp2rcd13ifvqcu0","pricing_plan_id":"cebpf4jnsgd1na2vs0mg"},{"bike_id":"2256e953-e04c-4a1a-96b7-b03d74e4d2b6","system_id":"levelo_inurba_marseille","lat":43.24793,"lon":5.37454,"is_reserved":false,"is_disabled":false,"rental_uris":{"android":"levelo://app?vid=2256e953-e04c-4a1a-96b7-b03d74e4d2b6","ios":"levelo://app?vid=2256e953-e04c-4a1a-96b7-b03d74e4d2b6"},"vehicle_type_id":"4","last_reported":1734642488,"current_range_meters":38800,"station_id":"ce4bhgh2rcd13ifvqfb0","pricing_plan_id":"cebpf4jnsgd1na2vs0mg"},{"bike_id":"0880485c-9dc8-4cbb-aa9d-b631e3003047","system_id":"levelo_inurba_marseille","lat":43.29416,"lon":5.38639,"is_reserved":false,"is_disabled":false,"rental_uris":{"android":"levelo://app?vid=0880485c-9dc8-4cbb-aa9d-b631e3003047","ios":"levelo://app?vid=0880485c-9dc8-4cbb-aa9d-b631e3003047"},"vehicle_type_id":"4","last_reported":1734642488,"current_range_meters":29600,"station_id":"ce4bh2h2rcd13ifvqdh0","pricing_plan_id":"cebpf4jnsgd1na2vs0mg"},{"bike_id":"2708ebca-ead0-431b-8ee5-75b909288afb","system_id":"levelo_inurba_marseille","lat":43.28107,"lon":5.37837,"is_reserved":false,"is_disabled":false,"rental_uris":{"android":"levelo://app?vid=2708ebca-ead0-431b-8ee5-75b909288afb","ios":"levelo://app?vid=2708ebca-ead0-431b-8ee5-75b909288afb"},"vehicle_type_id":"4","last_reported":1734642488,"current_range_meters":30400,"station_id":"ce4bha12rcd13ifvqee0","pricing_plan_id":"cebpf4jnsgd1na2vs0mg"},{"bike_id":"379f1bae-4714-4df2-91e8-5910084f61d0","system_id":"levelo_inurba_marseille","lat":43.27902,"lon":5.38012,"is_reserved":false,"is_disabled":false,"rental_uris":{"android":"levelo://app?vid=379f1bae-4714-4df2-91e8-5910084f61d0","ios":"levelo://app?vid=379f1bae-4714-4df2-91e8-5910084f61d0"},"vehicle_type_id":"4","last_reported":1734642488,"current_range_meters":33200,"station_id":"ce4bhf92rcd13ifvqf50","pricing_plan_id":"cebpf4jnsgd1na2vs0mg"},{"bike_id":"aadbddc6-acf5-4207-8e2f-43326685451b","system_id":"levelo_inurba_marseille","lat":43.30254,"lon":5.40091,"is_reserved":false,"is_disabled":false,"rental_uris":{"android":"levelo://app?vid=aadbddc6-acf5-4207-8e2f-43326685451b","ios":"levelo://app?vid=aadbddc6-acf5-4207-8e2f-43326685451b"},"vehicle_type_id":"4","last_reported":1734642488,"current_range_meters":30400,"station_id":"ce4bgvh2rcd13ifvqcs0","pricing_plan_id":"cebpf4jnsgd1na2vs0mg"},{"bike_id":"af317d2d-2f32-4600-92e0-884dcf8d67fe","system_id":"levelo_inurba_marseille","lat":43.28711,"lon":5.37941,"is_reserved":false,"is_disabled":false,"rental_uris":{"android":"levelo://app?vid=af317d2d-2f32-4600-92e0-884dcf8d67fe","ios":"levelo://app?vid=af317d2d-2f32-4600-92e0-884dcf8d67fe"},"vehicle_type_id":"4","last_reported":1734642488,"current_range_meters":31200,"station_id":"ce4bh9p2rcd13ifvqec0","pricing_plan_id":"cebpf4jnsgd1na2vs0mg"},{"bike_id":"c74db8c8-c410-49c5-9f2f-32f849d1937b","system_id":"levelo_inurba_marseille","lat":43.27174,"lon":5.40996,"is_reserved":false,"is_disabled":false,"rental_uris":{"android":"levelo://app?vid=c74db8c8-c410-49c5-9f2f-32f849d1937b","ios":"levelo://app?vid=c74db8c8-c410-49c5-9f2f-32f849d1937b"},"vehicle_type_id":"4","last_reported":1734642488,"current_range_meters":38000,"station_id":"ce4bhl12rcd13ifvqgf0","pricing_plan_id":"cebpf4jnsgd1na2vs0mg"},{"bike_id":"87f7e617-74c7-47e0-9bec-6a2da6e74a77","system_id":"levelo_inurba_marseille","lat":43.29973,"lon":5.37166,"is_reserved":false,"is_disabled":false,"rental_uris":{"android":"levelo://app?vid=87f7e617-74c7-47e0-9bec-6a2da6e74a77","ios":"levelo://app?vid=87f7e617-74c7-47e0-9bec-6a2da6e74a77"},"vehicle_type_id":"4","last_reported":1734642488,"current_range_meters":14400,"station_id":"ce4bgr92rcd13ifvqc7g","pricing_plan_id":"cebpf4jnsgd1na2vs0mg"},{"bike_id":"450a8418-ab58-495f-b063-5a60eb1f26dc","system_id":"levelo_inurba_marseille","lat":43.30793,"lon":5.43529,"is_reserved":false,"is_disabled":false,"rental_uris":{"android":"levelo://app?vid=450a8418-ab58-495f-b063-5a60eb1f26dc","ios":"levelo://app?vid=450a8418-ab58-495f-b063-5a60eb1f26dc"},"vehicle_type_id":"4","last_reported":1734642488,"current_range_meters":34000,"station_id":"ce4bhph2rcd13ifvqheg","pricing_plan_id":"cebpf4jnsgd1na2vs0mg"},{"bike_id":"03d290ab-7091-4439-bc32-8d0f7cbb0b98","system_id":"levelo_inurba_marseille","lat":43.24543,"lon":5.39529,"is_reserved":false,"is_disabled":false,"rental_uris":{"android":"levelo://app?vid=03d290ab-7091-4439-bc32-8d0f7cbb0b98","ios":"levelo://app?vid=03d290ab-7091-4439-bc32-8d0f7cbb0b98"},"vehicle_type_id":"4","last_reported":1734642488,"current_range_meters":21600,"station_id":"ce4bhlp2rcd13ifvqgjg","pricing_plan_id":"cebpf4jnsgd1na2vs0mg"},{"bike_id":"1301af4d-c261-4da5-b41b-feecbd5ba721","system_id":"levelo_inurba_marseille","lat":43.29022,"lon":5.38644,"is_reserved":false,"is_disabled":false,"rental_uris":{"android":"levelo://app?vid=1301af4d-c261-4da5-b41b-feecbd5ba721","ios":"levelo://app?vid=1301af4d-c261-4da5-b41b-feecbd5ba721"},"vehicle_type_id":"4","last_reported":1734642488,"current_range_meters":11600,"station_id":"ce4bh4p2rcd13ifvqe0g","pricing_plan_id":"cebpf4jnsgd1na2vs0mg"},{"bike_id":"2ea5ebc2-554f-4583-b0a6-c2d852bdc972","system_id":"levelo_inurba_marseille","lat":43.28113,"lon":5.37832,"is_reserved":false,"is_disabled":false,"rental_uris":{"android":"levelo://app?vid=2ea5ebc2-554f-4583-b0a6-c2d852bdc972","ios":"levelo://app?vid=2ea5ebc2-554f-4583-b0a6-c2d852bdc972"},"vehicle_type_id":"4","last_reported":1734642488,"current_range_meters":31200,"station_id":"ce4bha12rcd13ifvqee0","pricing_plan_id":"cebpf4jnsgd1na2vs0mg"},{"bike_id":"8f3ad457-0b22-4a53-92f2-28922f2de9bc","system_id":"levelo_inurba_marseille","lat":43.29256,"lon":5.38441,"is_reserved":false,"is_disabled":false,"rental_uris":{"android":"levelo://app?vid=8f3ad457-0b22-4a53-92f2-28922f2de9bc","ios":"levelo://app?vid=8f3ad457-0b22-4a53-92f2-28922f2de9bc"},"vehicle_type_id":"4","last_reported":1734642488,"current_range_meters":12400,"station_id":"ce4bh692rcd13ifvqea0","pricing_plan_id":"cebpf4jnsgd1na2vs0mg"},{"bike_id":"998bb76c-9ad8-4edd-b4fe-7e09c8e7f623","system_id":"levelo_inurba_marseille","lat":43.3137,"lon":5.38504,"is_reserved":false,"is_disabled":false,"rental_uris":{"android":"levelo://app?vid=998bb76c-9ad8-4edd-b4fe-7e09c8e7f623","ios":"levelo://app?vid=998bb76c-9ad8-4edd-b4fe-7e09c8e7f623"},"vehicle_type_id":"4","last_reported":1734642488,"current_range_meters":26000,"station_id":"ce4bgt92rcd13ifvqcf0","pricing_plan_id":"cebpf4jnsgd1na2vs0mg"},{"bike_id":"9932f0ef-901c-478b-81c6-b5f135d19e67","system_id":"levelo_inurba_marseille","lat":43.27566,"lon":5.38428,"is_reserved":false,"is_disabled":false,"rental_uris":{"android":"levelo://app?vid=9932f0ef-901c-478b-81c6-b5f135d19e67","ios":"levelo://app?vid=9932f0ef-901c-478b-81c6-b5f135d19e67"},"vehicle_type_id":"4","last_reported":1734642488,"current_range_meters":28000,"station_id":"ce4bhh92rcd13ifvqfi0","pricing_plan_id":"cebpf4jnsgd1na2vs0mg"},{"bike_id":"288c13fb-e540-41ea-9d0d-a3be382d1112","system_id":"levelo_inurba_marseille","lat":43.29416,"lon":5.38609,"is_reserved":false,"is_disabled":false,"rental_uris":{"android":"levelo://app?vid=288c13fb-e540-41ea-9d0d-a3be382d1112","ios":"levelo://app?vid=288c13fb-e540-41ea-9d0d-a3be382d1112"},"vehicle_type_id":"4","last_reported":1734642488,"current_range_meters":17200,"station_id":"ce4bh2h2rcd13ifvqdh0","pricing_plan_id":"cebpf4jnsgd1na2vs0mg"},{"bike_id":"cc91e18c-31a1-4d61-8bec-2d478014f9b7","system_id":"levelo_inurba_marseille","lat":43.27373,"lon":5.36253,"is_reserved":false,"is_disabled":false,"rental_uris":{"android":"levelo://app?vid=cc91e18c-31a1-4d61-8bec-2d478014f9b7","ios":"levelo://app?vid=cc91e18c-31a1-4d61-8bec-2d478014f9b7"},"vehicle_type_id":"4","last_reported":1734642488,"current_range_meters":32000,"station_id":"ce4bhbh2rcd13ifvqeo0","pricing_plan_id":"cebpf4jnsgd1na2vs0mg"},{"bike_id":"fdfb3580-1002-4881-8a39-36cd06d2a7b8","system_id":"levelo_inurba_marseille","lat":43.28277,"lon":5.35066,"is_reserved":false,"is_disabled":false,"rental_uris":{"android":"levelo://app?vid=fdfb3580-1002-4881-8a39-36cd06d2a7b8","ios":"levelo://app?vid=fdfb3580-1002-4881-8a39-36cd06d2a7b8"},"vehicle_type_id":"4","last_reported":1734642488,"current_range_meters":36800,"station_id":"ce4bhbp2rcd13ifvqerg","pricing_plan_id":"cebpf4jnsgd1na2vs0mg"},{"bike_id":"494c8398-822e-42ee-a7f1-dfd664d1fba7","system_id":"levelo_inurba_marseille","lat":43.23199,"lon":5.35547,"is_reserved":false,"is_disabled":false,"rental_uris":{"android":"levelo://app?vid=494c8398-822e-42ee-a7f1-dfd664d1fba7","ios":"levelo://app?vid=494c8398-822e-42ee-a7f1-dfd664d1fba7"},"vehicle_type_id":"4","last_reported":1734642488,"current_range_meters":38000,"station_id":"ce4bhu92rcd13ifvqi70","pricing_plan_id":"cebpf4jnsgd1na2vs0mg"},{"bike_id":"db3e54f1-bade-4312-a21b-b442a888a895","system_id":"levelo_inurba_marseille","lat":43.2846,"lon":5.3589,"is_reserved":false,"is_disabled":false,"rental_uris":{"android":"levelo://app?vid=db3e54f1-bade-4312-a21b-b442a888a895","ios":"levelo://app?vid=db3e54f1-bade-4312-a21b-b442a888a895"},"vehicle_type_id":"4","last_reported":1734642488,"current_range_meters":38000,"station_id":"ce4bhah2rcd13ifvqei0","pricing_plan_id":"cebpf4jnsgd1na2vs0mg"},{"bike_id":"3c413c58-d255-428b-86c8-72567e764cd9","system_id":"levelo_inurba_marseille","lat":43.28474,"lon":5.35868,"is_reserved":false,"is_disabled":false,"rental_uris":{"android":"levelo://app?vid=3c413c58-d255-428b-86c8-72567e764cd9","ios":"levelo://app?vid=3c413c58-d255-428b-86c8-72567e764cd9"},"vehicle_type_id":"4","last_reported":1734642488,"current_range_meters":28800,"station_id":"ce4bhah2rcd13ifvqei0","pricing_plan_id":"cebpf4jnsgd1na2vs0mg"},{"bike_id":"3301fd98-be9e-402c-abda-233c46da6102","system_id":"levelo_inurba_marseille","lat":43.31073,"lon":5.3836,"is_reserved":false,"is_disabled":false,"rental_uris":{"android":"levelo://app?vid=3301fd98-be9e-402c-abda-233c46da6102","ios":"levelo://app?vid=3301fd98-be9e-402c-abda-233c46da6102"},"vehicle_type_id":"4","last_reported":1734642488,"current_range_meters":38800,"station_id":"ce4bgv92rcd13ifvqcr0","pricing_plan_id":"cebpf4jnsgd1na2vs0mg"},{"bike_id":"b424a143-2bfe-463a-a9f1-6abc0a36e720","system_id":"levelo_inurba_marseille","lat":43.29301,"lon":5.371757,"is_reserved":false,"is_disabled":false,"rental_uris":{"android":"levelo://app?vid=b424a143-2bfe-463a-a9f1-6abc0a36e720","ios":"levelo://app?vid=b424a143-2bfe-463a-a9f1-6abc0a36e720"},"vehicle_type_id":"4","last_reported":1734642488,"current_range_meters":37600,"station_id":"ce4bgh92rcd13ifvqb40","pricing_plan_id":"cebpf4jnsgd1na2vs0mg"},{"bike_id":"8e8ddb40-dfef-4f41-8fd9-8dfe2942b813","system_id":"levelo_inurba_marseille","lat":43.31498,"lon":5.37298,"is_reserved":false,"is_disabled":false,"rental_uris":{"android":"levelo://app?vid=8e8ddb40-dfef-4f41-8fd9-8dfe2942b813","ios":"levelo://app?vid=8e8ddb40-dfef-4f41-8fd9-8dfe2942b813"},"vehicle_type_id":"4","last_reported":1734642488,"current_range_meters":15200,"station_id":"ce4bgt12rcd13ifvqcd0","pricing_plan_id":"cebpf4jnsgd1na2vs0mg"},{"bike_id":"a2eba22b-b0ee-4005-9bf3-576bb458d391","system_id":"levelo_inurba_marseille","lat":43.279651,"lon":5.387544,"is_reserved":false,"is_disabled":true,"rental_uris":{"android":"levelo://app?vid=a2eba22b-b0ee-4005-9bf3-576bb458d391","ios":"levelo://app?vid=a2eba22b-b0ee-4005-9bf3-576bb458d391"},"vehicle_type_id":"4","last_reported":1734642488,"current_range_meters":0,"station_id":"","pricing_plan_id":"cebpf4jnsgd1na2vs0mg"},{"bike_id":"c5fe3df7-38c6-4417-926a-4940de79602c","system_id":"levelo_inurba_marseille","lat":43.29872,"lon":5.39731,"is_reserved":false,"is_disabled":false,"rental_uris":{"android":"levelo://app?vid=c5fe3df7-38c6-4417-926a-4940de79602c","ios":"levelo://app?vid=c5fe3df7-38c6-4417-926a-4940de79602c"},"vehicle_type_id":"4","last_reported":1734642488,"current_range_meters":38800,"station_id":"ce4bh0h2rcd13ifvqd50","pricing_plan_id":"cebpf4jnsgd1na2vs0mg"},{"bike_id":"fcf6f42c-9492-49dd-a9e6-322a50636e12","system_id":"levelo_inurba_marseille","lat":43.31723,"lon":5.37779,"is_reserved":false,"is_disabled":false,"rental_uris":{"android":"levelo://app?vid=fcf6f42c-9492-49dd-a9e6-322a50636e12","ios":"levelo://app?vid=fcf6f42c-9492-49dd-a9e6-322a50636e12"},"vehicle_type_id":"4","last_reported":1734642488,"current_range_meters":14400,"station_id":"ce4bgth2rcd13ifvqch0","pricing_plan_id":"cebpf4jnsgd1na2vs0mg"},{"bike_id":"6e868a60-9f88-474e-adb5-72cc44996f9b","system_id":"levelo_inurba_marseille","lat":43.29521,"lon":5.37503,"is_reserved":false,"is_disabled":true,"rental_uris":{"android":"levelo://app?vid=6e868a60-9f88-474e-adb5-72cc44996f9b","ios":"levelo://app?vid=6e868a60-9f88-474e-adb5-72cc44996f9b"},"vehicle_type_id":"4","last_reported":1734642488,"current_range_meters":0,"station_id":"ce4bgkp2rcd13ifvqbmg","pricing_plan_id":"cebpf4jnsgd1na2vs0mg"},{"bike_id":"6023cafa-61d8-41cf-8c43-a31ddfc8d410","system_id":"levelo_inurba_marseille","lat":43.30301,"lon":5.39215,"is_reserved":false,"is_disabled":false,"rental_uris":{"android":"levelo://app?vid=6023cafa-61d8-41cf-8c43-a31ddfc8d410","ios":"levelo://app?vid=6023cafa-61d8-41cf-8c43-a31ddfc8d410"},"vehicle_type_id":"4","last_reported":1734642488,"current_range_meters":10800,"station_id":"ce4bgkh2rcd13ifvqbk0","pricing_plan_id":"cebpf4jnsgd1na2vs0mg"},{"bike_id":"dac1e890-1101-442b-bc00-cf32b62a9a46","system_id":"levelo_inurba_marseille","lat":43.290144,"lon":5.386384,"is_reserved":false,"is_disabled":false,"rental_uris":{"android":"levelo://app?vid=dac1e890-1101-442b-bc00-cf32b62a9a46","ios":"levelo://app?vid=dac1e890-1101-442b-bc00-cf32b62a9a46"},"vehicle_type_id":"4","last_reported":1734642488,"current_range_meters":36800,"station_id":"ce4bh4p2rcd13ifvqe0g","pricing_plan_id":"cebpf4jnsgd1na2vs0mg"},{"bike_id":"f384362e-dca0-4d89-b509-4071c545130d","system_id":"levelo_inurba_marseille","lat":43.26567,"lon":5.37276,"is_reserved":false,"is_disabled":false,"rental_uris":{"android":"levelo://app?vid=f384362e-dca0-4d89-b509-4071c545130d","ios":"levelo://app?vid=f384362e-dca0-4d89-b509-4071c545130d"},"vehicle_type_id":"4","last_reported":1734642488,"current_range_meters":12000,"station_id":"ce4bhg12rcd13ifvqf70","pricing_plan_id":"cebpf4jnsgd1na2vs0mg"},{"bike_id":"c7efde9f-98b9-487b-89c9-89a8cdbebaba","system_id":"levelo_inurba_marseille","lat":43.283483,"lon":5.381067,"is_reserved":false,"is_disabled":false,"rental_uris":{"android":"levelo://app?vid=c7efde9f-98b9-487b-89c9-89a8cdbebaba","ios":"levelo://app?vid=c7efde9f-98b9-487b-89c9-89a8cdbebaba"},"vehicle_type_id":"4","last_reported":1734642488,"current_range_meters":28000,"station_id":"ce4bh412rcd13ifvqdr0","pricing_plan_id":"cebpf4jnsgd1na2vs0mg"},{"bike_id":"24e2aa08-4a31-4188-95ef-7e0996e19c3c","system_id":"levelo_inurba_marseille","lat":43.28617,"lon":5.35098,"is_reserved":false,"is_disabled":false,"rental_uris":{"android":"levelo://app?vid=24e2aa08-4a31-4188-95ef-7e0996e19c3c","ios":"levelo://app?vid=24e2aa08-4a31-4188-95ef-7e0996e19c3c"},"vehicle_type_id":"4","last_reported":1734642488,"current_range_meters":36000,"station_id":"ce4bhch2rcd13ifvqeug","pricing_plan_id":"cebpf4jnsgd1na2vs0mg"},{"bike_id":"1beaa2ba-773b-4634-ac66-14d020922b6d","system_id":"levelo_inurba_marseille","lat":43.30149,"lon":5.38096,"is_reserved":false,"is_disabled":false,"rental_uris":{"android":"levelo://app?vid=1beaa2ba-773b-4634-ac66-14d020922b6d","ios":"levelo://app?vid=1beaa2ba-773b-4634-ac66-14d020922b6d"},"vehicle_type_id":"4","last_reported":1734642488,"current_range_meters":38800,"station_id":"ce4bgjp2rcd13ifvqbh0","pricing_plan_id":"cebpf4jnsgd1na2vs0mg"},{"bike_id":"ac7c5f56-daad-496c-965f-9103737000e8","system_id":"levelo_inurba_marseille","lat":43.23971,"lon":5.36629,"is_reserved":false,"is_disabled":false,"rental_uris":{"android":"levelo://app?vid=ac7c5f56-daad-496c-965f-9103737000e8","ios":"levelo://app?vid=ac7c5f56-daad-496c-965f-9103737000e8"},"vehicle_type_id":"4","last_reported":1734642488,"current_range_meters":38800,"station_id":"ce4bhi12rcd13ifvqfp0","pricing_plan_id":"cebpf4jnsgd1na2vs0mg"},{"bike_id":"faed9d38-3eca-4d87-ad5b-fc892a94ac65","system_id":"levelo_inurba_marseille","lat":43.31273,"lon":5.40189,"is_reserved":false,"is_disabled":false,"rental_uris":{"android":"levelo://app?vid=faed9d38-3eca-4d87-ad5b-fc892a94ac65","ios":"levelo://app?vid=faed9d38-3eca-4d87-ad5b-fc892a94ac65"},"vehicle_type_id":"4","last_reported":1734642488,"current_range_meters":38800,"station_id":"ce4bh092rcd13ifvqd30","pricing_plan_id":"cebpf4jnsgd1na2vs0mg"},{"bike_id":"7633ae2b-5564-48f0-8687-222ed04d9f97","system_id":"levelo_inurba_marseille","lat":43.29251,"lon":5.38453,"is_reserved":false,"is_disabled":false,"rental_uris":{"android":"levelo://app?vid=7633ae2b-5564-48f0-8687-222ed04d9f97","ios":"levelo://app?vid=7633ae2b-5564-48f0-8687-222ed04d9f97"},"vehicle_type_id":"4","last_reported":1734642488,"current_range_meters":38800,"station_id":"ce4bh692rcd13ifvqea0","pricing_plan_id":"cebpf4jnsgd1na2vs0mg"},{"bike_id":"0cef6d55-09da-4dff-80ee-facea058c7a5","system_id":"levelo_inurba_marseille","lat":43.30055,"lon":5.36969,"is_reserved":false,"is_disabled":false,"rental_uris":{"android":"levelo://app?vid=0cef6d55-09da-4dff-80ee-facea058c7a5","ios":"levelo://app?vid=0cef6d55-09da-4dff-80ee-facea058c7a5"},"vehicle_type_id":"4","last_reported":1734642488,"current_range_meters":31200,"station_id":"","pricing_plan_id":"cebpf4jnsgd1na2vs0mg"},{"bike_id":"322a364e-6f8b-4948-b410-704aa6b88a28","system_id":"levelo_inurba_marseille","lat":43.24084,"lon":5.3776,"is_reserved":false,"is_disabled":false,"rental_uris":{"android":"levelo://app?vid=322a364e-6f8b-4948-b410-704aa6b88a28","ios":"levelo://app?vid=322a364e-6f8b-4948-b410-704aa6b88a28"},