{"last_updated":1683310065,"ttl":30,"version":"2.2","data":{"bikes":[{"bike_id":"24720100-3391-4a13-8788-5372779897b5","system_id":"levelo_inurba_marseille","lat":43.313391,"lon":5.36706,"is_reserved":false,"is_disabled":false,"rental_uris":{"android":"levelo://app?vid=24720100-3391-4a13-8788-5372779897b5","ios":"levelo://app?vid=24720100-3391-4a13-8788-5372779897b5"},"vehicle_type_id":"4","last_reported":1683310066,"current_range_meters":18800,"station_id":"ce4bgr92rcd13ifvqc6g","pricing_plan_id":"free"},{"bike_id":"ac955a2f-0eed-4ecf-81b3-de19073a212d","system_id":"levelo_inurba_marseille","lat":43.312239,"lon":5.368562,"is_reserved":false,"is_disabled":false,"rental_uris":{"android":"levelo://app?vid=ac955a2f-0eed-4ecf-81b3-de19073a212d","ios":"levelo://app?vid=ac955a2f-0eed-4ecf-81b3-de19073a212d"},"vehicle_type_id":"4","last_reported":1683310066,"current_range_meters":10000,"station_id":"ce4bgl92rcd13ifvqbq0","pricing_plan_id":"free"},{"bike_id":"c7f5d670-55b4-46e6-a645-f39184bf4a98","system_id":"levelo_inurba_marseille","lat":43.31214,"lon":5.36851,"is_reserved":false,"is_disabled":false,"rental_uris":{"android":"levelo://app?vid=c7f5d670-55b4-46e6-a645-f39184bf4a98","ios":"levelo://app?vid=c7f5d670-55b4-46e6-a645-f39184bf4a98"},"vehicle_type_id":"4","last_reported":1683310066,"current_range_meters":12800,"station_id":"","pricing_plan_id":"free"},{"bike_id":"6592fbb7-bf54-4a16-8e53-b0529f3dd343","system_id":"levelo_inurba_marseille","lat":43.309076,"lon":5.368465,"is_reserved":false,"is_disabled":false,"rental_uris":{"android":"levelo://app?vid=6592fbb7-bf54-4a16-8e53-b0529f3dd343","ios":"levelo://app?vid=6592fbb7-bf54-4a16-8e53-b0529f3dd343"},"vehicle_type_id":"4","last_reported":1683310066,"current_range_meters":14000,"station_id":"ce4bgn92rcd13ifvqbvg","pricing_plan_id":"free"},{"bike_id":"11236616-13b1-4d37-ab5e-f3f69064131a","system_id":"levelo_inurba_marseille","lat":43.308614,"lon":5.372098,"is_reserved":false,"is_disabled":false,"rental_uris":{"android":"levelo://app?vid=11236616-13b1-4d37-ab5e-f3f69064131a","ios":"levelo://app?vid=11236616-13b1-4d37-ab5e-f3f69064131a"},"vehicle_type_id":"4","last_reported":1683310066,"current_range_meters":30800,"station_id":"ce4bguh2rcd13ifvqckg","pricing_plan_id":"free"},{"bike_id":"a41da47d-2c71-4355-b6be-09ff9d0f5448","system_id":"levelo_inurba_marseille","lat":43.308614,"lon":5.372098,"is_reserved":false,"is_disabled":false,"rental_uris":{"android":"levelo://app?vid=a41da47d-2c71-4355-b6be-09ff9d0f5448","ios":"levelo://app?vid=a41da47d-2c71-4355-b6be-09ff9d0f5448"},"vehicle_type_id":"4","last_reported":1683310066,"current_range_meters":31600,"station_id":"ce4bguh2rcd13ifvqckg","pricing_plan_id":"free"},{"bike_id":"242c861d-d183-480b-85b6-a04e09872dfa","system_id":"levelo_inurba_marseille","lat":43.308614,"lon":5.372098,"is_reserved":false,"is_disabled":false,"rental_uris":{"android":"levelo://app?vid=242c861d-d183-480b-85b6-a04e09872dfa","ios":"levelo://app?vid=242c861d-d183-480b-85b6-a04e09872dfa"},"vehicle_type_id":"4","last_reported":1683310066,"current_range_meters":31200,"station_id":"ce4bguh2rcd13ifvqckg","pricing_plan_id":"free"},{"bike_id":"8758a7cd-8f5b-45a4-bb37-ff66c57afd03","system_id":"levelo_inurba_marseille","lat":43.308614,"lon":5.372098,"is_reserved":false,"is_disabled":false,"rental_uris":{"android":"levelo://app?vid=8758a7cd-8f5b-45a4-bb37-ff66c57afd03","ios":"levelo://app?vid=8758a7cd-8f5b-45a4-bb37-ff66c57afd03"},"vehicle_type_id":"4","last_reported":1683310066,"current_range_meters":31200,"station_id":"ce4bguh2rcd13ifvqckg","pricing_plan_id":"free"},{"bike_id":"493dd9c0-c49f-4406-8836-c423cc588ed5","system_id":"levelo_inurba_marseille","lat":43.308614,"lon":5.372098,"is_reserved":false,"is_disabled":false,"rental_uris":{"android":"levelo://app?vid=493dd9c0-c49f-4406-8836-c423cc588ed5","ios":"levelo://app?vid=493dd9c0-c49f-4406-8836-c423cc588ed5"},"vehicle_type_id":"4","last_reported":1683310066,"current_range_meters":29200,"station_id":"ce4bguh2rcd13ifvqckg","pricing_plan_id":"free"},{"bike_id":"f4832e3a-8042-4982-8bce-4d581074892c","system_id":"levelo_inurba_marseille","lat":43.308614,"lon":5.372098,"is_reserved":false,"is_disabled":false,"rental_uris":{"android":"levelo://app?vid=f4832e3a-8042-4982-8bce-4d581074892c","ios":"levelo://app?vid=f4832e3a-8042-4982-8bce-4d581074892c"},"vehicle_type_id":"4","last_reported":1683310066,"current_range_meters":29200,"station_id":"ce4bguh2rcd13ifvqckg","pricing_plan_id":"free"},{"bike_id":"08950263-ab78-4768-adbb-22ff909facbd","system_id":"levelo_inurba_marseille","lat":43.308614,"lon":5.372098,"is_reserved":false,"is_disabled":false,"rental_uris":{"android":"levelo://app?vid=08950263-ab78-4768-adbb-22ff909facbd","ios":"levelo://app?vid=08950263-ab78-4768-adbb-22ff909facbd"},"vehicle_type_id":"4","last_reported":1683310066,"current_range_meters":30800,"station_id":"ce4bguh2rcd13ifvqckg","pricing_plan_id":"free"},{"bike_id":"611accda-3a05-4735-ae96-3bfb160a30ce","system_id":"levelo_inurba_marseille","lat":43.308614,"lon":5.372098,"is_reserved":false,"is_disabled":false,"rental_uris":{"android":"levelo://app?vid=611accda-3a05-4735-ae96-3bfb160a30ce","ios":"levelo://app?vid=611accda-3a05-4735-ae96-3bfb160a30ce"},"vehicle_type_id":"4","last_reported":1683310066,"current_range_meters":29200,"station_id":"ce4bguh2rcd13ifvqckg","pricing_plan_id":"free"},{"bike_id":"26c8babe-fcba-4929-8132-72531cf3dcc4","system_id":"levelo_inurba_marseille","lat":43.308614,"lon":5.372098,"is_reserved":false,"is_disabled":false,"rental_uris":{"android":"levelo://app?vid=26c8babe-fcba-4929-8132-72531cf3dcc4","ios":"levelo://app?vid=26c8babe-fcba-4929-8132-72531cf3dcc4"},"vehicle_type_id":"4","last_reported":1683310066,"current_range_meters":20800,"station_id":"ce4bguh2rcd13ifvqckg","pricing_plan_id":"free"},{"bike_id":"5c21fbf5-ae6b-4172-9b9f-9966c555ae73","system_id":"levelo_inurba_marseille","lat":43.308614,"lon":5.372098,"is_reserved":false,"is_disabled":false,"rental_uris":{"android":"levelo://app?vid=5c21fbf5-ae6b-4172-9b9f-9966c555ae73","ios":"levelo://app?vid=5c21fbf5-ae6b-4172-9b9f-9966c555ae73"},"vehicle_type_id":"4","last_reported":1683310066,"current_range_meters":400,"station_id":"ce4bguh2rcd13ifvqckg","pricing_plan_id":"free"},{"bike_id":"caea2489-5a5d-4f00-8e78-8c319f8ed68e","system_id":"levelo_inurba_marseille","lat":43.3057,"lon":5.36553,"is_reserved":false,"is_disabled":false,"rental_uris":{"android":"levelo://app?vid=caea2489-5a5d-4f00-8e78-8c319f8ed68e","ios":"levelo://app?vid=caea2489-5a5d-4f00-8e78-8c319f8ed68e"},"vehicle_type_id":"4","last_reported":1683310066,"current_range_meters":11200,"station_id":"","pricing_plan_id":"free"},{"bike_id":"8a2a808f-9c9f-48d0-9ddb-a81fc1618756","system_id":"levelo_inurba_marseille","lat":43.305706,"lon":5.365654,"is_reserved":false,"is_disabled":false,"rental_uris":{"android":"levelo://app?vid=8a2a808f-9c9f-48d0-9ddb-a81fc1618756","ios":"levelo://app?vid=8a2a808f-9c9f-48d0-9ddb-a81fc1618756"},"vehicle_type_id":"4","last_reported":1683310066,"current_range_meters":0,"station_id":"ce4bgs12rcd13ifvqcag","pricing_plan_id":"free"},{"bike_id":"f475f5b9-f956-4dda-b7b8-fcdb5a1136dc","system_id":"levelo_inurba_marseille","lat":43.311131,"lon":5.377651,"is_reserved":false,"is_disabled":false,"rental_uris":{"android":"levelo://app?vid=f475f5b9-f956-4dda-b7b8-fcdb5a1136dc","ios":"levelo://app?vid=f475f5b9-f956-4dda-b7b8-fcdb5a1136dc"},"vehicle_type_id":"4","last_reported":1683310066,"current_range_meters":12400,"station_id":"ce4bgt92rcd13ifvqcg0","pricing_plan_id":"free"},{"bike_id":"d44ef1b5-aa87-494f-b80b-d91982363150","system_id":"levelo_inurba_marseille","lat":43.315289,"lon":5.380349,"is_reserved":false,"is_disabled":false,"rental_uris":{"android":"levelo://app?vid=d44ef1b5-aa87-494f-b80b-d91982363150","ios":"levelo://app?vid=d44ef1b5-aa87-494f-b80b-d91982363150"},"vehicle_type_id":"4","last_reported":1683310066,"current_range_meters":26400,"station_id":"ce4bhsp2rcd13ifvqi50","pricing_plan_id":"free"},{"bike_id":"6646f385-7df2-4aa2-8f2d-7587e9a3c28a","system_id":"levelo_inurba_marseille","lat":43.315293,"lon":5.380349,"is_reserved":false,"is_disabled":false,"rental_uris":{"android":"levelo://app?vid=6646f385-7df2-4aa2-8f2d-7587e9a3c28a","ios":"levelo://app?vid=6646f385-7df2-4aa2-8f2d-7587e9a3c28a"},"vehicle_type_id":"4","last_reported":1683310066,"current_range_meters":17200,"station_id":"ce4bhsp2rcd13ifvqi50","pricing_plan_id":"free"},{"bike_id":"8170f3b4-b1c3-4994-93d8-7121a498d044","system_id":"levelo_inurba_marseille","lat":43.315289,"lon":5.380349,"is_reserved":false,"is_disabled":false,"rental_uris":{"android":"levelo://app?vid=8170f3b4-b1c3-4994-93d8-7121a498d044","ios":"levelo://app?vid=8170f3b4-b1c3-4994-93d8-7121a498d044"},"vehicle_type_id":"4","last_reported":1683310066,"current_range_meters":11600,"station_id":"ce4bhsp2rcd13ifvqi50","pricing_plan_id":"free"},{"bike_id":"d704db14-619a-4b5c-a1f1-f9ae82cac872","system_id":"levelo_inurba_marseille","lat":43.301939,"lon":5.366286,"is_reserved":false,"is_disabled":false,"rental_uris":{"android":"levelo://app?vid=d704db14-619a-4b5c-a1f1-f9ae82cac872","ios":"levelo://app?vid=d704db14-619a-4b5c-a1f1-f9ae82cac872"},"vehicle_type_id":"4","last_reported":1683310066,"current_range_meters":400,"station_id":"ce4bgrh2rcd13ifvqc8g","pricing_plan_id":"free"},{"bike_id":"55623f64-d8ba-424f-850e-5c9caf10fe3b","system_id":"levelo_inurba_marseille","lat":43.308012,"lon":5.381511,"is_reserved":false,"is_disabled":false,"rental_uris":{"android":"levelo://app?vid=55623f64-d8ba-424f-850e-5c9caf10fe3b","ios":"levelo://app?vid=55623f64-d8ba-424f-850e-5c9caf10fe3b"},"vehicle_type_id":"4","last_reported":1683310066,"current_range_meters":6000,"station_id":"ce4bgt12rcd13ifvqce0","pricing_plan_id":"free"},{"bike_id":"0d921131-f37e-42d3-a942-d82477716baa","system_id":"levelo_inurba_marseille","lat":43.308012,"lon":5.381511,"is_reserved":false,"is_disabled":false,"rental_uris":{"android":"levelo://app?vid=0d921131-f37e-42d3-a942-d82477716baa","ios":"levelo://app?vid=0d921131-f37e-42d3-a942-d82477716baa"},"vehicle_type_id":"4","last_reported":1683310066,"current_range_meters":0,"station_id":"ce4bgt12rcd13ifvqce0","pricing_plan_id":"free"},{"bike_id":"4f297c8b-c1e8-4456-b333-8e20df195f39","system_id":"levelo_inurba_marseille","lat":43.304606,"lon":5.379026,"is_reserved":false,"is_disabled":false,"rental_uris":{"android":"levelo://app?vid=4f297c8b-c1e8-4456-b333-8e20df195f39","ios":"levelo://app?vid=4f297c8b-c1e8-4456-b333-8e20df195f39"},"vehicle_type_id":"4","last_reported":1683310066,"current_range_meters":3600,"station_id":"ce4bgup2rcd13ifvqcn0","pricing_plan_id":"free"},{"bike_id":"c2a1a072-4f83-428a-9839-946f0711dfcb","system_id":"levelo_inurba_marseille","lat":43.304606,"lon":5.379026,"is_reserved":false,"is_disabled":false,"rental_uris":{"android":"levelo://app?vid=c2a1a072-4f83-428a-9839-946f0711dfcb","ios":"levelo://app?vid=c2a1a072-4f83-428a-9839-946f0711dfcb"},"vehicle_type_id":"4","last_reported":1683310066,"current_range_meters":23600,"station_id":"ce4bgup2rcd13ifvqcn0","pricing_plan_id":"free"},{"bike_id":"1ecf6a29-dc8c-4c8c-839b-016cfcf3cb5c","system_id":"levelo_inurba_marseille","lat":43.304606,"lon":5.379026,"is_reserved":false,"is_disabled":false,"rental_uris":{"android":"levelo://app?vid=1ecf6a29-dc8c-4c8c-839b-016cfcf3cb5c","ios":"levelo://app?vid=1ecf6a29-dc8c-4c8c-839b-016cfcf3cb5c"},"vehicle_type_id":"4","last_reported":1683310066,"current_range_meters":9600,"station_id":"ce4bgup2rcd13ifvqcn0","pricing_plan_id":"free"},{"bike_id":"d2099808-18a0-4426-8a05-203466fb8b38","system_id":"levelo_inurba_marseille","lat":43.304606,"lon":5.379026,"is_reserved":false,"is_disabled":false,"rental_uris":{"android":"levelo://app?vid=d2099808-18a0-4426-8a05-203466fb8b38","ios":"levelo://app?vid=d2099808-18a0-4426-8a05-203466fb8b38"},"vehicle_type_id":"4","last_reported":1683310066,"current_range_meters":6000,"station_id":"ce4bgup2rcd13ifvqcn0","pricing_plan_id":"free"},{"bike_id":"ce9195be-ed3a-436a-baf2-f2f57122066f","system_id":"levelo_inurba_marseille","lat":43.31359,"lon":5.38496,"is_reserved":false,"is_disabled":false,"rental_uris":{"android":"levelo://app?vid=ce9195be-ed3a-436a-baf2-f2f57122066f","ios":"levelo://app?vid=ce9195be-ed3a-436a-baf2-f2f57122066f"},"vehicle_type_id":"4","last_reported":1683310066,"current_range_meters":0,"station_id":"ce4bgt92rcd13ifvqcf0","pricing_plan_id":"free"},{"bike_id":"a76499bd-49b9-4f87-b93d-482bdeea1973","system_id":"levelo_inurba_marseille","lat":43.299222,"lon":5.365554,"is_reserved":false,"is_disabled":false,"rental_uris":{"android":"levelo://app?vid=a76499bd-49b9-4f87-b93d-482bdeea1973","ios":"levelo://app?vid=a76499bd-49b9-4f87-b93d-482bdeea1973"},"vehicle_type_id":"4","last_reported":1683310066,"current_range_meters":1200,"station_id":"ce4bgm92rcd13ifvqbr0","pricing_plan_id":"free"},{"bike_id":"3f00f0fb-aab2-47e6-ab61-9129733ce89e","system_id":"levelo_inurba_marseille","lat":43.299222,"lon":5.365554,"is_reserved":false,"is_disabled":false,"rental_uris":{"android":"levelo://app?vid=3f00f0fb-aab2-47e6-ab61-9129733ce89e","ios":"levelo://app?vid=3f00f0fb-aab2-47e6-ab61-9129733ce89e"},"vehicle_type_id":"4","last_reported":1683310066,"current_range_meters":22800,"station_id":"ce4bgm92rcd13ifvqbr0","pricing_plan_id":"free"},{"bike_id":"c570e1f4-4e24-4afb-9223-e7f562fe826a","system_id":"levelo_inurba_marseille","lat":43.299222,"lon":5.365554,"is_reserved":false,"is_disabled":false,"rental_uris":{"android":"levelo://app?vid=c570e1f4-4e24-4afb-9223-e7f562fe826a","ios":"levelo://app?vid=c570e1f4-4e24-4afb-9223-e7f562fe826a"},"vehicle_type_id":"4","last_reported":1683310066,"current_range_meters":1200,"station_id":"ce4bgm92rcd13ifvqbr0","pricing_plan_id":"free"},{"bike_id":"c89b014d-9180-4323-bec9-a33a0d82e222","system_id":"levelo_inurba_marseille","lat":43.299222,"lon":5.365554,"is_reserved":false,"is_disabled":false,"rental_uris":{"android":"levelo://app?vid=c89b014d-9180-4323-bec9-a33a0d82e222","ios":"levelo://app?vid=c89b014d-9180-4323-bec9-a33a0d82e222"},"vehicle_type_id":"4","last_reported":1683310066,"current_range_meters":16000,"station_id":"ce4bgm92rcd13ifvqbr0","pricing_plan_id":"free"},{"bike_id":"a96cdea3-b515-4257-99d4-29788eea7819","system_id":"levelo_inurba_marseille","lat":43.299222,"lon":5.365554,"is_reserved":false,"is_disabled":false,"rental_uris":{"android":"levelo://app?vid=a96cdea3-b515-4257-99d4-29788eea7819","ios":"levelo://app?vid=a96cdea3-b515-4257-99d4-29788eea7819"},"vehicle_type_id":"4","last_reported":1683310066,"current_range_meters":11600,"station_id":"ce4bgm92rcd13ifvqbr0","pricing_plan_id":"free"},{"bike_id":"ac685a2f-d1f1-4c4e-988c-e570e4ed8255","system_id":"levelo_inurba_marseille","lat":43.299222,"lon":5.365554,"is_reserved":false,"is_disabled":false,"rental_uris":{"android":"levelo://app?vid=ac685a2f-d1f1-4c4e-988c-e570e4ed8255","ios":"levelo://app?vid=ac685a2f-d1f1-4c4e-988c-e570e4ed8255"},"vehicle_type_id":"4","last_reported":1683310066,"current_range_meters":0,"station_id":"ce4bgm92rcd13ifvqbr0","pricing_plan_id":"free"},{"bike_id":"bcf12486-4d40-4884-969b-2c19f244a968","system_id":"levelo_inurba_marseille","lat":43.29857,"lon":5.3671,"is_reserved":false,"is_disabled":false,"rental_uris":{"android":"levelo://app?vid=bcf12486-4d40-4884-969b-2c19f244a968","ios":"levelo://app?vid=bcf12486-4d40-4884-969b-2c19f244a968"},"vehicle_type_id":"4","last_reported":1683310066,"current_range_meters":3200,"station_id":"","pricing_plan_id":"free"},{"bike_id":"464f32a4-a9e0-4758-a1f1-07b704ab94e0","system_id":"levelo_inurba_marseille","lat":43.298433,"lon":5.362774,"is_reserved":false,"is_disabled":false,"rental_uris":{"android":"levelo://app?vid=464f32a4-a9e0-4758-a1f1-07b704ab94e0","ios":"levelo://app?vid=464f32a4-a9e0-4758-a1f1-07b704ab94e0"},"vehicle_type_id":"4","last_reported":1683310066,"current_range_meters":4000,"station_id":"ce4bgpp2rcd13ifvqc3g","pricing_plan_id":"free"},{"bike_id":"608321b4-7a89-4994-8a5d-6daeca5033e9","system_id":"levelo_inurba_marseille","lat":43.299243,"lon":5.37481,"is_reserved":false,"is_disabled":false,"rental_uris":{"android":"levelo://app?vid=608321b4-7a89-4994-8a5d-6daeca5033e9","ios":"levelo://app?vid=608321b4-7a89-4994-8a5d-6daeca5033e9"},"vehicle_type_id":"4","last_reported":1683310066,"current_range_meters":6000,"station_id":"ce4bgjh2rcd13ifvqbg0","pricing_plan_id":"free"},{"bike_id":"36c1f4b1-336b-42b4-a085-c8c47788d9cb","system_id":"levelo_inurba_marseille","lat":43.328371,"lon":5.366912,"is_reserved":false,"is_disabled":false,"rental_uris":{"android":"levelo://app?vid=36c1f4b1-336b-42b4-a085-c8c47788d9cb","ios":"levelo://app?vid=36c1f4b1-336b-42b4-a085-c8c47788d9cb"},"vehicle_type_id":"4","last_reported":1683310066,"current_range_meters":15600,"station_id":"ce4bhs92rcd13ifvqi0g","pricing_plan_id":"free"},{"bike_id":"9f8e3a9b-22d0-4019-9a73-4dcf0ba03bca","system_id":"levelo_inurba_marseille","lat":43.328371,"lon":5.366909,"is_reserved":false,"is_disabled":false,"rental_uris":{"android":"levelo://app?vid=9f8e3a9b-22d0-4019-9a73-4dcf0ba03bca","ios":"levelo://app?vid=9f8e3a9b-22d0-4019-9a73-4dcf0ba03bca"},"vehicle_type_id":"4","last_reported":1683310066,"current_range_meters":25200,"station_id":"ce4bhs92rcd13ifvqi0g","pricing_plan_id":"free"},{"bike_id":"552d195b-8276-4461-8817-9bef832a3301","system_id":"levelo_inurba_marseille","lat":43.328371,"lon":5.366909,"is_reserved":false,"is_disabled":false,"rental_uris":{"android":"levelo://app?vid=552d195b-8276-4461-8817-9bef832a3301","ios":"levelo://app?vid=552d195b-8276-4461-8817-9bef832a3301"},"vehicle_type_id":"4","last_reported":1683310066,"current_range_meters":28800,"station_id":"ce4bhs92rcd13ifvqi0g","pricing_plan_id":"free"},{"bike_id":"1daf0905-2cfb-455c-99ca-855d5608b601","system_id":"levelo_inurba_marseille","lat":43.328371,"lon":5.366909,"is_reserved":false,"is_disabled":false,"rental_uris":{"android":"levelo://app?vid=1daf0905-2cfb-455c-99ca-855d5608b601","ios":"levelo://app?vid=1daf0905-2cfb-455c-99ca-855d5608b601"},"vehicle_type_id":"4","last_reported":1683310066,"current_range_meters":0,"station_id":"ce4bhs92rcd13ifvqi0g","pricing_plan_id":"free"},{"bike_id":"f01ec473-7fe9-47ec-852c-f195da583b5a","system_id":"levelo_inurba_marseille","lat":43.3283,"lon":5.36677,"is_reserved":false,"is_disabled":false,"rental_uris":{"android":"levelo://app?vid=f01ec473-7fe9-47ec-852c-f195da583b5a","ios":"levelo://app?vid=f01ec473-7fe9-47ec-852c-f195da583b5a"},"vehicle_type_id":"4","last_reported":1683310066,"current_range_meters":22000,"station_id":"ce4bhs92rcd13ifvqi0g","pricing_plan_id":"free"},{"bike_id":"bcd96b46-e429-4c61-88b7-4718079267d3","system_id":"levelo_inurba_marseille","lat":43.328371,"lon":5.366912,"is_reserved":false,"is_disabled":false,"rental_uris":{"android":"levelo://app?vid=bcd96b46-e429-4c61-88b7-4718079267d3","ios":"levelo://app?vid=bcd96b46-e429-4c61-88b7-4718079267d3"},"vehicle_type_id":"4","last_reported":1683310066,"current_range_meters":19200,"station_id":"ce4bhs92rcd13ifvqi0g","pricing_plan_id":"free"},{"bike_id":"ba5db858-af31-4cfe-99ff-47f4995f3617","system_id":"levelo_inurba_marseille","lat":43.328371,"lon":5.366909,"is_reserved":false,"is_disabled":false,"rental_uris":{"android":"levelo://app?vid=ba5db858-af31-4cfe-99ff-47f4995f3617","ios":"levelo://app?vid=ba5db858-af31-4cfe-99ff-47f4995f3617"},"vehicle_type_id":"4","last_reported":1683310066,"current_range_meters":18000,"station_id":"ce4bhs92rcd13ifvqi0g","pricing_plan_id":"free"},{"bike_id":"9f73266b-f45a-472d-99bd-e7c96c82d325","system_id":"levelo_inurba_marseille","lat":43.2968,"lon":5.37291,"is_reserved":false,"is_disabled":false,"rental_uris":{"android":"levelo://app?vid=9f73266b-f45a-472d-99bd-e7c96c82d325","ios":"levelo://app?vid=9f73266b-f45a-472d-99bd-e7c96c82d325"},"vehicle_type_id":"4","last_reported":1683310066,"current_range_meters":13200,"station_id":"ce4bgk12rcd13ifvqbj0","pricing_plan_id":"free"},{"bike_id":"aafcc005-5e38-4c52-a10d-6d0f89f0012b","system_id":"levelo_inurba_marseille","lat":43.302008,"lon":5.394694,"is_reserved":false,"is_disabled":false,"rental_uris":{"android":"levelo://app?vid=aafcc005-5e38-4c52-a10d-6d0f89f0012b","ios":"levelo://app?vid=aafcc005-5e38-4c52-a10d-6d0f89f0012b"},"vehicle_type_id":"4","last_reported":1683310066,"current_range_meters":8800,"station_id":"ce4bh0p2rcd13ifvqd70","pricing_plan_id":"free"},{"bike_id":"334ee195-d8c3-4eb0-8cb9-48cee21a49c5","system_id":"levelo_inurba_marseille","lat":43.29573,"lon":5.367355,"is_reserved":false,"is_disabled":false,"rental_uris":{"android":"levelo://app?vid=334ee195-d8c3-4eb0-8cb9-48cee21a49c5","ios":"levelo://app?vid=334ee195-d8c3-4eb0-8cb9-48cee21a49c5"},"vehicle_type_id":"4","last_reported":1683310066,"current_range_meters":2000,"station_id":"ce4bgph2rcd13ifvqc2g","pricing_plan_id":"free"},{"bike_id":"32766cf3-0260-45a7-9a32-bae136f0e936","system_id":"levelo_inurba_marseille","lat":43.309589,"lon":5.390258,"is_reserved":false,"is_disabled":false,"rental_uris":{"android":"levelo://app?vid=32766cf3-0260-45a7-9a32-bae136f0e936","ios":"levelo://app?vid=32766cf3-0260-45a7-9a32-bae136f0e936"},"vehicle_type_id":"4","last_reported":1683310066,"current_range_meters":2800,"station_id":"ce4bgup2rcd13ifvqco0","pricing_plan_id":"free"},{"bike_id":"04223d07-1879-4884-a7fa-7fb5799d181f","system_id":"levelo_inurba_marseille","lat":43.299028,"lon":5.381509,"is_reserved":false,"is_disabled":false,"rental_uris":{"android":"levelo://app?vid=04223d07-1879-4884-a7fa-7fb5799d181f","ios":"levelo://app?vid=04223d07-1879-4884-a7fa-7fb5799d181f"},"vehicle_type_id":"4","last_reported":1683310066,"current_range_meters":23600,"station_id":"ce4bgj12rcd13ifvqbc0","pricing_plan_id":"free"},{"bike_id":"a9004d07-ce0a-482f-a0d5-5783b32553d5","system_id":"levelo_inurba_marseille","lat":43.309589,"lon":5.390258,"is_reserved":false,"is_disabled":false,"rental_uris":{"android":"levelo://app?vid=a9004d07-ce0a-482f-a0d5-5783b32553d5","ios":"levelo://app?vid=a9004d07-ce0a-482f-a0d5-5783b32553d5"},"vehicle_type_id":"4","last_reported":1683310066,"current_range_meters":13200,"station_id":"ce4bgup2rcd13ifvqco0","pricing_plan_id":"free"},{"bike_id":"55e81a5c-dc18-4625-89aa-fe6acd3ab9fd","system_id":"levelo_inurba_marseille","lat":43.31756,"lon":5.39008,"is_reserved":false,"is_disabled":false,"rental_uris":{"android":"levelo://app?vid=55e81a5c-dc18-4625-89aa-fe6acd3ab9fd","ios":"levelo://app?vid=55e81a5c-dc18-4625-89aa-fe6acd3ab9fd"},"vehicle_type_id":"4","last_reported":1683310066,"current_range_meters":14800,"station_id":"ce4bhqp2rcd13ifvqhng","pricing_plan_id":"free"},{"bike_id":"d3bded05-295a-4e27-816d-28fd9af6ceed","system_id":"levelo_inurba_marseille","lat":43.317557,"lon":5.390173,"is_reserved":false,"is_disabled":false,"rental_uris":{"android":"levelo://app?vid=d3bded05-295a-4e27-816d-28fd9af6ceed","ios":"levelo://app?vid=d3bded05-295a-4e27-816d-28fd9af6ceed"},"vehicle_type_id":"4","last_reported":1683310066,"current_range_meters":30000,"station_id":"ce4bhqp2rcd13ifvqhng","pricing_plan_id":"free"},{"bike_id":"c4fed206-d3e9-4de9-9c09-3dacd39adff9","system_id":"levelo_inurba_marseille","lat":43.317557,"lon":5.390173,"is_reserved":false,"is_disabled":false,"rental_uris":{"android":"levelo://app?vid=c4fed206-d3e9-4de9-9c09-3dacd39adff9","ios":"levelo://app?vid=c4fed206-d3e9-4de9-9c09-3dacd39adff9"},"vehicle_type_id":"4","last_reported":1683310066,"current_range_meters":8800,"station_id":"ce4bhqp2rcd13ifvqhng","pricing_plan_id":"free"},{"bike_id":"fc664ecd-283b-4ad5-b8d8-fe7518401503","system_id":"levelo_inurba_marseille","lat":43.317557,"lon":5.390173,"is_reserved":false,"is_disabled":false,"rental_uris":{"android":"levelo://app?vid=fc664ecd-283b-4ad5-b8d8-fe7518401503","ios":"levelo://app?vid=fc664ecd-283b-4ad5-b8d8-fe7518401503"},"vehicle_type_id":"4","last_reported":1683310066,"current_range_meters":2800,"station_id":"ce4bhqp2rcd13ifvqhng","pricing_plan_id":"free"},{"bike_id":"aa822512-6d23-4984-a323-0b9c2c0d0af5","system_id":"levelo_inurba_marseille","lat":43.317557,"lon":5.390173,"is_reserved":false,"is_disabled":false,"rental_uris":{"android":"levelo://app?vid=aa822512-6d23-4984-a323-0b9c2c0d0af5","ios":"levelo://app?vid=aa822512-6d23-4984-a323-0b9c2c0d0af5"},"vehicle_type_id":"4","last_reported":1683310066,"current_range_meters":18400,"station_id":"ce4bhqp2rcd13ifvqhng","pricing_plan_id":"free"},{"bike_id":"77f34d79-51d0-4db3-ab3a-5aec4d75e78b","system_id":"levelo_inurba_marseille","lat":43.317557,"lon":5.390173,"is_reserved":false,"is_disabled":false,"rental_uris":{"android":"levelo://app?vid=77f34d79-51d0-4db3-ab3a-5aec4d75e78b","ios":"levelo://app?vid=77f34d79-51d0-4db3-ab3a-5aec4d75e78b"},"vehicle_type_id":"4","last_reported":1683310066,"current_range_meters":21600,"station_id":"ce4bhqp2rcd13ifvqhng","pricing_plan_id":"free"},{"bike_id":"60ef946b-9459-4a60-b71e-9a93871770e0","system_id":"levelo_inurba_marseille","lat":43.31757,"lon":5.39017,"is_reserved":false,"is_disabled":false,"rental_uris":{"android":"levelo://app?vid=60ef946b-9459-4a60-b71e-9a93871770e0","ios":"levelo://app?vid=60ef946b-9459-4a60-b71e-9a93871770e0"},"vehicle_type_id":"4","last_reported":1683310066,"current_range_meters":31200,"station_id":"ce4bhqp2rcd13ifvqhng","pricing_plan_id":"free"},{"bike_id":"e00888f6-99e1-4c69-986f-1e3669edea53","system_id":"levelo_inurba_marseille","lat":43.317557,"lon":5.390173,"is_reserved":false,"is_disabled":false,"rental_uris":{"android":"levelo://app?vid=e00888f6-99e1-4c69-986f-1e3669edea53","ios":"levelo://app?vid=e00888f6-99e1-4c69-986f-1e3669edea53"},"vehicle_type_id":"4","last_reported":1683310066,"current_range_meters":19600,"station_id":"ce4bhqp2rcd13ifvqhng","pricing_plan_id":"free"},{"bike_id":"75083129-cb37-4ae1-868b-cd09b5374176","system_id":"levelo_inurba_marseille","lat":43.317557,"lon":5.390173,"is_reserved":false,"is_disabled":false,"rental_uris":{"android":"levelo://app?vid=75083129-cb37-4ae1-868b-cd09b5374176","ios":"levelo://app?vid=75083129-cb37-4ae1-868b-cd09b5374176"},"vehicle_type_id":"4","last_reported":1683310066,"current_range_meters":18400,"station_id":"ce4bhqp2rcd13ifvqhng","pricing_plan_id":"free"},{"bike_id":"035ed04f-43b3-40ca-befd-d0a74b996a1d","system_id":"levelo_inurba_marseille","lat":43.298037,"lon":5.381066,"is_reserved":false,"is_disabled":false,"rental_uris":{"android":"levelo://app?vid=035ed04f-43b3-40ca-befd-d0a74b996a1d","ios":"levelo://app?vid=035ed04f-43b3-40ca-befd-d0a74b996a1d"},"vehicle_type_id":"4","last_reported":1683310066,"current_range_meters":5600,"station_id":"ce4bgip2rcd13ifvqbb0","pricing_plan_id":"free"},{"bike_id":"280c1e13-46d1-426d-b6e4-fccf630fdece","system_id":"levelo_inurba_marseille","lat":43.298037,"lon":5.381066,"is_reserved":false,"is_disabled":false,"rental_uris":{"android":"levelo://app?vid=280c1e13-46d1-426d-b6e4-fccf630fdece","ios":"levelo://app?vid=280c1e13-46d1-426d-b6e4-fccf630fdece"},"vehicle_type_id":"4","last_reported":1683310066,"current_range_meters":8800,"station_id":"ce4bgip2rcd13ifvqbb0","pricing_plan_id":"free"},{"bike_id":"07463b46-c47f-489c-9c27-a6fb2c473c78","system_id":"levelo_inurba_marseille","lat":43.31466,"lon":5.39154,"is_reserved":false,"is_disabled":false,"rental_uris":{"android":"levelo://app?vid=07463b46-c47f-489c-9c27-a6fb2c473c78","ios":"levelo://app?vid=07463b46-c47f-489c-9c27-a6fb2c473c78"},"vehicle_type_id":"4","last_reported":1683310066,"current_range_meters":4800,"station_id":"","pricing_plan_id":"free"},{"bike_id":"f13c3ca1-a65e-42b5-8b57-841291d1e9bf","system_id":"levelo_inurba_marseille","lat":43.298037,"lon":5.381066,"is_reserved":false,"is_disabled":false,"rental_uris":{"android":"levelo://app?vid=f13c3ca1-a65e-42b5-8b57-841291d1e9bf","ios":"levelo://app?vid=f13c3ca1-a65e-42b5-8b57-841291d1e9bf"},"vehicle_type_id":"4","last_reported":1683310066,"current_range_meters":24400,"station_id":"ce4bgip2rcd13ifvqbb0","pricing_plan_id":"free"},{"bike_id":"e5b2bbcc-bbe6-4c68-a561-175366cae999","system_id":"levelo_inurba_marseille","lat":43.30442,"lon":5.38896,"is_reserved":false,"is_disabled":false,"rental_uris":{"android":"levelo://app?vid=e5b2bbcc-bbe6-4c68-a561-175366cae999","ios":"levelo://app?vid=e5b2bbcc-bbe6-4c68-a561-175366cae999"},"vehicle_type_id":"4","last_reported":1683310066,"current_range_meters":11200,"station_id":"ce4bgk12rcd13ifvqbi0","pricing_plan_id":"free"},{"bike_id":"5135a310-01f4-4a36-a2b8-4b1905a40590","system_id":"levelo_inurba_marseille","lat":43.304274,"lon":5.388873,"is_reserved":false,"is_disabled":false,"rental_uris":{"android":"levelo://app?vid=5135a310-01f4-4a36-a2b8-4b1905a40590","ios":"levelo://app?vid=5135a310-01f4-4a36-a2b8-4b1905a40590"},"vehicle_type_id":"4","last_reported":1683310066,"current_range_meters":18800,"station_id":"ce4bgk12rcd13ifvqbi0","pricing_plan_id":"free"},{"bike_id":"4a4a7959-949b-41ef-bf14-30adde1b7b72","system_id":"levelo_inurba_marseille","lat":43.304274,"lon":5.388873,"is_reserved":false,"is_disabled":false,"rental_uris":{"android":"levelo://app?vid=4a4a7959-949b-41ef-bf14-30adde1b7b72","ios":"levelo://app?vid=4a4a7959-949b-41ef-bf14-30adde1b7b72"},"vehicle_type_id":"4","last_reported":1683310066,"current_range_meters":10800,"station_id":"ce4bgk12rcd13ifvqbi0","pricing_plan_id":"free"},{"bike_id":"556b02fb-9e8c-42aa-9b3e-758380555b89","system_id":"levelo_inurba_marseille","lat":43.30428,"lon":5.38895,"is_reserved":false,"is_disabled":false,"rental_uris":{"android":"levelo://app?vid=556b02fb-9e8c-42aa-9b3e-758380555b89","ios":"levelo://app?vid=556b02fb-9e8c-42aa-9b3e-758380555b89"},"vehicle_type_id":"4","last_reported":1683310066,"current_range_meters":0,"station_id":"ce4bgk12rcd13ifvqbi0","pricing_plan_id":"free"},{"bike_id":"559170bb-574f-40c0-938d-99ecd6e1eee9","system_id":"levelo_inurba_marseille","lat":43.29632,"lon":5.37751,"is_reserved":false,"is_disabled":false,"rental_uris":{"android":"levelo://app?vid=559170bb-574f-40c0-938d-99ecd6e1eee9","ios":"levelo://app?vid=559170bb-574f-40c0-938d-99ecd6e1eee9"},"vehicle_type_id":"4","last_reported":1683310066,"current_range_meters":400,"station_id":"","pricing_plan_id":"free"},{"bike_id":"945592b0-71fd-43c9-879b-709fd41ef45d","system_id":"levelo_inurba_marseille","lat":43.296277,"lon":5.377108,"is_reserved":false,"is_disabled":false,"rental_uris":{"android":"levelo://app?vid=945592b0-71fd-43c9-879b-709fd41ef45d","ios":"levelo://app?vid=945592b0-71fd-43c9-879b-709fd41ef45d"},"vehicle_type_id":"4","last_reported":1683310066,"current_range_meters":19600,"station_id":"ce4bgi92rcd13ifvqb90","pricing_plan_id":"free"},{"bike_id":"0051b362-06f6-4ec0-81ec-f840c5cd64cf","system_id":"levelo_inurba_marseille","lat":43.295279,"lon":5.375048,"is_reserved":false,"is_disabled":false,"rental_uris":{"android":"levelo://app?vid=0051b362-06f6-4ec0-81ec-f840c5cd64cf","ios":"levelo://app?vid=0051b362-06f6-4ec0-81ec-f840c5cd64cf"},"vehicle_type_id":"4","last_reported":1683310066,"current_range_meters":4000,"station_id":"ce4bgkp2rcd13ifvqbmg","pricing_plan_id":"free"},{"bike_id":"5560fb30-b37d-47e3-a3d2-a577e19f5f0a","system_id":"levelo_inurba_marseille","lat":43.32369,"lon":5.38887,"is_reserved":false,"is_disabled":false,"rental_uris":{"android":"levelo://app?vid=5560fb30-b37d-47e3-a3d2-a577e19f5f0a","ios":"levelo://app?vid=5560fb30-b37d-47e3-a3d2-a577e19f5f0a"},"vehicle_type_id":"4","last_reported":1683310066,"current_range_meters":17600,"station_id":"","pricing_plan_id":"free"},{"bike_id":"ab7b8dc5-9722-47e7-8a78-100d1a674f6d","system_id":"levelo_inurba_marseille","lat":43.3237,"lon":5.38887,"is_reserved":false,"is_disabled":false,"rental_uris":{"android":"levelo://app?vid=ab7b8dc5-9722-47e7-8a78-100d1a674f6d","ios":"levelo://app?vid=ab7b8dc5-9722-47e7-8a78-100d1a674f6d"},"vehicle_type_id":"4","last_reported":1683310066,"current_range_meters":10000,"station_id":"","pricing_plan_id":"free"},{"bike_id":"ff418df2-2582-43e0-8492-be1a1a9cc9d2","system_id":"levelo_inurba_marseille","lat":43.293009,"lon":5.374584,"is_reserved":false,"is_disabled":false,"rental_uris":{"android":"levelo://app?vid=ff418df2-2582-43e0-8492-be1a1a9cc9d2","ios":"levelo://app?vid=ff418df2-2582-43e0-8492-be1a1a9cc9d2"},"vehicle_type_id":"4","last_reported":1683310066,"current_range_meters":19600,"station_id":"ce4bgi12rcd13ifvqb70","pricing_plan_id":"free"},{"bike_id":"a06c2759-ba2f-4701-ac23-8d19369969ad","system_id":"levelo_inurba_marseille","lat":43.293249,"lon":5.371578,"is_reserved":false,"is_disabled":false,"rental_uris":{"android":"levelo://app?vid=a06c2759-ba2f-4701-ac23-8d19369969ad","ios":"levelo://app?vid=a06c2759-ba2f-4701-ac23-8d19369969ad"},"vehicle_type_id":"4","last_reported":1683310066,"current_range_meters":0,"station_id":"ce4bgh92rcd13ifvqb40","pricing_plan_id":"free"},{"bike_id":"477f6bd3-d7d7-46a3-a0c1-b688f8754ec7","system_id":"levelo_inurba_marseille","lat":43.292749,"lon":5.368402,"is_reserved":false,"is_disabled":false,"rental_uris":{"android":"levelo://app?vid=477f6bd3-d7d7-46a3-a0c1-b688f8754ec7","ios":"levelo://app?vid=477f6bd3-d7d7-46a3-a0c1-b688f8754ec7"},"vehicle_type_id":"4","last_reported":1683310066,"current_range_meters":9600,"station_id":"ce4bhbp2rcd13ifvqesg","pricing_plan_id":"free"},{"bike_id":"a280c6ce-babe-4b3f-bef3-0c0a6bc83fc6","system_id":"levelo_inurba_marseille","lat":43.29273,"lon":5.3684,"is_reserved":false,"is_disabled":false,"rental_uris":{"android":"levelo://app?vid=a280c6ce-babe-4b3f-bef3-0c0a6bc83fc6","ios":"levelo://app?vid=a280c6ce-babe-4b3f-bef3-0c0a6bc83fc6"},"vehicle_type_id":"4","last_reported":1683310066,"current_range_meters":0,"station_id":"ce4bhbp2rcd13ifvqesg","pricing_plan_id":"free"},{"bike_id":"6074c892-16e0-47b0-acd3-27cc34c0342c","system_id":"levelo_inurba_marseille","lat":43.29272,"lon":5.36839,"is_reserved":false,"is_disabled":false,"rental_uris":{"android":"levelo://app?vid=6074c892-16e0-47b0-acd3-27cc34c0342c","ios":"levelo://app?vid=6074c892-16e0-47b0-acd3-27cc34c0342c"},"vehicle_type_id":"4","last_reported":1683310066,"current_range_meters":0,"station_id":"ce4bhbp2rcd13ifvqesg","pricing_plan_id":"free"},{"bike_id":"d6faf34b-b11b-4b70-bde1-72d07cd40214","system_id":"levelo_inurba_marseille","lat":43.2927,"lon":5.36838,"is_reserved":false,"is_disabled":false,"rental_uris":{"android":"levelo://app?vid=d6faf34b-b11b-4b70-bde1-72d07cd40214","ios":"levelo://app?vid=d6faf34b-b11b-4b70-bde1-72d07cd40214"},"vehicle_type_id":"4","last_reported":1683310066,"current_range_meters":18800,"station_id":"ce4bhbp2rcd13ifvqesg","pricing_plan_id":"free"},{"bike_id":"576f0156-a561-4448-b2ff-45e4cbe0191a","system_id":"levelo_inurba_marseille","lat":43.29265,"lon":5.36837,"is_reserved":false,"is_disabled":false,"rental_uris":{"android":"levelo://app?vid=576f0156-a561-4448-b2ff-45e4cbe0191a","ios":"levelo://app?vid=576f0156-a561-4448-b2ff-45e4cbe0191a"},"vehicle_type_id":"4","last_reported":1683310066,"current_range_meters":15200,"station_id":"ce4bhbp2rcd13ifvqesg","pricing_plan_id":"free"},{"bike_id":"1482ddb5-30b7-4048-8f08-6ea544c223a3","system_id":"levelo_inurba_marseille","lat":43.293009,"lon":5.374584,"is_reserved":false,"is_disabled":false,"rental_uris":{"android":"levelo://app?vid=1482ddb5-30b7-4048-8f08-6ea544c223a3","ios":"levelo://app?vid=1482ddb5-30b7-4048-8f08-6ea544c223a3"},"vehicle_type_id":"4","last_reported":1683310066,"current_range_meters":28000,"station_id":"ce4bgi12rcd13ifvqb70","pricing_plan_id":"free"},{"bike_id":"d1913a58-caef-4b49-877d-08f5fb4e4f43","system_id":"levelo_inurba_marseille","lat":43.293009,"lon":5.374584,"is_reserved":false,"is_disabled":false,"rental_uris":{"android":"levelo://app?vid=d1913a58-caef-4b49-877d-08f5fb4e4f43","ios":"levelo://app?vid=d1913a58-caef-4b49-877d-08f5fb4e4f43"},"vehicle_type_id":"4","last_reported":1683310066,"current_range_meters":28800,"station_id":"ce4bgi12rcd13ifvqb70","pricing_plan_id":"free"},{"bike_id":"2963a69f-b576-42bd-a576-9161a33c241c","system_id":"levelo_inurba_marseille","lat":43.293009,"lon":5.374584,"is_reserved":false,"is_disabled":false,"rental_uris":{"android":"levelo://app?vid=2963a69f-b576-42bd-a576-9161a33c241c","ios":"levelo://app?vid=2963a69f-b576-42bd-a576-9161a33c241c"},"vehicle_type_id":"4","last_reported":1683310066,"current_range_meters":4400,"station_id":"ce4bgi12rcd13ifvqb70","pricing_plan_id":"free"},{"bike_id":"9f727317-ec03-41db-8b7d-1ad6efff6874","system_id":"levelo_inurba_marseille","lat":43.305994,"lon":5.393687,"is_reserved":false,"is_disabled":false,"rental_uris":{"android":"levelo://app?vid=9f727317-ec03-41db-8b7d-1ad6efff6874","ios":"levelo://app?vid=9f727317-ec03-41db-8b7d-1ad6efff6874"},"vehicle_type_id":"4","last_reported":1683310066,"current_range_meters":6400,"station_id":"ce4bh0p2rcd13ifvqd80","pricing_plan_id":"free"},{"bike_id":"13ea23ee-47b4-4138-870e-1823eadc3cb8","system_id":"levelo_inurba_marseille","lat":43.305994,"lon":5.393687,"is_reserved":false,"is_disabled":false,"rental_uris":{"android":"levelo://app?vid=13ea23ee-47b4-4138-870e-1823eadc3cb8","ios":"levelo://app?vid=13ea23ee-47b4-4138-870e-1823eadc3cb8"},"vehicle_type_id":"4","last_reported":1683310066,"current_range_meters":5200,"station_id":"ce4bh0p2rcd13ifvqd80","pricing_plan_id":"free"},{"bike_id":"59f5a313-b890-405c-ad9c-9b86c2a4af85","system_id":"levelo_inurba_marseille","lat":43.293009,"lon":5.374584,"is_reserved":false,"is_disabled":false,"rental_uris":{"android":"levelo://app?vid=59f5a313-b890-405c-ad9c-9b86c2a4af85","ios":"levelo://app?vid=59f5a313-b890-405c-ad9c-9b86c2a4af85"},"vehicle_type_id":"4","last_reported":1683310066,"current_range_meters":10000,"station_id":"ce4bgi12rcd13ifvqb70","pricing_plan_id":"free"},{"bike_id":"e7eb11f1-ac4c-4b54-988a-9f293f842a65","system_id":"levelo_inurba_marseille","lat":43.302992,"lon":5.392136,"is_reserved":false,"is_disabled":false,"rental_uris":{"android":"levelo://app?vid=e7eb11f1-ac4c-4b54-988a-9f293f842a65","ios":"levelo://app?vid=e7eb11f1-ac4c-4b54-988a-9f293f842a65"},"vehicle_type_id":"4","last_reported":1683310066,"current_range_meters":2800,"station_id":"ce4bgkh2rcd13ifvqbk0","pricing_plan_id":"free"},{"bike_id":"191b0681-395a-45ca-be2e-96e285f7cec2","system_id":"levelo_inurba_marseille","lat":43.302992,"lon":5.392136,"is_reserved":false,"is_disabled":false,"rental_uris":{"android":"levelo://app?vid=191b0681-395a-45ca-be2e-96e285f7cec2","ios":"levelo://app?vid=191b0681-395a-45ca-be2e-96e285f7cec2"},"vehicle_type_id":"4","last_reported":1683310066,"current_range_meters":6400,"station_id":"ce4bgkh2rcd13ifvqbk0","pricing_plan_id":"free"},{"bike_id":"9ef6f6b0-9932-4db4-9206-27294c6f7c88","system_id":"levelo_inurba_marseille","lat":43.303002,"lon":5.392142,"is_reserved":false,"is_disabled":false,"rental_uris":{"android":"levelo://app?vid=9ef6f6b0-9932-4db4-9206-27294c6f7c88","ios":"levelo://app?vid=9ef6f6b0-9932-4db4-9206-27294c6f7c88"},"vehicle_type_id":"4","last_reported":1683310066,"current_range_meters":15200,"station_id":"ce4bgkh2rcd13ifvqbk0","pricing_plan_id":"free"},{"bike_id":"7df4b0d3-5f2d-44dc-adee-5e9a2a60d5aa","system_id":"levelo_inurba_marseille","lat":43.302992,"lon":5.392136,"is_reserved":false,"is_disabled":false,"rental_uris":{"android":"levelo://app?vid=7df4b0d3-5f2d-44dc-adee-5e9a2a60d5aa","ios":"levelo://app?vid=7df4b0d3-5f2d-44dc-adee-5e9a2a60d5aa"},"vehicle_type_id":"4","last_reported":1683310066,"current_range_meters":20800,"station_id":"ce4bgkh2rcd13ifvqbk0","pricing_plan_id":"free"},{"bike_id":"c3773c33-e134-4647-b940-122f2ac9f7d8","system_id":"levelo_inurba_marseille","lat":43.302992,"lon":5.392136,"is_reserved":false,"is_disabled":false,"rental_uris":{"android":"levelo://app?vid=c3773c33-e134-4647-b940-122f2ac9f7d8","ios":"levelo://app?vid=c3773c33-e134-4647-b940-122f2ac9f7d8"},"vehicle_type_id":"4","last_reported":1683310066,"current_range_meters":11600,"station_id":"ce4bgkh2rcd13ifvqbk0","pricing_plan_id":"free"},{"bike_id":"ab86e634-6339-403a-9e44-731377da0c3b","system_id":"levelo_inurba_marseille","lat":43.2936,"lon":5.37835,"is_reserved":false,"is_disabled":false,"rental_uris":{"android":"levelo://app?vid=ab86e634-6339-403a-9e44-731377da0c3b","ios":"levelo://app?vid=ab86e634-6339-403a-9e44-731377da0c3b"},"vehicle_type_id":"4","last_reported":1683310066,"current_range_meters":23200,"station_id":"ce4bgjh2rcd13ifvqbf0","pricing_plan_id":"free"},{"bike_id":"f942b90d-5bee-4bdb-a67a-395cc01de386","system_id":"levelo_inurba_marseille","lat":43.30642,"lon":5.401031,"is_reserved":false,"is_disabled":false,"rental_uris":{"android":"levelo://app?vid=f942b90d-5bee-4bdb-a67a-395cc01de386","ios":"levelo://app?vid=f942b90d-5bee-4bdb-a67a-395cc01de386"},"vehicle_type_id":"4","last_reported":1683310066,"current_range_meters":12800,"station_id":"ce4bh112rcd13ifvqda0","pricing_plan_id":"free"},{"bike_id":"d48fd464-00d7-46d3-84f7-abb1e5998d27","system_id":"levelo_inurba_marseille","lat":43.29172,"lon":5.37169,"is_reserved":false,"is_disabled":false,"rental_uris":{"android":"levelo://app?vid=d48fd464-00d7-46d3-84f7-abb1e5998d27","ios":"levelo://app?vid=d48fd464-00d7-46d3-84f7-abb1e5998d27"},"vehicle_type_id":"4","last_reported":1683310066,"current_range_meters":8400,"station_id":"ce4bha92rcd13ifvqeh0","pricing_plan_id":"free"},{"bike_id":"3d462811-cbb1-4a50-9665-ed7598e19e60","system_id":"levelo_inurba_marseille","lat":43.291671,"lon":5.371575,"is_reserved":false,"is_disabled":false,"rental_uris":{"android":"levelo://app?vid=3d462811-cbb1-4a50-9665-ed7598e19e60","ios":"levelo://app?vid=3d462811-cbb1-4a50-9665-ed7598e19e60"},"vehicle_type_id":"4","last_reported":1683310066,"current_range_meters":1600,"station_id":"ce4bha92rcd13ifvqeh0","pricing_plan_id":"free"},{"bike_id":"b875d133-1d7a-4f95-b927-6b80aab90e30","system_id":"levelo_inurba_marseille","lat":43.291671,"lon":5.371575,"is_reserved":false,"is_disabled":false,"rental_uris":{"android":"levelo://app?vid=b875d133-1d7a-4f95-b927-6b80aab90e30","ios":"levelo://app?vid=b875d133-1d7a-4f95-b927-6b80aab90e30"},"vehicle_type_id":"4","last_reported":1683310066,"current_range_meters":19200,"station_id":"ce4bha92rcd13ifvqeh0","pricing_plan_id":"free"},{"bike_id":"555a31e1-73d7-4968-9de4-b5cbba9470f8","system_id":"levelo_inurba_marseille","lat":43.31298,"lon":5.39661,"is_reserved":false,"is_disabled":false,"rental_uris":{"android":"levelo://app?vid=555a31e1-73d7-4968-9de4-b5cbba9470f8","ios":"levelo://app?vid=555a31e1-73d7-4968-9de4-b5cbba9470f8"},"vehicle_type_id":"4","last_reported":1683310066,"current_range_meters":9600,"station_id":"","pricing_plan_id":"free"},{"bike_id":"165ced22-cd74-49e3-bcbd-938bccbccffd","system_id":"levelo_inurba_marseille","lat":43.31321,"lon":5.39697,"is_reserved":false,"is_disabled":false,"rental_uris":{"android":"levelo://app?vid=165ced22-cd74-49e3-bcbd-938bccbccffd","ios":"levelo://app?vid=165ced22-cd74-49e3-bcbd-938bccbccffd"},"vehicle_type_id":"4","last_reported":1683310066,"current_range_meters":400,"station_id":"ce4bgvp2rcd13ifvqcu0","pricing_plan_id":"free"},{"bike_id":"5e37a12a-80dd-4596-99b6-1727357b1710","system_id":"levelo_inurba_marseille","lat":43.29065,"lon":5.37171,"is_reserved":false,"is_disabled":false,"rental_uris":{"android":"levelo://app?vid=5e37a12a-80dd-4596-99b6-1727357b1710","ios":"levelo://app?vid=5e37a12a-80dd-4596-99b6-1727357b1710"},"vehicle_type_id":"4","last_reported":1683310066,"current_range_meters":14000,"station_id":"","pricing_plan_id":"free"},{"bike_id":"2cc846b9-cc28-43e1-8591-e2c504eb43d9","system_id":"levelo_inurba_marseille","lat":43.290624,"lon":5.359245,"is_reserved":false,"is_disabled":false,"rental_uris":{"android":"levelo://app?vid=2cc846b9-cc28-43e1-8591-e2c504eb43d9","ios":"levelo://app?vid=2cc846b9-cc28-43e1-8591-e2c504eb43d9"},"vehicle_type_id":"4","last_reported":1683310066,"current_range_meters":22800,"station_id":"ce4bha92rcd13ifvqeg0","pricing_plan_id":"free"},{"bike_id":"cee7fff2-484d-4715-b6d5-596a5d67d9f5","system_id":"levelo_inurba_marseille","lat":43.294153,"lon":5.386305,"is_reserved":false,"is_disabled":false,"rental_uris":{"android":"levelo://app?vid=cee7fff2-484d-4715-b6d5-596a5d67d9f5","ios":"levelo://app?vid=cee7fff2-484d-4715-b6d5-596a5d67d9f5"},"vehicle_type_id":"4","last_reported":1683310066,"current_range_meters":400,"station_id":"ce4bh2h2rcd13ifvqdh0","pricing_plan_id":"free"},{"bike_id":"bcb4733f-02fb-4a7a-a7e5-96038ecffa82","system_id":"levelo_inurba_marseille","lat":43.294153,"lon":5.386305,"is_reserved":false,"is_disabled":false,"rental_uris":{"android":"levelo://app?vid=bcb4733f-02fb-4a7a-a7e5-96038ecffa82","ios":"levelo://app?vid=bcb4733f-02fb-4a7a-a7e5-96038ecffa82"},"vehicle_type_id":"4","last_reported":1683310066,"current_range_meters":10800,"station_id":"ce4bh2h2rcd13ifvqdh0","pricing_plan_id":"free"},{"bike_id":"fa8542ea-cc95-4864-aee9-86cf51dbe661","system_id":"levelo_inurba_marseille","lat":43.290327,"lon":5.375711,"is_reserved":false,"is_disabled":false,"rental_uris":{"android":"levelo://app?vid=fa8542ea-cc95-4864-aee9-86cf51dbe661","ios":"levelo://app?vid=fa8542ea-cc95-4864-aee9-86cf51dbe661"},"vehicle_type_id":"4","last_reported":1683310066,"current_range_meters":15200,"station_id":"ce4bh692rcd13ifvqe90","pricing_plan_id":"free"},{"bike_id":"0bc668fa-c7eb-4b07-b7d9-ff199b8ac796","system_id":"levelo_inurba_marseille","lat":43.294153,"lon":5.386305,"is_reserved":false,"is_disabled":false,"rental_uris":{"android":"levelo://app?vid=0bc668fa-c7eb-4b07-b7d9-ff199b8ac796","ios":"levelo://app?vid=0bc668fa-c7eb-4b07-b7d9-ff199b8ac796"},"vehicle_type_id":"4","last_reported":1683310066,"current_range_meters":6000,"station_id":"ce4bh2h2rcd13ifvqdh0","pricing_plan_id":"free"},{"bike_id":"71de0639-cf68-4c4c-b7c1-86ff1c16738b","system_id":"levelo_inurba_marseille","lat":43.290327,"lon":5.375711,"is_reserved":false,"is_disabled":false,"rental_uris":{"android":"levelo://app?vid=71de0639-cf68-4c4c-b7c1-86ff1c16738b","ios":"levelo://app?vid=71de0639-cf68-4c4c-b7c1-86ff1c16738b"},"vehicle_type_id":"4","last_reported":1683310066,"current_range_meters":23200,"station_id":"ce4bh692rcd13ifvqe90","pricing_plan_id":"free"},{"bike_id":"b4d39df8-17d3-4b73-a5ec-7961d9138473","system_id":"levelo_inurba_marseille","lat":43.289184,"lon":5.366408,"is_reserved":false,"is_disabled":false,"rental_uris":{"android":"levelo://app?vid=b4d39df8-17d3-4b73-a5ec-7961d9138473","ios":"levelo://app?vid=b4d39df8-17d3-4b73-a5ec-7961d9138473"},"vehicle_type_id":"4","last_reported":1683310066,"current_range_meters":0,"station_id":"ce4bhap2rcd13ifvqek0","pricing_plan_id":"free"},{"bike_id":"4d4bcbf8-f9ea-41cf-b1f5-66bc60e35ec0","system_id":"levelo_inurba_marseille","lat":43.294162,"lon":5.386292,"is_reserved":false,"is_disabled":false,"rental_uris":{"android":"levelo://app?vid=4d4bcbf8-f9ea-41cf-b1f5-66bc60e35ec0","ios":"levelo://app?vid=4d4bcbf8-f9ea-41cf-b1f5-66bc60e35ec0"},"vehicle_type_id":"4","last_reported":1683310066,"current_range_meters":28000,"station_id":"ce4bh2h2rcd13ifvqdh0","pricing_plan_id":"free"},{"bike_id":"384dc3c2-6a3a-4fbe-8337-b88bd1178ca6","system_id":"levelo_inurba_marseille","lat":43.294162,"lon":5.386292,"is_reserved":false,"is_disabled":false,"rental_uris":{"android":"levelo://app?vid=384dc3c2-6a3a-4fbe-8337-b88bd1178ca6","ios":"levelo://app?vid=384dc3c2-6a3a-4fbe-8337-b88bd1178ca6"},"vehicle_type_id":"4","last_reported":1683310066,"current_range_meters":0,"station_id":"ce4bh2h2rcd13ifvqdh0","pricing_plan_id":"free"},{"bike_id":"bf5e0abd-160e-48a4-ad97-abac8e5e90f8","system_id":"levelo_inurba_marseille","lat":43.294162,"lon":5.386292,"is_reserved":false,"is_disabled":false,"rental_uris":{"android":"levelo://app?vid=bf5e0abd-160e-48a4-ad97-abac8e5e90f8","ios":"levelo://app?vid=bf5e0abd-160e-48a4-ad97-abac8e5e90f8"},"vehicle_type_id":"4","last_reported":1683310066,"current_range_meters":0,"station_id":"ce4bh2h2rcd13ifvqdh0","pricing_plan_id":"free"},{"bike_id":"1f8db75c-7303-4d96-8fa3-a66564b989bc","system_id":"levelo_inurba_marseille","lat":43.294162,"lon":5.386292,"is_reserved":false,"is_disabled":false,"rental_uris":{"android":"levelo://app?vid=1f8db75c-7303-4d96-8fa3-a66564b989bc","ios":"levelo://app?vid=1f8db75c-7303-4d96-8fa3-a66564b989bc"},"vehicle_type_id":"4","last_reported":1683310066,"current_range_meters":5200,"station_id":"ce4bh2h2rcd13ifvqdh0","pricing_plan_id":"free"},{"bike_id":"33e80398-dfa8-46e4-bf81-230d61870f85","system_id":"levelo_inurba_marseille","lat":43.294162,"lon":5.386292,"is_reserved":false,"is_disabled":false,"rental_uris":{"android":"levelo://app?vid=33e80398-dfa8-46e4-bf81-230d61870f85","ios":"levelo://app?vid=33e80398-dfa8-46e4-bf81-230d61870f85"},"vehicle_type_id":"4","last_reported":1683310066,"current_range_meters":19200,"station_id":"ce4bh2h2rcd13ifvqdh0","pricing_plan_id":"free"},{"bike_id":"9ae0fa69-69a8-4e1e-9972-28f09c36fb7c","system_id":"levelo_inurba_marseille","lat":43.289184,"lon":5.366408,"is_reserved":false,"is_disabled":false,"rental_uris":{"android":"levelo://app?vid=9ae0fa69-69a8-4e1e-9972-28f09c36fb7c","ios":"levelo://app?vid=9ae0fa69-69a8-4e1e-9972-28f09c36fb7c"},"vehicle_type_id":"4","last_reported":1683310066,"current_range_meters":22400,"station_id":"ce4bhap2rcd13ifvqek0","pricing_plan_id":"free"},{"bike_id":"e3d2afce-a02f-44e4-b3bd-4c0ffda05a94","system_id":"levelo_inurba_marseille","lat":43.294162,"lon":5.386292,"is_reserved":false,"is_disabled":false,"rental_uris":{"android":"levelo://app?vid=e3d2afce-a02f-44e4-b3bd-4c0ffda05a94","ios":"levelo://app?vid=e3d2afce-a02f-44e4-b3bd-4c0ffda05a94"},"vehicle_type_id":"4","last_reported":1683310066,"current_range_meters":6400,"station_id":"ce4bh2h2rcd13ifvqdh0","pricing_plan_id":"free"},{"bike_id":"349f3d52-db77-420f-91ad-609e4e4c757c","system_id":"levelo_inurba_marseille","lat":43.294153,"lon":5.386305,"is_reserved":false,"is_disabled":false,"rental_uris":{"android":"levelo://app?vid=349f3d52-db77-420f-91ad-609e4e4c757c","ios":"levelo://app?vid=349f3d52-db77-420f-91ad-609e4e4c757c"},"vehicle_type_id":"4","last_reported":1683310066,"current_range_meters":18000,"station_id":"ce4bh2h2rcd13ifvqdh0","pricing_plan_id":"free"},{"bike_id":"e437b40e-bab5-4749-880a-35e7d837afec","system_id":"levelo_inurba_marseille","lat":43.289184,"lon":5.366408,"is_reserved":false,"is_disabled":false,"rental_uris":{"android":"levelo://app?vid=e437b40e-bab5-4749-880a-35e7d837afec","ios":"levelo://app?vid=e437b40e-bab5-4749-880a-35e7d837afec"},"vehicle_type_id":"4","last_reported":1683310066,"current_range_meters":19200,"station_id":"ce4bhap2rcd13ifvqek0","pricing_plan_id":"free"},{"bike_id":"a9390a13-e390-4b3c-b3f1-8840e7b935ce","system_id":"levelo_inurba_marseille","lat":43.289184,"lon":5.366408,"is_reserved":false,"is_disabled":false,"rental_uris":{"android":"levelo://app?vid=a9390a13-e390-4b3c-b3f1-8840e7b935ce","ios":"levelo://app?vid=a9390a13-e390-4b3c-b3f1-8840e7b935ce"},"vehicle_type_id":"4","last_reported":1683310066,"current_range_meters":29600,"station_id":"ce4bhap2rcd13ifvqek0","pricing_plan_id":"free"},{"bike_id":"2bfe7b28-33f6-4a4d-aacd-b880cc12ab9f","system_id":"levelo_inurba_marseille","lat":43.289184,"lon":5.366408,"is_reserved":false,"is_disabled":false,"rental_uris":{"android":"levelo://app?vid=2bfe7b28-33f6-4a4d-aacd-b880cc12ab9f","ios":"levelo://app?vid=2bfe7b28-33f6-4a4d-aacd-b880cc12ab9f"},"vehicle_type_id":"4","last_reported":1683310066,"current_range_meters":18800,"station_id":"ce4bhap2rcd13ifvqek0","pricing_plan_id":"free"},{"bike_id":"4bed4299-e684-42fa-b8d5-4189f4d24c97","system_id":"levelo_inurba_marseille","lat":43.289184,"lon":5.366408,"is_reserved":false,"is_disabled":false,"rental_uris":{"android":"levelo://app?vid=4bed4299-e684-42fa-b8d5-4189f4d24c97","ios":"levelo://app?vid=4bed4299-e684-42fa-b8d5-4189f4d24c97"},"vehicle_type_id":"4","last_reported":1683310066,"current_range_meters":7600,"station_id":"ce4bhap2rcd13ifvqek0","pricing_plan_id":"free"},{"bike_id":"3e4d8d3e-3a74-4649-a9e4-2580cd049b4b","system_id":"levelo_inurba_marseille","lat":43.289184,"lon":5.366408,"is_reserved":false,"is_disabled":false,"rental_uris":{"android":"levelo://app?vid=3e4d8d3e-3a74-4649-a9e4-2580cd049b4b","ios":"levelo://app?vid=3e4d8d3e-3a74-4649-a9e4-2580cd049b4b"},"vehicle_type_id":"4","last_reported":1683310066,"current_range_meters":6000,"station_id":"ce4bhap2rcd13ifvqek0","pricing_plan_id":"free"},{"bike_id":"dd76f83c-d667-4e50-9905-1420228c1223","system_id":"levelo_inurba_marseille","lat":43.289468,"lon":5.363719,"is_reserved":false,"is_disabled":false,"rental_uris":{"android":"levelo://app?vid=dd76f83c-d667-4e50-9905-1420228c1223","ios":"levelo://app?vid=dd76f83c-d667-4e50-9905-1420228c1223"},"vehicle_type_id":"4","last_reported":1683310066,"current_range_meters":17200,"station_id":"ce4bhc92rcd13ifvqetg","pricing_plan_id":"free"},{"bike_id":"6921e770-f4aa-4d9b-9f3a-19a2c0e8fd58","system_id":"levelo_inurba_marseille","lat":43.289184,"lon":5.366408,"is_reserved":false,"is_disabled":false,"rental_uris":{"android":"levelo://app?vid=6921e770-f4aa-4d9b-9f3a-19a2c0e8fd58","ios":"levelo://app?vid=6921e770-f4aa-4d9b-9f3a-19a2c0e8fd58"},"vehicle_type_id":"4","last_reported":1683310066,"current_range_meters":0,"station_id":"ce4bhap2rcd13ifvqek0","pricing_plan_id":"free"},{"bike_id":"46dfa973-5d6f-4870-a1d3-9f34843bc225","system_id":"levelo_inurba_marseille","lat":43.289468,"lon":5.363719,"is_reserved":false,"is_disabled":false,"rental_uris":{"android":"levelo://app?vid=46dfa973-5d6f-4870-a1d3-9f34843bc225","ios":"levelo://app?vid=46dfa973-5d6f-4870-a1d3-9f34843bc225"},"vehicle_type_id":"4","last_reported":1683310066,"current_range_meters":6800,"station_id":"ce4bhc92rcd13ifvqetg","pricing_plan_id":"free"},{"bike_id":"e3656171-4719-426d-aacf-cccee32dbab8","system_id":"levelo_inurba_marseille","lat":43.289268,"lon":5.366342,"is_reserved":false,"is_disabled":false,"rental_uris":{"android":"levelo://app?vid=e3656171-4719-426d-aacf-cccee32dbab8","ios":"levelo://app?vid=e3656171-4719-426d-aacf-cccee32dbab8"},"vehicle_type_id":"4","last_reported":1683310066,"current_range_meters":31200,"station_id":"ce4bhap2rcd13ifvqek0","pricing_plan_id":"free"},{"bike_id":"90cc6e56-9d84-4430-bbcd-bdf927af8530","system_id":"levelo_inurba_marseille","lat":43.304296,"lon":5.397513,"is_reserved":false,"is_disabled":false,"rental_uris":{"android":"levelo://app?vid=90cc6e56-9d84-4430-bbcd-bdf927af8530","ios":"levelo://app?vid=90cc6e56-9d84-4430-bbcd-bdf927af8530"},"vehicle_type_id":"4","last_reported":1683310066,"current_range_meters":7200,"station_id":"ce4bh092rcd13ifvqd20","pricing_plan_id":"free"},{"bike_id":"5386ea6f-18b2-47cb-a630-069d42cef193","system_id":"levelo_inurba_marseille","lat":43.304274,"lon":5.397513,"is_reserved":false,"is_disabled":false,"rental_uris":{"android":"levelo://app?vid=5386ea6f-18b2-47cb-a630-069d42cef193","ios":"levelo://app?vid=5386ea6f-18b2-47cb-a630-069d42cef193"},"vehicle_type_id":"4","last_reported":1683310066,"current_range_meters":3200,"station_id":"ce4bh092rcd13ifvqd20","pricing_plan_id":"free"},{"bike_id":"933a3bcc-d00b-424b-b00e-68775bf1359d","system_id":"levelo_inurba_marseille","lat":43.304296,"lon":5.397513,"is_reserved":false,"is_disabled":false,"rental_uris":{"android":"levelo://app?vid=933a3bcc-d00b-424b-b00e-68775bf1359d","ios":"levelo://app?vid=933a3bcc-d00b-424b-b00e-68775bf1359d"},"vehicle_type_id":"4","last_reported":1683310066,"current_range_meters":3600,"station_id":"ce4bh092rcd13ifvqd20","pricing_plan_id":"free"},{"bike_id":"a82c31d7-407e-4603-8f86-2a839f92d1bc","system_id":"levelo_inurba_marseille","lat":43.292642,"lon":5.384254,"is_reserved":false,"is_disabled":false,"rental_uris":{"android":"levelo://app?vid=a82c31d7-407e-4603-8f86-2a839f92d1bc","ios":"levelo://app?vid=a82c31d7-407e-4603-8f86-2a839f92d1bc"},"vehicle_type_id":"4","last_reported":1683310066,"current_range_meters":1200,"station_id":"ce4bh692rcd13ifvqea0","pricing_plan_id":"free"},{"bike_id":"9ca3e37f-82c7-4ffd-8a5c-97a048b7913a","system_id":"levelo_inurba_marseille","lat":43.29258,"lon":5.38445,"is_reserved":false,"is_disabled":false,"rental_uris":{"android":"levelo://app?vid=9ca3e37f-82c7-4ffd-8a5c-97a048b7913a","ios":"levelo://app?vid=9ca3e37f-82c7-4ffd-8a5c-97a048b7913a"},"vehicle_type_id":"4","last_reported":1683310066,"current_range_meters":16400,"station_id":"ce4bh692rcd13ifvqea0","pricing_plan_id":"free"},{"bike_id":"153ba115-657b-4e24-aec3-aa0d734b1765","system_id":"levelo_inurba_marseille","lat":43.304296,"lon":5.397513,"is_reserved":false,"is_disabled":false,"rental_uris":{"android":"levelo://app?vid=153ba115-657b-4e24-aec3-aa0d734b1765","ios":"levelo://app?vid=153ba115-657b-4e24-aec3-aa0d734b1765"},"vehicle_type_id":"4","last_reported":1683310066,"current_range_meters":9600,"station_id":"ce4bh092rcd13ifvqd20","pricing_plan_id":"free"},{"bike_id":"73c6a469-2736-4677-a0dc-68af2aaa7237","system_id":"levelo_inurba_marseille","lat":43.292644,"lon":5.384257,"is_reserved":false,"is_disabled":false,"rental_uris":{"android":"levelo://app?vid=73c6a469-2736-4677-a0dc-68af2aaa7237","ios":"levelo://app?vid=73c6a469-2736-4677-a0dc-68af2aaa7237"},"vehicle_type_id":"4","last_reported":1683310066,"current_range_meters":23200,"station_id":"ce4bh692rcd13ifvqea0","pricing_plan_id":"free"},{"bike_id":"c7d204ce-6619-491c-8812-dc4b0a6a663b","system_id":"levelo_inurba_marseille","lat":43.33043,"lon":5.38912,"is_reserved":false,"is_disabled":false,"rental_uris":{"android":"levelo://app?vid=c7d204ce-6619-491c-8812-dc4b0a6a663b","ios":"levelo://app?vid=c7d204ce-6619-491c-8812-dc4b0a6a663b"},"vehicle_type_id":"4","last_reported":1683310066,"current_range_meters":31200,"station_id":"ce4bhr92rcd13ifvqhrg","pricing_plan_id":"free"},{"bike_id":"849be466-de01-4ad1-8f5d-e7f92061f988","system_id":"levelo_inurba_marseille","lat":43.29012,"lon":5.3561,"is_reserved":false,"is_disabled":false,"rental_uris":{"android":"levelo://app?vid=849be466-de01-4ad1-8f5d-e7f92061f988","ios":"levelo://app?vid=849be466-de01-4ad1-8f5d-e7f92061f988"},"vehicle_type_id":"4","last_reported":1683310066,"current_range_meters":800,"station_id":"ce4bhb92rcd13ifvqen0","pricing_plan_id":"free"},{"bike_id":"68df9231-ea3a-4146-b5fc-6d035b1b012f","system_id":"levelo_inurba_marseille","lat":43.290103,"lon":5.356114,"is_reserved":false,"is_disabled":false,"rental_uris":{"android":"levelo://app?vid=68df9231-ea3a-4146-b5fc-6d035b1b012f","ios":"levelo://app?vid=68df9231-ea3a-4146-b5fc-6d035b1b012f"},"vehicle_type_id":"4","last_reported":1683310066,"current_range_meters":14000,"station_id":"ce4bhb92rcd13ifvqen0","pricing_plan_id":"free"},{"bike_id":"c6a5f3db-467c-47f5-acd9-61fe8cd674ee","system_id":"levelo_inurba_marseille","lat":43.33044,"lon":5.38913,"is_reserved":false,"is_disabled":false,"rental_uris":{"android":"levelo://app?vid=c6a5f3db-467c-47f5-acd9-61fe8cd674ee","ios":"levelo://app?vid=c6a5f3db-467c-47f5-acd9-61fe8cd674ee"},"vehicle_type_id":"4","last_reported":1683310066,"current_range_meters":1600,"station_id":"ce4bhr92rcd13ifvqhrg","pricing_plan_id":"free"},{"bike_id":"53fe0696-8fbc-48b8-831c-c78693c5a58b","system_id":"levelo_inurba_marseille","lat":43.33044,"lon":5.38915,"is_reserved":false,"is_disabled":false,"rental_uris":{"android":"levelo://app?vid=53fe0696-8fbc-48b8-831c-c78693c5a58b","ios":"levelo://app?vid=53fe0696-8fbc-48b8-831c-c78693c5a58b"},"vehicle_type_id":"4","last_reported":1683310066,"current_range_meters":19600,"station_id":"ce4bhr92rcd13ifvqhrg","pricing_plan_id":"free"},{"bike_id":"ba99228e-efcb-433f-8025-1be70e457a14","system_id":"levelo_inurba_marseille","lat":43.290103,"lon":5.356114,"is_reserved":false,"is_disabled":false,"rental_uris":{"android":"levelo://app?vid=ba99228e-efcb-433f-8025-1be70e457a14","ios":"levelo://app?vid=ba99228e-efcb-433f-8025-1be70e457a14"},"vehicle_type_id":"4","last_reported":1683310066,"current_range_meters":2800,"station_id":"ce4bhb92rcd13ifvqen0","pricing_plan_id":"free"},{"bike_id":"c0b39783-7886-4047-9a8d-355fea0e4444","system_id":"levelo_inurba_marseille","lat":43.33044,"lon":5.38916,"is_reserved":false,"is_disabled":false,"rental_uris":{"android":"levelo://app?vid=c0b39783-7886-4047-9a8d-355fea0e4444","ios":"levelo://app?vid=c0b39783-7886-4047-9a8d-355fea0e4444"},"vehicle_type_id":"4","last_reported":1683310066,"current_range_meters":24800,"station_id":"ce4bhr92rcd13ifvqhrg","pricing_plan_id":"free"},{"bike_id":"da86836b-d020-456b-ad95-a73c452d8db8","system_id":"levelo_inurba_marseille","lat":43.33045,"lon":5.38916,"is_reserved":false,"is_disabled":false,"rental_uris":{"android":"levelo://app?vid=da86836b-d020-456b-ad95-a73c452d8db8","ios":"levelo://app?vid=da86836b-d020-456b-ad95-a73c452d8db8"},"vehicle_type_id":"4","last_reported":1683310066,"current_range_meters":20800,"station_id":"ce4bhr92rcd13ifvqhrg","pricing_plan_id":"free"},{"bike_id":"53ef8ada-f74c-41ab-9969-9eb81df318d8","system_id":"levelo_inurba_marseille","lat":43.33043,"lon":5.38921,"is_reserved":false,"is_disabled":false,"rental_uris":{"android":"levelo://app?vid=53ef8ada-f74c-41ab-9969-9eb81df318d8","ios":"levelo://app?vid=53ef8ada-f74c-41ab-9969-9eb81df318d8"},"vehicle_type_id":"4","last_reported":1683310066,"current_range_meters":28400,"station_id":"ce4bhr92rcd13ifvqhrg","pricing_plan_id":"free"},{"bike_id":"e2f29c32-c6af-4484-87fc-4e35cee0e010","system_id":"levelo_inurba_marseille","lat":43.290103,"lon":5.356114,"is_reserved":false,"is_disabled":false,"rental_uris":{"android":"levelo://app?vid=e2f29c32-c6af-4484-87fc-4e35cee0e010","ios":"levelo://app?vid=e2f29c32-c6af-4484-87fc-4e35cee0e010"},"vehicle_type_id":"4","last_reported":1683310066,"current_range_meters":16000,"station_id":"ce4bhb92rcd13ifvqen0","pricing_plan_id":"free"},{"bike_id":"83374411-8eeb-4f64-a952-a510ba6e2ec8","system_id":"levelo_inurba_marseille","lat":43.290103,"lon":5.356114,"is_reserved":false,"is_disabled":false,"rental_uris":{"android":"levelo://app?vid=83374411-8eeb-4f64-a952-a510ba6e2ec8","ios":"levelo://app?vid=83374411-8eeb-4f64-a952-a510ba6e2ec8"},"vehicle_type_id":"4","last_reported":1683310066,"current_range_meters":31600,"station_id":"ce4bhb92rcd13ifvqen0","pricing_plan_id":"free"},{"bike_id":"496fc879-c6a2-4335-9eab-2fdd6a6f8bf1","system_id":"levelo_inurba_marseille","lat":43.33046,"lon":5.3892,"is_reserved":false,"is_disabled":false,"rental_uris":{"android":"levelo://app?vid=496fc879-c6a2-4335-9eab-2fdd6a6f8bf1","ios":"levelo://app?vid=496fc879-c6a2-4335-9eab-2fdd6a6f8bf1"},"vehicle_type_id":"4","last_reported":1683310066,"current_range_meters":20400,"station_id":"ce4bhr92rcd13ifvqhrg","pricing_plan_id":"free"},{"bike_id":"b56b2244-09f5-4f04-85c0-e61fa5c3e506","system_id":"levelo_inurba_marseille","lat":43.29003,"lon":5.3562,"is_reserved":false,"is_disabled":false,"rental_uris":{"android":"levelo://app?vid=b56b2244-09f5-4f04-85c0-e61fa5c3e506","ios":"levelo://app?vid=b56b2244-09f5-4f04-85c0-e61fa5c3e506"},"vehicle_type_id":"4","last_reported":1683310066,"current_range_meters":9600,"station_id":"ce4bhb92rcd13ifvqen0","pricing_plan_id":"free"},{"bike_id":"524eb83d-f093-4dfb-954f-65ee27d5ec01","system_id":"levelo_inurba_marseille","lat":43.290104,"lon":5.356111,"is_reserved":false,"is_disabled":false,"rental_uris":{"android":"levelo://app?vid=524eb83d-f093-4dfb-954f-65ee27d5ec01","ios":"levelo://app?vid=524eb83d-f093-4dfb-954f-65ee27d5ec01"},"vehicle_type_id":"4","last_reported":1683310066,"current_range_meters":30000,"station_id":"ce4bhb92rcd13ifvqen0","pricing_plan_id":"free"},{"bike_id":"172b6c5a-341e-4b5c-86b6-b91b1bd16ba3","system_id":"levelo_inurba_marseille","lat":43.290103,"lon":5.356114,"is_reserved":false,"is_disabled":false,"rental_uris":{"android":"levelo://app?vid=172b6c5a-341e-4b5c-86b6-b91b1bd16ba3","ios":"levelo://app?vid=172b6c5a-341e-4b5c-86b6-b91b1bd16ba3"},"vehicle_type_id":"4","last_reported":1683310066,"current_range_meters":12800,"station_id":"ce4bhb92rcd13ifvqen0","pricing_plan_id":"free"},{"bike_id":"d6233f8b-531d-433b-b8e9-589e3920c098","system_id":"levelo_inurba_marseille","lat":43.33049,"lon":5.38919,"is_reserved":false,"is_disabled":false,"rental_uris":{"android":"levelo://app?vid=d6233f8b-531d-433b-b8e9-589e3920c098","ios":"levelo://app?vid=d6233f8b-531d-433b-b8e9-589e3920c098"},"vehicle_type_id":"4","last_reported":1683310066,"current_range_meters":25200,"station_id":"ce4bhr92rcd13ifvqhrg","pricing_plan_id":"free"},{"bike_id":"10a8eeb7-4f93-4e8d-81bd-f27d3d4ef515","system_id":"levelo_inurba_marseille","lat":43.33047,"lon":5.38924,"is_reserved":false,"is_disabled":false,"rental_uris":{"android":"levelo://app?vid=10a8eeb7-4f93-4e8d-81bd-f27d3d4ef515","ios":"levelo://app?vid=10a8eeb7-4f93-4e8d-81bd-f27d3d4ef515"},"vehicle_type_id":"4","last_reported":1683310066,"current_range_meters":30000,"station_id":"ce4bhr92rcd13ifvqhrg","pricing_plan_id":"free"},{"bike_id":"2fe30782-595b-48cd-bae9-d0d61d4d13f9","system_id":"levelo_inurba_marseille","lat":43.29001,"lon":5.35616,"is_reserved":false,"is_disabled":false,"rental_uris":{"android":"levelo://app?vid=2fe30782-595b-48cd-bae9-d0d61d4d13f9","ios":"levelo://app?vid=2fe30782-595b-48cd-bae9-d0d61d4d13f9"},"vehicle_type_id":"4","last_reported":1683310066,"current_range_meters":11200,"station_id":"ce4bhb92rcd13ifvqen0","pricing_plan_id":"free"},{"bike_id":"c81037a0-0829-497d-a2e4-b5f95ba90458","system_id":"levelo_inurba_marseille","lat":43.290103,"lon":5.356114,"is_reserved":false,"is_disabled":false,"rental_uris":{"android":"levelo://app?vid=c81037a0-0829-497d-a2e4-b5f95ba90458","ios":"levelo://app?vid=c81037a0-0829-497d-a2e4-b5f95ba90458"},"vehicle_type_id":"4","last_reported":1683310066,"current_range_meters":31600,"station_id":"ce4bhb92rcd13ifvqen0","pricing_plan_id":"free"},{"bike_id":"7b0d584a-581e-4761-9a4d-3383f915fba5","system_id":"levelo_inurba_marseille","lat":43.29003,"lon":5.35602,"is_reserved":false,"is_disabled":false,"rental_uris":{"android":"levelo://app?vid=7b0d584a-581e-4761-9a4d-3383f915fba5","ios":"levelo://app?vid=7b0d584a-581e-4761-9a4d-3383f915fba5"},"vehicle_type_id":"4","last_reported":1683310066,"current_range_meters":18800,"station_id":"ce4bhb92rcd13ifvqen0","pricing_plan_id":"free"},{"bike_id":"7eb62419-26e4-4356-8ddb-fba1844519f1","system_id":"levelo_inurba_marseille","lat":43.290104,"lon":5.356111,"is_reserved":false,"is_disabled":false,"rental_uris":{"android":"levelo://app?vid=7eb62419-26e4-4356-8ddb-fba1844519f1","ios":"levelo://app?vid=7eb62419-26e4-4356-8ddb-fba1844519f1"},"vehicle_type_id":"4","last_reported":1683310066,"current_range_meters":17200,"station_id":"ce4bhb92rcd13ifvqen0","pricing_plan_id":"free"},{"bike_id":"3422e184-6a75-4760-8d3a-0b57ec76b4c7","system_id":"levelo_inurba_marseille","lat":43.29001,"lon":5.35604,"is_reserved":false,"is_disabled":false,"rental_uris":{"android":"levelo://app?vid=3422e184-6a75-4760-8d3a-0b57ec76b4c7","ios":"levelo://app?vid=3422e184-6a75-4760-8d3a-0b57ec76b4c7"},"vehicle_type_id":"4","last_reported":1683310066,"current_range_meters":26400,"station_id":"ce4bhb92rcd13ifvqen0","pricing_plan_id":"free"},{"bike_id":"2bcaa402-1a8b-45af-b880-969588f8e09b","system_id":"levelo_inurba_marseille","lat":43.29004,"lon":5.35592,"is_reserved":false,"is_disabled":false,"rental_uris":{"android":"levelo://app?vid=2bcaa402-1a8b-45af-b880-969588f8e09b","ios":"levelo://app?vid=2bcaa402-1a8b-45af-b880-969588f8e09b"},"vehicle_type_id":"4","last_reported":1683310066,"current_range_meters":14800,"station_id":"ce4bhb92rcd13ifvqen0","pricing_plan_id":"free"},{"bike_id":"4259712d-4df4-4f2f-be8a-5793cafcbeae","system_id":"levelo_inurba_marseille","lat":43.290103,"lon":5.356114,"is_reserved":false,"is_disabled":false,"rental_uris":{"android":"levelo://app?vid=4259712d-4df4-4f2f-be8a-5793cafcbeae","ios":"levelo://app?vid=4259712d-4df4-4f2f-be8a-5793cafcbeae"},"vehicle_type_id":"4","last_reported":1683310066,"current_range_meters":20000,"station_id":"ce4bhb92rcd13ifvqen0","pricing_plan_id":"free"},{"bike_id":"a93a0899-72bf-4482-a03c-9dd506f24feb","system_id":"levelo_inurba_marseille","lat":43.28998,"lon":5.356,"is_reserved":false,"is_disabled":false,"rental_uris":{"android":"levelo://app?vid=a93a0899-72bf-4482-a03c-9dd506f24feb","ios":"levelo://app?vid=a93a0899-72bf-4482-a03c-9dd506f24feb"},"vehicle_type_id":"4","last_reported":1683310066,"current_range_meters":800,"station_id":"ce4bhb92rcd13ifvqen0","pricing_plan_id":"free"},{"bike_id":"79fe4d25-1e0c-41b8-aec8-396f18c027be","system_id":"levelo_inurba_marseille","lat":43.290995,"lon":5.381361,"is_reserved":false,"is_disabled":false,"rental_uris":{"android":"levelo://app?vid=79fe4d25-1e0c-41b8-aec8-396f18c027be","ios":"levelo://app?vid=79fe4d25-1e0c-41b8-aec8-396f18c027be"},"vehicle_type_id":"4","last_reported":1683310066,"current_range_meters":22800,"station_id":"ce4bh512rcd13ifvqe2g","pricing_plan_id":"free"},{"bike_id":"42bbf08c-6ad2-4ed4-8f8b-125949bcc02f","system_id":"levelo_inurba_marseille","lat":43.294162,"lon":5.386292,"is_reserved":false,"is_disabled":false,"rental_uris":{"android":"levelo://app?vid=42bbf08c-6ad2-4ed4-8f8b-125949bcc02f","ios":"levelo://app?vid=42bbf08c-6ad2-4ed4-8f8b-125949bcc02f"},"vehicle_type_id":"4","last_reported":1683310066,"current_range_meters":24400,"station_id":"ce4bh2h2rcd13ifvqdh0","pricing_plan_id":"free"},{"bike_id":"c8a7432e-d2b2-4dfb-b0ac-66e9f7608b09","system_id":"levelo_inurba_marseille","lat":43.29513,"lon":5.39029,"is_reserved":false,"is_disabled":false,"rental_uris":{"android":"levelo://app?vid=c8a7432e-d2b2-4dfb-b0ac-66e9f7608b09","ios":"levelo://app?vid=c8a7432e-d2b2-4dfb-b0ac-66e9f7608b09"},"vehicle_type_id":"4","last_reported":1683310066,"current_range_meters":24400,"station_id":"ce4bh3p2rcd13ifvqdp0","pricing_plan_id":"free"},{"bike_id":"609f6a5a-04b5-4e79-b3a8-ff692f04c2c1","system_id":"levelo_inurba_marseille","lat":43.28856,"lon":5.358371,"is_reserved":false,"is_disabled":false,"rental_uris":{"android":"levelo://app?vid=609f6a5a-04b5-4e79-b3a8-ff692f04c2c1","ios":"levelo://app?vid=609f6a5a-04b5-4e79-b3a8-ff692f04c2c1"},"vehicle_type_id":"4","last_reported":1683310066,"current_range_meters":5200,"station_id":"ce4bhb12rcd13ifvqem0","pricing_plan_id":"free"},{"bike_id":"09f64117-3203-4d7e-b332-a4143d032af6","system_id":"levelo_inurba_marseille","lat":43.28856,"lon":5.358371,"is_reserved":false,"is_disabled":false,"rental_uris":{"android":"levelo://app?vid=09f64117-3203-4d7e-b332-a4143d032af6","ios":"levelo://app?vid=09f64117-3203-4d7e-b332-a4143d032af6"},"vehicle_type_id":"4","last_reported":1683310066,"current_range_meters":29200,"station_id":"ce4bhb12rcd13ifvqem0","pricing_plan_id":"free"},{"bike_id":"2c2a603e-0785-4bb4-ac61-70e0db63a8d2","system_id":"levelo_inurba_marseille","lat":43.28856,"lon":5.358371,"is_reserved":false,"is_disabled":false,"rental_uris":{"android":"levelo://app?vid=2c2a603e-0785-4bb4-ac61-70e0db63a8d2","ios":"levelo://app?vid=2c2a603e-0785-4bb4-ac61-70e0db63a8d2"},"vehicle_type_id":"4","last_reported":1683310066,"current_range_meters":16800,"station_id":"ce4bhb12rcd13ifvqem0","pricing_plan_id":"free"},{"bike_id":"e402fb83-01de-4914-980b-806ff4670df5","system_id":"levelo_inurba_marseille","lat":43.28856,"lon":5.358371,"is_reserved":false,"is_disabled":false,"rental_uris":{"android":"levelo://app?vid=e402fb83-01de-4914-980b-806ff4670df5","ios":"levelo://app?vid=e402fb83-01de-4914-980b-806ff4670df5"},"vehicle_type_id":"4","last_reported":1683310066,"current_range_meters":14000,"station_id":"ce4bhb12rcd13ifvqem0","pricing_plan_id":"free"},{"bike_id":"2ef1f644-a92b-4392-95d1-79d62ea7fa48","system_id":"levelo_inurba_marseille","lat":43.28856,"lon":5.358371,"is_reserved":false,"is_disabled":false,"rental_uris":{"android":"levelo://app?vid=2ef1f644-a92b-4392-95d1-79d62ea7fa48","ios":"levelo://app?vid=2ef1f644-a92b-4392-95d1-79d62ea7fa48"},"vehicle_type_id":"4","last_reported":1683310066,"current_range_meters":6800,"station_id":"ce4bhb12rcd13ifvqem0","pricing_plan_id":"free"},{"bike_id":"79765636-8714-436b-8653-2a41b7fd9569","system_id":"levelo_inurba_marseille","lat":43.28856,"lon":5.358371,"is_reserved":false,"is_disabled":false,"rental_uris":{"android":"levelo://app?vid=79765636-8714-436b-8653-2a41b7fd9569","ios":"levelo://app?vid=79765636-8714-436b-8653-2a41b7fd9569"},"vehicle_type_id":"4","last_reported":1683310066,"current_range_meters":22400,"station_id":"ce4bhb12rcd13ifvqem0","pricing_plan_id":"free"},{"bike_id":"08d0eaf8-ba0b-416a-b216-a397724ba445","system_id":"levelo_inurba_marseille","lat":43.28856,"lon":5.358371,"is_reserved":false,"is_disabled":false,"rental_uris":{"android":"levelo://app?vid=08d0eaf8-ba0b-416a-b216-a397724ba445","ios":"levelo://app?vid=08d0eaf8-ba0b-416a-b216-a397724ba445"},"vehicle_type_id":"4","last_reported":1683310066,"current_range_meters":10400,"station_id":"ce4bhb12rcd13ifvqem0","pricing_plan_id":"free"},{"bike_id":"34320fce-24bb-4291-be42-2c361aed67f0","system_id":"levelo_inurba_marseille","lat":43.33742,"lon":5.3744,"is_reserved":false,"is_disabled":false,"rental_uris":{"android":"levelo://app?vid=34320fce-24bb-4291-be42-2c361aed67f0","ios":"levelo://app?vid=34320fce-24bb-4291-be42-2c361aed67f0"},"vehicle_type_id":"4","last_reported":1683310066,"current_range_meters":27200,"station_id":"","pricing_plan_id":"free"},{"bike_id":"d1338cde-b3d1-46b1-8800-7a50c92c327c","system_id":"levelo_inurba_marseille","lat":43.3375,"lon":5.3743,"is_reserved":false,"is_disabled":false,"rental_uris":{"android":"levelo://app?vid=d1338cde-b3d1-46b1-8800-7a50c92c327c","ios":"levelo://app?vid=d1338cde-b3d1-46b1-8800-7a50c92c327c"},"vehicle_type_id":"4","last_reported":1683310066,"current_range_meters":30400,"station_id":"","pricing_plan_id":"free"},{"bike_id":"20083ae5-f09f-4d10-9758-3cdd331d6a45","system_id":"levelo_inurba_marseille","lat":43.33753,"lon":5.37454,"is_reserved":false,"is_disabled":false,"rental_uris":{"android":"levelo://app?vid=20083ae5-f09f-4d10-9758-3cdd331d6a45","ios":"levelo://app?vid=20083ae5-f09f-4d10-9758-3cdd331d6a45"},"vehicle_type_id":"4","last_reported":1683310066,"current_range_meters":20000,"station_id":"","pricing_plan_id":"free"},{"bike_id":"cc5900b6-b927-49fc-82db-4d13a3d02316","system_id":"levelo_inurba_marseille","lat":43.33752,"lon":5.37486,"is_reserved":false,"is_disabled":false,"rental_uris":{"android":"levelo://app?vid=cc5900b6-b927-49fc-82db-4d13a3d02316","ios":"levelo://app?vid=cc5900b6-b927-49fc-82db-4d13a3d02316"},"vehicle_type_id":"4","last_reported":1683310066,"current_range_meters":29200,"station_id":"","pricing_plan_id":"free"},{"bike_id":"3ae07f5b-4b52-469a-b586-1682b0736700","system_id":"levelo_inurba_marseille","lat":43.33755,"lon":5.37485,"is_reserved":false,"is_disabled":false,"rental_uris":{"android":"levelo://app?vid=3ae07f5b-4b52-469a-b586-1682b0736700","ios":"levelo://app?vid=3ae07f5b-4b52-469a-b586-1682b0736700"},"vehicle_type_id":"4","last_reported":1683310066,"current_range_meters":28800,"station_id":"","pricing_plan_id":"free"},{"bike_id":"db84b57a-c242-4d31-93f3-e9f12005c4b3","system_id":"levelo_inurba_marseille","lat":43.33762,"lon":5.37494,"is_reserved":false,"is_disabled":false,"rental_uris":{"android":"levelo://app?vid=db84b57a-c242-4d31-93f3-e9f12005c4b3","ios":"levelo://app?vid=db84b57a-c242-4d31-93f3-e9f12005c4b3"},"vehicle_type_id":"4","last_reported":1683310066,"current_range_meters":30000,"station_id":"","pricing_plan_id":"free"},{"bike_id":"aa5c202a-8175-490d-b0f7-5dcb8ffacd94","system_id":"levelo_inurba_marseille","lat":43.30642,"lon":5.401031,"is_reserved":false,"is_disabled":false,"rental_uris":{"android":"levelo://app?vid=aa5c202a-8175-490d-b0f7-5dcb8ffacd94","ios":"levelo://app?vid=aa5c202a-8175-490d-b0f7-5dcb8ffacd94"},"vehicle_type_id":"4","last_reported":1683310066,"current_range_meters":4400,"station_id":"ce4bh112rcd13ifvqda0","pricing_plan_id":"free"},{"bike_id":"7163213e-905d-4755-a1c4-7dd0f561688b","system_id":"levelo_inurba_marseille","lat":43.301117,"lon":5.398795,"is_reserved":false,"is_disabled":false,"rental_uris":{"android":"levelo://app?vid=7163213e-905d-4755-a1c4-7dd0f561688b","ios":"levelo://app?vid=7163213e-905d-4755-a1c4-7dd0f561688b"},"vehicle_type_id":"4","last_reported":1683310066,"current_range_meters":1600,"station_id":"ce4bh0h2rcd13ifvqd40","pricing_plan_id":"free"},{"bike_id":"8a9817be-9040-4f9d-90f1-7d2d992f78cb","system_id":"levelo_inurba_marseille","lat":43.30131,"lon":5.39856,"is_reserved":false,"is_disabled":false,"rental_uris":{"android":"levelo://app?vid=8a9817be-9040-4f9d-90f1-7d2d992f78cb","ios":"levelo://app?vid=8a9817be-9040-4f9d-90f1-7d2d992f78cb"},"vehicle_type_id":"4","last_reported":1683310066,"current_range_meters":4800,"station_id":"","pricing_plan_id":"free"},{"bike_id":"432e8536-15e5-4e69-b19f-9c2824c765ae","system_id":"levelo_inurba_marseille","lat":43.301117,"lon":5.398795,"is_reserved":false,"is_disabled":false,"rental_uris":{"android":"levelo://app?vid=432e8536-15e5-4e69-b19f-9c2824c765ae","ios":"levelo://app?vid=432e8536-15e5-4e69-b19f-9c2824c765ae"},"vehicle_type_id":"4","last_reported":1683310066,"current_range_meters":30000,"station_id":"ce4bh0h2rcd13ifvqd40","pricing_plan_id":"free"},{"bike_id":"3afab6ec-8aeb-4c44-ab25-ecb85e386774","system_id":"levelo_inurba_marseille","lat":43.301117,"lon":5.398795,"is_reserved":false,"is_disabled":false,"rental_uris":{"android":"levelo://app?vid=3afab6ec-8aeb-4c44-ab25-ecb85e386774","ios":"levelo://app?vid=3afab6ec-8aeb-4c44-ab25-ecb85e386774"},"vehicle_type_id":"4","last_reported":1683310066,"current_range_meters":20400,"station_id":"ce4bh0h2rcd13ifvqd40","pricing_plan_id":"free"},{"bike_id":"de3419ea-6390-4a53-91c9-1bf094a77a1e","system_id":"levelo_inurba_marseille","lat":43.30134,"lon":5.39868,"is_reserved":false,"is_disabled":false,"rental_uris":{"android":"levelo://app?vid=de3419ea-6390-4a53-91c9-1bf094a77a1e","ios":"levelo://app?vid=de3419ea-6390-4a53-91c9-1bf094a77a1e"},"vehicle_type_id":"4","last_reported":1683310066,"current_range_meters":18800,"station_id":"ce4bh0h2rcd13ifvqd40","pricing_plan_id":"free"},{"bike_id":"f1bbf9a2-aa23-4ead-b3d0-45b6a3a88da5","system_id":"levelo_inurba_marseille","lat":43.30139,"lon":5.39874,"is_reserved":false,"is_disabled":false,"rental_uris":{"android":"levelo://app?vid=f1bbf9a2-aa23-4ead-b3d0-45b6a3a88da5","ios":"levelo://app?vid=f1bbf9a2-aa23-4ead-b3d0-45b6a3a88da5"},"vehicle_type_id":"4","last_reported":1683310066,"current_range_meters":5200,"station_id":"","pricing_plan_id":"free"},{"bike_id":"32cb34dc-e242-40d8-ab79-29c7f6d4ea78","system_id":"levelo_inurba_marseille","lat":43.30135,"lon":5.39872,"is_reserved":false,"is_disabled":false,"rental_uris":{"android":"levelo://app?vid=32cb34dc-e242-40d8-ab79-29c7f6d4ea78","ios":"levelo://app?vid=32cb34dc-e242-40d8-ab79-29c7f6d4ea78"},"vehicle_type_id":"4","last_reported":1683310066,"current_range_meters":6000,"station_id":"ce4bh0h2rcd13ifvqd40","pricing_plan_id":"free"},{"bike_id":"0e52ccab-de38-4dba-9299-b343f6227047","system_id":"levelo_inurba_marseille","lat":43.301117,"lon":5.398795,"is_reserved":false,"is_disabled":false,"rental_uris":{"android":"levelo://app?vid=0e52ccab-de38-4dba-9299-b343f6227047","ios":"levelo://app?vid=0e52ccab-de38-4dba-9299-b343f6227047"},"vehicle_type_id":"4","last_reported":1683310066,"current_range_meters":30000,"station_id":"ce4bh0h2rcd13ifvqd40","pricing_plan_id":"free"},{"bike_id":"a63d2cd4-beea-4c5b-9f84-6788cb9917be","system_id":"levelo_inurba_marseille","lat":43.29074,"lon":5.38582,"is_reserved":false,"is_disabled":false,"rental_uris":{"android":"levelo://app?vid=a63d2cd4-beea-4c5b-9f84-6788cb9917be","ios":"levelo://app?vid=a63d2cd4-beea-4c5b-9f84-6788cb9917be"},"vehicle_type_id":"4","last_reported":1683310066,"current_range_meters":800,"station_id":"","pricing_plan_id":"free"},{"bike_id":"7aac80a4-2dd1-48ee-b9ea-1ad2b206d87d","system_id":"levelo_inurba_marseille","lat":43.286593,"lon":5.363346,"is_reserved":false,"is_disabled":false,"rental_uris":{"android":"levelo://app?vid=7aac80a4-2dd1-48ee-b9ea-1ad2b206d87d","ios":"levelo://app?vid=7aac80a4-2dd1-48ee-b9ea-1ad2b206d87d"},"vehicle_type_id":"4","last_reported":1683310066,"current_range_meters":6800,"station_id":"ce4bhah2rcd13ifvqej0","pricing_plan_id":"free"},{"bike_id":"eba8acce-33e5-4827-8606-d5074ab8a161","system_id":"levelo_inurba_marseille","lat":43.298681,"lon":5.397225,"is_reserved":false,"is_disabled":false,"rental_uris":{"android":"levelo://app?vid=eba8acce-33e5-4827-8606-d5074ab8a161","ios":"levelo://app?vid=eba8acce-33e5-4827-8606-d5074ab8a161"},"vehicle_type_id":"4","last_reported":1683310066,"current_range_meters":0,"station_id":"ce4bh0h2rcd13ifvqd50","pricing_plan_id":"free"},{"bike_id":"f10776cc-3bb3-4e94-a923-142ed8223968","system_id":"levelo_inurba_marseille","lat":43.286593,"lon":5.363346,"is_reserved":false,"is_disabled":false,"rental_uris":{"android":"levelo://app?vid=f10776cc-3bb3-4e94-a923-142ed8223968","ios":"levelo://app?vid=f10776cc-3bb3-4e94-a923-142ed8223968"},"vehicle_type_id":"4","last_reported":1683310066,"current_range_meters":25600,"station_id":"ce4bhah2rcd13ifvqej0","pricing_plan_id":"free"},{"bike_id":"c452a78d-8a25-4dac-a034-b406e8dd2a51","system_id":"levelo_inurba_marseille","lat":43.28733,"lon":5.35802,"is_reserved":false,"is_disabled":false,"rental_uris":{"android":"levelo://app?vid=c452a78d-8a25-4dac-a034-b406e8dd2a51","ios":"levelo://app?vid=c452a78d-8a25-4dac-a034-b406e8dd2a51"},"vehicle_type_id":"4","last_reported":1683310066,"current_range_meters":8800,"station_id":"","pricing_plan_id":"free"},{"bike_id":"b7342fea-1ec8-46a5-b1c9-65f755070671","system_id":"levelo_inurba_marseille","lat":43.286593,"lon":5.363346,"is_reserved":false,"is_disabled":false,"rental_uris":{"android":"levelo://app?vid=b7342fea-1ec8-46a5-b1c9-65f755070671","ios":"levelo://app?vid=b7342fea-1ec8-46a5-b1c9-65f755070671"},"vehicle_type_id":"4","last_reported":1683310066,"current_range_meters":2000,"station_id":"ce4bhah2rcd13ifvqej0","pricing_plan_id":"free"},{"bike_id":"b58b6ffd-2f9a-4dfa-87df-e3aba06ef2f4","system_id":"levelo_inurba_marseille","lat":43.298681,"lon":5.397225,"is_reserved":false,"is_disabled":false,"rental_uris":{"android":"levelo://app?vid=b58b6ffd-2f9a-4dfa-87df-e3aba06ef2f4","ios":"levelo://app?vid=b58b6ffd-2f9a-4dfa-87df-e3aba06ef2f4"},"vehicle_type_id":"4","last_reported":1683310066,"current_range_meters":11600,"station_id":"ce4bh0h2rcd13ifvqd50","pricing_plan_id":"free"},{"bike_id":"05bad7fc-5808-49df-a5b2-e1584e35fb38","system_id":"levelo_inurba_marseille","lat":43.286593,"lon":5.363346,"is_reserved":false,"is_disabled":false,"rental_uris":{"android":"levelo://app?vid=05bad7fc-5808-49df-a5b2-e1584e35fb38","ios":"levelo://app?vid=05bad7fc-5808-49df-a5b2-e1584e35fb38"},"vehicle_type_id":"4","last_reported":1683310066,"current_range_meters":13600,"station_id":"ce4bhah2rcd13ifvqej0","pricing_plan_id":"free"},{"bike_id":"cf9bd558-15bf-45df-b067-8d35873cd2a9","system_id":"levelo_inurba_marseille","lat":43.298681,"lon":5.397225,"is_reserved":false,"is_disabled":false,"rental_uris":{"android":"levelo://app?vid=cf9bd558-15bf-45df-b067-8d35873cd2a9","ios":"levelo://app?vid=cf9bd558-15bf-45df-b067-8d35873cd2a9"},"vehicle_type_id":"4","last_reported":1683310066,"current_range_meters":30800,"station_id":"ce4bh0h2rcd13ifvqd50","pricing_plan_id":"free"},{"bike_id":"b86498c2-34c7-4ca1-b0c8-a71f4c5730bf","system_id":"levelo_inurba_marseille","lat":43.298681,"lon":5.397225,"is_reserved":false,"is_disabled":false,"rental_uris":{"android":"levelo://app?vid=b86498c2-34c7-4ca1-b0c8-a71f4c5730bf","ios":"levelo://app?vid=b86498c2-34c7-4ca1-b0c8-a71f4c5730bf"},"vehicle_type_id":"4","last_reported":1683310066,"current_range_meters":20000,"station_id":"ce4bh0h2rcd13ifvqd50","pricing_plan_id":"free"},{"bike_id":"4c9ee2d4-cfb4-4f86-990f-c0c212f7ee04","system_id":"levelo_inurba_marseille","lat":43.295241,"lon":5.394034,"is_reserved":false,"is_disabled":false,"rental_uris":{"android":"levelo://app?vid=4c9ee2d4-cfb4-4f86-990f-c0c212f7ee04","ios":"levelo://app?vid=4c9ee2d4-cfb4-4f86-990f-c0c212f7ee04"},"vehicle_type_id":"4","last_reported":1683310066,"current_range_meters":20400,"station_id":"ce4bh292rcd13ifvqdf0","pricing_plan_id":"free"},{"bike_id":"46fa423b-58e3-4993-a959-1038f3202eec","system_id":"levelo_inurba_marseille","lat":43.302759,"lon":5.400793,"is_reserved":false,"is_disabled":false,"rental_uris":{"android":"levelo://app?vid=46fa423b-58e3-4993-a959-1038f3202eec","ios":"levelo://app?vid=46fa423b-58e3-4993-a959-1038f3202eec"},"vehicle_type_id":"4","last_reported":1683310066,"current_range_meters":18400,"station_id":"ce4bgvh2rcd13ifvqcs0","pricing_plan_id":"free"},{"bike_id":"7d0da345-6169-42a6-9a71-c1df48975032","system_id":"levelo_inurba_marseille","lat":43.302759,"lon":5.400793,"is_reserved":false,"is_disabled":false,"rental_uris":{"android":"levelo://app?vid=7d0da345-6169-42a6-9a71-c1df48975032","ios":"levelo://app?vid=7d0da345-6169-42a6-9a71-c1df48975032"},"vehicle_type_id":"4","last_reported":1683310066,"current_range_meters":22000,"station_id":"ce4bgvh2rcd13ifvqcs0","pricing_plan_id":"free"},{"bike_id":"e43f01c6-b45e-4a51-83d0-c8e55ea0fb93","system_id":"levelo_inurba_marseille","lat":43.302759,"lon":5.400793,"is_reserved":false,"is_disabled":false,"rental_uris":{"android":"levelo://app?vid=e43f01c6-b45e-4a51-83d0-c8e55ea0fb93","ios":"levelo://app?vid=e43f01c6-b45e-4a51-83d0-c8e55ea0fb93"},"vehicle_type_id":"4","last_reported":1683310066,"current_range_meters":16000,"station_id":"ce4bgvh2rcd13ifvqcs0","pricing_plan_id":"free"},{"bike_id":"86921c46-4875-4822-9529-cd76615eb7e0","system_id":"levelo_inurba_marseille","lat":43.30251,"lon":5.4006,"is_reserved":false,"is_disabled":false,"rental_uris":{"android":"levelo://app?vid=86921c46-4875-4822-9529-cd76615eb7e0","ios":"levelo://app?vid=86921c46-4875-4822-9529-cd76615eb7e0"},"vehicle_type_id":"4","last_reported":1683310066,"current_range_meters":6800,"station_id":"","pricing_plan_id":"free"},{"bike_id":"1aa17af0-e048-4858-974b-53231f716c3a","system_id":"levelo_inurba_marseille","lat":43.302759,"lon":5.400793,"is_reserved":false,"is_disabled":false,"rental_uris":{"android":"levelo://app?vid=1aa17af0-e048-4858-974b-53231f716c3a","ios":"levelo://app?vid=1aa17af0-e048-4858-974b-53231f716c3a"},"vehicle_type_id":"4","last_reported":1683310066,"current_range_meters":22400,"station_id":"ce4bgvh2rcd13ifvqcs0","pricing_plan_id":"free"},{"bike_id":"62dbba81-c7e9-4256-a4c9-e3068adbbd05","system_id":"levelo_inurba_marseille","lat":43.3026,"lon":5.40073,"is_reserved":false,"is_disabled":false,"rental_uris":{"android":"levelo://app?vid=62dbba81-c7e9-4256-a4c9-e3068adbbd05","ios":"levelo://app?vid=62dbba81-c7e9-4256-a4c9-e3068adbbd05"},"vehicle_type_id":"4","last_reported":1683310066,"current_range_meters":7200,"station_id":"ce4bgvh2rcd13ifvqcs0","pricing_plan_id":"free"},{"bike_id":"cb0d6c13-65f2-49af-aee8-330053c02af8","system_id":"levelo_inurba_marseille","lat":43.286039,"lon":5.370679,"is_reserved":false,"is_disabled":false,"rental_uris":{"android":"levelo://app?vid=cb0d6c13-65f2-49af-aee8-330053c02af8","ios":"levelo://app?vid=cb0d6c13-65f2-49af-aee8-330053c02af8"},"vehicle_type_id":"4","last_reported":1683310066,"current_range_meters":21200,"station_id":"ce4bht12rcd13ifvqi60","pricing_plan_id":"free"},{"bike_id":"f8f6d2b0-2023-4336-9d27-d969292b6458","system_id":"levelo_inurba_marseille","lat":43.286039,"lon":5.370679,"is_reserved":false,"is_disabled":false,"rental_uris":{"android":"levelo://app?vid=f8f6d2b0-2023-4336-9d27-d969292b6458","ios":"levelo://app?vid=f8f6d2b0-2023-4336-9d27-d969292b6458"},"vehicle_type_id":"4","last_reported":1683310066,"current_range_meters":8800,"station_id":"ce4bht12rcd13ifvqi60","pricing_plan_id":"free"},{"bike_id":"bef6a176-6a9d-4c22-b120-44f04e4237a5","system_id":"levelo_inurba_marseille","lat":43.286039,"lon":5.370681,"is_reserved":false,"is_disabled":false,"rental_uris":{"android":"levelo://app?vid=bef6a176-6a9d-4c22-b120-44f04e4237a5","ios":"levelo://app?vid=bef6a176-6a9d-4c22-b120-44f04e4237a5"},"vehicle_type_id":"4","last_reported":1683310066,"current_range_meters":18000,"station_id":"ce4bht12rcd13ifvqi60","pricing_plan_id":"free"},{"bike_id":"f10615de-4eb0-4159-872b-37b1eb002db3","system_id":"levelo_inurba_marseille","lat":43.286039,"lon":5.370681,"is_reserved":false,"is_disabled":false,"rental_uris":{"android":"levelo://app?vid=f10615de-4eb0-4159-872b-37b1eb002db3","ios":"levelo://app?vid=f10615de-4eb0-4159-872b-37b1eb002db3"},"vehicle_type_id":"4","last_reported":1683310066,"current_range_meters":15200,"station_id":"ce4bht12rcd13ifvqi60","pricing_plan_id":"free"},{"bike_id":"b0d23894-4ada-4050-be49-94395cc91a69","system_id":"levelo_inurba_marseille","lat":43.286039,"lon":5.370679,"is_reserved":false,"is_disabled":false,"rental_uris":{"android":"levelo://app?vid=b0d23894-4ada-4050-be49-94395cc91a69","ios":"levelo://app?vid=b0d23894-4ada-4050-be49-94395cc91a69"},"vehicle_type_id":"4","last_reported":1683310066,"current_range_meters":20000,"station_id":"ce4bht12rcd13ifvqi60","pricing_plan_id":"free"},{"bike_id":"cf090f47-be94-40a8-be4f-96ec1e9b6174","system_id":"levelo_inurba_marseille","lat":43.28607,"lon":5.37064,"is_reserved":false,"is_disabled":false,"rental_uris":{"android":"levelo://app?vid=cf090f47-be94-40a8-be4f-96ec1e9b6174","ios":"levelo://app?vid=cf090f47-be94-40a8-be4f-96ec1e9b6174"},"vehicle_type_id":"4","last_reported":1683310066,"current_range_meters":23600,"station_id":"ce4bht12rcd13ifvqi60","pricing_plan_id":"free"},{"bike_id":"b6dc8348-87b5-438b-87f1-e734fa6069fa","system_id":"levelo_inurba_marseille","lat":43.316517,"lon":5.404375,"is_reserved":false,"is_disabled":false,"rental_uris":{"android":"levelo://app?vid=b6dc8348-87b5-438b-87f1-e734fa6069fa","ios":"levelo://app?vid=b6dc8348-87b5-438b-87f1-e734fa6069fa"},"vehicle_type_id":"4","last_reported":1683310066,"current_range_meters":13200,"station_id":"ce4bh012rcd13ifvqd00","pricing_plan_id":"free"},{"bike_id":"d44120ab-75ce-4fa7-b03c-b63a3e80189b","system_id":"levelo_inurba_marseille","lat":43.316517,"lon":5.404375,"is_reserved":false,"is_disabled":false,"rental_uris":{"android":"levelo://app?vid=d44120ab-75ce-4fa7-b03c-b63a3e80189b","ios":"levelo://app?vid=d44120ab-75ce-4fa7-b03c-b63a3e80189b"},"vehicle_type_id":"4","last_reported":1683310066,"current_range_meters":9600,"station_id":"ce4bh012rcd13ifvqd00","pricing_plan_id":"free"},{"bike_id":"ea1a0d9f-3498-4907-9cb7-fd3b027c6cfb","system_id":"levelo_inurba_marseille","lat":43.284534,"lon":5.358662,"is_reserved":false,"is_disabled":false,"rental_uris":{"android":"levelo://app?vid=ea1a0d9f-3498-4907-9cb7-fd3b027c6cfb","ios":"levelo://app?vid=ea1a0d9f-3498-4907-9cb7-fd3b027c6cfb"},"vehicle_type_id":"4","last_reported":1683310066,"current_range_meters":23200,"station_id":"ce4bhah2rcd13ifvqei0","pricing_plan_id":"free"},{"bike_id":"f77e42ec-d94b-4d29-a2b7-76233695000e","system_id":"levelo_inurba_marseille","lat":43.284534,"lon":5.358662,"is_reserved":false,"is_disabled":false,"rental_uris":{"android":"levelo://app?vid=f77e42ec-d94b-4d29-a2b7-76233695000e","ios":"levelo://app?vid=f77e42ec-d94b-4d29-a2b7-76233695000e"},"vehicle_type_id":"4","last_reported":1683310066,"current_range_meters":5200,"station_id":"ce4bhah2rcd13ifvqei0","pricing_plan_id":"free"},{"bike_id":"84c683ef-bd2a-4e9d-9da2-4caf487add38","system_id":"levelo_inurba_marseille","lat":43.284534,"lon":5.358662,"is_reserved":false,"is_disabled":false,"rental_uris":{"android":"levelo://app?vid=84c683ef-bd2a-4e9d-9da2-4caf487add38","ios":"levelo://app?vid=84c683ef-bd2a-4e9d-9da2-4caf487add38"},"vehicle_type_id":"4","last_reported":1683310066,"current_range_meters":23600,"station_id":"ce4bhah2rcd13ifvqei0","pricing_plan_id":"free"},{"bike_id":"e8ed9d0c-5192-46ac-9c14-301238dfce72","system_id":"levelo_inurba_marseille","lat":43.284534,"lon":5.358662,"is_reserved":false,"is_disabled":false,"rental_uris":{"android":"levelo://app?vid=e8ed9d0c-5192-46ac-9c14-301238dfce72","ios":"levelo://app?vid=e8ed9d0c-5192-46ac-9c14-301238dfce72"},"vehicle_type_id":"4","last_reported":1683310066,"current_range_meters":28400,"station_id":"ce4bhah2rcd13ifvqei0","pricing_plan_id":"free"},{"bike_id":"619e84cb-8b32-4c9d-852b-ba83b4929d9c","system_id":"levelo_inurba_marseille","lat":43.284534,"lon":5.358662,"is_reserved":false,"is_disabled":false,"rental_uris":{"android":"levelo://app?vid=619e84cb-8b32-4c9d-852b-ba83b4929d9c","ios":"levelo://app?vid=619e84cb-8b32-4c9d-852b-ba83b4929d9c"},"vehicle_type_id":"4","last_reported":1683310066,"current_range_meters":11600,"station_id":"ce4bhah2rcd13ifvqei0","pricing_plan_id":"free"},{"bike_id":"cde9dcb9-3cc4-4e54-96a5-c1e09dd128dc","system_id":"levelo_inurba_marseille","lat":43.284534,"lon":5.358662,"is_reserved":false,"is_disabled":false,"rental_uris":{"android":"levelo://app?vid=cde9dcb9-3cc4-4e54-96a5-c1e09dd128dc","ios":"levelo://app?vid=cde9dcb9-3cc4-4e54-96a5-c1e09dd128dc"},"vehicle_type_id":"4","last_reported":1683310066,"current_range_meters":4000,"station_id":"ce4bhah2rcd13ifvqei0","pricing_plan_id":"free"},{"bike_id":"45ed0c9f-0966-40be-97fa-6ded5b2b2c35","system_id":"levelo_inurba_marseille","lat":43.284534,"lon":5.358662,"is_reserved":false,"is_disabled":false,"rental_uris":{"android":"levelo://app?vid=45ed0c9f-0966-40be-97fa-6ded5b2b2c35","ios":"levelo://app?vid=45ed0c9f-0966-40be-97fa-6ded5b2b2c35"},"vehicle_type_id":"4","last_reported":1683310066,"current_range_meters":10800,"station_id":"ce4bhah2rcd13ifvqei0","pricing_plan_id":"free"},{"bike_id":"6284708d-07e8-45d8-88dc-15a23b8ab0fb","system_id":"levelo_inurba_marseille","lat":43.284534,"lon":5.358662,"is_reserved":false,"is_disabled":false,"rental_uris":{"android":"levelo://app?vid=6284708d-07e8-45d8-88dc-15a23b8ab0fb","ios":"levelo://app?vid=6284708d-07e8-45d8-88dc-15a23b8ab0fb"},"vehicle_type_id":"4","last_reported":1683310066,"current_range_meters":0,"station_id":"ce4bhah2rcd13ifvqei0","pricing_plan_id":"free"},{"bike_id":"b74968cf-ca1e-4141-993f-fb972992410c","system_id":"levelo_inurba_marseille","lat":43.284534,"lon":5.358662,"is_reserved":false,"is_disabled":false,"rental_uris":{"android":"levelo://app?vid=b74968cf-ca1e-4141-993f-fb972992410c","ios":"levelo://app?vid=b74968cf-ca1e-4141-993f-fb972992410c"},"vehicle_type_id":"4","last_reported":1683310066,"current_range_meters":23200,"station_id":"ce4bhah2rcd13ifvqei0","pricing_plan_id":"free"},{"bike_id":"8ddc1b17-e5d6-4f70-a3cb-4ce98907e816","system_id":"levelo_inurba_marseille","lat":43.284534,"lon":5.358662,"is_reserved":false,"is_disabled":false,"rental_uris":{"android":"levelo://app?vid=8ddc1b17-e5d6-4f70-a3cb-4ce98907e816","ios":"levelo://app?vid=8ddc1b17-e5d6-4f70-a3cb-4ce98907e816"},"vehicle_type_id":"4","last_reported":1683310066,"current_range_meters":30000,"station_id":"ce4bhah2rcd13ifvqei0","pricing_plan_id":"free"},{"bike_id":"d53026a8-d698-4b43-b919-37660cca38b8","system_id":"levelo_inurba_marseille","lat":43.28457,"lon":5.35882,"is_reserved":false,"is_disabled":false,"rental_uris":{"android":"levelo://app?vid=d53026a8-d698-4b43-b919-37660cca38b8","ios":"levelo://app?vid=d53026a8-d698-4b43-b919-37660cca38b8"},"vehicle_type_id":"4","last_reported":1683310066,"current_range_meters":15600,"station_id":"ce4bhah2rcd13ifvqei0","pricing_plan_id":"free"},{"bike_id":"48f4fabd-7c69-4910-9d3f-cd0641eb000d","system_id":"levelo_inurba_marseille","lat":43.284534,"lon":5.358662,"is_reserved":false,"is_disabled":false,"rental_uris":{"android":"levelo://app?vid=48f4fabd-7c69-4910-9d3f-cd0641eb000d","ios":"levelo://app?vid=48f4fabd-7c69-4910-9d3f-cd0641eb000d"},"vehicle_type_id":"4","last_reported":1683310066,"current_range_meters":30400,"station_id":"ce4bhah2rcd13ifvqei0","pricing_plan_id":"free"},{"bike_id":"d0a73939-de9e-4290-aeee-07df37118317","system_id":"levelo_inurba_marseille","lat":43.284534,"lon":5.358662,"is_reserved":false,"is_disabled":false,"rental_uris":{"android":"levelo://app?vid=d0a73939-de9e-4290-aeee-07df37118317","ios":"levelo://app?vid=d0a73939-de9e-4290-aeee-07df37118317"},"vehicle_type_id":"4","last_reported":1683310066,"current_range_meters":1200,"station_id":"ce4bhah2rcd13ifvqei0","pricing_plan_id":"free"},{"bike_id":"061496bb-6511-4ad6-bc24-298e30c3c6f6","system_id":"levelo_inurba_marseille","lat":43.284534,"lon":5.358662,"is_reserved":false,"is_disabled":false,"rental_uris":{"android":"levelo://app?vid=061496bb-6511-4ad6-bc24-298e30c3c6f6","ios":"levelo://app?vid=061496bb-6511-4ad6-bc24-298e30c3c6f6"},"vehicle_type_id":"4","last_reported":1683310066,"current_range_meters":5600,"station_id":"ce4bhah2rcd13ifvqei0","pricing_plan_id":"free"},{"bike_id":"ce7dfed1-82e6-4eb5-ab03-f863158715e6","system_id":"levelo_inurba_marseille","lat":43.284534,"lon":5.358662,"is_reserved":false,"is_disabled":false,"rental_uris":{"android":"levelo://app?vid=ce7dfed1-82e6-4eb5-ab03-f863158715e6","ios":"levelo://app?vid=ce7dfed1-82e6-4eb5-ab03-f863158715e6"},"vehicle_type_id":"4","last_reported":1683310066,"current_range_meters":27600,"station_id":"ce4bhah2rcd13ifvqei0","pricing_plan_id":"free"},{"bike_id":"31649976-55ca-43e7-a96d-b281c4720cdf","system_id":"levelo_inurba_marseille","lat":43.284534,"lon":5.358662,"is_reserved":false,"is_disabled":false,"rental_uris":{"android":"levelo://app?vid=31649976-55ca-43e7-a96d-b281c4720cdf","ios":"levelo://app?vid=31649976-55ca-43e7-a96d-b281c4720cdf"},"vehicle_type_id":"4","last_reported":1683310066,"current_range_meters":8000,"station_id":"ce4bhah2rcd13ifvqei0","pricing_plan_id":"free"},{"bike_id":"fbdb44bf-8f8f-49a6-948d-13db936a27a2","system_id":"levelo_inurba_marseille","lat":43.285856,"lon":5.350771,"is_reserved":false,"is_disabled":false,"rental_uris":{"android":"levelo://app?vid=fbdb44bf-8f8f-49a6-948d-13db936a27a2","ios":"levelo://app?vid=fbdb44bf-8f8f-49a6-948d-13db936a27a2"},"vehicle_type_id":"4","last_reported":1683310066,"current_range_meters":16400,"station_id":"ce4bhch2rcd13ifvqeug","pricing_plan_id":"free"},{"bike_id":"a62489ab-f1f9-40ec-8a8a-aa0ad3f753d9","system_id":"levelo_inurba_marseille","lat":43.28622,"lon":5.35102,"is_reserved":false,"is_disabled":false,"rental_uris":{"android":"levelo://app?vid=a62489ab-f1f9-40ec-8a8a-aa0ad3f753d9","ios":"levelo://app?vid=a62489ab-f1f9-40ec-8a8a-aa0ad3f753d9"},"vehicle_type_id":"4","last_reported":1683310066,"current_range_meters":13600,"station_id":"","pricing_plan_id":"free"},{"bike_id":"722431e0-812e-4665-b8ef-a62654cefde3","system_id":"levelo_inurba_marseille","lat":43.285856,"lon":5.350771,"is_reserved":false,"is_disabled":false,"rental_uris":{"android":"levelo://app?vid=722431e0-812e-4665-b8ef-a62654cefde3","ios":"levelo://app?vid=722431e0-812e-4665-b8ef-a62654cefde3"},"vehicle_type_id":"4","last_reported":1683310066,"current_range_meters":14800,"station_id":"ce4bhch2rcd13ifvqeug","pricing_plan_id":"free"},{"bike_id":"77409397-a8a7-4e06-8c75-8e6a855c6e17","system_id":"levelo_inurba_marseille","lat":43.28618,"lon":5.35106,"is_reserved":false,"is_disabled":false,"rental_uris":{"android":"levelo://app?vid=77409397-a8a7-4e06-8c75-8e6a855c6e17","ios":"levelo://app?vid=77409397-a8a7-4e06-8c75-8e6a855c6e17"},"vehicle_type_id":"4","last_reported":1683310066,"current_range_meters":14400,"station_id":"","pricing_plan_id":"free"},{"bike_id":"494a1b51-1fe7-482f-82d3-59e9309a67c5","system_id":"levelo_inurba_marseille","lat":43.285848,"lon":5.350787,"is_reserved":false,"is_disabled":false,"rental_uris":{"android":"levelo://app?vid=494a1b51-1fe7-482f-82d3-59e9309a67c5","ios":"levelo://app?vid=494a1b51-1fe7-482f-82d3-59e9309a67c5"},"vehicle_type_id":"4","last_reported":1683310066,"current_range_meters":30000,"station_id":"ce4bhch2rcd13ifvqeug","pricing_plan_id":"free"},{"bike_id":"aab08673-e2a6-4503-a522-fa352a68c03d","system_id":"levelo_inurba_marseille","lat":43.28618,"lon":5.35104,"is_reserved":false,"is_disabled":false,"rental_uris":{"android":"levelo://app?vid=aab08673-e2a6-4503-a522-fa352a68c03d","ios":"levelo://app?vid=aab08673-e2a6-4503-a522-fa352a68c03d"},"vehicle_type_id":"4","last_reported":1683310066,"current_range_meters":17200,"station_id":"","pricing_plan_id":"free"},{"bike_id":"a20f1bd6-21d2-48ab-bb9a-97ce5c5d6206","system_id":"levelo_inurba_marseille","lat":43.285848,"lon":5.350787,"is_reserved":false,"is_disabled":false,"rental_uris":{"android":"levelo://app?vid=a20f1bd6-21d2-48ab-bb9a-97ce5c5d6206","ios":"levelo://app?vid=a20f1bd6-21d2-48ab-bb9a-97ce5c5d6206"},"vehicle_type_id":"4","last_reported":1683310066,"current_range_meters":29600,"station_id":"ce4bhch2rcd13ifvqeug","pricing_plan_id":"free"},