{"last_updated":1728292251,"ttl":60,"version":"2.2","data":{"bikes":[{"bike_id":"7a74c89a-bd19-403a-b9c7-f4acb6b6649d","system_id":"levelo_inurba_marseille","lat":43.2749,"lon":5.42456,"is_reserved":false,"is_disabled":false,"rental_uris":{"android":"levelo://app?vid=7a74c89a-bd19-403a-b9c7-f4acb6b6649d","ios":"levelo://app?vid=7a74c89a-bd19-403a-b9c7-f4acb6b6649d"},"vehicle_type_id":"4","last_reported":1728292251,"current_range_meters":25600,"station_id":"ce4bhn92rcd13ifvqgrg","pricing_plan_id":"cebpf4jnsgd1na2vs0mg"},{"bike_id":"601e0a35-ef0a-4c9d-bad9-539b9b5f5dd5","system_id":"levelo_inurba_marseille","lat":43.23149,"lon":5.4372,"is_reserved":false,"is_disabled":false,"rental_uris":{"android":"levelo://app?vid=601e0a35-ef0a-4c9d-bad9-539b9b5f5dd5","ios":"levelo://app?vid=601e0a35-ef0a-4c9d-bad9-539b9b5f5dd5"},"vehicle_type_id":"4","last_reported":1728292251,"current_range_meters":25200,"station_id":"ce4bhmp2rcd13ifvqgog","pricing_plan_id":"cebpf4jnsgd1na2vs0mg"},{"bike_id":"9840128e-20cc-4d85-941b-d961e61c1c08","system_id":"levelo_inurba_marseille","lat":43.23133,"lon":5.43722,"is_reserved":false,"is_disabled":false,"rental_uris":{"android":"levelo://app?vid=9840128e-20cc-4d85-941b-d961e61c1c08","ios":"levelo://app?vid=9840128e-20cc-4d85-941b-d961e61c1c08"},"vehicle_type_id":"4","last_reported":1728292251,"current_range_meters":8000,"station_id":"ce4bhmp2rcd13ifvqgog","pricing_plan_id":"cebpf4jnsgd1na2vs0mg"},{"bike_id":"ef6956f5-eddf-4312-b28a-5d86c6b10f7c","system_id":"levelo_inurba_marseille","lat":43.3028,"lon":5.37721,"is_reserved":false,"is_disabled":false,"rental_uris":{"android":"levelo://app?vid=ef6956f5-eddf-4312-b28a-5d86c6b10f7c","ios":"levelo://app?vid=ef6956f5-eddf-4312-b28a-5d86c6b10f7c"},"vehicle_type_id":"4","last_reported":1728292251,"current_range_meters":38800,"station_id":"ce4bguh2rcd13ifvqcj0","pricing_plan_id":"cebpf4jnsgd1na2vs0mg"},{"bike_id":"74dc9502-4e95-44a0-9c32-ebb05642cd33","system_id":"levelo_inurba_marseille","lat":43.27371,"lon":5.36254,"is_reserved":false,"is_disabled":false,"rental_uris":{"android":"levelo://app?vid=74dc9502-4e95-44a0-9c32-ebb05642cd33","ios":"levelo://app?vid=74dc9502-4e95-44a0-9c32-ebb05642cd33"},"vehicle_type_id":"4","last_reported":1728292251,"current_range_meters":32400,"station_id":"ce4bhbh2rcd13ifvqeo0","pricing_plan_id":"cebpf4jnsgd1na2vs0mg"},{"bike_id":"58c1bf6d-a6a5-40ca-92f1-de0adfd036e6","system_id":"levelo_inurba_marseille","lat":43.2991,"lon":5.38129,"is_reserved":false,"is_disabled":false,"rental_uris":{"android":"levelo://app?vid=58c1bf6d-a6a5-40ca-92f1-de0adfd036e6","ios":"levelo://app?vid=58c1bf6d-a6a5-40ca-92f1-de0adfd036e6"},"vehicle_type_id":"4","last_reported":1728292251,"current_range_meters":27600,"station_id":"ce4bgj12rcd13ifvqbc0","pricing_plan_id":"cebpf4jnsgd1na2vs0mg"},{"bike_id":"3edccbad-c604-40df-acb2-6e9d91b67298","system_id":"levelo_inurba_marseille","lat":43.23058,"lon":5.35487,"is_reserved":false,"is_disabled":false,"rental_uris":{"android":"levelo://app?vid=3edccbad-c604-40df-acb2-6e9d91b67298","ios":"levelo://app?vid=3edccbad-c604-40df-acb2-6e9d91b67298"},"vehicle_type_id":"4","last_reported":1728292251,"current_range_meters":22400,"station_id":"cpo3342slgdg3j2ifvpg","pricing_plan_id":"cebpf4jnsgd1na2vs0mg"},{"bike_id":"788ae801-7e44-4103-8c25-851c057cbb99","system_id":"levelo_inurba_marseille","lat":43.30124,"lon":5.38098,"is_reserved":false,"is_disabled":false,"rental_uris":{"android":"levelo://app?vid=788ae801-7e44-4103-8c25-851c057cbb99","ios":"levelo://app?vid=788ae801-7e44-4103-8c25-851c057cbb99"},"vehicle_type_id":"4","last_reported":1728292251,"current_range_meters":28000,"station_id":"ce4bgjp2rcd13ifvqbh0","pricing_plan_id":"cebpf4jnsgd1na2vs0mg"},{"bike_id":"63f105d8-13e1-41eb-aca8-809b7a33f4c5","system_id":"levelo_inurba_marseille","lat":43.31357,"lon":5.36699,"is_reserved":false,"is_disabled":false,"rental_uris":{"android":"levelo://app?vid=63f105d8-13e1-41eb-aca8-809b7a33f4c5","ios":"levelo://app?vid=63f105d8-13e1-41eb-aca8-809b7a33f4c5"},"vehicle_type_id":"4","last_reported":1728292251,"current_range_meters":20400,"station_id":"ce4bgr92rcd13ifvqc6g","pricing_plan_id":"cebpf4jnsgd1na2vs0mg"},{"bike_id":"355bb0b2-399f-438c-9353-d3c0a226d2b1","system_id":"levelo_inurba_marseille","lat":43.2991,"lon":5.38143,"is_reserved":false,"is_disabled":false,"rental_uris":{"android":"levelo://app?vid=355bb0b2-399f-438c-9353-d3c0a226d2b1","ios":"levelo://app?vid=355bb0b2-399f-438c-9353-d3c0a226d2b1"},"vehicle_type_id":"4","last_reported":1728292251,"current_range_meters":36800,"station_id":"ce4bgj12rcd13ifvqbc0","pricing_plan_id":"cebpf4jnsgd1na2vs0mg"},{"bike_id":"bda68d96-f9d4-4c83-9289-79f4fb5f7c27","system_id":"levelo_inurba_marseille","lat":43.28998,"lon":5.35614,"is_reserved":false,"is_disabled":false,"rental_uris":{"android":"levelo://app?vid=bda68d96-f9d4-4c83-9289-79f4fb5f7c27","ios":"levelo://app?vid=bda68d96-f9d4-4c83-9289-79f4fb5f7c27"},"vehicle_type_id":"4","last_reported":1728292251,"current_range_meters":32800,"station_id":"ce4bhb92rcd13ifvqen0","pricing_plan_id":"cebpf4jnsgd1na2vs0mg"},{"bike_id":"afd7d590-4416-4ae6-95b0-0b78d34378ab","system_id":"levelo_inurba_marseille","lat":43.30954,"lon":5.39055,"is_reserved":false,"is_disabled":false,"rental_uris":{"android":"levelo://app?vid=afd7d590-4416-4ae6-95b0-0b78d34378ab","ios":"levelo://app?vid=afd7d590-4416-4ae6-95b0-0b78d34378ab"},"vehicle_type_id":"4","last_reported":1728292251,"current_range_meters":27600,"station_id":"ce4bgup2rcd13ifvqco0","pricing_plan_id":"cebpf4jnsgd1na2vs0mg"},{"bike_id":"9b90015d-afd1-4ef9-a9ac-a8694f237c16","system_id":"levelo_inurba_marseille","lat":43.2315,"lon":5.43714,"is_reserved":false,"is_disabled":false,"rental_uris":{"android":"levelo://app?vid=9b90015d-afd1-4ef9-a9ac-a8694f237c16","ios":"levelo://app?vid=9b90015d-afd1-4ef9-a9ac-a8694f237c16"},"vehicle_type_id":"4","last_reported":1728292251,"current_range_meters":16800,"station_id":"ce4bhmp2rcd13ifvqgog","pricing_plan_id":"cebpf4jnsgd1na2vs0mg"},{"bike_id":"eecf6576-e26a-4403-ae90-06848eaeed26","system_id":"levelo_inurba_marseille","lat":43.29899,"lon":5.38142,"is_reserved":false,"is_disabled":false,"rental_uris":{"android":"levelo://app?vid=eecf6576-e26a-4403-ae90-06848eaeed26","ios":"levelo://app?vid=eecf6576-e26a-4403-ae90-06848eaeed26"},"vehicle_type_id":"4","last_reported":1728292251,"current_range_meters":36800,"station_id":"ce4bgj12rcd13ifvqbc0","pricing_plan_id":"cebpf4jnsgd1na2vs0mg"},{"bike_id":"0c79aab6-040b-4bde-9e28-12201a8a5e7b","system_id":"levelo_inurba_marseille","lat":43.25574,"lon":5.38231,"is_reserved":false,"is_disabled":false,"rental_uris":{"android":"levelo://app?vid=0c79aab6-040b-4bde-9e28-12201a8a5e7b","ios":"levelo://app?vid=0c79aab6-040b-4bde-9e28-12201a8a5e7b"},"vehicle_type_id":"4","last_reported":1728292251,"current_range_meters":4400,"station_id":"ce4bhih2rcd13ifvqfs0","pricing_plan_id":"cebpf4jnsgd1na2vs0mg"},{"bike_id":"e71732d2-a454-4971-bca9-44577794cb1c","system_id":"levelo_inurba_marseille","lat":43.29572,"lon":5.37519,"is_reserved":false,"is_disabled":false,"rental_uris":{"android":"levelo://app?vid=e71732d2-a454-4971-bca9-44577794cb1c","ios":"levelo://app?vid=e71732d2-a454-4971-bca9-44577794cb1c"},"vehicle_type_id":"4","last_reported":1728292251,"current_range_meters":26800,"station_id":"ce4bgh92rcd13ifvqb50","pricing_plan_id":"cebpf4jnsgd1na2vs0mg"},{"bike_id":"7c3acb4c-8811-42c8-98ab-05cf388495cd","system_id":"levelo_inurba_marseille","lat":43.25933,"lon":5.40897,"is_reserved":false,"is_disabled":false,"rental_uris":{"android":"levelo://app?vid=7c3acb4c-8811-42c8-98ab-05cf388495cd","ios":"levelo://app?vid=7c3acb4c-8811-42c8-98ab-05cf388495cd"},"vehicle_type_id":"4","last_reported":1728292251,"current_range_meters":27600,"station_id":"ce4bhm92rcd13ifvqglg","pricing_plan_id":"cebpf4jnsgd1na2vs0mg"},{"bike_id":"d1a732d2-48ed-445a-921b-ae7adf470a9d","system_id":"levelo_inurba_marseille","lat":43.29532,"lon":5.38539,"is_reserved":false,"is_disabled":false,"rental_uris":{"android":"levelo://app?vid=d1a732d2-48ed-445a-921b-ae7adf470a9d","ios":"levelo://app?vid=d1a732d2-48ed-445a-921b-ae7adf470a9d"},"vehicle_type_id":"4","last_reported":1728292251,"current_range_meters":36400,"station_id":"ce4bgih2rcd13ifvqba0","pricing_plan_id":"cebpf4jnsgd1na2vs0mg"},{"bike_id":"81b07a05-4c57-4e76-99d6-5f6e3acbb201","system_id":"levelo_inurba_marseille","lat":43.23059,"lon":5.35495,"is_reserved":false,"is_disabled":false,"rental_uris":{"android":"levelo://app?vid=81b07a05-4c57-4e76-99d6-5f6e3acbb201","ios":"levelo://app?vid=81b07a05-4c57-4e76-99d6-5f6e3acbb201"},"vehicle_type_id":"4","last_reported":1728292251,"current_range_meters":13600,"station_id":"cpo3342slgdg3j2ifvpg","pricing_plan_id":"cebpf4jnsgd1na2vs0mg"},{"bike_id":"2043dc38-c78d-4792-8303-efb2efb95319","system_id":"levelo_inurba_marseille","lat":43.239993,"lon":5.366479,"is_reserved":false,"is_disabled":false,"rental_uris":{"android":"levelo://app?vid=2043dc38-c78d-4792-8303-efb2efb95319","ios":"levelo://app?vid=2043dc38-c78d-4792-8303-efb2efb95319"},"vehicle_type_id":"4","last_reported":1728292251,"current_range_meters":21600,"station_id":"ce4bhi12rcd13ifvqfp0","pricing_plan_id":"cebpf4jnsgd1na2vs0mg"},{"bike_id":"7b5acb30-7728-4d2f-b8de-cc88114cf385","system_id":"levelo_inurba_marseille","lat":43.23144,"lon":5.43719,"is_reserved":false,"is_disabled":false,"rental_uris":{"android":"levelo://app?vid=7b5acb30-7728-4d2f-b8de-cc88114cf385","ios":"levelo://app?vid=7b5acb30-7728-4d2f-b8de-cc88114cf385"},"vehicle_type_id":"4","last_reported":1728292251,"current_range_meters":38800,"station_id":"ce4bhmp2rcd13ifvqgog","pricing_plan_id":"cebpf4jnsgd1na2vs0mg"},{"bike_id":"2861f3e3-0324-4046-963b-1508529b940f","system_id":"levelo_inurba_marseille","lat":43.31356,"lon":5.36699,"is_reserved":false,"is_disabled":false,"rental_uris":{"android":"levelo://app?vid=2861f3e3-0324-4046-963b-1508529b940f","ios":"levelo://app?vid=2861f3e3-0324-4046-963b-1508529b940f"},"vehicle_type_id":"4","last_reported":1728292251,"current_range_meters":30800,"station_id":"ce4bgr92rcd13ifvqc6g","pricing_plan_id":"cebpf4jnsgd1na2vs0mg"},{"bike_id":"e2200a0d-12da-4459-b8f5-161f17ffb2d2","system_id":"levelo_inurba_marseille","lat":43.31364,"lon":5.36688,"is_reserved":false,"is_disabled":false,"rental_uris":{"android":"levelo://app?vid=e2200a0d-12da-4459-b8f5-161f17ffb2d2","ios":"levelo://app?vid=e2200a0d-12da-4459-b8f5-161f17ffb2d2"},"vehicle_type_id":"4","last_reported":1728292251,"current_range_meters":34000,"station_id":"ce4bgr92rcd13ifvqc6g","pricing_plan_id":"cebpf4jnsgd1na2vs0mg"},{"bike_id":"ef7885b4-16f6-4f9a-918c-7416ed29f3c8","system_id":"levelo_inurba_marseille","lat":43.28151,"lon":5.42641,"is_reserved":false,"is_disabled":false,"rental_uris":{"android":"levelo://app?vid=ef7885b4-16f6-4f9a-918c-7416ed29f3c8","ios":"levelo://app?vid=ef7885b4-16f6-4f9a-918c-7416ed29f3c8"},"vehicle_type_id":"4","last_reported":1728292251,"current_range_meters":2000,"station_id":"ce4bhnh2rcd13ifvqgug","pricing_plan_id":"cebpf4jnsgd1na2vs0mg"},{"bike_id":"21814611-01da-4a56-bde2-76253f0cdaa1","system_id":"levelo_inurba_marseille","lat":43.27071,"lon":5.42276,"is_reserved":false,"is_disabled":false,"rental_uris":{"android":"levelo://app?vid=21814611-01da-4a56-bde2-76253f0cdaa1","ios":"levelo://app?vid=21814611-01da-4a56-bde2-76253f0cdaa1"},"vehicle_type_id":"4","last_reported":1728292251,"current_range_meters":39200,"station_id":"ce4bhk92rcd13ifvqgb0","pricing_plan_id":"cebpf4jnsgd1na2vs0mg"},{"bike_id":"18749b06-c9ac-4c46-8ed2-88a7738c54d2","system_id":"levelo_inurba_marseille","lat":43.26199,"lon":5.3793,"is_reserved":false,"is_disabled":false,"rental_uris":{"android":"levelo://app?vid=18749b06-c9ac-4c46-8ed2-88a7738c54d2","ios":"levelo://app?vid=18749b06-c9ac-4c46-8ed2-88a7738c54d2"},"vehicle_type_id":"4","last_reported":1728292251,"current_range_meters":38000,"station_id":"ce4bhjp2rcd13ifvqg90","pricing_plan_id":"cebpf4jnsgd1na2vs0mg"},{"bike_id":"49252c99-e48b-40d7-a4b2-09e840d8ef97","system_id":"levelo_inurba_marseille","lat":43.30139,"lon":5.37424,"is_reserved":false,"is_disabled":false,"rental_uris":{"android":"levelo://app?vid=49252c99-e48b-40d7-a4b2-09e840d8ef97","ios":"levelo://app?vid=49252c99-e48b-40d7-a4b2-09e840d8ef97"},"vehicle_type_id":"4","last_reported":1728292251,"current_range_meters":9200,"station_id":"ce4bgs92rcd13ifvqcc0","pricing_plan_id":"cebpf4jnsgd1na2vs0mg"},{"bike_id":"de8b4e8a-0aba-4181-9f88-b04e1810000d","system_id":"levelo_inurba_marseille","lat":43.29615,"lon":5.37147,"is_reserved":false,"is_disabled":false,"rental_uris":{"android":"levelo://app?vid=de8b4e8a-0aba-4181-9f88-b04e1810000d","ios":"levelo://app?vid=de8b4e8a-0aba-4181-9f88-b04e1810000d"},"vehicle_type_id":"4","last_reported":1728292251,"current_range_meters":35200,"station_id":"ce4bgnh2rcd13ifvqc0g","pricing_plan_id":"cebpf4jnsgd1na2vs0mg"},{"bike_id":"ca06ed4b-6dc8-4d7d-8ae3-f29ff4ae0f2d","system_id":"levelo_inurba_marseille","lat":43.29295,"lon":5.37458,"is_reserved":false,"is_disabled":false,"rental_uris":{"android":"levelo://app?vid=ca06ed4b-6dc8-4d7d-8ae3-f29ff4ae0f2d","ios":"levelo://app?vid=ca06ed4b-6dc8-4d7d-8ae3-f29ff4ae0f2d"},"vehicle_type_id":"4","last_reported":1728292251,"current_range_meters":38800,"station_id":"ce4bgi12rcd13ifvqb70","pricing_plan_id":"cebpf4jnsgd1na2vs0mg"},{"bike_id":"aea6280b-cdd4-4154-919f-9a5c82db0da6","system_id":"levelo_inurba_marseille","lat":43.33612,"lon":5.41028,"is_reserved":false,"is_disabled":false,"rental_uris":{"android":"levelo://app?vid=aea6280b-cdd4-4154-919f-9a5c82db0da6","ios":"levelo://app?vid=aea6280b-cdd4-4154-919f-9a5c82db0da6"},"vehicle_type_id":"4","last_reported":1728292251,"current_range_meters":30000,"station_id":"ce4bhqh2rcd13ifvqhmg","pricing_plan_id":"cebpf4jnsgd1na2vs0mg"},{"bike_id":"8c4ede2a-8479-4951-912b-e9104b176599","system_id":"levelo_inurba_marseille","lat":43.33719,"lon":5.3919,"is_reserved":false,"is_disabled":false,"rental_uris":{"android":"levelo://app?vid=8c4ede2a-8479-4951-912b-e9104b176599","ios":"levelo://app?vid=8c4ede2a-8479-4951-912b-e9104b176599"},"vehicle_type_id":"4","last_reported":1728292251,"current_range_meters":2800,"station_id":"ce4bhr92rcd13ifvqhsg","pricing_plan_id":"cebpf4jnsgd1na2vs0mg"},{"bike_id":"f0fe4c24-1796-4848-b170-ba753b6c9bb3","system_id":"levelo_inurba_marseille","lat":43.2861,"lon":5.38112,"is_reserved":false,"is_disabled":false,"rental_uris":{"android":"levelo://app?vid=f0fe4c24-1796-4848-b170-ba753b6c9bb3","ios":"levelo://app?vid=f0fe4c24-1796-4848-b170-ba753b6c9bb3"},"vehicle_type_id":"4","last_reported":1728292251,"current_range_meters":3600,"station_id":"","pricing_plan_id":"cebpf4jnsgd1na2vs0mg"},{"bike_id":"5742bca4-f39d-4d69-b12a-deb6915cbb3c","system_id":"levelo_inurba_marseille","lat":43.30137,"lon":5.38084,"is_reserved":false,"is_disabled":false,"rental_uris":{"android":"levelo://app?vid=5742bca4-f39d-4d69-b12a-deb6915cbb3c","ios":"levelo://app?vid=5742bca4-f39d-4d69-b12a-deb6915cbb3c"},"vehicle_type_id":"4","last_reported":1728292251,"current_range_meters":28800,"station_id":"ce4bgjp2rcd13ifvqbh0","pricing_plan_id":"cebpf4jnsgd1na2vs0mg"},{"bike_id":"5b8f0a30-9eed-4db0-b2a8-9b55c1a6fc53","system_id":"levelo_inurba_marseille","lat":43.313638,"lon":5.36709,"is_reserved":false,"is_disabled":false,"rental_uris":{"android":"levelo://app?vid=5b8f0a30-9eed-4db0-b2a8-9b55c1a6fc53","ios":"levelo://app?vid=5b8f0a30-9eed-4db0-b2a8-9b55c1a6fc53"},"vehicle_type_id":"4","last_reported":1728292251,"current_range_meters":24800,"station_id":"ce4bgr92rcd13ifvqc6g","pricing_plan_id":"cebpf4jnsgd1na2vs0mg"},{"bike_id":"4018fa26-9a2a-4214-af21-76b3667a940b","system_id":"levelo_inurba_marseille","lat":43.29901,"lon":5.38156,"is_reserved":false,"is_disabled":false,"rental_uris":{"android":"levelo://app?vid=4018fa26-9a2a-4214-af21-76b3667a940b","ios":"levelo://app?vid=4018fa26-9a2a-4214-af21-76b3667a940b"},"vehicle_type_id":"4","last_reported":1728292251,"current_range_meters":27200,"station_id":"ce4bgj12rcd13ifvqbc0","pricing_plan_id":"cebpf4jnsgd1na2vs0mg"},{"bike_id":"899f8af6-7016-4b1f-b914-b288e7248067","system_id":"levelo_inurba_marseille","lat":43.26111,"lon":5.38002,"is_reserved":false,"is_disabled":false,"rental_uris":{"android":"levelo://app?vid=899f8af6-7016-4b1f-b914-b288e7248067","ios":"levelo://app?vid=899f8af6-7016-4b1f-b914-b288e7248067"},"vehicle_type_id":"4","last_reported":1728292251,"current_range_meters":27600,"station_id":"","pricing_plan_id":"cebpf4jnsgd1na2vs0mg"},{"bike_id":"2972facc-7a8f-4fe7-b8c6-a6c8dbc1987b","system_id":"levelo_inurba_marseille","lat":43.24635,"lon":5.43365,"is_reserved":false,"is_disabled":false,"rental_uris":{"android":"levelo://app?vid=2972facc-7a8f-4fe7-b8c6-a6c8dbc1987b","ios":"levelo://app?vid=2972facc-7a8f-4fe7-b8c6-a6c8dbc1987b"},"vehicle_type_id":"4","last_reported":1728292251,"current_range_meters":14800,"station_id":"","pricing_plan_id":"cebpf4jnsgd1na2vs0mg"},{"bike_id":"35db5aab-a536-4286-87d7-90ec43783f24","system_id":"levelo_inurba_marseille","lat":43.2319,"lon":5.35556,"is_reserved":false,"is_disabled":false,"rental_uris":{"android":"levelo://app?vid=35db5aab-a536-4286-87d7-90ec43783f24","ios":"levelo://app?vid=35db5aab-a536-4286-87d7-90ec43783f24"},"vehicle_type_id":"4","last_reported":1728292251,"current_range_meters":36400,"station_id":"ce4bhu92rcd13ifvqi70","pricing_plan_id":"cebpf4jnsgd1na2vs0mg"},{"bike_id":"1b069a8c-67a0-4932-82ef-e44b78278187","system_id":"levelo_inurba_marseille","lat":43.31489,"lon":5.37298,"is_reserved":false,"is_disabled":false,"rental_uris":{"android":"levelo://app?vid=1b069a8c-67a0-4932-82ef-e44b78278187","ios":"levelo://app?vid=1b069a8c-67a0-4932-82ef-e44b78278187"},"vehicle_type_id":"4","last_reported":1728292251,"current_range_meters":38800,"station_id":"ce4bgt12rcd13ifvqcd0","pricing_plan_id":"cebpf4jnsgd1na2vs0mg"},{"bike_id":"62dfd99c-f976-4937-b2d0-5b50f5ae699f","system_id":"levelo_inurba_marseille","lat":43.24166,"lon":5.36405,"is_reserved":false,"is_disabled":false,"rental_uris":{"android":"levelo://app?vid=62dfd99c-f976-4937-b2d0-5b50f5ae699f","ios":"levelo://app?vid=62dfd99c-f976-4937-b2d0-5b50f5ae699f"},"vehicle_type_id":"4","last_reported":1728292251,"current_range_meters":10800,"station_id":"cpo36qri1sfpv3e86is0","pricing_plan_id":"cebpf4jnsgd1na2vs0mg"},{"bike_id":"2af27692-67e8-459e-b78a-fc901f24234e","system_id":"levelo_inurba_marseille","lat":43.29504,"lon":5.37514,"is_reserved":false,"is_disabled":false,"rental_uris":{"android":"levelo://app?vid=2af27692-67e8-459e-b78a-fc901f24234e","ios":"levelo://app?vid=2af27692-67e8-459e-b78a-fc901f24234e"},"vehicle_type_id":"4","last_reported":1728292251,"current_range_meters":7200,"station_id":"ce4bgkp2rcd13ifvqbmg","pricing_plan_id":"cebpf4jnsgd1na2vs0mg"},{"bike_id":"a6530365-194e-4e15-a9ab-70c867665fe4","system_id":"levelo_inurba_marseille","lat":43.26057,"lon":5.39387,"is_reserved":false,"is_disabled":false,"rental_uris":{"android":"levelo://app?vid=a6530365-194e-4e15-a9ab-70c867665fe4","ios":"levelo://app?vid=a6530365-194e-4e15-a9ab-70c867665fe4"},"vehicle_type_id":"4","last_reported":1728292251,"current_range_meters":37600,"station_id":"ce4bhh92rcd13ifvqfj0","pricing_plan_id":"cebpf4jnsgd1na2vs0mg"},{"bike_id":"491813ec-5bcd-4eda-acb2-c01ccb4e9894","system_id":"levelo_inurba_marseille","lat":43.299,"lon":5.38145,"is_reserved":false,"is_disabled":false,"rental_uris":{"android":"levelo://app?vid=491813ec-5bcd-4eda-acb2-c01ccb4e9894","ios":"levelo://app?vid=491813ec-5bcd-4eda-acb2-c01ccb4e9894"},"vehicle_type_id":"4","last_reported":1728292251,"current_range_meters":24800,"station_id":"ce4bgj12rcd13ifvqbc0","pricing_plan_id":"cebpf4jnsgd1na2vs0mg"},{"bike_id":"3c324bf8-86dd-4109-b29b-58f28634f135","system_id":"levelo_inurba_marseille","lat":43.2603,"lon":5.37545,"is_reserved":false,"is_disabled":false,"rental_uris":{"android":"levelo://app?vid=3c324bf8-86dd-4109-b29b-58f28634f135","ios":"levelo://app?vid=3c324bf8-86dd-4109-b29b-58f28634f135"},"vehicle_type_id":"4","last_reported":1728292251,"current_range_meters":38400,"station_id":"ce4bhgh2rcd13ifvqfa0","pricing_plan_id":"cebpf4jnsgd1na2vs0mg"},{"bike_id":"3b5c2754-0e77-427f-972a-4a42cc508a54","system_id":"levelo_inurba_marseille","lat":43.29028,"lon":5.37556,"is_reserved":false,"is_disabled":false,"rental_uris":{"android":"levelo://app?vid=3b5c2754-0e77-427f-972a-4a42cc508a54","ios":"levelo://app?vid=3b5c2754-0e77-427f-972a-4a42cc508a54"},"vehicle_type_id":"4","last_reported":1728292251,"current_range_meters":38000,"station_id":"ce4bh692rcd13ifvqe90","pricing_plan_id":"cebpf4jnsgd1na2vs0mg"},{"bike_id":"122f2f10-8edd-4b5e-be4d-36a072bf13c8","system_id":"levelo_inurba_marseille","lat":43.30136,"lon":5.37413,"is_reserved":false,"is_disabled":false,"rental_uris":{"android":"levelo://app?vid=122f2f10-8edd-4b5e-be4d-36a072bf13c8","ios":"levelo://app?vid=122f2f10-8edd-4b5e-be4d-36a072bf13c8"},"vehicle_type_id":"4","last_reported":1728292251,"current_range_meters":17600,"station_id":"ce4bgs92rcd13ifvqcc0","pricing_plan_id":"cebpf4jnsgd1na2vs0mg"},{"bike_id":"ae15bf0e-081e-4272-b73c-ff1d32656f13","system_id":"levelo_inurba_marseille","lat":43.24545,"lon":5.39517,"is_reserved":false,"is_disabled":false,"rental_uris":{"android":"levelo://app?vid=ae15bf0e-081e-4272-b73c-ff1d32656f13","ios":"levelo://app?vid=ae15bf0e-081e-4272-b73c-ff1d32656f13"},"vehicle_type_id":"4","last_reported":1728292251,"current_range_meters":39200,"station_id":"ce4bhlp2rcd13ifvqgjg","pricing_plan_id":"cebpf4jnsgd1na2vs0mg"},{"bike_id":"a7d39e11-88db-47a1-b559-47b761427f0e","system_id":"levelo_inurba_marseille","lat":43.25929,"lon":5.40904,"is_reserved":false,"is_disabled":false,"rental_uris":{"android":"levelo://app?vid=a7d39e11-88db-47a1-b559-47b761427f0e","ios":"levelo://app?vid=a7d39e11-88db-47a1-b559-47b761427f0e"},"vehicle_type_id":"4","last_reported":1728292251,"current_range_meters":34000,"station_id":"ce4bhm92rcd13ifvqglg","pricing_plan_id":"cebpf4jnsgd1na2vs0mg"},{"bike_id":"6ecc3250-1b8f-4fe4-9af2-4af6d50ffd76","system_id":"levelo_inurba_marseille","lat":43.25928,"lon":5.40898,"is_reserved":false,"is_disabled":false,"rental_uris":{"android":"levelo://app?vid=6ecc3250-1b8f-4fe4-9af2-4af6d50ffd76","ios":"levelo://app?vid=6ecc3250-1b8f-4fe4-9af2-4af6d50ffd76"},"vehicle_type_id":"4","last_reported":1728292251,"current_range_meters":15200,"station_id":"ce4bhm92rcd13ifvqglg","pricing_plan_id":"cebpf4jnsgd1na2vs0mg"},{"bike_id":"baba7691-81ff-4c7d-90d9-c89eba9696cb","system_id":"levelo_inurba_marseille","lat":43.25931,"lon":5.40913,"is_reserved":false,"is_disabled":false,"rental_uris":{"android":"levelo://app?vid=baba7691-81ff-4c7d-90d9-c89eba9696cb","ios":"levelo://app?vid=baba7691-81ff-4c7d-90d9-c89eba9696cb"},"vehicle_type_id":"4","last_reported":1728292251,"current_range_meters":28000,"station_id":"ce4bhm92rcd13ifvqglg","pricing_plan_id":"cebpf4jnsgd1na2vs0mg"},{"bike_id":"b7792212-086e-408c-bfd6-97418e84521b","system_id":"levelo_inurba_marseille","lat":43.29792,"lon":5.38099,"is_reserved":false,"is_disabled":false,"rental_uris":{"android":"levelo://app?vid=b7792212-086e-408c-bfd6-97418e84521b","ios":"levelo://app?vid=b7792212-086e-408c-bfd6-97418e84521b"},"vehicle_type_id":"4","last_reported":1728292251,"current_range_meters":21600,"station_id":"ce4bgip2rcd13ifvqbb0","pricing_plan_id":"cebpf4jnsgd1na2vs0mg"},{"bike_id":"b1a42782-3ee6-4e5c-aa06-ed242166d1ed","system_id":"levelo_inurba_marseille","lat":43.3211,"lon":5.3677,"is_reserved":false,"is_disabled":false,"rental_uris":{"android":"levelo://app?vid=b1a42782-3ee6-4e5c-aa06-ed242166d1ed","ios":"levelo://app?vid=b1a42782-3ee6-4e5c-aa06-ed242166d1ed"},"vehicle_type_id":"4","last_reported":1728292251,"current_range_meters":33200,"station_id":"ce4bhrh2rcd13ifvqhug","pricing_plan_id":"cebpf4jnsgd1na2vs0mg"},{"bike_id":"fec885cd-387f-4f71-9e64-7a12f33aa81b","system_id":"levelo_inurba_marseille","lat":43.24384,"lon":5.37049,"is_reserved":false,"is_disabled":false,"rental_uris":{"android":"levelo://app?vid=fec885cd-387f-4f71-9e64-7a12f33aa81b","ios":"levelo://app?vid=fec885cd-387f-4f71-9e64-7a12f33aa81b"},"vehicle_type_id":"4","last_reported":1728292251,"current_range_meters":25200,"station_id":"ce4bhhh2rcd13ifvqfk0","pricing_plan_id":"cebpf4jnsgd1na2vs0mg"},{"bike_id":"ec9c2a56-2b62-49bb-9e7d-3f85dfb294ae","system_id":"levelo_inurba_marseille","lat":43.30185,"lon":5.36621,"is_reserved":false,"is_disabled":false,"rental_uris":{"android":"levelo://app?vid=ec9c2a56-2b62-49bb-9e7d-3f85dfb294ae","ios":"levelo://app?vid=ec9c2a56-2b62-49bb-9e7d-3f85dfb294ae"},"vehicle_type_id":"4","last_reported":1728292251,"current_range_meters":36000,"station_id":"ce4bgrh2rcd13ifvqc8g","pricing_plan_id":"cebpf4jnsgd1na2vs0mg"},{"bike_id":"6e21cf09-8211-4564-8eca-728741565014","system_id":"levelo_inurba_marseille","lat":43.29074,"lon":5.37156,"is_reserved":false,"is_disabled":false,"rental_uris":{"android":"levelo://app?vid=6e21cf09-8211-4564-8eca-728741565014","ios":"levelo://app?vid=6e21cf09-8211-4564-8eca-728741565014"},"vehicle_type_id":"4","last_reported":1728292251,"current_range_meters":17200,"station_id":"ce4bh5p2rcd13ifvqe4g","pricing_plan_id":"cebpf4jnsgd1na2vs0mg"},{"bike_id":"4af55307-045f-4c66-a045-a91d88bb4c16","system_id":"levelo_inurba_marseille","lat":43.22926,"lon":5.35372,"is_reserved":false,"is_disabled":false,"rental_uris":{"android":"levelo://app?vid=4af55307-045f-4c66-a045-a91d88bb4c16","ios":"levelo://app?vid=4af55307-045f-4c66-a045-a91d88bb4c16"},"vehicle_type_id":"4","last_reported":1728292251,"current_range_meters":27600,"station_id":"cpo3532slgdg3j2ikp40","pricing_plan_id":"cebpf4jnsgd1na2vs0mg"},{"bike_id":"fa902769-4735-4ee3-8c64-aeb9d697025e","system_id":"levelo_inurba_marseille","lat":43.30526,"lon":5.36716,"is_reserved":false,"is_disabled":false,"rental_uris":{"android":"levelo://app?vid=fa902769-4735-4ee3-8c64-aeb9d697025e","ios":"levelo://app?vid=fa902769-4735-4ee3-8c64-aeb9d697025e"},"vehicle_type_id":"4","last_reported":1728292251,"current_range_meters":16000,"station_id":"ce4bgrp2rcd13ifvqc9g","pricing_plan_id":"cebpf4jnsgd1na2vs0mg"},{"bike_id":"006496ac-b336-4e13-b5f8-bcdc1e7d1b98","system_id":"levelo_inurba_marseille","lat":43.29722,"lon":5.37675,"is_reserved":false,"is_disabled":false,"rental_uris":{"android":"levelo://app?vid=006496ac-b336-4e13-b5f8-bcdc1e7d1b98","ios":"levelo://app?vid=006496ac-b336-4e13-b5f8-bcdc1e7d1b98"},"vehicle_type_id":"4","last_reported":1728292251,"current_range_meters":14800,"station_id":"ce4bgkh2rcd13ifvqbl0","pricing_plan_id":"cebpf4jnsgd1na2vs0mg"},{"bike_id":"13a35d1a-1c21-4cdd-9282-17040c700716","system_id":"levelo_inurba_marseille","lat":43.32542,"lon":5.41434,"is_reserved":false,"is_disabled":false,"rental_uris":{"android":"levelo://app?vid=13a35d1a-1c21-4cdd-9282-17040c700716","ios":"levelo://app?vid=13a35d1a-1c21-4cdd-9282-17040c700716"},"vehicle_type_id":"4","last_reported":1728292251,"current_range_meters":30400,"station_id":"ce4bhq12rcd13ifvqhhg","pricing_plan_id":"cebpf4jnsgd1na2vs0mg"},{"bike_id":"6482b1fb-67cb-4384-a7c9-6c0a7b56e3b4","system_id":"levelo_inurba_marseille","lat":43.28849,"lon":5.43333,"is_reserved":false,"is_disabled":false,"rental_uris":{"android":"levelo://app?vid=6482b1fb-67cb-4384-a7c9-6c0a7b56e3b4","ios":"levelo://app?vid=6482b1fb-67cb-4384-a7c9-6c0a7b56e3b4"},"vehicle_type_id":"4","last_reported":1728292251,"current_range_meters":6800,"station_id":"","pricing_plan_id":"cebpf4jnsgd1na2vs0mg"},{"bike_id":"1e592842-3390-46e6-95ec-f120a36922c9","system_id":"levelo_inurba_marseille","lat":43.23151,"lon":5.43704,"is_reserved":false,"is_disabled":false,"rental_uris":{"android":"levelo://app?vid=1e592842-3390-46e6-95ec-f120a36922c9","ios":"levelo://app?vid=1e592842-3390-46e6-95ec-f120a36922c9"},"vehicle_type_id":"4","last_reported":1728292251,"current_range_meters":17600,"station_id":"ce4bhmp2rcd13ifvqgog","pricing_plan_id":"cebpf4jnsgd1na2vs0mg"},{"bike_id":"51842b27-beea-4920-8795-3d8051a1ca32","system_id":"levelo_inurba_marseille","lat":43.31353,"lon":5.36707,"is_reserved":false,"is_disabled":false,"rental_uris":{"android":"levelo://app?vid=51842b27-beea-4920-8795-3d8051a1ca32","ios":"levelo://app?vid=51842b27-beea-4920-8795-3d8051a1ca32"},"vehicle_type_id":"4","last_reported":1728292251,"current_range_meters":19600,"station_id":"ce4bgr92rcd13ifvqc6g","pricing_plan_id":"cebpf4jnsgd1na2vs0mg"},{"bike_id":"f7d56185-ec25-43d7-94a8-9744db54f5f2","system_id":"levelo_inurba_marseille","lat":43.26558,"lon":5.37277,"is_reserved":false,"is_disabled":false,"rental_uris":{"android":"levelo://app?vid=f7d56185-ec25-43d7-94a8-9744db54f5f2","ios":"levelo://app?vid=f7d56185-ec25-43d7-94a8-9744db54f5f2"},"vehicle_type_id":"4","last_reported":1728292251,"current_range_meters":25200,"station_id":"ce4bhg12rcd13ifvqf70","pricing_plan_id":"cebpf4jnsgd1na2vs0mg"},{"bike_id":"9fc0fede-eafe-4fe5-b639-8db65855cbcb","system_id":"levelo_inurba_marseille","lat":43.3013,"lon":5.389217,"is_reserved":false,"is_disabled":false,"rental_uris":{"android":"levelo://app?vid=9fc0fede-eafe-4fe5-b639-8db65855cbcb","ios":"levelo://app?vid=9fc0fede-eafe-4fe5-b639-8db65855cbcb"},"vehicle_type_id":"4","last_reported":1728292251,"current_range_meters":8800,"station_id":"","pricing_plan_id":"cebpf4jnsgd1na2vs0mg"},{"bike_id":"97ef281f-c717-429c-a078-d6a368902950","system_id":"levelo_inurba_marseille","lat":43.24166,"lon":5.36393,"is_reserved":false,"is_disabled":false,"rental_uris":{"android":"levelo://app?vid=97ef281f-c717-429c-a078-d6a368902950","ios":"levelo://app?vid=97ef281f-c717-429c-a078-d6a368902950"},"vehicle_type_id":"4","last_reported":1728292251,"current_range_meters":20400,"station_id":"cpo36qri1sfpv3e86is0","pricing_plan_id":"cebpf4jnsgd1na2vs0mg"},{"bike_id":"68e7fb09-d99f-46a0-9dc4-bd616ae559ff","system_id":"levelo_inurba_marseille","lat":43.31348,"lon":5.36708,"is_reserved":false,"is_disabled":false,"rental_uris":{"android":"levelo://app?vid=68e7fb09-d99f-46a0-9dc4-bd616ae559ff","ios":"levelo://app?vid=68e7fb09-d99f-46a0-9dc4-bd616ae559ff"},"vehicle_type_id":"4","last_reported":1728292251,"current_range_meters":16400,"station_id":"ce4bgr92rcd13ifvqc6g","pricing_plan_id":"cebpf4jnsgd1na2vs0mg"},{"bike_id":"f59a34ef-affd-4876-9736-e71a1bdc3c72","system_id":"levelo_inurba_marseille","lat":43.2749,"lon":5.42452,"is_reserved":false,"is_disabled":false,"rental_uris":{"android":"levelo://app?vid=f59a34ef-affd-4876-9736-e71a1bdc3c72","ios":"levelo://app?vid=f59a34ef-affd-4876-9736-e71a1bdc3c72"},"vehicle_type_id":"4","last_reported":1728292251,"current_range_meters":25600,"station_id":"ce4bhn92rcd13ifvqgrg","pricing_plan_id":"cebpf4jnsgd1na2vs0mg"},{"bike_id":"1b45dc4c-ccfa-4feb-be0d-63b789dd6eb3","system_id":"levelo_inurba_marseille","lat":43.29613,"lon":5.38105,"is_reserved":false,"is_disabled":false,"rental_uris":{"android":"levelo://app?vid=1b45dc4c-ccfa-4feb-be0d-63b789dd6eb3","ios":"levelo://app?vid=1b45dc4c-ccfa-4feb-be0d-63b789dd6eb3"},"vehicle_type_id":"4","last_reported":1728292251,"current_range_meters":36800,"station_id":"ce4bgl12rcd13ifvqbo0","pricing_plan_id":"cebpf4jnsgd1na2vs0mg"},{"bike_id":"0d8c132e-6028-490d-b78f-9ee244fd1c97","system_id":"levelo_inurba_marseille","lat":43.25501,"lon":5.37648,"is_reserved":false,"is_disabled":false,"rental_uris":{"android":"levelo://app?vid=0d8c132e-6028-490d-b78f-9ee244fd1c97","ios":"levelo://app?vid=0d8c132e-6028-490d-b78f-9ee244fd1c97"},"vehicle_type_id":"4","last_reported":1728292251,"current_range_meters":38800,"station_id":"ce4bhh12rcd13ifvqff0","pricing_plan_id":"cebpf4jnsgd1na2vs0mg"},{"bike_id":"e8866f89-0b50-4171-8f17-ff8cb3d22a9a","system_id":"levelo_inurba_marseille","lat":43.32479,"lon":5.36567,"is_reserved":false,"is_disabled":false,"rental_uris":{"android":"levelo://app?vid=e8866f89-0b50-4171-8f17-ff8cb3d22a9a","ios":"levelo://app?vid=e8866f89-0b50-4171-8f17-ff8cb3d22a9a"},"vehicle_type_id":"4","last_reported":1728292251,"current_range_meters":10000,"station_id":"ce4bhs12rcd13ifvqhvg","pricing_plan_id":"cebpf4jnsgd1na2vs0mg"},{"bike_id":"85a8b07e-682b-4725-800e-b0749654fba5","system_id":"levelo_inurba_marseille","lat":43.24168,"lon":5.36393,"is_reserved":false,"is_disabled":false,"rental_uris":{"android":"levelo://app?vid=85a8b07e-682b-4725-800e-b0749654fba5","ios":"levelo://app?vid=85a8b07e-682b-4725-800e-b0749654fba5"},"vehicle_type_id":"4","last_reported":1728292251,"current_range_meters":24800,"station_id":"cpo36qri1sfpv3e86is0","pricing_plan_id":"cebpf4jnsgd1na2vs0mg"},{"bike_id":"742b0a39-2ee6-4a7f-970b-979e89ae43ed","system_id":"levelo_inurba_marseille","lat":43.30909,"lon":5.37435,"is_reserved":false,"is_disabled":false,"rental_uris":{"android":"levelo://app?vid=742b0a39-2ee6-4a7f-970b-979e89ae43ed","ios":"levelo://app?vid=742b0a39-2ee6-4a7f-970b-979e89ae43ed"},"vehicle_type_id":"4","last_reported":1728292251,"current_range_meters":17600,"station_id":"","pricing_plan_id":"cebpf4jnsgd1na2vs0mg"},{"bike_id":"fc5a041b-490c-4366-9385-b73e34125d24","system_id":"levelo_inurba_marseille","lat":43.29571,"lon":5.37501,"is_reserved":false,"is_disabled":false,"rental_uris":{"android":"levelo://app?vid=fc5a041b-490c-4366-9385-b73e34125d24","ios":"levelo://app?vid=fc5a041b-490c-4366-9385-b73e34125d24"},"vehicle_type_id":"4","last_reported":1728292251,"current_range_meters":38400,"station_id":"","pricing_plan_id":"cebpf4jnsgd1na2vs0mg"},{"bike_id":"47cf5dd1-85eb-40dc-9cda-ce6305623b64","system_id":"levelo_inurba_marseille","lat":43.29883,"lon":5.38907,"is_reserved":false,"is_disabled":false,"rental_uris":{"android":"levelo://app?vid=47cf5dd1-85eb-40dc-9cda-ce6305623b64","ios":"levelo://app?vid=47cf5dd1-85eb-40dc-9cda-ce6305623b64"},"vehicle_type_id":"4","last_reported":1728292251,"current_range_meters":16000,"station_id":"ce4bh392rcd13ifvqdl0","pricing_plan_id":"cebpf4jnsgd1na2vs0mg"},{"bike_id":"05ddab4b-2219-453e-b9f6-9211ae63c830","system_id":"levelo_inurba_marseille","lat":43.24169,"lon":5.36407,"is_reserved":false,"is_disabled":false,"rental_uris":{"android":"levelo://app?vid=05ddab4b-2219-453e-b9f6-9211ae63c830","ios":"levelo://app?vid=05ddab4b-2219-453e-b9f6-9211ae63c830"},"vehicle_type_id":"4","last_reported":1728292251,"current_range_meters":28400,"station_id":"cpo36qri1sfpv3e86is0","pricing_plan_id":"cebpf4jnsgd1na2vs0mg"},{"bike_id":"65a85b86-a044-4fd3-af85-f49b2f24441a","system_id":"levelo_inurba_marseille","lat":43.30335,"lon":5.368927,"is_reserved":false,"is_disabled":false,"rental_uris":{"android":"levelo://app?vid=65a85b86-a044-4fd3-af85-f49b2f24441a","ios":"levelo://app?vid=65a85b86-a044-4fd3-af85-f49b2f24441a"},"vehicle_type_id":"4","last_reported":1728292251,"current_range_meters":37600,"station_id":"ce4bgqh2rcd13ifvqc5g","pricing_plan_id":"cebpf4jnsgd1na2vs0mg"},{"bike_id":"dc65ae6a-63bb-4c0b-950e-0b17d88349f0","system_id":"levelo_inurba_marseille","lat":43.27809,"lon":5.40708,"is_reserved":false,"is_disabled":false,"rental_uris":{"android":"levelo://app?vid=dc65ae6a-63bb-4c0b-950e-0b17d88349f0","ios":"levelo://app?vid=dc65ae6a-63bb-4c0b-950e-0b17d88349f0"},"vehicle_type_id":"4","last_reported":1728292251,"current_range_meters":27600,"station_id":"ce4bhnh2rcd13ifvqgtg","pricing_plan_id":"cebpf4jnsgd1na2vs0mg"},{"bike_id":"cd35eee6-03f0-48eb-87d3-b95e88b2c311","system_id":"levelo_inurba_marseille","lat":43.23148,"lon":5.43715,"is_reserved":false,"is_disabled":false,"rental_uris":{"android":"levelo://app?vid=cd35eee6-03f0-48eb-87d3-b95e88b2c311","ios":"levelo://app?vid=cd35eee6-03f0-48eb-87d3-b95e88b2c311"},"vehicle_type_id":"4","last_reported":1728292251,"current_range_meters":38800,"station_id":"ce4bhmp2rcd13ifvqgog","pricing_plan_id":"cebpf4jnsgd1na2vs0mg"},{"bike_id":"d0ca1193-12e8-4ac2-9a60-4ae6e0040151","system_id":"levelo_inurba_marseille","lat":43.22926,"lon":5.35371,"is_reserved":false,"is_disabled":false,"rental_uris":{"android":"levelo://app?vid=d0ca1193-12e8-4ac2-9a60-4ae6e0040151","ios":"levelo://app?vid=d0ca1193-12e8-4ac2-9a60-4ae6e0040151"},"vehicle_type_id":"4","last_reported":1728292251,"current_range_meters":24400,"station_id":"cpo3532slgdg3j2ikp40","pricing_plan_id":"cebpf4jnsgd1na2vs0mg"},{"bike_id":"2557af00-c03e-42bb-8bb5-4007fd210a1c","system_id":"levelo_inurba_marseille","lat":43.23152,"lon":5.43701,"is_reserved":false,"is_disabled":false,"rental_uris":{"android":"levelo://app?vid=2557af00-c03e-42bb-8bb5-4007fd210a1c","ios":"levelo://app?vid=2557af00-c03e-42bb-8bb5-4007fd210a1c"},"vehicle_type_id":"4","last_reported":1728292251,"current_range_meters":12400,"station_id":"ce4bhmp2rcd13ifvqgog","pricing_plan_id":"cebpf4jnsgd1na2vs0mg"},{"bike_id":"000e9510-d2f6-45de-a4ee-4b2733684efb","system_id":"levelo_inurba_marseille","lat":43.30153,"lon":5.38081,"is_reserved":false,"is_disabled":false,"rental_uris":{"android":"levelo://app?vid=000e9510-d2f6-45de-a4ee-4b2733684efb","ios":"levelo://app?vid=000e9510-d2f6-45de-a4ee-4b2733684efb"},"vehicle_type_id":"4","last_reported":1728292251,"current_range_meters":4000,"station_id":"ce4bgjp2rcd13ifvqbh0","pricing_plan_id":"cebpf4jnsgd1na2vs0mg"},{"bike_id":"7f064da0-8157-4c96-a4e6-591399a3c69d","system_id":"levelo_inurba_marseille","lat":43.25574,"lon":5.3823,"is_reserved":false,"is_disabled":false,"rental_uris":{"android":"levelo://app?vid=7f064da0-8157-4c96-a4e6-591399a3c69d","ios":"levelo://app?vid=7f064da0-8157-4c96-a4e6-591399a3c69d"},"vehicle_type_id":"4","last_reported":1728292251,"current_range_meters":28000,"station_id":"ce4bhih2rcd13ifvqfs0","pricing_plan_id":"cebpf4jnsgd1na2vs0mg"},{"bike_id":"7d902036-f605-451d-b851-af3d9644846b","system_id":"levelo_inurba_marseille","lat":43.2316,"lon":5.43709,"is_reserved":false,"is_disabled":false,"rental_uris":{"android":"levelo://app?vid=7d902036-f605-451d-b851-af3d9644846b","ios":"levelo://app?vid=7d902036-f605-451d-b851-af3d9644846b"},"vehicle_type_id":"4","last_reported":1728292251,"current_range_meters":17600,"station_id":"ce4bhmp2rcd13ifvqgog","pricing_plan_id":"cebpf4jnsgd1na2vs0mg"},{"bike_id":"d8bc2066-a7d9-41d7-b5ad-d46901326b60","system_id":"levelo_inurba_marseille","lat":43.31366,"lon":5.3669,"is_reserved":false,"is_disabled":false,"rental_uris":{"android":"levelo://app?vid=d8bc2066-a7d9-41d7-b5ad-d46901326b60","ios":"levelo://app?vid=d8bc2066-a7d9-41d7-b5ad-d46901326b60"},"vehicle_type_id":"4","last_reported":1728292251,"current_range_meters":22000,"station_id":"ce4bgr92rcd13ifvqc6g","pricing_plan_id":"cebpf4jnsgd1na2vs0mg"},{"bike_id":"5fd97b48-8eeb-44e8-bc7a-e8fa9d0cf5b6","system_id":"levelo_inurba_marseille","lat":43.307254,"lon":5.397124,"is_reserved":false,"is_disabled":false,"rental_uris":{"android":"levelo://app?vid=5fd97b48-8eeb-44e8-bc7a-e8fa9d0cf5b6","ios":"levelo://app?vid=5fd97b48-8eeb-44e8-bc7a-e8fa9d0cf5b6"},"vehicle_type_id":"4","last_reported":1728292251,"current_range_meters":9600,"station_id":"","pricing_plan_id":"cebpf4jnsgd1na2vs0mg"},{"bike_id":"c8a9b141-db7b-47d0-9367-e8aeade551b5","system_id":"levelo_inurba_marseille","lat":43.25816,"lon":5.39429,"is_reserved":false,"is_disabled":false,"rental_uris":{"android":"levelo://app?vid=c8a9b141-db7b-47d0-9367-e8aeade551b5","ios":"levelo://app?vid=c8a9b141-db7b-47d0-9367-e8aeade551b5"},"vehicle_type_id":"4","last_reported":1728292251,"current_range_meters":25600,"station_id":"ce4bhip2rcd13ifvqft0","pricing_plan_id":"cebpf4jnsgd1na2vs0mg"},{"bike_id":"38f238e3-faac-4b85-9e0e-8d5557d9a402","system_id":"levelo_inurba_marseille","lat":43.30281,"lon":5.37699,"is_reserved":false,"is_disabled":false,"rental_uris":{"android":"levelo://app?vid=38f238e3-faac-4b85-9e0e-8d5557d9a402","ios":"levelo://app?vid=38f238e3-faac-4b85-9e0e-8d5557d9a402"},"vehicle_type_id":"4","last_reported":1728292251,"current_range_meters":29600,"station_id":"ce4bguh2rcd13ifvqcj0","pricing_plan_id":"cebpf4jnsgd1na2vs0mg"},{"bike_id":"a06b43b7-061b-4408-b939-29b585c3f9a7","system_id":"levelo_inurba_marseille","lat":43.28151,"lon":5.42636,"is_reserved":false,"is_disabled":false,"rental_uris":{"android":"levelo://app?vid=a06b43b7-061b-4408-b939-29b585c3f9a7","ios":"levelo://app?vid=a06b43b7-061b-4408-b939-29b585c3f9a7"},"vehicle_type_id":"4","last_reported":1728292251,"current_range_meters":17200,"station_id":"ce4bhnh2rcd13ifvqgug","pricing_plan_id":"cebpf4jnsgd1na2vs0mg"},{"bike_id":"5186f811-2fbf-41f6-bfb7-9de586c39049","system_id":"levelo_inurba_marseille","lat":43.3095,"lon":5.39033,"is_reserved":false,"is_disabled":false,"rental_uris":{"android":"levelo://app?vid=5186f811-2fbf-41f6-bfb7-9de586c39049","ios":"levelo://app?vid=5186f811-2fbf-41f6-bfb7-9de586c39049"},"vehicle_type_id":"4","last_reported":1728292251,"current_range_meters":38800,"station_id":"ce4bgup2rcd13ifvqco0","pricing_plan_id":"cebpf4jnsgd1na2vs0mg"},{"bike_id":"e8f38f77-6572-42be-9296-0cbe6e7cb972","system_id":"levelo_inurba_marseille","lat":43.23054,"lon":5.35492,"is_reserved":false,"is_disabled":false,"rental_uris":{"android":"levelo://app?vid=e8f38f77-6572-42be-9296-0cbe6e7cb972","ios":"levelo://app?vid=e8f38f77-6572-42be-9296-0cbe6e7cb972"},"vehicle_type_id":"4","last_reported":1728292251,"current_range_meters":36800,"station_id":"cpo3342slgdg3j2ifvpg","pricing_plan_id":"cebpf4jnsgd1na2vs0mg"},{"bike_id":"8b6b1811-b85b-4bff-865a-a8bf88042468","system_id":"levelo_inurba_marseille","lat":43.30886,"lon":5.37188,"is_reserved":false,"is_disabled":false,"rental_uris":{"android":"levelo://app?vid=8b6b1811-b85b-4bff-865a-a8bf88042468","ios":"levelo://app?vid=8b6b1811-b85b-4bff-865a-a8bf88042468"},"vehicle_type_id":"4","last_reported":1728292251,"current_range_meters":38400,"station_id":"ce4bguh2rcd13ifvqckg","pricing_plan_id":"cebpf4jnsgd1na2vs0mg"},{"bike_id":"732be8ee-fe88-42f0-a13a-af31850d4259","system_id":"levelo_inurba_marseille","lat":43.29409,"lon":5.38624,"is_reserved":false,"is_disabled":false,"rental_uris":{"android":"levelo://app?vid=732be8ee-fe88-42f0-a13a-af31850d4259","ios":"levelo://app?vid=732be8ee-fe88-42f0-a13a-af31850d4259"},"vehicle_type_id":"4","last_reported":1728292251,"current_range_meters":14800,"station_id":"ce4bh2h2rcd13ifvqdh0","pricing_plan_id":"cebpf4jnsgd1na2vs0mg"},{"bike_id":"081fbb8e-54fc-4dd0-8205-f26bfd34c2ca","system_id":"levelo_inurba_marseille","lat":43.29005,"lon":5.35615,"is_reserved":false,"is_disabled":false,"rental_uris":{"android":"levelo://app?vid=081fbb8e-54fc-4dd0-8205-f26bfd34c2ca","ios":"levelo://app?vid=081fbb8e-54fc-4dd0-8205-f26bfd34c2ca"},"vehicle_type_id":"4","last_reported":1728292251,"current_range_meters":39200,"station_id":"ce4bhb92rcd13ifvqen0","pricing_plan_id":"cebpf4jnsgd1na2vs0mg"},{"bike_id":"13b89fc7-77af-494e-bb56-c35cbaacba23","system_id":"levelo_inurba_marseille","lat":43.3054,"lon":5.36724,"is_reserved":false,"is_disabled":false,"rental_uris":{"android":"levelo://app?vid=13b89fc7-77af-494e-bb56-c35cbaacba23","ios":"levelo://app?vid=13b89fc7-77af-494e-bb56-c35cbaacba23"},"vehicle_type_id":"4","last_reported":1728292251,"current_range_meters":16400,"station_id":"ce4bgrp2rcd13ifvqc9g","pricing_plan_id":"cebpf4jnsgd1na2vs0mg"},{"bike_id":"b3576681-ace2-4183-b12d-e87c0c5a344d","system_id":"levelo_inurba_marseille","lat":43.25499,"lon":5.37646,"is_reserved":false,"is_disabled":false,"rental_uris":{"android":"levelo://app?vid=b3576681-ace2-4183-b12d-e87c0c5a344d","ios":"levelo://app?vid=b3576681-ace2-4183-b12d-e87c0c5a344d"},"vehicle_type_id":"4","last_reported":1728292251,"current_range_meters":36400,"station_id":"ce4bhh12rcd13ifvqff0","pricing_plan_id":"cebpf4jnsgd1na2vs0mg"},{"bike_id":"f728ea68-5d9e-4ef4-a72d-5aeb9f227bf5","system_id":"levelo_inurba_marseille","lat":43.28155,"lon":5.42641,"is_reserved":false,"is_disabled":false,"rental_uris":{"android":"levelo://app?vid=f728ea68-5d9e-4ef4-a72d-5aeb9f227bf5","ios":"levelo://app?vid=f728ea68-5d9e-4ef4-a72d-5aeb9f227bf5"},"vehicle_type_id":"4","last_reported":1728292251,"current_range_meters":10000,"station_id":"ce4bhnh2rcd13ifvqgug","pricing_plan_id":"cebpf4jnsgd1na2vs0mg"},{"bike_id":"1dad735d-481e-47ff-8bf7-942577eed167","system_id":"levelo_inurba_marseille","lat":43.23151,"lon":5.43706,"is_reserved":false,"is_disabled":false,"rental_uris":{"android":"levelo://app?vid=1dad735d-481e-47ff-8bf7-942577eed167","ios":"levelo://app?vid=1dad735d-481e-47ff-8bf7-942577eed167"},"vehicle_type_id":"4","last_reported":1728292251,"current_range_meters":20400,"station_id":"ce4bhmp2rcd13ifvqgog","pricing_plan_id":"cebpf4jnsgd1na2vs0mg"},{"bike_id":"c91f7103-63c0-4e88-ad9d-c5194f82620f","system_id":"levelo_inurba_marseille","lat":43.28427,"lon":5.4108,"is_reserved":false,"is_disabled":false,"rental_uris":{"android":"levelo://app?vid=c91f7103-63c0-4e88-ad9d-c5194f82620f","ios":"levelo://app?vid=c91f7103-63c0-4e88-ad9d-c5194f82620f"},"vehicle_type_id":"4","last_reported":1728292251,"current_range_meters":37600,"station_id":"","pricing_plan_id":"cebpf4jnsgd1na2vs0mg"},{"bike_id":"490889b1-cee9-4892-9db5-299333956c90","system_id":"levelo_inurba_marseille","lat":43.34143,"lon":5.40898,"is_reserved":false,"is_disabled":false,"rental_uris":{"android":"levelo://app?vid=490889b1-cee9-4892-9db5-299333956c90","ios":"levelo://app?vid=490889b1-cee9-4892-9db5-299333956c90"},"vehicle_type_id":"4","last_reported":1728292251,"current_range_meters":38800,"station_id":"ce4bhqh2rcd13ifvqhlg","pricing_plan_id":"cebpf4jnsgd1na2vs0mg"},{"bike_id":"931a1d8e-4090-4299-b271-43413a8cf3bf","system_id":"levelo_inurba_marseille","lat":43.30527,"lon":5.36699,"is_reserved":false,"is_disabled":false,"rental_uris":{"android":"levelo://app?vid=931a1d8e-4090-4299-b271-43413a8cf3bf","ios":"levelo://app?vid=931a1d8e-4090-4299-b271-43413a8cf3bf"},"vehicle_type_id":"4","last_reported":1728292251,"current_range_meters":38800,"station_id":"ce4bgrp2rcd13ifvqc9g","pricing_plan_id":"cebpf4jnsgd1na2vs0mg"},{"bike_id":"ea30e775-8466-430d-96e1-a121d270f1bd","system_id":"levelo_inurba_marseille","lat":43.24642,"lon":5.38888,"is_reserved":false,"is_disabled":false,"rental_uris":{"android":"levelo://app?vid=ea30e775-8466-430d-96e1-a121d270f1bd","ios":"levelo://app?vid=ea30e775-8466-430d-96e1-a121d270f1bd"},"vehicle_type_id":"4","last_reported":1728292251,"current_range_meters":37600,"station_id":"ce4bhg12rcd13ifvqf60","pricing_plan_id":"cebpf4jnsgd1na2vs0mg"},{"bike_id":"2f0c5886-a366-46c7-9168-c237529cf6ca","system_id":"levelo_inurba_marseille","lat":43.289551,"lon":5.387124,"is_reserved":false,"is_disabled":false,"rental_uris":{"android":"levelo://app?vid=2f0c5886-a366-46c7-9168-c237529cf6ca","ios":"levelo://app?vid=2f0c5886-a366-46c7-9168-c237529cf6ca"},"vehicle_type_id":"4","last_reported":1728292251,"current_range_meters":20000,"station_id":"","pricing_plan_id":"cebpf4jnsgd1na2vs0mg"},{"bike_id":"4378a0dd-7ddd-4246-9294-1e2af02e0700","system_id":"levelo_inurba_marseille","lat":43.23192,"lon":5.35545,"is_reserved":false,"is_disabled":false,"rental_uris":{"android":"levelo://app?vid=4378a0dd-7ddd-4246-9294-1e2af02e0700","ios":"levelo://app?vid=4378a0dd-7ddd-4246-9294-1e2af02e0700"},"vehicle_type_id":"4","last_reported":1728292251,"current_range_meters":6400,"station_id":"ce4bhu92rcd13ifvqi70","pricing_plan_id":"cebpf4jnsgd1na2vs0mg"},{"bike_id":"11c38f25-728a-4ba9-b492-cd81a7e21762","system_id":"levelo_inurba_marseille","lat":43.251,"lon":5.40325,"is_reserved":false,"is_disabled":false,"rental_uris":{"android":"levelo://app?vid=11c38f25-728a-4ba9-b492-cd81a7e21762","ios":"levelo://app?vid=11c38f25-728a-4ba9-b492-cd81a7e21762"},"vehicle_type_id":"4","last_reported":1728292251,"current_range_meters":18000,"station_id":"ce4bhlh2rcd13ifvqgig","pricing_plan_id":"cebpf4jnsgd1na2vs0mg"},{"bike_id":"594a551f-028c-4b5b-8770-f76d6722f290","system_id":"levelo_inurba_marseille","lat":43.33607,"lon":5.41036,"is_reserved":false,"is_disabled":false,"rental_uris":{"android":"levelo://app?vid=594a551f-028c-4b5b-8770-f76d6722f290","ios":"levelo://app?vid=594a551f-028c-4b5b-8770-f76d6722f290"},"vehicle_type_id":"4","last_reported":1728292251,"current_range_meters":8400,"station_id":"ce4bhqh2rcd13ifvqhmg","pricing_plan_id":"cebpf4jnsgd1na2vs0mg"},{"bike_id":"1fbb66fa-7e57-4df8-9848-092ef367157f","system_id":"levelo_inurba_marseille","lat":43.25932,"lon":5.40901,"is_reserved":false,"is_disabled":false,"rental_uris":{"android":"levelo://app?vid=1fbb66fa-7e57-4df8-9848-092ef367157f","ios":"levelo://app?vid=1fbb66fa-7e57-4df8-9848-092ef367157f"},"vehicle_type_id":"4","last_reported":1728292251,"current_range_meters":19600,"station_id":"ce4bhm92rcd13ifvqglg","pricing_plan_id":"cebpf4jnsgd1na2vs0mg"},{"bike_id":"785c014f-55f4-4665-b780-c97578cef27c","system_id":"levelo_inurba_marseille","lat":43.30908,"lon":5.3685,"is_reserved":false,"is_disabled":false,"rental_uris":{"android":"levelo://app?vid=785c014f-55f4-4665-b780-c97578cef27c","ios":"levelo://app?vid=785c014f-55f4-4665-b780-c97578cef27c"},"vehicle_type_id":"4","last_reported":1728292251,"current_range_meters":7200,"station_id":"ce4bgn92rcd13ifvqbvg","pricing_plan_id":"cebpf4jnsgd1na2vs0mg"},{"bike_id":"42d15a18-60a2-4a83-b713-12e79302f026","system_id":"levelo_inurba_marseille","lat":43.25817,"lon":5.3943,"is_reserved":false,"is_disabled":false,"rental_uris":{"android":"levelo://app?vid=42d15a18-60a2-4a83-b713-12e79302f026","ios":"levelo://app?vid=42d15a18-60a2-4a83-b713-12e79302f026"},"vehicle_type_id":"4","last_reported":1728292251,"current_range_meters":38800,"station_id":"ce4bhip2rcd13ifvqft0","pricing_plan_id":"cebpf4jnsgd1na2vs0mg"},{"bike_id":"e68d221a-42b6-44a7-a4d9-d20a6c628b49","system_id":"levelo_inurba_marseille","lat":43.24082,"lon":5.37747,"is_reserved":false,"is_disabled":false,"rental_uris":{"android":"levelo://app?vid=e68d221a-42b6-44a7-a4d9-d20a6c628b49","ios":"levelo://app?vid=e68d221a-42b6-44a7-a4d9-d20a6c628b49"},"vehicle_type_id":"4","last_reported":1728292251,"current_range_meters":30800,"station_id":"ce4bhnp2rcd13ifvqgvg","pricing_plan_id":"cebpf4jnsgd1na2vs0mg"},{"bike_id":"93d45870-2e1c-4ed1-9664-7b219a4ed443","system_id":"levelo_inurba_marseille","lat":43.22931,"lon":5.35382,"is_reserved":false,"is_disabled":false,"rental_uris":{"android":"levelo://app?vid=93d45870-2e1c-4ed1-9664-7b219a4ed443","ios":"levelo://app?vid=93d45870-2e1c-4ed1-9664-7b219a4ed443"},"vehicle_type_id":"4","last_reported":1728292251,"current_range_meters":36800,"station_id":"cpo3532slgdg3j2ikp40","pricing_plan_id":"cebpf4jnsgd1na2vs0mg"},{"bike_id":"a5e8f575-8d4f-4087-ba11-18a9bc791d8e","system_id":"levelo_inurba_marseille","lat":43.26198,"lon":5.3793,"is_reserved":false,"is_disabled":false,"rental_uris":{"android":"levelo://app?vid=a5e8f575-8d4f-4087-ba11-18a9bc791d8e","ios":"levelo://app?vid=a5e8f575-8d4f-4087-ba11-18a9bc791d8e"},"vehicle_type_id":"4","last_reported":1728292251,"current_range_meters":14000,"station_id":"ce4bhjp2rcd13ifvqg90","pricing_plan_id":"cebpf4jnsgd1na2vs0mg"},{"bike_id":"cb9d944b-952c-4679-be1a-b003fbec17f7","system_id":"levelo_inurba_marseille","lat":43.3009,"lon":5.39073,"is_reserved":false,"is_disabled":false,"rental_uris":{"android":"levelo://app?vid=cb9d944b-952c-4679-be1a-b003fbec17f7","ios":"levelo://app?vid=cb9d944b-952c-4679-be1a-b003fbec17f7"},"vehicle_type_id":"4","last_reported":1728292251,"current_range_meters":38800,"station_id":"ce4bh192rcd13ifvqdb0","pricing_plan_id":"cebpf4jnsgd1na2vs0mg"},{"bike_id":"01ac759e-47fe-4b00-8ba2-c5ffd797d353","system_id":"levelo_inurba_marseille","lat":43.28941,"lon":5.36407,"is_reserved":false,"is_disabled":false,"rental_uris":{"android":"levelo://app?vid=01ac759e-47fe-4b00-8ba2-c5ffd797d353","ios":"levelo://app?vid=01ac759e-47fe-4b00-8ba2-c5ffd797d353"},"vehicle_type_id":"4","last_reported":1728292251,"current_range_meters":38800,"station_id":"ce4bhc92rcd13ifvqetg","pricing_plan_id":"cebpf4jnsgd1na2vs0mg"},{"bike_id":"6e512044-ef12-457b-bcca-26bd86c5618a","system_id":"levelo_inurba_marseille","lat":43.23053,"lon":5.35494,"is_reserved":false,"is_disabled":false,"rental_uris":{"android":"levelo://app?vid=6e512044-ef12-457b-bcca-26bd86c5618a","ios":"levelo://app?vid=6e512044-ef12-457b-bcca-26bd86c5618a"},"vehicle_type_id":"4","last_reported":1728292251,"current_range_meters":37600,"station_id":"cpo3342slgdg3j2ifvpg","pricing_plan_id":"cebpf4jnsgd1na2vs0mg"},{"bike_id":"fe5dcab0-0dab-4e81-9dc6-41b25a1747fa","system_id":"levelo_inurba_marseille","lat":43.31351,"lon":5.36701,"is_reserved":false,"is_disabled":false,"rental_uris":{"android":"levelo://app?vid=fe5dcab0-0dab-4e81-9dc6-41b25a1747fa","ios":"levelo://app?vid=fe5dcab0-0dab-4e81-9dc6-41b25a1747fa"},"vehicle_type_id":"4","last_reported":1728292251,"current_range_meters":24800,"station_id":"ce4bgr92rcd13ifvqc6g","pricing_plan_id":"cebpf4jnsgd1na2vs0mg"},{"bike_id":"822c455f-3744-4fc2-b238-838d906f5802","system_id":"levelo_inurba_marseille","lat":43.294495,"lon":5.378984,"is_reserved":false,"is_disabled":false,"rental_uris":{"android":"levelo://app?vid=822c455f-3744-4fc2-b238-838d906f5802","ios":"levelo://app?vid=822c455f-3744-4fc2-b238-838d906f5802"},"vehicle_type_id":"4","last_reported":1728292251,"current_range_meters":10800,"station_id":"","pricing_plan_id":"cebpf4jnsgd1na2vs0mg"},{"bike_id":"35a78822-1c4e-4139-9be0-ed7dd76a0786","system_id":"levelo_inurba_marseille","lat":43.25858,"lon":5.39901,"is_reserved":false,"is_disabled":false,"rental_uris":{"android":"levelo://app?vid=35a78822-1c4e-4139-9be0-ed7dd76a0786","ios":"levelo://app?vid=35a78822-1c4e-4139-9be0-ed7dd76a0786"},"vehicle_type_id":"4","last_reported":1728292251,"current_range_meters":38400,"station_id":"ce4bhl92rcd13ifvqghg","pricing_plan_id":"cebpf4jnsgd1na2vs0mg"},{"bike_id":"270b90ca-7521-4165-af49-e1c727e5fa34","system_id":"levelo_inurba_marseille","lat":43.24165,"lon":5.36395,"is_reserved":false,"is_disabled":false,"rental_uris":{"android":"levelo://app?vid=270b90ca-7521-4165-af49-e1c727e5fa34","ios":"levelo://app?vid=270b90ca-7521-4165-af49-e1c727e5fa34"},"vehicle_type_id":"4","last_reported":1728292251,"current_range_meters":29600,"station_id":"cpo36qri1sfpv3e86is0","pricing_plan_id":"cebpf4jnsgd1na2vs0mg"},{"bike_id":"4996f5d1-529e-4afd-9b8e-6ad6732e4a45","system_id":"levelo_inurba_marseille","lat":43.28709,"lon":5.37942,"is_reserved":false,"is_disabled":false,"rental_uris":{"android":"levelo://app?vid=4996f5d1-529e-4afd-9b8e-6ad6732e4a45","ios":"levelo://app?vid=4996f5d1-529e-4afd-9b8e-6ad6732e4a45"},"vehicle_type_id":"4","last_reported":1728292251,"current_range_meters":18800,"station_id":"ce4bh9p2rcd13ifvqec0","pricing_plan_id":"cebpf4jnsgd1na2vs0mg"},{"bike_id":"090292ce-886c-4bdc-8a48-504af0fe7da2","system_id":"levelo_inurba_marseille","lat":43.30544,"lon":5.38424,"is_reserved":false,"is_disabled":false,"rental_uris":{"android":"levelo://app?vid=090292ce-886c-4bdc-8a48-504af0fe7da2","ios":"levelo://app?vid=090292ce-886c-4bdc-8a48-504af0fe7da2"},"vehicle_type_id":"4","last_reported":1728292251,"current_range_meters":6800,"station_id":"ce4bgg92rcd13ifvqb30","pricing_plan_id":"cebpf4jnsgd1na2vs0mg"},{"bike_id":"9a9a82ec-7cc8-4545-888a-5d37bbe19e65","system_id":"levelo_inurba_marseille","lat":43.29215,"lon":5.36053,"is_reserved":false,"is_disabled":false,"rental_uris":{"android":"levelo://app?vid=9a9a82ec-7cc8-4545-888a-5d37bbe19e65","ios":"levelo://app?vid=9a9a82ec-7cc8-4545-888a-5d37bbe19e65"},"vehicle_type_id":"4","last_reported":1728292251,"current_range_meters":34800,"station_id":"ce4bhbh2rcd13ifvqeqg","pricing_plan_id":"cebpf4jnsgd1na2vs0mg"},{"bike_id":"e7f6a304-c9ee-40b0-8515-0006b5d18f43","system_id":"levelo_inurba_marseille","lat":43.30135,"lon":5.37423,"is_reserved":false,"is_disabled":false,"rental_uris":{"android":"levelo://app?vid=e7f6a304-c9ee-40b0-8515-0006b5d18f43","ios":"levelo://app?vid=e7f6a304-c9ee-40b0-8515-0006b5d18f43"},"vehicle_type_id":"4","last_reported":1728292251,"current_range_meters":24000,"station_id":"ce4bgs92rcd13ifvqcc0","pricing_plan_id":"cebpf4jnsgd1na2vs0mg"},{"bike_id":"74d3464e-a929-4d8f-9816-e38b964f7774","system_id":"levelo_inurba_marseille","lat":43.27489,"lon":5.42455,"is_reserved":false,"is_disabled":false,"rental_uris":{"android":"levelo://app?vid=74d3464e-a929-4d8f-9816-e38b964f7774","ios":"levelo://app?vid=74d3464e-a929-4d8f-9816-e38b964f7774"},"vehicle_type_id":"4","last_reported":1728292251,"current_range_meters":32000,"station_id":"ce4bhn92rcd13ifvqgrg","pricing_plan_id":"cebpf4jnsgd1na2vs0mg"},{"bike_id":"50c04ab4-1984-4e8b-9cb1-3e4069557f02","system_id":"levelo_inurba_marseille","lat":43.29708,"lon":5.36614,"is_reserved":false,"is_disabled":false,"rental_uris":{"android":"levelo://app?vid=50c04ab4-1984-4e8b-9cb1-3e4069557f02","ios":"levelo://app?vid=50c04ab4-1984-4e8b-9cb1-3e4069557f02"},"vehicle_type_id":"4","last_reported":1728292251,"current_range_meters":38800,"station_id":"ce4bgn12rcd13ifvqbt0","pricing_plan_id":"cebpf4jnsgd1na2vs0mg"},{"bike_id":"71a7348c-c075-4626-90c9-7417a7722aa2","system_id":"levelo_inurba_marseille","lat":43.26933,"lon":5.40254,"is_reserved":false,"is_disabled":false,"rental_uris":{"android":"levelo://app?vid=71a7348c-c075-4626-90c9-7417a7722aa2","ios":"levelo://app?vid=71a7348c-c075-4626-90c9-7417a7722aa2"},"vehicle_type_id":"4","last_reported":1728292251,"current_range_meters":20000,"station_id":"cjm6bp8fraef2m0cb0m0","pricing_plan_id":"cebpf4jnsgd1na2vs0mg"},{"bike_id":"824e294a-c810-4688-b9ec-efc7382fd889","system_id":"levelo_inurba_marseille","lat":43.31085,"lon":5.42428,"is_reserved":false,"is_disabled":false,"rental_uris":{"android":"levelo://app?vid=824e294a-c810-4688-b9ec-efc7382fd889","ios":"levelo://app?vid=824e294a-c810-4688-b9ec-efc7382fd889"},"vehicle_type_id":"4","last_reported":1728292251,"current_range_meters":26000,"station_id":"ce4bhp92rcd13ifvqhag","pricing_plan_id":"cebpf4jnsgd1na2vs0mg"},{"bike_id":"2562b0f8-9d9a-4208-a790-c7ee72b26b31","system_id":"levelo_inurba_marseille","lat":43.28973,"lon":5.37835,"is_reserved":false,"is_disabled":false,"rental_uris":{"android":"levelo://app?vid=2562b0f8-9d9a-4208-a790-c7ee72b26b31","ios":"levelo://app?vid=2562b0f8-9d9a-4208-a790-c7ee72b26b31"},"vehicle_type_id":"4","last_reported":1728292251,"current_range_meters":17600,"station_id":"ce4bh9p2rcd13ifvqed0","pricing_plan_id":"cebpf4jnsgd1na2vs0mg"},{"bike_id":"0c3bde8a-4dbd-4687-bff8-297725512d2a","system_id":"levelo_inurba_marseille","lat":43.324249,"lon":5.41148,"is_reserved":false,"is_disabled":false,"rental_uris":{"android":"levelo://app?vid=0c3bde8a-4dbd-4687-bff8-297725512d2a","ios":"levelo://app?vid=0c3bde8a-4dbd-4687-bff8-297725512d2a"},"vehicle_type_id":"4","last_reported":1728292251,"current_range_meters":33600,"station_id":"ce4bhpp2rcd13ifvqhgg","pricing_plan_id":"cebpf4jnsgd1na2vs0mg"},{"bike_id":"85081b74-3c48-4b75-b6b6-b181683e784a","system_id":"levelo_inurba_marseille","lat":43.25723,"lon":5.41114,"is_reserved":false,"is_disabled":false,"rental_uris":{"android":"levelo://app?vid=85081b74-3c48-4b75-b6b6-b181683e784a","ios":"levelo://app?vid=85081b74-3c48-4b75-b6b6-b181683e784a"},"vehicle_type_id":"4","last_reported":1728292251,"current_range_meters":35600,"station_id":"ce4bhkp2rcd13ifvqgd0","pricing_plan_id":"cebpf4jnsgd1na2vs0mg"},{"bike_id":"ca150432-5632-417f-a220-d6e10e3598a2","system_id":"levelo_inurba_marseille","lat":43.29895,"lon":5.43656,"is_reserved":false,"is_disabled":false,"rental_uris":{"android":"levelo://app?vid=ca150432-5632-417f-a220-d6e10e3598a2","ios":"levelo://app?vid=ca150432-5632-417f-a220-d6e10e3598a2"},"vehicle_type_id":"4","last_reported":1728292251,"current_range_meters":38800,"station_id":"ce4bhpp2rcd13ifvqhfg","pricing_plan_id":"cebpf4jnsgd1na2vs0mg"},{"bike_id":"e209dd5c-0d10-4561-adda-dad860e62fd5","system_id":"levelo_inurba_marseille","lat":43.30543,"lon":5.3671,"is_reserved":false,"is_disabled":false,"rental_uris":{"android":"levelo://app?vid=e209dd5c-0d10-4561-adda-dad860e62fd5","ios":"levelo://app?vid=e209dd5c-0d10-4561-adda-dad860e62fd5"},"vehicle_type_id":"4","last_reported":1728292251,"current_range_meters":38800,"station_id":"ce4bgrp2rcd13ifvqc9g","pricing_plan_id":"cebpf4jnsgd1na2vs0mg"},{"bike_id":"4f2880a7-aca1-4374-b45d-e286ea68aafa","system_id":"levelo_inurba_marseille","lat":43.30145,"lon":5.39869,"is_reserved":false,"is_disabled":false,"rental_uris":{"android":"levelo://app?vid=4f2880a7-aca1-4374-b45d-e286ea68aafa","ios":"levelo://app?vid=4f2880a7-aca1-4374-b45d-e286ea68aafa"},"vehicle_type_id":"4","last_reported":1728292251,"current_range_meters":38800,"station_id":"ce4bh0h2rcd13ifvqd40","pricing_plan_id":"cebpf4jnsgd1na2vs0mg"},{"bike_id":"7cba0374-be77-4d49-8476-e0da3cccc891","system_id":"levelo_inurba_marseille","lat":43.24168,"lon":5.36393,"is_reserved":false,"is_disabled":false,"rental_uris":{"android":"levelo://app?vid=7cba0374-be77-4d49-8476-e0da3cccc891","ios":"levelo://app?vid=7cba0374-be77-4d49-8476-e0da3cccc891"},"vehicle_type_id":"4","last_reported":1728292251,"current_range_meters":27600,"station_id":"cpo36qri1sfpv3e86is0","pricing_plan_id":"cebpf4jnsgd1na2vs0mg"},{"bike_id":"de7b61ce-9a77-48b8-b281-c8a3b04be6be","system_id":"levelo_inurba_marseille","lat":43.29636,"lon":5.37331,"is_reserved":false,"is_disabled":false,"rental_uris":{"android":"levelo://app?vid=de7b61ce-9a77-48b8-b281-c8a3b04be6be","ios":"levelo://app?vid=de7b61ce-9a77-48b8-b281-c8a3b04be6be"},"vehicle_type_id":"4","last_reported":1728292251,"current_range_meters":20000,"station_id":"","pricing_plan_id":"cebpf4jnsgd1na2vs0mg"},{"bike_id":"c2eafa11-ad6c-4f3b-b6e4-6e6fc5d9785c","system_id":"levelo_inurba_marseille","lat":43.29898,"lon":5.4366,"is_reserved":false,"is_disabled":false,"rental_uris":{"android":"levelo://app?vid=c2eafa11-ad6c-4f3b-b6e4-6e6fc5d9785c","ios":"levelo://app?vid=c2eafa11-ad6c-4f3b-b6e4-6e6fc5d9785c"},"vehicle_type_id":"4","last_reported":1728292251,"current_range_meters":38800,"station_id":"ce4bhpp2rcd13ifvqhfg","pricing_plan_id":"cebpf4jnsgd1na2vs0mg"},{"bike_id":"b0dfacd3-cb0a-4f11-98c2-f679c9ce3099","system_id":"levelo_inurba_marseille","lat":43.31358,"lon":5.36702,"is_reserved":false,"is_disabled":false,"rental_uris":{"android":"levelo://app?vid=b0dfacd3-cb0a-4f11-98c2-f679c9ce3099","ios":"levelo://app?vid=b0dfacd3-cb0a-4f11-98c2-f679c9ce3099"},"vehicle_type_id":"4","last_reported":1728292251,"current_range_meters":26800,"station_id":"ce4bgr92rcd13ifvqc6g","pricing_plan_id":"cebpf4jnsgd1na2vs0mg"},{"bike_id":"a25e47d8-0720-4df5-baa4-a99c9ba5e5da","system_id":"levelo_inurba_marseille","lat":43.32479,"lon":5.36567,"is_reserved":false,"is_disabled":false,"rental_uris":{"android":"levelo://app?vid=a25e47d8-0720-4df5-baa4-a99c9ba5e5da","ios":"levelo://app?vid=a25e47d8-0720-4df5-baa4-a99c9ba5e5da"},"vehicle_type_id":"4","last_reported":1728292251,"current_range_meters":26800,"station_id":"ce4bhs12rcd13ifvqhvg","pricing_plan_id":"cebpf4jnsgd1na2vs0mg"},{"bike_id":"d6a904eb-96a5-4bea-a586-e8aaeedf5f4c","system_id":"levelo_inurba_marseille","lat":43.25723,"lon":5.41111,"is_reserved":false,"is_disabled":false,"rental_uris":{"android":"levelo://app?vid=d6a904eb-96a5-4bea-a586-e8aaeedf5f4c","ios":"levelo://app?vid=d6a904eb-96a5-4bea-a586-e8aaeedf5f4c"},"vehicle_type_id":"4","last_reported":1728292251,"current_range_meters":36400,"station_id":"ce4bhkp2rcd13ifvqgd0","pricing_plan_id":"cebpf4jnsgd1na2vs0mg"},{"bike_id":"f6849e98-e59e-4bc2-8e5a-02bcbb272aa6","system_id":"levelo_inurba_marseille","lat":43.33747,"lon":5.3745,"is_reserved":false,"is_disabled":false,"rental_uris":{"android":"levelo://app?vid=f6849e98-e59e-4bc2-8e5a-02bcbb272aa6","ios":"levelo://app?vid=f6849e98-e59e-4bc2-8e5a-02bcbb272aa6"},"vehicle_type_id":"4","last_reported":1728292251,"current_range_meters":38800,"station_id":"","pricing_plan_id":"cebpf4jnsgd1na2vs0mg"},{"bike_id":"f7612392-4f4b-453b-a64c-499de3c2600f","system_id":"levelo_inurba_marseille","lat":43.24163,"lon":5.36391,"is_reserved":false,"is_disabled":false,"rental_uris":{"android":"levelo://app?vid=f7612392-4f4b-453b-a64c-499de3c2600f","ios":"levelo://app?vid=f7612392-4f4b-453b-a64c-499de3c2600f"},"vehicle_type_id":"4","last_reported":1728292251,"current_range_meters":36800,"station_id":"cpo36qri1sfpv3e86is0","pricing_plan_id":"cebpf4jnsgd1na2vs0mg"},{"bike_id":"b4da9d8b-9301-478c-9f01-3fa9f5b15d66","system_id":"levelo_inurba_marseille","lat":43.336007,"lon":5.410295,"is_reserved":false,"is_disabled":false,"rental_uris":{"android":"levelo://app?vid=b4da9d8b-9301-478c-9f01-3fa9f5b15d66","ios":"levelo://app?vid=b4da9d8b-9301-478c-9f01-3fa9f5b15d66"},"vehicle_type_id":"4","last_reported":1728292251,"current_range_meters":36400,"station_id":"ce4bhqh2rcd13ifvqhmg","pricing_plan_id":"cebpf4jnsgd1na2vs0mg"},{"bike_id":"1acc1cdb-3607-49f5-b4fe-c81d4211d176","system_id":"levelo_inurba_marseille","lat":43.31981,"lon":5.38136,"is_reserved":false,"is_disabled":false,"rental_uris":{"android":"levelo://app?vid=1acc1cdb-3607-49f5-b4fe-c81d4211d176","ios":"levelo://app?vid=1acc1cdb-3607-49f5-b4fe-c81d4211d176"},"vehicle_type_id":"4","last_reported":1728292251,"current_range_meters":37600,"station_id":"ce4bhr12rcd13ifvqhpg","pricing_plan_id":"cebpf4jnsgd1na2vs0mg"},{"bike_id":"b27a5aba-d6eb-4037-b715-3d6e7f9a73bd","system_id":"levelo_inurba_marseille","lat":43.29572,"lon":5.39962,"is_reserved":false,"is_disabled":false,"rental_uris":{"android":"levelo://app?vid=b27a5aba-d6eb-4037-b715-3d6e7f9a73bd","ios":"levelo://app?vid=b27a5aba-d6eb-4037-b715-3d6e7f9a73bd"},"vehicle_type_id":"4","last_reported":1728292251,"current_range_meters":10800,"station_id":"ce4bh312rcd13ifvqdj0","pricing_plan_id":"cebpf4jnsgd1na2vs0mg"},{"bike_id":"d564790b-0852-4675-98f3-130b2123dbf4","system_id":"levelo_inurba_marseille","lat":43.2558,"lon":5.38233,"is_reserved":false,"is_disabled":false,"rental_uris":{"android":"levelo://app?vid=d564790b-0852-4675-98f3-130b2123dbf4","ios":"levelo://app?vid=d564790b-0852-4675-98f3-130b2123dbf4"},"vehicle_type_id":"4","last_reported":1728292251,"current_range_meters":39200,"station_id":"ce4bhih2rcd13ifvqfs0","pricing_plan_id":"cebpf4jnsgd1na2vs0mg"},{"bike_id":"b19c065e-115c-4e09-aaf9-cb329323f3a3","system_id":"levelo_inurba_marseille","lat":43.31223,"lon":5.36858,"is_reserved":false,"is_disabled":false,"rental_uris":{"android":"levelo://app?vid=b19c065e-115c-4e09-aaf9-cb329323f3a3","ios":"levelo://app?vid=b19c065e-115c-4e09-aaf9-cb329323f3a3"},"vehicle_type_id":"4","last_reported":1728292251,"current_range_meters":38400,"station_id":"ce4bgl92rcd13ifvqbq0","pricing_plan_id":"cebpf4jnsgd1na2vs0mg"},{"bike_id":"acc4a158-79c4-46ea-892f-f92f49cbf36e","system_id":"levelo_inurba_marseille","lat":43.29847,"lon":5.36274,"is_reserved":false,"is_disabled":false,"rental_uris":{"android":"levelo://app?vid=acc4a158-79c4-46ea-892f-f92f49cbf36e","ios":"levelo://app?vid=acc4a158-79c4-46ea-892f-f92f49cbf36e"},"vehicle_type_id":"4","last_reported":1728292251,"current_range_meters":38800,"station_id":"ce4bgpp2rcd13ifvqc3g","pricing_plan_id":"cebpf4jnsgd1na2vs0mg"},{"bike_id":"0fae0579-21a9-437c-87f5-9c07357a6f20","system_id":"levelo_inurba_marseille","lat":43.25937,"lon":5.40909,"is_reserved":false,"is_disabled":false,"rental_uris":{"android":"levelo://app?vid=0fae0579-21a9-437c-87f5-9c07357a6f20","ios":"levelo://app?vid=0fae0579-21a9-437c-87f5-9c07357a6f20"},"vehicle_type_id":"4","last_reported":1728292251,"current_range_meters":22800,"station_id":"ce4bhm92rcd13ifvqglg","pricing_plan_id":"cebpf4jnsgd1na2vs0mg"},{"bike_id":"a5f43e21-aab5-4ada-a340-8e9929bfea7f","system_id":"levelo_inurba_marseille","lat":43.30534,"lon":5.367,"is_reserved":false,"is_disabled":false,"rental_uris":{"android":"levelo://app?vid=a5f43e21-aab5-4ada-a340-8e9929bfea7f","ios":"levelo://app?vid=a5f43e21-aab5-4ada-a340-8e9929bfea7f"},"vehicle_type_id":"4","last_reported":1728292251,"current_range_meters":38800,"station_id":"ce4bgrp2rcd13ifvqc9g","pricing_plan_id":"cebpf4jnsgd1na2vs0mg"},{"bike_id":"66a81085-1a96-4f65-934a-3195a2059afa","system_id":"levelo_inurba_marseille","lat":43.24647,"lon":5.389,"is_reserved":false,"is_disabled":false,"rental_uris":{"android":"levelo://app?vid=66a81085-1a96-4f65-934a-3195a2059afa","ios":"levelo://app?vid=66a81085-1a96-4f65-934a-3195a2059afa"},"vehicle_type_id":"4","last_reported":1728292251,"current_range_meters":38800,"station_id":"ce4bhg12rcd13ifvqf60","pricing_plan_id":"cebpf4jnsgd1na2vs0mg"},{"bike_id":"ae1f1126-042c-4fba-9c3b-0de90e3b184d","system_id":"levelo_inurba_marseille","lat":43.25098,"lon":5.4032,"is_reserved":false,"is_disabled":false,"rental_uris":{"android":"levelo://app?vid=ae1f1126-042c-4fba-9c3b-0de90e3b184d","ios":"levelo://app?vid=ae1f1126-042c-4fba-9c3b-0de90e3b184d"},"vehicle_type_id":"4","last_reported":1728292251,"current_range_meters":22800,"station_id":"ce4bhlh2rcd13ifvqgig","pricing_plan_id":"cebpf4jnsgd1na2vs0mg"},{"bike_id":"3c32b85d-2c10-4b76-aac0-5c46b3318ca0","system_id":"levelo_inurba_marseille","lat":43.240356,"lon":5.377912,"is_reserved":false,"is_disabled":false,"rental_uris":{"android":"levelo://app?vid=3c32b85d-2c10-4b76-aac0-5c46b3318ca0","ios":"levelo://app?vid=3c32b85d-2c10-4b76-aac0-5c46b3318ca0"},"vehicle_type_id":"4","last_reported":1728292251,"current_range_meters":18000,"station_id":"ce4bhih2rcd13ifvqfr0","pricing_plan_id":"cebpf4jnsgd1na2vs0mg"},{"bike_id":"6f4a656d-7265-4b3c-9f22-19a5b42b1a59","system_id":"levelo_inurba_marseille","lat":43.2593,"lon":5.40909,"is_reserved":false,"is_disabled":false,"rental_uris":{"android":"levelo://app?vid=6f4a656d-7265-4b3c-9f22-19a5b42b1a59","ios":"levelo://app?vid=6f4a656d-7265-4b3c-9f22-19a5b42b1a59"},"vehicle_type_id":"4","last_reported":1728292251,"current_range_meters":38800,"station_id":"ce4bhm92rcd13ifvqglg","pricing_plan_id":"cebpf4jnsgd1na2vs0mg"},{"bike_id":"2bdb65cd-1e63-4874-80ab-bd72b908164f","system_id":"levelo_inurba_marseille","lat":43.2315,"lon":5.43695,"is_reserved":false,"is_disabled":false,"rental_uris":{"android":"levelo://app?vid=2bdb65cd-1e63-4874-80ab-bd72b908164f","ios":"levelo://app?vid=2bdb65cd-1e63-4874-80ab-bd72b908164f"},"vehicle_type_id":"4","last_reported":1728292251,"current_range_meters":26000,"station_id":"ce4bhmp2rcd13ifvqgog","pricing_plan_id":"cebpf4jnsgd1na2vs0mg"},{"bike_id":"3792fcd0-e115-4961-88c4-ddd90c49f629","system_id":"levelo_inurba_marseille","lat":43.26556,"lon":5.37282,"is_reserved":false,"is_disabled":false,"rental_uris":{"android":"levelo://app?vid=3792fcd0-e115-4961-88c4-ddd90c49f629","ios":"levelo://app?vid=3792fcd0-e115-4961-88c4-ddd90c49f629"},"vehicle_type_id":"4","last_reported":1728292251,"current_range_meters":29600,"station_id":"ce4bhg12rcd13ifvqf70","pricing_plan_id":"cebpf4jnsgd1na2vs0mg"},{"bike_id":"f8938632-56db-490a-a508-cc57d12bfd12","system_id":"levelo_inurba_marseille","lat":43.293,"lon":5.37173,"is_reserved":false,"is_disabled":false,"rental_uris":{"android":"levelo://app?vid=f8938632-56db-490a-a508-cc57d12bfd12","ios":"levelo://app?vid=f8938632-56db-490a-a508-cc57d12bfd12"},"vehicle_type_id":"4","last_reported":1728292251,"current_range_meters":35200,"station_id":"ce4bgh92rcd13ifvqb40","pricing_plan_id":"cebpf4jnsgd1na2vs0mg"},{"bike_id":"025b2914-5a55-4831-9515-ed51afbb3e15","system_id":"levelo_inurba_marseille","lat":43.23156,"lon":5.43694,"is_reserved":false,"is_disabled":false,"rental_uris":{"android":"levelo://app?vid=025b2914-5a55-4831-9515-ed51afbb3e15","ios":"levelo://app?vid=025b2914-5a55-4831-9515-ed51afbb3e15"},"vehicle_type_id":"4","last_reported":1728292251,"current_range_meters":18800,"station_id":"ce4bhmp2rcd13ifvqgog","pricing_plan_id":"cebpf4jnsgd1na2vs0mg"},{"bike_id":"714ca429-1512-493a-b47a-15905dbac610","system_id":"levelo_inurba_marseille","lat":43.26674,"lon":5.38269,"is_reserved":false,"is_disabled":false,"rental_uris":{"android":"levelo://app?vid=714ca429-1512-493a-b47a-15905dbac610","ios":"levelo://app?vid=714ca429-1512-493a-b47a-15905dbac610"},"vehicle_type_id":"4","last_reported":1728292251,"current_range_meters":3600,"station_id":"ce4bhg92rcd13ifvqf90","pricing_plan_id":"cebpf4jnsgd1na2vs0mg"},{"bike_id":"c5735572-dc83-4a5b-8398-11ed9ad4c31d","system_id":"levelo_inurba_marseille","lat":43.29506,"lon":5.37504,"is_reserved":false,"is_disabled":false,"rental_uris":{"android":"levelo://app?vid=c5735572-dc83-4a5b-8398-11ed9ad4c31d","ios":"levelo://app?vid=c5735572-dc83-4a5b-8398-11ed9ad4c31d"},"vehicle_type_id":"4","last_reported":1728292251,"current_range_meters":27600,"station_id":"ce4bgkp2rcd13ifvqbmg","pricing_plan_id":"cebpf4jnsgd1na2vs0mg"},{"bike_id":"02a67eee-aeac-4da1-8fef-5d62a4c68b76","system_id":"levelo_inurba_marseille","lat":43.30458,"lon":5.37893,"is_reserved":false,"is_disabled":false,"rental_uris":{"android":"levelo://app?vid=02a67eee-aeac-4da1-8fef-5d62a4c68b76","ios":"levelo://app?vid=02a67eee-aeac-4da1-8fef-5d62a4c68b76"},"vehicle_type_id":"4","last_reported":1728292251,"current_range_meters":27600,"station_id":"ce4bgup2rcd13ifvqcn0","pricing_plan_id":"cebpf4jnsgd1na2vs0mg"},{"bike_id":"27e454fe-53f1-4c58-a3fe-9e10f753b6d5","system_id":"levelo_inurba_marseille","lat":43.27912,"lon":5.39583,"is_reserved":false,"is_disabled":false,"rental_uris":{"android":"levelo://app?vid=27e454fe-53f1-4c58-a3fe-9e10f753b6d5","ios":"levelo://app?vid=27e454fe-53f1-4c58-a3fe-9e10f753b6d5"},"vehicle_type_id":"4","last_reported":1728292251,"current_range_meters":8400,"station_id":"ce4bhf92rcd13ifvqf40","pricing_plan_id":"cebpf4jnsgd1na2vs0mg"},{"bike_id":"0c9cd5d9-77f4-444f-a011-36824e47f143","system_id":"levelo_inurba_marseille","lat":43.29367,"lon":5.37857,"is_reserved":false,"is_disabled":false,"rental_uris":{"android":"levelo://app?vid=0c9cd5d9-77f4-444f-a011-36824e47f143","ios":"levelo://app?vid=0c9cd5d9-77f4-444f-a011-36824e47f143"},"vehicle_type_id":"4","last_reported":1728292251,"current_range_meters":36000,"station_id":"ce4bgjh2rcd13ifvqbf0","pricing_plan_id":"cebpf4jnsgd1na2vs0mg"},{"bike_id":"38a75b2c-00b2-46e1-88e1-8643a3bae83e","system_id":"levelo_inurba_marseille","lat":43.30462,"lon":5.37905,"is_reserved":false,"is_disabled":false,"rental_uris":{"android":"levelo://app?vid=38a75b2c-00b2-46e1-88e1-8643a3bae83e","ios":"levelo://app?vid=38a75b2c-00b2-46e1-88e1-8643a3bae83e"},"vehicle_type_id":"4","last_reported":1728292251,"current_range_meters":18800,"station_id":"ce4bgup2rcd13ifvqcn0","pricing_plan_id":"cebpf4jnsgd1na2vs0mg"},{"bike_id":"43e9938d-d274-4b1c-9a72-5009ec8410d0","system_id":"levelo_inurba_marseille","lat":43.25503,"lon":5.37645,"is_reserved":false,"is_disabled":false,"rental_uris":{"android":"levelo://app?vid=43e9938d-d274-4b1c-9a72-5009ec8410d0","ios":"levelo://app?vid=43e9938d-d274-4b1c-9a72-5009ec8410d0"},"vehicle_type_id":"4","last_reported":1728292251,"current_range_meters":18800,"station_id":"ce4bhh12rcd13ifvqff0","pricing_plan_id":"cebpf4jnsgd1na2vs0mg"},{"bike_id":"3fc17831-e711-4a93-b582-cf5955134a8c","system_id":"levelo_inurba_marseille","lat":43.29101,"lon":5.38129,"is_reserved":false,"is_disabled":false,"rental_uris":{"android":"levelo://app?vid=3fc17831-e711-4a93-b582-cf5955134a8c","ios":"levelo://app?vid=3fc17831-e711-4a93-b582-cf5955134a8c"},"vehicle_type_id":"4","last_reported":1728292251,"current_range_meters":12800,"station_id":"ce4bh512rcd13ifvqe2g","pricing_plan_id":"cebpf4jnsgd1na2vs0mg"},{"bike_id":"13b0039f-a583-46cf-9deb-910985564f65","system_id":"levelo_inurba_marseille","lat":43.29552,"lon":5.42281,"is_reserved":false,"is_disabled":false,"rental_uris":{"android":"levelo://app?vid=13b0039f-a583-46cf-9deb-910985564f65","ios":"levelo://app?vid=13b0039f-a583-46cf-9deb-910985564f65"},"vehicle_type_id":"4","last_reported":1728292251,"current_range_meters":38800,"station_id":"ce4bhph2rcd13ifvqhdg","pricing_plan_id":"cebpf4jnsgd1na2vs0mg"},{"bike_id":"78237736-a64d-45e6-9fa2-e50266ee2186","system_id":"levelo_inurba_marseille","lat":43.30936,"lon":5.39043,"is_reserved":false,"is_disabled":false,"rental_uris":{"android":"levelo://app?vid=78237736-a64d-45e6-9fa2-e50266ee2186","ios":"levelo://app?vid=78237736-a64d-45e6-9fa2-e50266ee2186"},"vehicle_type_id":"4","last_reported":1728292251,"current_range_meters":10000,"station_id":"","pricing_plan_id":"cebpf4jnsgd1na2vs0mg"},{"bike_id":"19ab3180-048d-4d8a-b271-16960f370501","system_id":"levelo_inurba_marseille","lat":43.33756,"lon":5.37427,"is_reserved":false,"is_disabled":false,"rental_uris":{"android":"levelo://app?vid=19ab3180-048d-4d8a-b271-16960f370501","ios":"levelo://app?vid=19ab3180-048d-4d8a-b271-16960f370501"},"vehicle_type_id":"4","last_reported":1728292251,"current_range_meters":20800,"station_id":"","pricing_plan_id":"cebpf4jnsgd1na2vs0mg"},{"bike_id":"b249ead5-72e0-4ca9-bf74-5b0fa7a35e75","system_id":"levelo_inurba_marseille","lat":43.30934,"lon":5.40143,"is_reserved":false,"is_disabled":false,"rental_uris":{"android":"levelo://app?vid=b249ead5-72e0-4ca9-bf74-5b0fa7a35e75","ios":"levelo://app?vid=b249ead5-72e0-4ca9-bf74-5b0fa7a35e75"},"vehicle_type_id":"4","last_reported":1728292251,"current_range_meters":24800,"station_id":"ce4bgvp2rcd13ifvqct0","pricing_plan_id":"cebpf4jnsgd1na2vs0mg"},{"bike_id":"0f1bce6a-0c0c-4e8e-b75d-9b44f69348cc","system_id":"levelo_inurba_marseille","lat":43.26553,"lon":5.37284,"is_reserved":false,"is_disabled":false,"rental_uris":{"android":"levelo://app?vid=0f1bce6a-0c0c-4e8e-b75d-9b44f69348cc","ios":"levelo://app?vid=0f1bce6a-0c0c-4e8e-b75d-9b44f69348cc"},"vehicle_type_id":"4","last_reported":1728292251,"current_range_meters":15200,"station_id":"ce4bhg12rcd13ifvqf70","pricing_plan_id":"cebpf4jnsgd1na2vs0mg"},{"bike_id":"43d3232c-9047-4a12-936b-bcbe50b2e90b","system_id":"levelo_inurba_marseille","lat":43.25926,"lon":5.40908,"is_reserved":false,"is_disabled":false,"rental_uris":{"android":"levelo://app?vid=43d3232c-9047-4a12-936b-bcbe50b2e90b","ios":"levelo://app?vid=43d3232c-9047-4a12-936b-bcbe50b2e90b"},"vehicle_type_id":"4","last_reported":1728292251,"current_range_meters":14400,"station_id":"ce4bhm92rcd13ifvqglg","pricing_plan_id":"cebpf4jnsgd1na2vs0mg"},{"bike_id":"fcb769bd-e567-4fcc-a4bd-aeaa03f693aa","system_id":"levelo_inurba_marseille","lat":43.31353,"lon":5.36696,"is_reserved":false,"is_disabled":false,"rental_uris":{"android":"levelo://app?vid=fcb769bd-e567-4fcc-a4bd-aeaa03f693aa","ios":"levelo://app?vid=fcb769bd-e567-4fcc-a4bd-aeaa03f693aa"},"vehicle_type_id":"4","last_reported":1728292251,"current_range_meters":4800,"station_id":"ce4bgr92rcd13ifvqc6g","pricing_plan_id":"cebpf4jnsgd1na2vs0mg"},{"bike_id":"0310fd20-d962-41d3-867a-dcb14ee1af85","system_id":"levelo_inurba_marseille","lat":43.26948,"lon":5.38621,"is_reserved":false,"is_disabled":false,"rental_uris":{"android":"levelo://app?vid=0310fd20-d962-41d3-867a-dcb14ee1af85","ios":"levelo://app?vid=0310fd20-d962-41d3-867a-dcb14ee1af85"},"vehicle_type_id":"4","last_reported":1728292251,"current_range_meters":32000,"station_id":"ce4bhh92rcd13ifvqfh0","pricing_plan_id":"cebpf4jnsgd1na2vs0mg"},{"bike_id":"49ec5043-7dc1-4a91-af84-a775c9bc06e6","system_id":"levelo_inurba_marseille","lat":43.24072,"lon":5.3776,"is_reserved":false,"is_disabled":false,"rental_uris":{"android":"levelo://app?vid=49ec5043-7dc1-4a91-af84-a775c9bc06e6","ios":"levelo://app?vid=49ec5043-7dc1-4a91-af84-a775c9bc06e6"},"vehicle_type_id":"4","last_reported":1728292251,"current_range_meters":14000,"station_id":"ce4bhnp2rcd13ifvqgvg","pricing_plan_id":"cebpf4jnsgd1na2vs0mg"},{"bike_id":"a142f344-5803-4225-ac31-47844f2b3bc2","system_id":"levelo_inurba_marseille","lat":43.30532,"lon":5.36707,"is_reserved":false,"is_disabled":false,"rental_uris":{"android":"levelo://app?vid=a142f344-5803-4225-ac31-47844f2b3bc2","ios":"levelo://app?vid=a142f344-5803-4225-ac31-47844f2b3bc2"},"vehicle_type_id":"4","last_reported":1728292251,"current_range_meters":19600,"station_id":"ce4bgrp2rcd13ifvqc9g","pricing_plan_id":"cebpf4jnsgd1na2vs0mg"},{"bike_id":"44cb9723-f094-45c7-9c71-6d82e25886a7","system_id":"levelo_inurba_marseille","lat":43.2305,"lon":5.35487,"is_reserved":false,"is_disabled":false,"rental_uris":{"android":"levelo://app?vid=44cb9723-f094-45c7-9c71-6d82e25886a7","ios":"levelo://app?vid=44cb9723-f094-45c7-9c71-6d82e25886a7"},"vehicle_type_id":"4","last_reported":1728292251,"current_range_meters":37600,"station_id":"cpo3342slgdg3j2ifvpg","pricing_plan_id":"cebpf4jnsgd1na2vs0mg"},{"bike_id":"d20dcc4d-e7fd-4bc1-a5e2-4e770ba1cba2","system_id":"levelo_inurba_marseille","lat":43.22928,"lon":5.35374,"is_reserved":false,"is_disabled":false,"rental_uris":{"android":"levelo://app?vid=d20dcc4d-e7fd-4bc1-a5e2-4e770ba1cba2","ios":"levelo://app?vid=d20dcc4d-e7fd-4bc1-a5e2-4e770ba1cba2"},"vehicle_type_id":"4","last_reported":1728292251,"current_range_meters":31200,"station_id":"cpo3532slgdg3j2ikp40","pricing_plan_id":"cebpf4jnsgd1na2vs0mg"},{"bike_id":"5209215f-a517-413d-a091-19910bec7283","system_id":"levelo_inurba_marseille","lat":43.27366,"lon":5.36253,"is_reserved":false,"is_disabled":false,"rental_uris":{"android":"levelo://app?vid=5209215f-a517-413d-a091-19910bec7283","ios":"levelo://app?vid=5209215f-a517-413d-a091-19910bec7283"},"vehicle_type_id":"4","last_reported":1728292251,"current_range_meters":38800,"station_id":"ce4bhbh2rcd13ifvqeo0","pricing_plan_id":"cebpf4jnsgd1na2vs0mg"},{"bike_id":"011270c4-da7b-4ddd-8382-e67c19f8136a","system_id":"levelo_inurba_marseille","lat":43.30456,"lon":5.37908,"is_reserved":false,"is_disabled":false,"rental_uris":{"android":"levelo://app?vid=011270c4-da7b-4ddd-8382-e67c19f8136a","ios":"levelo://app?vid=011270c4-da7b-4ddd-8382-e67c19f8136a"},"vehicle_type_id":"4","last_reported":1728292251,"current_range_meters":38800,"station_id":"ce4bgup2rcd13ifvqcn0","pricing_plan_id":"cebpf4jnsgd1na2vs0mg"},{"bike_id":"789b60ea-569f-466a-a401-66c3c8f05a5a","system_id":"levelo_inurba_marseille","lat":43.33604,"lon":5.41027,"is_reserved":false,"is_disabled":false,"rental_uris":{"android":"levelo://app?vid=789b60ea-569f-466a-a401-66c3c8f05a5a","ios":"levelo://app?vid=789b60ea-569f-466a-a401-66c3c8f05a5a"},"vehicle_type_id":"4","last_reported":1728292251,"current_range_meters":24400,"station_id":"ce4bhqh2rcd13ifvqhmg","pricing_plan_id":"cebpf4jnsgd1na2vs0mg"},{"bike_id":"cba9847b-ac59-4aa8-a588-3c09a476dbdb","system_id":"levelo_inurba_marseille","lat":43.24544,"lon":5.39523,"is_reserved":false,"is_disabled":false,"rental_uris":{"android":"levelo://app?vid=cba9847b-ac59-4aa8-a588-3c09a476dbdb","ios":"levelo://app?vid=cba9847b-ac59-4aa8-a588-3c09a476dbdb"},"vehicle_type_id":"4","last_reported":1728292251,"current_range_meters":17600,"station_id":"ce4bhlp2rcd13ifvqgjg","pricing_plan_id":"cebpf4jnsgd1na2vs0mg"},{"bike_id":"2b56c3e5-45a1-4057-8d0e-75a6038e2b3c","system_id":"levelo_inurba_marseille","lat":43.27494,"lon":5.42448,"is_reserved":false,"is_disabled":false,"rental_uris":{"android":"levelo://app?vid=2b56c3e5-45a1-4057-8d0e-75a6038e2b3c","ios":"levelo://app?vid=2b56c3e5-45a1-4057-8d0e-75a6038e2b3c"},"vehicle_type_id":"4","last_reported":1728292251,"current_range_meters":6400,"station_id":"ce4bhn92rcd13ifvqgrg","pricing_plan_id":"cebpf4jnsgd1na2vs0mg"},{"bike_id":"71b45069-d47e-482e-8ede-a4bba9d74d5e","system_id":"levelo_inurba_marseille","lat":43.2872,"lon":5.37944,"is_reserved":false,"is_disabled":false,"rental_uris":{"android":"levelo://app?vid=71b45069-d47e-482e-8ede-a4bba9d74d5e","ios":"levelo://app?vid=71b45069-d47e-482e-8ede-a4bba9d74d5e"},"vehicle_type_id":"4","last_reported":1728292251,"current_range_meters":37600,"station_id":"ce4bh9p2rcd13ifvqec0","pricing_plan_id":"cebpf4jnsgd1na2vs0mg"},{"bike_id":"4e0c83a2-b0c3-4894-8559-e509681998d3","system_id":"levelo_inurba_marseille","lat":43.31125,"lon":5.38326,"is_reserved":false,"is_disabled":false,"rental_uris":{"android":"levelo://app?vid=4e0c83a2-b0c3-4894-8559-e509681998d3","ios":"levelo://app?vid=4e0c83a2-b0c3-4894-8559-e509681998d3"},"vehicle_type_id":"4","last_reported":1728292251,"current_range_meters":3600,"station_id":"","pricing_plan_id":"cebpf4jnsgd1na2vs0mg"},{"bike_id":"c326a12b-e593-4457-b068-75da463468b2","system_id":"levelo_inurba_marseille","lat":43.28668,"lon":5.38669,"is_reserved":false,"is_disabled":false,"rental_uris":{"android":"levelo://app?vid=c326a12b-e593-4457-b068-75da463468b2","ios":"levelo://app?vid=c326a12b-e593-4457-b068-75da463468b2"},"vehicle_type_id":"4","last_reported":1728292251,"current_range_meters":28000,"station_id":"ce4bh492rcd13ifvqdug","pricing_plan_id":"cebpf4jnsgd1na2vs0mg"},{"bike_id":"d4f85512-eff9-43d3-a907-7a6acb590310","system_id":"levelo_inurba_marseille","lat":43.30538,"lon":5.36544,"is_reserved":false,"is_disabled":false,"rental_uris":{"android":"levelo://app?vid=d4f85512-eff9-43d3-a907-7a6acb590310","ios":"levelo://app?vid=d4f85512-eff9-43d3-a907-7a6acb590310"},"vehicle_type_id":"4","last_reported":1728292251,"current_range_meters":8400,"station_id":"ce4bgs12rcd13ifvqcag","pricing_plan_id":"cebpf4jnsgd1na2vs0mg"},{"bike_id":"001f57b8-3c20-4645-b1ad-e5c4b9b6adcf","system_id":"levelo_inurba_marseille","lat":43.32648,"lon":5.41373,"is_reserved":false,"is_disabled":false,"rental_uris":{"android":"levelo://app?vid=001f57b8-3c20-4645-b1ad-e5c4b9b6adcf","ios":"levelo://app?vid=001f57b8-3c20-4645-b1ad-e5c4b9b6adcf"},"vehicle_type_id":"4","last_reported":1728292251,"current_range_meters":35600,"station_id":"ce4bhq12rcd13ifvqhhg","pricing_plan_id":"cebpf4jnsgd1na2vs0mg"},{"bike_id":"96187375-27cf-476f-b0df-40c900959d5d","system_id":"levelo_inurba_marseille","lat":43.24085,"lon":5.37754,"is_reserved":false,"is_disabled":false,"rental_uris":{"android":"levelo://app?vid=96187375-27cf-476f-b0df-40c900959d5d","ios":"levelo://app?vid=96187375-27cf-476f-b0df-40c900959d5d"},"vehicle_type_id":"4","last_reported":1728292251,"current_range_meters":36400,"station_id":"ce4bhnp2rcd13ifvqgvg","pricing_plan_id":"cebpf4jnsgd1na2vs0mg"},{"bike_id":"36d116a7-cf27-4299-b572-998d8a2da867","system_id":"levelo_inurba_marseille","lat":43.301392,"lon":5.387769,"is_reserved":false,"is_disabled":false,"rental_uris":{"android":"levelo://app?vid=36d116a7-cf27-4299-b572-998d8a2da867","ios":"levelo://app?vid=36d116a7-cf27-4299-b572-998d8a2da867"},"vehicle_type_id":"4","last_reported":1728292251,"current_range_meters":24000,"station_id":"ce4bghh2rcd13ifvqb60","pricing_plan_id":"cebpf4jnsgd1na2vs0mg"},{"bike_id":"d7c99475-9cb5-4ab8-b4bd-55eba42ac6bf","system_id":"levelo_inurba_marseille","lat":43.27994,"lon":5.41655,"is_reserved":false,"is_disabled":false,"rental_uris":{"android":"levelo://app?vid=d7c99475-9cb5-4ab8-b4bd-55eba42ac6bf","ios":"levelo://app?vid=d7c99475-9cb5-4ab8-b4bd-55eba42ac6bf"},"vehicle_type_id":"4","last_reported":1728292251,"current_range_meters":8800,"station_id":"ce4bho12rcd13ifvqh1g","pricing_plan_id":"cebpf4jnsgd1na2vs0mg"},{"bike_id":"b9a9ebf0-9eda-4091-8e88-e9070b6dd31d","system_id":"levelo_inurba_marseille","lat":43.23149,"lon":5.43697,"is_reserved":false,"is_disabled":false,"rental_uris":{"android":"levelo://app?vid=b9a9ebf0-9eda-4091-8e88-e9070b6dd31d","ios":"levelo://app?vid=b9a9ebf0-9eda-4091-8e88-e9070b6dd31d"},"vehicle_type_id":"4","last_reported":1728292251,"current_range_meters":38800,"station_id":"ce4bhmp2rcd13ifvqgog","pricing_plan_id":"cebpf4jnsgd1na2vs0mg"},{"bike_id":"d6e9aa79-72fb-42e2-8ff2-38d405eb42dc","system_id":"levelo_inurba_marseille","lat":43.30202,"lon":5.38988,"is_reserved":false,"is_disabled":false,"rental_uris":{"android":"levelo://app?vid=d6e9aa79-72fb-42e2-8ff2-38d405eb42dc","ios":"levelo://app?vid=d6e9aa79-72fb-42e2-8ff2-38d405eb42dc"},"vehicle_type_id":"4","last_reported":1728292251,"current_range_meters":26800,"station_id":"","pricing_plan_id":"cebpf4jnsgd1na2vs0mg"},{"bike_id":"637950e6-461d-4fd3-aeb4-7a41f1df4b89","system_id":"levelo_inurba_marseille","lat":43.30537,"lon":5.36713,"is_reserved":false,"is_disabled":false,"rental_uris":{"android":"levelo://app?vid=637950e6-461d-4fd3-aeb4-7a41f1df4b89","ios":"levelo://app?vid=637950e6-461d-4fd3-aeb4-7a41f1df4b89"},"vehicle_type_id":"4","last_reported":1728292251,"current_range_meters":10000,"station_id":"ce4bgrp2rcd13ifvqc9g","pricing_plan_id":"cebpf4jnsgd1na2vs0mg"},{"bike_id":"af38f342-c0c1-4b58-b2f4-eed5799d49e9","system_id":"levelo_inurba_marseille","lat":43.29699,"lon":5.36613,"is_reserved":false,"is_disabled":false,"rental_uris":{"android":"levelo://app?vid=af38f342-c0c1-4b58-b2f4-eed5799d49e9","ios":"levelo://app?vid=af38f342-c0c1-4b58-b2f4-eed5799d49e9"},"vehicle_type_id":"4","last_reported":1728292251,"current_range_meters":22000,"station_id":"ce4bh012rcd13ifvqcv0","pricing_plan_id":"cebpf4jnsgd1na2vs0mg"},{"bike_id":"b6165dbc-4273-4933-b8b3-cf159a3ab062","system_id":"levelo_inurba_marseille","lat":43.262,"lon":5.37929,"is_reserved":false,"is_disabled":false,"rental_uris":{"android":"levelo://app?vid=b6165dbc-4273-4933-b8b3-cf159a3ab062","ios":"levelo://app?vid=b6165dbc-4273-4933-b8b3-cf159a3ab062"},"vehicle_type_id":"4","last_reported":1728292251,"current_range_meters":35600,"station_id":"ce4bhjp2rcd13ifvqg90","pricing_plan_id":"cebpf4jnsgd1na2vs0mg"},{"bike_id":"a82e262b-b7c1-4737-9203-cbce5abcf5ba","system_id":"levelo_inurba_marseille","lat":43.26945,"lon":5.38631,"is_reserved":false,"is_disabled":false,"rental_uris":{"android":"levelo://app?vid=a82e262b-b7c1-4737-9203-cbce5abcf5ba","ios":"levelo://app?vid=a82e262b-b7c1-4737-9203-cbce5abcf5ba"},"vehicle_type_id":"4","last_reported":1728292251,"current_range_meters":38800,"station_id":"ce4bhh92rcd13ifvqfh0","pricing_plan_id":"cebpf4jnsgd1na2vs0mg"},{"bike_id":"f8f76ece-43e6-44a9-b368-d97ca628cdcf","system_id":"levelo_inurba_marseille","lat":43.23152,"lon":5.43709,"is_reserved":false,"is_disabled":false,"rental_uris":{"android":"levelo://app?vid=f8f76ece-43e6-44a9-b368-d97ca628cdcf","ios":"levelo://app?vid=f8f76ece-43e6-44a9-b368-d97ca628cdcf"},"vehicle_type_id":"4","last_reported":1728292251,"current_range_meters":35200,"station_id":"ce4bhmp2rcd13ifvqgog","pricing_plan_id":"cebpf4jnsgd1na2vs0mg"},{"bike_id":"f1a587de-a4d9-42a8-8fe6-d4518f6dd1b0","system_id":"levelo_inurba_marseille","lat":43.23063,"lon":5.35493,"is_reserved":false,"is_disabled":false,"rental_uris":{"android":"levelo://app?vid=f1a587de-a4d9-42a8-8fe6-d4518f6dd1b0","ios":"levelo://app?vid=f1a587de-a4d9-42a8-8fe6-d4518f6dd1b0"},"vehicle_type_id":"4","last_reported":1728292251,"current_range_meters":13600,"station_id":"cpo3342slgdg3j2ifvpg","pricing_plan_id":"cebpf4jnsgd1na2vs0mg"},{"bike_id":"6b4618ac-bf15-42bd-b8ce-f62f3e28352b","system_id":"levelo_inurba_marseille","lat":43.23192,"lon":5.35542,"is_reserved":false,"is_disabled":false,"rental_uris":{"android":"levelo://app?vid=6b4618ac-bf15-42bd-b8ce-f62f3e28352b","ios":"levelo://app?vid=6b4618ac-bf15-42bd-b8ce-f62f3e28352b"},"vehicle_type_id":"4","last_reported":1728292251,"current_range_meters":34800,"station_id":"ce4bhu92rcd13ifvqi70","pricing_plan_id":"cebpf4jnsgd1na2vs0mg"},{"bike_id":"cc461165-a007-4b5e-a9f5-97d0088c5fe5","system_id":"levelo_inurba_marseille","lat":43.2749,"lon":5.42455,"is_reserved":false,"is_disabled":false,"rental_uris":{"android":"levelo://app?vid=cc461165-a007-4b5e-a9f5-97d0088c5fe5","ios":"levelo://app?vid=cc461165-a007-4b5e-a9f5-97d0088c5fe5"},"vehicle_type_id":"4","last_reported":1728292251,"current_range_meters":8000,"station_id":"ce4bhn92rcd13ifvqgrg","pricing_plan_id":"cebpf4jnsgd1na2vs0mg"},{"bike_id":"c69be611-2cbe-41cc-9997-15f7bd7813d0","system_id":"levelo_inurba_marseille","lat":43.29104,"lon":5.3813,"is_reserved":false,"is_disabled":false,"rental_uris":{"android":"levelo://app?vid=c69be611-2cbe-41cc-9997-15f7bd7813d0","ios":"levelo://app?vid=c69be611-2cbe-41cc-9997-15f7bd7813d0"},"vehicle_type_id":"4","last_reported":1728292251,"current_range_meters":8000,"station_id":"ce4bh512rcd13ifvqe2g","pricing_plan_id":"cebpf4jnsgd1na2vs0mg"},{"bike_id":"d497d0f1-9157-442c-84ef-a30c7875a0d0","system_id":"levelo_inurba_marseille","lat":43.30946,"lon":5.39037,"is_reserved":false,"is_disabled":false,"rental_uris":{"android":"levelo://app?vid=d497d0f1-9157-442c-84ef-a30c7875a0d0","ios":"levelo://app?vid=d497d0f1-9157-442c-84ef-a30c7875a0d0"},"vehicle_type_id":"4","last_reported":1728292251,"current_range_meters":28000,"station_id":"ce4bgup2rcd13ifvqco0","pricing_plan_id":"cebpf4jnsgd1na2vs0mg"},{"bike_id":"d81e8b70-0cec-4a83-ac18-c99848066d32","system_id":"levelo_inurba_marseille","lat":43.24081,"lon":5.37749,"is_reserved":false,"is_disabled":false,"rental_uris":{"android":"levelo://app?vid=d81e8b70-0cec-4a83-ac18-c99848066d32","ios":"levelo://app?vid=d81e8b70-0cec-4a83-ac18-c99848066d32"},"vehicle_type_id":"4","last_reported":1728292251,"current_range_meters":38000,"station_id":"ce4bhnp2rcd13ifvqgvg","pricing_plan_id":"cebpf4jnsgd1na2vs0mg"},{"bike_id":"a49eaf76-607e-407c-85d8-153589115262","system_id":"levelo_inurba_marseille","lat":43.25936,"lon":5.40899,"is_reserved":false,"is_disabled":false,"rental_uris":{"android":"levelo://app?vid=a49eaf76-607e-407c-85d8-153589115262","ios":"levelo://app?vid=a49eaf76-607e-407c-85d8-153589115262"},"vehicle_type_id":"4","last_reported":1728292251,"current_range_meters":36800,"station_id":"ce4bhm92rcd13ifvqglg","pricing_plan_id":"cebpf4jnsgd1na2vs0mg"},{"bike_id":"820077e7-e7b9-4629-a224-94e3712367bb","system_id":"levelo_inurba_marseille","lat":43.3059,"lon":5.37226,"is_reserved":false,"is_disabled":false,"rental_uris":{"android":"levelo://app?vid=820077e7-e7b9-4629-a224-94e3712367bb","ios":"levelo://app?vid=820077e7-e7b9-4629-a224-94e3712367bb"},"vehicle_type_id":"4","last_reported":1728292251,"current_range_meters":37600,"station_id":"ce4bgqh2rcd13ifvqc4g","pricing_plan_id":"cebpf4jnsgd1na2vs0mg"},{"bike_id":"e1981508-8176-4aae-a242-53630f7b837d","system_id":"levelo_inurba_marseille","lat":43.32655,"lon":5.40995,"is_reserved":false,"is_disabled":false,"rental_uris":{"android":"levelo://app?vid=e1981508-8176-4aae-a242-53630f7b837d","ios":"levelo://app?vid=e1981508-8176-4aae-a242-53630f7b837d"},"vehicle_type_id":"4","last_reported":1728292251,"current_range_meters":38000,"station_id":"ce4bhpp2rcd13ifvqhgg","pricing_plan_id":"cebpf4jnsgd1na2vs0mg"},{"bike_id":"21167a17-73e0-4a8a-bc23-694f2a446be5","system_id":"levelo_inurba_marseille","lat":43.30312,"lon":5.36906,"is_reserved":false,"is_disabled":false,"rental_uris":{"android":"levelo://app?vid=21167a17-73e0-4a8a-bc23-694f2a446be5","ios":"levelo://app?vid=21167a17-73e0-4a8a-bc23-694f2a446be5"},"vehicle_type_id":"4","last_reported":1728292251,"current_range_meters":14000,"station_id":"ce4bgqh2rcd13ifvqc5g","pricing_plan_id":"cebpf4jnsgd1na2vs0mg"},{"bike_id":"1d152269-c2fa-4900-bfa9-f20a095e29df","system_id":"levelo_inurba_marseille","lat":43.25723,"lon":5.41103,"is_reserved":false,"is_disabled":false,"rental_uris":{"android":"levelo://app?vid=1d152269-c2fa-4900-bfa9-f20a095e29df","ios":"levelo://app?vid=1d152269-c2fa-4900-bfa9-f20a095e29df"},"vehicle_type_id":"4","last_reported":1728292251,"current_range_meters":36800,"station_id":"ce4bhkp2rcd13ifvqgd0","pricing_plan_id":"cebpf4jnsgd1na2vs0mg"},{"bike_id":"25fca34d-d1d1-4912-9ad1-ead795e3fa9a","system_id":"levelo_inurba_marseille","lat":43.30887,"lon":5.37312,"is_reserved":false,"is_disabled":false,"rental_uris":{"android":"levelo://app?vid=25fca34d-d1d1-4912-9ad1-ead795e3fa9a","ios":"levelo://app?vid=25fca34d-d1d1-4912-9ad1-ead795e3fa9a"},"vehicle_type_id":"4","last_reported":1728292251,"current_range_meters":36400,"station_id":"","pricing_plan_id":"cebpf4jnsgd1na2vs0mg"},{"bike_id":"61abf6b5-cd9e-4430-b3f3-4b9c28bf1319","system_id":"levelo_inurba_marseille","lat":43.28473,"lon":5.38422,"is_reserved":false,"is_disabled":false,"rental_uris":{"android":"levelo://app?vid=61abf6b5-cd9e-4430-b3f3-4b9c28bf1319","ios":"levelo://app?vid=61abf6b5-cd9e-4430-b3f3-4b9c28bf1319"},"vehicle_type_id":"4","last_reported":1728292251,"current_range_meters":8400,"station_id":"ce4bh512rcd13ifvqe3g","pricing_plan_id":"cebpf4jnsgd1na2vs0mg"},{"bike_id":"fd5eca2a-efbf-49f6-b20c-313e16602a60","system_id":"levelo_inurba_marseille","lat":43.23146,"lon":5.43709,"is_reserved":false,"is_disabled":false,"rental_uris":{"android":"levelo://app?vid=fd5eca2a-efbf-49f6-b20c-313e16602a60","ios":"levelo://app?vid=fd5eca2a-efbf-49f6-b20c-313e16602a60"},"vehicle_type_id":"4","last_reported":1728292251,"current_range_meters":27600,"station_id":"ce4bhmp2rcd13ifvqgog","pricing_plan_id":"cebpf4jnsgd1na2vs0mg"},{"bike_id":"ceae7ede-a81e-41c8-b671-3d168e17e516","system_id":"levelo_inurba_marseille","lat":43.24388,"lon":5.37058,"is_reserved":false,"is_disabled":false,"rental_uris":{"android":"levelo://app?vid=ceae7ede-a81e-41c8-b671-3d168e17e516","ios":"levelo://app?vid=ceae7ede-a81e-41c8-b671-3d168e17e516"},"vehicle_type_id":"4","last_reported":1728292251,"current_range_meters":28000,"station_id":"ce4bhhh2rcd13ifvqfk0","pricing_plan_id":"cebpf4jnsgd1na2vs0mg"},{"bike_id":"e03c9d0c-17ae-4003-b903-fd8aa9951041","system_id":"levelo_inurba_marseille","lat":43.33754,"lon":5.37443,"is_reserved":false,"is_disabled":false,"rental_uris":{"android":"levelo://app?vid=e03c9d0c-17ae-4003-b903-fd8aa9951041","ios":"levelo://app?vid=e03c9d0c-17ae-4003-b903-fd8aa9951041"},"vehicle_type_id":"4","last_reported":1728292251,"current_range_meters":24000,"station_id":"","pricing_plan_id":"cebpf4jnsgd1na2vs0mg"},{"bike_id":"1550af62-bf6d-4ed1-9e47-de9ab3d8efb9","system_id":"levelo_inurba_marseille","lat":43.30417,"lon":5.4128,"is_reserved":false,"is_disabled":false,"rental_uris":{"android":"levelo://app?vid=1550af62-bf6d-4ed1-9e47-de9ab3d8efb9","ios":"levelo://app?vid=1550af62-bf6d-4ed1-9e47-de9ab3d8efb9"},"vehicle_type_id":"4","last_reported":1728292251,"current_range_meters":36800,"station_id":"ce4bhop2rcd13ifvqh8g","pricing_plan_id":"cebpf4jnsgd1na2vs0mg"},{"bike_id":"926380f0-4ec2-45d5-8c58-de39b75f601e","system_id":"levelo_inurba_marseille","lat":43.23061,"lon":5.35495,"is_reserved":false,"is_disabled":false,"rental_uris":{"android":"levelo://app?vid=926380f0-4ec2-45d5-8c58-de39b75f601e","ios":"levelo://app?vid=926380f0-4ec2-45d5-8c58-de39b75f601e"},"vehicle_type_id":"4","last_reported":1728292251,"current_range_meters":17600,"station_id":"cpo3342slgdg3j2ifvpg","pricing_plan_id":"cebpf4jnsgd1na2vs0mg"},{"bike_id":"c4481706-05b9-4519-b417-fc3e5db39c8d","system_id":"levelo_inurba_marseille","lat":43.28675,"lon":5.38617,"is_reserved":false,"is_disabled":false,"rental_uris":{"android":"levelo://app?vid=c4481706-05b9-4519-b417-fc3e5db39c8d","ios":"levelo://app?vid=c4481706-05b9-4519-b417-fc3e5db39c8d"},"vehicle_type_id":"4","last_reported":1728292251,"current_range_meters":38800,"station_id":"ce4bh612rcd13ifvqe6g","pricing_plan_id":"cebpf4jnsgd1na2vs0mg"},{"bike_id":"a141cec7-de62-4e71-809d-0879ce0a79a6","system_id":"levelo_inurba_marseille","lat":43.266752,"lon":5.382561,"is_reserved":false,"is_disabled":false,"rental_uris":{"android":"levelo://app?vid=a141cec7-de62-4e71-809d-0879ce0a79a6","ios":"levelo://app?vid=a141cec7-de62-4e71-809d-0879ce0a79a6"},"vehicle_type_id":"4","last_reported":1728292251,"current_range_meters":21600,"station_id":"ce4bhg92rcd13ifvqf90","pricing_plan_id":"cebpf4jnsgd1na2vs0mg"},{"bike_id":"8e4dbaad-3b45-432d-b312-69a12ae35c8b","system_id":"levelo_inurba_marseille","lat":43.29588,"lon":5.37508,"is_reserved":false,"is_disabled":false,"rental_uris":{"android":"levelo://app?vid=8e4dbaad-3b45-432d-b312-69a12ae35c8b","ios":"levelo://app?vid=8e4dbaad-3b45-432d-b312-69a12ae35c8b"},"vehicle_type_id":"4","last_reported":1728292251,"current_range_meters":11600,"station_id":"ce4bgh92rcd13ifvqb50","pricing_plan_id":"cebpf4jnsgd1na2vs0mg"},{"bike_id":"a485b0d4-2721-435c-b41c-eed272d33850","system_id":"levelo_inurba_marseille","lat":43.25933,"lon":5.40894,"is_reserved":false,"is_disabled":false,"rental_uris":{"android":"levelo://app?vid=a485b0d4-2721-435c-b41c-eed272d33850","ios":"levelo://app?vid=a485b0d4-2721-435c-b41c-eed272d33850"},"vehicle_type_id":"4","last_reported":1728292251,"current_range_meters":22800,"station_id":"ce4bhm92rcd13ifvqglg","pricing_plan_id":"cebpf4jnsgd1na2vs0mg"},{"bike_id":"2d4539f4-aec5-4beb-bd77-a5fc6efa9c98","system_id":"levelo_inurba_marseille","lat":43.32482,"lon":5.36558,"is_reserved":false,"is_disabled":false,"rental_uris":{"android":"levelo://app?vid=2d4539f4-aec5-4beb-bd77-a5fc6efa9c98","ios":"levelo://app?vid=2d4539f4-aec5-4beb-bd77-a5fc6efa9c98"},"vehicle_type_id":"4","last_reported":1728292251,"current_range_meters":38800,"station_id":"ce4bhs12rcd13ifvqhvg","pricing_plan_id":"cebpf4jnsgd1na2vs0mg"},