{"last_updated":1702494363,"ttl":30,"version":"2.2","data":{"bikes":[{"bike_id":"3f8b821f-e430-4a35-bf14-f8b6e777ea11","system_id":"levelo_inurba_marseille","lat":43.313939,"lon":5.375306,"is_reserved":false,"is_disabled":false,"rental_uris":{"android":"levelo://app?vid=3f8b821f-e430-4a35-bf14-f8b6e777ea11","ios":"levelo://app?vid=3f8b821f-e430-4a35-bf14-f8b6e777ea11"},"vehicle_type_id":"4","last_reported":1702494363,"current_range_meters":6800,"station_id":"","pricing_plan_id":"free"},{"bike_id":"955e4ab2-16e5-44e8-a986-a2f50ff96c06","system_id":"levelo_inurba_marseille","lat":43.305382,"lon":5.365389,"is_reserved":false,"is_disabled":false,"rental_uris":{"android":"levelo://app?vid=955e4ab2-16e5-44e8-a986-a2f50ff96c06","ios":"levelo://app?vid=955e4ab2-16e5-44e8-a986-a2f50ff96c06"},"vehicle_type_id":"4","last_reported":1702494363,"current_range_meters":26000,"station_id":"","pricing_plan_id":"free"},{"bike_id":"c007ab80-c099-4918-be17-3d4adef11cad","system_id":"levelo_inurba_marseille","lat":43.311125,"lon":5.377624,"is_reserved":false,"is_disabled":false,"rental_uris":{"android":"levelo://app?vid=c007ab80-c099-4918-be17-3d4adef11cad","ios":"levelo://app?vid=c007ab80-c099-4918-be17-3d4adef11cad"},"vehicle_type_id":"4","last_reported":1702494363,"current_range_meters":17200,"station_id":"ce4bgt92rcd13ifvqcg0","pricing_plan_id":"free"},{"bike_id":"dc68debd-6203-4696-b9a5-55eea857c5a0","system_id":"levelo_inurba_marseille","lat":43.317155,"lon":5.376812,"is_reserved":false,"is_disabled":false,"rental_uris":{"android":"levelo://app?vid=dc68debd-6203-4696-b9a5-55eea857c5a0","ios":"levelo://app?vid=dc68debd-6203-4696-b9a5-55eea857c5a0"},"vehicle_type_id":"4","last_reported":1702494363,"current_range_meters":22800,"station_id":"ce4bgth2rcd13ifvqch0","pricing_plan_id":"free"},{"bike_id":"227b454f-cbfd-4a97-b4c2-968569f53a3b","system_id":"levelo_inurba_marseille","lat":43.315293,"lon":5.380349,"is_reserved":false,"is_disabled":false,"rental_uris":{"android":"levelo://app?vid=227b454f-cbfd-4a97-b4c2-968569f53a3b","ios":"levelo://app?vid=227b454f-cbfd-4a97-b4c2-968569f53a3b"},"vehicle_type_id":"4","last_reported":1702494363,"current_range_meters":28000,"station_id":"ce4bhsp2rcd13ifvqi50","pricing_plan_id":"free"},{"bike_id":"b795cd07-df6b-4c4c-8507-2dcae79f9bad","system_id":"levelo_inurba_marseille","lat":43.309039,"lon":5.371797,"is_reserved":false,"is_disabled":false,"rental_uris":{"android":"levelo://app?vid=b795cd07-df6b-4c4c-8507-2dcae79f9bad","ios":"levelo://app?vid=b795cd07-df6b-4c4c-8507-2dcae79f9bad"},"vehicle_type_id":"4","last_reported":1702494363,"current_range_meters":4000,"station_id":"ce4bguh2rcd13ifvqckg","pricing_plan_id":"free"},{"bike_id":"8c6d566c-fd2c-4a1e-b0f3-9e4cf2d76ecc","system_id":"levelo_inurba_marseille","lat":43.320013,"lon":5.38161,"is_reserved":false,"is_disabled":false,"rental_uris":{"android":"levelo://app?vid=8c6d566c-fd2c-4a1e-b0f3-9e4cf2d76ecc","ios":"levelo://app?vid=8c6d566c-fd2c-4a1e-b0f3-9e4cf2d76ecc"},"vehicle_type_id":"4","last_reported":1702494363,"current_range_meters":10400,"station_id":"ce4bhr12rcd13ifvqhpg","pricing_plan_id":"free"},{"bike_id":"55b38126-cdb2-413d-87ea-1589df6d71bd","system_id":"levelo_inurba_marseille","lat":43.299222,"lon":5.365554,"is_reserved":false,"is_disabled":false,"rental_uris":{"android":"levelo://app?vid=55b38126-cdb2-413d-87ea-1589df6d71bd","ios":"levelo://app?vid=55b38126-cdb2-413d-87ea-1589df6d71bd"},"vehicle_type_id":"4","last_reported":1702494363,"current_range_meters":4800,"station_id":"ce4bgm92rcd13ifvqbr0","pricing_plan_id":"free"},{"bike_id":"5867a9a3-bf7d-4c0b-8251-10ceaef5a9f6","system_id":"levelo_inurba_marseille","lat":43.305364,"lon":5.384119,"is_reserved":false,"is_disabled":false,"rental_uris":{"android":"levelo://app?vid=5867a9a3-bf7d-4c0b-8251-10ceaef5a9f6","ios":"levelo://app?vid=5867a9a3-bf7d-4c0b-8251-10ceaef5a9f6"},"vehicle_type_id":"4","last_reported":1702494363,"current_range_meters":7600,"station_id":"ce4bgg92rcd13ifvqb30","pricing_plan_id":"free"},{"bike_id":"00957afa-27fa-4de9-b612-01f5d58fd240","system_id":"levelo_inurba_marseille","lat":43.298433,"lon":5.362774,"is_reserved":false,"is_disabled":false,"rental_uris":{"android":"levelo://app?vid=00957afa-27fa-4de9-b612-01f5d58fd240","ios":"levelo://app?vid=00957afa-27fa-4de9-b612-01f5d58fd240"},"vehicle_type_id":"4","last_reported":1702494363,"current_range_meters":25600,"station_id":"ce4bgpp2rcd13ifvqc3g","pricing_plan_id":"free"},{"bike_id":"77a6c46d-d898-4e4f-8846-efa91689c7f0","system_id":"levelo_inurba_marseille","lat":43.302006,"lon":5.38065,"is_reserved":false,"is_disabled":false,"rental_uris":{"android":"levelo://app?vid=77a6c46d-d898-4e4f-8846-efa91689c7f0","ios":"levelo://app?vid=77a6c46d-d898-4e4f-8846-efa91689c7f0"},"vehicle_type_id":"4","last_reported":1702494363,"current_range_meters":0,"station_id":"","pricing_plan_id":"free"},{"bike_id":"0b7c3de2-3076-4667-93bd-89cbae968e42","system_id":"levelo_inurba_marseille","lat":43.311722,"lon":5.387247,"is_reserved":false,"is_disabled":false,"rental_uris":{"android":"levelo://app?vid=0b7c3de2-3076-4667-93bd-89cbae968e42","ios":"levelo://app?vid=0b7c3de2-3076-4667-93bd-89cbae968e42"},"vehicle_type_id":"4","last_reported":1702494363,"current_range_meters":23600,"station_id":"ce4bgv12rcd13ifvqcp0","pricing_plan_id":"free"},{"bike_id":"5a55f5f0-f311-407c-95c3-e7b1788970dc","system_id":"levelo_inurba_marseille","lat":43.322872,"lon":5.382756,"is_reserved":false,"is_disabled":false,"rental_uris":{"android":"levelo://app?vid=5a55f5f0-f311-407c-95c3-e7b1788970dc","ios":"levelo://app?vid=5a55f5f0-f311-407c-95c3-e7b1788970dc"},"vehicle_type_id":"4","last_reported":1702494363,"current_range_meters":4000,"station_id":"ce4bhr12rcd13ifvqhqg","pricing_plan_id":"free"},{"bike_id":"1c9c228c-5954-4155-a104-2a72ed6d3f0b","system_id":"levelo_inurba_marseille","lat":43.322872,"lon":5.382756,"is_reserved":false,"is_disabled":false,"rental_uris":{"android":"levelo://app?vid=1c9c228c-5954-4155-a104-2a72ed6d3f0b","ios":"levelo://app?vid=1c9c228c-5954-4155-a104-2a72ed6d3f0b"},"vehicle_type_id":"4","last_reported":1702494363,"current_range_meters":26400,"station_id":"ce4bhr12rcd13ifvqhqg","pricing_plan_id":"free"},{"bike_id":"bc06b289-dab8-4815-820b-662dd218c477","system_id":"levelo_inurba_marseille","lat":43.32831,"lon":5.36686,"is_reserved":false,"is_disabled":false,"rental_uris":{"android":"levelo://app?vid=bc06b289-dab8-4815-820b-662dd218c477","ios":"levelo://app?vid=bc06b289-dab8-4815-820b-662dd218c477"},"vehicle_type_id":"4","last_reported":1702494363,"current_range_meters":3200,"station_id":"ce4bhs92rcd13ifvqi0g","pricing_plan_id":"free"},{"bike_id":"d56d1a06-1d7e-4ef8-9dd3-7f7d5ba586be","system_id":"levelo_inurba_marseille","lat":43.317557,"lon":5.390173,"is_reserved":false,"is_disabled":false,"rental_uris":{"android":"levelo://app?vid=d56d1a06-1d7e-4ef8-9dd3-7f7d5ba586be","ios":"levelo://app?vid=d56d1a06-1d7e-4ef8-9dd3-7f7d5ba586be"},"vehicle_type_id":"4","last_reported":1702494363,"current_range_meters":3600,"station_id":"ce4bhqp2rcd13ifvqhng","pricing_plan_id":"free"},{"bike_id":"39c63bee-16fb-4aaa-a1ce-cdca7434e438","system_id":"levelo_inurba_marseille","lat":43.317557,"lon":5.390173,"is_reserved":false,"is_disabled":false,"rental_uris":{"android":"levelo://app?vid=39c63bee-16fb-4aaa-a1ce-cdca7434e438","ios":"levelo://app?vid=39c63bee-16fb-4aaa-a1ce-cdca7434e438"},"vehicle_type_id":"4","last_reported":1702494363,"current_range_meters":4800,"station_id":"ce4bhqp2rcd13ifvqhng","pricing_plan_id":"free"},{"bike_id":"b901f3c6-78b1-4b6b-b078-6b0e1966e5c6","system_id":"levelo_inurba_marseille","lat":43.317557,"lon":5.390173,"is_reserved":false,"is_disabled":false,"rental_uris":{"android":"levelo://app?vid=b901f3c6-78b1-4b6b-b078-6b0e1966e5c6","ios":"levelo://app?vid=b901f3c6-78b1-4b6b-b078-6b0e1966e5c6"},"vehicle_type_id":"4","last_reported":1702494363,"current_range_meters":8800,"station_id":"ce4bhqp2rcd13ifvqhng","pricing_plan_id":"free"},{"bike_id":"514a2e21-a4ee-4c47-b859-6ae8bc7ca2fd","system_id":"levelo_inurba_marseille","lat":43.317557,"lon":5.390173,"is_reserved":false,"is_disabled":false,"rental_uris":{"android":"levelo://app?vid=514a2e21-a4ee-4c47-b859-6ae8bc7ca2fd","ios":"levelo://app?vid=514a2e21-a4ee-4c47-b859-6ae8bc7ca2fd"},"vehicle_type_id":"4","last_reported":1702494363,"current_range_meters":2400,"station_id":"ce4bhqp2rcd13ifvqhng","pricing_plan_id":"free"},{"bike_id":"e9d78157-ab4a-41df-a9e7-085811189ed4","system_id":"levelo_inurba_marseille","lat":43.317557,"lon":5.390173,"is_reserved":false,"is_disabled":false,"rental_uris":{"android":"levelo://app?vid=e9d78157-ab4a-41df-a9e7-085811189ed4","ios":"levelo://app?vid=e9d78157-ab4a-41df-a9e7-085811189ed4"},"vehicle_type_id":"4","last_reported":1702494363,"current_range_meters":28800,"station_id":"ce4bhqp2rcd13ifvqhng","pricing_plan_id":"free"},{"bike_id":"f6026bf5-7c44-4401-bc94-69022bf6134b","system_id":"levelo_inurba_marseille","lat":43.295748,"lon":5.37522,"is_reserved":false,"is_disabled":false,"rental_uris":{"android":"levelo://app?vid=f6026bf5-7c44-4401-bc94-69022bf6134b","ios":"levelo://app?vid=f6026bf5-7c44-4401-bc94-69022bf6134b"},"vehicle_type_id":"4","last_reported":1702494363,"current_range_meters":0,"station_id":"ce4bgh92rcd13ifvqb50","pricing_plan_id":"free"},{"bike_id":"e9155207-d44e-4d7e-ac7b-0eeb4b511e3b","system_id":"levelo_inurba_marseille","lat":43.29987,"lon":5.38487,"is_reserved":false,"is_disabled":false,"rental_uris":{"android":"levelo://app?vid=e9155207-d44e-4d7e-ac7b-0eeb4b511e3b","ios":"levelo://app?vid=e9155207-d44e-4d7e-ac7b-0eeb4b511e3b"},"vehicle_type_id":"4","last_reported":1702494363,"current_range_meters":0,"station_id":"ce4bgj92rcd13ifvqbd0","pricing_plan_id":"free"},{"bike_id":"ef76321a-9b04-47b4-92de-d682e9f5920f","system_id":"levelo_inurba_marseille","lat":43.32366,"lon":5.3888,"is_reserved":false,"is_disabled":false,"rental_uris":{"android":"levelo://app?vid=ef76321a-9b04-47b4-92de-d682e9f5920f","ios":"levelo://app?vid=ef76321a-9b04-47b4-92de-d682e9f5920f"},"vehicle_type_id":"4","last_reported":1702494363,"current_range_meters":5200,"station_id":"ce4bhqp2rcd13ifvqhog","pricing_plan_id":"free"},{"bike_id":"8ab9895a-c9b8-42e7-a73a-c3d8ad10cfa2","system_id":"levelo_inurba_marseille","lat":43.32363,"lon":5.38885,"is_reserved":false,"is_disabled":false,"rental_uris":{"android":"levelo://app?vid=8ab9895a-c9b8-42e7-a73a-c3d8ad10cfa2","ios":"levelo://app?vid=8ab9895a-c9b8-42e7-a73a-c3d8ad10cfa2"},"vehicle_type_id":"4","last_reported":1702494363,"current_range_meters":4800,"station_id":"ce4bhqp2rcd13ifvqhog","pricing_plan_id":"free"},{"bike_id":"03f6119d-7ba1-4608-b75b-b20f3efbdaef","system_id":"levelo_inurba_marseille","lat":43.3237,"lon":5.3888,"is_reserved":false,"is_disabled":false,"rental_uris":{"android":"levelo://app?vid=03f6119d-7ba1-4608-b75b-b20f3efbdaef","ios":"levelo://app?vid=03f6119d-7ba1-4608-b75b-b20f3efbdaef"},"vehicle_type_id":"4","last_reported":1702494363,"current_range_meters":14400,"station_id":"ce4bhqp2rcd13ifvqhog","pricing_plan_id":"free"},{"bike_id":"66fe58df-aec5-40bc-8f13-2e16e5356f02","system_id":"levelo_inurba_marseille","lat":43.293009,"lon":5.374584,"is_reserved":false,"is_disabled":false,"rental_uris":{"android":"levelo://app?vid=66fe58df-aec5-40bc-8f13-2e16e5356f02","ios":"levelo://app?vid=66fe58df-aec5-40bc-8f13-2e16e5356f02"},"vehicle_type_id":"4","last_reported":1702494363,"current_range_meters":18000,"station_id":"ce4bgi12rcd13ifvqb70","pricing_plan_id":"free"},{"bike_id":"bb486e0c-e9f2-4761-8f58-5e720c6ba53c","system_id":"levelo_inurba_marseille","lat":43.305994,"lon":5.393687,"is_reserved":false,"is_disabled":false,"rental_uris":{"android":"levelo://app?vid=bb486e0c-e9f2-4761-8f58-5e720c6ba53c","ios":"levelo://app?vid=bb486e0c-e9f2-4761-8f58-5e720c6ba53c"},"vehicle_type_id":"4","last_reported":1702494363,"current_range_meters":18000,"station_id":"ce4bh0p2rcd13ifvqd80","pricing_plan_id":"free"},{"bike_id":"ebdb5ca3-54b6-4ccc-ac19-eb3990b964f8","system_id":"levelo_inurba_marseille","lat":43.305994,"lon":5.393687,"is_reserved":false,"is_disabled":false,"rental_uris":{"android":"levelo://app?vid=ebdb5ca3-54b6-4ccc-ac19-eb3990b964f8","ios":"levelo://app?vid=ebdb5ca3-54b6-4ccc-ac19-eb3990b964f8"},"vehicle_type_id":"4","last_reported":1702494363,"current_range_meters":20000,"station_id":"ce4bh0p2rcd13ifvqd80","pricing_plan_id":"free"},{"bike_id":"8842fefc-db0b-46a8-8bd3-9d934e5f87de","system_id":"levelo_inurba_marseille","lat":43.2936,"lon":5.37835,"is_reserved":false,"is_disabled":false,"rental_uris":{"android":"levelo://app?vid=8842fefc-db0b-46a8-8bd3-9d934e5f87de","ios":"levelo://app?vid=8842fefc-db0b-46a8-8bd3-9d934e5f87de"},"vehicle_type_id":"4","last_reported":1702494363,"current_range_meters":6800,"station_id":"ce4bgjh2rcd13ifvqbf0","pricing_plan_id":"free"},{"bike_id":"831e3817-a6c9-429b-be4f-c6bebf51f027","system_id":"levelo_inurba_marseille","lat":43.291975,"lon":5.35814,"is_reserved":false,"is_disabled":false,"rental_uris":{"android":"levelo://app?vid=831e3817-a6c9-429b-be4f-c6bebf51f027","ios":"levelo://app?vid=831e3817-a6c9-429b-be4f-c6bebf51f027"},"vehicle_type_id":"4","last_reported":1702494363,"current_range_meters":0,"station_id":"ce4bhb12rcd13ifvqel0","pricing_plan_id":"free"},{"bike_id":"e7e2b0fa-c48c-4c63-bec9-90f54738ea82","system_id":"levelo_inurba_marseille","lat":43.313291,"lon":5.396838,"is_reserved":false,"is_disabled":false,"rental_uris":{"android":"levelo://app?vid=e7e2b0fa-c48c-4c63-bec9-90f54738ea82","ios":"levelo://app?vid=e7e2b0fa-c48c-4c63-bec9-90f54738ea82"},"vehicle_type_id":"4","last_reported":1702494363,"current_range_meters":11600,"station_id":"ce4bgvp2rcd13ifvqcu0","pricing_plan_id":"free"},{"bike_id":"0ea1feb3-e8f4-4c82-991e-1400fd7a921a","system_id":"levelo_inurba_marseille","lat":43.313291,"lon":5.396838,"is_reserved":false,"is_disabled":false,"rental_uris":{"android":"levelo://app?vid=0ea1feb3-e8f4-4c82-991e-1400fd7a921a","ios":"levelo://app?vid=0ea1feb3-e8f4-4c82-991e-1400fd7a921a"},"vehicle_type_id":"4","last_reported":1702494363,"current_range_meters":3200,"station_id":"ce4bgvp2rcd13ifvqcu0","pricing_plan_id":"free"},{"bike_id":"ac36c72b-4d79-486c-88c4-37f6e9f36b7e","system_id":"levelo_inurba_marseille","lat":43.313291,"lon":5.396838,"is_reserved":false,"is_disabled":false,"rental_uris":{"android":"levelo://app?vid=ac36c72b-4d79-486c-88c4-37f6e9f36b7e","ios":"levelo://app?vid=ac36c72b-4d79-486c-88c4-37f6e9f36b7e"},"vehicle_type_id":"4","last_reported":1702494363,"current_range_meters":13600,"station_id":"ce4bgvp2rcd13ifvqcu0","pricing_plan_id":"free"},{"bike_id":"513d5e1b-2666-4cf6-9ce7-8edd12bf70ec","system_id":"levelo_inurba_marseille","lat":43.313291,"lon":5.396838,"is_reserved":false,"is_disabled":false,"rental_uris":{"android":"levelo://app?vid=513d5e1b-2666-4cf6-9ce7-8edd12bf70ec","ios":"levelo://app?vid=513d5e1b-2666-4cf6-9ce7-8edd12bf70ec"},"vehicle_type_id":"4","last_reported":1702494363,"current_range_meters":21600,"station_id":"ce4bgvp2rcd13ifvqcu0","pricing_plan_id":"free"},{"bike_id":"c906f317-7ef2-467c-8413-6ee0826fc9d3","system_id":"levelo_inurba_marseille","lat":43.290779,"lon":5.371482,"is_reserved":false,"is_disabled":false,"rental_uris":{"android":"levelo://app?vid=c906f317-7ef2-467c-8413-6ee0826fc9d3","ios":"levelo://app?vid=c906f317-7ef2-467c-8413-6ee0826fc9d3"},"vehicle_type_id":"4","last_reported":1702494363,"current_range_meters":30400,"station_id":"ce4bh5p2rcd13ifvqe4g","pricing_plan_id":"free"},{"bike_id":"e6b755ba-e3b1-4c0a-aaf8-4e6965ab8980","system_id":"levelo_inurba_marseille","lat":43.290631,"lon":5.359244,"is_reserved":false,"is_disabled":false,"rental_uris":{"android":"levelo://app?vid=e6b755ba-e3b1-4c0a-aaf8-4e6965ab8980","ios":"levelo://app?vid=e6b755ba-e3b1-4c0a-aaf8-4e6965ab8980"},"vehicle_type_id":"4","last_reported":1702494363,"current_range_meters":13200,"station_id":"ce4bha92rcd13ifvqeg0","pricing_plan_id":"free"},{"bike_id":"c8e4c24e-8f41-4dc3-97de-16dddc05a2b5","system_id":"levelo_inurba_marseille","lat":43.294153,"lon":5.386305,"is_reserved":false,"is_disabled":false,"rental_uris":{"android":"levelo://app?vid=c8e4c24e-8f41-4dc3-97de-16dddc05a2b5","ios":"levelo://app?vid=c8e4c24e-8f41-4dc3-97de-16dddc05a2b5"},"vehicle_type_id":"4","last_reported":1702494363,"current_range_meters":10800,"station_id":"ce4bh2h2rcd13ifvqdh0","pricing_plan_id":"free"},{"bike_id":"6d4069ff-d491-4555-8d91-dd254cbd8759","system_id":"levelo_inurba_marseille","lat":43.289184,"lon":5.366408,"is_reserved":false,"is_disabled":false,"rental_uris":{"android":"levelo://app?vid=6d4069ff-d491-4555-8d91-dd254cbd8759","ios":"levelo://app?vid=6d4069ff-d491-4555-8d91-dd254cbd8759"},"vehicle_type_id":"4","last_reported":1702494363,"current_range_meters":0,"station_id":"ce4bhap2rcd13ifvqek0","pricing_plan_id":"free"},{"bike_id":"0a75e64e-3c37-473e-92cc-4953104d2425","system_id":"levelo_inurba_marseille","lat":43.33044,"lon":5.38919,"is_reserved":false,"is_disabled":false,"rental_uris":{"android":"levelo://app?vid=0a75e64e-3c37-473e-92cc-4953104d2425","ios":"levelo://app?vid=0a75e64e-3c37-473e-92cc-4953104d2425"},"vehicle_type_id":"4","last_reported":1702494363,"current_range_meters":24000,"station_id":"ce4bhr92rcd13ifvqhrg","pricing_plan_id":"free"},{"bike_id":"b3a0187c-7654-42e3-ba32-24f28bd0cfe3","system_id":"levelo_inurba_marseille","lat":43.290103,"lon":5.356114,"is_reserved":false,"is_disabled":false,"rental_uris":{"android":"levelo://app?vid=b3a0187c-7654-42e3-ba32-24f28bd0cfe3","ios":"levelo://app?vid=b3a0187c-7654-42e3-ba32-24f28bd0cfe3"},"vehicle_type_id":"4","last_reported":1702494363,"current_range_meters":17600,"station_id":"ce4bhb92rcd13ifvqen0","pricing_plan_id":"free"},{"bike_id":"55cc1ddf-1dcc-4e89-9942-eda0206f7f0a","system_id":"levelo_inurba_marseille","lat":43.290104,"lon":5.356111,"is_reserved":false,"is_disabled":false,"rental_uris":{"android":"levelo://app?vid=55cc1ddf-1dcc-4e89-9942-eda0206f7f0a","ios":"levelo://app?vid=55cc1ddf-1dcc-4e89-9942-eda0206f7f0a"},"vehicle_type_id":"4","last_reported":1702494363,"current_range_meters":9600,"station_id":"ce4bhb92rcd13ifvqen0","pricing_plan_id":"free"},{"bike_id":"247a22c0-5e16-4a0b-924e-e8ffac8eecd7","system_id":"levelo_inurba_marseille","lat":43.290995,"lon":5.381361,"is_reserved":false,"is_disabled":false,"rental_uris":{"android":"levelo://app?vid=247a22c0-5e16-4a0b-924e-e8ffac8eecd7","ios":"levelo://app?vid=247a22c0-5e16-4a0b-924e-e8ffac8eecd7"},"vehicle_type_id":"4","last_reported":1702494363,"current_range_meters":7200,"station_id":"ce4bh512rcd13ifvqe2g","pricing_plan_id":"free"},{"bike_id":"e69fe0ba-44e9-46e4-88e6-b53e2be48487","system_id":"levelo_inurba_marseille","lat":43.29787,"lon":5.39334,"is_reserved":false,"is_disabled":false,"rental_uris":{"android":"levelo://app?vid=e69fe0ba-44e9-46e4-88e6-b53e2be48487","ios":"levelo://app?vid=e69fe0ba-44e9-46e4-88e6-b53e2be48487"},"vehicle_type_id":"4","last_reported":1702494363,"current_range_meters":21600,"station_id":"chh1huq6cuj3fo74tm60","pricing_plan_id":"free"},{"bike_id":"f0271aa3-4738-4d36-90cc-2cae7eb415bf","system_id":"levelo_inurba_marseille","lat":43.29789,"lon":5.39339,"is_reserved":false,"is_disabled":false,"rental_uris":{"android":"levelo://app?vid=f0271aa3-4738-4d36-90cc-2cae7eb415bf","ios":"levelo://app?vid=f0271aa3-4738-4d36-90cc-2cae7eb415bf"},"vehicle_type_id":"4","last_reported":1702494363,"current_range_meters":6000,"station_id":"chh1huq6cuj3fo74tm60","pricing_plan_id":"free"},{"bike_id":"fe99adc0-fa24-4467-bd4e-5b02222cb83c","system_id":"levelo_inurba_marseille","lat":43.297815,"lon":5.393548,"is_reserved":false,"is_disabled":false,"rental_uris":{"android":"levelo://app?vid=fe99adc0-fa24-4467-bd4e-5b02222cb83c","ios":"levelo://app?vid=fe99adc0-fa24-4467-bd4e-5b02222cb83c"},"vehicle_type_id":"4","last_reported":1702494363,"current_range_meters":9200,"station_id":"chh1huq6cuj3fo74tm60","pricing_plan_id":"free"},{"bike_id":"8d8c9a2e-a015-414e-9875-0c4d53e29dcb","system_id":"levelo_inurba_marseille","lat":43.288565,"lon":5.35852,"is_reserved":false,"is_disabled":false,"rental_uris":{"android":"levelo://app?vid=8d8c9a2e-a015-414e-9875-0c4d53e29dcb","ios":"levelo://app?vid=8d8c9a2e-a015-414e-9875-0c4d53e29dcb"},"vehicle_type_id":"4","last_reported":1702494363,"current_range_meters":29200,"station_id":"ce4bhb12rcd13ifvqem0","pricing_plan_id":"free"},{"bike_id":"bd16df03-7d8a-4fd6-b1bf-4d3031e7c881","system_id":"levelo_inurba_marseille","lat":43.31279,"lon":5.4017,"is_reserved":false,"is_disabled":false,"rental_uris":{"android":"levelo://app?vid=bd16df03-7d8a-4fd6-b1bf-4d3031e7c881","ios":"levelo://app?vid=bd16df03-7d8a-4fd6-b1bf-4d3031e7c881"},"vehicle_type_id":"4","last_reported":1702494363,"current_range_meters":18400,"station_id":"ce4bh092rcd13ifvqd30","pricing_plan_id":"free"},{"bike_id":"a9fd12e2-72d1-4109-bab3-5ff3ea2ee72b","system_id":"levelo_inurba_marseille","lat":43.312609,"lon":5.401662,"is_reserved":false,"is_disabled":false,"rental_uris":{"android":"levelo://app?vid=a9fd12e2-72d1-4109-bab3-5ff3ea2ee72b","ios":"levelo://app?vid=a9fd12e2-72d1-4109-bab3-5ff3ea2ee72b"},"vehicle_type_id":"4","last_reported":1702494363,"current_range_meters":0,"station_id":"ce4bh092rcd13ifvqd30","pricing_plan_id":"free"},{"bike_id":"43acfc2f-50b3-4b64-97eb-09336a190b27","system_id":"levelo_inurba_marseille","lat":43.31278,"lon":5.40181,"is_reserved":false,"is_disabled":false,"rental_uris":{"android":"levelo://app?vid=43acfc2f-50b3-4b64-97eb-09336a190b27","ios":"levelo://app?vid=43acfc2f-50b3-4b64-97eb-09336a190b27"},"vehicle_type_id":"4","last_reported":1702494363,"current_range_meters":10000,"station_id":"ce4bh092rcd13ifvqd30","pricing_plan_id":"free"},{"bike_id":"dcf80175-f7fa-4773-a7f6-ef6a58a4588e","system_id":"levelo_inurba_marseille","lat":43.30926,"lon":5.40149,"is_reserved":false,"is_disabled":false,"rental_uris":{"android":"levelo://app?vid=dcf80175-f7fa-4773-a7f6-ef6a58a4588e","ios":"levelo://app?vid=dcf80175-f7fa-4773-a7f6-ef6a58a4588e"},"vehicle_type_id":"4","last_reported":1702494363,"current_range_meters":10800,"station_id":"ce4bgvp2rcd13ifvqct0","pricing_plan_id":"free"},{"bike_id":"1f731f79-da92-4bc7-b21b-0abd1ee03930","system_id":"levelo_inurba_marseille","lat":43.33753,"lon":5.37462,"is_reserved":false,"is_disabled":false,"rental_uris":{"android":"levelo://app?vid=1f731f79-da92-4bc7-b21b-0abd1ee03930","ios":"levelo://app?vid=1f731f79-da92-4bc7-b21b-0abd1ee03930"},"vehicle_type_id":"4","last_reported":1702494363,"current_range_meters":25600,"station_id":"","pricing_plan_id":"free"},{"bike_id":"fa23bc4c-3492-4ba5-ab13-c42e18316583","system_id":"levelo_inurba_marseille","lat":43.337652,"lon":5.374628,"is_reserved":false,"is_disabled":false,"rental_uris":{"android":"levelo://app?vid=fa23bc4c-3492-4ba5-ab13-c42e18316583","ios":"levelo://app?vid=fa23bc4c-3492-4ba5-ab13-c42e18316583"},"vehicle_type_id":"4","last_reported":1702494363,"current_range_meters":30800,"station_id":"","pricing_plan_id":"free"},{"bike_id":"c4a8c53f-640f-4509-85ad-294aaa640796","system_id":"levelo_inurba_marseille","lat":43.30137,"lon":5.39865,"is_reserved":false,"is_disabled":false,"rental_uris":{"android":"levelo://app?vid=c4a8c53f-640f-4509-85ad-294aaa640796","ios":"levelo://app?vid=c4a8c53f-640f-4509-85ad-294aaa640796"},"vehicle_type_id":"4","last_reported":1702494363,"current_range_meters":8000,"station_id":"ce4bh0h2rcd13ifvqd40","pricing_plan_id":"free"},{"bike_id":"549088ef-6fda-4adf-b486-377ec17cc7d1","system_id":"levelo_inurba_marseille","lat":43.301117,"lon":5.398795,"is_reserved":false,"is_disabled":false,"rental_uris":{"android":"levelo://app?vid=549088ef-6fda-4adf-b486-377ec17cc7d1","ios":"levelo://app?vid=549088ef-6fda-4adf-b486-377ec17cc7d1"},"vehicle_type_id":"4","last_reported":1702494363,"current_range_meters":17600,"station_id":"ce4bh0h2rcd13ifvqd40","pricing_plan_id":"free"},{"bike_id":"f0d70e3a-0236-4546-99a7-bae9167c0494","system_id":"levelo_inurba_marseille","lat":43.28727,"lon":5.36078,"is_reserved":false,"is_disabled":false,"rental_uris":{"android":"levelo://app?vid=f0d70e3a-0236-4546-99a7-bae9167c0494","ios":"levelo://app?vid=f0d70e3a-0236-4546-99a7-bae9167c0494"},"vehicle_type_id":"4","last_reported":1702494363,"current_range_meters":27200,"station_id":"cki0cbj6b192h4jlfktg","pricing_plan_id":"free"},{"bike_id":"d26d58e1-6968-4755-a5df-fa3aa7d263a0","system_id":"levelo_inurba_marseille","lat":43.28727,"lon":5.36078,"is_reserved":false,"is_disabled":false,"rental_uris":{"android":"levelo://app?vid=d26d58e1-6968-4755-a5df-fa3aa7d263a0","ios":"levelo://app?vid=d26d58e1-6968-4755-a5df-fa3aa7d263a0"},"vehicle_type_id":"4","last_reported":1702494363,"current_range_meters":25200,"station_id":"cki0cbj6b192h4jlfktg","pricing_plan_id":"free"},{"bike_id":"559572e7-1740-4644-81f7-ecdbc76f722c","system_id":"levelo_inurba_marseille","lat":43.2952,"lon":5.39403,"is_reserved":false,"is_disabled":false,"rental_uris":{"android":"levelo://app?vid=559572e7-1740-4644-81f7-ecdbc76f722c","ios":"levelo://app?vid=559572e7-1740-4644-81f7-ecdbc76f722c"},"vehicle_type_id":"4","last_reported":1702494363,"current_range_meters":0,"station_id":"ce4bh292rcd13ifvqdf0","pricing_plan_id":"free"},{"bike_id":"26eb5b40-726f-4900-97db-cbe08026adce","system_id":"levelo_inurba_marseille","lat":43.302759,"lon":5.400793,"is_reserved":false,"is_disabled":false,"rental_uris":{"android":"levelo://app?vid=26eb5b40-726f-4900-97db-cbe08026adce","ios":"levelo://app?vid=26eb5b40-726f-4900-97db-cbe08026adce"},"vehicle_type_id":"4","last_reported":1702494363,"current_range_meters":8400,"station_id":"ce4bgvh2rcd13ifvqcs0","pricing_plan_id":"free"},{"bike_id":"06b82af0-5f35-4735-a983-ab36470323cd","system_id":"levelo_inurba_marseille","lat":43.302759,"lon":5.400793,"is_reserved":false,"is_disabled":false,"rental_uris":{"android":"levelo://app?vid=06b82af0-5f35-4735-a983-ab36470323cd","ios":"levelo://app?vid=06b82af0-5f35-4735-a983-ab36470323cd"},"vehicle_type_id":"4","last_reported":1702494363,"current_range_meters":4000,"station_id":"ce4bgvh2rcd13ifvqcs0","pricing_plan_id":"free"},{"bike_id":"5b4537f9-f154-4fd8-8bbc-985443715f2c","system_id":"levelo_inurba_marseille","lat":43.289307,"lon":5.38406,"is_reserved":false,"is_disabled":false,"rental_uris":{"android":"levelo://app?vid=5b4537f9-f154-4fd8-8bbc-985443715f2c","ios":"levelo://app?vid=5b4537f9-f154-4fd8-8bbc-985443715f2c"},"vehicle_type_id":"4","last_reported":1702494363,"current_range_meters":8000,"station_id":"ce4bh612rcd13ifvqe6g","pricing_plan_id":"free"},{"bike_id":"44b0052b-6db7-44c1-bb81-70d365a5ccf5","system_id":"levelo_inurba_marseille","lat":43.302759,"lon":5.400793,"is_reserved":false,"is_disabled":false,"rental_uris":{"android":"levelo://app?vid=44b0052b-6db7-44c1-bb81-70d365a5ccf5","ios":"levelo://app?vid=44b0052b-6db7-44c1-bb81-70d365a5ccf5"},"vehicle_type_id":"4","last_reported":1702494363,"current_range_meters":18000,"station_id":"ce4bgvh2rcd13ifvqcs0","pricing_plan_id":"free"},{"bike_id":"38e3923d-86b4-4bb9-9a3e-8d69d1583650","system_id":"levelo_inurba_marseille","lat":43.290336,"lon":5.386425,"is_reserved":false,"is_disabled":false,"rental_uris":{"android":"levelo://app?vid=38e3923d-86b4-4bb9-9a3e-8d69d1583650","ios":"levelo://app?vid=38e3923d-86b4-4bb9-9a3e-8d69d1583650"},"vehicle_type_id":"4","last_reported":1702494363,"current_range_meters":0,"station_id":"ce4bh4p2rcd13ifvqe0g","pricing_plan_id":"free"},{"bike_id":"4dd20072-a2f9-4ab0-a5dd-0db99964b39d","system_id":"levelo_inurba_marseille","lat":43.302759,"lon":5.400793,"is_reserved":false,"is_disabled":false,"rental_uris":{"android":"levelo://app?vid=4dd20072-a2f9-4ab0-a5dd-0db99964b39d","ios":"levelo://app?vid=4dd20072-a2f9-4ab0-a5dd-0db99964b39d"},"vehicle_type_id":"4","last_reported":1702494363,"current_range_meters":26800,"station_id":"ce4bgvh2rcd13ifvqcs0","pricing_plan_id":"free"},{"bike_id":"622ade51-8287-4814-a097-643e7640ebf0","system_id":"levelo_inurba_marseille","lat":43.302759,"lon":5.400793,"is_reserved":false,"is_disabled":false,"rental_uris":{"android":"levelo://app?vid=622ade51-8287-4814-a097-643e7640ebf0","ios":"levelo://app?vid=622ade51-8287-4814-a097-643e7640ebf0"},"vehicle_type_id":"4","last_reported":1702494363,"current_range_meters":25200,"station_id":"ce4bgvh2rcd13ifvqcs0","pricing_plan_id":"free"},{"bike_id":"7c3aa0ce-2d6a-4a3c-8eb7-19463b62cba2","system_id":"levelo_inurba_marseille","lat":43.291994,"lon":5.392907,"is_reserved":false,"is_disabled":false,"rental_uris":{"android":"levelo://app?vid=7c3aa0ce-2d6a-4a3c-8eb7-19463b62cba2","ios":"levelo://app?vid=7c3aa0ce-2d6a-4a3c-8eb7-19463b62cba2"},"vehicle_type_id":"4","last_reported":1702494363,"current_range_meters":12800,"station_id":"ce4bh192rcd13ifvqdd0","pricing_plan_id":"free"},{"bike_id":"3e85b89d-01eb-45e6-ae10-f0c551e41f3e","system_id":"levelo_inurba_marseille","lat":43.284534,"lon":5.358662,"is_reserved":false,"is_disabled":false,"rental_uris":{"android":"levelo://app?vid=3e85b89d-01eb-45e6-ae10-f0c551e41f3e","ios":"levelo://app?vid=3e85b89d-01eb-45e6-ae10-f0c551e41f3e"},"vehicle_type_id":"4","last_reported":1702494363,"current_range_meters":24400,"station_id":"ce4bhah2rcd13ifvqei0","pricing_plan_id":"free"},{"bike_id":"27e69300-9440-4d8d-9fe2-4c2a3d31565f","system_id":"levelo_inurba_marseille","lat":43.284534,"lon":5.358662,"is_reserved":false,"is_disabled":false,"rental_uris":{"android":"levelo://app?vid=27e69300-9440-4d8d-9fe2-4c2a3d31565f","ios":"levelo://app?vid=27e69300-9440-4d8d-9fe2-4c2a3d31565f"},"vehicle_type_id":"4","last_reported":1702494363,"current_range_meters":28800,"station_id":"ce4bhah2rcd13ifvqei0","pricing_plan_id":"free"},{"bike_id":"e3c167b8-4bc0-4261-9f55-681ba47e8c9d","system_id":"levelo_inurba_marseille","lat":43.295713,"lon":5.399639,"is_reserved":false,"is_disabled":false,"rental_uris":{"android":"levelo://app?vid=e3c167b8-4bc0-4261-9f55-681ba47e8c9d","ios":"levelo://app?vid=e3c167b8-4bc0-4261-9f55-681ba47e8c9d"},"vehicle_type_id":"4","last_reported":1702494363,"current_range_meters":0,"station_id":"ce4bh312rcd13ifvqdj0","pricing_plan_id":"free"},{"bike_id":"6102db77-d5a2-4952-95ba-72a2575c2e79","system_id":"levelo_inurba_marseille","lat":43.284793,"lon":5.384119,"is_reserved":false,"is_disabled":false,"rental_uris":{"android":"levelo://app?vid=6102db77-d5a2-4952-95ba-72a2575c2e79","ios":"levelo://app?vid=6102db77-d5a2-4952-95ba-72a2575c2e79"},"vehicle_type_id":"4","last_reported":1702494363,"current_range_meters":15200,"station_id":"ce4bh512rcd13ifvqe3g","pricing_plan_id":"free"},{"bike_id":"35530c7f-c8cf-4da9-9300-04e635da6cde","system_id":"levelo_inurba_marseille","lat":43.29795,"lon":5.404086,"is_reserved":false,"is_disabled":false,"rental_uris":{"android":"levelo://app?vid=35530c7f-c8cf-4da9-9300-04e635da6cde","ios":"levelo://app?vid=35530c7f-c8cf-4da9-9300-04e635da6cde"},"vehicle_type_id":"4","last_reported":1702494363,"current_range_meters":20400,"station_id":"ce4bh112rcd13ifvqd90","pricing_plan_id":"free"},{"bike_id":"0e6f2074-31c9-4d6f-8d6a-91e088b63072","system_id":"levelo_inurba_marseille","lat":43.282744,"lon":5.350533,"is_reserved":false,"is_disabled":false,"rental_uris":{"android":"levelo://app?vid=0e6f2074-31c9-4d6f-8d6a-91e088b63072","ios":"levelo://app?vid=0e6f2074-31c9-4d6f-8d6a-91e088b63072"},"vehicle_type_id":"4","last_reported":1702494363,"current_range_meters":2800,"station_id":"ce4bhbp2rcd13ifvqerg","pricing_plan_id":"free"},{"bike_id":"3d6f9dba-7216-4559-bac9-5e21c4e9c676","system_id":"levelo_inurba_marseille","lat":43.283502,"lon":5.386471,"is_reserved":false,"is_disabled":false,"rental_uris":{"android":"levelo://app?vid=3d6f9dba-7216-4559-bac9-5e21c4e9c676","ios":"levelo://app?vid=3d6f9dba-7216-4559-bac9-5e21c4e9c676"},"vehicle_type_id":"4","last_reported":1702494363,"current_range_meters":15600,"station_id":"ce4bh492rcd13ifvqdvg","pricing_plan_id":"free"},{"bike_id":"9eb038ff-c0e0-4d10-b021-d34d2cb5d567","system_id":"levelo_inurba_marseille","lat":43.296263,"lon":5.40601,"is_reserved":false,"is_disabled":false,"rental_uris":{"android":"levelo://app?vid=9eb038ff-c0e0-4d10-b021-d34d2cb5d567","ios":"levelo://app?vid=9eb038ff-c0e0-4d10-b021-d34d2cb5d567"},"vehicle_type_id":"4","last_reported":1702494363,"current_range_meters":3200,"station_id":"ce4bh0h2rcd13ifvqd60","pricing_plan_id":"free"},{"bike_id":"da92cd59-cc01-4215-869f-ddca65d27efc","system_id":"levelo_inurba_marseille","lat":43.284462,"lon":5.392121,"is_reserved":false,"is_disabled":false,"rental_uris":{"android":"levelo://app?vid=da92cd59-cc01-4215-869f-ddca65d27efc","ios":"levelo://app?vid=da92cd59-cc01-4215-869f-ddca65d27efc"},"vehicle_type_id":"4","last_reported":1702494363,"current_range_meters":16000,"station_id":"ce4bhoh2rcd13ifvqh5g","pricing_plan_id":"free"},{"bike_id":"8b8761aa-1ab3-4895-9ec6-2d0c08ed07aa","system_id":"levelo_inurba_marseille","lat":43.284462,"lon":5.392121,"is_reserved":false,"is_disabled":false,"rental_uris":{"android":"levelo://app?vid=8b8761aa-1ab3-4895-9ec6-2d0c08ed07aa","ios":"levelo://app?vid=8b8761aa-1ab3-4895-9ec6-2d0c08ed07aa"},"vehicle_type_id":"4","last_reported":1702494363,"current_range_meters":3600,"station_id":"ce4bhoh2rcd13ifvqh5g","pricing_plan_id":"free"},{"bike_id":"22c9e4b5-1721-4ed5-aaf2-ebf7cc34651f","system_id":"levelo_inurba_marseille","lat":43.326605,"lon":5.409903,"is_reserved":false,"is_disabled":false,"rental_uris":{"android":"levelo://app?vid=22c9e4b5-1721-4ed5-aaf2-ebf7cc34651f","ios":"levelo://app?vid=22c9e4b5-1721-4ed5-aaf2-ebf7cc34651f"},"vehicle_type_id":"4","last_reported":1702494363,"current_range_meters":6000,"station_id":"ce4bhpp2rcd13ifvqhgg","pricing_plan_id":"free"},{"bike_id":"e53b3a4d-9aac-4e94-8796-cafcea6e6f56","system_id":"levelo_inurba_marseille","lat":43.279087,"lon":5.380114,"is_reserved":false,"is_disabled":false,"rental_uris":{"android":"levelo://app?vid=e53b3a4d-9aac-4e94-8796-cafcea6e6f56","ios":"levelo://app?vid=e53b3a4d-9aac-4e94-8796-cafcea6e6f56"},"vehicle_type_id":"4","last_reported":1702494363,"current_range_meters":4000,"station_id":"ce4bhf92rcd13ifvqf50","pricing_plan_id":"free"},{"bike_id":"8f982094-184f-46ce-b873-eb224b2003a5","system_id":"levelo_inurba_marseille","lat":43.287154,"lon":5.399979,"is_reserved":false,"is_disabled":false,"rental_uris":{"android":"levelo://app?vid=8f982094-184f-46ce-b873-eb224b2003a5","ios":"levelo://app?vid=8f982094-184f-46ce-b873-eb224b2003a5"},"vehicle_type_id":"4","last_reported":1702494363,"current_range_meters":8000,"station_id":"ce4bho92rcd13ifvqh3g","pricing_plan_id":"free"},{"bike_id":"c016e672-b4d7-49b9-b38f-69fd9e1cf7ed","system_id":"levelo_inurba_marseille","lat":43.325243,"lon":5.414326,"is_reserved":false,"is_disabled":false,"rental_uris":{"android":"levelo://app?vid=c016e672-b4d7-49b9-b38f-69fd9e1cf7ed","ios":"levelo://app?vid=c016e672-b4d7-49b9-b38f-69fd9e1cf7ed"},"vehicle_type_id":"4","last_reported":1702494363,"current_range_meters":7600,"station_id":"ce4bhq12rcd13ifvqhhg","pricing_plan_id":"free"},{"bike_id":"359fb6df-e61b-45e7-95a6-2a3959446907","system_id":"levelo_inurba_marseille","lat":43.2762,"lon":5.361165,"is_reserved":false,"is_disabled":false,"rental_uris":{"android":"levelo://app?vid=359fb6df-e61b-45e7-95a6-2a3959446907","ios":"levelo://app?vid=359fb6df-e61b-45e7-95a6-2a3959446907"},"vehicle_type_id":"4","last_reported":1702494363,"current_range_meters":0,"station_id":"ce4bgj92rcd13ifvqbe0","pricing_plan_id":"free"},{"bike_id":"39eefe27-03d9-47f3-9de8-d68c3a12f1c4","system_id":"levelo_inurba_marseille","lat":43.35094,"lon":5.3681,"is_reserved":false,"is_disabled":false,"rental_uris":{"android":"levelo://app?vid=39eefe27-03d9-47f3-9de8-d68c3a12f1c4","ios":"levelo://app?vid=39eefe27-03d9-47f3-9de8-d68c3a12f1c4"},"vehicle_type_id":"4","last_reported":1702494363,"current_range_meters":0,"station_id":"","pricing_plan_id":"free"},{"bike_id":"6bfd27dd-93c3-4460-b916-3a241b892135","system_id":"levelo_inurba_marseille","lat":43.278401,"lon":5.392152,"is_reserved":false,"is_disabled":false,"rental_uris":{"android":"levelo://app?vid=6bfd27dd-93c3-4460-b916-3a241b892135","ios":"levelo://app?vid=6bfd27dd-93c3-4460-b916-3a241b892135"},"vehicle_type_id":"4","last_reported":1702494363,"current_range_meters":21200,"station_id":"ce4bhjp2rcd13ifvqga0","pricing_plan_id":"free"},{"bike_id":"6a836b79-4fec-4396-8763-cf2d78fcaf0c","system_id":"levelo_inurba_marseille","lat":43.278401,"lon":5.392152,"is_reserved":false,"is_disabled":false,"rental_uris":{"android":"levelo://app?vid=6a836b79-4fec-4396-8763-cf2d78fcaf0c","ios":"levelo://app?vid=6a836b79-4fec-4396-8763-cf2d78fcaf0c"},"vehicle_type_id":"4","last_reported":1702494363,"current_range_meters":400,"station_id":"ce4bhjp2rcd13ifvqga0","pricing_plan_id":"free"},{"bike_id":"7af0d1f4-0773-407d-989c-d30f6a6c2b20","system_id":"levelo_inurba_marseille","lat":43.275625,"lon":5.384392,"is_reserved":false,"is_disabled":false,"rental_uris":{"android":"levelo://app?vid=7af0d1f4-0773-407d-989c-d30f6a6c2b20","ios":"levelo://app?vid=7af0d1f4-0773-407d-989c-d30f6a6c2b20"},"vehicle_type_id":"4","last_reported":1702494363,"current_range_meters":8400,"station_id":"ce4bhh92rcd13ifvqfi0","pricing_plan_id":"free"},{"bike_id":"fdfea060-a937-4f92-8430-8f650d233de2","system_id":"levelo_inurba_marseille","lat":43.317121,"lon":5.423936,"is_reserved":false,"is_disabled":false,"rental_uris":{"android":"levelo://app?vid=fdfea060-a937-4f92-8430-8f650d233de2","ios":"levelo://app?vid=fdfea060-a937-4f92-8430-8f650d233de2"},"vehicle_type_id":"4","last_reported":1702494363,"current_range_meters":7200,"station_id":"ce4bhp92rcd13ifvqhbg","pricing_plan_id":"free"},{"bike_id":"55f8cf7b-a384-4860-b1f5-075034029351","system_id":"levelo_inurba_marseille","lat":43.31712,"lon":5.42402,"is_reserved":false,"is_disabled":false,"rental_uris":{"android":"levelo://app?vid=55f8cf7b-a384-4860-b1f5-075034029351","ios":"levelo://app?vid=55f8cf7b-a384-4860-b1f5-075034029351"},"vehicle_type_id":"4","last_reported":1702494363,"current_range_meters":24400,"station_id":"ce4bhp92rcd13ifvqhbg","pricing_plan_id":"free"},{"bike_id":"b1c028eb-0fe1-4afa-b35c-b9783a0e9537","system_id":"levelo_inurba_marseille","lat":43.31723,"lon":5.42405,"is_reserved":false,"is_disabled":false,"rental_uris":{"android":"levelo://app?vid=b1c028eb-0fe1-4afa-b35c-b9783a0e9537","ios":"levelo://app?vid=b1c028eb-0fe1-4afa-b35c-b9783a0e9537"},"vehicle_type_id":"4","last_reported":1702494363,"current_range_meters":800,"station_id":"ce4bhp92rcd13ifvqhbg","pricing_plan_id":"free"},{"bike_id":"6c16b44d-0fb2-441d-ac61-9bbb7fbafcc0","system_id":"levelo_inurba_marseille","lat":43.310785,"lon":5.424305,"is_reserved":false,"is_disabled":false,"rental_uris":{"android":"levelo://app?vid=6c16b44d-0fb2-441d-ac61-9bbb7fbafcc0","ios":"levelo://app?vid=6c16b44d-0fb2-441d-ac61-9bbb7fbafcc0"},"vehicle_type_id":"4","last_reported":1702494363,"current_range_meters":13200,"station_id":"ce4bhp92rcd13ifvqhag","pricing_plan_id":"free"},{"bike_id":"735a48c3-eb5d-4627-ac05-6da9b77b047f","system_id":"levelo_inurba_marseille","lat":43.340804,"lon":5.410219,"is_reserved":false,"is_disabled":false,"rental_uris":{"android":"levelo://app?vid=735a48c3-eb5d-4627-ac05-6da9b77b047f","ios":"levelo://app?vid=735a48c3-eb5d-4627-ac05-6da9b77b047f"},"vehicle_type_id":"4","last_reported":1702494363,"current_range_meters":3200,"station_id":"ce4bhqh2rcd13ifvqhlg","pricing_plan_id":"free"},{"bike_id":"3ca2c2d2-99b0-4aa6-a05d-e30f02e6a7fb","system_id":"levelo_inurba_marseille","lat":43.27588,"lon":5.39495,"is_reserved":false,"is_disabled":false,"rental_uris":{"android":"levelo://app?vid=3ca2c2d2-99b0-4aa6-a05d-e30f02e6a7fb","ios":"levelo://app?vid=3ca2c2d2-99b0-4aa6-a05d-e30f02e6a7fb"},"vehicle_type_id":"4","last_reported":1702494363,"current_range_meters":14400,"station_id":"","pricing_plan_id":"free"},{"bike_id":"b303b963-4911-4459-b4b6-e47006920ac1","system_id":"levelo_inurba_marseille","lat":43.304096,"lon":5.425385,"is_reserved":false,"is_disabled":false,"rental_uris":{"android":"levelo://app?vid=b303b963-4911-4459-b4b6-e47006920ac1","ios":"levelo://app?vid=b303b963-4911-4459-b4b6-e47006920ac1"},"vehicle_type_id":"4","last_reported":1702494363,"current_range_meters":11200,"station_id":"ce4bhoh2rcd13ifvqh6g","pricing_plan_id":"free"},{"bike_id":"7604ca87-9308-4a6e-af1d-1dec65131a08","system_id":"levelo_inurba_marseille","lat":43.2693,"lon":5.38916,"is_reserved":false,"is_disabled":false,"rental_uris":{"android":"levelo://app?vid=7604ca87-9308-4a6e-af1d-1dec65131a08","ios":"levelo://app?vid=7604ca87-9308-4a6e-af1d-1dec65131a08"},"vehicle_type_id":"4","last_reported":1702494363,"current_range_meters":4800,"station_id":"ce4bhhh2rcd13ifvqfl0","pricing_plan_id":"free"},{"bike_id":"bcf48b83-2b3b-4413-886a-e963ca372f02","system_id":"levelo_inurba_marseille","lat":43.26681,"lon":5.382694,"is_reserved":false,"is_disabled":false,"rental_uris":{"android":"levelo://app?vid=bcf48b83-2b3b-4413-886a-e963ca372f02","ios":"levelo://app?vid=bcf48b83-2b3b-4413-886a-e963ca372f02"},"vehicle_type_id":"4","last_reported":1702494363,"current_range_meters":16000,"station_id":"ce4bhg92rcd13ifvqf90","pricing_plan_id":"free"},{"bike_id":"fee91fa2-5868-42fc-8e40-ea18a86e9560","system_id":"levelo_inurba_marseille","lat":43.26553,"lon":5.372883,"is_reserved":false,"is_disabled":false,"rental_uris":{"android":"levelo://app?vid=fee91fa2-5868-42fc-8e40-ea18a86e9560","ios":"levelo://app?vid=fee91fa2-5868-42fc-8e40-ea18a86e9560"},"vehicle_type_id":"4","last_reported":1702494363,"current_range_meters":3200,"station_id":"ce4bhg12rcd13ifvqf70","pricing_plan_id":"free"},{"bike_id":"21008433-1039-4200-8e02-f0717efaa2a8","system_id":"levelo_inurba_marseille","lat":43.26838,"lon":5.39598,"is_reserved":false,"is_disabled":false,"rental_uris":{"android":"levelo://app?vid=21008433-1039-4200-8e02-f0717efaa2a8","ios":"levelo://app?vid=21008433-1039-4200-8e02-f0717efaa2a8"},"vehicle_type_id":"4","last_reported":1702494363,"current_range_meters":12800,"station_id":"","pricing_plan_id":"free"},{"bike_id":"3f232a0b-f328-4a7c-9376-5d1041aa79e5","system_id":"levelo_inurba_marseille","lat":43.30803,"lon":5.43523,"is_reserved":false,"is_disabled":false,"rental_uris":{"android":"levelo://app?vid=3f232a0b-f328-4a7c-9376-5d1041aa79e5","ios":"levelo://app?vid=3f232a0b-f328-4a7c-9376-5d1041aa79e5"},"vehicle_type_id":"4","last_reported":1702494363,"current_range_meters":30800,"station_id":"ce4bhph2rcd13ifvqheg","pricing_plan_id":"free"},{"bike_id":"343b6baa-b5fd-4927-81fe-1d985a58e77e","system_id":"levelo_inurba_marseille","lat":43.2657,"lon":5.39016,"is_reserved":false,"is_disabled":false,"rental_uris":{"android":"levelo://app?vid=343b6baa-b5fd-4927-81fe-1d985a58e77e","ios":"levelo://app?vid=343b6baa-b5fd-4927-81fe-1d985a58e77e"},"vehicle_type_id":"4","last_reported":1702494363,"current_range_meters":26400,"station_id":"ce4bhe12rcd13ifvqf30","pricing_plan_id":"free"},{"bike_id":"528e8836-32e3-4cf3-b87f-d4f5c559f84d","system_id":"levelo_inurba_marseille","lat":43.26562,"lon":5.39002,"is_reserved":false,"is_disabled":false,"rental_uris":{"android":"levelo://app?vid=528e8836-32e3-4cf3-b87f-d4f5c559f84d","ios":"levelo://app?vid=528e8836-32e3-4cf3-b87f-d4f5c559f84d"},"vehicle_type_id":"4","last_reported":1702494363,"current_range_meters":31200,"station_id":"ce4bhe12rcd13ifvqf30","pricing_plan_id":"free"},{"bike_id":"69c6eefc-f7a4-4e48-aa8f-dff46c182434","system_id":"levelo_inurba_marseille","lat":43.26564,"lon":5.39015,"is_reserved":false,"is_disabled":false,"rental_uris":{"android":"levelo://app?vid=69c6eefc-f7a4-4e48-aa8f-dff46c182434","ios":"levelo://app?vid=69c6eefc-f7a4-4e48-aa8f-dff46c182434"},"vehicle_type_id":"4","last_reported":1702494363,"current_range_meters":12000,"station_id":"ce4bhe12rcd13ifvqf30","pricing_plan_id":"free"},{"bike_id":"7b4495d7-aa99-4a6e-b4c2-3ad043a757e6","system_id":"levelo_inurba_marseille","lat":43.269396,"lon":5.402629,"is_reserved":false,"is_disabled":false,"rental_uris":{"android":"levelo://app?vid=7b4495d7-aa99-4a6e-b4c2-3ad043a757e6","ios":"levelo://app?vid=7b4495d7-aa99-4a6e-b4c2-3ad043a757e6"},"vehicle_type_id":"4","last_reported":1702494363,"current_range_meters":2400,"station_id":"cjm6bp8fraef2m0cb0m0","pricing_plan_id":"free"},{"bike_id":"d7c68083-de0d-4032-884a-e4511850567b","system_id":"levelo_inurba_marseille","lat":43.26202,"lon":5.379299,"is_reserved":false,"is_disabled":false,"rental_uris":{"android":"levelo://app?vid=d7c68083-de0d-4032-884a-e4511850567b","ios":"levelo://app?vid=d7c68083-de0d-4032-884a-e4511850567b"},"vehicle_type_id":"4","last_reported":1702494363,"current_range_meters":20800,"station_id":"ce4bhjp2rcd13ifvqg90","pricing_plan_id":"free"},{"bike_id":"4f487e36-00dc-42e1-bb73-139c0266d0c1","system_id":"levelo_inurba_marseille","lat":43.271368,"lon":5.40928,"is_reserved":false,"is_disabled":false,"rental_uris":{"android":"levelo://app?vid=4f487e36-00dc-42e1-bb73-139c0266d0c1","ios":"levelo://app?vid=4f487e36-00dc-42e1-bb73-139c0266d0c1"},"vehicle_type_id":"4","last_reported":1702494363,"current_range_meters":7600,"station_id":"ce4bhl12rcd13ifvqgf0","pricing_plan_id":"free"},{"bike_id":"237634d4-2d23-479f-935b-09427197b407","system_id":"levelo_inurba_marseille","lat":43.27096,"lon":5.40952,"is_reserved":false,"is_disabled":false,"rental_uris":{"android":"levelo://app?vid=237634d4-2d23-479f-935b-09427197b407","ios":"levelo://app?vid=237634d4-2d23-479f-935b-09427197b407"},"vehicle_type_id":"4","last_reported":1702494363,"current_range_meters":9200,"station_id":"","pricing_plan_id":"free"},{"bike_id":"f860f387-f2ce-4d8f-830e-bd8a0d08dbe2","system_id":"levelo_inurba_marseille","lat":43.298768,"lon":5.43643,"is_reserved":false,"is_disabled":false,"rental_uris":{"android":"levelo://app?vid=f860f387-f2ce-4d8f-830e-bd8a0d08dbe2","ios":"levelo://app?vid=f860f387-f2ce-4d8f-830e-bd8a0d08dbe2"},"vehicle_type_id":"4","last_reported":1702494363,"current_range_meters":27600,"station_id":"ce4bhpp2rcd13ifvqhfg","pricing_plan_id":"free"},{"bike_id":"38a4a3ac-b01c-43e0-abb4-5a012521fc8c","system_id":"levelo_inurba_marseille","lat":43.298768,"lon":5.43643,"is_reserved":false,"is_disabled":false,"rental_uris":{"android":"levelo://app?vid=38a4a3ac-b01c-43e0-abb4-5a012521fc8c","ios":"levelo://app?vid=38a4a3ac-b01c-43e0-abb4-5a012521fc8c"},"vehicle_type_id":"4","last_reported":1702494363,"current_range_meters":31600,"station_id":"ce4bhpp2rcd13ifvqhfg","pricing_plan_id":"free"},{"bike_id":"4ec71661-c1e3-4c3b-a17d-3fefed6d4370","system_id":"levelo_inurba_marseille","lat":43.298768,"lon":5.43643,"is_reserved":false,"is_disabled":false,"rental_uris":{"android":"levelo://app?vid=4ec71661-c1e3-4c3b-a17d-3fefed6d4370","ios":"levelo://app?vid=4ec71661-c1e3-4c3b-a17d-3fefed6d4370"},"vehicle_type_id":"4","last_reported":1702494363,"current_range_meters":18800,"station_id":"ce4bhpp2rcd13ifvqhfg","pricing_plan_id":"free"},{"bike_id":"35a85cf9-9566-462c-8635-8548e14e231f","system_id":"levelo_inurba_marseille","lat":43.298768,"lon":5.43643,"is_reserved":false,"is_disabled":false,"rental_uris":{"android":"levelo://app?vid=35a85cf9-9566-462c-8635-8548e14e231f","ios":"levelo://app?vid=35a85cf9-9566-462c-8635-8548e14e231f"},"vehicle_type_id":"4","last_reported":1702494363,"current_range_meters":2000,"station_id":"ce4bhpp2rcd13ifvqhfg","pricing_plan_id":"free"},{"bike_id":"af5d9ae9-c611-48ae-bdd0-02a1acfdf6ec","system_id":"levelo_inurba_marseille","lat":43.281548,"lon":5.42643,"is_reserved":false,"is_disabled":false,"rental_uris":{"android":"levelo://app?vid=af5d9ae9-c611-48ae-bdd0-02a1acfdf6ec","ios":"levelo://app?vid=af5d9ae9-c611-48ae-bdd0-02a1acfdf6ec"},"vehicle_type_id":"4","last_reported":1702494363,"current_range_meters":5600,"station_id":"ce4bhnh2rcd13ifvqgug","pricing_plan_id":"free"},{"bike_id":"b20fc7c1-bb31-42f5-93e6-005e9e95ea50","system_id":"levelo_inurba_marseille","lat":43.28155,"lon":5.42641,"is_reserved":false,"is_disabled":false,"rental_uris":{"android":"levelo://app?vid=b20fc7c1-bb31-42f5-93e6-005e9e95ea50","ios":"levelo://app?vid=b20fc7c1-bb31-42f5-93e6-005e9e95ea50"},"vehicle_type_id":"4","last_reported":1702494363,"current_range_meters":10400,"station_id":"ce4bhnh2rcd13ifvqgug","pricing_plan_id":"free"},{"bike_id":"9033636c-5f25-4157-8960-0576b93355ae","system_id":"levelo_inurba_marseille","lat":43.281548,"lon":5.42643,"is_reserved":false,"is_disabled":false,"rental_uris":{"android":"levelo://app?vid=9033636c-5f25-4157-8960-0576b93355ae","ios":"levelo://app?vid=9033636c-5f25-4157-8960-0576b93355ae"},"vehicle_type_id":"4","last_reported":1702494363,"current_range_meters":28400,"station_id":"ce4bhnh2rcd13ifvqgug","pricing_plan_id":"free"},{"bike_id":"4f1a3582-9901-49ec-aefe-7ce756d9a0ab","system_id":"levelo_inurba_marseille","lat":43.281548,"lon":5.42643,"is_reserved":false,"is_disabled":false,"rental_uris":{"android":"levelo://app?vid=4f1a3582-9901-49ec-aefe-7ce756d9a0ab","ios":"levelo://app?vid=4f1a3582-9901-49ec-aefe-7ce756d9a0ab"},"vehicle_type_id":"4","last_reported":1702494363,"current_range_meters":12000,"station_id":"ce4bhnh2rcd13ifvqgug","pricing_plan_id":"free"},{"bike_id":"9dfe7244-85f5-4cb8-95ef-7f323294d3b9","system_id":"levelo_inurba_marseille","lat":43.281548,"lon":5.42643,"is_reserved":false,"is_disabled":false,"rental_uris":{"android":"levelo://app?vid=9dfe7244-85f5-4cb8-95ef-7f323294d3b9","ios":"levelo://app?vid=9dfe7244-85f5-4cb8-95ef-7f323294d3b9"},"vehicle_type_id":"4","last_reported":1702494363,"current_range_meters":9200,"station_id":"ce4bhnh2rcd13ifvqgug","pricing_plan_id":"free"},{"bike_id":"032321af-c63e-4545-942a-ca10e50bf84c","system_id":"levelo_inurba_marseille","lat":43.28143,"lon":5.42643,"is_reserved":false,"is_disabled":false,"rental_uris":{"android":"levelo://app?vid=032321af-c63e-4545-942a-ca10e50bf84c","ios":"levelo://app?vid=032321af-c63e-4545-942a-ca10e50bf84c"},"vehicle_type_id":"4","last_reported":1702494363,"current_range_meters":25600,"station_id":"ce4bhnh2rcd13ifvqgug","pricing_plan_id":"free"},{"bike_id":"5581db75-ef14-475c-a1fb-a2f6f1f4482a","system_id":"levelo_inurba_marseille","lat":43.275028,"lon":5.424534,"is_reserved":false,"is_disabled":false,"rental_uris":{"android":"levelo://app?vid=5581db75-ef14-475c-a1fb-a2f6f1f4482a","ios":"levelo://app?vid=5581db75-ef14-475c-a1fb-a2f6f1f4482a"},"vehicle_type_id":"4","last_reported":1702494363,"current_range_meters":27600,"station_id":"ce4bhn92rcd13ifvqgrg","pricing_plan_id":"free"},{"bike_id":"d7c250b7-41f1-4dc2-85e6-c6a35b513b5c","system_id":"levelo_inurba_marseille","lat":43.258224,"lon":5.394369,"is_reserved":false,"is_disabled":false,"rental_uris":{"android":"levelo://app?vid=d7c250b7-41f1-4dc2-85e6-c6a35b513b5c","ios":"levelo://app?vid=d7c250b7-41f1-4dc2-85e6-c6a35b513b5c"},"vehicle_type_id":"4","last_reported":1702494363,"current_range_meters":12000,"station_id":"ce4bhip2rcd13ifvqft0","pricing_plan_id":"free"},{"bike_id":"38bd1bcf-1309-4a87-b8ed-7622254d8eb9","system_id":"levelo_inurba_marseille","lat":43.254947,"lon":5.376454,"is_reserved":false,"is_disabled":false,"rental_uris":{"android":"levelo://app?vid=38bd1bcf-1309-4a87-b8ed-7622254d8eb9","ios":"levelo://app?vid=38bd1bcf-1309-4a87-b8ed-7622254d8eb9"},"vehicle_type_id":"4","last_reported":1702494363,"current_range_meters":18000,"station_id":"ce4bhh12rcd13ifvqff0","pricing_plan_id":"free"},{"bike_id":"be712a48-1e2b-4916-b49e-be3d4da3f436","system_id":"levelo_inurba_marseille","lat":43.258658,"lon":5.398935,"is_reserved":false,"is_disabled":false,"rental_uris":{"android":"levelo://app?vid=be712a48-1e2b-4916-b49e-be3d4da3f436","ios":"levelo://app?vid=be712a48-1e2b-4916-b49e-be3d4da3f436"},"vehicle_type_id":"4","last_reported":1702494363,"current_range_meters":4800,"station_id":"ce4bhl92rcd13ifvqghg","pricing_plan_id":"free"},{"bike_id":"96105c70-476b-4614-bd37-e5f4fa6b4066","system_id":"levelo_inurba_marseille","lat":43.258658,"lon":5.398935,"is_reserved":false,"is_disabled":false,"rental_uris":{"android":"levelo://app?vid=96105c70-476b-4614-bd37-e5f4fa6b4066","ios":"levelo://app?vid=96105c70-476b-4614-bd37-e5f4fa6b4066"},"vehicle_type_id":"4","last_reported":1702494363,"current_range_meters":400,"station_id":"ce4bhl92rcd13ifvqghg","pricing_plan_id":"free"},{"bike_id":"b3778f4b-17a5-414d-a355-5d6709a05873","system_id":"levelo_inurba_marseille","lat":43.25389,"lon":5.38279,"is_reserved":false,"is_disabled":false,"rental_uris":{"android":"levelo://app?vid=b3778f4b-17a5-414d-a355-5d6709a05873","ios":"levelo://app?vid=b3778f4b-17a5-414d-a355-5d6709a05873"},"vehicle_type_id":"4","last_reported":1702494363,"current_range_meters":22000,"station_id":"","pricing_plan_id":"free"},{"bike_id":"5cae2298-3e03-42c1-bf24-6a636c501b6f","system_id":"levelo_inurba_marseille","lat":43.248049,"lon":5.3746,"is_reserved":false,"is_disabled":false,"rental_uris":{"android":"levelo://app?vid=5cae2298-3e03-42c1-bf24-6a636c501b6f","ios":"levelo://app?vid=5cae2298-3e03-42c1-bf24-6a636c501b6f"},"vehicle_type_id":"4","last_reported":1702494363,"current_range_meters":3200,"station_id":"","pricing_plan_id":"free"},{"bike_id":"25e0324e-910e-4862-8371-f8a3555d36f6","system_id":"levelo_inurba_marseille","lat":43.250966,"lon":5.395186,"is_reserved":false,"is_disabled":false,"rental_uris":{"android":"levelo://app?vid=25e0324e-910e-4862-8371-f8a3555d36f6","ios":"levelo://app?vid=25e0324e-910e-4862-8371-f8a3555d36f6"},"vehicle_type_id":"4","last_reported":1702494363,"current_range_meters":10000,"station_id":"ce4bhm12rcd13ifvqgkg","pricing_plan_id":"free"},{"bike_id":"4e5ad467-5b2a-4311-bfbd-5ed452f7c851","system_id":"levelo_inurba_marseille","lat":43.250966,"lon":5.395186,"is_reserved":false,"is_disabled":false,"rental_uris":{"android":"levelo://app?vid=4e5ad467-5b2a-4311-bfbd-5ed452f7c851","ios":"levelo://app?vid=4e5ad467-5b2a-4311-bfbd-5ed452f7c851"},"vehicle_type_id":"4","last_reported":1702494363,"current_range_meters":17200,"station_id":"ce4bhm12rcd13ifvqgkg","pricing_plan_id":"free"},{"bike_id":"7e1973b3-f606-4647-8baa-0aa70235ba76","system_id":"levelo_inurba_marseille","lat":43.250966,"lon":5.395186,"is_reserved":false,"is_disabled":false,"rental_uris":{"android":"levelo://app?vid=7e1973b3-f606-4647-8baa-0aa70235ba76","ios":"levelo://app?vid=7e1973b3-f606-4647-8baa-0aa70235ba76"},"vehicle_type_id":"4","last_reported":1702494363,"current_range_meters":26000,"station_id":"ce4bhm12rcd13ifvqgkg","pricing_plan_id":"free"},{"bike_id":"158edd96-e0bd-43d2-b971-8d39354cd2f3","system_id":"levelo_inurba_marseille","lat":43.24693,"lon":5.382096,"is_reserved":false,"is_disabled":false,"rental_uris":{"android":"levelo://app?vid=158edd96-e0bd-43d2-b971-8d39354cd2f3","ios":"levelo://app?vid=158edd96-e0bd-43d2-b971-8d39354cd2f3"},"vehicle_type_id":"4","last_reported":1702494363,"current_range_meters":21600,"station_id":"ce4bhih2rcd13ifvqfr0","pricing_plan_id":"free"},{"bike_id":"54fd4fda-e704-4cda-8971-820a9cb0a323","system_id":"levelo_inurba_marseille","lat":43.24693,"lon":5.382096,"is_reserved":false,"is_disabled":false,"rental_uris":{"android":"levelo://app?vid=54fd4fda-e704-4cda-8971-820a9cb0a323","ios":"levelo://app?vid=54fd4fda-e704-4cda-8971-820a9cb0a323"},"vehicle_type_id":"4","last_reported":1702494363,"current_range_meters":8800,"station_id":"ce4bhih2rcd13ifvqfr0","pricing_plan_id":"free"},{"bike_id":"0c11df7e-d73c-445d-8744-cdb8eac72307","system_id":"levelo_inurba_marseille","lat":43.25102,"lon":5.403214,"is_reserved":false,"is_disabled":false,"rental_uris":{"android":"levelo://app?vid=0c11df7e-d73c-445d-8744-cdb8eac72307","ios":"levelo://app?vid=0c11df7e-d73c-445d-8744-cdb8eac72307"},"vehicle_type_id":"4","last_reported":1702494363,"current_range_meters":10400,"station_id":"ce4bhlh2rcd13ifvqgig","pricing_plan_id":"free"},{"bike_id":"ff5e0797-a271-4d1e-8059-a2e1f74a08f0","system_id":"levelo_inurba_marseille","lat":43.25102,"lon":5.403214,"is_reserved":false,"is_disabled":false,"rental_uris":{"android":"levelo://app?vid=ff5e0797-a271-4d1e-8059-a2e1f74a08f0","ios":"levelo://app?vid=ff5e0797-a271-4d1e-8059-a2e1f74a08f0"},"vehicle_type_id":"4","last_reported":1702494363,"current_range_meters":0,"station_id":"ce4bhlh2rcd13ifvqgig","pricing_plan_id":"free"},{"bike_id":"292dddf3-28d6-4320-b062-33b525b402ef","system_id":"levelo_inurba_marseille","lat":43.246461,"lon":5.389014,"is_reserved":false,"is_disabled":false,"rental_uris":{"android":"levelo://app?vid=292dddf3-28d6-4320-b062-33b525b402ef","ios":"levelo://app?vid=292dddf3-28d6-4320-b062-33b525b402ef"},"vehicle_type_id":"4","last_reported":1702494363,"current_range_meters":25200,"station_id":"ce4bhg12rcd13ifvqf60","pricing_plan_id":"free"},{"bike_id":"f1da4a16-cef8-424b-af9c-3ddddca82b56","system_id":"levelo_inurba_marseille","lat":43.246467,"lon":5.388984,"is_reserved":false,"is_disabled":false,"rental_uris":{"android":"levelo://app?vid=f1da4a16-cef8-424b-af9c-3ddddca82b56","ios":"levelo://app?vid=f1da4a16-cef8-424b-af9c-3ddddca82b56"},"vehicle_type_id":"4","last_reported":1702494363,"current_range_meters":13600,"station_id":"ce4bhg12rcd13ifvqf60","pricing_plan_id":"free"},{"bike_id":"9376dfa6-45cf-4412-87b3-70dd1e062057","system_id":"levelo_inurba_marseille","lat":43.245581,"lon":5.395069,"is_reserved":false,"is_disabled":false,"rental_uris":{"android":"levelo://app?vid=9376dfa6-45cf-4412-87b3-70dd1e062057","ios":"levelo://app?vid=9376dfa6-45cf-4412-87b3-70dd1e062057"},"vehicle_type_id":"4","last_reported":1702494363,"current_range_meters":31200,"station_id":"ce4bhlp2rcd13ifvqgjg","pricing_plan_id":"free"},{"bike_id":"ec7f2af4-9c4d-46ed-80cf-23de3b8dc4c3","system_id":"levelo_inurba_marseille","lat":43.240623,"lon":5.377642,"is_reserved":false,"is_disabled":false,"rental_uris":{"android":"levelo://app?vid=ec7f2af4-9c4d-46ed-80cf-23de3b8dc4c3","ios":"levelo://app?vid=ec7f2af4-9c4d-46ed-80cf-23de3b8dc4c3"},"vehicle_type_id":"4","last_reported":1702494363,"current_range_meters":25200,"station_id":"ce4bhnp2rcd13ifvqgvg","pricing_plan_id":"free"},{"bike_id":"34fe02de-1ec0-492a-9fa0-73f72984c928","system_id":"levelo_inurba_marseille","lat":43.24072,"lon":5.37761,"is_reserved":false,"is_disabled":false,"rental_uris":{"android":"levelo://app?vid=34fe02de-1ec0-492a-9fa0-73f72984c928","ios":"levelo://app?vid=34fe02de-1ec0-492a-9fa0-73f72984c928"},"vehicle_type_id":"4","last_reported":1702494363,"current_range_meters":9600,"station_id":"ce4bhnp2rcd13ifvqgvg","pricing_plan_id":"free"},{"bike_id":"1b2ea811-591a-43e2-a7a2-2a84bd8d0164","system_id":"levelo_inurba_marseille","lat":43.240623,"lon":5.377642,"is_reserved":false,"is_disabled":false,"rental_uris":{"android":"levelo://app?vid=1b2ea811-591a-43e2-a7a2-2a84bd8d0164","ios":"levelo://app?vid=1b2ea811-591a-43e2-a7a2-2a84bd8d0164"},"vehicle_type_id":"4","last_reported":1702494363,"current_range_meters":7200,"station_id":"ce4bhnp2rcd13ifvqgvg","pricing_plan_id":"free"},{"bike_id":"d1e4ffa3-0a0a-4153-b85c-71ae60bb1e49","system_id":"levelo_inurba_marseille","lat":43.240623,"lon":5.377642,"is_reserved":false,"is_disabled":false,"rental_uris":{"android":"levelo://app?vid=d1e4ffa3-0a0a-4153-b85c-71ae60bb1e49","ios":"levelo://app?vid=d1e4ffa3-0a0a-4153-b85c-71ae60bb1e49"},"vehicle_type_id":"4","last_reported":1702494363,"current_range_meters":4800,"station_id":"ce4bhnp2rcd13ifvqgvg","pricing_plan_id":"free"},{"bike_id":"eccd6270-8b04-4555-bc82-7e9ab59ec18d","system_id":"levelo_inurba_marseille","lat":43.240623,"lon":5.377642,"is_reserved":false,"is_disabled":false,"rental_uris":{"android":"levelo://app?vid=eccd6270-8b04-4555-bc82-7e9ab59ec18d","ios":"levelo://app?vid=eccd6270-8b04-4555-bc82-7e9ab59ec18d"},"vehicle_type_id":"4","last_reported":1702494363,"current_range_meters":14400,"station_id":"ce4bhnp2rcd13ifvqgvg","pricing_plan_id":"free"},{"bike_id":"825265e1-f294-4e04-ac72-2c431a6af408","system_id":"levelo_inurba_marseille","lat":43.239588,"lon":5.366238,"is_reserved":false,"is_disabled":false,"rental_uris":{"android":"levelo://app?vid=825265e1-f294-4e04-ac72-2c431a6af408","ios":"levelo://app?vid=825265e1-f294-4e04-ac72-2c431a6af408"},"vehicle_type_id":"4","last_reported":1702494363,"current_range_meters":31200,"station_id":"ce4bhi12rcd13ifvqfp0","pricing_plan_id":"free"},{"bike_id":"9af76f9c-24ab-48cd-a884-2f55b135e3d5","system_id":"levelo_inurba_marseille","lat":43.239588,"lon":5.366238,"is_reserved":false,"is_disabled":false,"rental_uris":{"android":"levelo://app?vid=9af76f9c-24ab-48cd-a884-2f55b135e3d5","ios":"levelo://app?vid=9af76f9c-24ab-48cd-a884-2f55b135e3d5"},"vehicle_type_id":"4","last_reported":1702494363,"current_range_meters":26800,"station_id":"ce4bhi12rcd13ifvqfp0","pricing_plan_id":"free"},{"bike_id":"6319c87f-71db-4e16-88ff-997c6b137b73","system_id":"levelo_inurba_marseille","lat":43.239588,"lon":5.366238,"is_reserved":false,"is_disabled":false,"rental_uris":{"android":"levelo://app?vid=6319c87f-71db-4e16-88ff-997c6b137b73","ios":"levelo://app?vid=6319c87f-71db-4e16-88ff-997c6b137b73"},"vehicle_type_id":"4","last_reported":1702494363,"current_range_meters":26400,"station_id":"ce4bhi12rcd13ifvqfp0","pricing_plan_id":"free"},{"bike_id":"e9e13da5-814b-4e04-963f-f688451db439","system_id":"levelo_inurba_marseille","lat":43.231793,"lon":5.400044,"is_reserved":false,"is_disabled":false,"rental_uris":{"android":"levelo://app?vid=e9e13da5-814b-4e04-963f-f688451db439","ios":"levelo://app?vid=e9e13da5-814b-4e04-963f-f688451db439"},"vehicle_type_id":"4","last_reported":1702494363,"current_range_meters":31200,"station_id":"ce4bhn12rcd13ifvqgqg","pricing_plan_id":"free"},{"bike_id":"976b51c7-50e5-4a1e-9623-472378627f57","system_id":"levelo_inurba_marseille","lat":43.231794,"lon":5.400052,"is_reserved":false,"is_disabled":false,"rental_uris":{"android":"levelo://app?vid=976b51c7-50e5-4a1e-9623-472378627f57","ios":"levelo://app?vid=976b51c7-50e5-4a1e-9623-472378627f57"},"vehicle_type_id":"4","last_reported":1702494363,"current_range_meters":31200,"station_id":"ce4bhn12rcd13ifvqgqg","pricing_plan_id":"free"},{"bike_id":"28cf0186-3129-4448-9e8f-8fa9860365e7","system_id":"levelo_inurba_marseille","lat":43.231794,"lon":5.400052,"is_reserved":false,"is_disabled":false,"rental_uris":{"android":"levelo://app?vid=28cf0186-3129-4448-9e8f-8fa9860365e7","ios":"levelo://app?vid=28cf0186-3129-4448-9e8f-8fa9860365e7"},"vehicle_type_id":"4","last_reported":1702494363,"current_range_meters":18800,"station_id":"ce4bhn12rcd13ifvqgqg","pricing_plan_id":"free"},{"bike_id":"46e85755-7f44-4770-9e69-88e3e5d2d0d4","system_id":"levelo_inurba_marseille","lat":43.231794,"lon":5.400052,"is_reserved":false,"is_disabled":false,"rental_uris":{"android":"levelo://app?vid=46e85755-7f44-4770-9e69-88e3e5d2d0d4","ios":"levelo://app?vid=46e85755-7f44-4770-9e69-88e3e5d2d0d4"},"vehicle_type_id":"4","last_reported":1702494363,"current_range_meters":20800,"station_id":"ce4bhn12rcd13ifvqgqg","pricing_plan_id":"free"},{"bike_id":"2b605040-44f0-4665-aefa-dbb05f50f601","system_id":"levelo_inurba_marseille","lat":43.231793,"lon":5.400044,"is_reserved":false,"is_disabled":false,"rental_uris":{"android":"levelo://app?vid=2b605040-44f0-4665-aefa-dbb05f50f601","ios":"levelo://app?vid=2b605040-44f0-4665-aefa-dbb05f50f601"},"vehicle_type_id":"4","last_reported":1702494363,"current_range_meters":5200,"station_id":"ce4bhn12rcd13ifvqgqg","pricing_plan_id":"free"},{"bike_id":"089568fd-e936-4c31-a2a6-ab09f2b4391b","system_id":"levelo_inurba_marseille","lat":43.231794,"lon":5.400052,"is_reserved":false,"is_disabled":false,"rental_uris":{"android":"levelo://app?vid=089568fd-e936-4c31-a2a6-ab09f2b4391b","ios":"levelo://app?vid=089568fd-e936-4c31-a2a6-ab09f2b4391b"},"vehicle_type_id":"4","last_reported":1702494363,"current_range_meters":1200,"station_id":"ce4bhn12rcd13ifvqgqg","pricing_plan_id":"free"},{"bike_id":"a70842cf-3cdd-4227-8996-9e4cdf55219b","system_id":"levelo_inurba_marseille","lat":43.231793,"lon":5.400044,"is_reserved":false,"is_disabled":false,"rental_uris":{"android":"levelo://app?vid=a70842cf-3cdd-4227-8996-9e4cdf55219b","ios":"levelo://app?vid=a70842cf-3cdd-4227-8996-9e4cdf55219b"},"vehicle_type_id":"4","last_reported":1702494363,"current_range_meters":25200,"station_id":"ce4bhn12rcd13ifvqgqg","pricing_plan_id":"free"},{"bike_id":"ef0ae5cd-319e-4e26-9965-984533c0dcf1","system_id":"levelo_inurba_marseille","lat":43.231793,"lon":5.400044,"is_reserved":false,"is_disabled":false,"rental_uris":{"android":"levelo://app?vid=ef0ae5cd-319e-4e26-9965-984533c0dcf1","ios":"levelo://app?vid=ef0ae5cd-319e-4e26-9965-984533c0dcf1"},"vehicle_type_id":"4","last_reported":1702494363,"current_range_meters":0,"station_id":"ce4bhn12rcd13ifvqgqg","pricing_plan_id":"free"},{"bike_id":"5d66a1e1-407e-43b7-8a1f-b43437a90341","system_id":"levelo_inurba_marseille","lat":43.231794,"lon":5.400052,"is_reserved":false,"is_disabled":false,"rental_uris":{"android":"levelo://app?vid=5d66a1e1-407e-43b7-8a1f-b43437a90341","ios":"levelo://app?vid=5d66a1e1-407e-43b7-8a1f-b43437a90341"},"vehicle_type_id":"4","last_reported":1702494363,"current_range_meters":31200,"station_id":"ce4bhn12rcd13ifvqgqg","pricing_plan_id":"free"},{"bike_id":"b5e4fe9e-d152-47d1-ab48-f60ff93db450","system_id":"levelo_inurba_marseille","lat":43.231793,"lon":5.400044,"is_reserved":false,"is_disabled":false,"rental_uris":{"android":"levelo://app?vid=b5e4fe9e-d152-47d1-ab48-f60ff93db450","ios":"levelo://app?vid=b5e4fe9e-d152-47d1-ab48-f60ff93db450"},"vehicle_type_id":"4","last_reported":1702494363,"current_range_meters":10000,"station_id":"ce4bhn12rcd13ifvqgqg","pricing_plan_id":"free"}]}}