{"last_updated":1781183384,"ttl":60,"version":"2.2","data":{"bikes":[{"bike_id":"ec12d144-24c8-4071-abf6-197e520eae96","system_id":"levelo_inurba_marseille","lat":43.337444,"lon":5.374475,"is_reserved":false,"is_disabled":false,"rental_uris":{"android":"levelo://app?vid=ec12d144-24c8-4071-abf6-197e520eae96","ios":"levelo://app?vid=ec12d144-24c8-4071-abf6-197e520eae96"},"vehicle_type_id":"4","last_reported":1781183385,"current_range_meters":0,"station_id":"","pricing_plan_id":"cebpf4jnsgd1na2vs0mg"},{"bike_id":"1ce92a12-47ec-401a-9340-bf1dc91c5036","system_id":"levelo_inurba_marseille","lat":43.27385,"lon":5.36263,"is_reserved":false,"is_disabled":false,"rental_uris":{"android":"levelo://app?vid=1ce92a12-47ec-401a-9340-bf1dc91c5036","ios":"levelo://app?vid=1ce92a12-47ec-401a-9340-bf1dc91c5036"},"vehicle_type_id":"4","last_reported":1781183385,"current_range_meters":2800,"station_id":"ce4bhbh2rcd13ifvqeo0","pricing_plan_id":"cebpf4jnsgd1na2vs0mg"},{"bike_id":"3e8e5996-dbc6-4c7e-aa74-2e0c8a024313","system_id":"levelo_inurba_marseille","lat":43.33162,"lon":5.37708,"is_reserved":false,"is_disabled":false,"rental_uris":{"android":"levelo://app?vid=3e8e5996-dbc6-4c7e-aa74-2e0c8a024313","ios":"levelo://app?vid=3e8e5996-dbc6-4c7e-aa74-2e0c8a024313"},"vehicle_type_id":"4","last_reported":1781183385,"current_range_meters":2800,"station_id":"st_d46cu089ee8s73dldbu0","pricing_plan_id":"cebpf4jnsgd1na2vs0mg"},{"bike_id":"deee3cba-a877-4387-b2c8-da9373a1706e","system_id":"levelo_inurba_marseille","lat":43.29535,"lon":5.39036,"is_reserved":false,"is_disabled":false,"rental_uris":{"android":"levelo://app?vid=deee3cba-a877-4387-b2c8-da9373a1706e","ios":"levelo://app?vid=deee3cba-a877-4387-b2c8-da9373a1706e"},"vehicle_type_id":"4","last_reported":1781183385,"current_range_meters":2800,"station_id":"ce4bh3p2rcd13ifvqdp0","pricing_plan_id":"cebpf4jnsgd1na2vs0mg"},{"bike_id":"3401104d-7533-40ff-a508-171994bfeadd","system_id":"levelo_inurba_marseille","lat":43.26227,"lon":5.38802,"is_reserved":false,"is_disabled":false,"rental_uris":{"android":"levelo://app?vid=3401104d-7533-40ff-a508-171994bfeadd","ios":"levelo://app?vid=3401104d-7533-40ff-a508-171994bfeadd"},"vehicle_type_id":"4","last_reported":1781183385,"current_range_meters":2800,"station_id":"st_d8gjfg747rts73coq3b0","pricing_plan_id":"cebpf4jnsgd1na2vs0mg"},{"bike_id":"45ce06fe-30a1-49bb-b8bf-eb3d1814617f","system_id":"levelo_inurba_marseille","lat":43.3301,"lon":5.39061,"is_reserved":false,"is_disabled":false,"rental_uris":{"android":"levelo://app?vid=45ce06fe-30a1-49bb-b8bf-eb3d1814617f","ios":"levelo://app?vid=45ce06fe-30a1-49bb-b8bf-eb3d1814617f"},"vehicle_type_id":"4","last_reported":1781183385,"current_range_meters":2800,"station_id":"ce4bhr92rcd13ifvqhrg","pricing_plan_id":"cebpf4jnsgd1na2vs0mg"},{"bike_id":"ee7a0ebc-1fba-4e1e-8b2e-b768638d29c7","system_id":"levelo_inurba_marseille","lat":43.28414,"lon":5.34988,"is_reserved":false,"is_disabled":false,"rental_uris":{"android":"levelo://app?vid=ee7a0ebc-1fba-4e1e-8b2e-b768638d29c7","ios":"levelo://app?vid=ee7a0ebc-1fba-4e1e-8b2e-b768638d29c7"},"vehicle_type_id":"4","last_reported":1781183385,"current_range_meters":2800,"station_id":"ce4bhbh2rcd13ifvqepg","pricing_plan_id":"cebpf4jnsgd1na2vs0mg"},{"bike_id":"a3c26178-f8ae-4f26-a870-ae5d85c732d1","system_id":"levelo_inurba_marseille","lat":43.28272,"lon":5.3514,"is_reserved":false,"is_disabled":false,"rental_uris":{"android":"levelo://app?vid=a3c26178-f8ae-4f26-a870-ae5d85c732d1","ios":"levelo://app?vid=a3c26178-f8ae-4f26-a870-ae5d85c732d1"},"vehicle_type_id":"4","last_reported":1781183385,"current_range_meters":2800,"station_id":"","pricing_plan_id":"cebpf4jnsgd1na2vs0mg"},{"bike_id":"abb78f7f-a1f1-4efa-ae79-de495c6faf89","system_id":"levelo_inurba_marseille","lat":43.29739,"lon":5.38973,"is_reserved":false,"is_disabled":false,"rental_uris":{"android":"levelo://app?vid=abb78f7f-a1f1-4efa-ae79-de495c6faf89","ios":"levelo://app?vid=abb78f7f-a1f1-4efa-ae79-de495c6faf89"},"vehicle_type_id":"4","last_reported":1781183385,"current_range_meters":2800,"station_id":"","pricing_plan_id":"cebpf4jnsgd1na2vs0mg"},{"bike_id":"83783ea4-5f99-4109-9289-7f429cce3820","system_id":"levelo_inurba_marseille","lat":43.28477,"lon":5.48403,"is_reserved":false,"is_disabled":false,"rental_uris":{"android":"levelo://app?vid=83783ea4-5f99-4109-9289-7f429cce3820","ios":"levelo://app?vid=83783ea4-5f99-4109-9289-7f429cce3820"},"vehicle_type_id":"4","last_reported":1781183385,"current_range_meters":2800,"station_id":"st_d3svhcjqgbts73a3dn0g","pricing_plan_id":"cebpf4jnsgd1na2vs0mg"},{"bike_id":"ee90cbc8-cf86-44b0-badd-4016027f9333","system_id":"levelo_inurba_marseille","lat":43.33732,"lon":5.39199,"is_reserved":false,"is_disabled":false,"rental_uris":{"android":"levelo://app?vid=ee90cbc8-cf86-44b0-badd-4016027f9333","ios":"levelo://app?vid=ee90cbc8-cf86-44b0-badd-4016027f9333"},"vehicle_type_id":"4","last_reported":1781183385,"current_range_meters":2800,"station_id":"ce4bhr92rcd13ifvqhsg","pricing_plan_id":"cebpf4jnsgd1na2vs0mg"},{"bike_id":"a8cff10f-925f-47d3-8d2a-4913d17e9425","system_id":"levelo_inurba_marseille","lat":43.30157,"lon":5.40015,"is_reserved":false,"is_disabled":true,"rental_uris":{"android":"levelo://app?vid=a8cff10f-925f-47d3-8d2a-4913d17e9425","ios":"levelo://app?vid=a8cff10f-925f-47d3-8d2a-4913d17e9425"},"vehicle_type_id":"4","last_reported":1781183385,"current_range_meters":3200,"station_id":"","pricing_plan_id":"cebpf4jnsgd1na2vs0mg"},{"bike_id":"39ccd913-234b-4631-8894-5a79e620736a","system_id":"levelo_inurba_marseille","lat":43.29874,"lon":5.36282,"is_reserved":false,"is_disabled":false,"rental_uris":{"android":"levelo://app?vid=39ccd913-234b-4631-8894-5a79e620736a","ios":"levelo://app?vid=39ccd913-234b-4631-8894-5a79e620736a"},"vehicle_type_id":"4","last_reported":1781183385,"current_range_meters":3200,"station_id":"ce4bgpp2rcd13ifvqc3g","pricing_plan_id":"cebpf4jnsgd1na2vs0mg"},{"bike_id":"57f8c521-4f0c-4688-a1af-da534f4e3ad8","system_id":"levelo_inurba_marseille","lat":43.30199,"lon":5.36617,"is_reserved":false,"is_disabled":false,"rental_uris":{"android":"levelo://app?vid=57f8c521-4f0c-4688-a1af-da534f4e3ad8","ios":"levelo://app?vid=57f8c521-4f0c-4688-a1af-da534f4e3ad8"},"vehicle_type_id":"4","last_reported":1781183385,"current_range_meters":3200,"station_id":"ce4bgrh2rcd13ifvqc8g","pricing_plan_id":"cebpf4jnsgd1na2vs0mg"},{"bike_id":"74b462b7-6069-40a5-93e5-63518e7b57f9","system_id":"levelo_inurba_marseille","lat":43.25122,"lon":5.40347,"is_reserved":false,"is_disabled":false,"rental_uris":{"android":"levelo://app?vid=74b462b7-6069-40a5-93e5-63518e7b57f9","ios":"levelo://app?vid=74b462b7-6069-40a5-93e5-63518e7b57f9"},"vehicle_type_id":"4","last_reported":1781183385,"current_range_meters":3200,"station_id":"ce4bhlh2rcd13ifvqgig","pricing_plan_id":"cebpf4jnsgd1na2vs0mg"},{"bike_id":"951ce970-b414-4ee7-9eae-b1a351dd20cf","system_id":"levelo_inurba_marseille","lat":43.2848,"lon":5.48407,"is_reserved":false,"is_disabled":false,"rental_uris":{"android":"levelo://app?vid=951ce970-b414-4ee7-9eae-b1a351dd20cf","ios":"levelo://app?vid=951ce970-b414-4ee7-9eae-b1a351dd20cf"},"vehicle_type_id":"4","last_reported":1781183385,"current_range_meters":3200,"station_id":"st_d3svhcjqgbts73a3dn0g","pricing_plan_id":"cebpf4jnsgd1na2vs0mg"},{"bike_id":"3d792ac6-4fdb-44b5-930c-393e22c93cb3","system_id":"levelo_inurba_marseille","lat":43.29623,"lon":5.4061,"is_reserved":false,"is_disabled":false,"rental_uris":{"android":"levelo://app?vid=3d792ac6-4fdb-44b5-930c-393e22c93cb3","ios":"levelo://app?vid=3d792ac6-4fdb-44b5-930c-393e22c93cb3"},"vehicle_type_id":"4","last_reported":1781183385,"current_range_meters":3200,"station_id":"ce4bh0h2rcd13ifvqd60","pricing_plan_id":"cebpf4jnsgd1na2vs0mg"},{"bike_id":"ed728224-3701-48da-a3db-91eb5d2c7bc4","system_id":"levelo_inurba_marseille","lat":43.31364,"lon":5.38493,"is_reserved":false,"is_disabled":false,"rental_uris":{"android":"levelo://app?vid=ed728224-3701-48da-a3db-91eb5d2c7bc4","ios":"levelo://app?vid=ed728224-3701-48da-a3db-91eb5d2c7bc4"},"vehicle_type_id":"4","last_reported":1781183385,"current_range_meters":3200,"station_id":"ce4bgt92rcd13ifvqcf0","pricing_plan_id":"cebpf4jnsgd1na2vs0mg"},{"bike_id":"c9b2220e-f3e4-4c7a-80f9-cc88d841a349","system_id":"levelo_inurba_marseille","lat":43.33151,"lon":5.35477,"is_reserved":false,"is_disabled":false,"rental_uris":{"android":"levelo://app?vid=c9b2220e-f3e4-4c7a-80f9-cc88d841a349","ios":"levelo://app?vid=c9b2220e-f3e4-4c7a-80f9-cc88d841a349"},"vehicle_type_id":"4","last_reported":1781183385,"current_range_meters":3200,"station_id":"","pricing_plan_id":"cebpf4jnsgd1na2vs0mg"},{"bike_id":"6d1fe721-eceb-4809-a5fc-55d60977f503","system_id":"levelo_inurba_marseille","lat":43.28608,"lon":5.3511,"is_reserved":false,"is_disabled":true,"rental_uris":{"android":"levelo://app?vid=6d1fe721-eceb-4809-a5fc-55d60977f503","ios":"levelo://app?vid=6d1fe721-eceb-4809-a5fc-55d60977f503"},"vehicle_type_id":"4","last_reported":1781183385,"current_range_meters":3200,"station_id":"ce4bhch2rcd13ifvqeug","pricing_plan_id":"cebpf4jnsgd1na2vs0mg"},{"bike_id":"2703b7fb-a199-40c4-973b-9bbda4ce16fc","system_id":"levelo_inurba_marseille","lat":43.28128,"lon":5.40139,"is_reserved":false,"is_disabled":false,"rental_uris":{"android":"levelo://app?vid=2703b7fb-a199-40c4-973b-9bbda4ce16fc","ios":"levelo://app?vid=2703b7fb-a199-40c4-973b-9bbda4ce16fc"},"vehicle_type_id":"4","last_reported":1781183385,"current_range_meters":3200,"station_id":"","pricing_plan_id":"cebpf4jnsgd1na2vs0mg"},{"bike_id":"bfead3df-3898-46ff-8027-03c813a765b0","system_id":"levelo_inurba_marseille","lat":43.30132,"lon":5.43125,"is_reserved":false,"is_disabled":false,"rental_uris":{"android":"levelo://app?vid=bfead3df-3898-46ff-8027-03c813a765b0","ios":"levelo://app?vid=bfead3df-3898-46ff-8027-03c813a765b0"},"vehicle_type_id":"4","last_reported":1781183385,"current_range_meters":3200,"station_id":"st_d3js3co5814s73ftftug","pricing_plan_id":"cebpf4jnsgd1na2vs0mg"},{"bike_id":"e3f195c1-68de-441e-ba78-12bea24338a5","system_id":"levelo_inurba_marseille","lat":43.25634,"lon":5.4187,"is_reserved":false,"is_disabled":false,"rental_uris":{"android":"levelo://app?vid=e3f195c1-68de-441e-ba78-12bea24338a5","ios":"levelo://app?vid=e3f195c1-68de-441e-ba78-12bea24338a5"},"vehicle_type_id":"4","last_reported":1781183385,"current_range_meters":3200,"station_id":"","pricing_plan_id":"cebpf4jnsgd1na2vs0mg"},{"bike_id":"cddf2533-34b3-4744-9d60-200fe8c00565","system_id":"levelo_inurba_marseille","lat":43.33713,"lon":5.39221,"is_reserved":false,"is_disabled":false,"rental_uris":{"android":"levelo://app?vid=cddf2533-34b3-4744-9d60-200fe8c00565","ios":"levelo://app?vid=cddf2533-34b3-4744-9d60-200fe8c00565"},"vehicle_type_id":"4","last_reported":1781183385,"current_range_meters":3200,"station_id":"ce4bhr92rcd13ifvqhsg","pricing_plan_id":"cebpf4jnsgd1na2vs0mg"},{"bike_id":"63529539-b151-4100-ba6b-91ab99ac0e14","system_id":"levelo_inurba_marseille","lat":43.30608,"lon":5.37249,"is_reserved":false,"is_disabled":false,"rental_uris":{"android":"levelo://app?vid=63529539-b151-4100-ba6b-91ab99ac0e14","ios":"levelo://app?vid=63529539-b151-4100-ba6b-91ab99ac0e14"},"vehicle_type_id":"4","last_reported":1781183385,"current_range_meters":3600,"station_id":"ce4bgqh2rcd13ifvqc4g","pricing_plan_id":"cebpf4jnsgd1na2vs0mg"},{"bike_id":"50eceecf-dad3-4dfc-b000-74cd06063095","system_id":"levelo_inurba_marseille","lat":43.29091,"lon":5.38159,"is_reserved":false,"is_disabled":false,"rental_uris":{"android":"levelo://app?vid=50eceecf-dad3-4dfc-b000-74cd06063095","ios":"levelo://app?vid=50eceecf-dad3-4dfc-b000-74cd06063095"},"vehicle_type_id":"4","last_reported":1781183385,"current_range_meters":3600,"station_id":"ce4bh512rcd13ifvqe2g","pricing_plan_id":"cebpf4jnsgd1na2vs0mg"},{"bike_id":"4d631569-aee1-4add-9f67-567391632b70","system_id":"levelo_inurba_marseille","lat":43.30539,"lon":5.36542,"is_reserved":false,"is_disabled":false,"rental_uris":{"android":"levelo://app?vid=4d631569-aee1-4add-9f67-567391632b70","ios":"levelo://app?vid=4d631569-aee1-4add-9f67-567391632b70"},"vehicle_type_id":"4","last_reported":1781183385,"current_range_meters":3600,"station_id":"ce4bgs12rcd13ifvqcag","pricing_plan_id":"cebpf4jnsgd1na2vs0mg"},{"bike_id":"e80f8996-351c-4723-8d75-5faf96cf832b","system_id":"levelo_inurba_marseille","lat":43.28701,"lon":5.46686,"is_reserved":false,"is_disabled":false,"rental_uris":{"android":"levelo://app?vid=e80f8996-351c-4723-8d75-5faf96cf832b","ios":"levelo://app?vid=e80f8996-351c-4723-8d75-5faf96cf832b"},"vehicle_type_id":"4","last_reported":1781183385,"current_range_meters":3600,"station_id":"st_d6tc3vkotcvc738tfjhg","pricing_plan_id":"cebpf4jnsgd1na2vs0mg"},{"bike_id":"31542d49-103e-4835-9005-6ba36b80e412","system_id":"levelo_inurba_marseille","lat":43.29089,"lon":5.38149,"is_reserved":false,"is_disabled":false,"rental_uris":{"android":"levelo://app?vid=31542d49-103e-4835-9005-6ba36b80e412","ios":"levelo://app?vid=31542d49-103e-4835-9005-6ba36b80e412"},"vehicle_type_id":"4","last_reported":1781183385,"current_range_meters":3600,"station_id":"ce4bh512rcd13ifvqe2g","pricing_plan_id":"cebpf4jnsgd1na2vs0mg"},{"bike_id":"2e07d43e-1d15-4f78-9c56-e234cec1a6e1","system_id":"levelo_inurba_marseille","lat":43.29599,"lon":5.38099,"is_reserved":false,"is_disabled":true,"rental_uris":{"android":"levelo://app?vid=2e07d43e-1d15-4f78-9c56-e234cec1a6e1","ios":"levelo://app?vid=2e07d43e-1d15-4f78-9c56-e234cec1a6e1"},"vehicle_type_id":"4","last_reported":1781183385,"current_range_meters":3600,"station_id":"ce4bgl12rcd13ifvqbo0","pricing_plan_id":"cebpf4jnsgd1na2vs0mg"},{"bike_id":"c46384f4-53c8-4f51-8b80-c45773b69697","system_id":"levelo_inurba_marseille","lat":43.30137,"lon":5.37752,"is_reserved":false,"is_disabled":false,"rental_uris":{"android":"levelo://app?vid=c46384f4-53c8-4f51-8b80-c45773b69697","ios":"levelo://app?vid=c46384f4-53c8-4f51-8b80-c45773b69697"},"vehicle_type_id":"4","last_reported":1781183385,"current_range_meters":3600,"station_id":"","pricing_plan_id":"cebpf4jnsgd1na2vs0mg"},{"bike_id":"6124b231-474a-4e03-93b8-c31be0f74f91","system_id":"levelo_inurba_marseille","lat":43.27815,"lon":5.3646,"is_reserved":false,"is_disabled":false,"rental_uris":{"android":"levelo://app?vid=6124b231-474a-4e03-93b8-c31be0f74f91","ios":"levelo://app?vid=6124b231-474a-4e03-93b8-c31be0f74f91"},"vehicle_type_id":"4","last_reported":1781183385,"current_range_meters":3600,"station_id":"","pricing_plan_id":"cebpf4jnsgd1na2vs0mg"},{"bike_id":"2a8ee5a0-6852-44b0-a6e2-f4e4bf4a3fe5","system_id":"levelo_inurba_marseille","lat":43.2552,"lon":5.38913,"is_reserved":false,"is_disabled":true,"rental_uris":{"android":"levelo://app?vid=2a8ee5a0-6852-44b0-a6e2-f4e4bf4a3fe5","ios":"levelo://app?vid=2a8ee5a0-6852-44b0-a6e2-f4e4bf4a3fe5"},"vehicle_type_id":"4","last_reported":1781183385,"current_range_meters":3600,"station_id":"","pricing_plan_id":"cebpf4jnsgd1na2vs0mg"},{"bike_id":"f8a69b34-75a8-4ce4-a955-81bb5a04ed2e","system_id":"levelo_inurba_marseille","lat":43.29091,"lon":5.38145,"is_reserved":false,"is_disabled":false,"rental_uris":{"android":"levelo://app?vid=f8a69b34-75a8-4ce4-a955-81bb5a04ed2e","ios":"levelo://app?vid=f8a69b34-75a8-4ce4-a955-81bb5a04ed2e"},"vehicle_type_id":"4","last_reported":1781183385,"current_range_meters":3600,"station_id":"ce4bh512rcd13ifvqe2g","pricing_plan_id":"cebpf4jnsgd1na2vs0mg"},{"bike_id":"ae92b062-c59f-4f30-85c8-29dba8395d40","system_id":"levelo_inurba_marseille","lat":43.284,"lon":5.34964,"is_reserved":false,"is_disabled":false,"rental_uris":{"android":"levelo://app?vid=ae92b062-c59f-4f30-85c8-29dba8395d40","ios":"levelo://app?vid=ae92b062-c59f-4f30-85c8-29dba8395d40"},"vehicle_type_id":"4","last_reported":1781183385,"current_range_meters":3600,"station_id":"ce4bhbh2rcd13ifvqepg","pricing_plan_id":"cebpf4jnsgd1na2vs0mg"},{"bike_id":"1b0eac04-f591-4a98-a859-f6b12de18cd7","system_id":"levelo_inurba_marseille","lat":43.28699,"lon":5.46698,"is_reserved":false,"is_disabled":false,"rental_uris":{"android":"levelo://app?vid=1b0eac04-f591-4a98-a859-f6b12de18cd7","ios":"levelo://app?vid=1b0eac04-f591-4a98-a859-f6b12de18cd7"},"vehicle_type_id":"4","last_reported":1781183385,"current_range_meters":3600,"station_id":"st_d6tc3vkotcvc738tfjhg","pricing_plan_id":"cebpf4jnsgd1na2vs0mg"},{"bike_id":"853b0d6f-b336-492c-8d19-63652c554c7e","system_id":"levelo_inurba_marseille","lat":43.25408,"lon":5.42562,"is_reserved":false,"is_disabled":false,"rental_uris":{"android":"levelo://app?vid=853b0d6f-b336-492c-8d19-63652c554c7e","ios":"levelo://app?vid=853b0d6f-b336-492c-8d19-63652c554c7e"},"vehicle_type_id":"4","last_reported":1781183385,"current_range_meters":3600,"station_id":"","pricing_plan_id":"cebpf4jnsgd1na2vs0mg"},{"bike_id":"160c907a-526a-41ad-a3e9-dc53c4feb894","system_id":"levelo_inurba_marseille","lat":43.26689,"lon":5.38262,"is_reserved":false,"is_disabled":false,"rental_uris":{"android":"levelo://app?vid=160c907a-526a-41ad-a3e9-dc53c4feb894","ios":"levelo://app?vid=160c907a-526a-41ad-a3e9-dc53c4feb894"},"vehicle_type_id":"4","last_reported":1781183385,"current_range_meters":3600,"station_id":"ce4bhg92rcd13ifvqf90","pricing_plan_id":"cebpf4jnsgd1na2vs0mg"},{"bike_id":"4b1fee00-d69b-48ec-adba-ec660e304599","system_id":"levelo_inurba_marseille","lat":43.301551,"lon":5.380756,"is_reserved":false,"is_disabled":false,"rental_uris":{"android":"levelo://app?vid=4b1fee00-d69b-48ec-adba-ec660e304599","ios":"levelo://app?vid=4b1fee00-d69b-48ec-adba-ec660e304599"},"vehicle_type_id":"4","last_reported":1781183385,"current_range_meters":3600,"station_id":"ce4bgjp2rcd13ifvqbh0","pricing_plan_id":"cebpf4jnsgd1na2vs0mg"},{"bike_id":"4d735a9e-f2c8-4bb6-9521-dc1073864621","system_id":"levelo_inurba_marseille","lat":43.2927,"lon":5.42098,"is_reserved":false,"is_disabled":false,"rental_uris":{"android":"levelo://app?vid=4d735a9e-f2c8-4bb6-9521-dc1073864621","ios":"levelo://app?vid=4d735a9e-f2c8-4bb6-9521-dc1073864621"},"vehicle_type_id":"4","last_reported":1781183385,"current_range_meters":3600,"station_id":"","pricing_plan_id":"cebpf4jnsgd1na2vs0mg"},{"bike_id":"e6ff52bc-5f7a-4d86-894d-24f42f5c3cd5","system_id":"levelo_inurba_marseille","lat":43.29231,"lon":5.36038,"is_reserved":false,"is_disabled":false,"rental_uris":{"android":"levelo://app?vid=e6ff52bc-5f7a-4d86-894d-24f42f5c3cd5","ios":"levelo://app?vid=e6ff52bc-5f7a-4d86-894d-24f42f5c3cd5"},"vehicle_type_id":"4","last_reported":1781183385,"current_range_meters":3600,"station_id":"ce4bhbh2rcd13ifvqeqg","pricing_plan_id":"cebpf4jnsgd1na2vs0mg"},{"bike_id":"e2c0a208-0dcf-49b6-acbe-9bb56c554953","system_id":"levelo_inurba_marseille","lat":43.26948,"lon":5.42532,"is_reserved":false,"is_disabled":false,"rental_uris":{"android":"levelo://app?vid=e2c0a208-0dcf-49b6-acbe-9bb56c554953","ios":"levelo://app?vid=e2c0a208-0dcf-49b6-acbe-9bb56c554953"},"vehicle_type_id":"4","last_reported":1781183385,"current_range_meters":3600,"station_id":"","pricing_plan_id":"cebpf4jnsgd1na2vs0mg"},{"bike_id":"187f22e6-6fc9-442d-b9be-b0a9c263f966","system_id":"levelo_inurba_marseille","lat":43.31107,"lon":5.37776,"is_reserved":false,"is_disabled":false,"rental_uris":{"android":"levelo://app?vid=187f22e6-6fc9-442d-b9be-b0a9c263f966","ios":"levelo://app?vid=187f22e6-6fc9-442d-b9be-b0a9c263f966"},"vehicle_type_id":"4","last_reported":1781183385,"current_range_meters":3600,"station_id":"ce4bgt92rcd13ifvqcg0","pricing_plan_id":"cebpf4jnsgd1na2vs0mg"},{"bike_id":"66834094-2585-4fc6-9d67-9a7222400c5e","system_id":"levelo_inurba_marseille","lat":43.29156,"lon":5.37808,"is_reserved":false,"is_disabled":false,"rental_uris":{"android":"levelo://app?vid=66834094-2585-4fc6-9d67-9a7222400c5e","ios":"levelo://app?vid=66834094-2585-4fc6-9d67-9a7222400c5e"},"vehicle_type_id":"4","last_reported":1781183385,"current_range_meters":4000,"station_id":"","pricing_plan_id":"cebpf4jnsgd1na2vs0mg"},{"bike_id":"7cd1711f-c3be-4371-a0fa-e2759feb0a63","system_id":"levelo_inurba_marseille","lat":43.31167,"lon":5.36806,"is_reserved":false,"is_disabled":false,"rental_uris":{"android":"levelo://app?vid=7cd1711f-c3be-4371-a0fa-e2759feb0a63","ios":"levelo://app?vid=7cd1711f-c3be-4371-a0fa-e2759feb0a63"},"vehicle_type_id":"4","last_reported":1781183385,"current_range_meters":4000,"station_id":"ce4bgl92rcd13ifvqbq0","pricing_plan_id":"cebpf4jnsgd1na2vs0mg"},{"bike_id":"32c531d8-009d-4116-b500-cd31bab38231","system_id":"levelo_inurba_marseille","lat":43.21744,"lon":5.34609,"is_reserved":false,"is_disabled":false,"rental_uris":{"android":"levelo://app?vid=32c531d8-009d-4116-b500-cd31bab38231","ios":"levelo://app?vid=32c531d8-009d-4116-b500-cd31bab38231"},"vehicle_type_id":"4","last_reported":1781183385,"current_range_meters":4000,"station_id":"st_cvj6r9ubvosntc0bgbag","pricing_plan_id":"cebpf4jnsgd1na2vs0mg"},{"bike_id":"ececab8d-b32e-4ee2-89e9-7a56b23a0108","system_id":"levelo_inurba_marseille","lat":43.33729,"lon":5.39203,"is_reserved":false,"is_disabled":false,"rental_uris":{"android":"levelo://app?vid=ececab8d-b32e-4ee2-89e9-7a56b23a0108","ios":"levelo://app?vid=ececab8d-b32e-4ee2-89e9-7a56b23a0108"},"vehicle_type_id":"4","last_reported":1781183385,"current_range_meters":4000,"station_id":"ce4bhr92rcd13ifvqhsg","pricing_plan_id":"cebpf4jnsgd1na2vs0mg"},{"bike_id":"1c94081b-b11b-4107-970e-d455873edfce","system_id":"levelo_inurba_marseille","lat":43.26383,"lon":5.42302,"is_reserved":false,"is_disabled":false,"rental_uris":{"android":"levelo://app?vid=1c94081b-b11b-4107-970e-d455873edfce","ios":"levelo://app?vid=1c94081b-b11b-4107-970e-d455873edfce"},"vehicle_type_id":"4","last_reported":1781183385,"current_range_meters":4000,"station_id":"","pricing_plan_id":"cebpf4jnsgd1na2vs0mg"},{"bike_id":"4c9315b6-5037-48f8-acd1-7a92cedaad02","system_id":"levelo_inurba_marseille","lat":43.27288,"lon":5.4106,"is_reserved":false,"is_disabled":false,"rental_uris":{"android":"levelo://app?vid=4c9315b6-5037-48f8-acd1-7a92cedaad02","ios":"levelo://app?vid=4c9315b6-5037-48f8-acd1-7a92cedaad02"},"vehicle_type_id":"4","last_reported":1781183385,"current_range_meters":4000,"station_id":"","pricing_plan_id":"cebpf4jnsgd1na2vs0mg"},{"bike_id":"5563b42e-8633-43e4-a198-6fa05d91e704","system_id":"levelo_inurba_marseille","lat":43.26068,"lon":5.39386,"is_reserved":false,"is_disabled":false,"rental_uris":{"android":"levelo://app?vid=5563b42e-8633-43e4-a198-6fa05d91e704","ios":"levelo://app?vid=5563b42e-8633-43e4-a198-6fa05d91e704"},"vehicle_type_id":"4","last_reported":1781183385,"current_range_meters":4000,"station_id":"ce4bhh92rcd13ifvqfj0","pricing_plan_id":"cebpf4jnsgd1na2vs0mg"},{"bike_id":"46afd1b5-7cdb-4e35-939d-525cc19ed889","system_id":"levelo_inurba_marseille","lat":43.284079,"lon":5.375012,"is_reserved":false,"is_disabled":false,"rental_uris":{"android":"levelo://app?vid=46afd1b5-7cdb-4e35-939d-525cc19ed889","ios":"levelo://app?vid=46afd1b5-7cdb-4e35-939d-525cc19ed889"},"vehicle_type_id":"4","last_reported":1781183385,"current_range_meters":4000,"station_id":"ce4bhgp2rcd13ifvqfc0","pricing_plan_id":"cebpf4jnsgd1na2vs0mg"},{"bike_id":"a0b53861-d04c-461f-8009-234356175c64","system_id":"levelo_inurba_marseille","lat":43.28704,"lon":5.46695,"is_reserved":false,"is_disabled":false,"rental_uris":{"android":"levelo://app?vid=a0b53861-d04c-461f-8009-234356175c64","ios":"levelo://app?vid=a0b53861-d04c-461f-8009-234356175c64"},"vehicle_type_id":"4","last_reported":1781183385,"current_range_meters":4000,"station_id":"st_d6tc3vkotcvc738tfjhg","pricing_plan_id":"cebpf4jnsgd1na2vs0mg"},{"bike_id":"c0b7889d-c9e1-46dc-976e-3c780a076001","system_id":"levelo_inurba_marseille","lat":43.24066,"lon":5.37723,"is_reserved":false,"is_disabled":false,"rental_uris":{"android":"levelo://app?vid=c0b7889d-c9e1-46dc-976e-3c780a076001","ios":"levelo://app?vid=c0b7889d-c9e1-46dc-976e-3c780a076001"},"vehicle_type_id":"4","last_reported":1781183385,"current_range_meters":4000,"station_id":"ce4bhnp2rcd13ifvqgvg","pricing_plan_id":"cebpf4jnsgd1na2vs0mg"},{"bike_id":"8148c0e0-aa12-45e8-903a-433ca8b036d1","system_id":"levelo_inurba_marseille","lat":43.286885,"lon":5.383091,"is_reserved":false,"is_disabled":false,"rental_uris":{"android":"levelo://app?vid=8148c0e0-aa12-45e8-903a-433ca8b036d1","ios":"levelo://app?vid=8148c0e0-aa12-45e8-903a-433ca8b036d1"},"vehicle_type_id":"4","last_reported":1781183385,"current_range_meters":4000,"station_id":"","pricing_plan_id":"cebpf4jnsgd1na2vs0mg"},{"bike_id":"564980c7-4086-4d0c-b20e-906bc61640a8","system_id":"levelo_inurba_marseille","lat":43.29675,"lon":5.36326,"is_reserved":false,"is_disabled":false,"rental_uris":{"android":"levelo://app?vid=564980c7-4086-4d0c-b20e-906bc61640a8","ios":"levelo://app?vid=564980c7-4086-4d0c-b20e-906bc61640a8"},"vehicle_type_id":"4","last_reported":1781183385,"current_range_meters":4000,"station_id":"","pricing_plan_id":"cebpf4jnsgd1na2vs0mg"},{"bike_id":"c50a9e43-666a-4ebb-bb15-fba6ac3b0d59","system_id":"levelo_inurba_marseille","lat":43.2931,"lon":5.3634,"is_reserved":false,"is_disabled":false,"rental_uris":{"android":"levelo://app?vid=c50a9e43-666a-4ebb-bb15-fba6ac3b0d59","ios":"levelo://app?vid=c50a9e43-666a-4ebb-bb15-fba6ac3b0d59"},"vehicle_type_id":"4","last_reported":1781183385,"current_range_meters":4000,"station_id":"","pricing_plan_id":"cebpf4jnsgd1na2vs0mg"},{"bike_id":"3a0a3c1e-d128-4138-b2e1-df846eb876c4","system_id":"levelo_inurba_marseille","lat":43.28688,"lon":5.39516,"is_reserved":false,"is_disabled":false,"rental_uris":{"android":"levelo://app?vid=3a0a3c1e-d128-4138-b2e1-df846eb876c4","ios":"levelo://app?vid=3a0a3c1e-d128-4138-b2e1-df846eb876c4"},"vehicle_type_id":"4","last_reported":1781183385,"current_range_meters":4400,"station_id":"","pricing_plan_id":"cebpf4jnsgd1na2vs0mg"},{"bike_id":"12df29cc-abfa-41e4-9d8d-6005376fb963","system_id":"levelo_inurba_marseille","lat":43.266188,"lon":5.394222,"is_reserved":false,"is_disabled":false,"rental_uris":{"android":"levelo://app?vid=12df29cc-abfa-41e4-9d8d-6005376fb963","ios":"levelo://app?vid=12df29cc-abfa-41e4-9d8d-6005376fb963"},"vehicle_type_id":"4","last_reported":1781183385,"current_range_meters":4400,"station_id":"","pricing_plan_id":"cebpf4jnsgd1na2vs0mg"},{"bike_id":"c17a6309-acfb-43a9-a343-02dfeb083df5","system_id":"levelo_inurba_marseille","lat":43.33545,"lon":5.37463,"is_reserved":false,"is_disabled":false,"rental_uris":{"android":"levelo://app?vid=c17a6309-acfb-43a9-a343-02dfeb083df5","ios":"levelo://app?vid=c17a6309-acfb-43a9-a343-02dfeb083df5"},"vehicle_type_id":"4","last_reported":1781183385,"current_range_meters":4400,"station_id":"st_d46tts09ee8s73dlu43g","pricing_plan_id":"cebpf4jnsgd1na2vs0mg"},{"bike_id":"cc044a5d-6424-486c-a90d-3884464a6b29","system_id":"levelo_inurba_marseille","lat":43.3206,"lon":5.36307,"is_reserved":false,"is_disabled":false,"rental_uris":{"android":"levelo://app?vid=cc044a5d-6424-486c-a90d-3884464a6b29","ios":"levelo://app?vid=cc044a5d-6424-486c-a90d-3884464a6b29"},"vehicle_type_id":"4","last_reported":1781183385,"current_range_meters":4400,"station_id":"","pricing_plan_id":"cebpf4jnsgd1na2vs0mg"},{"bike_id":"2ff017c8-2cbc-493f-b435-f6a67427a94c","system_id":"levelo_inurba_marseille","lat":43.30127,"lon":5.43117,"is_reserved":false,"is_disabled":false,"rental_uris":{"android":"levelo://app?vid=2ff017c8-2cbc-493f-b435-f6a67427a94c","ios":"levelo://app?vid=2ff017c8-2cbc-493f-b435-f6a67427a94c"},"vehicle_type_id":"4","last_reported":1781183385,"current_range_meters":4400,"station_id":"st_d3js3co5814s73ftftug","pricing_plan_id":"cebpf4jnsgd1na2vs0mg"},{"bike_id":"582c6b7b-37e6-4a03-8f89-52fb5665e43d","system_id":"levelo_inurba_marseille","lat":43.29039,"lon":5.38631,"is_reserved":false,"is_disabled":true,"rental_uris":{"android":"levelo://app?vid=582c6b7b-37e6-4a03-8f89-52fb5665e43d","ios":"levelo://app?vid=582c6b7b-37e6-4a03-8f89-52fb5665e43d"},"vehicle_type_id":"4","last_reported":1781183385,"current_range_meters":4400,"station_id":"ce4bh4p2rcd13ifvqe0g","pricing_plan_id":"cebpf4jnsgd1na2vs0mg"},{"bike_id":"745d182c-0ecc-44dc-a755-7582025aceef","system_id":"levelo_inurba_marseille","lat":43.29906,"lon":5.38169,"is_reserved":false,"is_disabled":false,"rental_uris":{"android":"levelo://app?vid=745d182c-0ecc-44dc-a755-7582025aceef","ios":"levelo://app?vid=745d182c-0ecc-44dc-a755-7582025aceef"},"vehicle_type_id":"4","last_reported":1781183385,"current_range_meters":4400,"station_id":"ce4bgj12rcd13ifvqbc0","pricing_plan_id":"cebpf4jnsgd1na2vs0mg"},{"bike_id":"0b542d53-e4b2-4fd5-adf4-084e17c09620","system_id":"levelo_inurba_marseille","lat":43.30127,"lon":5.43115,"is_reserved":false,"is_disabled":false,"rental_uris":{"android":"levelo://app?vid=0b542d53-e4b2-4fd5-adf4-084e17c09620","ios":"levelo://app?vid=0b542d53-e4b2-4fd5-adf4-084e17c09620"},"vehicle_type_id":"4","last_reported":1781183385,"current_range_meters":4400,"station_id":"st_d3js3co5814s73ftftug","pricing_plan_id":"cebpf4jnsgd1na2vs0mg"},{"bike_id":"1f51502e-4992-40dd-abca-17e847e9d87d","system_id":"levelo_inurba_marseille","lat":43.28155,"lon":5.42655,"is_reserved":false,"is_disabled":false,"rental_uris":{"android":"levelo://app?vid=1f51502e-4992-40dd-abca-17e847e9d87d","ios":"levelo://app?vid=1f51502e-4992-40dd-abca-17e847e9d87d"},"vehicle_type_id":"4","last_reported":1781183385,"current_range_meters":4400,"station_id":"ce4bhnh2rcd13ifvqgug","pricing_plan_id":"cebpf4jnsgd1na2vs0mg"},{"bike_id":"96c48afb-bb75-4eb8-88d0-8c9660efdd5b","system_id":"levelo_inurba_marseille","lat":43.29673,"lon":5.36866,"is_reserved":false,"is_disabled":false,"rental_uris":{"android":"levelo://app?vid=96c48afb-bb75-4eb8-88d0-8c9660efdd5b","ios":"levelo://app?vid=96c48afb-bb75-4eb8-88d0-8c9660efdd5b"},"vehicle_type_id":"4","last_reported":1781183385,"current_range_meters":4400,"station_id":"","pricing_plan_id":"cebpf4jnsgd1na2vs0mg"},{"bike_id":"f8e1d392-4922-4403-bb3e-3cde5b838aba","system_id":"levelo_inurba_marseille","lat":43.29803,"lon":5.404,"is_reserved":false,"is_disabled":false,"rental_uris":{"android":"levelo://app?vid=f8e1d392-4922-4403-bb3e-3cde5b838aba","ios":"levelo://app?vid=f8e1d392-4922-4403-bb3e-3cde5b838aba"},"vehicle_type_id":"4","last_reported":1781183385,"current_range_meters":4400,"station_id":"ce4bh112rcd13ifvqd90","pricing_plan_id":"cebpf4jnsgd1na2vs0mg"},{"bike_id":"a949ab75-be2f-4de3-87b1-03b69d2967c5","system_id":"levelo_inurba_marseille","lat":43.25177,"lon":5.4115,"is_reserved":false,"is_disabled":false,"rental_uris":{"android":"levelo://app?vid=a949ab75-be2f-4de3-87b1-03b69d2967c5","ios":"levelo://app?vid=a949ab75-be2f-4de3-87b1-03b69d2967c5"},"vehicle_type_id":"4","last_reported":1781183385,"current_range_meters":4400,"station_id":"","pricing_plan_id":"cebpf4jnsgd1na2vs0mg"},{"bike_id":"d4a485ca-544f-4e15-a3d5-638351c050dc","system_id":"levelo_inurba_marseille","lat":43.28737,"lon":5.40412,"is_reserved":false,"is_disabled":false,"rental_uris":{"android":"levelo://app?vid=d4a485ca-544f-4e15-a3d5-638351c050dc","ios":"levelo://app?vid=d4a485ca-544f-4e15-a3d5-638351c050dc"},"vehicle_type_id":"4","last_reported":1781183385,"current_range_meters":4400,"station_id":"","pricing_plan_id":"cebpf4jnsgd1na2vs0mg"},{"bike_id":"f8671556-b7c4-4a04-86c9-422f70a6fa84","system_id":"levelo_inurba_marseille","lat":43.335,"lon":5.42056,"is_reserved":false,"is_disabled":false,"rental_uris":{"android":"levelo://app?vid=f8671556-b7c4-4a04-86c9-422f70a6fa84","ios":"levelo://app?vid=f8671556-b7c4-4a04-86c9-422f70a6fa84"},"vehicle_type_id":"4","last_reported":1781183385,"current_range_meters":4400,"station_id":"","pricing_plan_id":"cebpf4jnsgd1na2vs0mg"},{"bike_id":"02524151-7db8-46b4-af9b-ba50f4186017","system_id":"levelo_inurba_marseille","lat":43.26942,"lon":5.38927,"is_reserved":false,"is_disabled":false,"rental_uris":{"android":"levelo://app?vid=02524151-7db8-46b4-af9b-ba50f4186017","ios":"levelo://app?vid=02524151-7db8-46b4-af9b-ba50f4186017"},"vehicle_type_id":"4","last_reported":1781183385,"current_range_meters":4400,"station_id":"ce4bhhh2rcd13ifvqfl0","pricing_plan_id":"cebpf4jnsgd1na2vs0mg"},{"bike_id":"8056ee2c-6cca-437d-a22c-fe4afd2545f1","system_id":"levelo_inurba_marseille","lat":43.29538,"lon":5.38549,"is_reserved":false,"is_disabled":false,"rental_uris":{"android":"levelo://app?vid=8056ee2c-6cca-437d-a22c-fe4afd2545f1","ios":"levelo://app?vid=8056ee2c-6cca-437d-a22c-fe4afd2545f1"},"vehicle_type_id":"4","last_reported":1781183385,"current_range_meters":4400,"station_id":"ce4bgih2rcd13ifvqba0","pricing_plan_id":"cebpf4jnsgd1na2vs0mg"},{"bike_id":"29dea1ce-8a99-43fe-a3bf-48c8e2b5e3f0","system_id":"levelo_inurba_marseille","lat":43.273792,"lon":5.36264,"is_reserved":false,"is_disabled":false,"rental_uris":{"android":"levelo://app?vid=29dea1ce-8a99-43fe-a3bf-48c8e2b5e3f0","ios":"levelo://app?vid=29dea1ce-8a99-43fe-a3bf-48c8e2b5e3f0"},"vehicle_type_id":"4","last_reported":1781183385,"current_range_meters":4800,"station_id":"ce4bhbh2rcd13ifvqeo0","pricing_plan_id":"cebpf4jnsgd1na2vs0mg"},{"bike_id":"89e366c3-1a4f-4118-80b3-b10f3ed79b47","system_id":"levelo_inurba_marseille","lat":43.30303,"lon":5.36927,"is_reserved":false,"is_disabled":false,"rental_uris":{"android":"levelo://app?vid=89e366c3-1a4f-4118-80b3-b10f3ed79b47","ios":"levelo://app?vid=89e366c3-1a4f-4118-80b3-b10f3ed79b47"},"vehicle_type_id":"4","last_reported":1781183385,"current_range_meters":4800,"station_id":"ce4bgqh2rcd13ifvqc5g","pricing_plan_id":"cebpf4jnsgd1na2vs0mg"},{"bike_id":"8cbf43c3-6334-4c8c-bfc6-de6706f2dbc9","system_id":"levelo_inurba_marseille","lat":43.29808,"lon":5.38094,"is_reserved":false,"is_disabled":false,"rental_uris":{"android":"levelo://app?vid=8cbf43c3-6334-4c8c-bfc6-de6706f2dbc9","ios":"levelo://app?vid=8cbf43c3-6334-4c8c-bfc6-de6706f2dbc9"},"vehicle_type_id":"4","last_reported":1781183385,"current_range_meters":4800,"station_id":"ce4bgip2rcd13ifvqbb0","pricing_plan_id":"cebpf4jnsgd1na2vs0mg"},{"bike_id":"a9328395-ed20-4aea-ac99-4a705f9a6b53","system_id":"levelo_inurba_marseille","lat":43.24799,"lon":5.37461,"is_reserved":false,"is_disabled":false,"rental_uris":{"android":"levelo://app?vid=a9328395-ed20-4aea-ac99-4a705f9a6b53","ios":"levelo://app?vid=a9328395-ed20-4aea-ac99-4a705f9a6b53"},"vehicle_type_id":"4","last_reported":1781183385,"current_range_meters":4800,"station_id":"ce4bhgh2rcd13ifvqfb0","pricing_plan_id":"cebpf4jnsgd1na2vs0mg"},{"bike_id":"c59256da-821e-42bd-9bae-e23e92cfd004","system_id":"levelo_inurba_marseille","lat":43.28933,"lon":5.38849,"is_reserved":false,"is_disabled":false,"rental_uris":{"android":"levelo://app?vid=c59256da-821e-42bd-9bae-e23e92cfd004","ios":"levelo://app?vid=c59256da-821e-42bd-9bae-e23e92cfd004"},"vehicle_type_id":"4","last_reported":1781183385,"current_range_meters":4800,"station_id":"","pricing_plan_id":"cebpf4jnsgd1na2vs0mg"},{"bike_id":"627383c3-1ca4-4292-a0f0-c21bf7584678","system_id":"levelo_inurba_marseille","lat":43.2873,"lon":5.42711,"is_reserved":false,"is_disabled":false,"rental_uris":{"android":"levelo://app?vid=627383c3-1ca4-4292-a0f0-c21bf7584678","ios":"levelo://app?vid=627383c3-1ca4-4292-a0f0-c21bf7584678"},"vehicle_type_id":"4","last_reported":1781183385,"current_range_meters":4800,"station_id":"","pricing_plan_id":"cebpf4jnsgd1na2vs0mg"},{"bike_id":"b8b6daec-2f79-48d9-9eae-32764683aa9c","system_id":"levelo_inurba_marseille","lat":43.27215,"lon":5.39209,"is_reserved":false,"is_disabled":false,"rental_uris":{"android":"levelo://app?vid=b8b6daec-2f79-48d9-9eae-32764683aa9c","ios":"levelo://app?vid=b8b6daec-2f79-48d9-9eae-32764683aa9c"},"vehicle_type_id":"4","last_reported":1781183385,"current_range_meters":4800,"station_id":"ce4bhhp2rcd13ifvqfm0","pricing_plan_id":"cebpf4jnsgd1na2vs0mg"},{"bike_id":"ca361d50-c9b2-4bf1-b166-9b5836360555","system_id":"levelo_inurba_marseille","lat":43.28421,"lon":5.34981,"is_reserved":false,"is_disabled":false,"rental_uris":{"android":"levelo://app?vid=ca361d50-c9b2-4bf1-b166-9b5836360555","ios":"levelo://app?vid=ca361d50-c9b2-4bf1-b166-9b5836360555"},"vehicle_type_id":"4","last_reported":1781183385,"current_range_meters":4800,"station_id":"ce4bhbh2rcd13ifvqepg","pricing_plan_id":"cebpf4jnsgd1na2vs0mg"},{"bike_id":"14b4b371-8f26-4cf1-95b4-880cc3bc4611","system_id":"levelo_inurba_marseille","lat":43.29311,"lon":5.37184,"is_reserved":false,"is_disabled":true,"rental_uris":{"android":"levelo://app?vid=14b4b371-8f26-4cf1-95b4-880cc3bc4611","ios":"levelo://app?vid=14b4b371-8f26-4cf1-95b4-880cc3bc4611"},"vehicle_type_id":"4","last_reported":1781183385,"current_range_meters":4800,"station_id":"ce4bgh92rcd13ifvqb40","pricing_plan_id":"cebpf4jnsgd1na2vs0mg"},{"bike_id":"4df93a2d-aa6a-4b31-93fb-7fa77fa8a80d","system_id":"levelo_inurba_marseille","lat":43.32199,"lon":5.44066,"is_reserved":false,"is_disabled":false,"rental_uris":{"android":"levelo://app?vid=4df93a2d-aa6a-4b31-93fb-7fa77fa8a80d","ios":"levelo://app?vid=4df93a2d-aa6a-4b31-93fb-7fa77fa8a80d"},"vehicle_type_id":"4","last_reported":1781183385,"current_range_meters":4800,"station_id":"","pricing_plan_id":"cebpf4jnsgd1na2vs0mg"},{"bike_id":"c5909df9-fa47-434f-ad67-6f8975d9373a","system_id":"levelo_inurba_marseille","lat":43.3053,"lon":5.36687,"is_reserved":false,"is_disabled":false,"rental_uris":{"android":"levelo://app?vid=c5909df9-fa47-434f-ad67-6f8975d9373a","ios":"levelo://app?vid=c5909df9-fa47-434f-ad67-6f8975d9373a"},"vehicle_type_id":"4","last_reported":1781183385,"current_range_meters":5600,"station_id":"ce4bgrp2rcd13ifvqc9g","pricing_plan_id":"cebpf4jnsgd1na2vs0mg"},{"bike_id":"b4630497-29f9-4898-ae87-e0bee0737a4e","system_id":"levelo_inurba_marseille","lat":43.29969,"lon":5.38504,"is_reserved":false,"is_disabled":false,"rental_uris":{"android":"levelo://app?vid=b4630497-29f9-4898-ae87-e0bee0737a4e","ios":"levelo://app?vid=b4630497-29f9-4898-ae87-e0bee0737a4e"},"vehicle_type_id":"4","last_reported":1781183385,"current_range_meters":5600,"station_id":"ce4bgj92rcd13ifvqbd0","pricing_plan_id":"cebpf4jnsgd1na2vs0mg"},{"bike_id":"962928b2-7945-4e14-9409-b0fc3abdbac3","system_id":"levelo_inurba_marseille","lat":43.28472,"lon":5.38425,"is_reserved":false,"is_disabled":false,"rental_uris":{"android":"levelo://app?vid=962928b2-7945-4e14-9409-b0fc3abdbac3","ios":"levelo://app?vid=962928b2-7945-4e14-9409-b0fc3abdbac3"},"vehicle_type_id":"4","last_reported":1781183385,"current_range_meters":5600,"station_id":"ce4bh512rcd13ifvqe3g","pricing_plan_id":"cebpf4jnsgd1na2vs0mg"},{"bike_id":"479a476a-158f-4fed-bb39-6f43ac9d4715","system_id":"levelo_inurba_marseille","lat":43.3209,"lon":5.36783,"is_reserved":false,"is_disabled":false,"rental_uris":{"android":"levelo://app?vid=479a476a-158f-4fed-bb39-6f43ac9d4715","ios":"levelo://app?vid=479a476a-158f-4fed-bb39-6f43ac9d4715"},"vehicle_type_id":"4","last_reported":1781183385,"current_range_meters":5600,"station_id":"ce4bhrh2rcd13ifvqhug","pricing_plan_id":"cebpf4jnsgd1na2vs0mg"},{"bike_id":"e1c6c299-9da3-4fb8-8020-b461c214840d","system_id":"levelo_inurba_marseille","lat":43.31983,"lon":5.39005,"is_reserved":false,"is_disabled":false,"rental_uris":{"android":"levelo://app?vid=e1c6c299-9da3-4fb8-8020-b461c214840d","ios":"levelo://app?vid=e1c6c299-9da3-4fb8-8020-b461c214840d"},"vehicle_type_id":"4","last_reported":1781183385,"current_range_meters":5600,"station_id":"","pricing_plan_id":"cebpf4jnsgd1na2vs0mg"},{"bike_id":"b00c37ac-2d24-4c60-9ae8-4814b2bfa232","system_id":"levelo_inurba_marseille","lat":43.26197,"lon":5.37467,"is_reserved":false,"is_disabled":false,"rental_uris":{"android":"levelo://app?vid=b00c37ac-2d24-4c60-9ae8-4814b2bfa232","ios":"levelo://app?vid=b00c37ac-2d24-4c60-9ae8-4814b2bfa232"},"vehicle_type_id":"4","last_reported":1781183385,"current_range_meters":5600,"station_id":"ce4bhgp2rcd13ifvqfc0","pricing_plan_id":"cebpf4jnsgd1na2vs0mg"},{"bike_id":"fd2f0fe2-2447-45be-8c9a-456f406e59a8","system_id":"levelo_inurba_marseille","lat":43.30322,"lon":5.36922,"is_reserved":false,"is_disabled":false,"rental_uris":{"android":"levelo://app?vid=fd2f0fe2-2447-45be-8c9a-456f406e59a8","ios":"levelo://app?vid=fd2f0fe2-2447-45be-8c9a-456f406e59a8"},"vehicle_type_id":"4","last_reported":1781183385,"current_range_meters":5600,"station_id":"ce4bgqh2rcd13ifvqc5g","pricing_plan_id":"cebpf4jnsgd1na2vs0mg"},{"bike_id":"10735159-3397-4800-83f9-6dea2cbec6ca","system_id":"levelo_inurba_marseille","lat":43.33537,"lon":5.37474,"is_reserved":false,"is_disabled":false,"rental_uris":{"android":"levelo://app?vid=10735159-3397-4800-83f9-6dea2cbec6ca","ios":"levelo://app?vid=10735159-3397-4800-83f9-6dea2cbec6ca"},"vehicle_type_id":"4","last_reported":1781183385,"current_range_meters":5600,"station_id":"st_d46tts09ee8s73dlu43g","pricing_plan_id":"cebpf4jnsgd1na2vs0mg"},{"bike_id":"b3a1579e-7387-4d73-8b2f-a6d376b0b154","system_id":"levelo_inurba_marseille","lat":43.31233,"lon":5.36855,"is_reserved":false,"is_disabled":false,"rental_uris":{"android":"levelo://app?vid=b3a1579e-7387-4d73-8b2f-a6d376b0b154","ios":"levelo://app?vid=b3a1579e-7387-4d73-8b2f-a6d376b0b154"},"vehicle_type_id":"4","last_reported":1781183385,"current_range_meters":5600,"station_id":"ce4bgl92rcd13ifvqbq0","pricing_plan_id":"cebpf4jnsgd1na2vs0mg"},{"bike_id":"e1ce2cd6-bab7-4771-96d0-c5882ac3c1e4","system_id":"levelo_inurba_marseille","lat":43.28155,"lon":5.42635,"is_reserved":false,"is_disabled":false,"rental_uris":{"android":"levelo://app?vid=e1ce2cd6-bab7-4771-96d0-c5882ac3c1e4","ios":"levelo://app?vid=e1ce2cd6-bab7-4771-96d0-c5882ac3c1e4"},"vehicle_type_id":"4","last_reported":1781183385,"current_range_meters":5600,"station_id":"ce4bhnh2rcd13ifvqgug","pricing_plan_id":"cebpf4jnsgd1na2vs0mg"},{"bike_id":"f4df41c8-bf5c-4ccf-965a-15c502ca897a","system_id":"levelo_inurba_marseille","lat":43.30474,"lon":5.37937,"is_reserved":false,"is_disabled":false,"rental_uris":{"android":"levelo://app?vid=f4df41c8-bf5c-4ccf-965a-15c502ca897a","ios":"levelo://app?vid=f4df41c8-bf5c-4ccf-965a-15c502ca897a"},"vehicle_type_id":"4","last_reported":1781183385,"current_range_meters":5600,"station_id":"ce4bgup2rcd13ifvqcn0","pricing_plan_id":"cebpf4jnsgd1na2vs0mg"},{"bike_id":"a397834c-d873-4b71-80f7-a349f1dae34a","system_id":"levelo_inurba_marseille","lat":43.2843,"lon":5.35023,"is_reserved":false,"is_disabled":false,"rental_uris":{"android":"levelo://app?vid=a397834c-d873-4b71-80f7-a349f1dae34a","ios":"levelo://app?vid=a397834c-d873-4b71-80f7-a349f1dae34a"},"vehicle_type_id":"4","last_reported":1781183385,"current_range_meters":6000,"station_id":"ce4bhbh2rcd13ifvqepg","pricing_plan_id":"cebpf4jnsgd1na2vs0mg"},{"bike_id":"664a5d25-7748-4981-b747-f5329c045f50","system_id":"levelo_inurba_marseille","lat":43.30428,"lon":5.37917,"is_reserved":false,"is_disabled":false,"rental_uris":{"android":"levelo://app?vid=664a5d25-7748-4981-b747-f5329c045f50","ios":"levelo://app?vid=664a5d25-7748-4981-b747-f5329c045f50"},"vehicle_type_id":"4","last_reported":1781183385,"current_range_meters":6000,"station_id":"ce4bgup2rcd13ifvqcn0","pricing_plan_id":"cebpf4jnsgd1na2vs0mg"},{"bike_id":"ab450d47-d293-44a6-8426-9362fe0e8737","system_id":"levelo_inurba_marseille","lat":43.27567,"lon":5.43367,"is_reserved":false,"is_disabled":false,"rental_uris":{"android":"levelo://app?vid=ab450d47-d293-44a6-8426-9362fe0e8737","ios":"levelo://app?vid=ab450d47-d293-44a6-8426-9362fe0e8737"},"vehicle_type_id":"4","last_reported":1781183385,"current_range_meters":6000,"station_id":"","pricing_plan_id":"cebpf4jnsgd1na2vs0mg"},{"bike_id":"36a52cc1-4b60-4aac-8384-5286b63a149c","system_id":"levelo_inurba_marseille","lat":43.32105,"lon":5.36795,"is_reserved":false,"is_disabled":false,"rental_uris":{"android":"levelo://app?vid=36a52cc1-4b60-4aac-8384-5286b63a149c","ios":"levelo://app?vid=36a52cc1-4b60-4aac-8384-5286b63a149c"},"vehicle_type_id":"4","last_reported":1781183385,"current_range_meters":6000,"station_id":"ce4bhrh2rcd13ifvqhug","pricing_plan_id":"cebpf4jnsgd1na2vs0mg"},{"bike_id":"51722413-2c2f-402b-9b76-375e5adca694","system_id":"levelo_inurba_marseille","lat":43.29733,"lon":5.37717,"is_reserved":false,"is_disabled":false,"rental_uris":{"android":"levelo://app?vid=51722413-2c2f-402b-9b76-375e5adca694","ios":"levelo://app?vid=51722413-2c2f-402b-9b76-375e5adca694"},"vehicle_type_id":"4","last_reported":1781183385,"current_range_meters":6000,"station_id":"ce4bgkh2rcd13ifvqbl0","pricing_plan_id":"cebpf4jnsgd1na2vs0mg"},{"bike_id":"a4b00031-ee09-4aec-8eb7-94d1603e3e96","system_id":"levelo_inurba_marseille","lat":43.32111,"lon":5.36785,"is_reserved":false,"is_disabled":false,"rental_uris":{"android":"levelo://app?vid=a4b00031-ee09-4aec-8eb7-94d1603e3e96","ios":"levelo://app?vid=a4b00031-ee09-4aec-8eb7-94d1603e3e96"},"vehicle_type_id":"4","last_reported":1781183385,"current_range_meters":6000,"station_id":"ce4bhrh2rcd13ifvqhug","pricing_plan_id":"cebpf4jnsgd1na2vs0mg"},{"bike_id":"9eb01028-1e42-4c8c-a426-05e2b4b0370e","system_id":"levelo_inurba_marseille","lat":43.26487,"lon":5.39566,"is_reserved":false,"is_disabled":true,"rental_uris":{"android":"levelo://app?vid=9eb01028-1e42-4c8c-a426-05e2b4b0370e","ios":"levelo://app?vid=9eb01028-1e42-4c8c-a426-05e2b4b0370e"},"vehicle_type_id":"4","last_reported":1781183385,"current_range_meters":6000,"station_id":"ce4bhi12rcd13ifvqfq0","pricing_plan_id":"cebpf4jnsgd1na2vs0mg"},{"bike_id":"1d885001-881f-4c7a-ac86-1941adfead6e","system_id":"levelo_inurba_marseille","lat":43.25516,"lon":5.37711,"is_reserved":false,"is_disabled":false,"rental_uris":{"android":"levelo://app?vid=1d885001-881f-4c7a-ac86-1941adfead6e","ios":"levelo://app?vid=1d885001-881f-4c7a-ac86-1941adfead6e"},"vehicle_type_id":"4","last_reported":1781183385,"current_range_meters":6000,"station_id":"","pricing_plan_id":"cebpf4jnsgd1na2vs0mg"},{"bike_id":"1dc09efc-027e-4b5d-807b-6786a614f408","system_id":"levelo_inurba_marseille","lat":43.31329,"lon":5.39696,"is_reserved":false,"is_disabled":false,"rental_uris":{"android":"levelo://app?vid=1dc09efc-027e-4b5d-807b-6786a614f408","ios":"levelo://app?vid=1dc09efc-027e-4b5d-807b-6786a614f408"},"vehicle_type_id":"4","last_reported":1781183385,"current_range_meters":6000,"station_id":"ce4bgvp2rcd13ifvqcu0","pricing_plan_id":"cebpf4jnsgd1na2vs0mg"},{"bike_id":"95e4c85d-b6f8-43ad-884a-d6790070066b","system_id":"levelo_inurba_marseille","lat":43.31351,"lon":5.36771,"is_reserved":false,"is_disabled":false,"rental_uris":{"android":"levelo://app?vid=95e4c85d-b6f8-43ad-884a-d6790070066b","ios":"levelo://app?vid=95e4c85d-b6f8-43ad-884a-d6790070066b"},"vehicle_type_id":"4","last_reported":1781183385,"current_range_meters":6000,"station_id":"ce4bgr92rcd13ifvqc6g","pricing_plan_id":"cebpf4jnsgd1na2vs0mg"},{"bike_id":"65805089-edb7-4221-81b5-cf6b0ee86181","system_id":"levelo_inurba_marseille","lat":43.28612,"lon":5.39914,"is_reserved":false,"is_disabled":false,"rental_uris":{"android":"levelo://app?vid=65805089-edb7-4221-81b5-cf6b0ee86181","ios":"levelo://app?vid=65805089-edb7-4221-81b5-cf6b0ee86181"},"vehicle_type_id":"4","last_reported":1781183385,"current_range_meters":6000,"station_id":"ce4bho92rcd13ifvqh3g","pricing_plan_id":"cebpf4jnsgd1na2vs0mg"},{"bike_id":"c53f2852-8ad3-4d2d-8324-039320ca8da0","system_id":"levelo_inurba_marseille","lat":43.3016,"lon":5.37426,"is_reserved":false,"is_disabled":false,"rental_uris":{"android":"levelo://app?vid=c53f2852-8ad3-4d2d-8324-039320ca8da0","ios":"levelo://app?vid=c53f2852-8ad3-4d2d-8324-039320ca8da0"},"vehicle_type_id":"4","last_reported":1781183385,"current_range_meters":6400,"station_id":"ce4bgs92rcd13ifvqcc0","pricing_plan_id":"cebpf4jnsgd1na2vs0mg"},{"bike_id":"fd8b7d61-cbd7-4b2d-8966-824cad7832ba","system_id":"levelo_inurba_marseille","lat":43.29256,"lon":5.40913,"is_reserved":false,"is_disabled":false,"rental_uris":{"android":"levelo://app?vid=fd8b7d61-cbd7-4b2d-8966-824cad7832ba","ios":"levelo://app?vid=fd8b7d61-cbd7-4b2d-8966-824cad7832ba"},"vehicle_type_id":"4","last_reported":1781183385,"current_range_meters":6400,"station_id":"ce4bh192rcd13ifvqdc0","pricing_plan_id":"cebpf4jnsgd1na2vs0mg"},{"bike_id":"b90e56c3-76e7-49da-ae74-c7deaeca993c","system_id":"levelo_inurba_marseille","lat":43.30769,"lon":5.38006,"is_reserved":false,"is_disabled":false,"rental_uris":{"android":"levelo://app?vid=b90e56c3-76e7-49da-ae74-c7deaeca993c","ios":"levelo://app?vid=b90e56c3-76e7-49da-ae74-c7deaeca993c"},"vehicle_type_id":"4","last_reported":1781183385,"current_range_meters":6400,"station_id":"","pricing_plan_id":"cebpf4jnsgd1na2vs0mg"},{"bike_id":"a1c015e9-3e11-46f0-b642-1fa3036dfa73","system_id":"levelo_inurba_marseille","lat":43.33168,"lon":5.37705,"is_reserved":false,"is_disabled":false,"rental_uris":{"android":"levelo://app?vid=a1c015e9-3e11-46f0-b642-1fa3036dfa73","ios":"levelo://app?vid=a1c015e9-3e11-46f0-b642-1fa3036dfa73"},"vehicle_type_id":"4","last_reported":1781183385,"current_range_meters":6400,"station_id":"st_d46cu089ee8s73dldbu0","pricing_plan_id":"cebpf4jnsgd1na2vs0mg"},{"bike_id":"51e1ab74-63c5-41e4-8fbb-5b2788d0061e","system_id":"levelo_inurba_marseille","lat":43.2978,"lon":5.37135,"is_reserved":false,"is_disabled":false,"rental_uris":{"android":"levelo://app?vid=51e1ab74-63c5-41e4-8fbb-5b2788d0061e","ios":"levelo://app?vid=51e1ab74-63c5-41e4-8fbb-5b2788d0061e"},"vehicle_type_id":"4","last_reported":1781183385,"current_range_meters":6400,"station_id":"ce4bgop2rcd13ifvqc1g","pricing_plan_id":"cebpf4jnsgd1na2vs0mg"},{"bike_id":"38dd5217-fe9f-4bf0-929b-ab70185492ec","system_id":"levelo_inurba_marseille","lat":43.306,"lon":5.37247,"is_reserved":false,"is_disabled":false,"rental_uris":{"android":"levelo://app?vid=38dd5217-fe9f-4bf0-929b-ab70185492ec","ios":"levelo://app?vid=38dd5217-fe9f-4bf0-929b-ab70185492ec"},"vehicle_type_id":"4","last_reported":1781183385,"current_range_meters":6400,"station_id":"ce4bgqh2rcd13ifvqc4g","pricing_plan_id":"cebpf4jnsgd1na2vs0mg"},{"bike_id":"becf7538-a49a-47b2-898c-da691a16b228","system_id":"levelo_inurba_marseille","lat":43.29032,"lon":5.35914,"is_reserved":false,"is_disabled":true,"rental_uris":{"android":"levelo://app?vid=becf7538-a49a-47b2-898c-da691a16b228","ios":"levelo://app?vid=becf7538-a49a-47b2-898c-da691a16b228"},"vehicle_type_id":"4","last_reported":1781183385,"current_range_meters":6400,"station_id":"ce4bha92rcd13ifvqeg0","pricing_plan_id":"cebpf4jnsgd1na2vs0mg"},{"bike_id":"cdaffa5f-9ecb-409f-93bc-f132f49ebaf0","system_id":"levelo_inurba_marseille","lat":43.27624,"lon":5.36111,"is_reserved":false,"is_disabled":false,"rental_uris":{"android":"levelo://app?vid=cdaffa5f-9ecb-409f-93bc-f132f49ebaf0","ios":"levelo://app?vid=cdaffa5f-9ecb-409f-93bc-f132f49ebaf0"},"vehicle_type_id":"4","last_reported":1781183385,"current_range_meters":6400,"station_id":"ce4bgj92rcd13ifvqbe0","pricing_plan_id":"cebpf4jnsgd1na2vs0mg"},{"bike_id":"6fb5e748-e4b6-4ae6-b88e-692fd65fe5c4","system_id":"levelo_inurba_marseille","lat":43.30648,"lon":5.40067,"is_reserved":false,"is_disabled":false,"rental_uris":{"android":"levelo://app?vid=6fb5e748-e4b6-4ae6-b88e-692fd65fe5c4","ios":"levelo://app?vid=6fb5e748-e4b6-4ae6-b88e-692fd65fe5c4"},"vehicle_type_id":"4","last_reported":1781183385,"current_range_meters":6400,"station_id":"ce4bh112rcd13ifvqda0","pricing_plan_id":"cebpf4jnsgd1na2vs0mg"},{"bike_id":"889c2fc4-36df-4654-a037-7d6311a4dd32","system_id":"levelo_inurba_marseille","lat":43.301558,"lon":5.380835,"is_reserved":false,"is_disabled":false,"rental_uris":{"android":"levelo://app?vid=889c2fc4-36df-4654-a037-7d6311a4dd32","ios":"levelo://app?vid=889c2fc4-36df-4654-a037-7d6311a4dd32"},"vehicle_type_id":"4","last_reported":1781183385,"current_range_meters":6400,"station_id":"ce4bgjp2rcd13ifvqbh0","pricing_plan_id":"cebpf4jnsgd1na2vs0mg"},{"bike_id":"35fffc1e-b7c4-4e67-a9a8-73344013f9d2","system_id":"levelo_inurba_marseille","lat":43.29619,"lon":5.37738,"is_reserved":false,"is_disabled":false,"rental_uris":{"android":"levelo://app?vid=35fffc1e-b7c4-4e67-a9a8-73344013f9d2","ios":"levelo://app?vid=35fffc1e-b7c4-4e67-a9a8-73344013f9d2"},"vehicle_type_id":"4","last_reported":1781183385,"current_range_meters":6400,"station_id":"ce4bgi92rcd13ifvqb90","pricing_plan_id":"cebpf4jnsgd1na2vs0mg"},{"bike_id":"146a72b4-0492-4504-9213-344b957ec75e","system_id":"levelo_inurba_marseille","lat":43.29533,"lon":5.39408,"is_reserved":false,"is_disabled":false,"rental_uris":{"android":"levelo://app?vid=146a72b4-0492-4504-9213-344b957ec75e","ios":"levelo://app?vid=146a72b4-0492-4504-9213-344b957ec75e"},"vehicle_type_id":"4","last_reported":1781183385,"current_range_meters":6400,"station_id":"ce4bh292rcd13ifvqdf0","pricing_plan_id":"cebpf4jnsgd1na2vs0mg"},{"bike_id":"0e5da24f-adbb-4fba-ae56-af80f7419a8c","system_id":"levelo_inurba_marseille","lat":43.29577,"lon":5.36737,"is_reserved":false,"is_disabled":false,"rental_uris":{"android":"levelo://app?vid=0e5da24f-adbb-4fba-ae56-af80f7419a8c","ios":"levelo://app?vid=0e5da24f-adbb-4fba-ae56-af80f7419a8c"},"vehicle_type_id":"4","last_reported":1781183385,"current_range_meters":6400,"station_id":"ce4bgph2rcd13ifvqc2g","pricing_plan_id":"cebpf4jnsgd1na2vs0mg"},{"bike_id":"da93e01a-15bc-4cfe-8c53-d7b31186ea40","system_id":"levelo_inurba_marseille","lat":43.28342,"lon":5.36768,"is_reserved":false,"is_disabled":false,"rental_uris":{"android":"levelo://app?vid=da93e01a-15bc-4cfe-8c53-d7b31186ea40","ios":"levelo://app?vid=da93e01a-15bc-4cfe-8c53-d7b31186ea40"},"vehicle_type_id":"4","last_reported":1781183385,"current_range_meters":6400,"station_id":"","pricing_plan_id":"cebpf4jnsgd1na2vs0mg"},{"bike_id":"03a7a031-8468-4601-8184-85ebd1c11bea","system_id":"levelo_inurba_marseille","lat":43.3162,"lon":5.38377,"is_reserved":false,"is_disabled":false,"rental_uris":{"android":"levelo://app?vid=03a7a031-8468-4601-8184-85ebd1c11bea","ios":"levelo://app?vid=03a7a031-8468-4601-8184-85ebd1c11bea"},"vehicle_type_id":"4","last_reported":1781183385,"current_range_meters":6800,"station_id":"","pricing_plan_id":"cebpf4jnsgd1na2vs0mg"},{"bike_id":"bcd48adb-59a8-4980-8616-899ffa7646f6","system_id":"levelo_inurba_marseille","lat":43.28471,"lon":5.35882,"is_reserved":false,"is_disabled":false,"rental_uris":{"android":"levelo://app?vid=bcd48adb-59a8-4980-8616-899ffa7646f6","ios":"levelo://app?vid=bcd48adb-59a8-4980-8616-899ffa7646f6"},"vehicle_type_id":"4","last_reported":1781183385,"current_range_meters":6800,"station_id":"ce4bhah2rcd13ifvqei0","pricing_plan_id":"cebpf4jnsgd1na2vs0mg"},{"bike_id":"402cee7f-7d33-47c7-a4a6-ec74389838c4","system_id":"levelo_inurba_marseille","lat":43.30805,"lon":5.38164,"is_reserved":false,"is_disabled":false,"rental_uris":{"android":"levelo://app?vid=402cee7f-7d33-47c7-a4a6-ec74389838c4","ios":"levelo://app?vid=402cee7f-7d33-47c7-a4a6-ec74389838c4"},"vehicle_type_id":"4","last_reported":1781183385,"current_range_meters":6800,"station_id":"ce4bgt12rcd13ifvqce0","pricing_plan_id":"cebpf4jnsgd1na2vs0mg"},{"bike_id":"847e2c22-7137-44f1-8d55-bd042e01b36a","system_id":"levelo_inurba_marseille","lat":43.29555,"lon":5.3752,"is_reserved":false,"is_disabled":false,"rental_uris":{"android":"levelo://app?vid=847e2c22-7137-44f1-8d55-bd042e01b36a","ios":"levelo://app?vid=847e2c22-7137-44f1-8d55-bd042e01b36a"},"vehicle_type_id":"4","last_reported":1781183385,"current_range_meters":6800,"station_id":"ce4bgh92rcd13ifvqb50","pricing_plan_id":"cebpf4jnsgd1na2vs0mg"},{"bike_id":"efd2eb6d-3212-4850-9146-53e46211f506","system_id":"levelo_inurba_marseille","lat":43.26032,"lon":5.37554,"is_reserved":false,"is_disabled":false,"rental_uris":{"android":"levelo://app?vid=efd2eb6d-3212-4850-9146-53e46211f506","ios":"levelo://app?vid=efd2eb6d-3212-4850-9146-53e46211f506"},"vehicle_type_id":"4","last_reported":1781183385,"current_range_meters":6800,"station_id":"ce4bhgh2rcd13ifvqfa0","pricing_plan_id":"cebpf4jnsgd1na2vs0mg"},{"bike_id":"e30ddbc6-0254-49b9-9ae4-b157e53a94df","system_id":"levelo_inurba_marseille","lat":43.26214,"lon":5.37468,"is_reserved":false,"is_disabled":false,"rental_uris":{"android":"levelo://app?vid=e30ddbc6-0254-49b9-9ae4-b157e53a94df","ios":"levelo://app?vid=e30ddbc6-0254-49b9-9ae4-b157e53a94df"},"vehicle_type_id":"4","last_reported":1781183385,"current_range_meters":6800,"station_id":"ce4bhgp2rcd13ifvqfc0","pricing_plan_id":"cebpf4jnsgd1na2vs0mg"},{"bike_id":"a92ddb08-f1c3-45c9-a25b-7da857778ab2","system_id":"levelo_inurba_marseille","lat":43.29007,"lon":5.35639,"is_reserved":false,"is_disabled":false,"rental_uris":{"android":"levelo://app?vid=a92ddb08-f1c3-45c9-a25b-7da857778ab2","ios":"levelo://app?vid=a92ddb08-f1c3-45c9-a25b-7da857778ab2"},"vehicle_type_id":"4","last_reported":1781183385,"current_range_meters":6800,"station_id":"ce4bhb92rcd13ifvqen0","pricing_plan_id":"cebpf4jnsgd1na2vs0mg"},{"bike_id":"0a863416-481b-47ce-a3aa-6d981f931e44","system_id":"levelo_inurba_marseille","lat":43.30851,"lon":5.37306,"is_reserved":false,"is_disabled":false,"rental_uris":{"android":"levelo://app?vid=0a863416-481b-47ce-a3aa-6d981f931e44","ios":"levelo://app?vid=0a863416-481b-47ce-a3aa-6d981f931e44"},"vehicle_type_id":"4","last_reported":1781183385,"current_range_meters":6800,"station_id":"","pricing_plan_id":"cebpf4jnsgd1na2vs0mg"},{"bike_id":"88444bfe-2411-4b02-bbb0-e4d8c7645013","system_id":"levelo_inurba_marseille","lat":43.2927,"lon":5.36862,"is_reserved":false,"is_disabled":false,"rental_uris":{"android":"levelo://app?vid=88444bfe-2411-4b02-bbb0-e4d8c7645013","ios":"levelo://app?vid=88444bfe-2411-4b02-bbb0-e4d8c7645013"},"vehicle_type_id":"4","last_reported":1781183385,"current_range_meters":6800,"station_id":"ce4bhbp2rcd13ifvqesg","pricing_plan_id":"cebpf4jnsgd1na2vs0mg"},{"bike_id":"bf0d513d-d24a-47b1-bcdb-11e9c8e00198","system_id":"levelo_inurba_marseille","lat":43.26393,"lon":5.41102,"is_reserved":false,"is_disabled":true,"rental_uris":{"android":"levelo://app?vid=bf0d513d-d24a-47b1-bcdb-11e9c8e00198","ios":"levelo://app?vid=bf0d513d-d24a-47b1-bcdb-11e9c8e00198"},"vehicle_type_id":"4","last_reported":1781183385,"current_range_meters":6800,"station_id":"st_d4e5ca6na9uc73bfl5fg","pricing_plan_id":"cebpf4jnsgd1na2vs0mg"},{"bike_id":"db4508c4-831e-4722-a94b-6cdeaaa1124e","system_id":"levelo_inurba_marseille","lat":43.29011,"lon":5.35626,"is_reserved":false,"is_disabled":false,"rental_uris":{"android":"levelo://app?vid=db4508c4-831e-4722-a94b-6cdeaaa1124e","ios":"levelo://app?vid=db4508c4-831e-4722-a94b-6cdeaaa1124e"},"vehicle_type_id":"4","last_reported":1781183385,"current_range_meters":6800,"station_id":"ce4bhb92rcd13ifvqen0","pricing_plan_id":"cebpf4jnsgd1na2vs0mg"},{"bike_id":"80b88266-3fe1-4cdd-8c27-84680d596922","system_id":"levelo_inurba_marseille","lat":43.24081,"lon":5.3776,"is_reserved":false,"is_disabled":false,"rental_uris":{"android":"levelo://app?vid=80b88266-3fe1-4cdd-8c27-84680d596922","ios":"levelo://app?vid=80b88266-3fe1-4cdd-8c27-84680d596922"},"vehicle_type_id":"4","last_reported":1781183385,"current_range_meters":6800,"station_id":"ce4bhnp2rcd13ifvqgvg","pricing_plan_id":"cebpf4jnsgd1na2vs0mg"},{"bike_id":"7c131e63-4882-494d-814c-185065bffc7c","system_id":"levelo_inurba_marseille","lat":43.2848,"lon":5.48399,"is_reserved":false,"is_disabled":false,"rental_uris":{"android":"levelo://app?vid=7c131e63-4882-494d-814c-185065bffc7c","ios":"levelo://app?vid=7c131e63-4882-494d-814c-185065bffc7c"},"vehicle_type_id":"4","last_reported":1781183385,"current_range_meters":6800,"station_id":"st_d3svhcjqgbts73a3dn0g","pricing_plan_id":"cebpf4jnsgd1na2vs0mg"},{"bike_id":"b43937f9-f780-4939-880d-1529f597f65a","system_id":"levelo_inurba_marseille","lat":43.24632,"lon":5.41684,"is_reserved":false,"is_disabled":false,"rental_uris":{"android":"levelo://app?vid=b43937f9-f780-4939-880d-1529f597f65a","ios":"levelo://app?vid=b43937f9-f780-4939-880d-1529f597f65a"},"vehicle_type_id":"4","last_reported":1781183385,"current_range_meters":6800,"station_id":"","pricing_plan_id":"cebpf4jnsgd1na2vs0mg"},{"bike_id":"72596ebd-ea6d-4b6d-968a-acb42e5b04cf","system_id":"levelo_inurba_marseille","lat":43.29597,"lon":5.37898,"is_reserved":false,"is_disabled":false,"rental_uris":{"android":"levelo://app?vid=72596ebd-ea6d-4b6d-968a-acb42e5b04cf","ios":"levelo://app?vid=72596ebd-ea6d-4b6d-968a-acb42e5b04cf"},"vehicle_type_id":"4","last_reported":1781183385,"current_range_meters":6800,"station_id":"","pricing_plan_id":"cebpf4jnsgd1na2vs0mg"},{"bike_id":"4343f291-38b8-47e7-a883-039a0fd0f77e","system_id":"levelo_inurba_marseille","lat":43.32105,"lon":5.36768,"is_reserved":false,"is_disabled":false,"rental_uris":{"android":"levelo://app?vid=4343f291-38b8-47e7-a883-039a0fd0f77e","ios":"levelo://app?vid=4343f291-38b8-47e7-a883-039a0fd0f77e"},"vehicle_type_id":"4","last_reported":1781183385,"current_range_meters":6800,"station_id":"ce4bhrh2rcd13ifvqhug","pricing_plan_id":"cebpf4jnsgd1na2vs0mg"},{"bike_id":"0d1e873c-b33d-4059-bcba-f8d07ef97d13","system_id":"levelo_inurba_marseille","lat":43.32474,"lon":5.36574,"is_reserved":false,"is_disabled":false,"rental_uris":{"android":"levelo://app?vid=0d1e873c-b33d-4059-bcba-f8d07ef97d13","ios":"levelo://app?vid=0d1e873c-b33d-4059-bcba-f8d07ef97d13"},"vehicle_type_id":"4","last_reported":1781183385,"current_range_meters":6800,"station_id":"ce4bhs12rcd13ifvqhvg","pricing_plan_id":"cebpf4jnsgd1na2vs0mg"},{"bike_id":"badeca71-fb77-4c23-93bb-cf7c9ba1c434","system_id":"levelo_inurba_marseille","lat":43.29709,"lon":5.37729,"is_reserved":false,"is_disabled":false,"rental_uris":{"android":"levelo://app?vid=badeca71-fb77-4c23-93bb-cf7c9ba1c434","ios":"levelo://app?vid=badeca71-fb77-4c23-93bb-cf7c9ba1c434"},"vehicle_type_id":"4","last_reported":1781183385,"current_range_meters":6800,"station_id":"ce4bgkh2rcd13ifvqbl0","pricing_plan_id":"cebpf4jnsgd1na2vs0mg"},{"bike_id":"0d9ec8c2-f4f8-46aa-9a87-53879647a3e7","system_id":"levelo_inurba_marseille","lat":43.3048,"lon":5.41568,"is_reserved":false,"is_disabled":false,"rental_uris":{"android":"levelo://app?vid=0d9ec8c2-f4f8-46aa-9a87-53879647a3e7","ios":"levelo://app?vid=0d9ec8c2-f4f8-46aa-9a87-53879647a3e7"},"vehicle_type_id":"4","last_reported":1781183385,"current_range_meters":6800,"station_id":"","pricing_plan_id":"cebpf4jnsgd1na2vs0mg"},{"bike_id":"cadb6e7a-22bf-4fa3-967b-fb9ce5c7ebf7","system_id":"levelo_inurba_marseille","lat":43.27957,"lon":5.38727,"is_reserved":false,"is_disabled":false,"rental_uris":{"android":"levelo://app?vid=cadb6e7a-22bf-4fa3-967b-fb9ce5c7ebf7","ios":"levelo://app?vid=cadb6e7a-22bf-4fa3-967b-fb9ce5c7ebf7"},"vehicle_type_id":"4","last_reported":1781183385,"current_range_meters":6800,"station_id":"ce4bhg12rcd13ifvqf80","pricing_plan_id":"cebpf4jnsgd1na2vs0mg"},{"bike_id":"06a909ac-6831-451f-959d-59d4930a3882","system_id":"levelo_inurba_marseille","lat":43.29891,"lon":5.43696,"is_reserved":false,"is_disabled":false,"rental_uris":{"android":"levelo://app?vid=06a909ac-6831-451f-959d-59d4930a3882","ios":"levelo://app?vid=06a909ac-6831-451f-959d-59d4930a3882"},"vehicle_type_id":"4","last_reported":1781183385,"current_range_meters":6800,"station_id":"ce4bhpp2rcd13ifvqhfg","pricing_plan_id":"cebpf4jnsgd1na2vs0mg"},{"bike_id":"a50bf60f-eb95-4548-bb04-f6a5e85758e4","system_id":"levelo_inurba_marseille","lat":43.27429,"lon":5.39412,"is_reserved":false,"is_disabled":false,"rental_uris":{"android":"levelo://app?vid=a50bf60f-eb95-4548-bb04-f6a5e85758e4","ios":"levelo://app?vid=a50bf60f-eb95-4548-bb04-f6a5e85758e4"},"vehicle_type_id":"4","last_reported":1781183385,"current_range_meters":6800,"station_id":"ce4bhdp2rcd13ifvqf20","pricing_plan_id":"cebpf4jnsgd1na2vs0mg"},{"bike_id":"94bcff2a-d257-43d4-ad8e-e4418d35435f","system_id":"levelo_inurba_marseille","lat":43.30498,"lon":5.37941,"is_reserved":false,"is_disabled":false,"rental_uris":{"android":"levelo://app?vid=94bcff2a-d257-43d4-ad8e-e4418d35435f","ios":"levelo://app?vid=94bcff2a-d257-43d4-ad8e-e4418d35435f"},"vehicle_type_id":"4","last_reported":1781183385,"current_range_meters":6800,"station_id":"","pricing_plan_id":"cebpf4jnsgd1na2vs0mg"},{"bike_id":"a374615f-bb7a-4772-a6f6-22dbd7b71939","system_id":"levelo_inurba_marseille","lat":43.30891,"lon":5.37198,"is_reserved":false,"is_disabled":false,"rental_uris":{"android":"levelo://app?vid=a374615f-bb7a-4772-a6f6-22dbd7b71939","ios":"levelo://app?vid=a374615f-bb7a-4772-a6f6-22dbd7b71939"},"vehicle_type_id":"4","last_reported":1781183385,"current_range_meters":7200,"station_id":"","pricing_plan_id":"cebpf4jnsgd1na2vs0mg"},{"bike_id":"8369abbd-c3fb-412a-8d1a-49e51529efce","system_id":"levelo_inurba_marseille","lat":43.30152,"lon":5.3739,"is_reserved":false,"is_disabled":false,"rental_uris":{"android":"levelo://app?vid=8369abbd-c3fb-412a-8d1a-49e51529efce","ios":"levelo://app?vid=8369abbd-c3fb-412a-8d1a-49e51529efce"},"vehicle_type_id":"4","last_reported":1781183385,"current_range_meters":7200,"station_id":"ce4bgs92rcd13ifvqcc0","pricing_plan_id":"cebpf4jnsgd1na2vs0mg"},{"bike_id":"18c76cdd-8c55-4ae2-8cdd-582cfa98e23e","system_id":"levelo_inurba_marseille","lat":43.30536,"lon":5.36577,"is_reserved":false,"is_disabled":false,"rental_uris":{"android":"levelo://app?vid=18c76cdd-8c55-4ae2-8cdd-582cfa98e23e","ios":"levelo://app?vid=18c76cdd-8c55-4ae2-8cdd-582cfa98e23e"},"vehicle_type_id":"4","last_reported":1781183385,"current_range_meters":7200,"station_id":"ce4bgs12rcd13ifvqcag","pricing_plan_id":"cebpf4jnsgd1na2vs0mg"},{"bike_id":"779fdad7-e7f4-436c-9fce-9a7825f91cf8","system_id":"levelo_inurba_marseille","lat":43.26204,"lon":5.37452,"is_reserved":false,"is_disabled":false,"rental_uris":{"android":"levelo://app?vid=779fdad7-e7f4-436c-9fce-9a7825f91cf8","ios":"levelo://app?vid=779fdad7-e7f4-436c-9fce-9a7825f91cf8"},"vehicle_type_id":"4","last_reported":1781183385,"current_range_meters":7200,"station_id":"ce4bhgp2rcd13ifvqfc0","pricing_plan_id":"cebpf4jnsgd1na2vs0mg"},{"bike_id":"ee24a8e6-8d59-4b52-9972-74f166a98c84","system_id":"levelo_inurba_marseille","lat":43.29013,"lon":5.35625,"is_reserved":false,"is_disabled":false,"rental_uris":{"android":"levelo://app?vid=ee24a8e6-8d59-4b52-9972-74f166a98c84","ios":"levelo://app?vid=ee24a8e6-8d59-4b52-9972-74f166a98c84"},"vehicle_type_id":"4","last_reported":1781183385,"current_range_meters":7200,"station_id":"ce4bhb92rcd13ifvqen0","pricing_plan_id":"cebpf4jnsgd1na2vs0mg"},{"bike_id":"91f57b43-fef8-4751-ade7-b776093b8207","system_id":"levelo_inurba_marseille","lat":43.24408,"lon":5.37086,"is_reserved":false,"is_disabled":false,"rental_uris":{"android":"levelo://app?vid=91f57b43-fef8-4751-ade7-b776093b8207","ios":"levelo://app?vid=91f57b43-fef8-4751-ade7-b776093b8207"},"vehicle_type_id":"4","last_reported":1781183385,"current_range_meters":7200,"station_id":"ce4bhhh2rcd13ifvqfk0","pricing_plan_id":"cebpf4jnsgd1na2vs0mg"},{"bike_id":"742dca8c-f5db-4c45-bb54-d3bc982dbb56","system_id":"levelo_inurba_marseille","lat":43.30452,"lon":5.3891,"is_reserved":false,"is_disabled":false,"rental_uris":{"android":"levelo://app?vid=742dca8c-f5db-4c45-bb54-d3bc982dbb56","ios":"levelo://app?vid=742dca8c-f5db-4c45-bb54-d3bc982dbb56"},"vehicle_type_id":"4","last_reported":1781183385,"current_range_meters":7200,"station_id":"ce4bgk12rcd13ifvqbi0","pricing_plan_id":"cebpf4jnsgd1na2vs0mg"},{"bike_id":"6bcc356f-7f69-45b4-a42f-c8af24594173","system_id":"levelo_inurba_marseille","lat":43.29626,"lon":5.38094,"is_reserved":false,"is_disabled":false,"rental_uris":{"android":"levelo://app?vid=6bcc356f-7f69-45b4-a42f-c8af24594173","ios":"levelo://app?vid=6bcc356f-7f69-45b4-a42f-c8af24594173"},"vehicle_type_id":"4","last_reported":1781183385,"current_range_meters":7200,"station_id":"ce4bgl12rcd13ifvqbo0","pricing_plan_id":"cebpf4jnsgd1na2vs0mg"},{"bike_id":"0c1dc458-878c-4ebd-912e-32a6863822de","system_id":"levelo_inurba_marseille","lat":43.27109,"lon":5.42264,"is_reserved":false,"is_disabled":false,"rental_uris":{"android":"levelo://app?vid=0c1dc458-878c-4ebd-912e-32a6863822de","ios":"levelo://app?vid=0c1dc458-878c-4ebd-912e-32a6863822de"},"vehicle_type_id":"4","last_reported":1781183385,"current_range_meters":7200,"station_id":"ce4bhk92rcd13ifvqgb0","pricing_plan_id":"cebpf4jnsgd1na2vs0mg"},{"bike_id":"35b048a7-e18a-45e3-af10-0f69baf1889c","system_id":"levelo_inurba_marseille","lat":43.24077,"lon":5.3776,"is_reserved":false,"is_disabled":false,"rental_uris":{"android":"levelo://app?vid=35b048a7-e18a-45e3-af10-0f69baf1889c","ios":"levelo://app?vid=35b048a7-e18a-45e3-af10-0f69baf1889c"},"vehicle_type_id":"4","last_reported":1781183385,"current_range_meters":7200,"station_id":"ce4bhnp2rcd13ifvqgvg","pricing_plan_id":"cebpf4jnsgd1na2vs0mg"},{"bike_id":"e03cb94a-2dcd-439a-b3a9-2902893984d5","system_id":"levelo_inurba_marseille","lat":43.30084,"lon":5.39095,"is_reserved":false,"is_disabled":false,"rental_uris":{"android":"levelo://app?vid=e03cb94a-2dcd-439a-b3a9-2902893984d5","ios":"levelo://app?vid=e03cb94a-2dcd-439a-b3a9-2902893984d5"},"vehicle_type_id":"4","last_reported":1781183385,"current_range_meters":7200,"station_id":"ce4bh192rcd13ifvqdb0","pricing_plan_id":"cebpf4jnsgd1na2vs0mg"},{"bike_id":"7a2582a1-9f4e-4b77-a662-c666529e13ef","system_id":"levelo_inurba_marseille","lat":43.28052,"lon":5.35019,"is_reserved":false,"is_disabled":false,"rental_uris":{"android":"levelo://app?vid=7a2582a1-9f4e-4b77-a662-c666529e13ef","ios":"levelo://app?vid=7a2582a1-9f4e-4b77-a662-c666529e13ef"},"vehicle_type_id":"4","last_reported":1781183385,"current_range_meters":7200,"station_id":"","pricing_plan_id":"cebpf4jnsgd1na2vs0mg"},{"bike_id":"f4604c3b-a56a-425f-8d90-3b8e1f77f859","system_id":"levelo_inurba_marseille","lat":43.3136,"lon":5.38524,"is_reserved":false,"is_disabled":false,"rental_uris":{"android":"levelo://app?vid=f4604c3b-a56a-425f-8d90-3b8e1f77f859","ios":"levelo://app?vid=f4604c3b-a56a-425f-8d90-3b8e1f77f859"},"vehicle_type_id":"4","last_reported":1781183385,"current_range_meters":7200,"station_id":"ce4bgt92rcd13ifvqcf0","pricing_plan_id":"cebpf4jnsgd1na2vs0mg"},{"bike_id":"28c44548-8319-4a04-bd57-23aa1491f526","system_id":"levelo_inurba_marseille","lat":43.27675,"lon":5.38911,"is_reserved":false,"is_disabled":false,"rental_uris":{"android":"levelo://app?vid=28c44548-8319-4a04-bd57-23aa1491f526","ios":"levelo://app?vid=28c44548-8319-4a04-bd57-23aa1491f526"},"vehicle_type_id":"4","last_reported":1781183385,"current_range_meters":7200,"station_id":"ce4bhi12rcd13ifvqfo0","pricing_plan_id":"cebpf4jnsgd1na2vs0mg"},{"bike_id":"032de8e6-0ec2-42ff-875f-57dfdb7e3c3e","system_id":"levelo_inurba_marseille","lat":43.31378,"lon":5.36719,"is_reserved":false,"is_disabled":false,"rental_uris":{"android":"levelo://app?vid=032de8e6-0ec2-42ff-875f-57dfdb7e3c3e","ios":"levelo://app?vid=032de8e6-0ec2-42ff-875f-57dfdb7e3c3e"},"vehicle_type_id":"4","last_reported":1781183385,"current_range_meters":7200,"station_id":"ce4bgr92rcd13ifvqc6g","pricing_plan_id":"cebpf4jnsgd1na2vs0mg"},{"bike_id":"5e481513-f4d8-4523-9d73-5ed714d527e5","system_id":"levelo_inurba_marseille","lat":43.23898,"lon":5.37465,"is_reserved":false,"is_disabled":false,"rental_uris":{"android":"levelo://app?vid=5e481513-f4d8-4523-9d73-5ed714d527e5","ios":"levelo://app?vid=5e481513-f4d8-4523-9d73-5ed714d527e5"},"vehicle_type_id":"4","last_reported":1781183385,"current_range_meters":7200,"station_id":"st_d6sm7csbq4hs73f8fpjg","pricing_plan_id":"cebpf4jnsgd1na2vs0mg"},{"bike_id":"c9c54a24-cd28-4b2b-9ac5-cf7b1eafc839","system_id":"levelo_inurba_marseille","lat":43.307922,"lon":5.381597,"is_reserved":false,"is_disabled":false,"rental_uris":{"android":"levelo://app?vid=c9c54a24-cd28-4b2b-9ac5-cf7b1eafc839","ios":"levelo://app?vid=c9c54a24-cd28-4b2b-9ac5-cf7b1eafc839"},"vehicle_type_id":"4","last_reported":1781183385,"current_range_meters":7200,"station_id":"ce4bgt12rcd13ifvqce0","pricing_plan_id":"cebpf4jnsgd1na2vs0mg"},{"bike_id":"c8422fef-12dd-488e-9cf3-272ec40f64f6","system_id":"levelo_inurba_marseille","lat":43.31898,"lon":5.36799,"is_reserved":false,"is_disabled":false,"rental_uris":{"android":"levelo://app?vid=c8422fef-12dd-488e-9cf3-272ec40f64f6","ios":"levelo://app?vid=c8422fef-12dd-488e-9cf3-272ec40f64f6"},"vehicle_type_id":"4","last_reported":1781183385,"current_range_meters":7200,"station_id":"st_d6o2h0d0559c73evc1b0","pricing_plan_id":"cebpf4jnsgd1na2vs0mg"},{"bike_id":"5ef8b45c-5a2e-4ef3-b317-791d97d054bf","system_id":"levelo_inurba_marseille","lat":43.27155,"lon":5.41418,"is_reserved":false,"is_disabled":false,"rental_uris":{"android":"levelo://app?vid=5ef8b45c-5a2e-4ef3-b317-791d97d054bf","ios":"levelo://app?vid=5ef8b45c-5a2e-4ef3-b317-791d97d054bf"},"vehicle_type_id":"4","last_reported":1781183385,"current_range_meters":7200,"station_id":"","pricing_plan_id":"cebpf4jnsgd1na2vs0mg"},{"bike_id":"8682f4e8-0798-4b4f-8fef-c4dc002ea1c8","system_id":"levelo_inurba_marseille","lat":43.29139,"lon":5.4613,"is_reserved":false,"is_disabled":false,"rental_uris":{"android":"levelo://app?vid=8682f4e8-0798-4b4f-8fef-c4dc002ea1c8","ios":"levelo://app?vid=8682f4e8-0798-4b4f-8fef-c4dc002ea1c8"},"vehicle_type_id":"4","last_reported":1781183385,"current_range_meters":7200,"station_id":"","pricing_plan_id":"cebpf4jnsgd1na2vs0mg"},{"bike_id":"2b6defe8-a223-409d-8f26-f87072c0325b","system_id":"levelo_inurba_marseille","lat":43.30355,"lon":5.41877,"is_reserved":false,"is_disabled":false,"rental_uris":{"android":"levelo://app?vid=2b6defe8-a223-409d-8f26-f87072c0325b","ios":"levelo://app?vid=2b6defe8-a223-409d-8f26-f87072c0325b"},"vehicle_type_id":"4","last_reported":1781183385,"current_range_meters":7200,"station_id":"ce4bhop2rcd13ifvqh7g","pricing_plan_id":"cebpf4jnsgd1na2vs0mg"},{"bike_id":"beb19ff2-1e15-4221-98a9-e234334ed845","system_id":"levelo_inurba_marseille","lat":43.28857,"lon":5.39323,"is_reserved":false,"is_disabled":false,"rental_uris":{"android":"levelo://app?vid=beb19ff2-1e15-4221-98a9-e234334ed845","ios":"levelo://app?vid=beb19ff2-1e15-4221-98a9-e234334ed845"},"vehicle_type_id":"4","last_reported":1781183385,"current_range_meters":7200,"station_id":"ce4bh2p2rcd13ifvqdi0","pricing_plan_id":"cebpf4jnsgd1na2vs0mg"},{"bike_id":"643a5108-6712-460c-84ac-96a9e310c2a1","system_id":"levelo_inurba_marseille","lat":43.32338,"lon":5.36696,"is_reserved":false,"is_disabled":false,"rental_uris":{"android":"levelo://app?vid=643a5108-6712-460c-84ac-96a9e310c2a1","ios":"levelo://app?vid=643a5108-6712-460c-84ac-96a9e310c2a1"},"vehicle_type_id":"4","last_reported":1781183385,"current_range_meters":8000,"station_id":"","pricing_plan_id":"cebpf4jnsgd1na2vs0mg"},{"bike_id":"05dbeb00-c94d-4fd8-88ff-0b9e5369bba0","system_id":"levelo_inurba_marseille","lat":43.24374,"lon":5.36986,"is_reserved":false,"is_disabled":false,"rental_uris":{"android":"levelo://app?vid=05dbeb00-c94d-4fd8-88ff-0b9e5369bba0","ios":"levelo://app?vid=05dbeb00-c94d-4fd8-88ff-0b9e5369bba0"},"vehicle_type_id":"4","last_reported":1781183385,"current_range_meters":8000,"station_id":"","pricing_plan_id":"cebpf4jnsgd1na2vs0mg"},{"bike_id":"b2ad6388-0d4f-4e9c-8ff3-f1ad38b97382","system_id":"levelo_inurba_marseille","lat":43.27676,"lon":5.42441,"is_reserved":false,"is_disabled":false,"rental_uris":{"android":"levelo://app?vid=b2ad6388-0d4f-4e9c-8ff3-f1ad38b97382","ios":"levelo://app?vid=b2ad6388-0d4f-4e9c-8ff3-f1ad38b97382"},"vehicle_type_id":"4","last_reported":1781183385,"current_range_meters":8000,"station_id":"","pricing_plan_id":"cebpf4jnsgd1na2vs0mg"},{"bike_id":"680f1b78-f257-4001-b384-47c4c774d972","system_id":"levelo_inurba_marseille","lat":43.26193,"lon":5.37961,"is_reserved":false,"is_disabled":false,"rental_uris":{"android":"levelo://app?vid=680f1b78-f257-4001-b384-47c4c774d972","ios":"levelo://app?vid=680f1b78-f257-4001-b384-47c4c774d972"},"vehicle_type_id":"4","last_reported":1781183385,"current_range_meters":8000,"station_id":"ce4bhjp2rcd13ifvqg90","pricing_plan_id":"cebpf4jnsgd1na2vs0mg"},{"bike_id":"a4519ab8-8a91-4627-a831-ddbbcc2b09e2","system_id":"levelo_inurba_marseille","lat":43.3042,"lon":5.39739,"is_reserved":false,"is_disabled":true,"rental_uris":{"android":"levelo://app?vid=a4519ab8-8a91-4627-a831-ddbbcc2b09e2","ios":"levelo://app?vid=a4519ab8-8a91-4627-a831-ddbbcc2b09e2"},"vehicle_type_id":"4","last_reported":1781183385,"current_range_meters":8000,"station_id":"ce4bh092rcd13ifvqd20","pricing_plan_id":"cebpf4jnsgd1na2vs0mg"},{"bike_id":"458184d5-3db4-4166-a3be-3b7f8f7c451a","system_id":"levelo_inurba_marseille","lat":43.278105,"lon":5.407174,"is_reserved":false,"is_disabled":false,"rental_uris":{"android":"levelo://app?vid=458184d5-3db4-4166-a3be-3b7f8f7c451a","ios":"levelo://app?vid=458184d5-3db4-4166-a3be-3b7f8f7c451a"},"vehicle_type_id":"4","last_reported":1781183385,"current_range_meters":8000,"station_id":"ce4bhnh2rcd13ifvqgtg","pricing_plan_id":"cebpf4jnsgd1na2vs0mg"},{"bike_id":"fac39877-db18-473e-8893-386228234ce9","system_id":"levelo_inurba_marseille","lat":43.25918,"lon":5.40905,"is_reserved":false,"is_disabled":false,"rental_uris":{"android":"levelo://app?vid=fac39877-db18-473e-8893-386228234ce9","ios":"levelo://app?vid=fac39877-db18-473e-8893-386228234ce9"},"vehicle_type_id":"4","last_reported":1781183385,"current_range_meters":8000,"station_id":"ce4bhm92rcd13ifvqglg","pricing_plan_id":"cebpf4jnsgd1na2vs0mg"},{"bike_id":"7228fead-11f4-4420-985a-f0fd937f1e1d","system_id":"levelo_inurba_marseille","lat":43.30911,"lon":5.36874,"is_reserved":false,"is_disabled":false,"rental_uris":{"android":"levelo://app?vid=7228fead-11f4-4420-985a-f0fd937f1e1d","ios":"levelo://app?vid=7228fead-11f4-4420-985a-f0fd937f1e1d"},"vehicle_type_id":"4","last_reported":1781183385,"current_range_meters":8000,"station_id":"ce4bgn92rcd13ifvqbvg","pricing_plan_id":"cebpf4jnsgd1na2vs0mg"},{"bike_id":"b8bfe734-3e71-418e-b260-1137cbeaba92","system_id":"levelo_inurba_marseille","lat":43.24073,"lon":5.37769,"is_reserved":false,"is_disabled":false,"rental_uris":{"android":"levelo://app?vid=b8bfe734-3e71-418e-b260-1137cbeaba92","ios":"levelo://app?vid=b8bfe734-3e71-418e-b260-1137cbeaba92"},"vehicle_type_id":"4","last_reported":1781183385,"current_range_meters":8000,"station_id":"ce4bhnp2rcd13ifvqgvg","pricing_plan_id":"cebpf4jnsgd1na2vs0mg"},{"bike_id":"79279666-343b-4b19-86c9-622131a51a1f","system_id":"levelo_inurba_marseille","lat":43.29257,"lon":5.36853,"is_reserved":false,"is_disabled":false,"rental_uris":{"android":"levelo://app?vid=79279666-343b-4b19-86c9-622131a51a1f","ios":"levelo://app?vid=79279666-343b-4b19-86c9-622131a51a1f"},"vehicle_type_id":"4","last_reported":1781183385,"current_range_meters":8000,"station_id":"ce4bhbp2rcd13ifvqesg","pricing_plan_id":"cebpf4jnsgd1na2vs0mg"},{"bike_id":"17369bee-43fb-4510-ab11-4bc54a77a2f2","system_id":"levelo_inurba_marseille","lat":43.2862,"lon":5.35109,"is_reserved":false,"is_disabled":true,"rental_uris":{"android":"levelo://app?vid=17369bee-43fb-4510-ab11-4bc54a77a2f2","ios":"levelo://app?vid=17369bee-43fb-4510-ab11-4bc54a77a2f2"},"vehicle_type_id":"4","last_reported":1781183385,"current_range_meters":8000,"station_id":"ce4bhch2rcd13ifvqeug","pricing_plan_id":"cebpf4jnsgd1na2vs0mg"},{"bike_id":"f3a30d75-07a4-4807-9916-8958c1cb0ce7","system_id":"levelo_inurba_marseille","lat":43.30297,"lon":5.36975,"is_reserved":false,"is_disabled":false,"rental_uris":{"android":"levelo://app?vid=f3a30d75-07a4-4807-9916-8958c1cb0ce7","ios":"levelo://app?vid=f3a30d75-07a4-4807-9916-8958c1cb0ce7"},"vehicle_type_id":"4","last_reported":1781183385,"current_range_meters":8000,"station_id":"","pricing_plan_id":"cebpf4jnsgd1na2vs0mg"},{"bike_id":"4822f4c5-0cf3-477d-8103-91e9ad16488c","system_id":"levelo_inurba_marseille","lat":43.30137,"lon":5.38799,"is_reserved":false,"is_disabled":false,"rental_uris":{"android":"levelo://app?vid=4822f4c5-0cf3-477d-8103-91e9ad16488c","ios":"levelo://app?vid=4822f4c5-0cf3-477d-8103-91e9ad16488c"},"vehicle_type_id":"4","last_reported":1781183385,"current_range_meters":8000,"station_id":"ce4bghh2rcd13ifvqb60","pricing_plan_id":"cebpf4jnsgd1na2vs0mg"},{"bike_id":"40de0209-043c-4ed6-84c3-7ac1da5cf58d","system_id":"levelo_inurba_marseille","lat":43.32116,"lon":5.36757,"is_reserved":false,"is_disabled":false,"rental_uris":{"android":"levelo://app?vid=40de0209-043c-4ed6-84c3-7ac1da5cf58d","ios":"levelo://app?vid=40de0209-043c-4ed6-84c3-7ac1da5cf58d"},"vehicle_type_id":"4","last_reported":1781183385,"current_range_meters":8000,"station_id":"ce4bhrh2rcd13ifvqhug","pricing_plan_id":"cebpf4jnsgd1na2vs0mg"},{"bike_id":"8859d173-9f5d-4e39-86ed-34ec86a90175","system_id":"levelo_inurba_marseille","lat":43.2991,"lon":5.42795,"is_reserved":false,"is_disabled":false,"rental_uris":{"android":"levelo://app?vid=8859d173-9f5d-4e39-86ed-34ec86a90175","ios":"levelo://app?vid=8859d173-9f5d-4e39-86ed-34ec86a90175"},"vehicle_type_id":"4","last_reported":1781183385,"current_range_meters":8000,"station_id":"","pricing_plan_id":"cebpf4jnsgd1na2vs0mg"},{"bike_id":"0879deff-8fe1-47ae-94a9-b638dcbf5c01","system_id":"levelo_inurba_marseille","lat":43.3117,"lon":5.36869,"is_reserved":false,"is_disabled":false,"rental_uris":{"android":"levelo://app?vid=0879deff-8fe1-47ae-94a9-b638dcbf5c01","ios":"levelo://app?vid=0879deff-8fe1-47ae-94a9-b638dcbf5c01"},"vehicle_type_id":"4","last_reported":1781183385,"current_range_meters":8000,"station_id":"ce4bgl92rcd13ifvqbq0","pricing_plan_id":"cebpf4jnsgd1na2vs0mg"},{"bike_id":"40ed2a70-2a09-4f76-b267-79ab98027859","system_id":"levelo_inurba_marseille","lat":43.21748,"lon":5.34608,"is_reserved":false,"is_disabled":false,"rental_uris":{"android":"levelo://app?vid=40ed2a70-2a09-4f76-b267-79ab98027859","ios":"levelo://app?vid=40ed2a70-2a09-4f76-b267-79ab98027859"},"vehicle_type_id":"4","last_reported":1781183385,"current_range_meters":8000,"station_id":"st_cvj6r9ubvosntc0bgbag","pricing_plan_id":"cebpf4jnsgd1na2vs0mg"},{"bike_id":"8864ec53-d500-4cc4-a9f3-f49d8ffafb6b","system_id":"levelo_inurba_marseille","lat":43.27066,"lon":5.38302,"is_reserved":false,"is_disabled":false,"rental_uris":{"android":"levelo://app?vid=8864ec53-d500-4cc4-a9f3-f49d8ffafb6b","ios":"levelo://app?vid=8864ec53-d500-4cc4-a9f3-f49d8ffafb6b"},"vehicle_type_id":"4","last_reported":1781183385,"current_range_meters":8000,"station_id":"st_d3n2fo6cfp8s73cte1j0","pricing_plan_id":"cebpf4jnsgd1na2vs0mg"},{"bike_id":"a4fa105d-259f-43a8-8848-bc8089362849","system_id":"levelo_inurba_marseille","lat":43.299417,"lon":5.365654,"is_reserved":false,"is_disabled":false,"rental_uris":{"android":"levelo://app?vid=a4fa105d-259f-43a8-8848-bc8089362849","ios":"levelo://app?vid=a4fa105d-259f-43a8-8848-bc8089362849"},"vehicle_type_id":"4","last_reported":1781183385,"current_range_meters":8000,"station_id":"ce4bgm92rcd13ifvqbr0","pricing_plan_id":"cebpf4jnsgd1na2vs0mg"},{"bike_id":"dd76da5f-6853-4850-bafa-5b3f6058c61d","system_id":"levelo_inurba_marseille","lat":43.31724,"lon":5.37748,"is_reserved":false,"is_disabled":false,"rental_uris":{"android":"levelo://app?vid=dd76da5f-6853-4850-bafa-5b3f6058c61d","ios":"levelo://app?vid=dd76da5f-6853-4850-bafa-5b3f6058c61d"},"vehicle_type_id":"4","last_reported":1781183385,"current_range_meters":8000,"station_id":"ce4bgth2rcd13ifvqch0","pricing_plan_id":"cebpf4jnsgd1na2vs0mg"},{"bike_id":"75248494-6e46-4c4b-92d2-9db9ddbe9016","system_id":"levelo_inurba_marseille","lat":43.28478,"lon":5.48422,"is_reserved":false,"is_disabled":false,"rental_uris":{"android":"levelo://app?vid=75248494-6e46-4c4b-92d2-9db9ddbe9016","ios":"levelo://app?vid=75248494-6e46-4c4b-92d2-9db9ddbe9016"},"vehicle_type_id":"4","last_reported":1781183385,"current_range_meters":8000,"station_id":"st_d3svhcjqgbts73a3dn0g","pricing_plan_id":"cebpf4jnsgd1na2vs0mg"},{"bike_id":"79124808-49cb-427a-8c17-e9b0123b502c","system_id":"levelo_inurba_marseille","lat":43.2737,"lon":5.36236,"is_reserved":false,"is_disabled":false,"rental_uris":{"android":"levelo://app?vid=79124808-49cb-427a-8c17-e9b0123b502c","ios":"levelo://app?vid=79124808-49cb-427a-8c17-e9b0123b502c"},"vehicle_type_id":"4","last_reported":1781183385,"current_range_meters":8000,"station_id":"ce4bhbh2rcd13ifvqeo0","pricing_plan_id":"cebpf4jnsgd1na2vs0mg"},{"bike_id":"3c417643-b375-46d6-aaae-23014a792fcd","system_id":"levelo_inurba_marseille","lat":43.29164,"lon":5.37182,"is_reserved":false,"is_disabled":false,"rental_uris":{"android":"levelo://app?vid=3c417643-b375-46d6-aaae-23014a792fcd","ios":"levelo://app?vid=3c417643-b375-46d6-aaae-23014a792fcd"},"vehicle_type_id":"4","last_reported":1781183385,"current_range_meters":8400,"station_id":"ce4bha92rcd13ifvqeh0","pricing_plan_id":"cebpf4jnsgd1na2vs0mg"},{"bike_id":"3d5d6eb3-7112-4326-9349-d1dcbf01c6f4","system_id":"levelo_inurba_marseille","lat":43.28426,"lon":5.35002,"is_reserved":false,"is_disabled":false,"rental_uris":{"android":"levelo://app?vid=3d5d6eb3-7112-4326-9349-d1dcbf01c6f4","ios":"levelo://app?vid=3d5d6eb3-7112-4326-9349-d1dcbf01c6f4"},"vehicle_type_id":"4","last_reported":1781183385,"current_range_meters":8400,"station_id":"ce4bhbh2rcd13ifvqepg","pricing_plan_id":"cebpf4jnsgd1na2vs0mg"},{"bike_id":"63bed2f8-fb5f-432e-a032-c96a3b2c4e6f","system_id":"levelo_inurba_marseille","lat":43.28626,"lon":5.38705,"is_reserved":false,"is_disabled":false,"rental_uris":{"android":"levelo://app?vid=63bed2f8-fb5f-432e-a032-c96a3b2c4e6f","ios":"levelo://app?vid=63bed2f8-fb5f-432e-a032-c96a3b2c4e6f"},"vehicle_type_id":"4","last_reported":1781183385,"current_range_meters":8400,"station_id":"ce4bh492rcd13ifvqdug","pricing_plan_id":"cebpf4jnsgd1na2vs0mg"},{"bike_id":"0e86ce8f-0e91-432f-80bf-d4513463cb14","system_id":"levelo_inurba_marseille","lat":43.26213,"lon":5.37479,"is_reserved":false,"is_disabled":false,"rental_uris":{"android":"levelo://app?vid=0e86ce8f-0e91-432f-80bf-d4513463cb14","ios":"levelo://app?vid=0e86ce8f-0e91-432f-80bf-d4513463cb14"},"vehicle_type_id":"4","last_reported":1781183385,"current_range_meters":8400,"station_id":"ce4bhgp2rcd13ifvqfc0","pricing_plan_id":"cebpf4jnsgd1na2vs0mg"},{"bike_id":"59d963d0-d1fe-483b-80d5-41df37ab3e9b","system_id":"levelo_inurba_marseille","lat":43.25581,"lon":5.38255,"is_reserved":false,"is_disabled":false,"rental_uris":{"android":"levelo://app?vid=59d963d0-d1fe-483b-80d5-41df37ab3e9b","ios":"levelo://app?vid=59d963d0-d1fe-483b-80d5-41df37ab3e9b"},"vehicle_type_id":"4","last_reported":1781183385,"current_range_meters":8400,"station_id":"ce4bhih2rcd13ifvqfs0","pricing_plan_id":"cebpf4jnsgd1na2vs0mg"},{"bike_id":"860722fe-5c5a-4186-988e-8f94a0e241b3","system_id":"levelo_inurba_marseille","lat":43.32093,"lon":5.36752,"is_reserved":false,"is_disabled":false,"rental_uris":{"android":"levelo://app?vid=860722fe-5c5a-4186-988e-8f94a0e241b3","ios":"levelo://app?vid=860722fe-5c5a-4186-988e-8f94a0e241b3"},"vehicle_type_id":"4","last_reported":1781183385,"current_range_meters":8400,"station_id":"ce4bhrh2rcd13ifvqhug","pricing_plan_id":"cebpf4jnsgd1na2vs0mg"},{"bike_id":"4700ed76-ce75-475e-b8de-0bb4632f1a85","system_id":"levelo_inurba_marseille","lat":43.2732,"lon":5.39088,"is_reserved":false,"is_disabled":false,"rental_uris":{"android":"levelo://app?vid=4700ed76-ce75-475e-b8de-0bb4632f1a85","ios":"levelo://app?vid=4700ed76-ce75-475e-b8de-0bb4632f1a85"},"vehicle_type_id":"4","last_reported":1781183385,"current_range_meters":8400,"station_id":"ce4bhgp2rcd13ifvqfe0","pricing_plan_id":"cebpf4jnsgd1na2vs0mg"},{"bike_id":"e76b8826-608a-43d5-84ee-3eea9bc7666f","system_id":"levelo_inurba_marseille","lat":43.28448,"lon":5.39572,"is_reserved":false,"is_disabled":false,"rental_uris":{"android":"levelo://app?vid=e76b8826-608a-43d5-84ee-3eea9bc7666f","ios":"levelo://app?vid=e76b8826-608a-43d5-84ee-3eea9bc7666f"},"vehicle_type_id":"4","last_reported":1781183385,"current_range_meters":8400,"station_id":"","pricing_plan_id":"cebpf4jnsgd1na2vs0mg"},{"bike_id":"ec2daba8-3f31-4cc5-93b9-21da4b9bc2d1","system_id":"levelo_inurba_marseille","lat":43.30803,"lon":5.38173,"is_reserved":false,"is_disabled":false,"rental_uris":{"android":"levelo://app?vid=ec2daba8-3f31-4cc5-93b9-21da4b9bc2d1","ios":"levelo://app?vid=ec2daba8-3f31-4cc5-93b9-21da4b9bc2d1"},"vehicle_type_id":"4","last_reported":1781183385,"current_range_meters":8400,"station_id":"ce4bgt12rcd13ifvqce0","pricing_plan_id":"cebpf4jnsgd1na2vs0mg"},{"bike_id":"8b7f23fc-1e65-43c2-998e-b3ee6ddf07c7","system_id":"levelo_inurba_marseille","lat":43.30147,"lon":5.37513,"is_reserved":false,"is_disabled":false,"rental_uris":{"android":"levelo://app?vid=8b7f23fc-1e65-43c2-998e-b3ee6ddf07c7","ios":"levelo://app?vid=8b7f23fc-1e65-43c2-998e-b3ee6ddf07c7"},"vehicle_type_id":"4","last_reported":1781183385,"current_range_meters":8400,"station_id":"","pricing_plan_id":"cebpf4jnsgd1na2vs0mg"},{"bike_id":"c3330023-c997-4b90-8a68-a4726b0cc17b","system_id":"levelo_inurba_marseille","lat":43.3145,"lon":5.36943,"is_reserved":false,"is_disabled":false,"rental_uris":{"android":"levelo://app?vid=c3330023-c997-4b90-8a68-a4726b0cc17b","ios":"levelo://app?vid=c3330023-c997-4b90-8a68-a4726b0cc17b"},"vehicle_type_id":"4","last_reported":1781183385,"current_range_meters":8400,"station_id":"","pricing_plan_id":"cebpf4jnsgd1na2vs0mg"},{"bike_id":"f63e0e69-6a54-4e19-8d8e-f67680de3ed1","system_id":"levelo_inurba_marseille","lat":43.24624,"lon":5.43161,"is_reserved":false,"is_disabled":false,"rental_uris":{"android":"levelo://app?vid=f63e0e69-6a54-4e19-8d8e-f67680de3ed1","ios":"levelo://app?vid=f63e0e69-6a54-4e19-8d8e-f67680de3ed1"},"vehicle_type_id":"4","last_reported":1781183385,"current_range_meters":8400,"station_id":"st_d2m6c4gdas8pm72e190g","pricing_plan_id":"cebpf4jnsgd1na2vs0mg"},{"bike_id":"44db3cc5-4513-4364-9997-6be5a1a3518c","system_id":"levelo_inurba_marseille","lat":43.30875,"lon":5.36827,"is_reserved":false,"is_disabled":false,"rental_uris":{"android":"levelo://app?vid=44db3cc5-4513-4364-9997-6be5a1a3518c","ios":"levelo://app?vid=44db3cc5-4513-4364-9997-6be5a1a3518c"},"vehicle_type_id":"4","last_reported":1781183385,"current_range_meters":8400,"station_id":"ce4bgn92rcd13ifvqbvg","pricing_plan_id":"cebpf4jnsgd1na2vs0mg"},{"bike_id":"a5fabb78-601b-4119-a643-1972ad7e2c3b","system_id":"levelo_inurba_marseille","lat":43.2622,"lon":5.3879,"is_reserved":false,"is_disabled":false,"rental_uris":{"android":"levelo://app?vid=a5fabb78-601b-4119-a643-1972ad7e2c3b","ios":"levelo://app?vid=a5fabb78-601b-4119-a643-1972ad7e2c3b"},"vehicle_type_id":"4","last_reported":1781183385,"current_range_meters":8400,"station_id":"st_d8gjfg747rts73coq3b0","pricing_plan_id":"cebpf4jnsgd1na2vs0mg"},{"bike_id":"b63d875a-41b5-4617-9429-1880fda40eb1","system_id":"levelo_inurba_marseille","lat":43.28565,"lon":5.39516,"is_reserved":false,"is_disabled":false,"rental_uris":{"android":"levelo://app?vid=b63d875a-41b5-4617-9429-1880fda40eb1","ios":"levelo://app?vid=b63d875a-41b5-4617-9429-1880fda40eb1"},"vehicle_type_id":"4","last_reported":1781183385,"current_range_meters":8400,"station_id":"ce4bh292rcd13ifvqdg0","pricing_plan_id":"cebpf4jnsgd1na2vs0mg"},{"bike_id":"70adc49c-37fa-421a-890f-a1c6f4732667","system_id":"levelo_inurba_marseille","lat":43.24804,"lon":5.38743,"is_reserved":false,"is_disabled":true,"rental_uris":{"android":"levelo://app?vid=70adc49c-37fa-421a-890f-a1c6f4732667","ios":"levelo://app?vid=70adc49c-37fa-421a-890f-a1c6f4732667"},"vehicle_type_id":"4","last_reported":1781183385,"current_range_meters":8400,"station_id":"","pricing_plan_id":"cebpf4jnsgd1na2vs0mg"},{"bike_id":"2507d607-3822-4c87-a669-ab9b0690fc01","system_id":"levelo_inurba_marseille","lat":43.2864,"lon":5.35079,"is_reserved":false,"is_disabled":false,"rental_uris":{"android":"levelo://app?vid=2507d607-3822-4c87-a669-ab9b0690fc01","ios":"levelo://app?vid=2507d607-3822-4c87-a669-ab9b0690fc01"},"vehicle_type_id":"4","last_reported":1781183385,"current_range_meters":8400,"station_id":"ce4bhch2rcd13ifvqeug","pricing_plan_id":"cebpf4jnsgd1na2vs0mg"},{"bike_id":"82008e41-296f-4e78-9de0-5991c30bd08e","system_id":"levelo_inurba_marseille","lat":43.278386,"lon":5.39208,"is_reserved":false,"is_disabled":false,"rental_uris":{"android":"levelo://app?vid=82008e41-296f-4e78-9de0-5991c30bd08e","ios":"levelo://app?vid=82008e41-296f-4e78-9de0-5991c30bd08e"},"vehicle_type_id":"4","last_reported":1781183385,"current_range_meters":8400,"station_id":"ce4bhjp2rcd13ifvqga0","pricing_plan_id":"cebpf4jnsgd1na2vs0mg"},{"bike_id":"24f02d56-4cb2-4734-b396-c4353be9b86c","system_id":"levelo_inurba_marseille","lat":43.32104,"lon":5.36782,"is_reserved":false,"is_disabled":false,"rental_uris":{"android":"levelo://app?vid=24f02d56-4cb2-4734-b396-c4353be9b86c","ios":"levelo://app?vid=24f02d56-4cb2-4734-b396-c4353be9b86c"},"vehicle_type_id":"4","last_reported":1781183385,"current_range_meters":8400,"station_id":"ce4bhrh2rcd13ifvqhug","pricing_plan_id":"cebpf4jnsgd1na2vs0mg"},{"bike_id":"1e6d5f18-f409-4841-8c79-a2d23fc11337","system_id":"levelo_inurba_marseille","lat":43.30142,"lon":5.37424,"is_reserved":false,"is_disabled":false,"rental_uris":{"android":"levelo://app?vid=1e6d5f18-f409-4841-8c79-a2d23fc11337","ios":"levelo://app?vid=1e6d5f18-f409-4841-8c79-a2d23fc11337"},"vehicle_type_id":"4","last_reported":1781183385,"current_range_meters":8400,"station_id":"ce4bgs92rcd13ifvqcc0","pricing_plan_id":"cebpf4jnsgd1na2vs0mg"},{"bike_id":"8629a2bb-f291-438c-937f-11dc8eb60c22","system_id":"levelo_inurba_marseille","lat":43.33596,"lon":5.41013,"is_reserved":false,"is_disabled":false,"rental_uris":{"android":"levelo://app?vid=8629a2bb-f291-438c-937f-11dc8eb60c22","ios":"levelo://app?vid=8629a2bb-f291-438c-937f-11dc8eb60c22"},"vehicle_type_id":"4","last_reported":1781183385,"current_range_meters":8400,"station_id":"ce4bhqh2rcd13ifvqhmg","pricing_plan_id":"cebpf4jnsgd1na2vs0mg"},{"bike_id":"e9ce25b8-b480-4907-8ce1-b8aecfbb3105","system_id":"levelo_inurba_marseille","lat":43.32339,"lon":5.36711,"is_reserved":false,"is_disabled":false,"rental_uris":{"android":"levelo://app?vid=e9ce25b8-b480-4907-8ce1-b8aecfbb3105","ios":"levelo://app?vid=e9ce25b8-b480-4907-8ce1-b8aecfbb3105"},"vehicle_type_id":"4","last_reported":1781183385,"current_range_meters":8400,"station_id":"ce4bhsh2rcd13ifvqi2g","pricing_plan_id":"cebpf4jnsgd1na2vs0mg"},{"bike_id":"60210465-87aa-4993-adce-44c433a76140","system_id":"levelo_inurba_marseille","lat":43.27328,"lon":5.36283,"is_reserved":false,"is_disabled":false,"rental_uris":{"android":"levelo://app?vid=60210465-87aa-4993-adce-44c433a76140","ios":"levelo://app?vid=60210465-87aa-4993-adce-44c433a76140"},"vehicle_type_id":"4","last_reported":1781183385,"current_range_meters":8400,"station_id":"ce4bhbh2rcd13ifvqeo0","pricing_plan_id":"cebpf4jnsgd1na2vs0mg"},{"bike_id":"edd7f6cf-c00d-4334-ba4f-ddda86c6a12e","system_id":"levelo_inurba_marseille","lat":43.30318,"lon":5.376,"is_reserved":false,"is_disabled":false,"rental_uris":{"android":"levelo://app?vid=edd7f6cf-c00d-4334-ba4f-ddda86c6a12e","ios":"levelo://app?vid=edd7f6cf-c00d-4334-ba4f-ddda86c6a12e"},"vehicle_type_id":"4","last_reported":1781183385,"current_range_meters":8400,"station_id":"","pricing_plan_id":"cebpf4jnsgd1na2vs0mg"},{"bike_id":"f79e9fe2-c9de-4cd9-a564-83e6d71871de","system_id":"levelo_inurba_marseille","lat":43.26208,"lon":5.37455,"is_reserved":false,"is_disabled":false,"rental_uris":{"android":"levelo://app?vid=f79e9fe2-c9de-4cd9-a564-83e6d71871de","ios":"levelo://app?vid=f79e9fe2-c9de-4cd9-a564-83e6d71871de"},"vehicle_type_id":"4","last_reported":1781183385,"current_range_meters":8400,"station_id":"ce4bhgp2rcd13ifvqfc0","pricing_plan_id":"cebpf4jnsgd1na2vs0mg"},{"bike_id":"0193df8e-e671-4439-b878-059ede893bd0","system_id":"levelo_inurba_marseille","lat":43.24675,"lon":5.38147,"is_reserved":false,"is_disabled":false,"rental_uris":{"android":"levelo://app?vid=0193df8e-e671-4439-b878-059ede893bd0","ios":"levelo://app?vid=0193df8e-e671-4439-b878-059ede893bd0"},"vehicle_type_id":"4","last_reported":1781183385,"current_range_meters":8400,"station_id":"ce4bhih2rcd13ifvqfr0","pricing_plan_id":"cebpf4jnsgd1na2vs0mg"},{"bike_id":"968b0e26-b8df-4141-8cac-a20ad32c1d22","system_id":"levelo_inurba_marseille","lat":43.22564,"lon":5.41635,"is_reserved":false,"is_disabled":false,"rental_uris":{"android":"levelo://app?vid=968b0e26-b8df-4141-8cac-a20ad32c1d22","ios":"levelo://app?vid=968b0e26-b8df-4141-8cac-a20ad32c1d22"},"vehicle_type_id":"4","last_reported":1781183385,"current_range_meters":8400,"station_id":"st_d2o4gvlbi1j2169b742g","pricing_plan_id":"cebpf4jnsgd1na2vs0mg"},{"bike_id":"a2bc473d-7b8f-40ea-ac5e-ed52523ca79c","system_id":"levelo_inurba_marseille","lat":43.28389,"lon":5.34984,"is_reserved":false,"is_disabled":false,"rental_uris":{"android":"levelo://app?vid=a2bc473d-7b8f-40ea-ac5e-ed52523ca79c","ios":"levelo://app?vid=a2bc473d-7b8f-40ea-ac5e-ed52523ca79c"},"vehicle_type_id":"4","last_reported":1781183385,"current_range_meters":8400,"station_id":"ce4bhbh2rcd13ifvqepg","pricing_plan_id":"cebpf4jnsgd1na2vs0mg"},{"bike_id":"dc73c328-897b-43d1-8b5d-64ea0e70a4c7","system_id":"levelo_inurba_marseille","lat":43.25571,"lon":5.3823,"is_reserved":false,"is_disabled":false,"rental_uris":{"android":"levelo://app?vid=dc73c328-897b-43d1-8b5d-64ea0e70a4c7","ios":"levelo://app?vid=dc73c328-897b-43d1-8b5d-64ea0e70a4c7"},"vehicle_type_id":"4","last_reported":1781183385,"current_range_meters":8400,"station_id":"ce4bhih2rcd13ifvqfs0","pricing_plan_id":"cebpf4jnsgd1na2vs0mg"},{"bike_id":"9270a59a-7e46-4477-aa2b-4080e98cd59b","system_id":"levelo_inurba_marseille","lat":43.26037,"lon":5.37554,"is_reserved":false,"is_disabled":false,"rental_uris":{"android":"levelo://app?vid=9270a59a-7e46-4477-aa2b-4080e98cd59b","ios":"levelo://app?vid=9270a59a-7e46-4477-aa2b-4080e98cd59b"},"vehicle_type_id":"4","last_reported":1781183385,"current_range_meters":8400,"station_id":"ce4bhgh2rcd13ifvqfa0","pricing_plan_id":"cebpf4jnsgd1na2vs0mg"},{"bike_id":"aaa66412-2aa3-4106-bf51-3d316dbc10b4","system_id":"levelo_inurba_marseille","lat":43.22562,"lon":5.41644,"is_reserved":false,"is_disabled":false,"rental_uris":{"android":"levelo://app?vid=aaa66412-2aa3-4106-bf51-3d316dbc10b4","ios":"levelo://app?vid=aaa66412-2aa3-4106-bf51-3d316dbc10b4"},"vehicle_type_id":"4","last_reported":1781183385,"current_range_meters":8800,"station_id":"st_d2o4gvlbi1j2169b742g","pricing_plan_id":"cebpf4jnsgd1na2vs0mg"},{"bike_id":"327a3d5b-8941-4a46-9bd0-eabbebf8078d","system_id":"levelo_inurba_marseille","lat":43.23149,"lon":5.43727,"is_reserved":false,"is_disabled":false,"rental_uris":{"android":"levelo://app?vid=327a3d5b-8941-4a46-9bd0-eabbebf8078d","ios":"levelo://app?vid=327a3d5b-8941-4a46-9bd0-eabbebf8078d"},"vehicle_type_id":"4","last_reported":1781183385,"current_range_meters":8800,"station_id":"ce4bhmp2rcd13ifvqgog","pricing_plan_id":"cebpf4jnsgd1na2vs0mg"},{"bike_id":"4db29cef-f359-45b4-aa25-c9721ce8bdab","system_id":"levelo_inurba_marseille","lat":43.2594,"lon":5.40908,"is_reserved":false,"is_disabled":false,"rental_uris":{"android":"levelo://app?vid=4db29cef-f359-45b4-aa25-c9721ce8bdab","ios":"levelo://app?vid=4db29cef-f359-45b4-aa25-c9721ce8bdab"},"vehicle_type_id":"4","last_reported":1781183385,"current_range_meters":8800,"station_id":"ce4bhm92rcd13ifvqglg","pricing_plan_id":"cebpf4jnsgd1na2vs0mg"},{"bike_id":"2f478b7c-c291-4784-82e8-718780e1d080","system_id":"levelo_inurba_marseille","lat":43.281545,"lon":5.426275,"is_reserved":false,"is_disabled":false,"rental_uris":{"android":"levelo://app?vid=2f478b7c-c291-4784-82e8-718780e1d080","ios":"levelo://app?vid=2f478b7c-c291-4784-82e8-718780e1d080"},"vehicle_type_id":"4","last_reported":1781183385,"current_range_meters":8800,"station_id":"ce4bhnh2rcd13ifvqgug","pricing_plan_id":"cebpf4jnsgd1na2vs0mg"},{"bike_id":"157bcf61-d921-4706-a4a3-a6304086fa86","system_id":"levelo_inurba_marseille","lat":43.29737,"lon":5.37681,"is_reserved":false,"is_disabled":false,"rental_uris":{"android":"levelo://app?vid=157bcf61-d921-4706-a4a3-a6304086fa86","ios":"levelo://app?vid=157bcf61-d921-4706-a4a3-a6304086fa86"},"vehicle_type_id":"4","last_reported":1781183385,"current_range_meters":8800,"station_id":"ce4bgkh2rcd13ifvqbl0","pricing_plan_id":"cebpf4jnsgd1na2vs0mg"},{"bike_id":"652df70b-6227-436f-80ac-3232ceb2a4db","system_id":"levelo_inurba_marseille","lat":43.25514,"lon":5.37658,"is_reserved":false,"is_disabled":false,"rental_uris":{"android":"levelo://app?vid=652df70b-6227-436f-80ac-3232ceb2a4db","ios":"levelo://app?vid=652df70b-6227-436f-80ac-3232ceb2a4db"},"vehicle_type_id":"4","last_reported":1781183385,"current_range_meters":8800,"station_id":"ce4bhh12rcd13ifvqff0","pricing_plan_id":"cebpf4jnsgd1na2vs0mg"},