{"last_updated":1770046116,"ttl":60,"version":"2.2","data":{"bikes":[{"bike_id":"1d38c5ef-3b7f-4420-a188-9645b478f8d9","system_id":"levelo_inurba_marseille","lat":43.25592,"lon":5.38239,"is_reserved":false,"is_disabled":false,"rental_uris":{"android":"levelo://app?vid=1d38c5ef-3b7f-4420-a188-9645b478f8d9","ios":"levelo://app?vid=1d38c5ef-3b7f-4420-a188-9645b478f8d9"},"vehicle_type_id":"4","last_reported":1770046117,"current_range_meters":2800,"station_id":"ce4bhih2rcd13ifvqfs0","pricing_plan_id":"cebpf4jnsgd1na2vs0mg"},{"bike_id":"4439bd76-39b1-4169-90ae-19276fc4a8d2","system_id":"levelo_inurba_marseille","lat":43.33606,"lon":5.41006,"is_reserved":false,"is_disabled":false,"rental_uris":{"android":"levelo://app?vid=4439bd76-39b1-4169-90ae-19276fc4a8d2","ios":"levelo://app?vid=4439bd76-39b1-4169-90ae-19276fc4a8d2"},"vehicle_type_id":"4","last_reported":1770046117,"current_range_meters":2800,"station_id":"ce4bhqh2rcd13ifvqhmg","pricing_plan_id":"cebpf4jnsgd1na2vs0mg"},{"bike_id":"be7ab9e4-5622-445b-9f21-82284cb93ec1","system_id":"levelo_inurba_marseille","lat":43.26566,"lon":5.40341,"is_reserved":false,"is_disabled":true,"rental_uris":{"android":"levelo://app?vid=be7ab9e4-5622-445b-9f21-82284cb93ec1","ios":"levelo://app?vid=be7ab9e4-5622-445b-9f21-82284cb93ec1"},"vehicle_type_id":"4","last_reported":1770046117,"current_range_meters":2800,"station_id":"ce4bhmp2rcd13ifvqgng","pricing_plan_id":"cebpf4jnsgd1na2vs0mg"},{"bike_id":"04213df7-be1c-45ce-bf51-8b2cb7ae6140","system_id":"levelo_inurba_marseille","lat":43.24085,"lon":5.37749,"is_reserved":false,"is_disabled":false,"rental_uris":{"android":"levelo://app?vid=04213df7-be1c-45ce-bf51-8b2cb7ae6140","ios":"levelo://app?vid=04213df7-be1c-45ce-bf51-8b2cb7ae6140"},"vehicle_type_id":"4","last_reported":1770046117,"current_range_meters":2800,"station_id":"ce4bhnp2rcd13ifvqgvg","pricing_plan_id":"cebpf4jnsgd1na2vs0mg"},{"bike_id":"53723703-9d7f-4d80-9c60-44d83e1bd4f3","system_id":"levelo_inurba_marseille","lat":43.30594,"lon":5.39344,"is_reserved":false,"is_disabled":false,"rental_uris":{"android":"levelo://app?vid=53723703-9d7f-4d80-9c60-44d83e1bd4f3","ios":"levelo://app?vid=53723703-9d7f-4d80-9c60-44d83e1bd4f3"},"vehicle_type_id":"4","last_reported":1770046117,"current_range_meters":2800,"station_id":"ce4bh0p2rcd13ifvqd80","pricing_plan_id":"cebpf4jnsgd1na2vs0mg"},{"bike_id":"28449bcc-6120-470d-8caf-28ba1534bc7e","system_id":"levelo_inurba_marseille","lat":43.31246,"lon":5.36812,"is_reserved":false,"is_disabled":false,"rental_uris":{"android":"levelo://app?vid=28449bcc-6120-470d-8caf-28ba1534bc7e","ios":"levelo://app?vid=28449bcc-6120-470d-8caf-28ba1534bc7e"},"vehicle_type_id":"4","last_reported":1770046117,"current_range_meters":2800,"station_id":"ce4bgl92rcd13ifvqbq0","pricing_plan_id":"cebpf4jnsgd1na2vs0mg"},{"bike_id":"388c23eb-3651-45e4-a1cd-740c5e78994a","system_id":"levelo_inurba_marseille","lat":43.24077,"lon":5.3775,"is_reserved":false,"is_disabled":false,"rental_uris":{"android":"levelo://app?vid=388c23eb-3651-45e4-a1cd-740c5e78994a","ios":"levelo://app?vid=388c23eb-3651-45e4-a1cd-740c5e78994a"},"vehicle_type_id":"4","last_reported":1770046117,"current_range_meters":2800,"station_id":"ce4bhnp2rcd13ifvqgvg","pricing_plan_id":"cebpf4jnsgd1na2vs0mg"},{"bike_id":"42ecb532-f5c3-4ec0-8230-24a6cd041e87","system_id":"levelo_inurba_marseille","lat":43.26558,"lon":5.4032,"is_reserved":false,"is_disabled":false,"rental_uris":{"android":"levelo://app?vid=42ecb532-f5c3-4ec0-8230-24a6cd041e87","ios":"levelo://app?vid=42ecb532-f5c3-4ec0-8230-24a6cd041e87"},"vehicle_type_id":"4","last_reported":1770046117,"current_range_meters":2800,"station_id":"ce4bhmp2rcd13ifvqgng","pricing_plan_id":"cebpf4jnsgd1na2vs0mg"},{"bike_id":"81cddbe1-5b72-48ed-a7a4-1031532f66af","system_id":"levelo_inurba_marseille","lat":43.24822,"lon":5.37451,"is_reserved":false,"is_disabled":false,"rental_uris":{"android":"levelo://app?vid=81cddbe1-5b72-48ed-a7a4-1031532f66af","ios":"levelo://app?vid=81cddbe1-5b72-48ed-a7a4-1031532f66af"},"vehicle_type_id":"4","last_reported":1770046117,"current_range_meters":3200,"station_id":"ce4bhgh2rcd13ifvqfb0","pricing_plan_id":"cebpf4jnsgd1na2vs0mg"},{"bike_id":"aaa4afeb-6159-47e3-9611-76476b998e80","system_id":"levelo_inurba_marseille","lat":43.29037,"lon":5.39986,"is_reserved":false,"is_disabled":false,"rental_uris":{"android":"levelo://app?vid=aaa4afeb-6159-47e3-9611-76476b998e80","ios":"levelo://app?vid=aaa4afeb-6159-47e3-9611-76476b998e80"},"vehicle_type_id":"4","last_reported":1770046117,"current_range_meters":3200,"station_id":"ce4bh392rcd13ifvqdm0","pricing_plan_id":"cebpf4jnsgd1na2vs0mg"},{"bike_id":"8bf0a4a1-008f-413c-86d3-88caed95d082","system_id":"levelo_inurba_marseille","lat":43.25864,"lon":5.3991,"is_reserved":false,"is_disabled":false,"rental_uris":{"android":"levelo://app?vid=8bf0a4a1-008f-413c-86d3-88caed95d082","ios":"levelo://app?vid=8bf0a4a1-008f-413c-86d3-88caed95d082"},"vehicle_type_id":"4","last_reported":1770046117,"current_range_meters":3200,"station_id":"ce4bhl92rcd13ifvqghg","pricing_plan_id":"cebpf4jnsgd1na2vs0mg"},{"bike_id":"5fdcd831-8093-4168-8e06-2a413e0772dc","system_id":"levelo_inurba_marseille","lat":43.29026,"lon":5.38634,"is_reserved":false,"is_disabled":false,"rental_uris":{"android":"levelo://app?vid=5fdcd831-8093-4168-8e06-2a413e0772dc","ios":"levelo://app?vid=5fdcd831-8093-4168-8e06-2a413e0772dc"},"vehicle_type_id":"4","last_reported":1770046117,"current_range_meters":3600,"station_id":"ce4bh4p2rcd13ifvqe0g","pricing_plan_id":"cebpf4jnsgd1na2vs0mg"},{"bike_id":"d7bb52bf-9888-4e53-9c7d-d39210203af0","system_id":"levelo_inurba_marseille","lat":43.26054,"lon":5.39386,"is_reserved":false,"is_disabled":false,"rental_uris":{"android":"levelo://app?vid=d7bb52bf-9888-4e53-9c7d-d39210203af0","ios":"levelo://app?vid=d7bb52bf-9888-4e53-9c7d-d39210203af0"},"vehicle_type_id":"4","last_reported":1770046117,"current_range_meters":3600,"station_id":"ce4bhh92rcd13ifvqfj0","pricing_plan_id":"cebpf4jnsgd1na2vs0mg"},{"bike_id":"005c4886-e4bc-411d-b5cd-09a6790b95c1","system_id":"levelo_inurba_marseille","lat":43.29615,"lon":5.37742,"is_reserved":false,"is_disabled":false,"rental_uris":{"android":"levelo://app?vid=005c4886-e4bc-411d-b5cd-09a6790b95c1","ios":"levelo://app?vid=005c4886-e4bc-411d-b5cd-09a6790b95c1"},"vehicle_type_id":"4","last_reported":1770046117,"current_range_meters":3600,"station_id":"ce4bgi92rcd13ifvqb90","pricing_plan_id":"cebpf4jnsgd1na2vs0mg"},{"bike_id":"fe96b3e6-31d2-4dd0-93a5-43e5f652f8f8","system_id":"levelo_inurba_marseille","lat":43.26223,"lon":5.40439,"is_reserved":false,"is_disabled":false,"rental_uris":{"android":"levelo://app?vid=fe96b3e6-31d2-4dd0-93a5-43e5f652f8f8","ios":"levelo://app?vid=fe96b3e6-31d2-4dd0-93a5-43e5f652f8f8"},"vehicle_type_id":"4","last_reported":1770046117,"current_range_meters":3600,"station_id":"ce4bhmh2rcd13ifvqgmg","pricing_plan_id":"cebpf4jnsgd1na2vs0mg"},{"bike_id":"72489c9e-01d3-484c-a253-4279fe296b12","system_id":"levelo_inurba_marseille","lat":43.231937,"lon":5.355565,"is_reserved":false,"is_disabled":false,"rental_uris":{"android":"levelo://app?vid=72489c9e-01d3-484c-a253-4279fe296b12","ios":"levelo://app?vid=72489c9e-01d3-484c-a253-4279fe296b12"},"vehicle_type_id":"4","last_reported":1770046117,"current_range_meters":3600,"station_id":"ce4bhu92rcd13ifvqi70","pricing_plan_id":"cebpf4jnsgd1na2vs0mg"},{"bike_id":"637b915d-60b9-4796-9bb5-f9845c8d4a81","system_id":"levelo_inurba_marseille","lat":43.23029,"lon":5.35501,"is_reserved":false,"is_disabled":false,"rental_uris":{"android":"levelo://app?vid=637b915d-60b9-4796-9bb5-f9845c8d4a81","ios":"levelo://app?vid=637b915d-60b9-4796-9bb5-f9845c8d4a81"},"vehicle_type_id":"4","last_reported":1770046117,"current_range_meters":3600,"station_id":"cpo3342slgdg3j2ifvpg","pricing_plan_id":"cebpf4jnsgd1na2vs0mg"},{"bike_id":"110f2eb6-bc3d-4e45-bf15-9e4ed959a9b6","system_id":"levelo_inurba_marseille","lat":43.27059,"lon":5.4026,"is_reserved":false,"is_disabled":false,"rental_uris":{"android":"levelo://app?vid=110f2eb6-bc3d-4e45-bf15-9e4ed959a9b6","ios":"levelo://app?vid=110f2eb6-bc3d-4e45-bf15-9e4ed959a9b6"},"vehicle_type_id":"4","last_reported":1770046117,"current_range_meters":3600,"station_id":"ce4bhk92rcd13ifvqgc0","pricing_plan_id":"cebpf4jnsgd1na2vs0mg"},{"bike_id":"815932e9-3490-41c8-9f18-17529b2fcd92","system_id":"levelo_inurba_marseille","lat":43.23153,"lon":5.43713,"is_reserved":false,"is_disabled":false,"rental_uris":{"android":"levelo://app?vid=815932e9-3490-41c8-9f18-17529b2fcd92","ios":"levelo://app?vid=815932e9-3490-41c8-9f18-17529b2fcd92"},"vehicle_type_id":"4","last_reported":1770046117,"current_range_meters":3600,"station_id":"ce4bhmp2rcd13ifvqgog","pricing_plan_id":"cebpf4jnsgd1na2vs0mg"},{"bike_id":"f9d88a3b-520d-4dec-94f9-4819179415a1","system_id":"levelo_inurba_marseille","lat":43.23983,"lon":5.36606,"is_reserved":false,"is_disabled":false,"rental_uris":{"android":"levelo://app?vid=f9d88a3b-520d-4dec-94f9-4819179415a1","ios":"levelo://app?vid=f9d88a3b-520d-4dec-94f9-4819179415a1"},"vehicle_type_id":"4","last_reported":1770046117,"current_range_meters":3600,"station_id":"ce4bhi12rcd13ifvqfp0","pricing_plan_id":"cebpf4jnsgd1na2vs0mg"},{"bike_id":"64342d69-ab30-4801-8539-fc98ba700298","system_id":"levelo_inurba_marseille","lat":43.24797,"lon":5.37469,"is_reserved":false,"is_disabled":false,"rental_uris":{"android":"levelo://app?vid=64342d69-ab30-4801-8539-fc98ba700298","ios":"levelo://app?vid=64342d69-ab30-4801-8539-fc98ba700298"},"vehicle_type_id":"4","last_reported":1770046117,"current_range_meters":4000,"station_id":"ce4bhgh2rcd13ifvqfb0","pricing_plan_id":"cebpf4jnsgd1na2vs0mg"},{"bike_id":"9a649a44-1f66-4582-b605-0108b342d49c","system_id":"levelo_inurba_marseille","lat":43.28155,"lon":5.42645,"is_reserved":false,"is_disabled":false,"rental_uris":{"android":"levelo://app?vid=9a649a44-1f66-4582-b605-0108b342d49c","ios":"levelo://app?vid=9a649a44-1f66-4582-b605-0108b342d49c"},"vehicle_type_id":"4","last_reported":1770046117,"current_range_meters":4000,"station_id":"ce4bhnh2rcd13ifvqgug","pricing_plan_id":"cebpf4jnsgd1na2vs0mg"},{"bike_id":"0398f9ac-4213-4f68-b419-f7bff731c5c6","system_id":"levelo_inurba_marseille","lat":43.3336,"lon":5.43158,"is_reserved":false,"is_disabled":false,"rental_uris":{"android":"levelo://app?vid=0398f9ac-4213-4f68-b419-f7bff731c5c6","ios":"levelo://app?vid=0398f9ac-4213-4f68-b419-f7bff731c5c6"},"vehicle_type_id":"4","last_reported":1770046117,"current_range_meters":4000,"station_id":"","pricing_plan_id":"cebpf4jnsgd1na2vs0mg"},{"bike_id":"3145bee7-9947-4048-a6c8-4a6751fb3e81","system_id":"levelo_inurba_marseille","lat":43.25513,"lon":5.37664,"is_reserved":false,"is_disabled":false,"rental_uris":{"android":"levelo://app?vid=3145bee7-9947-4048-a6c8-4a6751fb3e81","ios":"levelo://app?vid=3145bee7-9947-4048-a6c8-4a6751fb3e81"},"vehicle_type_id":"4","last_reported":1770046117,"current_range_meters":4000,"station_id":"ce4bhh12rcd13ifvqff0","pricing_plan_id":"cebpf4jnsgd1na2vs0mg"},{"bike_id":"b327d0f9-e910-4cd3-a345-f7ea449db020","system_id":"levelo_inurba_marseille","lat":43.24402,"lon":5.37065,"is_reserved":false,"is_disabled":false,"rental_uris":{"android":"levelo://app?vid=b327d0f9-e910-4cd3-a345-f7ea449db020","ios":"levelo://app?vid=b327d0f9-e910-4cd3-a345-f7ea449db020"},"vehicle_type_id":"4","last_reported":1770046117,"current_range_meters":4000,"station_id":"ce4bhhh2rcd13ifvqfk0","pricing_plan_id":"cebpf4jnsgd1na2vs0mg"},{"bike_id":"20f8dacb-5cfb-411b-aac6-04b0743b3a2b","system_id":"levelo_inurba_marseille","lat":43.256447,"lon":5.376339,"is_reserved":false,"is_disabled":false,"rental_uris":{"android":"levelo://app?vid=20f8dacb-5cfb-411b-aac6-04b0743b3a2b","ios":"levelo://app?vid=20f8dacb-5cfb-411b-aac6-04b0743b3a2b"},"vehicle_type_id":"4","last_reported":1770046117,"current_range_meters":4000,"station_id":"","pricing_plan_id":"cebpf4jnsgd1na2vs0mg"},{"bike_id":"d0ce876f-4532-462c-9c29-e674a02453f0","system_id":"levelo_inurba_marseille","lat":43.27387,"lon":5.36244,"is_reserved":false,"is_disabled":false,"rental_uris":{"android":"levelo://app?vid=d0ce876f-4532-462c-9c29-e674a02453f0","ios":"levelo://app?vid=d0ce876f-4532-462c-9c29-e674a02453f0"},"vehicle_type_id":"4","last_reported":1770046117,"current_range_meters":4000,"station_id":"ce4bhbh2rcd13ifvqeo0","pricing_plan_id":"cebpf4jnsgd1na2vs0mg"},{"bike_id":"2c97ed80-6906-43bf-91b4-63d7637d426c","system_id":"levelo_inurba_marseille","lat":43.316852,"lon":5.404753,"is_reserved":false,"is_disabled":false,"rental_uris":{"android":"levelo://app?vid=2c97ed80-6906-43bf-91b4-63d7637d426c","ios":"levelo://app?vid=2c97ed80-6906-43bf-91b4-63d7637d426c"},"vehicle_type_id":"4","last_reported":1770046117,"current_range_meters":4000,"station_id":"ce4bh012rcd13ifvqd00","pricing_plan_id":"cebpf4jnsgd1na2vs0mg"},{"bike_id":"70aad063-ceac-4b3b-8a1d-80471a1d623b","system_id":"levelo_inurba_marseille","lat":43.23071,"lon":5.35482,"is_reserved":false,"is_disabled":false,"rental_uris":{"android":"levelo://app?vid=70aad063-ceac-4b3b-8a1d-80471a1d623b","ios":"levelo://app?vid=70aad063-ceac-4b3b-8a1d-80471a1d623b"},"vehicle_type_id":"4","last_reported":1770046117,"current_range_meters":4400,"station_id":"cpo3342slgdg3j2ifvpg","pricing_plan_id":"cebpf4jnsgd1na2vs0mg"},{"bike_id":"e76b3d8e-b3d4-4100-9a39-297c53b12c01","system_id":"levelo_inurba_marseille","lat":43.29532,"lon":5.375,"is_reserved":false,"is_disabled":false,"rental_uris":{"android":"levelo://app?vid=e76b3d8e-b3d4-4100-9a39-297c53b12c01","ios":"levelo://app?vid=e76b3d8e-b3d4-4100-9a39-297c53b12c01"},"vehicle_type_id":"4","last_reported":1770046117,"current_range_meters":4400,"station_id":"ce4bgkp2rcd13ifvqbmg","pricing_plan_id":"cebpf4jnsgd1na2vs0mg"},{"bike_id":"a1f01d0e-daec-4baf-acde-adf9612a1a61","system_id":"levelo_inurba_marseille","lat":43.26583,"lon":5.39031,"is_reserved":false,"is_disabled":false,"rental_uris":{"android":"levelo://app?vid=a1f01d0e-daec-4baf-acde-adf9612a1a61","ios":"levelo://app?vid=a1f01d0e-daec-4baf-acde-adf9612a1a61"},"vehicle_type_id":"4","last_reported":1770046117,"current_range_meters":4400,"station_id":"ce4bhe12rcd13ifvqf30","pricing_plan_id":"cebpf4jnsgd1na2vs0mg"},{"bike_id":"a6ab1dbd-7d2f-441a-88b2-8e2bc94dc087","system_id":"levelo_inurba_marseille","lat":43.24986,"lon":5.38961,"is_reserved":false,"is_disabled":false,"rental_uris":{"android":"levelo://app?vid=a6ab1dbd-7d2f-441a-88b2-8e2bc94dc087","ios":"levelo://app?vid=a6ab1dbd-7d2f-441a-88b2-8e2bc94dc087"},"vehicle_type_id":"4","last_reported":1770046117,"current_range_meters":4400,"station_id":"ce4bhgp2rcd13ifvqfd0","pricing_plan_id":"cebpf4jnsgd1na2vs0mg"},{"bike_id":"1f26521f-96c7-4695-a6b6-cd40543db4db","system_id":"levelo_inurba_marseille","lat":43.24041,"lon":5.37815,"is_reserved":false,"is_disabled":true,"rental_uris":{"android":"levelo://app?vid=1f26521f-96c7-4695-a6b6-cd40543db4db","ios":"levelo://app?vid=1f26521f-96c7-4695-a6b6-cd40543db4db"},"vehicle_type_id":"4","last_reported":1770046117,"current_range_meters":4400,"station_id":"ce4bhnp2rcd13ifvqgvg","pricing_plan_id":"cebpf4jnsgd1na2vs0mg"},{"bike_id":"508a3146-2371-4729-8a34-eff2c9a8e428","system_id":"levelo_inurba_marseille","lat":43.28234,"lon":5.39063,"is_reserved":false,"is_disabled":false,"rental_uris":{"android":"levelo://app?vid=508a3146-2371-4729-8a34-eff2c9a8e428","ios":"levelo://app?vid=508a3146-2371-4729-8a34-eff2c9a8e428"},"vehicle_type_id":"4","last_reported":1770046117,"current_range_meters":4400,"station_id":"ce4bhn92rcd13ifvqgsg","pricing_plan_id":"cebpf4jnsgd1na2vs0mg"},{"bike_id":"8dbcb872-c448-4799-82fc-c68a10ceeb1a","system_id":"levelo_inurba_marseille","lat":43.2708,"lon":5.42284,"is_reserved":false,"is_disabled":false,"rental_uris":{"android":"levelo://app?vid=8dbcb872-c448-4799-82fc-c68a10ceeb1a","ios":"levelo://app?vid=8dbcb872-c448-4799-82fc-c68a10ceeb1a"},"vehicle_type_id":"4","last_reported":1770046117,"current_range_meters":4400,"station_id":"ce4bhk92rcd13ifvqgb0","pricing_plan_id":"cebpf4jnsgd1na2vs0mg"},{"bike_id":"79812d79-066c-4d3c-91f1-ee83530e917c","system_id":"levelo_inurba_marseille","lat":43.24088,"lon":5.37737,"is_reserved":false,"is_disabled":false,"rental_uris":{"android":"levelo://app?vid=79812d79-066c-4d3c-91f1-ee83530e917c","ios":"levelo://app?vid=79812d79-066c-4d3c-91f1-ee83530e917c"},"vehicle_type_id":"4","last_reported":1770046117,"current_range_meters":4400,"station_id":"ce4bhnp2rcd13ifvqgvg","pricing_plan_id":"cebpf4jnsgd1na2vs0mg"},{"bike_id":"27a867fe-c0ef-411d-86a6-e6d213ffd10d","system_id":"levelo_inurba_marseille","lat":43.28467,"lon":5.35883,"is_reserved":false,"is_disabled":false,"rental_uris":{"android":"levelo://app?vid=27a867fe-c0ef-411d-86a6-e6d213ffd10d","ios":"levelo://app?vid=27a867fe-c0ef-411d-86a6-e6d213ffd10d"},"vehicle_type_id":"4","last_reported":1770046117,"current_range_meters":4400,"station_id":"ce4bhah2rcd13ifvqei0","pricing_plan_id":"cebpf4jnsgd1na2vs0mg"},{"bike_id":"15285b76-e89c-4253-a87a-a7346641cc09","system_id":"levelo_inurba_marseille","lat":43.25581,"lon":5.38235,"is_reserved":false,"is_disabled":false,"rental_uris":{"android":"levelo://app?vid=15285b76-e89c-4253-a87a-a7346641cc09","ios":"levelo://app?vid=15285b76-e89c-4253-a87a-a7346641cc09"},"vehicle_type_id":"4","last_reported":1770046117,"current_range_meters":4800,"station_id":"ce4bhih2rcd13ifvqfs0","pricing_plan_id":"cebpf4jnsgd1na2vs0mg"},{"bike_id":"376232b5-fd9d-4a27-a8c8-b8a78b760878","system_id":"levelo_inurba_marseille","lat":43.24172,"lon":5.3974,"is_reserved":false,"is_disabled":false,"rental_uris":{"android":"levelo://app?vid=376232b5-fd9d-4a27-a8c8-b8a78b760878","ios":"levelo://app?vid=376232b5-fd9d-4a27-a8c8-b8a78b760878"},"vehicle_type_id":"4","last_reported":1770046117,"current_range_meters":4800,"station_id":"ce4bhn12rcd13ifvqgpg","pricing_plan_id":"cebpf4jnsgd1na2vs0mg"},{"bike_id":"15e6d019-3403-4dba-a8b7-1ced23eb3314","system_id":"levelo_inurba_marseille","lat":43.30162,"lon":5.3808,"is_reserved":false,"is_disabled":false,"rental_uris":{"android":"levelo://app?vid=15e6d019-3403-4dba-a8b7-1ced23eb3314","ios":"levelo://app?vid=15e6d019-3403-4dba-a8b7-1ced23eb3314"},"vehicle_type_id":"4","last_reported":1770046117,"current_range_meters":4800,"station_id":"ce4bgjp2rcd13ifvqbh0","pricing_plan_id":"cebpf4jnsgd1na2vs0mg"},{"bike_id":"11a4253c-c87d-43fc-b4fa-6f18163ba935","system_id":"levelo_inurba_marseille","lat":43.28512,"lon":5.48392,"is_reserved":false,"is_disabled":false,"rental_uris":{"android":"levelo://app?vid=11a4253c-c87d-43fc-b4fa-6f18163ba935","ios":"levelo://app?vid=11a4253c-c87d-43fc-b4fa-6f18163ba935"},"vehicle_type_id":"4","last_reported":1770046117,"current_range_meters":4800,"station_id":"st_d3svhcjqgbts73a3dn0g","pricing_plan_id":"cebpf4jnsgd1na2vs0mg"},{"bike_id":"61d232a6-c72b-43f7-8d84-c786e5f463d1","system_id":"levelo_inurba_marseille","lat":43.25927,"lon":5.40902,"is_reserved":false,"is_disabled":false,"rental_uris":{"android":"levelo://app?vid=61d232a6-c72b-43f7-8d84-c786e5f463d1","ios":"levelo://app?vid=61d232a6-c72b-43f7-8d84-c786e5f463d1"},"vehicle_type_id":"4","last_reported":1770046117,"current_range_meters":5600,"station_id":"ce4bhm92rcd13ifvqglg","pricing_plan_id":"cebpf4jnsgd1na2vs0mg"},{"bike_id":"f92823b8-4fef-4833-b634-08b82223de18","system_id":"levelo_inurba_marseille","lat":43.23181,"lon":5.40003,"is_reserved":false,"is_disabled":false,"rental_uris":{"android":"levelo://app?vid=f92823b8-4fef-4833-b634-08b82223de18","ios":"levelo://app?vid=f92823b8-4fef-4833-b634-08b82223de18"},"vehicle_type_id":"4","last_reported":1770046117,"current_range_meters":5600,"station_id":"ce4bhn12rcd13ifvqgqg","pricing_plan_id":"cebpf4jnsgd1na2vs0mg"},{"bike_id":"ba3bb0ae-6d0b-465d-9918-abbd509ada18","system_id":"levelo_inurba_marseille","lat":43.29803,"lon":5.38098,"is_reserved":false,"is_disabled":false,"rental_uris":{"android":"levelo://app?vid=ba3bb0ae-6d0b-465d-9918-abbd509ada18","ios":"levelo://app?vid=ba3bb0ae-6d0b-465d-9918-abbd509ada18"},"vehicle_type_id":"4","last_reported":1770046117,"current_range_meters":5600,"station_id":"ce4bgip2rcd13ifvqbb0","pricing_plan_id":"cebpf4jnsgd1na2vs0mg"},{"bike_id":"c08fb5ce-410b-4e3b-bd2b-37b604cc356e","system_id":"levelo_inurba_marseille","lat":43.309307,"lon":5.401413,"is_reserved":false,"is_disabled":false,"rental_uris":{"android":"levelo://app?vid=c08fb5ce-410b-4e3b-bd2b-37b604cc356e","ios":"levelo://app?vid=c08fb5ce-410b-4e3b-bd2b-37b604cc356e"},"vehicle_type_id":"4","last_reported":1770046117,"current_range_meters":5600,"station_id":"","pricing_plan_id":"cebpf4jnsgd1na2vs0mg"},{"bike_id":"e96133eb-f771-40b1-ae3b-574adab8fad6","system_id":"levelo_inurba_marseille","lat":43.279911,"lon":5.40005,"is_reserved":false,"is_disabled":false,"rental_uris":{"android":"levelo://app?vid=e96133eb-f771-40b1-ae3b-574adab8fad6","ios":"levelo://app?vid=e96133eb-f771-40b1-ae3b-574adab8fad6"},"vehicle_type_id":"4","last_reported":1770046117,"current_range_meters":5600,"station_id":"ce4bho92rcd13ifvqh4g","pricing_plan_id":"cebpf4jnsgd1na2vs0mg"},{"bike_id":"8627f7e3-95b0-48aa-8d02-4dad162dfa1b","system_id":"levelo_inurba_marseille","lat":43.2656,"lon":5.3728,"is_reserved":false,"is_disabled":false,"rental_uris":{"android":"levelo://app?vid=8627f7e3-95b0-48aa-8d02-4dad162dfa1b","ios":"levelo://app?vid=8627f7e3-95b0-48aa-8d02-4dad162dfa1b"},"vehicle_type_id":"4","last_reported":1770046117,"current_range_meters":5600,"station_id":"ce4bhg12rcd13ifvqf70","pricing_plan_id":"cebpf4jnsgd1na2vs0mg"},{"bike_id":"ee32bbda-3895-44ae-8838-259e47c6c3df","system_id":"levelo_inurba_marseille","lat":43.27239,"lon":5.39043,"is_reserved":false,"is_disabled":false,"rental_uris":{"android":"levelo://app?vid=ee32bbda-3895-44ae-8838-259e47c6c3df","ios":"levelo://app?vid=ee32bbda-3895-44ae-8838-259e47c6c3df"},"vehicle_type_id":"4","last_reported":1770046117,"current_range_meters":5600,"station_id":"","pricing_plan_id":"cebpf4jnsgd1na2vs0mg"},{"bike_id":"b1a30502-6152-4500-ad1b-fb5cab24c42c","system_id":"levelo_inurba_marseille","lat":43.28838,"lon":5.35855,"is_reserved":false,"is_disabled":false,"rental_uris":{"android":"levelo://app?vid=b1a30502-6152-4500-ad1b-fb5cab24c42c","ios":"levelo://app?vid=b1a30502-6152-4500-ad1b-fb5cab24c42c"},"vehicle_type_id":"4","last_reported":1770046117,"current_range_meters":5600,"station_id":"ce4bhb12rcd13ifvqem0","pricing_plan_id":"cebpf4jnsgd1na2vs0mg"},{"bike_id":"079547f6-9ece-4634-a325-d80c601692e4","system_id":"levelo_inurba_marseille","lat":43.27372,"lon":5.36257,"is_reserved":false,"is_disabled":false,"rental_uris":{"android":"levelo://app?vid=079547f6-9ece-4634-a325-d80c601692e4","ios":"levelo://app?vid=079547f6-9ece-4634-a325-d80c601692e4"},"vehicle_type_id":"4","last_reported":1770046117,"current_range_meters":5600,"station_id":"ce4bhbh2rcd13ifvqeo0","pricing_plan_id":"cebpf4jnsgd1na2vs0mg"},{"bike_id":"0830e9a7-a744-43b1-8872-2a8033326e31","system_id":"levelo_inurba_marseille","lat":43.24066,"lon":5.37741,"is_reserved":false,"is_disabled":false,"rental_uris":{"android":"levelo://app?vid=0830e9a7-a744-43b1-8872-2a8033326e31","ios":"levelo://app?vid=0830e9a7-a744-43b1-8872-2a8033326e31"},"vehicle_type_id":"4","last_reported":1770046117,"current_range_meters":6000,"station_id":"ce4bhnp2rcd13ifvqgvg","pricing_plan_id":"cebpf4jnsgd1na2vs0mg"},{"bike_id":"7e8ce13a-d5d2-43d6-b821-ba3c9c440f78","system_id":"levelo_inurba_marseille","lat":43.31349,"lon":5.36692,"is_reserved":false,"is_disabled":false,"rental_uris":{"android":"levelo://app?vid=7e8ce13a-d5d2-43d6-b821-ba3c9c440f78","ios":"levelo://app?vid=7e8ce13a-d5d2-43d6-b821-ba3c9c440f78"},"vehicle_type_id":"4","last_reported":1770046117,"current_range_meters":6000,"station_id":"ce4bgr92rcd13ifvqc6g","pricing_plan_id":"cebpf4jnsgd1na2vs0mg"},{"bike_id":"caec583a-6768-49bf-a58a-63877e3b3870","system_id":"levelo_inurba_marseille","lat":43.24085,"lon":5.36372,"is_reserved":false,"is_disabled":false,"rental_uris":{"android":"levelo://app?vid=caec583a-6768-49bf-a58a-63877e3b3870","ios":"levelo://app?vid=caec583a-6768-49bf-a58a-63877e3b3870"},"vehicle_type_id":"4","last_reported":1770046117,"current_range_meters":6000,"station_id":"","pricing_plan_id":"cebpf4jnsgd1na2vs0mg"},{"bike_id":"33cfd768-2ed8-4c90-a060-322f7c560d2a","system_id":"levelo_inurba_marseille","lat":43.2483,"lon":5.38467,"is_reserved":false,"is_disabled":false,"rental_uris":{"android":"levelo://app?vid=33cfd768-2ed8-4c90-a060-322f7c560d2a","ios":"levelo://app?vid=33cfd768-2ed8-4c90-a060-322f7c560d2a"},"vehicle_type_id":"4","last_reported":1770046117,"current_range_meters":6000,"station_id":"","pricing_plan_id":"cebpf4jnsgd1na2vs0mg"},{"bike_id":"e9aa3b92-3aba-4ae3-8119-395c95a0d91b","system_id":"levelo_inurba_marseille","lat":43.24388,"lon":5.37075,"is_reserved":false,"is_disabled":false,"rental_uris":{"android":"levelo://app?vid=e9aa3b92-3aba-4ae3-8119-395c95a0d91b","ios":"levelo://app?vid=e9aa3b92-3aba-4ae3-8119-395c95a0d91b"},"vehicle_type_id":"4","last_reported":1770046117,"current_range_meters":6000,"station_id":"ce4bhhh2rcd13ifvqfk0","pricing_plan_id":"cebpf4jnsgd1na2vs0mg"},{"bike_id":"e22e1f26-0b48-4184-a7ce-d50ac63de7a5","system_id":"levelo_inurba_marseille","lat":43.22561,"lon":5.41642,"is_reserved":false,"is_disabled":false,"rental_uris":{"android":"levelo://app?vid=e22e1f26-0b48-4184-a7ce-d50ac63de7a5","ios":"levelo://app?vid=e22e1f26-0b48-4184-a7ce-d50ac63de7a5"},"vehicle_type_id":"4","last_reported":1770046117,"current_range_meters":6000,"station_id":"st_d2o4gvlbi1j2169b742g","pricing_plan_id":"cebpf4jnsgd1na2vs0mg"},{"bike_id":"8cb17e9d-6956-4db9-870e-851f50514412","system_id":"levelo_inurba_marseille","lat":43.3211,"lon":5.36773,"is_reserved":false,"is_disabled":false,"rental_uris":{"android":"levelo://app?vid=8cb17e9d-6956-4db9-870e-851f50514412","ios":"levelo://app?vid=8cb17e9d-6956-4db9-870e-851f50514412"},"vehicle_type_id":"4","last_reported":1770046117,"current_range_meters":6000,"station_id":"ce4bhrh2rcd13ifvqhug","pricing_plan_id":"cebpf4jnsgd1na2vs0mg"},{"bike_id":"56421f3f-ab50-4688-9d91-461a5a4dc039","system_id":"levelo_inurba_marseille","lat":43.2994,"lon":5.3649,"is_reserved":false,"is_disabled":false,"rental_uris":{"android":"levelo://app?vid=56421f3f-ab50-4688-9d91-461a5a4dc039","ios":"levelo://app?vid=56421f3f-ab50-4688-9d91-461a5a4dc039"},"vehicle_type_id":"4","last_reported":1770046117,"current_range_meters":6000,"station_id":"ce4bgm92rcd13ifvqbr0","pricing_plan_id":"cebpf4jnsgd1na2vs0mg"},{"bike_id":"f9dfcac1-eeee-44a9-84ce-d1427d4e1c1f","system_id":"levelo_inurba_marseille","lat":43.26808,"lon":5.39462,"is_reserved":false,"is_disabled":false,"rental_uris":{"android":"levelo://app?vid=f9dfcac1-eeee-44a9-84ce-d1427d4e1c1f","ios":"levelo://app?vid=f9dfcac1-eeee-44a9-84ce-d1427d4e1c1f"},"vehicle_type_id":"4","last_reported":1770046117,"current_range_meters":6000,"station_id":"ce4bhh12rcd13ifvqfg0","pricing_plan_id":"cebpf4jnsgd1na2vs0mg"},{"bike_id":"41cb7f17-2a96-4bf8-95f4-668658df83d5","system_id":"levelo_inurba_marseille","lat":43.28935,"lon":5.38401,"is_reserved":false,"is_disabled":false,"rental_uris":{"android":"levelo://app?vid=41cb7f17-2a96-4bf8-95f4-668658df83d5","ios":"levelo://app?vid=41cb7f17-2a96-4bf8-95f4-668658df83d5"},"vehicle_type_id":"4","last_reported":1770046117,"current_range_meters":6000,"station_id":"ce4bh612rcd13ifvqe6g","pricing_plan_id":"cebpf4jnsgd1na2vs0mg"},{"bike_id":"ae356d66-7cb8-4ba5-82bc-bb4594e60975","system_id":"levelo_inurba_marseille","lat":43.23141,"lon":5.43716,"is_reserved":false,"is_disabled":false,"rental_uris":{"android":"levelo://app?vid=ae356d66-7cb8-4ba5-82bc-bb4594e60975","ios":"levelo://app?vid=ae356d66-7cb8-4ba5-82bc-bb4594e60975"},"vehicle_type_id":"4","last_reported":1770046117,"current_range_meters":6000,"station_id":"ce4bhmp2rcd13ifvqgog","pricing_plan_id":"cebpf4jnsgd1na2vs0mg"},{"bike_id":"0c37f209-4da2-456d-badb-27f46c6c7d3c","system_id":"levelo_inurba_marseille","lat":43.30316,"lon":5.36895,"is_reserved":false,"is_disabled":false,"rental_uris":{"android":"levelo://app?vid=0c37f209-4da2-456d-badb-27f46c6c7d3c","ios":"levelo://app?vid=0c37f209-4da2-456d-badb-27f46c6c7d3c"},"vehicle_type_id":"4","last_reported":1770046117,"current_range_meters":6000,"station_id":"ce4bgqh2rcd13ifvqc5g","pricing_plan_id":"cebpf4jnsgd1na2vs0mg"},{"bike_id":"424d0d3d-de1c-4125-82ac-0faa3cd4c48d","system_id":"levelo_inurba_marseille","lat":43.30865,"lon":5.37124,"is_reserved":false,"is_disabled":false,"rental_uris":{"android":"levelo://app?vid=424d0d3d-de1c-4125-82ac-0faa3cd4c48d","ios":"levelo://app?vid=424d0d3d-de1c-4125-82ac-0faa3cd4c48d"},"vehicle_type_id":"4","last_reported":1770046117,"current_range_meters":6000,"station_id":"","pricing_plan_id":"cebpf4jnsgd1na2vs0mg"},{"bike_id":"cbe5f632-f95e-4ffb-9f92-e743ffab6e3e","system_id":"levelo_inurba_marseille","lat":43.28893,"lon":5.42536,"is_reserved":false,"is_disabled":false,"rental_uris":{"android":"levelo://app?vid=cbe5f632-f95e-4ffb-9f92-e743ffab6e3e","ios":"levelo://app?vid=cbe5f632-f95e-4ffb-9f92-e743ffab6e3e"},"vehicle_type_id":"4","last_reported":1770046117,"current_range_meters":6000,"station_id":"st_d3b462108ojc7389ooeg","pricing_plan_id":"cebpf4jnsgd1na2vs0mg"},{"bike_id":"ecfd47db-3e87-47e9-b985-b7f745d91ad0","system_id":"levelo_inurba_marseille","lat":43.29277,"lon":5.38451,"is_reserved":false,"is_disabled":false,"rental_uris":{"android":"levelo://app?vid=ecfd47db-3e87-47e9-b985-b7f745d91ad0","ios":"levelo://app?vid=ecfd47db-3e87-47e9-b985-b7f745d91ad0"},"vehicle_type_id":"4","last_reported":1770046117,"current_range_meters":6000,"station_id":"ce4bh692rcd13ifvqea0","pricing_plan_id":"cebpf4jnsgd1na2vs0mg"},{"bike_id":"ea661064-3ae5-4d6b-a32a-51c2bc3bcb30","system_id":"levelo_inurba_marseille","lat":43.32496,"lon":5.38302,"is_reserved":false,"is_disabled":false,"rental_uris":{"android":"levelo://app?vid=ea661064-3ae5-4d6b-a32a-51c2bc3bcb30","ios":"levelo://app?vid=ea661064-3ae5-4d6b-a32a-51c2bc3bcb30"},"vehicle_type_id":"4","last_reported":1770046117,"current_range_meters":6400,"station_id":"st_d4asgbiv49dc73anf9m0","pricing_plan_id":"cebpf4jnsgd1na2vs0mg"},{"bike_id":"ccb5d46a-ecff-465a-9ac7-27ecb353316f","system_id":"levelo_inurba_marseille","lat":43.3054,"lon":5.36538,"is_reserved":false,"is_disabled":false,"rental_uris":{"android":"levelo://app?vid=ccb5d46a-ecff-465a-9ac7-27ecb353316f","ios":"levelo://app?vid=ccb5d46a-ecff-465a-9ac7-27ecb353316f"},"vehicle_type_id":"4","last_reported":1770046117,"current_range_meters":6400,"station_id":"ce4bgs12rcd13ifvqcag","pricing_plan_id":"cebpf4jnsgd1na2vs0mg"},{"bike_id":"3b2a0495-d056-4726-ad48-0a57214f6b42","system_id":"levelo_inurba_marseille","lat":43.31225,"lon":5.36842,"is_reserved":false,"is_disabled":false,"rental_uris":{"android":"levelo://app?vid=3b2a0495-d056-4726-ad48-0a57214f6b42","ios":"levelo://app?vid=3b2a0495-d056-4726-ad48-0a57214f6b42"},"vehicle_type_id":"4","last_reported":1770046117,"current_range_meters":6400,"station_id":"ce4bgl92rcd13ifvqbq0","pricing_plan_id":"cebpf4jnsgd1na2vs0mg"},{"bike_id":"437958b3-1fc1-421f-a410-c2cb6fec2333","system_id":"levelo_inurba_marseille","lat":43.24806,"lon":5.37459,"is_reserved":false,"is_disabled":false,"rental_uris":{"android":"levelo://app?vid=437958b3-1fc1-421f-a410-c2cb6fec2333","ios":"levelo://app?vid=437958b3-1fc1-421f-a410-c2cb6fec2333"},"vehicle_type_id":"4","last_reported":1770046117,"current_range_meters":6400,"station_id":"ce4bhgh2rcd13ifvqfb0","pricing_plan_id":"cebpf4jnsgd1na2vs0mg"},{"bike_id":"e25162d3-4d5d-419d-b20d-2ec1bcdee6fb","system_id":"levelo_inurba_marseille","lat":43.31043,"lon":5.37165,"is_reserved":false,"is_disabled":false,"rental_uris":{"android":"levelo://app?vid=e25162d3-4d5d-419d-b20d-2ec1bcdee6fb","ios":"levelo://app?vid=e25162d3-4d5d-419d-b20d-2ec1bcdee6fb"},"vehicle_type_id":"4","last_reported":1770046117,"current_range_meters":6400,"station_id":"st_d4kl2rp97mjs73e7tdfg","pricing_plan_id":"cebpf4jnsgd1na2vs0mg"},{"bike_id":"fda17309-67c6-493d-a11a-fed18f5561b2","system_id":"levelo_inurba_marseille","lat":43.25012,"lon":5.38906,"is_reserved":false,"is_disabled":false,"rental_uris":{"android":"levelo://app?vid=fda17309-67c6-493d-a11a-fed18f5561b2","ios":"levelo://app?vid=fda17309-67c6-493d-a11a-fed18f5561b2"},"vehicle_type_id":"4","last_reported":1770046117,"current_range_meters":6400,"station_id":"ce4bhgp2rcd13ifvqfd0","pricing_plan_id":"cebpf4jnsgd1na2vs0mg"},{"bike_id":"56a4d0be-bbc8-4231-9fe6-eff4b0a1d827","system_id":"levelo_inurba_marseille","lat":43.27216,"lon":5.39187,"is_reserved":false,"is_disabled":false,"rental_uris":{"android":"levelo://app?vid=56a4d0be-bbc8-4231-9fe6-eff4b0a1d827","ios":"levelo://app?vid=56a4d0be-bbc8-4231-9fe6-eff4b0a1d827"},"vehicle_type_id":"4","last_reported":1770046117,"current_range_meters":6400,"station_id":"ce4bhhp2rcd13ifvqfm0","pricing_plan_id":"cebpf4jnsgd1na2vs0mg"},{"bike_id":"dc8b8f8d-3b68-40cb-9565-8f7614c37d7f","system_id":"levelo_inurba_marseille","lat":43.255774,"lon":5.382299,"is_reserved":false,"is_disabled":false,"rental_uris":{"android":"levelo://app?vid=dc8b8f8d-3b68-40cb-9565-8f7614c37d7f","ios":"levelo://app?vid=dc8b8f8d-3b68-40cb-9565-8f7614c37d7f"},"vehicle_type_id":"4","last_reported":1770046117,"current_range_meters":6400,"station_id":"ce4bhih2rcd13ifvqfs0","pricing_plan_id":"cebpf4jnsgd1na2vs0mg"},{"bike_id":"efce2137-b0be-4054-a267-e94b648d99d2","system_id":"levelo_inurba_marseille","lat":43.25005,"lon":5.38942,"is_reserved":false,"is_disabled":false,"rental_uris":{"android":"levelo://app?vid=efce2137-b0be-4054-a267-e94b648d99d2","ios":"levelo://app?vid=efce2137-b0be-4054-a267-e94b648d99d2"},"vehicle_type_id":"4","last_reported":1770046117,"current_range_meters":6400,"station_id":"ce4bhgp2rcd13ifvqfd0","pricing_plan_id":"cebpf4jnsgd1na2vs0mg"},{"bike_id":"aee8661a-cf64-4c51-b585-b44cc814deb6","system_id":"levelo_inurba_marseille","lat":43.30137,"lon":5.37411,"is_reserved":false,"is_disabled":false,"rental_uris":{"android":"levelo://app?vid=aee8661a-cf64-4c51-b585-b44cc814deb6","ios":"levelo://app?vid=aee8661a-cf64-4c51-b585-b44cc814deb6"},"vehicle_type_id":"4","last_reported":1770046117,"current_range_meters":6800,"station_id":"ce4bgs92rcd13ifvqcc0","pricing_plan_id":"cebpf4jnsgd1na2vs0mg"},{"bike_id":"e9a8ad83-a2d5-4795-8073-fda176633ed6","system_id":"levelo_inurba_marseille","lat":43.26695,"lon":5.38267,"is_reserved":false,"is_disabled":false,"rental_uris":{"android":"levelo://app?vid=e9a8ad83-a2d5-4795-8073-fda176633ed6","ios":"levelo://app?vid=e9a8ad83-a2d5-4795-8073-fda176633ed6"},"vehicle_type_id":"4","last_reported":1770046117,"current_range_meters":6800,"station_id":"ce4bhg92rcd13ifvqf90","pricing_plan_id":"cebpf4jnsgd1na2vs0mg"},{"bike_id":"d94ff245-cc93-4bc5-bdfb-1463525539bf","system_id":"levelo_inurba_marseille","lat":43.24074,"lon":5.37755,"is_reserved":false,"is_disabled":false,"rental_uris":{"android":"levelo://app?vid=d94ff245-cc93-4bc5-bdfb-1463525539bf","ios":"levelo://app?vid=d94ff245-cc93-4bc5-bdfb-1463525539bf"},"vehicle_type_id":"4","last_reported":1770046117,"current_range_meters":6800,"station_id":"ce4bhnp2rcd13ifvqgvg","pricing_plan_id":"cebpf4jnsgd1na2vs0mg"},{"bike_id":"1b204181-222d-4067-86e4-48096500f801","system_id":"levelo_inurba_marseille","lat":43.29297,"lon":5.37177,"is_reserved":false,"is_disabled":false,"rental_uris":{"android":"levelo://app?vid=1b204181-222d-4067-86e4-48096500f801","ios":"levelo://app?vid=1b204181-222d-4067-86e4-48096500f801"},"vehicle_type_id":"4","last_reported":1770046117,"current_range_meters":6800,"station_id":"ce4bgh92rcd13ifvqb40","pricing_plan_id":"cebpf4jnsgd1na2vs0mg"},{"bike_id":"886d4339-cd62-4942-9dfe-c188edbba93b","system_id":"levelo_inurba_marseille","lat":43.30139,"lon":5.37407,"is_reserved":false,"is_disabled":false,"rental_uris":{"android":"levelo://app?vid=886d4339-cd62-4942-9dfe-c188edbba93b","ios":"levelo://app?vid=886d4339-cd62-4942-9dfe-c188edbba93b"},"vehicle_type_id":"4","last_reported":1770046117,"current_range_meters":6800,"station_id":"ce4bgs92rcd13ifvqcc0","pricing_plan_id":"cebpf4jnsgd1na2vs0mg"},{"bike_id":"81675ce0-40e0-484f-b5d0-d332c2114be4","system_id":"levelo_inurba_marseille","lat":43.26775,"lon":5.39424,"is_reserved":false,"is_disabled":false,"rental_uris":{"android":"levelo://app?vid=81675ce0-40e0-484f-b5d0-d332c2114be4","ios":"levelo://app?vid=81675ce0-40e0-484f-b5d0-d332c2114be4"},"vehicle_type_id":"4","last_reported":1770046117,"current_range_meters":6800,"station_id":"ce4bhh12rcd13ifvqfg0","pricing_plan_id":"cebpf4jnsgd1na2vs0mg"},{"bike_id":"a408d5d2-5427-46e8-87f7-6b2377b7fcd5","system_id":"levelo_inurba_marseille","lat":43.259285,"lon":5.409021,"is_reserved":false,"is_disabled":false,"rental_uris":{"android":"levelo://app?vid=a408d5d2-5427-46e8-87f7-6b2377b7fcd5","ios":"levelo://app?vid=a408d5d2-5427-46e8-87f7-6b2377b7fcd5"},"vehicle_type_id":"4","last_reported":1770046117,"current_range_meters":6800,"station_id":"ce4bhm92rcd13ifvqglg","pricing_plan_id":"cebpf4jnsgd1na2vs0mg"},{"bike_id":"8e17897f-aa86-4517-a1e7-41bb2cad72b6","system_id":"levelo_inurba_marseille","lat":43.30148,"lon":5.38117,"is_reserved":false,"is_disabled":false,"rental_uris":{"android":"levelo://app?vid=8e17897f-aa86-4517-a1e7-41bb2cad72b6","ios":"levelo://app?vid=8e17897f-aa86-4517-a1e7-41bb2cad72b6"},"vehicle_type_id":"4","last_reported":1770046117,"current_range_meters":6800,"station_id":"ce4bgjp2rcd13ifvqbh0","pricing_plan_id":"cebpf4jnsgd1na2vs0mg"},{"bike_id":"a44a6052-5c9e-4904-8c17-baba671574f9","system_id":"levelo_inurba_marseille","lat":43.29795,"lon":5.38079,"is_reserved":false,"is_disabled":false,"rental_uris":{"android":"levelo://app?vid=a44a6052-5c9e-4904-8c17-baba671574f9","ios":"levelo://app?vid=a44a6052-5c9e-4904-8c17-baba671574f9"},"vehicle_type_id":"4","last_reported":1770046117,"current_range_meters":7200,"station_id":"ce4bgip2rcd13ifvqbb0","pricing_plan_id":"cebpf4jnsgd1na2vs0mg"},{"bike_id":"966a8ff8-5a79-46f0-8f3c-c2d11ddde5d2","system_id":"levelo_inurba_marseille","lat":43.2738,"lon":5.36262,"is_reserved":false,"is_disabled":false,"rental_uris":{"android":"levelo://app?vid=966a8ff8-5a79-46f0-8f3c-c2d11ddde5d2","ios":"levelo://app?vid=966a8ff8-5a79-46f0-8f3c-c2d11ddde5d2"},"vehicle_type_id":"4","last_reported":1770046117,"current_range_meters":7200,"station_id":"ce4bhbh2rcd13ifvqeo0","pricing_plan_id":"cebpf4jnsgd1na2vs0mg"},{"bike_id":"a8b33ee5-98b1-4b91-a976-d816491fae12","system_id":"levelo_inurba_marseille","lat":43.26783,"lon":5.39418,"is_reserved":false,"is_disabled":true,"rental_uris":{"android":"levelo://app?vid=a8b33ee5-98b1-4b91-a976-d816491fae12","ios":"levelo://app?vid=a8b33ee5-98b1-4b91-a976-d816491fae12"},"vehicle_type_id":"4","last_reported":1770046117,"current_range_meters":7200,"station_id":"ce4bhh12rcd13ifvqfg0","pricing_plan_id":"cebpf4jnsgd1na2vs0mg"},{"bike_id":"325d9984-4029-4d00-8c76-8002734e01d5","system_id":"levelo_inurba_marseille","lat":43.28042,"lon":5.3694,"is_reserved":false,"is_disabled":false,"rental_uris":{"android":"levelo://app?vid=325d9984-4029-4d00-8c76-8002734e01d5","ios":"levelo://app?vid=325d9984-4029-4d00-8c76-8002734e01d5"},"vehicle_type_id":"4","last_reported":1770046117,"current_range_meters":7200,"station_id":"ce4bha12rcd13ifvqef0","pricing_plan_id":"cebpf4jnsgd1na2vs0mg"},{"bike_id":"fa4c8fe2-be53-41f3-8e22-e1517f70e2a6","system_id":"levelo_inurba_marseille","lat":43.29267,"lon":5.38431,"is_reserved":false,"is_disabled":false,"rental_uris":{"android":"levelo://app?vid=fa4c8fe2-be53-41f3-8e22-e1517f70e2a6","ios":"levelo://app?vid=fa4c8fe2-be53-41f3-8e22-e1517f70e2a6"},"vehicle_type_id":"4","last_reported":1770046117,"current_range_meters":7200,"station_id":"ce4bh692rcd13ifvqea0","pricing_plan_id":"cebpf4jnsgd1na2vs0mg"},{"bike_id":"0b29bd96-af36-409b-85f4-994b381fba73","system_id":"levelo_inurba_marseille","lat":43.29906,"lon":5.38414,"is_reserved":false,"is_disabled":false,"rental_uris":{"android":"levelo://app?vid=0b29bd96-af36-409b-85f4-994b381fba73","ios":"levelo://app?vid=0b29bd96-af36-409b-85f4-994b381fba73"},"vehicle_type_id":"4","last_reported":1770046117,"current_range_meters":7200,"station_id":"","pricing_plan_id":"cebpf4jnsgd1na2vs0mg"},{"bike_id":"498925b7-5c1b-4bf1-a053-60e9a71a743b","system_id":"levelo_inurba_marseille","lat":43.29522,"lon":5.37474,"is_reserved":false,"is_disabled":false,"rental_uris":{"android":"levelo://app?vid=498925b7-5c1b-4bf1-a053-60e9a71a743b","ios":"levelo://app?vid=498925b7-5c1b-4bf1-a053-60e9a71a743b"},"vehicle_type_id":"4","last_reported":1770046117,"current_range_meters":7200,"station_id":"ce4bgkp2rcd13ifvqbmg","pricing_plan_id":"cebpf4jnsgd1na2vs0mg"},{"bike_id":"20ab15c6-cd2b-4147-ad23-6e4e82e00a52","system_id":"levelo_inurba_marseille","lat":43.26545,"lon":5.37294,"is_reserved":false,"is_disabled":false,"rental_uris":{"android":"levelo://app?vid=20ab15c6-cd2b-4147-ad23-6e4e82e00a52","ios":"levelo://app?vid=20ab15c6-cd2b-4147-ad23-6e4e82e00a52"},"vehicle_type_id":"4","last_reported":1770046117,"current_range_meters":7200,"station_id":"ce4bhg12rcd13ifvqf70","pricing_plan_id":"cebpf4jnsgd1na2vs0mg"},{"bike_id":"27c2ee02-095b-4efa-aefc-348543972b6e","system_id":"levelo_inurba_marseille","lat":43.30084,"lon":5.39102,"is_reserved":false,"is_disabled":true,"rental_uris":{"android":"levelo://app?vid=27c2ee02-095b-4efa-aefc-348543972b6e","ios":"levelo://app?vid=27c2ee02-095b-4efa-aefc-348543972b6e"},"vehicle_type_id":"4","last_reported":1770046117,"current_range_meters":7200,"station_id":"ce4bh192rcd13ifvqdb0","pricing_plan_id":"cebpf4jnsgd1na2vs0mg"},{"bike_id":"7e7cded1-d7df-4b4d-9ff3-49738118bd9d","system_id":"levelo_inurba_marseille","lat":43.25338,"lon":5.42167,"is_reserved":false,"is_disabled":false,"rental_uris":{"android":"levelo://app?vid=7e7cded1-d7df-4b4d-9ff3-49738118bd9d","ios":"levelo://app?vid=7e7cded1-d7df-4b4d-9ff3-49738118bd9d"},"vehicle_type_id":"4","last_reported":1770046117,"current_range_meters":7200,"station_id":"st_d2m65c5bi1j21697t3ng","pricing_plan_id":"cebpf4jnsgd1na2vs0mg"},{"bike_id":"b4b49109-c680-49e7-b78f-0963342a85a5","system_id":"levelo_inurba_marseille","lat":43.30546,"lon":5.36507,"is_reserved":false,"is_disabled":false,"rental_uris":{"android":"levelo://app?vid=b4b49109-c680-49e7-b78f-0963342a85a5","ios":"levelo://app?vid=b4b49109-c680-49e7-b78f-0963342a85a5"},"vehicle_type_id":"4","last_reported":1770046117,"current_range_meters":7200,"station_id":"ce4bgs12rcd13ifvqcag","pricing_plan_id":"cebpf4jnsgd1na2vs0mg"},{"bike_id":"04b51904-c5b4-44cd-8294-eb71740e98db","system_id":"levelo_inurba_marseille","lat":43.26934,"lon":5.38624,"is_reserved":false,"is_disabled":false,"rental_uris":{"android":"levelo://app?vid=04b51904-c5b4-44cd-8294-eb71740e98db","ios":"levelo://app?vid=04b51904-c5b4-44cd-8294-eb71740e98db"},"vehicle_type_id":"4","last_reported":1770046117,"current_range_meters":7200,"station_id":"ce4bhh92rcd13ifvqfh0","pricing_plan_id":"cebpf4jnsgd1na2vs0mg"},{"bike_id":"869c8635-5586-4b79-82de-bbb9bf370b58","system_id":"levelo_inurba_marseille","lat":43.2926,"lon":5.37618,"is_reserved":false,"is_disabled":false,"rental_uris":{"android":"levelo://app?vid=869c8635-5586-4b79-82de-bbb9bf370b58","ios":"levelo://app?vid=869c8635-5586-4b79-82de-bbb9bf370b58"},"vehicle_type_id":"4","last_reported":1770046117,"current_range_meters":7200,"station_id":"ce4bgi12rcd13ifvqb80","pricing_plan_id":"cebpf4jnsgd1na2vs0mg"},{"bike_id":"225e9d09-83ee-4f1c-a930-a97429c83cb7","system_id":"levelo_inurba_marseille","lat":43.23204,"lon":5.35554,"is_reserved":false,"is_disabled":false,"rental_uris":{"android":"levelo://app?vid=225e9d09-83ee-4f1c-a930-a97429c83cb7","ios":"levelo://app?vid=225e9d09-83ee-4f1c-a930-a97429c83cb7"},"vehicle_type_id":"4","last_reported":1770046117,"current_range_meters":7200,"station_id":"ce4bhu92rcd13ifvqi70","pricing_plan_id":"cebpf4jnsgd1na2vs0mg"},{"bike_id":"dfb7cc79-8510-46d4-921c-b52269205d9c","system_id":"levelo_inurba_marseille","lat":43.28471,"lon":5.38431,"is_reserved":false,"is_disabled":false,"rental_uris":{"android":"levelo://app?vid=dfb7cc79-8510-46d4-921c-b52269205d9c","ios":"levelo://app?vid=dfb7cc79-8510-46d4-921c-b52269205d9c"},"vehicle_type_id":"4","last_reported":1770046117,"current_range_meters":7200,"station_id":"ce4bh512rcd13ifvqe3g","pricing_plan_id":"cebpf4jnsgd1na2vs0mg"},{"bike_id":"780ad082-2264-435f-ba30-af1593346a47","system_id":"levelo_inurba_marseille","lat":43.28157,"lon":5.4264,"is_reserved":false,"is_disabled":false,"rental_uris":{"android":"levelo://app?vid=780ad082-2264-435f-ba30-af1593346a47","ios":"levelo://app?vid=780ad082-2264-435f-ba30-af1593346a47"},"vehicle_type_id":"4","last_reported":1770046117,"current_range_meters":8000,"station_id":"ce4bhnh2rcd13ifvqgug","pricing_plan_id":"cebpf4jnsgd1na2vs0mg"},{"bike_id":"6e11a266-36e7-4957-9519-66b62e07609e","system_id":"levelo_inurba_marseille","lat":43.27207,"lon":5.39191,"is_reserved":false,"is_disabled":false,"rental_uris":{"android":"levelo://app?vid=6e11a266-36e7-4957-9519-66b62e07609e","ios":"levelo://app?vid=6e11a266-36e7-4957-9519-66b62e07609e"},"vehicle_type_id":"4","last_reported":1770046117,"current_range_meters":8000,"station_id":"ce4bhhp2rcd13ifvqfm0","pricing_plan_id":"cebpf4jnsgd1na2vs0mg"},{"bike_id":"132c2e4f-f164-4506-8200-75a72b5316b3","system_id":"levelo_inurba_marseille","lat":43.22565,"lon":5.41625,"is_reserved":false,"is_disabled":false,"rental_uris":{"android":"levelo://app?vid=132c2e4f-f164-4506-8200-75a72b5316b3","ios":"levelo://app?vid=132c2e4f-f164-4506-8200-75a72b5316b3"},"vehicle_type_id":"4","last_reported":1770046117,"current_range_meters":8000,"station_id":"st_d2o4gvlbi1j2169b742g","pricing_plan_id":"cebpf4jnsgd1na2vs0mg"},{"bike_id":"b163a954-4c36-4104-b455-807b6fc9d458","system_id":"levelo_inurba_marseille","lat":43.26226,"lon":5.3745,"is_reserved":false,"is_disabled":false,"rental_uris":{"android":"levelo://app?vid=b163a954-4c36-4104-b455-807b6fc9d458","ios":"levelo://app?vid=b163a954-4c36-4104-b455-807b6fc9d458"},"vehicle_type_id":"4","last_reported":1770046117,"current_range_meters":8000,"station_id":"","pricing_plan_id":"cebpf4jnsgd1na2vs0mg"},{"bike_id":"d6ff0c2e-1b73-4afa-8f0f-7ada026e25d1","system_id":"levelo_inurba_marseille","lat":43.29504,"lon":5.37617,"is_reserved":false,"is_disabled":false,"rental_uris":{"android":"levelo://app?vid=d6ff0c2e-1b73-4afa-8f0f-7ada026e25d1","ios":"levelo://app?vid=d6ff0c2e-1b73-4afa-8f0f-7ada026e25d1"},"vehicle_type_id":"4","last_reported":1770046117,"current_range_meters":8000,"station_id":"","pricing_plan_id":"cebpf4jnsgd1na2vs0mg"},{"bike_id":"277ae2bd-5f61-47d2-b4da-bd361dde708b","system_id":"levelo_inurba_marseille","lat":43.275723,"lon":5.384237,"is_reserved":false,"is_disabled":false,"rental_uris":{"android":"levelo://app?vid=277ae2bd-5f61-47d2-b4da-bd361dde708b","ios":"levelo://app?vid=277ae2bd-5f61-47d2-b4da-bd361dde708b"},"vehicle_type_id":"4","last_reported":1770046117,"current_range_meters":8000,"station_id":"ce4bhh92rcd13ifvqfi0","pricing_plan_id":"cebpf4jnsgd1na2vs0mg"},{"bike_id":"0953b8ad-496c-473f-bf72-6bcb53398975","system_id":"levelo_inurba_marseille","lat":43.29522,"lon":5.39044,"is_reserved":false,"is_disabled":false,"rental_uris":{"android":"levelo://app?vid=0953b8ad-496c-473f-bf72-6bcb53398975","ios":"levelo://app?vid=0953b8ad-496c-473f-bf72-6bcb53398975"},"vehicle_type_id":"4","last_reported":1770046117,"current_range_meters":8000,"station_id":"ce4bh3p2rcd13ifvqdp0","pricing_plan_id":"cebpf4jnsgd1na2vs0mg"},{"bike_id":"6a131f0d-6128-445c-99a5-319bcf3a622a","system_id":"levelo_inurba_marseille","lat":43.28481,"lon":5.48393,"is_reserved":false,"is_disabled":false,"rental_uris":{"android":"levelo://app?vid=6a131f0d-6128-445c-99a5-319bcf3a622a","ios":"levelo://app?vid=6a131f0d-6128-445c-99a5-319bcf3a622a"},"vehicle_type_id":"4","last_reported":1770046117,"current_range_meters":8000,"station_id":"st_d3svhcjqgbts73a3dn0g","pricing_plan_id":"cebpf4jnsgd1na2vs0mg"},{"bike_id":"91604460-68c0-4492-894c-a238619d1f72","system_id":"levelo_inurba_marseille","lat":43.23228,"lon":5.35562,"is_reserved":false,"is_disabled":false,"rental_uris":{"android":"levelo://app?vid=91604460-68c0-4492-894c-a238619d1f72","ios":"levelo://app?vid=91604460-68c0-4492-894c-a238619d1f72"},"vehicle_type_id":"4","last_reported":1770046117,"current_range_meters":8000,"station_id":"ce4bhu92rcd13ifvqi70","pricing_plan_id":"cebpf4jnsgd1na2vs0mg"},{"bike_id":"ff4e3223-1956-4870-9ba6-85cdece0847d","system_id":"levelo_inurba_marseille","lat":43.25948,"lon":5.40909,"is_reserved":false,"is_disabled":false,"rental_uris":{"android":"levelo://app?vid=ff4e3223-1956-4870-9ba6-85cdece0847d","ios":"levelo://app?vid=ff4e3223-1956-4870-9ba6-85cdece0847d"},"vehicle_type_id":"4","last_reported":1770046117,"current_range_meters":8000,"station_id":"ce4bhm92rcd13ifvqglg","pricing_plan_id":"cebpf4jnsgd1na2vs0mg"},{"bike_id":"2d936841-4888-41f5-8bc5-c0a8ed45869c","system_id":"levelo_inurba_marseille","lat":43.25923,"lon":5.40895,"is_reserved":false,"is_disabled":false,"rental_uris":{"android":"levelo://app?vid=2d936841-4888-41f5-8bc5-c0a8ed45869c","ios":"levelo://app?vid=2d936841-4888-41f5-8bc5-c0a8ed45869c"},"vehicle_type_id":"4","last_reported":1770046117,"current_range_meters":8000,"station_id":"ce4bhm92rcd13ifvqglg","pricing_plan_id":"cebpf4jnsgd1na2vs0mg"},{"bike_id":"6dcbafdd-a1b9-4d04-af91-285dc70eef9b","system_id":"levelo_inurba_marseille","lat":43.21743,"lon":5.3461,"is_reserved":false,"is_disabled":false,"rental_uris":{"android":"levelo://app?vid=6dcbafdd-a1b9-4d04-af91-285dc70eef9b","ios":"levelo://app?vid=6dcbafdd-a1b9-4d04-af91-285dc70eef9b"},"vehicle_type_id":"4","last_reported":1770046117,"current_range_meters":8400,"station_id":"","pricing_plan_id":"cebpf4jnsgd1na2vs0mg"},{"bike_id":"02b06200-6f0c-4fbe-a288-f34e85c983a1","system_id":"levelo_inurba_marseille","lat":43.23786,"lon":5.36617,"is_reserved":false,"is_disabled":false,"rental_uris":{"android":"levelo://app?vid=02b06200-6f0c-4fbe-a288-f34e85c983a1","ios":"levelo://app?vid=02b06200-6f0c-4fbe-a288-f34e85c983a1"},"vehicle_type_id":"4","last_reported":1770046117,"current_range_meters":8400,"station_id":"st_d3nk18o9ro0c73en2l3g","pricing_plan_id":"cebpf4jnsgd1na2vs0mg"},{"bike_id":"f40b24a5-bf74-4433-adfa-9cc7e924510b","system_id":"levelo_inurba_marseille","lat":43.29754,"lon":5.37809,"is_reserved":false,"is_disabled":false,"rental_uris":{"android":"levelo://app?vid=f40b24a5-bf74-4433-adfa-9cc7e924510b","ios":"levelo://app?vid=f40b24a5-bf74-4433-adfa-9cc7e924510b"},"vehicle_type_id":"4","last_reported":1770046117,"current_range_meters":8400,"station_id":"","pricing_plan_id":"cebpf4jnsgd1na2vs0mg"},{"bike_id":"23af0394-5a4b-41c7-a956-1b9443f015ff","system_id":"levelo_inurba_marseille","lat":43.33159,"lon":5.37688,"is_reserved":false,"is_disabled":false,"rental_uris":{"android":"levelo://app?vid=23af0394-5a4b-41c7-a956-1b9443f015ff","ios":"levelo://app?vid=23af0394-5a4b-41c7-a956-1b9443f015ff"},"vehicle_type_id":"4","last_reported":1770046117,"current_range_meters":8400,"station_id":"st_d46cu089ee8s73dldbu0","pricing_plan_id":"cebpf4jnsgd1na2vs0mg"},{"bike_id":"3e1943be-f538-49b6-a0d8-d14a2988f289","system_id":"levelo_inurba_marseille","lat":43.34144,"lon":5.40909,"is_reserved":false,"is_disabled":false,"rental_uris":{"android":"levelo://app?vid=3e1943be-f538-49b6-a0d8-d14a2988f289","ios":"levelo://app?vid=3e1943be-f538-49b6-a0d8-d14a2988f289"},"vehicle_type_id":"4","last_reported":1770046117,"current_range_meters":8400,"station_id":"ce4bhqh2rcd13ifvqhlg","pricing_plan_id":"cebpf4jnsgd1na2vs0mg"},{"bike_id":"448aac68-1f9e-4017-99cd-3bab5b285023","system_id":"levelo_inurba_marseille","lat":43.27365,"lon":5.36253,"is_reserved":false,"is_disabled":false,"rental_uris":{"android":"levelo://app?vid=448aac68-1f9e-4017-99cd-3bab5b285023","ios":"levelo://app?vid=448aac68-1f9e-4017-99cd-3bab5b285023"},"vehicle_type_id":"4","last_reported":1770046117,"current_range_meters":8400,"station_id":"ce4bhbh2rcd13ifvqeo0","pricing_plan_id":"cebpf4jnsgd1na2vs0mg"},{"bike_id":"89dacfb9-9707-42fe-a9c8-524d3751d080","system_id":"levelo_inurba_marseille","lat":43.23157,"lon":5.43712,"is_reserved":false,"is_disabled":false,"rental_uris":{"android":"levelo://app?vid=89dacfb9-9707-42fe-a9c8-524d3751d080","ios":"levelo://app?vid=89dacfb9-9707-42fe-a9c8-524d3751d080"},"vehicle_type_id":"4","last_reported":1770046117,"current_range_meters":8400,"station_id":"ce4bhmp2rcd13ifvqgog","pricing_plan_id":"cebpf4jnsgd1na2vs0mg"},{"bike_id":"76154380-766b-4767-81b3-83dc44f40b7b","system_id":"levelo_inurba_marseille","lat":43.33545,"lon":5.37473,"is_reserved":false,"is_disabled":false,"rental_uris":{"android":"levelo://app?vid=76154380-766b-4767-81b3-83dc44f40b7b","ios":"levelo://app?vid=76154380-766b-4767-81b3-83dc44f40b7b"},"vehicle_type_id":"4","last_reported":1770046117,"current_range_meters":8400,"station_id":"st_d46tts09ee8s73dlu43g","pricing_plan_id":"cebpf4jnsgd1na2vs0mg"},{"bike_id":"ed02cb4c-388a-4f26-a459-0831f95c479b","system_id":"levelo_inurba_marseille","lat":43.29905,"lon":5.43678,"is_reserved":false,"is_disabled":false,"rental_uris":{"android":"levelo://app?vid=ed02cb4c-388a-4f26-a459-0831f95c479b","ios":"levelo://app?vid=ed02cb4c-388a-4f26-a459-0831f95c479b"},"vehicle_type_id":"4","last_reported":1770046117,"current_range_meters":8400,"station_id":"ce4bhpp2rcd13ifvqhfg","pricing_plan_id":"cebpf4jnsgd1na2vs0mg"},{"bike_id":"6bbe4d31-d7b8-4429-861f-4435b8fbdde3","system_id":"levelo_inurba_marseille","lat":43.29843,"lon":5.36269,"is_reserved":false,"is_disabled":false,"rental_uris":{"android":"levelo://app?vid=6bbe4d31-d7b8-4429-861f-4435b8fbdde3","ios":"levelo://app?vid=6bbe4d31-d7b8-4429-861f-4435b8fbdde3"},"vehicle_type_id":"4","last_reported":1770046117,"current_range_meters":8400,"station_id":"ce4bgpp2rcd13ifvqc3g","pricing_plan_id":"cebpf4jnsgd1na2vs0mg"},{"bike_id":"68672e36-b6ad-45db-b10d-740c3f252cf0","system_id":"levelo_inurba_marseille","lat":43.24069,"lon":5.37763,"is_reserved":false,"is_disabled":false,"rental_uris":{"android":"levelo://app?vid=68672e36-b6ad-45db-b10d-740c3f252cf0","ios":"levelo://app?vid=68672e36-b6ad-45db-b10d-740c3f252cf0"},"vehicle_type_id":"4","last_reported":1770046117,"current_range_meters":8400,"station_id":"ce4bhnp2rcd13ifvqgvg","pricing_plan_id":"cebpf4jnsgd1na2vs0mg"},{"bike_id":"dd31698a-3042-473a-bd53-ac0632646f44","system_id":"levelo_inurba_marseille","lat":43.24467,"lon":5.42536,"is_reserved":false,"is_disabled":false,"rental_uris":{"android":"levelo://app?vid=dd31698a-3042-473a-bd53-ac0632646f44","ios":"levelo://app?vid=dd31698a-3042-473a-bd53-ac0632646f44"},"vehicle_type_id":"4","last_reported":1770046117,"current_range_meters":8400,"station_id":"st_d4a3vfp97mjs738cd8kg","pricing_plan_id":"cebpf4jnsgd1na2vs0mg"},{"bike_id":"d2330287-ed3a-45b2-a971-ee635889e5bb","system_id":"levelo_inurba_marseille","lat":43.29111,"lon":5.38125,"is_reserved":false,"is_disabled":false,"rental_uris":{"android":"levelo://app?vid=d2330287-ed3a-45b2-a971-ee635889e5bb","ios":"levelo://app?vid=d2330287-ed3a-45b2-a971-ee635889e5bb"},"vehicle_type_id":"4","last_reported":1770046117,"current_range_meters":8400,"station_id":"ce4bh512rcd13ifvqe2g","pricing_plan_id":"cebpf4jnsgd1na2vs0mg"},{"bike_id":"8ebf614d-89a7-4fb1-9206-a14df9f673f3","system_id":"levelo_inurba_marseille","lat":43.26943,"lon":5.38914,"is_reserved":false,"is_disabled":false,"rental_uris":{"android":"levelo://app?vid=8ebf614d-89a7-4fb1-9206-a14df9f673f3","ios":"levelo://app?vid=8ebf614d-89a7-4fb1-9206-a14df9f673f3"},"vehicle_type_id":"4","last_reported":1770046117,"current_range_meters":8400,"station_id":"ce4bhhh2rcd13ifvqfl0","pricing_plan_id":"cebpf4jnsgd1na2vs0mg"},{"bike_id":"12fdd701-eb06-48fd-ad5f-93aca9d9dea7","system_id":"levelo_inurba_marseille","lat":43.29228,"lon":5.36058,"is_reserved":false,"is_disabled":false,"rental_uris":{"android":"levelo://app?vid=12fdd701-eb06-48fd-ad5f-93aca9d9dea7","ios":"levelo://app?vid=12fdd701-eb06-48fd-ad5f-93aca9d9dea7"},"vehicle_type_id":"4","last_reported":1770046117,"current_range_meters":8400,"station_id":"ce4bhbh2rcd13ifvqeqg","pricing_plan_id":"cebpf4jnsgd1na2vs0mg"},{"bike_id":"9cbcf585-a58e-4938-b69e-d4c3022c57ef","system_id":"levelo_inurba_marseille","lat":43.24067,"lon":5.37737,"is_reserved":false,"is_disabled":false,"rental_uris":{"android":"levelo://app?vid=9cbcf585-a58e-4938-b69e-d4c3022c57ef","ios":"levelo://app?vid=9cbcf585-a58e-4938-b69e-d4c3022c57ef"},"vehicle_type_id":"4","last_reported":1770046117,"current_range_meters":8400,"station_id":"ce4bhnp2rcd13ifvqgvg","pricing_plan_id":"cebpf4jnsgd1na2vs0mg"},{"bike_id":"66f7b0ee-1ff1-4347-a9d6-8c7cc4ec28cb","system_id":"levelo_inurba_marseille","lat":43.27352,"lon":5.391,"is_reserved":false,"is_disabled":false,"rental_uris":{"android":"levelo://app?vid=66f7b0ee-1ff1-4347-a9d6-8c7cc4ec28cb","ios":"levelo://app?vid=66f7b0ee-1ff1-4347-a9d6-8c7cc4ec28cb"},"vehicle_type_id":"4","last_reported":1770046117,"current_range_meters":8400,"station_id":"ce4bhgp2rcd13ifvqfe0","pricing_plan_id":"cebpf4jnsgd1na2vs0mg"},{"bike_id":"d1786d71-cdac-413b-898f-401144ede37d","system_id":"levelo_inurba_marseille","lat":43.25346,"lon":5.42147,"is_reserved":false,"is_disabled":false,"rental_uris":{"android":"levelo://app?vid=d1786d71-cdac-413b-898f-401144ede37d","ios":"levelo://app?vid=d1786d71-cdac-413b-898f-401144ede37d"},"vehicle_type_id":"4","last_reported":1770046117,"current_range_meters":8400,"station_id":"st_d2m65c5bi1j21697t3ng","pricing_plan_id":"cebpf4jnsgd1na2vs0mg"},{"bike_id":"5dae8e7a-771c-417a-921b-2f019b85b891","system_id":"levelo_inurba_marseille","lat":43.29888,"lon":5.43673,"is_reserved":false,"is_disabled":false,"rental_uris":{"android":"levelo://app?vid=5dae8e7a-771c-417a-921b-2f019b85b891","ios":"levelo://app?vid=5dae8e7a-771c-417a-921b-2f019b85b891"},"vehicle_type_id":"4","last_reported":1770046117,"current_range_meters":8400,"station_id":"ce4bhpp2rcd13ifvqhfg","pricing_plan_id":"cebpf4jnsgd1na2vs0mg"},{"bike_id":"97a7fd40-c851-4b49-ad37-151256807936","system_id":"levelo_inurba_marseille","lat":43.25726,"lon":5.41103,"is_reserved":false,"is_disabled":false,"rental_uris":{"android":"levelo://app?vid=97a7fd40-c851-4b49-ad37-151256807936","ios":"levelo://app?vid=97a7fd40-c851-4b49-ad37-151256807936"},"vehicle_type_id":"4","last_reported":1770046117,"current_range_meters":8400,"station_id":"ce4bhkp2rcd13ifvqgd0","pricing_plan_id":"cebpf4jnsgd1na2vs0mg"},{"bike_id":"fb6d0c92-aa07-41c5-bb64-ff22908e7b14","system_id":"levelo_inurba_marseille","lat":43.33536,"lon":5.37462,"is_reserved":false,"is_disabled":false,"rental_uris":{"android":"levelo://app?vid=fb6d0c92-aa07-41c5-bb64-ff22908e7b14","ios":"levelo://app?vid=fb6d0c92-aa07-41c5-bb64-ff22908e7b14"},"vehicle_type_id":"4","last_reported":1770046117,"current_range_meters":8400,"station_id":"st_d46tts09ee8s73dlu43g","pricing_plan_id":"cebpf4jnsgd1na2vs0mg"},{"bike_id":"4e6b93e4-ee39-4999-bfda-7b5048ef544e","system_id":"levelo_inurba_marseille","lat":43.29811,"lon":5.38095,"is_reserved":false,"is_disabled":false,"rental_uris":{"android":"levelo://app?vid=4e6b93e4-ee39-4999-bfda-7b5048ef544e","ios":"levelo://app?vid=4e6b93e4-ee39-4999-bfda-7b5048ef544e"},"vehicle_type_id":"4","last_reported":1770046117,"current_range_meters":8800,"station_id":"ce4bgip2rcd13ifvqbb0","pricing_plan_id":"cebpf4jnsgd1na2vs0mg"},{"bike_id":"cef9edb7-4d2e-4ab7-9675-6b816e961933","system_id":"levelo_inurba_marseille","lat":43.241813,"lon":5.39722,"is_reserved":false,"is_disabled":false,"rental_uris":{"android":"levelo://app?vid=cef9edb7-4d2e-4ab7-9675-6b816e961933","ios":"levelo://app?vid=cef9edb7-4d2e-4ab7-9675-6b816e961933"},"vehicle_type_id":"4","last_reported":1770046117,"current_range_meters":8800,"station_id":"ce4bhn12rcd13ifvqgpg","pricing_plan_id":"cebpf4jnsgd1na2vs0mg"},{"bike_id":"9436c3fb-a74e-4fd5-8b2a-988e84b82382","system_id":"levelo_inurba_marseille","lat":43.2417,"lon":5.3973,"is_reserved":false,"is_disabled":false,"rental_uris":{"android":"levelo://app?vid=9436c3fb-a74e-4fd5-8b2a-988e84b82382","ios":"levelo://app?vid=9436c3fb-a74e-4fd5-8b2a-988e84b82382"},"vehicle_type_id":"4","last_reported":1770046117,"current_range_meters":8800,"station_id":"ce4bhn12rcd13ifvqgpg","pricing_plan_id":"cebpf4jnsgd1na2vs0mg"},{"bike_id":"666fe0ba-7059-4036-966c-707260bcf29b","system_id":"levelo_inurba_marseille","lat":43.30486,"lon":5.37888,"is_reserved":false,"is_disabled":false,"rental_uris":{"android":"levelo://app?vid=666fe0ba-7059-4036-966c-707260bcf29b","ios":"levelo://app?vid=666fe0ba-7059-4036-966c-707260bcf29b"},"vehicle_type_id":"4","last_reported":1770046117,"current_range_meters":8800,"station_id":"ce4bgup2rcd13ifvqcn0","pricing_plan_id":"cebpf4jnsgd1na2vs0mg"},{"bike_id":"efbef786-6b3c-4aff-b7c5-e3a42e8d7d43","system_id":"levelo_inurba_marseille","lat":43.29273,"lon":5.368449,"is_reserved":false,"is_disabled":false,"rental_uris":{"android":"levelo://app?vid=efbef786-6b3c-4aff-b7c5-e3a42e8d7d43","ios":"levelo://app?vid=efbef786-6b3c-4aff-b7c5-e3a42e8d7d43"},"vehicle_type_id":"4","last_reported":1770046117,"current_range_meters":8800,"station_id":"ce4bhbp2rcd13ifvqesg","pricing_plan_id":"cebpf4jnsgd1na2vs0mg"},{"bike_id":"f8b088f0-ca1a-438b-b5e9-6417de7330aa","system_id":"levelo_inurba_marseille","lat":43.29169,"lon":5.371539,"is_reserved":false,"is_disabled":false,"rental_uris":{"android":"levelo://app?vid=f8b088f0-ca1a-438b-b5e9-6417de7330aa","ios":"levelo://app?vid=f8b088f0-ca1a-438b-b5e9-6417de7330aa"},"vehicle_type_id":"4","last_reported":1770046117,"current_range_meters":8800,"station_id":"ce4bha92rcd13ifvqeh0","pricing_plan_id":"cebpf4jnsgd1na2vs0mg"},{"bike_id":"33155caa-8021-4913-a666-e828c4426fe1","system_id":"levelo_inurba_marseille","lat":43.23207,"lon":5.35562,"is_reserved":false,"is_disabled":false,"rental_uris":{"android":"levelo://app?vid=33155caa-8021-4913-a666-e828c4426fe1","ios":"levelo://app?vid=33155caa-8021-4913-a666-e828c4426fe1"},"vehicle_type_id":"4","last_reported":1770046117,"current_range_meters":8800,"station_id":"ce4bhu92rcd13ifvqi70","pricing_plan_id":"cebpf4jnsgd1na2vs0mg"},{"bike_id":"dd789ece-b6e4-4c2e-b0c1-877c84b17297","system_id":"levelo_inurba_marseille","lat":43.21209,"lon":5.35061,"is_reserved":false,"is_disabled":false,"rental_uris":{"android":"levelo://app?vid=dd789ece-b6e4-4c2e-b0c1-877c84b17297","ios":"levelo://app?vid=dd789ece-b6e4-4c2e-b0c1-877c84b17297"},"vehicle_type_id":"4","last_reported":1770046117,"current_range_meters":8800,"station_id":"st_cvj6sg6p6f1abm77japg","pricing_plan_id":"cebpf4jnsgd1na2vs0mg"},{"bike_id":"3b186d49-4913-42e4-97fc-5682b82efe0c","system_id":"levelo_inurba_marseille","lat":43.29964,"lon":5.37169,"is_reserved":false,"is_disabled":false,"rental_uris":{"android":"levelo://app?vid=3b186d49-4913-42e4-97fc-5682b82efe0c","ios":"levelo://app?vid=3b186d49-4913-42e4-97fc-5682b82efe0c"},"vehicle_type_id":"4","last_reported":1770046117,"current_range_meters":8800,"station_id":"ce4bgr92rcd13ifvqc7g","pricing_plan_id":"cebpf4jnsgd1na2vs0mg"},{"bike_id":"6da72cdc-500c-4ba3-95a0-693b1fd985c5","system_id":"levelo_inurba_marseille","lat":43.310573,"lon":5.37177,"is_reserved":false,"is_disabled":false,"rental_uris":{"android":"levelo://app?vid=6da72cdc-500c-4ba3-95a0-693b1fd985c5","ios":"levelo://app?vid=6da72cdc-500c-4ba3-95a0-693b1fd985c5"},"vehicle_type_id":"4","last_reported":1770046117,"current_range_meters":8800,"station_id":"st_d4kl2rp97mjs73e7tdfg","pricing_plan_id":"cebpf4jnsgd1na2vs0mg"},{"bike_id":"e5039c56-5199-4176-914c-6032a6fc6ed3","system_id":"levelo_inurba_marseille","lat":43.24802,"lon":5.37454,"is_reserved":false,"is_disabled":false,"rental_uris":{"android":"levelo://app?vid=e5039c56-5199-4176-914c-6032a6fc6ed3","ios":"levelo://app?vid=e5039c56-5199-4176-914c-6032a6fc6ed3"},"vehicle_type_id":"4","last_reported":1770046117,"current_range_meters":8800,"station_id":"ce4bhgh2rcd13ifvqfb0","pricing_plan_id":"cebpf4jnsgd1na2vs0mg"},{"bike_id":"222db6d2-88ff-479f-9abb-5dc93feec713","system_id":"levelo_inurba_marseille","lat":43.31275,"lon":5.37769,"is_reserved":false,"is_disabled":false,"rental_uris":{"android":"levelo://app?vid=222db6d2-88ff-479f-9abb-5dc93feec713","ios":"levelo://app?vid=222db6d2-88ff-479f-9abb-5dc93feec713"},"vehicle_type_id":"4","last_reported":1770046117,"current_range_meters":8800,"station_id":"","pricing_plan_id":"cebpf4jnsgd1na2vs0mg"},{"bike_id":"23aa10f2-ced9-4cc9-b468-7f0d30263b76","system_id":"levelo_inurba_marseille","lat":43.30532,"lon":5.36601,"is_reserved":false,"is_disabled":false,"rental_uris":{"android":"levelo://app?vid=23aa10f2-ced9-4cc9-b468-7f0d30263b76","ios":"levelo://app?vid=23aa10f2-ced9-4cc9-b468-7f0d30263b76"},"vehicle_type_id":"4","last_reported":1770046117,"current_range_meters":8800,"station_id":"ce4bgs12rcd13ifvqcag","pricing_plan_id":"cebpf4jnsgd1na2vs0mg"},{"bike_id":"03f466db-20dc-42d9-8a0d-992246935b4c","system_id":"levelo_inurba_marseille","lat":43.29058,"lon":5.3716,"is_reserved":false,"is_disabled":false,"rental_uris":{"android":"levelo://app?vid=03f466db-20dc-42d9-8a0d-992246935b4c","ios":"levelo://app?vid=03f466db-20dc-42d9-8a0d-992246935b4c"},"vehicle_type_id":"4","last_reported":1770046117,"current_range_meters":9200,"station_id":"ce4bh5p2rcd13ifvqe4g","pricing_plan_id":"cebpf4jnsgd1na2vs0mg"},{"bike_id":"e9c5afc7-c303-4df3-a0d1-811595814b02","system_id":"levelo_inurba_marseille","lat":43.24075,"lon":5.37752,"is_reserved":false,"is_disabled":false,"rental_uris":{"android":"levelo://app?vid=e9c5afc7-c303-4df3-a0d1-811595814b02","ios":"levelo://app?vid=e9c5afc7-c303-4df3-a0d1-811595814b02"},"vehicle_type_id":"4","last_reported":1770046117,"current_range_meters":9200,"station_id":"ce4bhnp2rcd13ifvqgvg","pricing_plan_id":"cebpf4jnsgd1na2vs0mg"},{"bike_id":"c95356d1-cd74-4b76-95d3-1eea29a791a1","system_id":"levelo_inurba_marseille","lat":43.28666,"lon":5.36334,"is_reserved":false,"is_disabled":false,"rental_uris":{"android":"levelo://app?vid=c95356d1-cd74-4b76-95d3-1eea29a791a1","ios":"levelo://app?vid=c95356d1-cd74-4b76-95d3-1eea29a791a1"},"vehicle_type_id":"4","last_reported":1770046117,"current_range_meters":9200,"station_id":"ce4bhah2rcd13ifvqej0","pricing_plan_id":"cebpf4jnsgd1na2vs0mg"},{"bike_id":"af6fe419-abd0-4c08-bd2b-c8ba340332c1","system_id":"levelo_inurba_marseille","lat":43.26546,"lon":5.37287,"is_reserved":false,"is_disabled":false,"rental_uris":{"android":"levelo://app?vid=af6fe419-abd0-4c08-bd2b-c8ba340332c1","ios":"levelo://app?vid=af6fe419-abd0-4c08-bd2b-c8ba340332c1"},"vehicle_type_id":"4","last_reported":1770046117,"current_range_meters":9200,"station_id":"","pricing_plan_id":"cebpf4jnsgd1na2vs0mg"},{"bike_id":"e1e72a87-79b2-4727-ab3b-747e4a3fa96f","system_id":"levelo_inurba_marseille","lat":43.300852,"lon":5.374261,"is_reserved":false,"is_disabled":false,"rental_uris":{"android":"levelo://app?vid=e1e72a87-79b2-4727-ab3b-747e4a3fa96f","ios":"levelo://app?vid=e1e72a87-79b2-4727-ab3b-747e4a3fa96f"},"vehicle_type_id":"4","last_reported":1770046117,"current_range_meters":9200,"station_id":"","pricing_plan_id":"cebpf4jnsgd1na2vs0mg"},{"bike_id":"39e34071-1f76-445c-91f2-187764720849","system_id":"levelo_inurba_marseille","lat":43.21754,"lon":5.34591,"is_reserved":false,"is_disabled":false,"rental_uris":{"android":"levelo://app?vid=39e34071-1f76-445c-91f2-187764720849","ios":"levelo://app?vid=39e34071-1f76-445c-91f2-187764720849"},"vehicle_type_id":"4","last_reported":1770046117,"current_range_meters":9200,"station_id":"","pricing_plan_id":"cebpf4jnsgd1na2vs0mg"},{"bike_id":"4dd6841e-e470-4207-bb73-65a47c0e81c5","system_id":"levelo_inurba_marseille","lat":43.31184,"lon":5.38034,"is_reserved":false,"is_disabled":false,"rental_uris":{"android":"levelo://app?vid=4dd6841e-e470-4207-bb73-65a47c0e81c5","ios":"levelo://app?vid=4dd6841e-e470-4207-bb73-65a47c0e81c5"},"vehicle_type_id":"4","last_reported":1770046117,"current_range_meters":9200,"station_id":"","pricing_plan_id":"cebpf4jnsgd1na2vs0mg"},{"bike_id":"2c8b47d5-27f1-4d0a-b760-927ecdec6745","system_id":"levelo_inurba_marseille","lat":43.30558,"lon":5.36561,"is_reserved":false,"is_disabled":false,"rental_uris":{"android":"levelo://app?vid=2c8b47d5-27f1-4d0a-b760-927ecdec6745","ios":"levelo://app?vid=2c8b47d5-27f1-4d0a-b760-927ecdec6745"},"vehicle_type_id":"4","last_reported":1770046117,"current_range_meters":9200,"station_id":"ce4bgs12rcd13ifvqcag","pricing_plan_id":"cebpf4jnsgd1na2vs0mg"},{"bike_id":"9ede7f02-b7e5-4592-92c0-07143ca08c00","system_id":"levelo_inurba_marseille","lat":43.31205,"lon":5.36706,"is_reserved":false,"is_disabled":false,"rental_uris":{"android":"levelo://app?vid=9ede7f02-b7e5-4592-92c0-07143ca08c00","ios":"levelo://app?vid=9ede7f02-b7e5-4592-92c0-07143ca08c00"},"vehicle_type_id":"4","last_reported":1770046117,"current_range_meters":9200,"station_id":"","pricing_plan_id":"cebpf4jnsgd1na2vs0mg"},{"bike_id":"f8e7e4d9-f87a-42a2-9144-b6886b943f25","system_id":"levelo_inurba_marseille","lat":43.25011,"lon":5.3889,"is_reserved":false,"is_disabled":false,"rental_uris":{"android":"levelo://app?vid=f8e7e4d9-f87a-42a2-9144-b6886b943f25","ios":"levelo://app?vid=f8e7e4d9-f87a-42a2-9144-b6886b943f25"},"vehicle_type_id":"4","last_reported":1770046117,"current_range_meters":9600,"station_id":"ce4bhgp2rcd13ifvqfd0","pricing_plan_id":"cebpf4jnsgd1na2vs0mg"},{"bike_id":"ebfaf8ab-15db-4613-b78e-7b21e23ec36c","system_id":"levelo_inurba_marseille","lat":43.29204,"lon":5.39317,"is_reserved":false,"is_disabled":false,"rental_uris":{"android":"levelo://app?vid=ebfaf8ab-15db-4613-b78e-7b21e23ec36c","ios":"levelo://app?vid=ebfaf8ab-15db-4613-b78e-7b21e23ec36c"},"vehicle_type_id":"4","last_reported":1770046117,"current_range_meters":9600,"station_id":"ce4bh192rcd13ifvqdd0","pricing_plan_id":"cebpf4jnsgd1na2vs0mg"},{"bike_id":"79534d48-e26f-4999-a98b-9bc2adced944","system_id":"levelo_inurba_marseille","lat":43.29431,"lon":5.42922,"is_reserved":false,"is_disabled":false,"rental_uris":{"android":"levelo://app?vid=79534d48-e26f-4999-a98b-9bc2adced944","ios":"levelo://app?vid=79534d48-e26f-4999-a98b-9bc2adced944"},"vehicle_type_id":"4","last_reported":1770046117,"current_range_meters":9600,"station_id":"","pricing_plan_id":"cebpf4jnsgd1na2vs0mg"},{"bike_id":"eee54609-a6c8-4bc7-a936-6a1b442519d3","system_id":"levelo_inurba_marseille","lat":43.3104,"lon":5.37167,"is_reserved":false,"is_disabled":false,"rental_uris":{"android":"levelo://app?vid=eee54609-a6c8-4bc7-a936-6a1b442519d3","ios":"levelo://app?vid=eee54609-a6c8-4bc7-a936-6a1b442519d3"},"vehicle_type_id":"4","last_reported":1770046117,"current_range_meters":9600,"station_id":"st_d4kl2rp97mjs73e7tdfg","pricing_plan_id":"cebpf4jnsgd1na2vs0mg"},{"bike_id":"62e27a91-d1f4-4b1a-b2a6-3405a804b362","system_id":"levelo_inurba_marseille","lat":43.27084,"lon":5.42268,"is_reserved":false,"is_disabled":false,"rental_uris":{"android":"levelo://app?vid=62e27a91-d1f4-4b1a-b2a6-3405a804b362","ios":"levelo://app?vid=62e27a91-d1f4-4b1a-b2a6-3405a804b362"},"vehicle_type_id":"4","last_reported":1770046117,"current_range_meters":9600,"station_id":"ce4bhk92rcd13ifvqgb0","pricing_plan_id":"cebpf4jnsgd1na2vs0mg"},{"bike_id":"6b9396ac-cc81-45e0-ae3e-d5c56db5ca0b","system_id":"levelo_inurba_marseille","lat":43.24077,"lon":5.37762,"is_reserved":false,"is_disabled":false,"rental_uris":{"android":"levelo://app?vid=6b9396ac-cc81-45e0-ae3e-d5c56db5ca0b","ios":"levelo://app?vid=6b9396ac-cc81-45e0-ae3e-d5c56db5ca0b"},"vehicle_type_id":"4","last_reported":1770046117,"current_range_meters":9600,"station_id":"ce4bhnp2rcd13ifvqgvg","pricing_plan_id":"cebpf4jnsgd1na2vs0mg"},{"bike_id":"9c2508a9-b968-4bec-819a-5127bc67b58d","system_id":"levelo_inurba_marseille","lat":43.2842,"lon":5.37512,"is_reserved":false,"is_disabled":true,"rental_uris":{"android":"levelo://app?vid=9c2508a9-b968-4bec-819a-5127bc67b58d","ios":"levelo://app?vid=9c2508a9-b968-4bec-819a-5127bc67b58d"},"vehicle_type_id":"4","last_reported":1770046117,"current_range_meters":9600,"station_id":"ce4bh412rcd13ifvqds0","pricing_plan_id":"cebpf4jnsgd1na2vs0mg"},{"bike_id":"51cbf713-f79b-4c2d-9d8b-9a1117324cc6","system_id":"levelo_inurba_marseille","lat":43.29008,"lon":5.35622,"is_reserved":false,"is_disabled":false,"rental_uris":{"android":"levelo://app?vid=51cbf713-f79b-4c2d-9d8b-9a1117324cc6","ios":"levelo://app?vid=51cbf713-f79b-4c2d-9d8b-9a1117324cc6"},"vehicle_type_id":"4","last_reported":1770046117,"current_range_meters":9600,"station_id":"ce4bhb92rcd13ifvqen0","pricing_plan_id":"cebpf4jnsgd1na2vs0mg"},{"bike_id":"643c0e4e-fd1c-4522-9a10-84fe63051179","system_id":"levelo_inurba_marseille","lat":43.27919,"lon":5.39574,"is_reserved":false,"is_disabled":false,"rental_uris":{"android":"levelo://app?vid=643c0e4e-fd1c-4522-9a10-84fe63051179","ios":"levelo://app?vid=643c0e4e-fd1c-4522-9a10-84fe63051179"},"vehicle_type_id":"4","last_reported":1770046117,"current_range_meters":9600,"station_id":"ce4bhf92rcd13ifvqf40","pricing_plan_id":"cebpf4jnsgd1na2vs0mg"},{"bike_id":"fcf0ecce-0d76-4462-b036-5e939a7ffa3b","system_id":"levelo_inurba_marseille","lat":43.30244,"lon":5.40041,"is_reserved":false,"is_disabled":false,"rental_uris":{"android":"levelo://app?vid=fcf0ecce-0d76-4462-b036-5e939a7ffa3b","ios":"levelo://app?vid=fcf0ecce-0d76-4462-b036-5e939a7ffa3b"},"vehicle_type_id":"4","last_reported":1770046117,"current_range_meters":9600,"station_id":"ce4bgvh2rcd13ifvqcs0","pricing_plan_id":"cebpf4jnsgd1na2vs0mg"},{"bike_id":"7101038f-70ea-4b9e-bbb9-2aa0715357c0","system_id":"levelo_inurba_marseille","lat":43.2846,"lon":5.35899,"is_reserved":false,"is_disabled":false,"rental_uris":{"android":"levelo://app?vid=7101038f-70ea-4b9e-bbb9-2aa0715357c0","ios":"levelo://app?vid=7101038f-70ea-4b9e-bbb9-2aa0715357c0"},"vehicle_type_id":"4","last_reported":1770046117,"current_range_meters":9600,"station_id":"ce4bhah2rcd13ifvqei0","pricing_plan_id":"cebpf4jnsgd1na2vs0mg"},{"bike_id":"53547880-1d53-45a5-bb5f-da3863195742","system_id":"levelo_inurba_marseille","lat":43.29582,"lon":5.37523,"is_reserved":false,"is_disabled":false,"rental_uris":{"android":"levelo://app?vid=53547880-1d53-45a5-bb5f-da3863195742","ios":"levelo://app?vid=53547880-1d53-45a5-bb5f-da3863195742"},"vehicle_type_id":"4","last_reported":1770046117,"current_range_meters":9600,"station_id":"ce4bgh92rcd13ifvqb50","pricing_plan_id":"cebpf4jnsgd1na2vs0mg"},{"bike_id":"ad601413-a38b-4c55-b3a7-e45a929d33e1","system_id":"levelo_inurba_marseille","lat":43.26931,"lon":5.3891,"is_reserved":false,"is_disabled":false,"rental_uris":{"android":"levelo://app?vid=ad601413-a38b-4c55-b3a7-e45a929d33e1","ios":"levelo://app?vid=ad601413-a38b-4c55-b3a7-e45a929d33e1"},"vehicle_type_id":"4","last_reported":1770046117,"current_range_meters":9600,"station_id":"ce4bhhh2rcd13ifvqfl0","pricing_plan_id":"cebpf4jnsgd1na2vs0mg"},{"bike_id":"94df161b-0ecb-44ae-8fb0-8997ac070984","system_id":"levelo_inurba_marseille","lat":43.31365,"lon":5.36664,"is_reserved":false,"is_disabled":false,"rental_uris":{"android":"levelo://app?vid=94df161b-0ecb-44ae-8fb0-8997ac070984","ios":"levelo://app?vid=94df161b-0ecb-44ae-8fb0-8997ac070984"},"vehicle_type_id":"4","last_reported":1770046117,"current_range_meters":9600,"station_id":"ce4bgr92rcd13ifvqc6g","pricing_plan_id":"cebpf4jnsgd1na2vs0mg"},{"bike_id":"405ea4a7-897c-4c33-b952-8c30fed84872","system_id":"levelo_inurba_marseille","lat":43.28574,"lon":5.38525,"is_reserved":false,"is_disabled":false,"rental_uris":{"android":"levelo://app?vid=405ea4a7-897c-4c33-b952-8c30fed84872","ios":"levelo://app?vid=405ea4a7-897c-4c33-b952-8c30fed84872"},"vehicle_type_id":"4","last_reported":1770046117,"current_range_meters":9600,"station_id":"","pricing_plan_id":"cebpf4jnsgd1na2vs0mg"},{"bike_id":"fd4003f9-ae57-43d9-af54-09e855d38b22","system_id":"levelo_inurba_marseille","lat":43.28534,"lon":5.44095,"is_reserved":false,"is_disabled":false,"rental_uris":{"android":"levelo://app?vid=fd4003f9-ae57-43d9-af54-09e855d38b22","ios":"levelo://app?vid=fd4003f9-ae57-43d9-af54-09e855d38b22"},"vehicle_type_id":"4","last_reported":1770046117,"current_range_meters":10000,"station_id":"st_d3j3df2ikq2c7380ej80","pricing_plan_id":"cebpf4jnsgd1na2vs0mg"},{"bike_id":"67949cb0-ad73-42aa-8494-c2a7d6735f87","system_id":"levelo_inurba_marseille","lat":43.31198,"lon":5.36895,"is_reserved":false,"is_disabled":false,"rental_uris":{"android":"levelo://app?vid=67949cb0-ad73-42aa-8494-c2a7d6735f87","ios":"levelo://app?vid=67949cb0-ad73-42aa-8494-c2a7d6735f87"},"vehicle_type_id":"4","last_reported":1770046117,"current_range_meters":10000,"station_id":"ce4bgl92rcd13ifvqbq0","pricing_plan_id":"cebpf4jnsgd1na2vs0mg"},{"bike_id":"1d567b04-d4f6-4239-98d7-929537b34c88","system_id":"levelo_inurba_marseille","lat":43.29143,"lon":5.371,"is_reserved":false,"is_disabled":false,"rental_uris":{"android":"levelo://app?vid=1d567b04-d4f6-4239-98d7-929537b34c88","ios":"levelo://app?vid=1d567b04-d4f6-4239-98d7-929537b34c88"},"vehicle_type_id":"4","last_reported":1770046117,"current_range_meters":10000,"station_id":"","pricing_plan_id":"cebpf4jnsgd1na2vs0mg"},{"bike_id":"8d9d214d-16a2-4854-91bf-d2caaadf9f42","system_id":"levelo_inurba_marseille","lat":43.23155,"lon":5.43713,"is_reserved":false,"is_disabled":false,"rental_uris":{"android":"levelo://app?vid=8d9d214d-16a2-4854-91bf-d2caaadf9f42","ios":"levelo://app?vid=8d9d214d-16a2-4854-91bf-d2caaadf9f42"},"vehicle_type_id":"4","last_reported":1770046117,"current_range_meters":10000,"station_id":"ce4bhmp2rcd13ifvqgog","pricing_plan_id":"cebpf4jnsgd1na2vs0mg"},{"bike_id":"d4392431-c253-40ef-a0d5-dd4ab6a1f20c","system_id":"levelo_inurba_marseille","lat":43.24086,"lon":5.37701,"is_reserved":false,"is_disabled":false,"rental_uris":{"android":"levelo://app?vid=d4392431-c253-40ef-a0d5-dd4ab6a1f20c","ios":"levelo://app?vid=d4392431-c253-40ef-a0d5-dd4ab6a1f20c"},"vehicle_type_id":"4","last_reported":1770046117,"current_range_meters":10000,"station_id":"","pricing_plan_id":"cebpf4jnsgd1na2vs0mg"},{"bike_id":"eacab8c5-ae8d-4933-89ca-bb8acaba05e8","system_id":"levelo_inurba_marseille","lat":43.24822,"lon":5.37469,"is_reserved":false,"is_disabled":false,"rental_uris":{"android":"levelo://app?vid=eacab8c5-ae8d-4933-89ca-bb8acaba05e8","ios":"levelo://app?vid=eacab8c5-ae8d-4933-89ca-bb8acaba05e8"},"vehicle_type_id":"4","last_reported":1770046117,"current_range_meters":10000,"station_id":"ce4bhgh2rcd13ifvqfb0","pricing_plan_id":"cebpf4jnsgd1na2vs0mg"},{"bike_id":"2c0bc4db-f557-470b-bd8a-9520318620b0","system_id":"levelo_inurba_marseille","lat":43.28415,"lon":5.34995,"is_reserved":false,"is_disabled":false,"rental_uris":{"android":"levelo://app?vid=2c0bc4db-f557-470b-bd8a-9520318620b0","ios":"levelo://app?vid=2c0bc4db-f557-470b-bd8a-9520318620b0"},"vehicle_type_id":"4","last_reported":1770046117,"current_range_meters":10000,"station_id":"ce4bhbh2rcd13ifvqepg","pricing_plan_id":"cebpf4jnsgd1na2vs0mg"},{"bike_id":"05f3e44e-c770-4b61-8b7e-293d128988a6","system_id":"levelo_inurba_marseille","lat":43.29861,"lon":5.36256,"is_reserved":false,"is_disabled":false,"rental_uris":{"android":"levelo://app?vid=05f3e44e-c770-4b61-8b7e-293d128988a6","ios":"levelo://app?vid=05f3e44e-c770-4b61-8b7e-293d128988a6"},"vehicle_type_id":"4","last_reported":1770046117,"current_range_meters":10000,"station_id":"ce4bgpp2rcd13ifvqc3g","pricing_plan_id":"cebpf4jnsgd1na2vs0mg"},{"bike_id":"3ce871a0-823d-47d6-87f8-8ef4cc2a6659","system_id":"levelo_inurba_marseille","lat":43.26384,"lon":5.41052,"is_reserved":false,"is_disabled":false,"rental_uris":{"android":"levelo://app?vid=3ce871a0-823d-47d6-87f8-8ef4cc2a6659","ios":"levelo://app?vid=3ce871a0-823d-47d6-87f8-8ef4cc2a6659"},"vehicle_type_id":"4","last_reported":1770046117,"current_range_meters":10000,"station_id":"st_d4e5ca6na9uc73bfl5fg","pricing_plan_id":"cebpf4jnsgd1na2vs0mg"},{"bike_id":"7c43d661-d9e1-43f3-b218-4b34782f8541","system_id":"levelo_inurba_marseille","lat":43.30951,"lon":5.3904,"is_reserved":false,"is_disabled":false,"rental_uris":{"android":"levelo://app?vid=7c43d661-d9e1-43f3-b218-4b34782f8541","ios":"levelo://app?vid=7c43d661-d9e1-43f3-b218-4b34782f8541"},"vehicle_type_id":"4","last_reported":1770046117,"current_range_meters":10000,"station_id":"ce4bgup2rcd13ifvqco0","pricing_plan_id":"cebpf4jnsgd1na2vs0mg"},{"bike_id":"fdf161dc-323b-4334-9385-20980441b92e","system_id":"levelo_inurba_marseille","lat":43.27498,"lon":5.42455,"is_reserved":false,"is_disabled":false,"rental_uris":{"android":"levelo://app?vid=fdf161dc-323b-4334-9385-20980441b92e","ios":"levelo://app?vid=fdf161dc-323b-4334-9385-20980441b92e"},"vehicle_type_id":"4","last_reported":1770046117,"current_range_meters":10000,"station_id":"ce4bhn92rcd13ifvqgrg","pricing_plan_id":"cebpf4jnsgd1na2vs0mg"},{"bike_id":"6ddf7e79-fc33-436a-9f2e-0297899e5607","system_id":"levelo_inurba_marseille","lat":43.28484,"lon":5.48385,"is_reserved":false,"is_disabled":false,"rental_uris":{"android":"levelo://app?vid=6ddf7e79-fc33-436a-9f2e-0297899e5607","ios":"levelo://app?vid=6ddf7e79-fc33-436a-9f2e-0297899e5607"},"vehicle_type_id":"4","last_reported":1770046117,"current_range_meters":10000,"station_id":"st_d3svhcjqgbts73a3dn0g","pricing_plan_id":"cebpf4jnsgd1na2vs0mg"},{"bike_id":"67d94700-218b-4e1b-9b09-f23953a1fdd8","system_id":"levelo_inurba_marseille","lat":43.26222,"lon":5.40449,"is_reserved":false,"is_disabled":false,"rental_uris":{"android":"levelo://app?vid=67d94700-218b-4e1b-9b09-f23953a1fdd8","ios":"levelo://app?vid=67d94700-218b-4e1b-9b09-f23953a1fdd8"},"vehicle_type_id":"4","last_reported":1770046117,"current_range_meters":10000,"station_id":"ce4bhmh2rcd13ifvqgmg","pricing_plan_id":"cebpf4jnsgd1na2vs0mg"},{"bike_id":"be616c8a-7d9f-44f2-9914-b719781dfdee","system_id":"levelo_inurba_marseille","lat":43.23966,"lon":5.36646,"is_reserved":false,"is_disabled":false,"rental_uris":{"android":"levelo://app?vid=be616c8a-7d9f-44f2-9914-b719781dfdee","ios":"levelo://app?vid=be616c8a-7d9f-44f2-9914-b719781dfdee"},"vehicle_type_id":"4","last_reported":1770046117,"current_range_meters":10000,"station_id":"ce4bhi12rcd13ifvqfp0","pricing_plan_id":"cebpf4jnsgd1na2vs0mg"},{"bike_id":"549d637b-91c5-48ec-83fa-865a463b6a4b","system_id":"levelo_inurba_marseille","lat":43.2319,"lon":5.35561,"is_reserved":false,"is_disabled":false,"rental_uris":{"android":"levelo://app?vid=549d637b-91c5-48ec-83fa-865a463b6a4b","ios":"levelo://app?vid=549d637b-91c5-48ec-83fa-865a463b6a4b"},"vehicle_type_id":"4","last_reported":1770046117,"current_range_meters":10000,"station_id":"ce4bhu92rcd13ifvqi70","pricing_plan_id":"cebpf4jnsgd1na2vs0mg"},{"bike_id":"5b3811ef-5681-4c18-aac4-a62920f9a85c","system_id":"levelo_inurba_marseille","lat":43.28482,"lon":5.51489,"is_reserved":false,"is_disabled":false,"rental_uris":{"android":"levelo://app?vid=5b3811ef-5681-4c18-aac4-a62920f9a85c","ios":"levelo://app?vid=5b3811ef-5681-4c18-aac4-a62920f9a85c"},"vehicle_type_id":"4","last_reported":1770046117,"current_range_meters":10000,"station_id":"","pricing_plan_id":"cebpf4jnsgd1na2vs0mg"},{"bike_id":"1bff195f-878b-4a6e-8675-61979ef9dcf7","system_id":"levelo_inurba_marseille","lat":43.23203,"lon":5.35546,"is_reserved":false,"is_disabled":false,"rental_uris":{"android":"levelo://app?vid=1bff195f-878b-4a6e-8675-61979ef9dcf7","ios":"levelo://app?vid=1bff195f-878b-4a6e-8675-61979ef9dcf7"},"vehicle_type_id":"4","last_reported":1770046117,"current_range_meters":10000,"station_id":"ce4bhu92rcd13ifvqi70","pricing_plan_id":"cebpf4jnsgd1na2vs0mg"},{"bike_id":"e54d1a6c-1d24-448b-bd43-0ba1a1168302","system_id":"levelo_inurba_marseille","lat":43.28349,"lon":5.38111,"is_reserved":false,"is_disabled":false,"rental_uris":{"android":"levelo://app?vid=e54d1a6c-1d24-448b-bd43-0ba1a1168302","ios":"levelo://app?vid=e54d1a6c-1d24-448b-bd43-0ba1a1168302"},"vehicle_type_id":"4","last_reported":1770046117,"current_range_meters":10000,"station_id":"ce4bh412rcd13ifvqdr0","pricing_plan_id":"cebpf4jnsgd1na2vs0mg"},{"bike_id":"0ec3ff06-29b5-4663-8cf6-8cda9c985b7e","system_id":"levelo_inurba_marseille","lat":43.28438,"lon":5.37521,"is_reserved":false,"is_disabled":false,"rental_uris":{"android":"levelo://app?vid=0ec3ff06-29b5-4663-8cf6-8cda9c985b7e","ios":"levelo://app?vid=0ec3ff06-29b5-4663-8cf6-8cda9c985b7e"},"vehicle_type_id":"4","last_reported":1770046117,"current_range_meters":10000,"station_id":"ce4bh412rcd13ifvqds0","pricing_plan_id":"cebpf4jnsgd1na2vs0mg"},{"bike_id":"3e1dde1f-9ef9-4fd2-b365-458b3ab247fb","system_id":"levelo_inurba_marseille","lat":43.30959,"lon":5.39041,"is_reserved":false,"is_disabled":false,"rental_uris":{"android":"levelo://app?vid=3e1dde1f-9ef9-4fd2-b365-458b3ab247fb","ios":"levelo://app?vid=3e1dde1f-9ef9-4fd2-b365-458b3ab247fb"},"vehicle_type_id":"4","last_reported":1770046117,"current_range_meters":10000,"station_id":"ce4bgup2rcd13ifvqco0","pricing_plan_id":"cebpf4jnsgd1na2vs0mg"},{"bike_id":"6648b726-248a-4235-8962-e02d3f57c3f3","system_id":"levelo_inurba_marseille","lat":43.24997,"lon":5.3895,"is_reserved":false,"is_disabled":false,"rental_uris":{"android":"levelo://app?vid=6648b726-248a-4235-8962-e02d3f57c3f3","ios":"levelo://app?vid=6648b726-248a-4235-8962-e02d3f57c3f3"},"vehicle_type_id":"4","last_reported":1770046117,"current_range_meters":10000,"station_id":"ce4bhgp2rcd13ifvqfd0","pricing_plan_id":"cebpf4jnsgd1na2vs0mg"},{"bike_id":"ded542fb-57b4-4000-a893-2cf12f56ca91","system_id":"levelo_inurba_marseille","lat":43.31055,"lon":5.37176,"is_reserved":false,"is_disabled":false,"rental_uris":{"android":"levelo://app?vid=ded542fb-57b4-4000-a893-2cf12f56ca91","ios":"levelo://app?vid=ded542fb-57b4-4000-a893-2cf12f56ca91"},"vehicle_type_id":"4","last_reported":1770046117,"current_range_meters":10000,"station_id":"st_d4kl2rp97mjs73e7tdfg","pricing_plan_id":"cebpf4jnsgd1na2vs0mg"},{"bike_id":"6c6a8a6d-8dd4-416f-8782-e83b06df3e7c","system_id":"levelo_inurba_marseille","lat":43.285132,"lon":5.383879,"is_reserved":false,"is_disabled":false,"rental_uris":{"android":"levelo://app?vid=6c6a8a6d-8dd4-416f-8782-e83b06df3e7c","ios":"levelo://app?vid=6c6a8a6d-8dd4-416f-8782-e83b06df3e7c"},"vehicle_type_id":"4","last_reported":1770046117,"current_range_meters":10000,"station_id":"ce4bh512rcd13ifvqe3g","pricing_plan_id":"cebpf4jnsgd1na2vs0mg"},{"bike_id":"8300bb2e-96f4-4e9e-92a9-a4d1e04694a4","system_id":"levelo_inurba_marseille","lat":43.23155,"lon":5.43725,"is_reserved":false,"is_disabled":false,"rental_uris":{"android":"levelo://app?vid=8300bb2e-96f4-4e9e-92a9-a4d1e04694a4","ios":"levelo://app?vid=8300bb2e-96f4-4e9e-92a9-a4d1e04694a4"},"vehicle_type_id":"4","last_reported":1770046117,"current_range_meters":10800,"station_id":"ce4bhmp2rcd13ifvqgog","pricing_plan_id":"cebpf4jnsgd1na2vs0mg"},{"bike_id":"c3ba0fed-3d29-4191-b8a3-c899b1e9e5ad","system_id":"levelo_inurba_marseille","lat":43.25591,"lon":5.38223,"is_reserved":false,"is_disabled":false,"rental_uris":{"android":"levelo://app?vid=c3ba0fed-3d29-4191-b8a3-c899b1e9e5ad","ios":"levelo://app?vid=c3ba0fed-3d29-4191-b8a3-c899b1e9e5ad"},"vehicle_type_id":"4","last_reported":1770046117,"current_range_meters":10800,"station_id":"ce4bhih2rcd13ifvqfs0","pricing_plan_id":"cebpf4jnsgd1na2vs0mg"},{"bike_id":"68d2a9d1-2044-4f9c-8e7b-e4d9640d90af","system_id":"levelo_inurba_marseille","lat":43.2971,"lon":5.37957,"is_reserved":false,"is_disabled":false,"rental_uris":{"android":"levelo://app?vid=68d2a9d1-2044-4f9c-8e7b-e4d9640d90af","ios":"levelo://app?vid=68d2a9d1-2044-4f9c-8e7b-e4d9640d90af"},"vehicle_type_id":"4","last_reported":1770046117,"current_range_meters":10800,"station_id":"","pricing_plan_id":"cebpf4jnsgd1na2vs0mg"},{"bike_id":"cc7be9e8-a1a0-4f68-8d42-c70d6cdd5d6b","system_id":"levelo_inurba_marseille","lat":43.29543,"lon":5.42267,"is_reserved":false,"is_disabled":false,"rental_uris":{"android":"levelo://app?vid=cc7be9e8-a1a0-4f68-8d42-c70d6cdd5d6b","ios":"levelo://app?vid=cc7be9e8-a1a0-4f68-8d42-c70d6cdd5d6b"},"vehicle_type_id":"4","last_reported":1770046117,"current_range_meters":10800,"station_id":"ce4bhph2rcd13ifvqhdg","pricing_plan_id":"cebpf4jnsgd1na2vs0mg"},{"bike_id":"8549a1d1-68eb-4349-9b09-4c0cf211ff20","system_id":"levelo_inurba_marseille","lat":43.29941,"lon":5.36552,"is_reserved":false,"is_disabled":false,"rental_uris":{"android":"levelo://app?vid=8549a1d1-68eb-4349-9b09-4c0cf211ff20","ios":"levelo://app?vid=8549a1d1-68eb-4349-9b09-4c0cf211ff20"},"vehicle_type_id":"4","last_reported":1770046117,"current_range_meters":10800,"station_id":"ce4bgm92rcd13ifvqbr0","pricing_plan_id":"cebpf4jnsgd1na2vs0mg"},{"bike_id":"18d1a03c-71f9-47bc-804b-7e0c3eef0ad0","system_id":"levelo_inurba_marseille","lat":43.301332,"lon":5.431179,"is_reserved":false,"is_disabled":false,"rental_uris":{"android":"levelo://app?vid=18d1a03c-71f9-47bc-804b-7e0c3eef0ad0","ios":"levelo://app?vid=18d1a03c-71f9-47bc-804b-7e0c3eef0ad0"},"vehicle_type_id":"4","last_reported":1770046117,"current_range_meters":10800,"station_id":"st_d3js3co5814s73ftftug","pricing_plan_id":"cebpf4jnsgd1na2vs0mg"},{"bike_id":"581d9eab-bad6-432a-9a3e-b034cc0d340a","system_id":"levelo_inurba_marseille","lat":43.31579,"lon":5.38434,"is_reserved":false,"is_disabled":false,"rental_uris":{"android":"levelo://app?vid=581d9eab-bad6-432a-9a3e-b034cc0d340a","ios":"levelo://app?vid=581d9eab-bad6-432a-9a3e-b034cc0d340a"},"vehicle_type_id":"4","last_reported":1770046117,"current_range_meters":10800,"station_id":"","pricing_plan_id":"cebpf4jnsgd1na2vs0mg"},{"bike_id":"454ec198-d273-438b-b7dc-8d61915cb03a","system_id":"levelo_inurba_marseille","lat":43.23152,"lon":5.437,"is_reserved":false,"is_disabled":false,"rental_uris":{"android":"levelo://app?vid=454ec198-d273-438b-b7dc-8d61915cb03a","ios":"levelo://app?vid=454ec198-d273-438b-b7dc-8d61915cb03a"},"vehicle_type_id":"4","last_reported":1770046117,"current_range_meters":10800,"station_id":"ce4bhmp2rcd13ifvqgog","pricing_plan_id":"cebpf4jnsgd1na2vs0mg"},{"bike_id":"b886faeb-2ae5-4849-a4c7-c906741f8bf1","system_id":"levelo_inurba_marseille","lat":43.265683,"lon":5.403224,"is_reserved":false,"is_disabled":false,"rental_uris":{"android":"levelo://app?vid=b886faeb-2ae5-4849-a4c7-c906741f8bf1","ios":"levelo://app?vid=b886faeb-2ae5-4849-a4c7-c906741f8bf1"},"vehicle_type_id":"4","last_reported":1770046117,"current_range_meters":10800,"station_id":"ce4bhmp2rcd13ifvqgng","pricing_plan_id":"cebpf4jnsgd1na2vs0mg"},{"bike_id":"deb9e4eb-a481-4dbd-9838-7e21c4114a77","system_id":"levelo_inurba_marseille","lat":43.24627,"lon":5.38909,"is_reserved":false,"is_disabled":false,"rental_uris":{"android":"levelo://app?vid=deb9e4eb-a481-4dbd-9838-7e21c4114a77","ios":"levelo://app?vid=deb9e4eb-a481-4dbd-9838-7e21c4114a77"},"vehicle_type_id":"4","last_reported":1770046117,"current_range_meters":10800,"station_id":"ce4bhg12rcd13ifvqf60","pricing_plan_id":"cebpf4jnsgd1na2vs0mg"},{"bike_id":"c04d02e9-4522-4664-80d1-72f19e30f66b","system_id":"levelo_inurba_marseille","lat":43.25307,"lon":5.38596,"is_reserved":false,"is_disabled":false,"rental_uris":{"android":"levelo://app?vid=c04d02e9-4522-4664-80d1-72f19e30f66b","ios":"levelo://app?vid=c04d02e9-4522-4664-80d1-72f19e30f66b"},"vehicle_type_id":"4","last_reported":1770046117,"current_range_meters":10800,"station_id":"","pricing_plan_id":"cebpf4jnsgd1na2vs0mg"},{"bike_id":"f29c9eca-7f54-4755-b637-531b69f02ad6","system_id":"levelo_inurba_marseille","lat":43.26299,"lon":5.39899,"is_reserved":false,"is_disabled":false,"rental_uris":{"android":"levelo://app?vid=f29c9eca-7f54-4755-b637-531b69f02ad6","ios":"levelo://app?vid=f29c9eca-7f54-4755-b637-531b69f02ad6"},"vehicle_type_id":"4","last_reported":1770046117,"current_range_meters":11200,"station_id":"","pricing_plan_id":"cebpf4jnsgd1na2vs0mg"},{"bike_id":"98fce53e-2f71-43cb-b9de-a1e78e7dc72e","system_id":"levelo_inurba_marseille","lat":43.23204,"lon":5.39984,"is_reserved":false,"is_disabled":false,"rental_uris":{"android":"levelo://app?vid=98fce53e-2f71-43cb-b9de-a1e78e7dc72e","ios":"levelo://app?vid=98fce53e-2f71-43cb-b9de-a1e78e7dc72e"},"vehicle_type_id":"4","last_reported":1770046117,"current_range_meters":11200,"station_id":"ce4bhn12rcd13ifvqgqg","pricing_plan_id":"cebpf4jnsgd1na2vs0mg"},{"bike_id":"9b64cd0f-fe74-41b4-93a1-7c9b91272106","system_id":"levelo_inurba_marseille","lat":43.24056,"lon":5.37786,"is_reserved":false,"is_disabled":false,"rental_uris":{"android":"levelo://app?vid=9b64cd0f-fe74-41b4-93a1-7c9b91272106","ios":"levelo://app?vid=9b64cd0f-fe74-41b4-93a1-7c9b91272106"},"vehicle_type_id":"4","last_reported":1770046117,"current_range_meters":11200,"station_id":"ce4bhnp2rcd13ifvqgvg","pricing_plan_id":"cebpf4jnsgd1na2vs0mg"},{"bike_id":"90cafb22-43f6-47bb-9e80-c8fa9891709f","system_id":"levelo_inurba_marseille","lat":43.26207,"lon":5.37924,"is_reserved":false,"is_disabled":false,"rental_uris":{"android":"levelo://app?vid=90cafb22-43f6-47bb-9e80-c8fa9891709f","ios":"levelo://app?vid=90cafb22-43f6-47bb-9e80-c8fa9891709f"},"vehicle_type_id":"4","last_reported":1770046117,"current_range_meters":11200,"station_id":"ce4bhjp2rcd13ifvqg90","pricing_plan_id":"cebpf4jnsgd1na2vs0mg"},{"bike_id":"d546fffc-a24b-47f2-83bb-918a57fc3fa5","system_id":"levelo_inurba_marseille","lat":43.297818,"lon":5.380938,"is_reserved":false,"is_disabled":false,"rental_uris":{"android":"levelo://app?vid=d546fffc-a24b-47f2-83bb-918a57fc3fa5","ios":"levelo://app?vid=d546fffc-a24b-47f2-83bb-918a57fc3fa5"},"vehicle_type_id":"4","last_reported":1770046117,"current_range_meters":11200,"station_id":"ce4bgip2rcd13ifvqbb0","pricing_plan_id":"cebpf4jnsgd1na2vs0mg"},{"bike_id":"03ab829c-c63f-4cff-b2cd-afab9ee8b753","system_id":"levelo_inurba_marseille","lat":43.28367,"lon":5.38641,"is_reserved":false,"is_disabled":false,"rental_uris":{"android":"levelo://app?vid=03ab829c-c63f-4cff-b2cd-afab9ee8b753","ios":"levelo://app?vid=03ab829c-c63f-4cff-b2cd-afab9ee8b753"},"vehicle_type_id":"4","last_reported":1770046117,"current_range_meters":11200,"station_id":"ce4bh492rcd13ifvqdvg","pricing_plan_id":"cebpf4jnsgd1na2vs0mg"},{"bike_id":"ba3390f5-14ed-4160-abcf-8bea19885613","system_id":"levelo_inurba_marseille","lat":43.28481,"lon":5.48392,"is_reserved":false,"is_disabled":false,"rental_uris":{"android":"levelo://app?vid=ba3390f5-14ed-4160-abcf-8bea19885613","ios":"levelo://app?vid=ba3390f5-14ed-4160-abcf-8bea19885613"},"vehicle_type_id":"4","last_reported":1770046117,"current_range_meters":11200,"station_id":"st_d3svhcjqgbts73a3dn0g","pricing_plan_id":"cebpf4jnsgd1na2vs0mg"},{"bike_id":"20455c4f-8ade-4fa6-a1de-8c5bd3da229e","system_id":"levelo_inurba_marseille","lat":43.31536,"lon":5.38022,"is_reserved":false,"is_disabled":false,"rental_uris":{"android":"levelo://app?vid=20455c4f-8ade-4fa6-a1de-8c5bd3da229e","ios":"levelo://app?vid=20455c4f-8ade-4fa6-a1de-8c5bd3da229e"},"vehicle_type_id":"4","last_reported":1770046117,"current_range_meters":11200,"station_id":"ce4bhsp2rcd13ifvqi50","pricing_plan_id":"cebpf4jnsgd1na2vs0mg"},{"bike_id":"bf617475-04e3-4f8b-aa8f-95af08928c1a","system_id":"levelo_inurba_marseille","lat":43.29875,"lon":5.39742,"is_reserved":false,"is_disabled":false,"rental_uris":{"android":"levelo://app?vid=bf617475-04e3-4f8b-aa8f-95af08928c1a","ios":"levelo://app?vid=bf617475-04e3-4f8b-aa8f-95af08928c1a"},"vehicle_type_id":"4","last_reported":1770046117,"current_range_meters":11200,"station_id":"ce4bh0h2rcd13ifvqd50","pricing_plan_id":"cebpf4jnsgd1na2vs0mg"},{"bike_id":"db2ab0f1-6ab6-4fcf-bf0c-47adcb722970","system_id":"levelo_inurba_marseille","lat":43.26371,"lon":5.41069,"is_reserved":false,"is_disabled":false,"rental_uris":{"android":"levelo://app?vid=db2ab0f1-6ab6-4fcf-bf0c-47adcb722970","ios":"levelo://app?vid=db2ab0f1-6ab6-4fcf-bf0c-47adcb722970"},"vehicle_type_id":"4","last_reported":1770046117,"current_range_meters":11200,"station_id":"st_d4e5ca6na9uc73bfl5fg","pricing_plan_id":"cebpf4jnsgd1na2vs0mg"},{"bike_id":"1e18de4d-43f8-4d9b-8e22-41974ddf36d0","system_id":"levelo_inurba_marseille","lat":43.33542,"lon":5.37464,"is_reserved":false,"is_disabled":false,"rental_uris":{"android":"levelo://app?vid=1e18de4d-43f8-4d9b-8e22-41974ddf36d0","ios":"levelo://app?vid=1e18de4d-43f8-4d9b-8e22-41974ddf36d0"},"vehicle_type_id":"4","last_reported":1770046117,"current_range_meters":11200,"station_id":"st_d46tts09ee8s73dlu43g","pricing_plan_id":"cebpf4jnsgd1na2vs0mg"},{"bike_id":"53ffb5c2-3e2a-4a17-b03a-29d28fb95024","system_id":"levelo_inurba_marseille","lat":43.29907,"lon":5.43638,"is_reserved":false,"is_disabled":false,"rental_uris":{"android":"levelo://app?vid=53ffb5c2-3e2a-4a17-b03a-29d28fb95024","ios":"levelo://app?vid=53ffb5c2-3e2a-4a17-b03a-29d28fb95024"},"vehicle_type_id":"4","last_reported":1770046117,"current_range_meters":11200,"station_id":"ce4bhpp2rcd13ifvqhfg","pricing_plan_id":"cebpf4jnsgd1na2vs0mg"},{"bike_id":"6110869f-aca1-4e4f-8e31-099ec7d2636f","system_id":"levelo_inurba_marseille","lat":43.294894,"lon":5.385874,"is_reserved":false,"is_disabled":false,"rental_uris":{"android":"levelo://app?vid=6110869f-aca1-4e4f-8e31-099ec7d2636f","ios":"levelo://app?vid=6110869f-aca1-4e4f-8e31-099ec7d2636f"},"vehicle_type_id":"4","last_reported":1770046117,"current_range_meters":11200,"station_id":"ce4bh3p2rcd13ifvqdp0","pricing_plan_id":"cebpf4jnsgd1na2vs0mg"},{"bike_id":"151047fe-b117-41cf-9416-4f91d0d3c1a9","system_id":"levelo_inurba_marseille","lat":43.31856,"lon":5.36908,"is_reserved":false,"is_disabled":false,"rental_uris":{"android":"levelo://app?vid=151047fe-b117-41cf-9416-4f91d0d3c1a9","ios":"levelo://app?vid=151047fe-b117-41cf-9416-4f91d0d3c1a9"},"vehicle_type_id":"4","last_reported":1770046117,"current_range_meters":11600,"station_id":"","pricing_plan_id":"cebpf4jnsgd1na2vs0mg"},{"bike_id":"371b16b9-c953-43bc-82c9-0d7f1fd2a2c0","system_id":"levelo_inurba_marseille","lat":43.241756,"lon":5.397339,"is_reserved":false,"is_disabled":false,"rental_uris":{"android":"levelo://app?vid=371b16b9-c953-43bc-82c9-0d7f1fd2a2c0","ios":"levelo://app?vid=371b16b9-c953-43bc-82c9-0d7f1fd2a2c0"},"vehicle_type_id":"4","last_reported":1770046117,"current_range_meters":11600,"station_id":"ce4bhn12rcd13ifvqgpg","pricing_plan_id":"cebpf4jnsgd1na2vs0mg"},{"bike_id":"d8713cd3-8269-4863-9601-8c0f629eacef","system_id":"levelo_inurba_marseille","lat":43.24668,"lon":5.38166,"is_reserved":false,"is_disabled":false,"rental_uris":{"android":"levelo://app?vid=d8713cd3-8269-4863-9601-8c0f629eacef","ios":"levelo://app?vid=d8713cd3-8269-4863-9601-8c0f629eacef"},"vehicle_type_id":"4","last_reported":1770046117,"current_range_meters":11600,"station_id":"ce4bhih2rcd13ifvqfr0","pricing_plan_id":"cebpf4jnsgd1na2vs0mg"},{"bike_id":"7f77f6a6-911c-44cf-97f5-71224b3633e0","system_id":"levelo_inurba_marseille","lat":43.252321,"lon":5.380172,"is_reserved":false,"is_disabled":false,"rental_uris":{"android":"levelo://app?vid=7f77f6a6-911c-44cf-97f5-71224b3633e0","ios":"levelo://app?vid=7f77f6a6-911c-44cf-97f5-71224b3633e0"},"vehicle_type_id":"4","last_reported":1770046117,"current_range_meters":11600,"station_id":"","pricing_plan_id":"cebpf4jnsgd1na2vs0mg"},{"bike_id":"658d0b20-6292-4d6c-85b2-b3938e69fd12","system_id":"levelo_inurba_marseille","lat":43.28266,"lon":5.38577,"is_reserved":false,"is_disabled":false,"rental_uris":{"android":"levelo://app?vid=658d0b20-6292-4d6c-85b2-b3938e69fd12","ios":"levelo://app?vid=658d0b20-6292-4d6c-85b2-b3938e69fd12"},"vehicle_type_id":"4","last_reported":1770046117,"current_range_meters":11600,"station_id":"","pricing_plan_id":"cebpf4jnsgd1na2vs0mg"},{"bike_id":"afb67e59-9870-475f-afb6-bcee67a9421a","system_id":"levelo_inurba_marseille","lat":43.29813,"lon":5.38088,"is_reserved":false,"is_disabled":false,"rental_uris":{"android":"levelo://app?vid=afb67e59-9870-475f-afb6-bcee67a9421a","ios":"levelo://app?vid=afb67e59-9870-475f-afb6-bcee67a9421a"},"vehicle_type_id":"4","last_reported":1770046117,"current_range_meters":11600,"station_id":"ce4bgip2rcd13ifvqbb0","pricing_plan_id":"cebpf4jnsgd1na2vs0mg"},{"bike_id":"004217b9-d0df-4be3-b36e-32cfa6b0fb50","system_id":"levelo_inurba_marseille","lat":43.24645,"lon":5.4314,"is_reserved":false,"is_disabled":false,"rental_uris":{"android":"levelo://app?vid=004217b9-d0df-4be3-b36e-32cfa6b0fb50","ios":"levelo://app?vid=004217b9-d0df-4be3-b36e-32cfa6b0fb50"},"vehicle_type_id":"4","last_reported":1770046117,"current_range_meters":11600,"station_id":"st_d2m6c4gdas8pm72e190g","pricing_plan_id":"cebpf4jnsgd1na2vs0mg"},