{"last_updated":1748938535,"ttl":60,"version":"2.2","data":{"bikes":[{"bike_id":"5736accb-991c-4877-a612-8be882a83c2f","system_id":"levelo_inurba_marseille","lat":43.33771,"lon":5.37424,"is_reserved":false,"is_disabled":true,"rental_uris":{"android":"levelo://app?vid=5736accb-991c-4877-a612-8be882a83c2f","ios":"levelo://app?vid=5736accb-991c-4877-a612-8be882a83c2f"},"vehicle_type_id":"4","last_reported":1748938535,"current_range_meters":0,"station_id":"","pricing_plan_id":"cebpf4jnsgd1na2vs0mg"},{"bike_id":"55a5c057-4e97-4693-8616-8ebd3dc507dc","system_id":"levelo_inurba_marseille","lat":43.337499,"lon":5.374469,"is_reserved":false,"is_disabled":true,"rental_uris":{"android":"levelo://app?vid=55a5c057-4e97-4693-8616-8ebd3dc507dc","ios":"levelo://app?vid=55a5c057-4e97-4693-8616-8ebd3dc507dc"},"vehicle_type_id":"4","last_reported":1748938535,"current_range_meters":0,"station_id":"","pricing_plan_id":"cebpf4jnsgd1na2vs0mg"},{"bike_id":"674dfa73-164c-481d-bb22-455ab91f7a49","system_id":"levelo_inurba_marseille","lat":43.27556,"lon":5.58942,"is_reserved":false,"is_disabled":true,"rental_uris":{"android":"levelo://app?vid=674dfa73-164c-481d-bb22-455ab91f7a49","ios":"levelo://app?vid=674dfa73-164c-481d-bb22-455ab91f7a49"},"vehicle_type_id":"4","last_reported":1748938535,"current_range_meters":0,"station_id":"","pricing_plan_id":"cebpf4jnsgd1na2vs0mg"},{"bike_id":"aedab83c-b9e3-4c27-91f4-79f4c3b37920","system_id":"levelo_inurba_marseille","lat":43.337444,"lon":5.374475,"is_reserved":false,"is_disabled":true,"rental_uris":{"android":"levelo://app?vid=aedab83c-b9e3-4c27-91f4-79f4c3b37920","ios":"levelo://app?vid=aedab83c-b9e3-4c27-91f4-79f4c3b37920"},"vehicle_type_id":"4","last_reported":1748938535,"current_range_meters":0,"station_id":"","pricing_plan_id":"cebpf4jnsgd1na2vs0mg"},{"bike_id":"3621181b-9f99-47e1-be6f-05febdb33295","system_id":"levelo_inurba_marseille","lat":43.28257,"lon":5.38713,"is_reserved":false,"is_disabled":true,"rental_uris":{"android":"levelo://app?vid=3621181b-9f99-47e1-be6f-05febdb33295","ios":"levelo://app?vid=3621181b-9f99-47e1-be6f-05febdb33295"},"vehicle_type_id":"4","last_reported":1748938535,"current_range_meters":0,"station_id":"","pricing_plan_id":"cebpf4jnsgd1na2vs0mg"},{"bike_id":"9f904508-2233-467b-924d-2f45abf79d65","system_id":"levelo_inurba_marseille","lat":43.31348,"lon":5.36717,"is_reserved":false,"is_disabled":true,"rental_uris":{"android":"levelo://app?vid=9f904508-2233-467b-924d-2f45abf79d65","ios":"levelo://app?vid=9f904508-2233-467b-924d-2f45abf79d65"},"vehicle_type_id":"4","last_reported":1748938535,"current_range_meters":0,"station_id":"ce4bgr92rcd13ifvqc6g","pricing_plan_id":"cebpf4jnsgd1na2vs0mg"},{"bike_id":"5af8a280-477d-4de4-b1ab-39530fb1445b","system_id":"levelo_inurba_marseille","lat":43.305471,"lon":5.365421,"is_reserved":false,"is_disabled":true,"rental_uris":{"android":"levelo://app?vid=5af8a280-477d-4de4-b1ab-39530fb1445b","ios":"levelo://app?vid=5af8a280-477d-4de4-b1ab-39530fb1445b"},"vehicle_type_id":"4","last_reported":1748938535,"current_range_meters":0,"station_id":"ce4bgs12rcd13ifvqcag","pricing_plan_id":"cebpf4jnsgd1na2vs0mg"},{"bike_id":"19ccc2b2-afbc-4c86-b37a-61d8b37b23ce","system_id":"levelo_inurba_marseille","lat":43.309508,"lon":5.390295,"is_reserved":false,"is_disabled":true,"rental_uris":{"android":"levelo://app?vid=19ccc2b2-afbc-4c86-b37a-61d8b37b23ce","ios":"levelo://app?vid=19ccc2b2-afbc-4c86-b37a-61d8b37b23ce"},"vehicle_type_id":"4","last_reported":1748938535,"current_range_meters":0,"station_id":"ce4bgup2rcd13ifvqco0","pricing_plan_id":"cebpf4jnsgd1na2vs0mg"},{"bike_id":"cf97a01f-5f98-4f23-af0f-30425991c056","system_id":"levelo_inurba_marseille","lat":43.29214,"lon":5.36069,"is_reserved":false,"is_disabled":true,"rental_uris":{"android":"levelo://app?vid=cf97a01f-5f98-4f23-af0f-30425991c056","ios":"levelo://app?vid=cf97a01f-5f98-4f23-af0f-30425991c056"},"vehicle_type_id":"4","last_reported":1748938535,"current_range_meters":0,"station_id":"ce4bhbh2rcd13ifvqeqg","pricing_plan_id":"cebpf4jnsgd1na2vs0mg"},{"bike_id":"90b1c1f9-bc6b-4bc5-aebf-cec530d3cbc2","system_id":"levelo_inurba_marseille","lat":43.23153,"lon":5.43715,"is_reserved":false,"is_disabled":true,"rental_uris":{"android":"levelo://app?vid=90b1c1f9-bc6b-4bc5-aebf-cec530d3cbc2","ios":"levelo://app?vid=90b1c1f9-bc6b-4bc5-aebf-cec530d3cbc2"},"vehicle_type_id":"4","last_reported":1748938535,"current_range_meters":0,"station_id":"ce4bhmp2rcd13ifvqgog","pricing_plan_id":"cebpf4jnsgd1na2vs0mg"},{"bike_id":"8306085c-0178-4168-8350-a64b99dcd3bf","system_id":"levelo_inurba_marseille","lat":43.30212,"lon":5.39473,"is_reserved":false,"is_disabled":true,"rental_uris":{"android":"levelo://app?vid=8306085c-0178-4168-8350-a64b99dcd3bf","ios":"levelo://app?vid=8306085c-0178-4168-8350-a64b99dcd3bf"},"vehicle_type_id":"4","last_reported":1748938535,"current_range_meters":400,"station_id":"ce4bh0p2rcd13ifvqd70","pricing_plan_id":"cebpf4jnsgd1na2vs0mg"},{"bike_id":"c4124a3c-1f46-4a64-aa09-bc62ef2e15bd","system_id":"levelo_inurba_marseille","lat":43.23189,"lon":5.3556,"is_reserved":false,"is_disabled":true,"rental_uris":{"android":"levelo://app?vid=c4124a3c-1f46-4a64-aa09-bc62ef2e15bd","ios":"levelo://app?vid=c4124a3c-1f46-4a64-aa09-bc62ef2e15bd"},"vehicle_type_id":"4","last_reported":1748938535,"current_range_meters":400,"station_id":"ce4bhu92rcd13ifvqi70","pricing_plan_id":"cebpf4jnsgd1na2vs0mg"},{"bike_id":"47fdd230-3d7d-468c-b451-b55a894e7039","system_id":"levelo_inurba_marseille","lat":43.30524,"lon":5.36543,"is_reserved":false,"is_disabled":true,"rental_uris":{"android":"levelo://app?vid=47fdd230-3d7d-468c-b451-b55a894e7039","ios":"levelo://app?vid=47fdd230-3d7d-468c-b451-b55a894e7039"},"vehicle_type_id":"4","last_reported":1748938535,"current_range_meters":800,"station_id":"ce4bgs12rcd13ifvqcag","pricing_plan_id":"cebpf4jnsgd1na2vs0mg"},{"bike_id":"99f6e3de-ea89-40be-95f3-b430a0526d2f","system_id":"levelo_inurba_marseille","lat":43.28265,"lon":5.35062,"is_reserved":false,"is_disabled":true,"rental_uris":{"android":"levelo://app?vid=99f6e3de-ea89-40be-95f3-b430a0526d2f","ios":"levelo://app?vid=99f6e3de-ea89-40be-95f3-b430a0526d2f"},"vehicle_type_id":"4","last_reported":1748938535,"current_range_meters":800,"station_id":"ce4bhbp2rcd13ifvqerg","pricing_plan_id":"cebpf4jnsgd1na2vs0mg"},{"bike_id":"0cb5d3b6-d61b-47ac-a2ec-eaaab1d0380a","system_id":"levelo_inurba_marseille","lat":43.31482,"lon":5.37308,"is_reserved":false,"is_disabled":true,"rental_uris":{"android":"levelo://app?vid=0cb5d3b6-d61b-47ac-a2ec-eaaab1d0380a","ios":"levelo://app?vid=0cb5d3b6-d61b-47ac-a2ec-eaaab1d0380a"},"vehicle_type_id":"4","last_reported":1748938535,"current_range_meters":1600,"station_id":"ce4bgt12rcd13ifvqcd0","pricing_plan_id":"cebpf4jnsgd1na2vs0mg"},{"bike_id":"aadb95fc-d156-41e0-9614-75d762b11d28","system_id":"levelo_inurba_marseille","lat":43.319615,"lon":5.440433,"is_reserved":false,"is_disabled":true,"rental_uris":{"android":"levelo://app?vid=aadb95fc-d156-41e0-9614-75d762b11d28","ios":"levelo://app?vid=aadb95fc-d156-41e0-9614-75d762b11d28"},"vehicle_type_id":"4","last_reported":1748938535,"current_range_meters":2000,"station_id":"","pricing_plan_id":"cebpf4jnsgd1na2vs0mg"},{"bike_id":"e154453b-30e1-42b5-a11b-c5f62688fa58","system_id":"levelo_inurba_marseille","lat":43.28568,"lon":5.39505,"is_reserved":false,"is_disabled":true,"rental_uris":{"android":"levelo://app?vid=e154453b-30e1-42b5-a11b-c5f62688fa58","ios":"levelo://app?vid=e154453b-30e1-42b5-a11b-c5f62688fa58"},"vehicle_type_id":"4","last_reported":1748938535,"current_range_meters":2000,"station_id":"ce4bh292rcd13ifvqdg0","pricing_plan_id":"cebpf4jnsgd1na2vs0mg"},{"bike_id":"1513255e-5e2d-4281-a25b-d53aaa8e0b3c","system_id":"levelo_inurba_marseille","lat":43.30552,"lon":5.36558,"is_reserved":false,"is_disabled":false,"rental_uris":{"android":"levelo://app?vid=1513255e-5e2d-4281-a25b-d53aaa8e0b3c","ios":"levelo://app?vid=1513255e-5e2d-4281-a25b-d53aaa8e0b3c"},"vehicle_type_id":"4","last_reported":1748938535,"current_range_meters":3200,"station_id":"ce4bgs12rcd13ifvqcag","pricing_plan_id":"cebpf4jnsgd1na2vs0mg"},{"bike_id":"9ffa68cc-257f-48f0-b82c-54e91bc071d9","system_id":"levelo_inurba_marseille","lat":43.28099,"lon":5.37835,"is_reserved":false,"is_disabled":false,"rental_uris":{"android":"levelo://app?vid=9ffa68cc-257f-48f0-b82c-54e91bc071d9","ios":"levelo://app?vid=9ffa68cc-257f-48f0-b82c-54e91bc071d9"},"vehicle_type_id":"4","last_reported":1748938535,"current_range_meters":3200,"station_id":"ce4bha12rcd13ifvqee0","pricing_plan_id":"cebpf4jnsgd1na2vs0mg"},{"bike_id":"3bf8587b-a90b-45e2-8032-a19f7123cbc7","system_id":"levelo_inurba_marseille","lat":43.24653,"lon":5.38895,"is_reserved":false,"is_disabled":false,"rental_uris":{"android":"levelo://app?vid=3bf8587b-a90b-45e2-8032-a19f7123cbc7","ios":"levelo://app?vid=3bf8587b-a90b-45e2-8032-a19f7123cbc7"},"vehicle_type_id":"4","last_reported":1748938535,"current_range_meters":3200,"station_id":"ce4bhg12rcd13ifvqf60","pricing_plan_id":"cebpf4jnsgd1na2vs0mg"},{"bike_id":"fbc78345-d087-4b06-b700-5c41575116a6","system_id":"levelo_inurba_marseille","lat":43.2592,"lon":5.40902,"is_reserved":false,"is_disabled":false,"rental_uris":{"android":"levelo://app?vid=fbc78345-d087-4b06-b700-5c41575116a6","ios":"levelo://app?vid=fbc78345-d087-4b06-b700-5c41575116a6"},"vehicle_type_id":"4","last_reported":1748938535,"current_range_meters":3600,"station_id":"ce4bhm92rcd13ifvqglg","pricing_plan_id":"cebpf4jnsgd1na2vs0mg"},{"bike_id":"eea341bf-df42-42b4-a535-cd5b46ff1609","system_id":"levelo_inurba_marseille","lat":43.29862,"lon":5.39757,"is_reserved":false,"is_disabled":false,"rental_uris":{"android":"levelo://app?vid=eea341bf-df42-42b4-a535-cd5b46ff1609","ios":"levelo://app?vid=eea341bf-df42-42b4-a535-cd5b46ff1609"},"vehicle_type_id":"4","last_reported":1748938535,"current_range_meters":4000,"station_id":"ce4bh0h2rcd13ifvqd50","pricing_plan_id":"cebpf4jnsgd1na2vs0mg"},{"bike_id":"707bd729-9466-4f4f-ab7a-75a890cef3e3","system_id":"levelo_inurba_marseille","lat":43.28262,"lon":5.35073,"is_reserved":false,"is_disabled":false,"rental_uris":{"android":"levelo://app?vid=707bd729-9466-4f4f-ab7a-75a890cef3e3","ios":"levelo://app?vid=707bd729-9466-4f4f-ab7a-75a890cef3e3"},"vehicle_type_id":"4","last_reported":1748938535,"current_range_meters":4000,"station_id":"ce4bhbp2rcd13ifvqerg","pricing_plan_id":"cebpf4jnsgd1na2vs0mg"},{"bike_id":"927624eb-dea2-4105-b608-5f0056b0844c","system_id":"levelo_inurba_marseille","lat":43.28146,"lon":5.4266,"is_reserved":false,"is_disabled":false,"rental_uris":{"android":"levelo://app?vid=927624eb-dea2-4105-b608-5f0056b0844c","ios":"levelo://app?vid=927624eb-dea2-4105-b608-5f0056b0844c"},"vehicle_type_id":"4","last_reported":1748938535,"current_range_meters":4000,"station_id":"ce4bhnh2rcd13ifvqgug","pricing_plan_id":"cebpf4jnsgd1na2vs0mg"},{"bike_id":"18fee8f5-9c14-47cf-8b6f-3eb07b18646a","system_id":"levelo_inurba_marseille","lat":43.31298,"lon":5.36675,"is_reserved":false,"is_disabled":false,"rental_uris":{"android":"levelo://app?vid=18fee8f5-9c14-47cf-8b6f-3eb07b18646a","ios":"levelo://app?vid=18fee8f5-9c14-47cf-8b6f-3eb07b18646a"},"vehicle_type_id":"4","last_reported":1748938535,"current_range_meters":4400,"station_id":"","pricing_plan_id":"cebpf4jnsgd1na2vs0mg"},{"bike_id":"f639f5fb-dce7-4580-8e52-cc1ee454d292","system_id":"levelo_inurba_marseille","lat":43.29531,"lon":5.38553,"is_reserved":false,"is_disabled":false,"rental_uris":{"android":"levelo://app?vid=f639f5fb-dce7-4580-8e52-cc1ee454d292","ios":"levelo://app?vid=f639f5fb-dce7-4580-8e52-cc1ee454d292"},"vehicle_type_id":"4","last_reported":1748938535,"current_range_meters":4400,"station_id":"ce4bgih2rcd13ifvqba0","pricing_plan_id":"cebpf4jnsgd1na2vs0mg"},{"bike_id":"39928ec4-1ed9-4c83-babb-cc15b2a627d9","system_id":"levelo_inurba_marseille","lat":43.23145,"lon":5.43717,"is_reserved":false,"is_disabled":false,"rental_uris":{"android":"levelo://app?vid=39928ec4-1ed9-4c83-babb-cc15b2a627d9","ios":"levelo://app?vid=39928ec4-1ed9-4c83-babb-cc15b2a627d9"},"vehicle_type_id":"4","last_reported":1748938535,"current_range_meters":4400,"station_id":"ce4bhmp2rcd13ifvqgog","pricing_plan_id":"cebpf4jnsgd1na2vs0mg"},{"bike_id":"73a4770d-0c02-48d5-a0f7-4d250b83527c","system_id":"levelo_inurba_marseille","lat":43.324747,"lon":5.424768,"is_reserved":false,"is_disabled":false,"rental_uris":{"android":"levelo://app?vid=73a4770d-0c02-48d5-a0f7-4d250b83527c","ios":"levelo://app?vid=73a4770d-0c02-48d5-a0f7-4d250b83527c"},"vehicle_type_id":"4","last_reported":1748938535,"current_range_meters":4800,"station_id":"","pricing_plan_id":"cebpf4jnsgd1na2vs0mg"},{"bike_id":"5757e4bb-f05d-40e1-a8d2-e0d690dc4d94","system_id":"levelo_inurba_marseille","lat":43.29016,"lon":5.38626,"is_reserved":false,"is_disabled":false,"rental_uris":{"android":"levelo://app?vid=5757e4bb-f05d-40e1-a8d2-e0d690dc4d94","ios":"levelo://app?vid=5757e4bb-f05d-40e1-a8d2-e0d690dc4d94"},"vehicle_type_id":"4","last_reported":1748938535,"current_range_meters":4800,"station_id":"ce4bh4p2rcd13ifvqe0g","pricing_plan_id":"cebpf4jnsgd1na2vs0mg"},{"bike_id":"2c8ec35e-ce84-4b2e-a012-66ac9ec3a151","system_id":"levelo_inurba_marseille","lat":43.30537,"lon":5.3671,"is_reserved":false,"is_disabled":false,"rental_uris":{"android":"levelo://app?vid=2c8ec35e-ce84-4b2e-a012-66ac9ec3a151","ios":"levelo://app?vid=2c8ec35e-ce84-4b2e-a012-66ac9ec3a151"},"vehicle_type_id":"4","last_reported":1748938535,"current_range_meters":5600,"station_id":"ce4bgrp2rcd13ifvqc9g","pricing_plan_id":"cebpf4jnsgd1na2vs0mg"},{"bike_id":"1ad45680-ef2f-435a-9767-a82876c04e6a","system_id":"levelo_inurba_marseille","lat":43.27972,"lon":5.38741,"is_reserved":false,"is_disabled":false,"rental_uris":{"android":"levelo://app?vid=1ad45680-ef2f-435a-9767-a82876c04e6a","ios":"levelo://app?vid=1ad45680-ef2f-435a-9767-a82876c04e6a"},"vehicle_type_id":"4","last_reported":1748938535,"current_range_meters":5600,"station_id":"ce4bhg12rcd13ifvqf80","pricing_plan_id":"cebpf4jnsgd1na2vs0mg"},{"bike_id":"37674334-b57b-4043-9f96-4e0106b203f3","system_id":"levelo_inurba_marseille","lat":43.23962,"lon":5.36636,"is_reserved":false,"is_disabled":false,"rental_uris":{"android":"levelo://app?vid=37674334-b57b-4043-9f96-4e0106b203f3","ios":"levelo://app?vid=37674334-b57b-4043-9f96-4e0106b203f3"},"vehicle_type_id":"4","last_reported":1748938535,"current_range_meters":5600,"station_id":"ce4bhi12rcd13ifvqfp0","pricing_plan_id":"cebpf4jnsgd1na2vs0mg"},{"bike_id":"d33b1658-d79a-4ee1-8d82-1da2d1ad0ec8","system_id":"levelo_inurba_marseille","lat":43.29303,"lon":5.37467,"is_reserved":false,"is_disabled":false,"rental_uris":{"android":"levelo://app?vid=d33b1658-d79a-4ee1-8d82-1da2d1ad0ec8","ios":"levelo://app?vid=d33b1658-d79a-4ee1-8d82-1da2d1ad0ec8"},"vehicle_type_id":"4","last_reported":1748938535,"current_range_meters":6000,"station_id":"ce4bgi12rcd13ifvqb70","pricing_plan_id":"cebpf4jnsgd1na2vs0mg"},{"bike_id":"26d69f17-a375-4781-8fd2-61058fd6298c","system_id":"levelo_inurba_marseille","lat":43.25828,"lon":5.39442,"is_reserved":false,"is_disabled":false,"rental_uris":{"android":"levelo://app?vid=26d69f17-a375-4781-8fd2-61058fd6298c","ios":"levelo://app?vid=26d69f17-a375-4781-8fd2-61058fd6298c"},"vehicle_type_id":"4","last_reported":1748938535,"current_range_meters":6000,"station_id":"ce4bhip2rcd13ifvqft0","pricing_plan_id":"cebpf4jnsgd1na2vs0mg"},{"bike_id":"95d6905e-9d99-4407-8c60-3bbff01062aa","system_id":"levelo_inurba_marseille","lat":43.27571,"lon":5.43374,"is_reserved":false,"is_disabled":false,"rental_uris":{"android":"levelo://app?vid=95d6905e-9d99-4407-8c60-3bbff01062aa","ios":"levelo://app?vid=95d6905e-9d99-4407-8c60-3bbff01062aa"},"vehicle_type_id":"4","last_reported":1748938535,"current_range_meters":6400,"station_id":"","pricing_plan_id":"cebpf4jnsgd1na2vs0mg"},{"bike_id":"735836de-de9b-4dc8-9e27-f67a4e7a400b","system_id":"levelo_inurba_marseille","lat":43.33753,"lon":5.37431,"is_reserved":false,"is_disabled":false,"rental_uris":{"android":"levelo://app?vid=735836de-de9b-4dc8-9e27-f67a4e7a400b","ios":"levelo://app?vid=735836de-de9b-4dc8-9e27-f67a4e7a400b"},"vehicle_type_id":"4","last_reported":1748938535,"current_range_meters":6800,"station_id":"","pricing_plan_id":"cebpf4jnsgd1na2vs0mg"},{"bike_id":"99d59ddb-ca3d-43a4-b2ac-7c92aea831a5","system_id":"levelo_inurba_marseille","lat":43.31337,"lon":5.36741,"is_reserved":false,"is_disabled":false,"rental_uris":{"android":"levelo://app?vid=99d59ddb-ca3d-43a4-b2ac-7c92aea831a5","ios":"levelo://app?vid=99d59ddb-ca3d-43a4-b2ac-7c92aea831a5"},"vehicle_type_id":"4","last_reported":1748938535,"current_range_meters":6800,"station_id":"ce4bgr92rcd13ifvqc6g","pricing_plan_id":"cebpf4jnsgd1na2vs0mg"},{"bike_id":"d3f423ab-1bb1-4815-b53c-12de902293af","system_id":"levelo_inurba_marseille","lat":43.29211,"lon":5.40012,"is_reserved":false,"is_disabled":false,"rental_uris":{"android":"levelo://app?vid=d3f423ab-1bb1-4815-b53c-12de902293af","ios":"levelo://app?vid=d3f423ab-1bb1-4815-b53c-12de902293af"},"vehicle_type_id":"4","last_reported":1748938535,"current_range_meters":7200,"station_id":"","pricing_plan_id":"cebpf4jnsgd1na2vs0mg"},{"bike_id":"cfb4b455-d1cd-43d0-a6bd-48b2bcbc4252","system_id":"levelo_inurba_marseille","lat":43.29903,"lon":5.37514,"is_reserved":false,"is_disabled":false,"rental_uris":{"android":"levelo://app?vid=cfb4b455-d1cd-43d0-a6bd-48b2bcbc4252","ios":"levelo://app?vid=cfb4b455-d1cd-43d0-a6bd-48b2bcbc4252"},"vehicle_type_id":"4","last_reported":1748938535,"current_range_meters":7200,"station_id":"ce4bgjh2rcd13ifvqbg0","pricing_plan_id":"cebpf4jnsgd1na2vs0mg"},{"bike_id":"8e59657d-ead7-4d2f-a60a-596a06c70451","system_id":"levelo_inurba_marseille","lat":43.31202,"lon":5.36877,"is_reserved":false,"is_disabled":false,"rental_uris":{"android":"levelo://app?vid=8e59657d-ead7-4d2f-a60a-596a06c70451","ios":"levelo://app?vid=8e59657d-ead7-4d2f-a60a-596a06c70451"},"vehicle_type_id":"4","last_reported":1748938535,"current_range_meters":7200,"station_id":"ce4bgl92rcd13ifvqbq0","pricing_plan_id":"cebpf4jnsgd1na2vs0mg"},{"bike_id":"82a66545-6d73-4077-b92f-6ca5852e7b39","system_id":"levelo_inurba_marseille","lat":43.31227,"lon":5.36857,"is_reserved":false,"is_disabled":false,"rental_uris":{"android":"levelo://app?vid=82a66545-6d73-4077-b92f-6ca5852e7b39","ios":"levelo://app?vid=82a66545-6d73-4077-b92f-6ca5852e7b39"},"vehicle_type_id":"4","last_reported":1748938535,"current_range_meters":7200,"station_id":"ce4bgl92rcd13ifvqbq0","pricing_plan_id":"cebpf4jnsgd1na2vs0mg"},{"bike_id":"50ebe57c-46e8-4864-911e-32f1cab17f78","system_id":"levelo_inurba_marseille","lat":43.30544,"lon":5.36531,"is_reserved":false,"is_disabled":false,"rental_uris":{"android":"levelo://app?vid=50ebe57c-46e8-4864-911e-32f1cab17f78","ios":"levelo://app?vid=50ebe57c-46e8-4864-911e-32f1cab17f78"},"vehicle_type_id":"4","last_reported":1748938535,"current_range_meters":7200,"station_id":"ce4bgs12rcd13ifvqcag","pricing_plan_id":"cebpf4jnsgd1na2vs0mg"},{"bike_id":"eb488868-8a5f-40ce-b66e-9666d4b453e6","system_id":"levelo_inurba_marseille","lat":43.26569,"lon":5.39014,"is_reserved":false,"is_disabled":false,"rental_uris":{"android":"levelo://app?vid=eb488868-8a5f-40ce-b66e-9666d4b453e6","ios":"levelo://app?vid=eb488868-8a5f-40ce-b66e-9666d4b453e6"},"vehicle_type_id":"4","last_reported":1748938535,"current_range_meters":7200,"station_id":"ce4bhe12rcd13ifvqf30","pricing_plan_id":"cebpf4jnsgd1na2vs0mg"},{"bike_id":"d5156bfd-cf45-4693-8714-ae5bd1025387","system_id":"levelo_inurba_marseille","lat":43.24185,"lon":5.39724,"is_reserved":false,"is_disabled":false,"rental_uris":{"android":"levelo://app?vid=d5156bfd-cf45-4693-8714-ae5bd1025387","ios":"levelo://app?vid=d5156bfd-cf45-4693-8714-ae5bd1025387"},"vehicle_type_id":"4","last_reported":1748938535,"current_range_meters":7200,"station_id":"ce4bhn12rcd13ifvqgpg","pricing_plan_id":"cebpf4jnsgd1na2vs0mg"},{"bike_id":"5e502fac-1932-44f2-8f05-1788315a45d9","system_id":"levelo_inurba_marseille","lat":43.32463,"lon":5.36578,"is_reserved":false,"is_disabled":false,"rental_uris":{"android":"levelo://app?vid=5e502fac-1932-44f2-8f05-1788315a45d9","ios":"levelo://app?vid=5e502fac-1932-44f2-8f05-1788315a45d9"},"vehicle_type_id":"4","last_reported":1748938535,"current_range_meters":7200,"station_id":"ce4bhs12rcd13ifvqhvg","pricing_plan_id":"cebpf4jnsgd1na2vs0mg"},{"bike_id":"0e3ea2ef-7e05-4187-aaaf-23c8ae6887f5","system_id":"levelo_inurba_marseille","lat":43.300093,"lon":5.38516,"is_reserved":false,"is_disabled":false,"rental_uris":{"android":"levelo://app?vid=0e3ea2ef-7e05-4187-aaaf-23c8ae6887f5","ios":"levelo://app?vid=0e3ea2ef-7e05-4187-aaaf-23c8ae6887f5"},"vehicle_type_id":"4","last_reported":1748938535,"current_range_meters":8000,"station_id":"ce4bgj92rcd13ifvqbd0","pricing_plan_id":"cebpf4jnsgd1na2vs0mg"},{"bike_id":"4654d4d2-93c2-47a0-8e68-a1a64d15fa8f","system_id":"levelo_inurba_marseille","lat":43.29626,"lon":5.37155,"is_reserved":false,"is_disabled":false,"rental_uris":{"android":"levelo://app?vid=4654d4d2-93c2-47a0-8e68-a1a64d15fa8f","ios":"levelo://app?vid=4654d4d2-93c2-47a0-8e68-a1a64d15fa8f"},"vehicle_type_id":"4","last_reported":1748938535,"current_range_meters":8000,"station_id":"ce4bgnh2rcd13ifvqc0g","pricing_plan_id":"cebpf4jnsgd1na2vs0mg"},{"bike_id":"918dd4e1-2b98-4ecc-a094-1380c62c1062","system_id":"levelo_inurba_marseille","lat":43.2902,"lon":5.38644,"is_reserved":false,"is_disabled":false,"rental_uris":{"android":"levelo://app?vid=918dd4e1-2b98-4ecc-a094-1380c62c1062","ios":"levelo://app?vid=918dd4e1-2b98-4ecc-a094-1380c62c1062"},"vehicle_type_id":"4","last_reported":1748938535,"current_range_meters":8000,"station_id":"ce4bh4p2rcd13ifvqe0g","pricing_plan_id":"cebpf4jnsgd1na2vs0mg"},{"bike_id":"24cac041-f157-4c33-ac57-a51cbda30ded","system_id":"levelo_inurba_marseille","lat":43.290257,"lon":5.386449,"is_reserved":false,"is_disabled":false,"rental_uris":{"android":"levelo://app?vid=24cac041-f157-4c33-ac57-a51cbda30ded","ios":"levelo://app?vid=24cac041-f157-4c33-ac57-a51cbda30ded"},"vehicle_type_id":"4","last_reported":1748938535,"current_range_meters":8000,"station_id":"ce4bh4p2rcd13ifvqe0g","pricing_plan_id":"cebpf4jnsgd1na2vs0mg"},{"bike_id":"0bde96b7-fe12-4c22-bf46-c75e41eb4dce","system_id":"levelo_inurba_marseille","lat":43.2962,"lon":5.37716,"is_reserved":false,"is_disabled":false,"rental_uris":{"android":"levelo://app?vid=0bde96b7-fe12-4c22-bf46-c75e41eb4dce","ios":"levelo://app?vid=0bde96b7-fe12-4c22-bf46-c75e41eb4dce"},"vehicle_type_id":"4","last_reported":1748938535,"current_range_meters":8400,"station_id":"ce4bgi92rcd13ifvqb90","pricing_plan_id":"cebpf4jnsgd1na2vs0mg"},{"bike_id":"23ef3f92-43e0-4a64-a382-222cc788fb10","system_id":"levelo_inurba_marseille","lat":43.3136,"lon":5.36722,"is_reserved":false,"is_disabled":false,"rental_uris":{"android":"levelo://app?vid=23ef3f92-43e0-4a64-a382-222cc788fb10","ios":"levelo://app?vid=23ef3f92-43e0-4a64-a382-222cc788fb10"},"vehicle_type_id":"4","last_reported":1748938535,"current_range_meters":8400,"station_id":"ce4bgr92rcd13ifvqc6g","pricing_plan_id":"cebpf4jnsgd1na2vs0mg"},{"bike_id":"e3f1e9df-80ae-44ac-9777-a5a37337c4fa","system_id":"levelo_inurba_marseille","lat":43.30537,"lon":5.367,"is_reserved":false,"is_disabled":false,"rental_uris":{"android":"levelo://app?vid=e3f1e9df-80ae-44ac-9777-a5a37337c4fa","ios":"levelo://app?vid=e3f1e9df-80ae-44ac-9777-a5a37337c4fa"},"vehicle_type_id":"4","last_reported":1748938535,"current_range_meters":8400,"station_id":"ce4bgrp2rcd13ifvqc9g","pricing_plan_id":"cebpf4jnsgd1na2vs0mg"},{"bike_id":"c87ccae1-2a74-41ec-a547-dd6a23337b9b","system_id":"levelo_inurba_marseille","lat":43.29031,"lon":5.38633,"is_reserved":false,"is_disabled":false,"rental_uris":{"android":"levelo://app?vid=c87ccae1-2a74-41ec-a547-dd6a23337b9b","ios":"levelo://app?vid=c87ccae1-2a74-41ec-a547-dd6a23337b9b"},"vehicle_type_id":"4","last_reported":1748938535,"current_range_meters":8400,"station_id":"ce4bh4p2rcd13ifvqe0g","pricing_plan_id":"cebpf4jnsgd1na2vs0mg"},{"bike_id":"ca06e4b0-b0cf-40db-a9c3-d0fa2eda6c68","system_id":"levelo_inurba_marseille","lat":43.26948,"lon":5.386163,"is_reserved":false,"is_disabled":false,"rental_uris":{"android":"levelo://app?vid=ca06e4b0-b0cf-40db-a9c3-d0fa2eda6c68","ios":"levelo://app?vid=ca06e4b0-b0cf-40db-a9c3-d0fa2eda6c68"},"vehicle_type_id":"4","last_reported":1748938535,"current_range_meters":8400,"station_id":"ce4bhh92rcd13ifvqfh0","pricing_plan_id":"cebpf4jnsgd1na2vs0mg"},{"bike_id":"f1c8c7e1-3f34-4d38-a503-caa580ebde75","system_id":"levelo_inurba_marseille","lat":43.22502,"lon":5.34785,"is_reserved":false,"is_disabled":false,"rental_uris":{"android":"levelo://app?vid=f1c8c7e1-3f34-4d38-a503-caa580ebde75","ios":"levelo://app?vid=f1c8c7e1-3f34-4d38-a503-caa580ebde75"},"vehicle_type_id":"4","last_reported":1748938535,"current_range_meters":8400,"station_id":"st_cvj5dfep6f1abm77gieg","pricing_plan_id":"cebpf4jnsgd1na2vs0mg"},{"bike_id":"acdfb4ec-72f4-4860-9958-ed448301f50b","system_id":"levelo_inurba_marseille","lat":43.300874,"lon":5.37927,"is_reserved":false,"is_disabled":false,"rental_uris":{"android":"levelo://app?vid=acdfb4ec-72f4-4860-9958-ed448301f50b","ios":"levelo://app?vid=acdfb4ec-72f4-4860-9958-ed448301f50b"},"vehicle_type_id":"4","last_reported":1748938535,"current_range_meters":8800,"station_id":"","pricing_plan_id":"cebpf4jnsgd1na2vs0mg"},{"bike_id":"60d1f441-532c-4c5f-8fa3-8f5cd0976811","system_id":"levelo_inurba_marseille","lat":43.24193,"lon":5.39724,"is_reserved":false,"is_disabled":false,"rental_uris":{"android":"levelo://app?vid=60d1f441-532c-4c5f-8fa3-8f5cd0976811","ios":"levelo://app?vid=60d1f441-532c-4c5f-8fa3-8f5cd0976811"},"vehicle_type_id":"4","last_reported":1748938535,"current_range_meters":8800,"station_id":"ce4bhn12rcd13ifvqgpg","pricing_plan_id":"cebpf4jnsgd1na2vs0mg"},{"bike_id":"037d8886-21b5-47fb-9dc0-a52111f5f981","system_id":"levelo_inurba_marseille","lat":43.28539,"lon":5.3988,"is_reserved":false,"is_disabled":false,"rental_uris":{"android":"levelo://app?vid=037d8886-21b5-47fb-9dc0-a52111f5f981","ios":"levelo://app?vid=037d8886-21b5-47fb-9dc0-a52111f5f981"},"vehicle_type_id":"4","last_reported":1748938535,"current_range_meters":9200,"station_id":"","pricing_plan_id":"cebpf4jnsgd1na2vs0mg"},{"bike_id":"f9ba8850-482d-43cd-93c6-da015477c7af","system_id":"levelo_inurba_marseille","lat":43.28638,"lon":5.38357,"is_reserved":false,"is_disabled":false,"rental_uris":{"android":"levelo://app?vid=f9ba8850-482d-43cd-93c6-da015477c7af","ios":"levelo://app?vid=f9ba8850-482d-43cd-93c6-da015477c7af"},"vehicle_type_id":"4","last_reported":1748938535,"current_range_meters":9200,"station_id":"","pricing_plan_id":"cebpf4jnsgd1na2vs0mg"},{"bike_id":"11c9797e-8d9d-4774-ad51-5d680e6968ce","system_id":"levelo_inurba_marseille","lat":43.30149,"lon":5.37413,"is_reserved":false,"is_disabled":false,"rental_uris":{"android":"levelo://app?vid=11c9797e-8d9d-4774-ad51-5d680e6968ce","ios":"levelo://app?vid=11c9797e-8d9d-4774-ad51-5d680e6968ce"},"vehicle_type_id":"4","last_reported":1748938535,"current_range_meters":9200,"station_id":"ce4bgs92rcd13ifvqcc0","pricing_plan_id":"cebpf4jnsgd1na2vs0mg"},{"bike_id":"7111cff6-3b21-4504-899e-8ce8599aedc7","system_id":"levelo_inurba_marseille","lat":43.310664,"lon":5.383707,"is_reserved":false,"is_disabled":false,"rental_uris":{"android":"levelo://app?vid=7111cff6-3b21-4504-899e-8ce8599aedc7","ios":"levelo://app?vid=7111cff6-3b21-4504-899e-8ce8599aedc7"},"vehicle_type_id":"4","last_reported":1748938535,"current_range_meters":9200,"station_id":"ce4bgv92rcd13ifvqcr0","pricing_plan_id":"cebpf4jnsgd1na2vs0mg"},{"bike_id":"92c1eef7-1863-478d-9b55-bbd35e27ae0a","system_id":"levelo_inurba_marseille","lat":43.259,"lon":5.40878,"is_reserved":false,"is_disabled":false,"rental_uris":{"android":"levelo://app?vid=92c1eef7-1863-478d-9b55-bbd35e27ae0a","ios":"levelo://app?vid=92c1eef7-1863-478d-9b55-bbd35e27ae0a"},"vehicle_type_id":"4","last_reported":1748938535,"current_range_meters":9200,"station_id":"ce4bhm92rcd13ifvqglg","pricing_plan_id":"cebpf4jnsgd1na2vs0mg"},{"bike_id":"73223ddd-38ce-4f42-9c4f-27ebe83ba2e6","system_id":"levelo_inurba_marseille","lat":43.24082,"lon":5.37755,"is_reserved":false,"is_disabled":false,"rental_uris":{"android":"levelo://app?vid=73223ddd-38ce-4f42-9c4f-27ebe83ba2e6","ios":"levelo://app?vid=73223ddd-38ce-4f42-9c4f-27ebe83ba2e6"},"vehicle_type_id":"4","last_reported":1748938535,"current_range_meters":9200,"station_id":"ce4bhnp2rcd13ifvqgvg","pricing_plan_id":"cebpf4jnsgd1na2vs0mg"},{"bike_id":"22b3c769-0b28-4d2b-8127-1eec22a18428","system_id":"levelo_inurba_marseille","lat":43.29621,"lon":5.37171,"is_reserved":false,"is_disabled":false,"rental_uris":{"android":"levelo://app?vid=22b3c769-0b28-4d2b-8127-1eec22a18428","ios":"levelo://app?vid=22b3c769-0b28-4d2b-8127-1eec22a18428"},"vehicle_type_id":"4","last_reported":1748938535,"current_range_meters":9600,"station_id":"ce4bgnh2rcd13ifvqc0g","pricing_plan_id":"cebpf4jnsgd1na2vs0mg"},{"bike_id":"348b8bf9-c7c5-4907-9fff-a9ba890e26ea","system_id":"levelo_inurba_marseille","lat":43.3054,"lon":5.36533,"is_reserved":false,"is_disabled":false,"rental_uris":{"android":"levelo://app?vid=348b8bf9-c7c5-4907-9fff-a9ba890e26ea","ios":"levelo://app?vid=348b8bf9-c7c5-4907-9fff-a9ba890e26ea"},"vehicle_type_id":"4","last_reported":1748938535,"current_range_meters":9600,"station_id":"ce4bgs12rcd13ifvqcag","pricing_plan_id":"cebpf4jnsgd1na2vs0mg"},{"bike_id":"569478d0-2c43-4e38-966c-5c4e1d777b85","system_id":"levelo_inurba_marseille","lat":43.26781,"lon":5.39418,"is_reserved":false,"is_disabled":false,"rental_uris":{"android":"levelo://app?vid=569478d0-2c43-4e38-966c-5c4e1d777b85","ios":"levelo://app?vid=569478d0-2c43-4e38-966c-5c4e1d777b85"},"vehicle_type_id":"4","last_reported":1748938535,"current_range_meters":9600,"station_id":"ce4bhh12rcd13ifvqfg0","pricing_plan_id":"cebpf4jnsgd1na2vs0mg"},{"bike_id":"b61e9126-1661-4c6f-be81-fbea675a61ab","system_id":"levelo_inurba_marseille","lat":43.25846,"lon":5.39409,"is_reserved":false,"is_disabled":false,"rental_uris":{"android":"levelo://app?vid=b61e9126-1661-4c6f-be81-fbea675a61ab","ios":"levelo://app?vid=b61e9126-1661-4c6f-be81-fbea675a61ab"},"vehicle_type_id":"4","last_reported":1748938535,"current_range_meters":9600,"station_id":"ce4bhip2rcd13ifvqft0","pricing_plan_id":"cebpf4jnsgd1na2vs0mg"},{"bike_id":"459e1c56-55c7-4cc5-a793-257295872300","system_id":"levelo_inurba_marseille","lat":43.25909,"lon":5.40896,"is_reserved":false,"is_disabled":false,"rental_uris":{"android":"levelo://app?vid=459e1c56-55c7-4cc5-a793-257295872300","ios":"levelo://app?vid=459e1c56-55c7-4cc5-a793-257295872300"},"vehicle_type_id":"4","last_reported":1748938535,"current_range_meters":9600,"station_id":"ce4bhm92rcd13ifvqglg","pricing_plan_id":"cebpf4jnsgd1na2vs0mg"},{"bike_id":"fe9073a4-d06f-4025-b9bc-d135815d0353","system_id":"levelo_inurba_marseille","lat":43.24147,"lon":5.39746,"is_reserved":false,"is_disabled":false,"rental_uris":{"android":"levelo://app?vid=fe9073a4-d06f-4025-b9bc-d135815d0353","ios":"levelo://app?vid=fe9073a4-d06f-4025-b9bc-d135815d0353"},"vehicle_type_id":"4","last_reported":1748938535,"current_range_meters":9600,"station_id":"ce4bhn12rcd13ifvqgpg","pricing_plan_id":"cebpf4jnsgd1na2vs0mg"},{"bike_id":"a1db695a-fe41-40c5-af82-623e0cddb099","system_id":"levelo_inurba_marseille","lat":43.27492,"lon":5.42449,"is_reserved":false,"is_disabled":false,"rental_uris":{"android":"levelo://app?vid=a1db695a-fe41-40c5-af82-623e0cddb099","ios":"levelo://app?vid=a1db695a-fe41-40c5-af82-623e0cddb099"},"vehicle_type_id":"4","last_reported":1748938535,"current_range_meters":9600,"station_id":"ce4bhn92rcd13ifvqgrg","pricing_plan_id":"cebpf4jnsgd1na2vs0mg"},{"bike_id":"44625bd7-6168-4d67-9b3f-2654667d6152","system_id":"levelo_inurba_marseille","lat":43.27828,"lon":5.40723,"is_reserved":false,"is_disabled":false,"rental_uris":{"android":"levelo://app?vid=44625bd7-6168-4d67-9b3f-2654667d6152","ios":"levelo://app?vid=44625bd7-6168-4d67-9b3f-2654667d6152"},"vehicle_type_id":"4","last_reported":1748938535,"current_range_meters":9600,"station_id":"ce4bhnh2rcd13ifvqgtg","pricing_plan_id":"cebpf4jnsgd1na2vs0mg"},{"bike_id":"5098cf80-f88b-463b-b6c9-630fa66360a9","system_id":"levelo_inurba_marseille","lat":43.3362,"lon":5.41003,"is_reserved":false,"is_disabled":false,"rental_uris":{"android":"levelo://app?vid=5098cf80-f88b-463b-b6c9-630fa66360a9","ios":"levelo://app?vid=5098cf80-f88b-463b-b6c9-630fa66360a9"},"vehicle_type_id":"4","last_reported":1748938535,"current_range_meters":9600,"station_id":"ce4bhqh2rcd13ifvqhmg","pricing_plan_id":"cebpf4jnsgd1na2vs0mg"},{"bike_id":"a10e8104-3c48-4a2c-b900-095b108aeaad","system_id":"levelo_inurba_marseille","lat":43.3031,"lon":5.36891,"is_reserved":false,"is_disabled":false,"rental_uris":{"android":"levelo://app?vid=a10e8104-3c48-4a2c-b900-095b108aeaad","ios":"levelo://app?vid=a10e8104-3c48-4a2c-b900-095b108aeaad"},"vehicle_type_id":"4","last_reported":1748938535,"current_range_meters":10000,"station_id":"ce4bgqh2rcd13ifvqc5g","pricing_plan_id":"cebpf4jnsgd1na2vs0mg"},{"bike_id":"a2ec7006-828f-456c-9c69-0e05f8ac4047","system_id":"levelo_inurba_marseille","lat":43.30138,"lon":5.37429,"is_reserved":false,"is_disabled":false,"rental_uris":{"android":"levelo://app?vid=a2ec7006-828f-456c-9c69-0e05f8ac4047","ios":"levelo://app?vid=a2ec7006-828f-456c-9c69-0e05f8ac4047"},"vehicle_type_id":"4","last_reported":1748938535,"current_range_meters":10000,"station_id":"ce4bgs92rcd13ifvqcc0","pricing_plan_id":"cebpf4jnsgd1na2vs0mg"},{"bike_id":"f0e45de3-a127-43b0-a27d-8db01cc63ad6","system_id":"levelo_inurba_marseille","lat":43.28971,"lon":5.37842,"is_reserved":false,"is_disabled":false,"rental_uris":{"android":"levelo://app?vid=f0e45de3-a127-43b0-a27d-8db01cc63ad6","ios":"levelo://app?vid=f0e45de3-a127-43b0-a27d-8db01cc63ad6"},"vehicle_type_id":"4","last_reported":1748938535,"current_range_meters":10000,"station_id":"ce4bh9p2rcd13ifvqed0","pricing_plan_id":"cebpf4jnsgd1na2vs0mg"},{"bike_id":"fa62253e-e4db-42d1-9a63-6ab16922bf00","system_id":"levelo_inurba_marseille","lat":43.320074,"lon":5.368189,"is_reserved":false,"is_disabled":false,"rental_uris":{"android":"levelo://app?vid=fa62253e-e4db-42d1-9a63-6ab16922bf00","ios":"levelo://app?vid=fa62253e-e4db-42d1-9a63-6ab16922bf00"},"vehicle_type_id":"4","last_reported":1748938535,"current_range_meters":10800,"station_id":"","pricing_plan_id":"cebpf4jnsgd1na2vs0mg"},{"bike_id":"d6376c86-efdd-415f-95d9-51f52dd63664","system_id":"levelo_inurba_marseille","lat":43.30122,"lon":5.3987,"is_reserved":false,"is_disabled":false,"rental_uris":{"android":"levelo://app?vid=d6376c86-efdd-415f-95d9-51f52dd63664","ios":"levelo://app?vid=d6376c86-efdd-415f-95d9-51f52dd63664"},"vehicle_type_id":"4","last_reported":1748938535,"current_range_meters":10800,"station_id":"","pricing_plan_id":"cebpf4jnsgd1na2vs0mg"},{"bike_id":"6d1fcd18-4c6f-4e3f-890a-07655b2dad22","system_id":"levelo_inurba_marseille","lat":43.305451,"lon":5.367356,"is_reserved":false,"is_disabled":false,"rental_uris":{"android":"levelo://app?vid=6d1fcd18-4c6f-4e3f-890a-07655b2dad22","ios":"levelo://app?vid=6d1fcd18-4c6f-4e3f-890a-07655b2dad22"},"vehicle_type_id":"4","last_reported":1748938535,"current_range_meters":10800,"station_id":"","pricing_plan_id":"cebpf4jnsgd1na2vs0mg"},{"bike_id":"7fbd6b6d-c6d7-4a80-9062-0562d5ade833","system_id":"levelo_inurba_marseille","lat":43.30906,"lon":5.36852,"is_reserved":false,"is_disabled":false,"rental_uris":{"android":"levelo://app?vid=7fbd6b6d-c6d7-4a80-9062-0562d5ade833","ios":"levelo://app?vid=7fbd6b6d-c6d7-4a80-9062-0562d5ade833"},"vehicle_type_id":"4","last_reported":1748938535,"current_range_meters":10800,"station_id":"ce4bgn92rcd13ifvqbvg","pricing_plan_id":"cebpf4jnsgd1na2vs0mg"},{"bike_id":"4d2a6729-abec-4322-9940-f10158a62353","system_id":"levelo_inurba_marseille","lat":43.28464,"lon":5.359,"is_reserved":false,"is_disabled":false,"rental_uris":{"android":"levelo://app?vid=4d2a6729-abec-4322-9940-f10158a62353","ios":"levelo://app?vid=4d2a6729-abec-4322-9940-f10158a62353"},"vehicle_type_id":"4","last_reported":1748938535,"current_range_meters":10800,"station_id":"ce4bhah2rcd13ifvqei0","pricing_plan_id":"cebpf4jnsgd1na2vs0mg"},{"bike_id":"94216ff5-117c-4bf2-8066-183cb82e577f","system_id":"levelo_inurba_marseille","lat":43.28412,"lon":5.3499,"is_reserved":false,"is_disabled":false,"rental_uris":{"android":"levelo://app?vid=94216ff5-117c-4bf2-8066-183cb82e577f","ios":"levelo://app?vid=94216ff5-117c-4bf2-8066-183cb82e577f"},"vehicle_type_id":"4","last_reported":1748938535,"current_range_meters":10800,"station_id":"ce4bhbh2rcd13ifvqepg","pricing_plan_id":"cebpf4jnsgd1na2vs0mg"},{"bike_id":"63afa9f3-589d-423a-8c6b-14931de76b5e","system_id":"levelo_inurba_marseille","lat":43.26932,"lon":5.38912,"is_reserved":false,"is_disabled":false,"rental_uris":{"android":"levelo://app?vid=63afa9f3-589d-423a-8c6b-14931de76b5e","ios":"levelo://app?vid=63afa9f3-589d-423a-8c6b-14931de76b5e"},"vehicle_type_id":"4","last_reported":1748938535,"current_range_meters":10800,"station_id":"ce4bhhh2rcd13ifvqfl0","pricing_plan_id":"cebpf4jnsgd1na2vs0mg"},{"bike_id":"fb463705-629d-4fad-862c-6209348c2352","system_id":"levelo_inurba_marseille","lat":43.2656,"lon":5.40328,"is_reserved":false,"is_disabled":false,"rental_uris":{"android":"levelo://app?vid=fb463705-629d-4fad-862c-6209348c2352","ios":"levelo://app?vid=fb463705-629d-4fad-862c-6209348c2352"},"vehicle_type_id":"4","last_reported":1748938535,"current_range_meters":11200,"station_id":"","pricing_plan_id":"cebpf4jnsgd1na2vs0mg"},{"bike_id":"a33c9ded-afda-47fd-87fa-ac593a798cfa","system_id":"levelo_inurba_marseille","lat":43.26867,"lon":5.389,"is_reserved":false,"is_disabled":false,"rental_uris":{"android":"levelo://app?vid=a33c9ded-afda-47fd-87fa-ac593a798cfa","ios":"levelo://app?vid=a33c9ded-afda-47fd-87fa-ac593a798cfa"},"vehicle_type_id":"4","last_reported":1748938535,"current_range_meters":11200,"station_id":"","pricing_plan_id":"cebpf4jnsgd1na2vs0mg"},{"bike_id":"565fb0c3-8aa8-47d4-9a46-771b3f22d5a0","system_id":"levelo_inurba_marseille","lat":43.24041,"lon":5.37715,"is_reserved":false,"is_disabled":false,"rental_uris":{"android":"levelo://app?vid=565fb0c3-8aa8-47d4-9a46-771b3f22d5a0","ios":"levelo://app?vid=565fb0c3-8aa8-47d4-9a46-771b3f22d5a0"},"vehicle_type_id":"4","last_reported":1748938535,"current_range_meters":11200,"station_id":"","pricing_plan_id":"cebpf4jnsgd1na2vs0mg"},{"bike_id":"56fe4555-e8a4-45f4-a5be-f2ae85f2973e","system_id":"levelo_inurba_marseille","lat":43.24983,"lon":5.38935,"is_reserved":false,"is_disabled":false,"rental_uris":{"android":"levelo://app?vid=56fe4555-e8a4-45f4-a5be-f2ae85f2973e","ios":"levelo://app?vid=56fe4555-e8a4-45f4-a5be-f2ae85f2973e"},"vehicle_type_id":"4","last_reported":1748938535,"current_range_meters":11200,"station_id":"ce4bhgp2rcd13ifvqfd0","pricing_plan_id":"cebpf4jnsgd1na2vs0mg"},{"bike_id":"6b1f677d-26ad-4a49-917b-c881e037e2c6","system_id":"levelo_inurba_marseille","lat":43.26058,"lon":5.39399,"is_reserved":false,"is_disabled":false,"rental_uris":{"android":"levelo://app?vid=6b1f677d-26ad-4a49-917b-c881e037e2c6","ios":"levelo://app?vid=6b1f677d-26ad-4a49-917b-c881e037e2c6"},"vehicle_type_id":"4","last_reported":1748938535,"current_range_meters":11200,"station_id":"ce4bhh92rcd13ifvqfj0","pricing_plan_id":"cebpf4jnsgd1na2vs0mg"},{"bike_id":"be5996ab-f489-42a2-9f51-be6614f3e93a","system_id":"levelo_inurba_marseille","lat":43.33774,"lon":5.37429,"is_reserved":false,"is_disabled":false,"rental_uris":{"android":"levelo://app?vid=be5996ab-f489-42a2-9f51-be6614f3e93a","ios":"levelo://app?vid=be5996ab-f489-42a2-9f51-be6614f3e93a"},"vehicle_type_id":"4","last_reported":1748938535,"current_range_meters":11600,"station_id":"","pricing_plan_id":"cebpf4jnsgd1na2vs0mg"},{"bike_id":"8f562857-b74d-433b-86f0-abbcf08f2bd3","system_id":"levelo_inurba_marseille","lat":43.29301,"lon":5.37182,"is_reserved":false,"is_disabled":false,"rental_uris":{"android":"levelo://app?vid=8f562857-b74d-433b-86f0-abbcf08f2bd3","ios":"levelo://app?vid=8f562857-b74d-433b-86f0-abbcf08f2bd3"},"vehicle_type_id":"4","last_reported":1748938535,"current_range_meters":11600,"station_id":"ce4bgh92rcd13ifvqb40","pricing_plan_id":"cebpf4jnsgd1na2vs0mg"},{"bike_id":"593da5c8-336c-4396-b9ea-20c2314fdf9f","system_id":"levelo_inurba_marseille","lat":43.28565,"lon":5.3949,"is_reserved":false,"is_disabled":false,"rental_uris":{"android":"levelo://app?vid=593da5c8-336c-4396-b9ea-20c2314fdf9f","ios":"levelo://app?vid=593da5c8-336c-4396-b9ea-20c2314fdf9f"},"vehicle_type_id":"4","last_reported":1748938535,"current_range_meters":11600,"station_id":"ce4bh292rcd13ifvqdg0","pricing_plan_id":"cebpf4jnsgd1na2vs0mg"},{"bike_id":"42e93355-5243-432a-a198-4683d2c82541","system_id":"levelo_inurba_marseille","lat":43.29409,"lon":5.38623,"is_reserved":false,"is_disabled":false,"rental_uris":{"android":"levelo://app?vid=42e93355-5243-432a-a198-4683d2c82541","ios":"levelo://app?vid=42e93355-5243-432a-a198-4683d2c82541"},"vehicle_type_id":"4","last_reported":1748938535,"current_range_meters":11600,"station_id":"ce4bh2h2rcd13ifvqdh0","pricing_plan_id":"cebpf4jnsgd1na2vs0mg"},{"bike_id":"91633631-91f0-4f84-9c17-b3d7c8da1700","system_id":"levelo_inurba_marseille","lat":43.27066,"lon":5.42282,"is_reserved":false,"is_disabled":false,"rental_uris":{"android":"levelo://app?vid=91633631-91f0-4f84-9c17-b3d7c8da1700","ios":"levelo://app?vid=91633631-91f0-4f84-9c17-b3d7c8da1700"},"vehicle_type_id":"4","last_reported":1748938535,"current_range_meters":11600,"station_id":"ce4bhk92rcd13ifvqgb0","pricing_plan_id":"cebpf4jnsgd1na2vs0mg"},{"bike_id":"6c7dc0b6-cea1-43c5-94ac-b10f8cfc40be","system_id":"levelo_inurba_marseille","lat":43.33104,"lon":5.38219,"is_reserved":false,"is_disabled":false,"rental_uris":{"android":"levelo://app?vid=6c7dc0b6-cea1-43c5-94ac-b10f8cfc40be","ios":"levelo://app?vid=6c7dc0b6-cea1-43c5-94ac-b10f8cfc40be"},"vehicle_type_id":"4","last_reported":1748938535,"current_range_meters":12000,"station_id":"","pricing_plan_id":"cebpf4jnsgd1na2vs0mg"},{"bike_id":"81c67772-6d9c-4467-9f67-35f05c97f2a0","system_id":"levelo_inurba_marseille","lat":43.313618,"lon":5.384936,"is_reserved":false,"is_disabled":false,"rental_uris":{"android":"levelo://app?vid=81c67772-6d9c-4467-9f67-35f05c97f2a0","ios":"levelo://app?vid=81c67772-6d9c-4467-9f67-35f05c97f2a0"},"vehicle_type_id":"4","last_reported":1748938535,"current_range_meters":12000,"station_id":"ce4bgt92rcd13ifvqcf0","pricing_plan_id":"cebpf4jnsgd1na2vs0mg"},{"bike_id":"2026f763-2ccb-474b-af4c-43bec6f1330b","system_id":"levelo_inurba_marseille","lat":43.30265,"lon":5.37707,"is_reserved":false,"is_disabled":false,"rental_uris":{"android":"levelo://app?vid=2026f763-2ccb-474b-af4c-43bec6f1330b","ios":"levelo://app?vid=2026f763-2ccb-474b-af4c-43bec6f1330b"},"vehicle_type_id":"4","last_reported":1748938535,"current_range_meters":12000,"station_id":"ce4bguh2rcd13ifvqcj0","pricing_plan_id":"cebpf4jnsgd1na2vs0mg"},{"bike_id":"bc9decfd-0e47-40e0-bba4-a7793a1090de","system_id":"levelo_inurba_marseille","lat":43.29017,"lon":5.38652,"is_reserved":false,"is_disabled":false,"rental_uris":{"android":"levelo://app?vid=bc9decfd-0e47-40e0-bba4-a7793a1090de","ios":"levelo://app?vid=bc9decfd-0e47-40e0-bba4-a7793a1090de"},"vehicle_type_id":"4","last_reported":1748938535,"current_range_meters":12000,"station_id":"ce4bh4p2rcd13ifvqe0g","pricing_plan_id":"cebpf4jnsgd1na2vs0mg"},{"bike_id":"92706662-7702-4fb8-b061-be5f14ef0b09","system_id":"levelo_inurba_marseille","lat":43.25916,"lon":5.40891,"is_reserved":false,"is_disabled":false,"rental_uris":{"android":"levelo://app?vid=92706662-7702-4fb8-b061-be5f14ef0b09","ios":"levelo://app?vid=92706662-7702-4fb8-b061-be5f14ef0b09"},"vehicle_type_id":"4","last_reported":1748938535,"current_range_meters":12000,"station_id":"ce4bhm92rcd13ifvqglg","pricing_plan_id":"cebpf4jnsgd1na2vs0mg"},{"bike_id":"01472228-3dcd-4d8e-8567-20d260cc2ff8","system_id":"levelo_inurba_marseille","lat":43.30543,"lon":5.36697,"is_reserved":false,"is_disabled":false,"rental_uris":{"android":"levelo://app?vid=01472228-3dcd-4d8e-8567-20d260cc2ff8","ios":"levelo://app?vid=01472228-3dcd-4d8e-8567-20d260cc2ff8"},"vehicle_type_id":"4","last_reported":1748938535,"current_range_meters":12400,"station_id":"ce4bgrp2rcd13ifvqc9g","pricing_plan_id":"cebpf4jnsgd1na2vs0mg"},{"bike_id":"6f9a49b0-e441-4d0b-af9c-819014ed366d","system_id":"levelo_inurba_marseille","lat":43.30282,"lon":5.37705,"is_reserved":false,"is_disabled":false,"rental_uris":{"android":"levelo://app?vid=6f9a49b0-e441-4d0b-af9c-819014ed366d","ios":"levelo://app?vid=6f9a49b0-e441-4d0b-af9c-819014ed366d"},"vehicle_type_id":"4","last_reported":1748938535,"current_range_meters":12400,"station_id":"ce4bguh2rcd13ifvqcj0","pricing_plan_id":"cebpf4jnsgd1na2vs0mg"},{"bike_id":"19a4026f-a090-48be-ac28-45d8ad7145ec","system_id":"levelo_inurba_marseille","lat":43.29409,"lon":5.38626,"is_reserved":false,"is_disabled":false,"rental_uris":{"android":"levelo://app?vid=19a4026f-a090-48be-ac28-45d8ad7145ec","ios":"levelo://app?vid=19a4026f-a090-48be-ac28-45d8ad7145ec"},"vehicle_type_id":"4","last_reported":1748938535,"current_range_meters":12400,"station_id":"ce4bh2h2rcd13ifvqdh0","pricing_plan_id":"cebpf4jnsgd1na2vs0mg"},{"bike_id":"08c8ad32-672b-4b70-a92f-9a07341eab4f","system_id":"levelo_inurba_marseille","lat":43.25916,"lon":5.40899,"is_reserved":false,"is_disabled":false,"rental_uris":{"android":"levelo://app?vid=08c8ad32-672b-4b70-a92f-9a07341eab4f","ios":"levelo://app?vid=08c8ad32-672b-4b70-a92f-9a07341eab4f"},"vehicle_type_id":"4","last_reported":1748938535,"current_range_meters":12400,"station_id":"ce4bhm92rcd13ifvqglg","pricing_plan_id":"cebpf4jnsgd1na2vs0mg"},{"bike_id":"c9f2be1b-2f8c-4441-adc0-d5dcc13ac72f","system_id":"levelo_inurba_marseille","lat":43.32422,"lon":5.37381,"is_reserved":false,"is_disabled":false,"rental_uris":{"android":"levelo://app?vid=c9f2be1b-2f8c-4441-adc0-d5dcc13ac72f","ios":"levelo://app?vid=c9f2be1b-2f8c-4441-adc0-d5dcc13ac72f"},"vehicle_type_id":"4","last_reported":1748938535,"current_range_meters":12800,"station_id":"","pricing_plan_id":"cebpf4jnsgd1na2vs0mg"},{"bike_id":"0ea562aa-5ebb-4b8b-a9f2-f81b410ad441","system_id":"levelo_inurba_marseille","lat":43.29622,"lon":5.37169,"is_reserved":false,"is_disabled":false,"rental_uris":{"android":"levelo://app?vid=0ea562aa-5ebb-4b8b-a9f2-f81b410ad441","ios":"levelo://app?vid=0ea562aa-5ebb-4b8b-a9f2-f81b410ad441"},"vehicle_type_id":"4","last_reported":1748938535,"current_range_meters":12800,"station_id":"ce4bgnh2rcd13ifvqc0g","pricing_plan_id":"cebpf4jnsgd1na2vs0mg"},{"bike_id":"cf00858d-0f13-489f-8596-fa1d979ed1c9","system_id":"levelo_inurba_marseille","lat":43.29961,"lon":5.37134,"is_reserved":false,"is_disabled":false,"rental_uris":{"android":"levelo://app?vid=cf00858d-0f13-489f-8596-fa1d979ed1c9","ios":"levelo://app?vid=cf00858d-0f13-489f-8596-fa1d979ed1c9"},"vehicle_type_id":"4","last_reported":1748938535,"current_range_meters":12800,"station_id":"ce4bgr92rcd13ifvqc7g","pricing_plan_id":"cebpf4jnsgd1na2vs0mg"},{"bike_id":"d600ce46-22ac-41b7-a489-ea326bc2ac89","system_id":"levelo_inurba_marseille","lat":43.23181,"lon":5.39986,"is_reserved":false,"is_disabled":false,"rental_uris":{"android":"levelo://app?vid=d600ce46-22ac-41b7-a489-ea326bc2ac89","ios":"levelo://app?vid=d600ce46-22ac-41b7-a489-ea326bc2ac89"},"vehicle_type_id":"4","last_reported":1748938535,"current_range_meters":12800,"station_id":"ce4bhn12rcd13ifvqgqg","pricing_plan_id":"cebpf4jnsgd1na2vs0mg"},{"bike_id":"b90ea218-593c-4b9a-b061-18d5652decd4","system_id":"levelo_inurba_marseille","lat":43.32099,"lon":5.36798,"is_reserved":false,"is_disabled":false,"rental_uris":{"android":"levelo://app?vid=b90ea218-593c-4b9a-b061-18d5652decd4","ios":"levelo://app?vid=b90ea218-593c-4b9a-b061-18d5652decd4"},"vehicle_type_id":"4","last_reported":1748938535,"current_range_meters":12800,"station_id":"ce4bhrh2rcd13ifvqhug","pricing_plan_id":"cebpf4jnsgd1na2vs0mg"},{"bike_id":"81ae6942-3b35-4b5e-9a4d-cfb22f0a7b99","system_id":"levelo_inurba_marseille","lat":43.30538,"lon":5.38429,"is_reserved":false,"is_disabled":false,"rental_uris":{"android":"levelo://app?vid=81ae6942-3b35-4b5e-9a4d-cfb22f0a7b99","ios":"levelo://app?vid=81ae6942-3b35-4b5e-9a4d-cfb22f0a7b99"},"vehicle_type_id":"4","last_reported":1748938535,"current_range_meters":13600,"station_id":"ce4bgg92rcd13ifvqb30","pricing_plan_id":"cebpf4jnsgd1na2vs0mg"},{"bike_id":"2972d438-e544-455a-bf90-031df554fa08","system_id":"levelo_inurba_marseille","lat":43.29547,"lon":5.375,"is_reserved":false,"is_disabled":false,"rental_uris":{"android":"levelo://app?vid=2972d438-e544-455a-bf90-031df554fa08","ios":"levelo://app?vid=2972d438-e544-455a-bf90-031df554fa08"},"vehicle_type_id":"4","last_reported":1748938535,"current_range_meters":13600,"station_id":"ce4bgkp2rcd13ifvqbmg","pricing_plan_id":"cebpf4jnsgd1na2vs0mg"},{"bike_id":"c8ddf66e-3e4d-4e10-9445-353a0801528d","system_id":"levelo_inurba_marseille","lat":43.31327,"lon":5.36731,"is_reserved":false,"is_disabled":false,"rental_uris":{"android":"levelo://app?vid=c8ddf66e-3e4d-4e10-9445-353a0801528d","ios":"levelo://app?vid=c8ddf66e-3e4d-4e10-9445-353a0801528d"},"vehicle_type_id":"4","last_reported":1748938535,"current_range_meters":13600,"station_id":"ce4bgr92rcd13ifvqc6g","pricing_plan_id":"cebpf4jnsgd1na2vs0mg"},{"bike_id":"11fba9f1-9bf0-44a5-b8c0-fb6bc6694d79","system_id":"levelo_inurba_marseille","lat":43.30531,"lon":5.36542,"is_reserved":false,"is_disabled":false,"rental_uris":{"android":"levelo://app?vid=11fba9f1-9bf0-44a5-b8c0-fb6bc6694d79","ios":"levelo://app?vid=11fba9f1-9bf0-44a5-b8c0-fb6bc6694d79"},"vehicle_type_id":"4","last_reported":1748938535,"current_range_meters":13600,"station_id":"ce4bgs12rcd13ifvqcag","pricing_plan_id":"cebpf4jnsgd1na2vs0mg"},{"bike_id":"d0dbff80-7608-4281-91dc-797d0812e339","system_id":"levelo_inurba_marseille","lat":43.25933,"lon":5.40889,"is_reserved":false,"is_disabled":false,"rental_uris":{"android":"levelo://app?vid=d0dbff80-7608-4281-91dc-797d0812e339","ios":"levelo://app?vid=d0dbff80-7608-4281-91dc-797d0812e339"},"vehicle_type_id":"4","last_reported":1748938535,"current_range_meters":13600,"station_id":"ce4bhm92rcd13ifvqglg","pricing_plan_id":"cebpf4jnsgd1na2vs0mg"},{"bike_id":"12b35426-8e8b-417d-b6d1-254310b7717c","system_id":"levelo_inurba_marseille","lat":43.31886,"lon":5.40728,"is_reserved":false,"is_disabled":false,"rental_uris":{"android":"levelo://app?vid=12b35426-8e8b-417d-b6d1-254310b7717c","ios":"levelo://app?vid=12b35426-8e8b-417d-b6d1-254310b7717c"},"vehicle_type_id":"4","last_reported":1748938535,"current_range_meters":13600,"station_id":"ce4bhq12rcd13ifvqhig","pricing_plan_id":"cebpf4jnsgd1na2vs0mg"},{"bike_id":"82762f70-216b-4762-9e82-daaa45d19a35","system_id":"levelo_inurba_marseille","lat":43.24169,"lon":5.36419,"is_reserved":false,"is_disabled":false,"rental_uris":{"android":"levelo://app?vid=82762f70-216b-4762-9e82-daaa45d19a35","ios":"levelo://app?vid=82762f70-216b-4762-9e82-daaa45d19a35"},"vehicle_type_id":"4","last_reported":1748938535,"current_range_meters":13600,"station_id":"cpo36qri1sfpv3e86is0","pricing_plan_id":"cebpf4jnsgd1na2vs0mg"},{"bike_id":"ebf374a9-11ff-4240-8655-533383c8c669","system_id":"levelo_inurba_marseille","lat":43.28976,"lon":5.37839,"is_reserved":false,"is_disabled":false,"rental_uris":{"android":"levelo://app?vid=ebf374a9-11ff-4240-8655-533383c8c669","ios":"levelo://app?vid=ebf374a9-11ff-4240-8655-533383c8c669"},"vehicle_type_id":"4","last_reported":1748938535,"current_range_meters":14000,"station_id":"ce4bh9p2rcd13ifvqed0","pricing_plan_id":"cebpf4jnsgd1na2vs0mg"},{"bike_id":"cb972768-6e7c-4272-bc1d-1b19b1f6f647","system_id":"levelo_inurba_marseille","lat":43.24182,"lon":5.39726,"is_reserved":false,"is_disabled":false,"rental_uris":{"android":"levelo://app?vid=cb972768-6e7c-4272-bc1d-1b19b1f6f647","ios":"levelo://app?vid=cb972768-6e7c-4272-bc1d-1b19b1f6f647"},"vehicle_type_id":"4","last_reported":1748938535,"current_range_meters":14000,"station_id":"ce4bhn12rcd13ifvqgpg","pricing_plan_id":"cebpf4jnsgd1na2vs0mg"},{"bike_id":"6eaec52e-4035-4e21-baa9-8754a2463507","system_id":"levelo_inurba_marseille","lat":43.2816,"lon":5.4265,"is_reserved":false,"is_disabled":false,"rental_uris":{"android":"levelo://app?vid=6eaec52e-4035-4e21-baa9-8754a2463507","ios":"levelo://app?vid=6eaec52e-4035-4e21-baa9-8754a2463507"},"vehicle_type_id":"4","last_reported":1748938535,"current_range_meters":14000,"station_id":"ce4bhnh2rcd13ifvqgug","pricing_plan_id":"cebpf4jnsgd1na2vs0mg"},{"bike_id":"0f8610ba-5bb1-4824-b9f5-5fd46628d849","system_id":"levelo_inurba_marseille","lat":43.2407,"lon":5.37758,"is_reserved":false,"is_disabled":false,"rental_uris":{"android":"levelo://app?vid=0f8610ba-5bb1-4824-b9f5-5fd46628d849","ios":"levelo://app?vid=0f8610ba-5bb1-4824-b9f5-5fd46628d849"},"vehicle_type_id":"4","last_reported":1748938535,"current_range_meters":14000,"station_id":"ce4bhnp2rcd13ifvqgvg","pricing_plan_id":"cebpf4jnsgd1na2vs0mg"},{"bike_id":"a396fc7b-674a-4106-b280-df0672a34fda","system_id":"levelo_inurba_marseille","lat":43.287048,"lon":5.373943,"is_reserved":false,"is_disabled":false,"rental_uris":{"android":"levelo://app?vid=a396fc7b-674a-4106-b280-df0672a34fda","ios":"levelo://app?vid=a396fc7b-674a-4106-b280-df0672a34fda"},"vehicle_type_id":"4","last_reported":1748938535,"current_range_meters":14400,"station_id":"ce4bh3p2rcd13ifvqdq0","pricing_plan_id":"cebpf4jnsgd1na2vs0mg"},{"bike_id":"b2de61e5-7f5f-4cb5-98e4-89fcb87828b9","system_id":"levelo_inurba_marseille","lat":43.26559,"lon":5.37287,"is_reserved":false,"is_disabled":false,"rental_uris":{"android":"levelo://app?vid=b2de61e5-7f5f-4cb5-98e4-89fcb87828b9","ios":"levelo://app?vid=b2de61e5-7f5f-4cb5-98e4-89fcb87828b9"},"vehicle_type_id":"4","last_reported":1748938535,"current_range_meters":14800,"station_id":"","pricing_plan_id":"cebpf4jnsgd1na2vs0mg"},{"bike_id":"eea9a40c-1a6e-4bbf-9e42-f9bad5bb0ec6","system_id":"levelo_inurba_marseille","lat":43.31328,"lon":5.3674,"is_reserved":false,"is_disabled":false,"rental_uris":{"android":"levelo://app?vid=eea9a40c-1a6e-4bbf-9e42-f9bad5bb0ec6","ios":"levelo://app?vid=eea9a40c-1a6e-4bbf-9e42-f9bad5bb0ec6"},"vehicle_type_id":"4","last_reported":1748938535,"current_range_meters":14800,"station_id":"ce4bgr92rcd13ifvqc6g","pricing_plan_id":"cebpf4jnsgd1na2vs0mg"},{"bike_id":"29fd583d-c5d2-4743-9fc5-f12e075d97f3","system_id":"levelo_inurba_marseille","lat":43.309207,"lon":5.375977,"is_reserved":false,"is_disabled":false,"rental_uris":{"android":"levelo://app?vid=29fd583d-c5d2-4743-9fc5-f12e075d97f3","ios":"levelo://app?vid=29fd583d-c5d2-4743-9fc5-f12e075d97f3"},"vehicle_type_id":"4","last_reported":1748938535,"current_range_meters":14800,"station_id":"ce4bgt92rcd13ifvqcg0","pricing_plan_id":"cebpf4jnsgd1na2vs0mg"},{"bike_id":"cefa35ed-176a-45a9-be97-73f5e4d916b1","system_id":"levelo_inurba_marseille","lat":43.30956,"lon":5.3906,"is_reserved":false,"is_disabled":false,"rental_uris":{"android":"levelo://app?vid=cefa35ed-176a-45a9-be97-73f5e4d916b1","ios":"levelo://app?vid=cefa35ed-176a-45a9-be97-73f5e4d916b1"},"vehicle_type_id":"4","last_reported":1748938535,"current_range_meters":14800,"station_id":"ce4bgup2rcd13ifvqco0","pricing_plan_id":"cebpf4jnsgd1na2vs0mg"},{"bike_id":"b54ca595-1041-4795-a868-74a06cdb3693","system_id":"levelo_inurba_marseille","lat":43.289783,"lon":5.378377,"is_reserved":false,"is_disabled":false,"rental_uris":{"android":"levelo://app?vid=b54ca595-1041-4795-a868-74a06cdb3693","ios":"levelo://app?vid=b54ca595-1041-4795-a868-74a06cdb3693"},"vehicle_type_id":"4","last_reported":1748938535,"current_range_meters":14800,"station_id":"ce4bh9p2rcd13ifvqed0","pricing_plan_id":"cebpf4jnsgd1na2vs0mg"},{"bike_id":"17d63ab2-fd4c-4f55-bfce-d68bd500aae6","system_id":"levelo_inurba_marseille","lat":43.2693,"lon":5.38926,"is_reserved":false,"is_disabled":false,"rental_uris":{"android":"levelo://app?vid=17d63ab2-fd4c-4f55-bfce-d68bd500aae6","ios":"levelo://app?vid=17d63ab2-fd4c-4f55-bfce-d68bd500aae6"},"vehicle_type_id":"4","last_reported":1748938535,"current_range_meters":14800,"station_id":"ce4bhhh2rcd13ifvqfl0","pricing_plan_id":"cebpf4jnsgd1na2vs0mg"},{"bike_id":"a535d883-8fdf-4ca3-b60a-0bb47ef39d91","system_id":"levelo_inurba_marseille","lat":43.23964,"lon":5.36626,"is_reserved":false,"is_disabled":false,"rental_uris":{"android":"levelo://app?vid=a535d883-8fdf-4ca3-b60a-0bb47ef39d91","ios":"levelo://app?vid=a535d883-8fdf-4ca3-b60a-0bb47ef39d91"},"vehicle_type_id":"4","last_reported":1748938535,"current_range_meters":14800,"station_id":"ce4bhi12rcd13ifvqfp0","pricing_plan_id":"cebpf4jnsgd1na2vs0mg"},{"bike_id":"56ebd079-5325-4146-a252-c6e09bfabc00","system_id":"levelo_inurba_marseille","lat":43.318932,"lon":5.407343,"is_reserved":false,"is_disabled":false,"rental_uris":{"android":"levelo://app?vid=56ebd079-5325-4146-a252-c6e09bfabc00","ios":"levelo://app?vid=56ebd079-5325-4146-a252-c6e09bfabc00"},"vehicle_type_id":"4","last_reported":1748938535,"current_range_meters":14800,"station_id":"ce4bhq12rcd13ifvqhig","pricing_plan_id":"cebpf4jnsgd1na2vs0mg"},{"bike_id":"e31c84f5-c44b-48e2-adf2-52a2beace6c7","system_id":"levelo_inurba_marseille","lat":43.31729,"lon":5.37411,"is_reserved":false,"is_disabled":false,"rental_uris":{"android":"levelo://app?vid=e31c84f5-c44b-48e2-adf2-52a2beace6c7","ios":"levelo://app?vid=e31c84f5-c44b-48e2-adf2-52a2beace6c7"},"vehicle_type_id":"4","last_reported":1748938535,"current_range_meters":15200,"station_id":"","pricing_plan_id":"cebpf4jnsgd1na2vs0mg"},{"bike_id":"14bb5281-a32d-406a-9ec9-88d104baff7e","system_id":"levelo_inurba_marseille","lat":43.27423,"lon":5.39423,"is_reserved":false,"is_disabled":false,"rental_uris":{"android":"levelo://app?vid=14bb5281-a32d-406a-9ec9-88d104baff7e","ios":"levelo://app?vid=14bb5281-a32d-406a-9ec9-88d104baff7e"},"vehicle_type_id":"4","last_reported":1748938535,"current_range_meters":15200,"station_id":"ce4bhdp2rcd13ifvqf20","pricing_plan_id":"cebpf4jnsgd1na2vs0mg"},{"bike_id":"50897489-01eb-4901-a650-5484c94f7bec","system_id":"levelo_inurba_marseille","lat":43.24073,"lon":5.37758,"is_reserved":false,"is_disabled":false,"rental_uris":{"android":"levelo://app?vid=50897489-01eb-4901-a650-5484c94f7bec","ios":"levelo://app?vid=50897489-01eb-4901-a650-5484c94f7bec"},"vehicle_type_id":"4","last_reported":1748938535,"current_range_meters":15200,"station_id":"ce4bhnp2rcd13ifvqgvg","pricing_plan_id":"cebpf4jnsgd1na2vs0mg"},{"bike_id":"1cb7c0a1-48f8-49ab-9106-52040059037c","system_id":"levelo_inurba_marseille","lat":43.23063,"lon":5.35479,"is_reserved":false,"is_disabled":false,"rental_uris":{"android":"levelo://app?vid=1cb7c0a1-48f8-49ab-9106-52040059037c","ios":"levelo://app?vid=1cb7c0a1-48f8-49ab-9106-52040059037c"},"vehicle_type_id":"4","last_reported":1748938535,"current_range_meters":15200,"station_id":"cpo3342slgdg3j2ifvpg","pricing_plan_id":"cebpf4jnsgd1na2vs0mg"},{"bike_id":"e8500f21-8dc2-42c6-8d1f-6fdb0c36888e","system_id":"levelo_inurba_marseille","lat":43.26562,"lon":5.40327,"is_reserved":false,"is_disabled":false,"rental_uris":{"android":"levelo://app?vid=e8500f21-8dc2-42c6-8d1f-6fdb0c36888e","ios":"levelo://app?vid=e8500f21-8dc2-42c6-8d1f-6fdb0c36888e"},"vehicle_type_id":"4","last_reported":1748938535,"current_range_meters":16000,"station_id":"","pricing_plan_id":"cebpf4jnsgd1na2vs0mg"},{"bike_id":"6744e8d8-0ccf-4278-b0b6-6e0d9e91b81f","system_id":"levelo_inurba_marseille","lat":43.30311,"lon":5.36897,"is_reserved":false,"is_disabled":false,"rental_uris":{"android":"levelo://app?vid=6744e8d8-0ccf-4278-b0b6-6e0d9e91b81f","ios":"levelo://app?vid=6744e8d8-0ccf-4278-b0b6-6e0d9e91b81f"},"vehicle_type_id":"4","last_reported":1748938535,"current_range_meters":16000,"station_id":"ce4bgqh2rcd13ifvqc5g","pricing_plan_id":"cebpf4jnsgd1na2vs0mg"},{"bike_id":"8e614df2-5050-400e-a596-ac75b6ca627d","system_id":"levelo_inurba_marseille","lat":43.30134,"lon":5.37418,"is_reserved":false,"is_disabled":false,"rental_uris":{"android":"levelo://app?vid=8e614df2-5050-400e-a596-ac75b6ca627d","ios":"levelo://app?vid=8e614df2-5050-400e-a596-ac75b6ca627d"},"vehicle_type_id":"4","last_reported":1748938535,"current_range_meters":16000,"station_id":"ce4bgs92rcd13ifvqcc0","pricing_plan_id":"cebpf4jnsgd1na2vs0mg"},{"bike_id":"69feff2c-79b3-4cd7-81f4-c14a6e2841bc","system_id":"levelo_inurba_marseille","lat":43.28484,"lon":5.38572,"is_reserved":false,"is_disabled":false,"rental_uris":{"android":"levelo://app?vid=69feff2c-79b3-4cd7-81f4-c14a6e2841bc","ios":"levelo://app?vid=69feff2c-79b3-4cd7-81f4-c14a6e2841bc"},"vehicle_type_id":"4","last_reported":1748938535,"current_range_meters":16000,"station_id":"ce4bh8p2rcd13ifvqeb0","pricing_plan_id":"cebpf4jnsgd1na2vs0mg"},{"bike_id":"6db8da9d-ed27-45cf-9935-6e37c99d0be9","system_id":"levelo_inurba_marseille","lat":43.26227,"lon":5.40131,"is_reserved":false,"is_disabled":false,"rental_uris":{"android":"levelo://app?vid=6db8da9d-ed27-45cf-9935-6e37c99d0be9","ios":"levelo://app?vid=6db8da9d-ed27-45cf-9935-6e37c99d0be9"},"vehicle_type_id":"4","last_reported":1748938535,"current_range_meters":16400,"station_id":"","pricing_plan_id":"cebpf4jnsgd1na2vs0mg"},{"bike_id":"b5dac52b-3bca-4d05-8062-b80f45671e26","system_id":"levelo_inurba_marseille","lat":43.29794,"lon":5.3811,"is_reserved":false,"is_disabled":false,"rental_uris":{"android":"levelo://app?vid=b5dac52b-3bca-4d05-8062-b80f45671e26","ios":"levelo://app?vid=b5dac52b-3bca-4d05-8062-b80f45671e26"},"vehicle_type_id":"4","last_reported":1748938535,"current_range_meters":16400,"station_id":"ce4bgip2rcd13ifvqbb0","pricing_plan_id":"cebpf4jnsgd1na2vs0mg"},{"bike_id":"1d9383b2-4040-475f-992f-8b86945f5fdc","system_id":"levelo_inurba_marseille","lat":43.29701,"lon":5.36615,"is_reserved":false,"is_disabled":false,"rental_uris":{"android":"levelo://app?vid=1d9383b2-4040-475f-992f-8b86945f5fdc","ios":"levelo://app?vid=1d9383b2-4040-475f-992f-8b86945f5fdc"},"vehicle_type_id":"4","last_reported":1748938535,"current_range_meters":16400,"station_id":"ce4bgn12rcd13ifvqbt0","pricing_plan_id":"cebpf4jnsgd1na2vs0mg"},{"bike_id":"3923e0e2-c38c-441d-bffb-730ba0ced8ac","system_id":"levelo_inurba_marseille","lat":43.31358,"lon":5.38497,"is_reserved":false,"is_disabled":false,"rental_uris":{"android":"levelo://app?vid=3923e0e2-c38c-441d-bffb-730ba0ced8ac","ios":"levelo://app?vid=3923e0e2-c38c-441d-bffb-730ba0ced8ac"},"vehicle_type_id":"4","last_reported":1748938535,"current_range_meters":16400,"station_id":"ce4bgt92rcd13ifvqcf0","pricing_plan_id":"cebpf4jnsgd1na2vs0mg"},{"bike_id":"c0118801-0051-4d8b-93c0-8018e179fb2e","system_id":"levelo_inurba_marseille","lat":43.33717,"lon":5.391865,"is_reserved":false,"is_disabled":false,"rental_uris":{"android":"levelo://app?vid=c0118801-0051-4d8b-93c0-8018e179fb2e","ios":"levelo://app?vid=c0118801-0051-4d8b-93c0-8018e179fb2e"},"vehicle_type_id":"4","last_reported":1748938535,"current_range_meters":16400,"station_id":"ce4bhr92rcd13ifvqhsg","pricing_plan_id":"cebpf4jnsgd1na2vs0mg"},{"bike_id":"fc8ef10e-2564-4420-98fb-0c871112ee8c","system_id":"levelo_inurba_marseille","lat":43.29565,"lon":5.37497,"is_reserved":false,"is_disabled":false,"rental_uris":{"android":"levelo://app?vid=fc8ef10e-2564-4420-98fb-0c871112ee8c","ios":"levelo://app?vid=fc8ef10e-2564-4420-98fb-0c871112ee8c"},"vehicle_type_id":"4","last_reported":1748938535,"current_range_meters":16800,"station_id":"ce4bgh92rcd13ifvqb50","pricing_plan_id":"cebpf4jnsgd1na2vs0mg"},{"bike_id":"b9ec55c3-ee26-4bfc-ab9e-54fe7f50fad9","system_id":"levelo_inurba_marseille","lat":43.30545,"lon":5.36505,"is_reserved":false,"is_disabled":false,"rental_uris":{"android":"levelo://app?vid=b9ec55c3-ee26-4bfc-ab9e-54fe7f50fad9","ios":"levelo://app?vid=b9ec55c3-ee26-4bfc-ab9e-54fe7f50fad9"},"vehicle_type_id":"4","last_reported":1748938535,"current_range_meters":16800,"station_id":"ce4bgs12rcd13ifvqcag","pricing_plan_id":"cebpf4jnsgd1na2vs0mg"},{"bike_id":"fa7d8431-dfcc-4f1f-9c75-b83ad25f200f","system_id":"levelo_inurba_marseille","lat":43.26951,"lon":5.38629,"is_reserved":false,"is_disabled":false,"rental_uris":{"android":"levelo://app?vid=fa7d8431-dfcc-4f1f-9c75-b83ad25f200f","ios":"levelo://app?vid=fa7d8431-dfcc-4f1f-9c75-b83ad25f200f"},"vehicle_type_id":"4","last_reported":1748938535,"current_range_meters":16800,"station_id":"ce4bhh92rcd13ifvqfh0","pricing_plan_id":"cebpf4jnsgd1na2vs0mg"},{"bike_id":"fbf2e22b-77d8-4026-b02f-12530856bb8e","system_id":"levelo_inurba_marseille","lat":43.27226,"lon":5.39206,"is_reserved":false,"is_disabled":false,"rental_uris":{"android":"levelo://app?vid=fbf2e22b-77d8-4026-b02f-12530856bb8e","ios":"levelo://app?vid=fbf2e22b-77d8-4026-b02f-12530856bb8e"},"vehicle_type_id":"4","last_reported":1748938535,"current_range_meters":16800,"station_id":"ce4bhhp2rcd13ifvqfm0","pricing_plan_id":"cebpf4jnsgd1na2vs0mg"},{"bike_id":"96425785-67ec-44b8-ac35-6530cd1939ae","system_id":"levelo_inurba_marseille","lat":43.24156,"lon":5.39698,"is_reserved":false,"is_disabled":false,"rental_uris":{"android":"levelo://app?vid=96425785-67ec-44b8-ac35-6530cd1939ae","ios":"levelo://app?vid=96425785-67ec-44b8-ac35-6530cd1939ae"},"vehicle_type_id":"4","last_reported":1748938535,"current_range_meters":16800,"station_id":"ce4bhn12rcd13ifvqgpg","pricing_plan_id":"cebpf4jnsgd1na2vs0mg"},{"bike_id":"a332bb8d-4088-4873-b1e0-8582d22c01da","system_id":"levelo_inurba_marseille","lat":43.32485,"lon":5.3659,"is_reserved":false,"is_disabled":false,"rental_uris":{"android":"levelo://app?vid=a332bb8d-4088-4873-b1e0-8582d22c01da","ios":"levelo://app?vid=a332bb8d-4088-4873-b1e0-8582d22c01da"},"vehicle_type_id":"4","last_reported":1748938535,"current_range_meters":16800,"station_id":"ce4bhs12rcd13ifvqhvg","pricing_plan_id":"cebpf4jnsgd1na2vs0mg"},{"bike_id":"966239c7-3059-4e95-8539-7ca3c5ab0472","system_id":"levelo_inurba_marseille","lat":43.29365,"lon":5.37843,"is_reserved":false,"is_disabled":false,"rental_uris":{"android":"levelo://app?vid=966239c7-3059-4e95-8539-7ca3c5ab0472","ios":"levelo://app?vid=966239c7-3059-4e95-8539-7ca3c5ab0472"},"vehicle_type_id":"4","last_reported":1748938535,"current_range_meters":17200,"station_id":"ce4bgjh2rcd13ifvqbf0","pricing_plan_id":"cebpf4jnsgd1na2vs0mg"},{"bike_id":"f3453623-595a-49ec-9f81-59505c481252","system_id":"levelo_inurba_marseille","lat":43.25495,"lon":5.37657,"is_reserved":false,"is_disabled":false,"rental_uris":{"android":"levelo://app?vid=f3453623-595a-49ec-9f81-59505c481252","ios":"levelo://app?vid=f3453623-595a-49ec-9f81-59505c481252"},"vehicle_type_id":"4","last_reported":1748938535,"current_range_meters":17200,"station_id":"ce4bhh12rcd13ifvqff0","pricing_plan_id":"cebpf4jnsgd1na2vs0mg"},{"bike_id":"ffe390eb-1534-48bf-b6d6-4287f068c648","system_id":"levelo_inurba_marseille","lat":43.26063,"lon":5.39395,"is_reserved":false,"is_disabled":false,"rental_uris":{"android":"levelo://app?vid=ffe390eb-1534-48bf-b6d6-4287f068c648","ios":"levelo://app?vid=ffe390eb-1534-48bf-b6d6-4287f068c648"},"vehicle_type_id":"4","last_reported":1748938535,"current_range_meters":17200,"station_id":"ce4bhh92rcd13ifvqfj0","pricing_plan_id":"cebpf4jnsgd1na2vs0mg"},{"bike_id":"4534ea5c-4c6a-442f-adc0-5923d0f8a036","system_id":"levelo_inurba_marseille","lat":43.25106,"lon":5.40323,"is_reserved":false,"is_disabled":false,"rental_uris":{"android":"levelo://app?vid=4534ea5c-4c6a-442f-adc0-5923d0f8a036","ios":"levelo://app?vid=4534ea5c-4c6a-442f-adc0-5923d0f8a036"},"vehicle_type_id":"4","last_reported":1748938535,"current_range_meters":17200,"station_id":"ce4bhlh2rcd13ifvqgig","pricing_plan_id":"cebpf4jnsgd1na2vs0mg"},{"bike_id":"a9332213-4883-4904-82eb-c3c35b31b656","system_id":"levelo_inurba_marseille","lat":43.27491,"lon":5.42453,"is_reserved":false,"is_disabled":false,"rental_uris":{"android":"levelo://app?vid=a9332213-4883-4904-82eb-c3c35b31b656","ios":"levelo://app?vid=a9332213-4883-4904-82eb-c3c35b31b656"},"vehicle_type_id":"4","last_reported":1748938535,"current_range_meters":17200,"station_id":"ce4bhn92rcd13ifvqgrg","pricing_plan_id":"cebpf4jnsgd1na2vs0mg"},{"bike_id":"50f34d3b-6952-4c0e-9f03-4186cfcd2935","system_id":"levelo_inurba_marseille","lat":43.285198,"lon":5.398666,"is_reserved":false,"is_disabled":false,"rental_uris":{"android":"levelo://app?vid=50f34d3b-6952-4c0e-9f03-4186cfcd2935","ios":"levelo://app?vid=50f34d3b-6952-4c0e-9f03-4186cfcd2935"},"vehicle_type_id":"4","last_reported":1748938535,"current_range_meters":17600,"station_id":"","pricing_plan_id":"cebpf4jnsgd1na2vs0mg"},{"bike_id":"a5c20a9b-6072-4572-84fe-d4fbf1b359ce","system_id":"levelo_inurba_marseille","lat":43.33789,"lon":5.37449,"is_reserved":false,"is_disabled":false,"rental_uris":{"android":"levelo://app?vid=a5c20a9b-6072-4572-84fe-d4fbf1b359ce","ios":"levelo://app?vid=a5c20a9b-6072-4572-84fe-d4fbf1b359ce"},"vehicle_type_id":"4","last_reported":1748938535,"current_range_meters":17600,"station_id":"","pricing_plan_id":"cebpf4jnsgd1na2vs0mg"},{"bike_id":"a0e89201-bbdf-4b62-bd4f-3f268f21c36e","system_id":"levelo_inurba_marseille","lat":43.29292,"lon":5.37456,"is_reserved":false,"is_disabled":false,"rental_uris":{"android":"levelo://app?vid=a0e89201-bbdf-4b62-bd4f-3f268f21c36e","ios":"levelo://app?vid=a0e89201-bbdf-4b62-bd4f-3f268f21c36e"},"vehicle_type_id":"4","last_reported":1748938535,"current_range_meters":17600,"station_id":"ce4bgi12rcd13ifvqb70","pricing_plan_id":"cebpf4jnsgd1na2vs0mg"},{"bike_id":"bd1a5027-74a9-4de8-b0c3-5c5ecc217581","system_id":"levelo_inurba_marseille","lat":43.29784,"lon":5.37098,"is_reserved":false,"is_disabled":false,"rental_uris":{"android":"levelo://app?vid=bd1a5027-74a9-4de8-b0c3-5c5ecc217581","ios":"levelo://app?vid=bd1a5027-74a9-4de8-b0c3-5c5ecc217581"},"vehicle_type_id":"4","last_reported":1748938535,"current_range_meters":17600,"station_id":"ce4bgop2rcd13ifvqc1g","pricing_plan_id":"cebpf4jnsgd1na2vs0mg"},{"bike_id":"ef246801-1f11-4ce3-ac59-449fc6da4e77","system_id":"levelo_inurba_marseille","lat":43.29011,"lon":5.35617,"is_reserved":false,"is_disabled":false,"rental_uris":{"android":"levelo://app?vid=ef246801-1f11-4ce3-ac59-449fc6da4e77","ios":"levelo://app?vid=ef246801-1f11-4ce3-ac59-449fc6da4e77"},"vehicle_type_id":"4","last_reported":1748938535,"current_range_meters":17600,"station_id":"ce4bhb92rcd13ifvqen0","pricing_plan_id":"cebpf4jnsgd1na2vs0mg"},{"bike_id":"3d72d00f-99c6-4cbe-888b-859c7a2d4834","system_id":"levelo_inurba_marseille","lat":43.25,"lon":5.389312,"is_reserved":false,"is_disabled":false,"rental_uris":{"android":"levelo://app?vid=3d72d00f-99c6-4cbe-888b-859c7a2d4834","ios":"levelo://app?vid=3d72d00f-99c6-4cbe-888b-859c7a2d4834"},"vehicle_type_id":"4","last_reported":1748938535,"current_range_meters":17600,"station_id":"ce4bhgp2rcd13ifvqfd0","pricing_plan_id":"cebpf4jnsgd1na2vs0mg"},{"bike_id":"22f839c0-7837-49f4-b4b1-6cd233d79363","system_id":"levelo_inurba_marseille","lat":43.298968,"lon":5.436668,"is_reserved":false,"is_disabled":false,"rental_uris":{"android":"levelo://app?vid=22f839c0-7837-49f4-b4b1-6cd233d79363","ios":"levelo://app?vid=22f839c0-7837-49f4-b4b1-6cd233d79363"},"vehicle_type_id":"4","last_reported":1748938535,"current_range_meters":17600,"station_id":"ce4bhpp2rcd13ifvqhfg","pricing_plan_id":"cebpf4jnsgd1na2vs0mg"},{"bike_id":"5b536054-600d-4e23-8558-f74f4f3ec365","system_id":"levelo_inurba_marseille","lat":43.33021,"lon":5.39046,"is_reserved":false,"is_disabled":false,"rental_uris":{"android":"levelo://app?vid=5b536054-600d-4e23-8558-f74f4f3ec365","ios":"levelo://app?vid=5b536054-600d-4e23-8558-f74f4f3ec365"},"vehicle_type_id":"4","last_reported":1748938535,"current_range_meters":17600,"station_id":"ce4bhr92rcd13ifvqhrg","pricing_plan_id":"cebpf4jnsgd1na2vs0mg"},{"bike_id":"5b5c3a30-20d4-495c-b5c0-1b43d08ac2f4","system_id":"levelo_inurba_marseille","lat":43.24118,"lon":5.39705,"is_reserved":false,"is_disabled":false,"rental_uris":{"android":"levelo://app?vid=5b5c3a30-20d4-495c-b5c0-1b43d08ac2f4","ios":"levelo://app?vid=5b5c3a30-20d4-495c-b5c0-1b43d08ac2f4"},"vehicle_type_id":"4","last_reported":1748938535,"current_range_meters":18000,"station_id":"","pricing_plan_id":"cebpf4jnsgd1na2vs0mg"},{"bike_id":"bbdab15b-b33b-4570-a683-b2ab708c7da4","system_id":"levelo_inurba_marseille","lat":43.29735,"lon":5.3767,"is_reserved":false,"is_disabled":false,"rental_uris":{"android":"levelo://app?vid=bbdab15b-b33b-4570-a683-b2ab708c7da4","ios":"levelo://app?vid=bbdab15b-b33b-4570-a683-b2ab708c7da4"},"vehicle_type_id":"4","last_reported":1748938535,"current_range_meters":18000,"station_id":"ce4bgkh2rcd13ifvqbl0","pricing_plan_id":"cebpf4jnsgd1na2vs0mg"},{"bike_id":"83a140cf-d943-48f5-8a00-d7ff764bdf94","system_id":"levelo_inurba_marseille","lat":43.31373,"lon":5.3671,"is_reserved":false,"is_disabled":false,"rental_uris":{"android":"levelo://app?vid=83a140cf-d943-48f5-8a00-d7ff764bdf94","ios":"levelo://app?vid=83a140cf-d943-48f5-8a00-d7ff764bdf94"},"vehicle_type_id":"4","last_reported":1748938535,"current_range_meters":18000,"station_id":"ce4bgr92rcd13ifvqc6g","pricing_plan_id":"cebpf4jnsgd1na2vs0mg"},{"bike_id":"70731e1b-3fe4-4a45-9b8e-e1b0b4da318a","system_id":"levelo_inurba_marseille","lat":43.30522,"lon":5.36525,"is_reserved":false,"is_disabled":false,"rental_uris":{"android":"levelo://app?vid=70731e1b-3fe4-4a45-9b8e-e1b0b4da318a","ios":"levelo://app?vid=70731e1b-3fe4-4a45-9b8e-e1b0b4da318a"},"vehicle_type_id":"4","last_reported":1748938535,"current_range_meters":18000,"station_id":"ce4bgs12rcd13ifvqcag","pricing_plan_id":"cebpf4jnsgd1na2vs0mg"},{"bike_id":"eee17012-40ea-46a7-8e80-c745f9f0a6b1","system_id":"levelo_inurba_marseille","lat":43.29174,"lon":5.37166,"is_reserved":false,"is_disabled":false,"rental_uris":{"android":"levelo://app?vid=eee17012-40ea-46a7-8e80-c745f9f0a6b1","ios":"levelo://app?vid=eee17012-40ea-46a7-8e80-c745f9f0a6b1"},"vehicle_type_id":"4","last_reported":1748938535,"current_range_meters":18000,"station_id":"ce4bha92rcd13ifvqeh0","pricing_plan_id":"cebpf4jnsgd1na2vs0mg"},{"bike_id":"be687846-2021-40d8-beed-17bdab4b268e","system_id":"levelo_inurba_marseille","lat":43.2841,"lon":5.34978,"is_reserved":false,"is_disabled":false,"rental_uris":{"android":"levelo://app?vid=be687846-2021-40d8-beed-17bdab4b268e","ios":"levelo://app?vid=be687846-2021-40d8-beed-17bdab4b268e"},"vehicle_type_id":"4","last_reported":1748938535,"current_range_meters":18000,"station_id":"ce4bhbh2rcd13ifvqepg","pricing_plan_id":"cebpf4jnsgd1na2vs0mg"},{"bike_id":"5dad7123-9aa5-4c7f-aa66-545089f7691c","system_id":"levelo_inurba_marseille","lat":43.26569,"lon":5.39013,"is_reserved":false,"is_disabled":false,"rental_uris":{"android":"levelo://app?vid=5dad7123-9aa5-4c7f-aa66-545089f7691c","ios":"levelo://app?vid=5dad7123-9aa5-4c7f-aa66-545089f7691c"},"vehicle_type_id":"4","last_reported":1748938535,"current_range_meters":18000,"station_id":"ce4bhe12rcd13ifvqf30","pricing_plan_id":"cebpf4jnsgd1na2vs0mg"},{"bike_id":"f20ed4e3-2013-4339-bcb3-87a6aee97318","system_id":"levelo_inurba_marseille","lat":43.23964,"lon":5.36628,"is_reserved":false,"is_disabled":false,"rental_uris":{"android":"levelo://app?vid=f20ed4e3-2013-4339-bcb3-87a6aee97318","ios":"levelo://app?vid=f20ed4e3-2013-4339-bcb3-87a6aee97318"},"vehicle_type_id":"4","last_reported":1748938535,"current_range_meters":18000,"station_id":"ce4bhi12rcd13ifvqfp0","pricing_plan_id":"cebpf4jnsgd1na2vs0mg"},{"bike_id":"b84047fb-979f-41aa-a775-db92db2ae0a5","system_id":"levelo_inurba_marseille","lat":43.24073,"lon":5.37738,"is_reserved":false,"is_disabled":false,"rental_uris":{"android":"levelo://app?vid=b84047fb-979f-41aa-a775-db92db2ae0a5","ios":"levelo://app?vid=b84047fb-979f-41aa-a775-db92db2ae0a5"},"vehicle_type_id":"4","last_reported":1748938535,"current_range_meters":18000,"station_id":"ce4bhnp2rcd13ifvqgvg","pricing_plan_id":"cebpf4jnsgd1na2vs0mg"},{"bike_id":"fa4e0d9e-80f8-43cf-b3b9-f506ef59dd4a","system_id":"levelo_inurba_marseille","lat":43.337202,"lon":5.391827,"is_reserved":false,"is_disabled":false,"rental_uris":{"android":"levelo://app?vid=fa4e0d9e-80f8-43cf-b3b9-f506ef59dd4a","ios":"levelo://app?vid=fa4e0d9e-80f8-43cf-b3b9-f506ef59dd4a"},"vehicle_type_id":"4","last_reported":1748938535,"current_range_meters":18000,"station_id":"ce4bhr92rcd13ifvqhsg","pricing_plan_id":"cebpf4jnsgd1na2vs0mg"},{"bike_id":"00921fac-499b-49af-a52e-f6576fd69f60","system_id":"levelo_inurba_marseille","lat":43.279433,"lon":5.386953,"is_reserved":false,"is_disabled":false,"rental_uris":{"android":"levelo://app?vid=00921fac-499b-49af-a52e-f6576fd69f60","ios":"levelo://app?vid=00921fac-499b-49af-a52e-f6576fd69f60"},"vehicle_type_id":"4","last_reported":1748938535,"current_range_meters":18800,"station_id":"","pricing_plan_id":"cebpf4jnsgd1na2vs0mg"},{"bike_id":"b48350f3-00e1-4dd0-a312-740734e3cde9","system_id":"levelo_inurba_marseille","lat":43.29921,"lon":5.3749,"is_reserved":false,"is_disabled":false,"rental_uris":{"android":"levelo://app?vid=b48350f3-00e1-4dd0-a312-740734e3cde9","ios":"levelo://app?vid=b48350f3-00e1-4dd0-a312-740734e3cde9"},"vehicle_type_id":"4","last_reported":1748938535,"current_range_meters":18800,"station_id":"ce4bgjh2rcd13ifvqbg0","pricing_plan_id":"cebpf4jnsgd1na2vs0mg"},{"bike_id":"b4a09779-3112-486d-8eb5-2645f8d54e59","system_id":"levelo_inurba_marseille","lat":43.30895,"lon":5.36848,"is_reserved":false,"is_disabled":false,"rental_uris":{"android":"levelo://app?vid=b4a09779-3112-486d-8eb5-2645f8d54e59","ios":"levelo://app?vid=b4a09779-3112-486d-8eb5-2645f8d54e59"},"vehicle_type_id":"4","last_reported":1748938535,"current_range_meters":18800,"station_id":"ce4bgn92rcd13ifvqbvg","pricing_plan_id":"cebpf4jnsgd1na2vs0mg"},{"bike_id":"f88c70c0-9b3c-47ed-a6b7-365d798d0a45","system_id":"levelo_inurba_marseille","lat":43.29827,"lon":5.36237,"is_reserved":false,"is_disabled":false,"rental_uris":{"android":"levelo://app?vid=f88c70c0-9b3c-47ed-a6b7-365d798d0a45","ios":"levelo://app?vid=f88c70c0-9b3c-47ed-a6b7-365d798d0a45"},"vehicle_type_id":"4","last_reported":1748938535,"current_range_meters":18800,"station_id":"ce4bgpp2rcd13ifvqc3g","pricing_plan_id":"cebpf4jnsgd1na2vs0mg"},{"bike_id":"8d20081c-fa1a-4df4-a128-0b5048cfd5f7","system_id":"levelo_inurba_marseille","lat":43.31358,"lon":5.36693,"is_reserved":false,"is_disabled":false,"rental_uris":{"android":"levelo://app?vid=8d20081c-fa1a-4df4-a128-0b5048cfd5f7","ios":"levelo://app?vid=8d20081c-fa1a-4df4-a128-0b5048cfd5f7"},"vehicle_type_id":"4","last_reported":1748938535,"current_range_meters":18800,"station_id":"ce4bgr92rcd13ifvqc6g","pricing_plan_id":"cebpf4jnsgd1na2vs0mg"},{"bike_id":"3e092199-035e-4a05-8597-908e24ed7800","system_id":"levelo_inurba_marseille","lat":43.2655,"lon":5.37316,"is_reserved":false,"is_disabled":false,"rental_uris":{"android":"levelo://app?vid=3e092199-035e-4a05-8597-908e24ed7800","ios":"levelo://app?vid=3e092199-035e-4a05-8597-908e24ed7800"},"vehicle_type_id":"4","last_reported":1748938535,"current_range_meters":18800,"station_id":"ce4bhg12rcd13ifvqf70","pricing_plan_id":"cebpf4jnsgd1na2vs0mg"},{"bike_id":"f2f7cb97-983f-4603-a427-da85434a02d2","system_id":"levelo_inurba_marseille","lat":43.25008,"lon":5.38939,"is_reserved":false,"is_disabled":false,"rental_uris":{"android":"levelo://app?vid=f2f7cb97-983f-4603-a427-da85434a02d2","ios":"levelo://app?vid=f2f7cb97-983f-4603-a427-da85434a02d2"},"vehicle_type_id":"4","last_reported":1748938535,"current_range_meters":18800,"station_id":"ce4bhgp2rcd13ifvqfd0","pricing_plan_id":"cebpf4jnsgd1na2vs0mg"},{"bike_id":"8cec45d7-3373-400d-972f-fd7f23c43b10","system_id":"levelo_inurba_marseille","lat":43.26214,"lon":5.37916,"is_reserved":false,"is_disabled":false,"rental_uris":{"android":"levelo://app?vid=8cec45d7-3373-400d-972f-fd7f23c43b10","ios":"levelo://app?vid=8cec45d7-3373-400d-972f-fd7f23c43b10"},"vehicle_type_id":"4","last_reported":1748938535,"current_range_meters":18800,"station_id":"ce4bhjp2rcd13ifvqg90","pricing_plan_id":"cebpf4jnsgd1na2vs0mg"},{"bike_id":"28b428b4-39d2-4173-a65b-a399d8518cec","system_id":"levelo_inurba_marseille","lat":43.25867,"lon":5.39908,"is_reserved":false,"is_disabled":false,"rental_uris":{"android":"levelo://app?vid=28b428b4-39d2-4173-a65b-a399d8518cec","ios":"levelo://app?vid=28b428b4-39d2-4173-a65b-a399d8518cec"},"vehicle_type_id":"4","last_reported":1748938535,"current_range_meters":18800,"station_id":"ce4bhl92rcd13ifvqghg","pricing_plan_id":"cebpf4jnsgd1na2vs0mg"},{"bike_id":"a3bfdda4-f43a-46f5-b6bc-d5c8ad298c4e","system_id":"levelo_inurba_marseille","lat":43.25904,"lon":5.40895,"is_reserved":false,"is_disabled":false,"rental_uris":{"android":"levelo://app?vid=a3bfdda4-f43a-46f5-b6bc-d5c8ad298c4e","ios":"levelo://app?vid=a3bfdda4-f43a-46f5-b6bc-d5c8ad298c4e"},"vehicle_type_id":"4","last_reported":1748938535,"current_range_meters":18800,"station_id":"ce4bhm92rcd13ifvqglg","pricing_plan_id":"cebpf4jnsgd1na2vs0mg"},{"bike_id":"c1b5eecc-5664-4bb0-ab72-8f9e7c58cb84","system_id":"levelo_inurba_marseille","lat":43.2417,"lon":5.39741,"is_reserved":false,"is_disabled":false,"rental_uris":{"android":"levelo://app?vid=c1b5eecc-5664-4bb0-ab72-8f9e7c58cb84","ios":"levelo://app?vid=c1b5eecc-5664-4bb0-ab72-8f9e7c58cb84"},"vehicle_type_id":"4","last_reported":1748938535,"current_range_meters":18800,"station_id":"ce4bhn12rcd13ifvqgpg","pricing_plan_id":"cebpf4jnsgd1na2vs0mg"},{"bike_id":"8594194c-7660-4a3a-82c9-f3a79a27592b","system_id":"levelo_inurba_marseille","lat":43.24071,"lon":5.37764,"is_reserved":false,"is_disabled":false,"rental_uris":{"android":"levelo://app?vid=8594194c-7660-4a3a-82c9-f3a79a27592b","ios":"levelo://app?vid=8594194c-7660-4a3a-82c9-f3a79a27592b"},"vehicle_type_id":"4","last_reported":1748938535,"current_range_meters":18800,"station_id":"ce4bhnp2rcd13ifvqgvg","pricing_plan_id":"cebpf4jnsgd1na2vs0mg"},{"bike_id":"d509d84e-f359-4ef5-8817-0a56485e7e15","system_id":"levelo_inurba_marseille","lat":43.238974,"lon":5.388521,"is_reserved":false,"is_disabled":false,"rental_uris":{"android":"levelo://app?vid=d509d84e-f359-4ef5-8817-0a56485e7e15","ios":"levelo://app?vid=d509d84e-f359-4ef5-8817-0a56485e7e15"},"vehicle_type_id":"4","last_reported":1748938535,"current_range_meters":19200,"station_id":"","pricing_plan_id":"cebpf4jnsgd1na2vs0mg"},{"bike_id":"928377c3-740a-41f9-907c-f7f190939f6c","system_id":"levelo_inurba_marseille","lat":43.29716,"lon":5.37671,"is_reserved":false,"is_disabled":false,"rental_uris":{"android":"levelo://app?vid=928377c3-740a-41f9-907c-f7f190939f6c","ios":"levelo://app?vid=928377c3-740a-41f9-907c-f7f190939f6c"},"vehicle_type_id":"4","last_reported":1748938535,"current_range_meters":19200,"station_id":"ce4bgkh2rcd13ifvqbl0","pricing_plan_id":"cebpf4jnsgd1na2vs0mg"},{"bike_id":"dca66bed-5c27-48af-8abb-b3408d8ab3ae","system_id":"levelo_inurba_marseille","lat":43.30897,"lon":5.36854,"is_reserved":false,"is_disabled":false,"rental_uris":{"android":"levelo://app?vid=dca66bed-5c27-48af-8abb-b3408d8ab3ae","ios":"levelo://app?vid=dca66bed-5c27-48af-8abb-b3408d8ab3ae"},"vehicle_type_id":"4","last_reported":1748938535,"current_range_meters":19200,"station_id":"ce4bgn92rcd13ifvqbvg","pricing_plan_id":"cebpf4jnsgd1na2vs0mg"},{"bike_id":"0d304f6a-7b91-4793-a187-82d52390f421","system_id":"levelo_inurba_marseille","lat":43.30311,"lon":5.36902,"is_reserved":false,"is_disabled":false,"rental_uris":{"android":"levelo://app?vid=0d304f6a-7b91-4793-a187-82d52390f421","ios":"levelo://app?vid=0d304f6a-7b91-4793-a187-82d52390f421"},"vehicle_type_id":"4","last_reported":1748938535,"current_range_meters":19200,"station_id":"ce4bgqh2rcd13ifvqc5g","pricing_plan_id":"cebpf4jnsgd1na2vs0mg"},{"bike_id":"edeeefe1-6701-4b4c-8f26-92f4ec77a90d","system_id":"levelo_inurba_marseille","lat":43.30534,"lon":5.36702,"is_reserved":false,"is_disabled":false,"rental_uris":{"android":"levelo://app?vid=edeeefe1-6701-4b4c-8f26-92f4ec77a90d","ios":"levelo://app?vid=edeeefe1-6701-4b4c-8f26-92f4ec77a90d"},"vehicle_type_id":"4","last_reported":1748938535,"current_range_meters":19200,"station_id":"ce4bgrp2rcd13ifvqc9g","pricing_plan_id":"cebpf4jnsgd1na2vs0mg"},{"bike_id":"42839ffc-0fe2-451e-a404-146f36ccd134","system_id":"levelo_inurba_marseille","lat":43.28851,"lon":5.39312,"is_reserved":false,"is_disabled":false,"rental_uris":{"android":"levelo://app?vid=42839ffc-0fe2-451e-a404-146f36ccd134","ios":"levelo://app?vid=42839ffc-0fe2-451e-a404-146f36ccd134"},"vehicle_type_id":"4","last_reported":1748938535,"current_range_meters":19200,"station_id":"ce4bh2p2rcd13ifvqdi0","pricing_plan_id":"cebpf4jnsgd1na2vs0mg"},{"bike_id":"bb9df8e7-97b0-42c5-8087-cf95de0a52c4","system_id":"levelo_inurba_marseille","lat":43.2569,"lon":5.41076,"is_reserved":false,"is_disabled":false,"rental_uris":{"android":"levelo://app?vid=bb9df8e7-97b0-42c5-8087-cf95de0a52c4","ios":"levelo://app?vid=bb9df8e7-97b0-42c5-8087-cf95de0a52c4"},"vehicle_type_id":"4","last_reported":1748938535,"current_range_meters":19200,"station_id":"ce4bhkp2rcd13ifvqgd0","pricing_plan_id":"cebpf4jnsgd1na2vs0mg"},{"bike_id":"bc2705d3-2059-4d83-a185-d1277e43f930","system_id":"levelo_inurba_marseille","lat":43.25901,"lon":5.40851,"is_reserved":false,"is_disabled":false,"rental_uris":{"android":"levelo://app?vid=bc2705d3-2059-4d83-a185-d1277e43f930","ios":"levelo://app?vid=bc2705d3-2059-4d83-a185-d1277e43f930"},"vehicle_type_id":"4","last_reported":1748938535,"current_range_meters":19200,"station_id":"ce4bhm92rcd13ifvqglg","pricing_plan_id":"cebpf4jnsgd1na2vs0mg"},{"bike_id":"2094f797-5ade-43c8-8970-90d6893d4a1e","system_id":"levelo_inurba_marseille","lat":43.27992,"lon":5.40027,"is_reserved":false,"is_disabled":false,"rental_uris":{"android":"levelo://app?vid=2094f797-5ade-43c8-8970-90d6893d4a1e","ios":"levelo://app?vid=2094f797-5ade-43c8-8970-90d6893d4a1e"},"vehicle_type_id":"4","last_reported":1748938535,"current_range_meters":19200,"station_id":"ce4bho92rcd13ifvqh4g","pricing_plan_id":"cebpf4jnsgd1na2vs0mg"},{"bike_id":"143434d9-c66a-4f6f-95e1-671fee3703ec","system_id":"levelo_inurba_marseille","lat":43.25322,"lon":5.377037,"is_reserved":false,"is_disabled":false,"rental_uris":{"android":"levelo://app?vid=143434d9-c66a-4f6f-95e1-671fee3703ec","ios":"levelo://app?vid=143434d9-c66a-4f6f-95e1-671fee3703ec"},"vehicle_type_id":"4","last_reported":1748938535,"current_range_meters":19600,"station_id":"","pricing_plan_id":"cebpf4jnsgd1na2vs0mg"},{"bike_id":"ba077f0d-ff55-48f8-848e-fe52acafc990","system_id":"levelo_inurba_marseille","lat":43.30948,"lon":5.39033,"is_reserved":false,"is_disabled":false,"rental_uris":{"android":"levelo://app?vid=ba077f0d-ff55-48f8-848e-fe52acafc990","ios":"levelo://app?vid=ba077f0d-ff55-48f8-848e-fe52acafc990"},"vehicle_type_id":"4","last_reported":1748938535,"current_range_meters":19600,"station_id":"ce4bgup2rcd13ifvqco0","pricing_plan_id":"cebpf4jnsgd1na2vs0mg"},{"bike_id":"40cecf94-92a6-479e-bbdd-5e9980ac898c","system_id":"levelo_inurba_marseille","lat":43.28974,"lon":5.37844,"is_reserved":false,"is_disabled":false,"rental_uris":{"android":"levelo://app?vid=40cecf94-92a6-479e-bbdd-5e9980ac898c","ios":"levelo://app?vid=40cecf94-92a6-479e-bbdd-5e9980ac898c"},"vehicle_type_id":"4","last_reported":1748938535,"current_range_meters":19600,"station_id":"ce4bh9p2rcd13ifvqed0","pricing_plan_id":"cebpf4jnsgd1na2vs0mg"},{"bike_id":"1fc3f234-77ff-4efc-8f2c-308786809b56","system_id":"levelo_inurba_marseille","lat":43.2669,"lon":5.38274,"is_reserved":false,"is_disabled":false,"rental_uris":{"android":"levelo://app?vid=1fc3f234-77ff-4efc-8f2c-308786809b56","ios":"levelo://app?vid=1fc3f234-77ff-4efc-8f2c-308786809b56"},"vehicle_type_id":"4","last_reported":1748938535,"current_range_meters":19600,"station_id":"ce4bhg92rcd13ifvqf90","pricing_plan_id":"cebpf4jnsgd1na2vs0mg"},{"bike_id":"412476d0-8f3d-4c2a-b5ee-b3566995a855","system_id":"levelo_inurba_marseille","lat":43.24167,"lon":5.36394,"is_reserved":false,"is_disabled":false,"rental_uris":{"android":"levelo://app?vid=412476d0-8f3d-4c2a-b5ee-b3566995a855","ios":"levelo://app?vid=412476d0-8f3d-4c2a-b5ee-b3566995a855"},"vehicle_type_id":"4","last_reported":1748938535,"current_range_meters":19600,"station_id":"cpo36qri1sfpv3e86is0","pricing_plan_id":"cebpf4jnsgd1na2vs0mg"},{"bike_id":"34b7e1b4-c575-42aa-8b50-351efdd5d94b","system_id":"levelo_inurba_marseille","lat":43.30217,"lon":5.43771,"is_reserved":false,"is_disabled":false,"rental_uris":{"android":"levelo://app?vid=34b7e1b4-c575-42aa-8b50-351efdd5d94b","ios":"levelo://app?vid=34b7e1b4-c575-42aa-8b50-351efdd5d94b"},"vehicle_type_id":"4","last_reported":1748938535,"current_range_meters":20000,"station_id":"","pricing_plan_id":"cebpf4jnsgd1na2vs0mg"},{"bike_id":"7b463a8e-d906-486c-b40b-0bafef30edc3","system_id":"levelo_inurba_marseille","lat":43.29258,"lon":5.40901,"is_reserved":false,"is_disabled":false,"rental_uris":{"android":"levelo://app?vid=7b463a8e-d906-486c-b40b-0bafef30edc3","ios":"levelo://app?vid=7b463a8e-d906-486c-b40b-0bafef30edc3"},"vehicle_type_id":"4","last_reported":1748938535,"current_range_meters":20000,"station_id":"ce4bh192rcd13ifvqdc0","pricing_plan_id":"cebpf4jnsgd1na2vs0mg"},{"bike_id":"2633ea33-b62c-4a8f-8ec2-5929d2b53980","system_id":"levelo_inurba_marseille","lat":43.273185,"lon":5.390746,"is_reserved":false,"is_disabled":false,"rental_uris":{"android":"levelo://app?vid=2633ea33-b62c-4a8f-8ec2-5929d2b53980","ios":"levelo://app?vid=2633ea33-b62c-4a8f-8ec2-5929d2b53980"},"vehicle_type_id":"4","last_reported":1748938535,"current_range_meters":20000,"station_id":"ce4bhgp2rcd13ifvqfe0","pricing_plan_id":"cebpf4jnsgd1na2vs0mg"},{"bike_id":"b51b1db2-9b2e-49e8-b205-a71387b379e5","system_id":"levelo_inurba_marseille","lat":43.2596,"lon":5.40877,"is_reserved":false,"is_disabled":false,"rental_uris":{"android":"levelo://app?vid=b51b1db2-9b2e-49e8-b205-a71387b379e5","ios":"levelo://app?vid=b51b1db2-9b2e-49e8-b205-a71387b379e5"},"vehicle_type_id":"4","last_reported":1748938535,"current_range_meters":20000,"station_id":"ce4bhm92rcd13ifvqglg","pricing_plan_id":"cebpf4jnsgd1na2vs0mg"},{"bike_id":"f863b437-a2c2-4224-b5e7-277cf03d1230","system_id":"levelo_inurba_marseille","lat":43.24177,"lon":5.39723,"is_reserved":false,"is_disabled":false,"rental_uris":{"android":"levelo://app?vid=f863b437-a2c2-4224-b5e7-277cf03d1230","ios":"levelo://app?vid=f863b437-a2c2-4224-b5e7-277cf03d1230"},"vehicle_type_id":"4","last_reported":1748938535,"current_range_meters":20000,"station_id":"ce4bhn12rcd13ifvqgpg","pricing_plan_id":"cebpf4jnsgd1na2vs0mg"},{"bike_id":"cba6c288-7603-41a8-92a6-e8587baf262b","system_id":"levelo_inurba_marseille","lat":43.33723,"lon":5.39183,"is_reserved":false,"is_disabled":false,"rental_uris":{"android":"levelo://app?vid=cba6c288-7603-41a8-92a6-e8587baf262b","ios":"levelo://app?vid=cba6c288-7603-41a8-92a6-e8587baf262b"},"vehicle_type_id":"4","last_reported":1748938535,"current_range_meters":20000,"station_id":"ce4bhr92rcd13ifvqhsg","pricing_plan_id":"cebpf4jnsgd1na2vs0mg"},{"bike_id":"4dd90fe0-496f-4cdd-b1ae-d82718f691e0","system_id":"levelo_inurba_marseille","lat":43.27911,"lon":5.42278,"is_reserved":false,"is_disabled":false,"rental_uris":{"android":"levelo://app?vid=4dd90fe0-496f-4cdd-b1ae-d82718f691e0","ios":"levelo://app?vid=4dd90fe0-496f-4cdd-b1ae-d82718f691e0"},"vehicle_type_id":"4","last_reported":1748938535,"current_range_meters":20400,"station_id":"","pricing_plan_id":"cebpf4jnsgd1na2vs0mg"},{"bike_id":"96c57d21-6980-4ee5-96a7-8e2360c37425","system_id":"levelo_inurba_marseille","lat":43.312216,"lon":5.368584,"is_reserved":false,"is_disabled":false,"rental_uris":{"android":"levelo://app?vid=96c57d21-6980-4ee5-96a7-8e2360c37425","ios":"levelo://app?vid=96c57d21-6980-4ee5-96a7-8e2360c37425"},"vehicle_type_id":"4","last_reported":1748938535,"current_range_meters":20400,"station_id":"ce4bgl92rcd13ifvqbq0","pricing_plan_id":"cebpf4jnsgd1na2vs0mg"},{"bike_id":"110ced03-9012-424c-ac4d-063757441d17","system_id":"levelo_inurba_marseille","lat":43.30309,"lon":5.36901,"is_reserved":false,"is_disabled":false,"rental_uris":{"android":"levelo://app?vid=110ced03-9012-424c-ac4d-063757441d17","ios":"levelo://app?vid=110ced03-9012-424c-ac4d-063757441d17"},"vehicle_type_id":"4","last_reported":1748938535,"current_range_meters":20400,"station_id":"ce4bgqh2rcd13ifvqc5g","pricing_plan_id":"cebpf4jnsgd1na2vs0mg"},{"bike_id":"baa46a0d-4762-46c3-9ccc-7a85ba696a51","system_id":"levelo_inurba_marseille","lat":43.31319,"lon":5.36736,"is_reserved":false,"is_disabled":false,"rental_uris":{"android":"levelo://app?vid=baa46a0d-4762-46c3-9ccc-7a85ba696a51","ios":"levelo://app?vid=baa46a0d-4762-46c3-9ccc-7a85ba696a51"},"vehicle_type_id":"4","last_reported":1748938535,"current_range_meters":20400,"station_id":"ce4bgr92rcd13ifvqc6g","pricing_plan_id":"cebpf4jnsgd1na2vs0mg"},{"bike_id":"153a7c82-16f9-4816-bc37-c87ef055d462","system_id":"levelo_inurba_marseille","lat":43.30533,"lon":5.36527,"is_reserved":false,"is_disabled":false,"rental_uris":{"android":"levelo://app?vid=153a7c82-16f9-4816-bc37-c87ef055d462","ios":"levelo://app?vid=153a7c82-16f9-4816-bc37-c87ef055d462"},"vehicle_type_id":"4","last_reported":1748938535,"current_range_meters":20400,"station_id":"ce4bgs12rcd13ifvqcag","pricing_plan_id":"cebpf4jnsgd1na2vs0mg"},{"bike_id":"7cb60eb0-35c4-4e6b-b3d2-d45a2f03d264","system_id":"levelo_inurba_marseille","lat":43.30948,"lon":5.39031,"is_reserved":false,"is_disabled":false,"rental_uris":{"android":"levelo://app?vid=7cb60eb0-35c4-4e6b-b3d2-d45a2f03d264","ios":"levelo://app?vid=7cb60eb0-35c4-4e6b-b3d2-d45a2f03d264"},"vehicle_type_id":"4","last_reported":1748938535,"current_range_meters":20400,"station_id":"ce4bgup2rcd13ifvqco0","pricing_plan_id":"cebpf4jnsgd1na2vs0mg"},{"bike_id":"4ca01b7f-f941-4994-b984-e544190d4f6a","system_id":"levelo_inurba_marseille","lat":43.28033,"lon":5.36949,"is_reserved":false,"is_disabled":false,"rental_uris":{"android":"levelo://app?vid=4ca01b7f-f941-4994-b984-e544190d4f6a","ios":"levelo://app?vid=4ca01b7f-f941-4994-b984-e544190d4f6a"},"vehicle_type_id":"4","last_reported":1748938535,"current_range_meters":20400,"station_id":"ce4bha12rcd13ifvqef0","pricing_plan_id":"cebpf4jnsgd1na2vs0mg"},{"bike_id":"7a549ba7-1f68-44c8-b822-3e71973f94b2","system_id":"levelo_inurba_marseille","lat":43.2512,"lon":5.40319,"is_reserved":false,"is_disabled":false,"rental_uris":{"android":"levelo://app?vid=7a549ba7-1f68-44c8-b822-3e71973f94b2","ios":"levelo://app?vid=7a549ba7-1f68-44c8-b822-3e71973f94b2"},"vehicle_type_id":"4","last_reported":1748938535,"current_range_meters":20400,"station_id":"ce4bhlh2rcd13ifvqgig","pricing_plan_id":"cebpf4jnsgd1na2vs0mg"},{"bike_id":"b1dbcd26-565c-4460-8a5f-38752cca7b5e","system_id":"levelo_inurba_marseille","lat":43.24098,"lon":5.37763,"is_reserved":false,"is_disabled":false,"rental_uris":{"android":"levelo://app?vid=b1dbcd26-565c-4460-8a5f-38752cca7b5e","ios":"levelo://app?vid=b1dbcd26-565c-4460-8a5f-38752cca7b5e"},"vehicle_type_id":"4","last_reported":1748938535,"current_range_meters":20400,"station_id":"ce4bhnp2rcd13ifvqgvg","pricing_plan_id":"cebpf4jnsgd1na2vs0mg"},{"bike_id":"7a316c84-42fc-45e1-854a-5047a800d3db","system_id":"levelo_inurba_marseille","lat":43.29583,"lon":5.37525,"is_reserved":false,"is_disabled":false,"rental_uris":{"android":"levelo://app?vid=7a316c84-42fc-45e1-854a-5047a800d3db","ios":"levelo://app?vid=7a316c84-42fc-45e1-854a-5047a800d3db"},"vehicle_type_id":"4","last_reported":1748938535,"current_range_meters":20800,"station_id":"ce4bgh92rcd13ifvqb50","pricing_plan_id":"cebpf4jnsgd1na2vs0mg"},{"bike_id":"857a9473-352b-489b-b89e-fa341e764ec6","system_id":"levelo_inurba_marseille","lat":43.29364,"lon":5.37869,"is_reserved":false,"is_disabled":false,"rental_uris":{"android":"levelo://app?vid=857a9473-352b-489b-b89e-fa341e764ec6","ios":"levelo://app?vid=857a9473-352b-489b-b89e-fa341e764ec6"},"vehicle_type_id":"4","last_reported":1748938535,"current_range_meters":20800,"station_id":"ce4bgjh2rcd13ifvqbf0","pricing_plan_id":"cebpf4jnsgd1na2vs0mg"},{"bike_id":"f236e7b3-c169-4603-805c-2142b679eb57","system_id":"levelo_inurba_marseille","lat":43.29505,"lon":5.37504,"is_reserved":false,"is_disabled":false,"rental_uris":{"android":"levelo://app?vid=f236e7b3-c169-4603-805c-2142b679eb57","ios":"levelo://app?vid=f236e7b3-c169-4603-805c-2142b679eb57"},"vehicle_type_id":"4","last_reported":1748938535,"current_range_meters":20800,"station_id":"ce4bgkp2rcd13ifvqbmg","pricing_plan_id":"cebpf4jnsgd1na2vs0mg"},{"bike_id":"b83f5450-440b-4af1-862f-facee326feff","system_id":"levelo_inurba_marseille","lat":43.29526,"lon":5.37501,"is_reserved":false,"is_disabled":false,"rental_uris":{"android":"levelo://app?vid=b83f5450-440b-4af1-862f-facee326feff","ios":"levelo://app?vid=b83f5450-440b-4af1-862f-facee326feff"},"vehicle_type_id":"4","last_reported":1748938535,"current_range_meters":20800,"station_id":"ce4bgkp2rcd13ifvqbmg","pricing_plan_id":"cebpf4jnsgd1na2vs0mg"},{"bike_id":"dfa53992-3af7-4de3-a929-dedb3588db26","system_id":"levelo_inurba_marseille","lat":43.30909,"lon":5.3684,"is_reserved":false,"is_disabled":false,"rental_uris":{"android":"levelo://app?vid=dfa53992-3af7-4de3-a929-dedb3588db26","ios":"levelo://app?vid=dfa53992-3af7-4de3-a929-dedb3588db26"},"vehicle_type_id":"4","last_reported":1748938535,"current_range_meters":20800,"station_id":"ce4bgn92rcd13ifvqbvg","pricing_plan_id":"cebpf4jnsgd1na2vs0mg"},{"bike_id":"e7f1b26b-538d-4b0c-b898-950d7c3b6c54","system_id":"levelo_inurba_marseille","lat":43.30512,"lon":5.36723,"is_reserved":false,"is_disabled":false,"rental_uris":{"android":"levelo://app?vid=e7f1b26b-538d-4b0c-b898-950d7c3b6c54","ios":"levelo://app?vid=e7f1b26b-538d-4b0c-b898-950d7c3b6c54"},"vehicle_type_id":"4","last_reported":1748938535,"current_range_meters":20800,"station_id":"ce4bgrp2rcd13ifvqc9g","pricing_plan_id":"cebpf4jnsgd1na2vs0mg"},{"bike_id":"2bbfad85-38e1-4ef6-bf01-7fd385e575b3","system_id":"levelo_inurba_marseille","lat":43.3015,"lon":5.37427,"is_reserved":false,"is_disabled":false,"rental_uris":{"android":"levelo://app?vid=2bbfad85-38e1-4ef6-bf01-7fd385e575b3","ios":"levelo://app?vid=2bbfad85-38e1-4ef6-bf01-7fd385e575b3"},"vehicle_type_id":"4","last_reported":1748938535,"current_range_meters":20800,"station_id":"ce4bgs92rcd13ifvqcc0","pricing_plan_id":"cebpf4jnsgd1na2vs0mg"},{"bike_id":"00950e3b-443f-44e1-8542-c6f21389b213","system_id":"levelo_inurba_marseille","lat":43.29093,"lon":5.38135,"is_reserved":false,"is_disabled":false,"rental_uris":{"android":"levelo://app?vid=00950e3b-443f-44e1-8542-c6f21389b213","ios":"levelo://app?vid=00950e3b-443f-44e1-8542-c6f21389b213"},"vehicle_type_id":"4","last_reported":1748938535,"current_range_meters":20800,"station_id":"ce4bh512rcd13ifvqe2g","pricing_plan_id":"cebpf4jnsgd1na2vs0mg"},{"bike_id":"ce3861f0-8083-4c09-b0ee-ce0a99378ef5","system_id":"levelo_inurba_marseille","lat":43.26779,"lon":5.39468,"is_reserved":false,"is_disabled":false,"rental_uris":{"android":"levelo://app?vid=ce3861f0-8083-4c09-b0ee-ce0a99378ef5","ios":"levelo://app?vid=ce3861f0-8083-4c09-b0ee-ce0a99378ef5"},"vehicle_type_id":"4","last_reported":1748938535,"current_range_meters":20800,"station_id":"ce4bhh12rcd13ifvqfg0","pricing_plan_id":"cebpf4jnsgd1na2vs0mg"},{"bike_id":"d4eccda3-3c97-47a6-aee5-8e90516956b6","system_id":"levelo_inurba_marseille","lat":43.26055,"lon":5.39404,"is_reserved":false,"is_disabled":false,"rental_uris":{"android":"levelo://app?vid=d4eccda3-3c97-47a6-aee5-8e90516956b6","ios":"levelo://app?vid=d4eccda3-3c97-47a6-aee5-8e90516956b6"},"vehicle_type_id":"4","last_reported":1748938535,"current_range_meters":20800,"station_id":"ce4bhh92rcd13ifvqfj0","pricing_plan_id":"cebpf4jnsgd1na2vs0mg"},{"bike_id":"203b951d-7233-481f-ac78-166d5cb5e3a0","system_id":"levelo_inurba_marseille","lat":43.24187,"lon":5.39713,"is_reserved":false,"is_disabled":false,"rental_uris":{"android":"levelo://app?vid=203b951d-7233-481f-ac78-166d5cb5e3a0","ios":"levelo://app?vid=203b951d-7233-481f-ac78-166d5cb5e3a0"},"vehicle_type_id":"4","last_reported":1748938535,"current_range_meters":20800,"station_id":"ce4bhn12rcd13ifvqgpg","pricing_plan_id":"cebpf4jnsgd1na2vs0mg"},