{"last_updated":1747519717,"ttl":60,"version":"2.2","data":{"bikes":[{"bike_id":"c0b9fd4f-e181-46ce-b0bf-f5119973334f","system_id":"levelo_inurba_marseille","lat":43.33771,"lon":5.37424,"is_reserved":false,"is_disabled":false,"rental_uris":{"android":"levelo://app?vid=c0b9fd4f-e181-46ce-b0bf-f5119973334f","ios":"levelo://app?vid=c0b9fd4f-e181-46ce-b0bf-f5119973334f"},"vehicle_type_id":"4","last_reported":1747519717,"current_range_meters":3600,"station_id":"","pricing_plan_id":"cebpf4jnsgd1na2vs0mg"},{"bike_id":"fc2577e7-1497-425b-9d4f-ab8d7dc843c6","system_id":"levelo_inurba_marseille","lat":43.33771,"lon":5.37485,"is_reserved":false,"is_disabled":true,"rental_uris":{"android":"levelo://app?vid=fc2577e7-1497-425b-9d4f-ab8d7dc843c6","ios":"levelo://app?vid=fc2577e7-1497-425b-9d4f-ab8d7dc843c6"},"vehicle_type_id":"4","last_reported":1747519717,"current_range_meters":0,"station_id":"","pricing_plan_id":"cebpf4jnsgd1na2vs0mg"},{"bike_id":"7e8f9622-74b3-4df1-9fba-94b450718227","system_id":"levelo_inurba_marseille","lat":43.28783,"lon":5.38246,"is_reserved":false,"is_disabled":true,"rental_uris":{"android":"levelo://app?vid=7e8f9622-74b3-4df1-9fba-94b450718227","ios":"levelo://app?vid=7e8f9622-74b3-4df1-9fba-94b450718227"},"vehicle_type_id":"4","last_reported":1747519717,"current_range_meters":0,"station_id":"","pricing_plan_id":"cebpf4jnsgd1na2vs0mg"},{"bike_id":"80d0d83f-909d-4568-b4e7-8a3ef4eed2de","system_id":"levelo_inurba_marseille","lat":43.254075,"lon":5.418983,"is_reserved":false,"is_disabled":true,"rental_uris":{"android":"levelo://app?vid=80d0d83f-909d-4568-b4e7-8a3ef4eed2de","ios":"levelo://app?vid=80d0d83f-909d-4568-b4e7-8a3ef4eed2de"},"vehicle_type_id":"4","last_reported":1747519717,"current_range_meters":0,"station_id":"","pricing_plan_id":"cebpf4jnsgd1na2vs0mg"},{"bike_id":"59e33bab-443b-4b82-946a-94b602858b07","system_id":"levelo_inurba_marseille","lat":43.28188,"lon":5.38472,"is_reserved":false,"is_disabled":true,"rental_uris":{"android":"levelo://app?vid=59e33bab-443b-4b82-946a-94b602858b07","ios":"levelo://app?vid=59e33bab-443b-4b82-946a-94b602858b07"},"vehicle_type_id":"4","last_reported":1747519717,"current_range_meters":0,"station_id":"","pricing_plan_id":"cebpf4jnsgd1na2vs0mg"},{"bike_id":"0b7b8d9e-a565-4a78-b09b-a8c868649f48","system_id":"levelo_inurba_marseille","lat":43.337444,"lon":5.374475,"is_reserved":false,"is_disabled":true,"rental_uris":{"android":"levelo://app?vid=0b7b8d9e-a565-4a78-b09b-a8c868649f48","ios":"levelo://app?vid=0b7b8d9e-a565-4a78-b09b-a8c868649f48"},"vehicle_type_id":"4","last_reported":1747519717,"current_range_meters":0,"station_id":"","pricing_plan_id":"cebpf4jnsgd1na2vs0mg"},{"bike_id":"ce4325af-2448-4172-bdec-81d552ee0b62","system_id":"levelo_inurba_marseille","lat":43.26166,"lon":5.42005,"is_reserved":false,"is_disabled":true,"rental_uris":{"android":"levelo://app?vid=ce4325af-2448-4172-bdec-81d552ee0b62","ios":"levelo://app?vid=ce4325af-2448-4172-bdec-81d552ee0b62"},"vehicle_type_id":"4","last_reported":1747519717,"current_range_meters":0,"station_id":"","pricing_plan_id":"cebpf4jnsgd1na2vs0mg"},{"bike_id":"23939faf-d206-4b93-ade4-199417584041","system_id":"levelo_inurba_marseille","lat":43.24936,"lon":5.37539,"is_reserved":false,"is_disabled":true,"rental_uris":{"android":"levelo://app?vid=23939faf-d206-4b93-ade4-199417584041","ios":"levelo://app?vid=23939faf-d206-4b93-ade4-199417584041"},"vehicle_type_id":"4","last_reported":1747519717,"current_range_meters":0,"station_id":"","pricing_plan_id":"cebpf4jnsgd1na2vs0mg"},{"bike_id":"c94af0c5-fcda-4413-885f-4b4f3e453db7","system_id":"levelo_inurba_marseille","lat":43.24548,"lon":5.3732,"is_reserved":false,"is_disabled":true,"rental_uris":{"android":"levelo://app?vid=c94af0c5-fcda-4413-885f-4b4f3e453db7","ios":"levelo://app?vid=c94af0c5-fcda-4413-885f-4b4f3e453db7"},"vehicle_type_id":"4","last_reported":1747519717,"current_range_meters":0,"station_id":"","pricing_plan_id":"cebpf4jnsgd1na2vs0mg"},{"bike_id":"792567c6-0442-4011-aff0-9c05e25deb48","system_id":"levelo_inurba_marseille","lat":43.337444,"lon":5.374475,"is_reserved":false,"is_disabled":true,"rental_uris":{"android":"levelo://app?vid=792567c6-0442-4011-aff0-9c05e25deb48","ios":"levelo://app?vid=792567c6-0442-4011-aff0-9c05e25deb48"},"vehicle_type_id":"4","last_reported":1747519717,"current_range_meters":0,"station_id":"","pricing_plan_id":"cebpf4jnsgd1na2vs0mg"},{"bike_id":"bb0baa39-1e01-43e0-a77c-5ba8d631e8a2","system_id":"levelo_inurba_marseille","lat":43.27256,"lon":5.3855,"is_reserved":false,"is_disabled":true,"rental_uris":{"android":"levelo://app?vid=bb0baa39-1e01-43e0-a77c-5ba8d631e8a2","ios":"levelo://app?vid=bb0baa39-1e01-43e0-a77c-5ba8d631e8a2"},"vehicle_type_id":"4","last_reported":1747519717,"current_range_meters":0,"station_id":"","pricing_plan_id":"cebpf4jnsgd1na2vs0mg"},{"bike_id":"b77386f6-d95e-4896-90f8-463e136a5631","system_id":"levelo_inurba_marseille","lat":43.29299,"lon":5.37452,"is_reserved":false,"is_disabled":true,"rental_uris":{"android":"levelo://app?vid=b77386f6-d95e-4896-90f8-463e136a5631","ios":"levelo://app?vid=b77386f6-d95e-4896-90f8-463e136a5631"},"vehicle_type_id":"4","last_reported":1747519717,"current_range_meters":0,"station_id":"ce4bgi12rcd13ifvqb70","pricing_plan_id":"cebpf4jnsgd1na2vs0mg"},{"bike_id":"3ef74f8f-abb3-4b3e-840c-290175880541","system_id":"levelo_inurba_marseille","lat":43.310735,"lon":5.383609,"is_reserved":false,"is_disabled":true,"rental_uris":{"android":"levelo://app?vid=3ef74f8f-abb3-4b3e-840c-290175880541","ios":"levelo://app?vid=3ef74f8f-abb3-4b3e-840c-290175880541"},"vehicle_type_id":"4","last_reported":1747519717,"current_range_meters":0,"station_id":"ce4bgv92rcd13ifvqcr0","pricing_plan_id":"cebpf4jnsgd1na2vs0mg"},{"bike_id":"fae62c03-54ad-445c-ae6a-00bdd5bb28da","system_id":"levelo_inurba_marseille","lat":43.31072,"lon":5.38363,"is_reserved":false,"is_disabled":true,"rental_uris":{"android":"levelo://app?vid=fae62c03-54ad-445c-ae6a-00bdd5bb28da","ios":"levelo://app?vid=fae62c03-54ad-445c-ae6a-00bdd5bb28da"},"vehicle_type_id":"4","last_reported":1747519717,"current_range_meters":0,"station_id":"ce4bgv92rcd13ifvqcr0","pricing_plan_id":"cebpf4jnsgd1na2vs0mg"},{"bike_id":"d722ce22-c9c1-4194-81bd-0f1e56cb9a25","system_id":"levelo_inurba_marseille","lat":43.28848,"lon":5.39313,"is_reserved":false,"is_disabled":true,"rental_uris":{"android":"levelo://app?vid=d722ce22-c9c1-4194-81bd-0f1e56cb9a25","ios":"levelo://app?vid=d722ce22-c9c1-4194-81bd-0f1e56cb9a25"},"vehicle_type_id":"4","last_reported":1747519717,"current_range_meters":0,"station_id":"ce4bh2p2rcd13ifvqdi0","pricing_plan_id":"cebpf4jnsgd1na2vs0mg"},{"bike_id":"e62b182d-4f96-430c-8805-6434088e3bd0","system_id":"levelo_inurba_marseille","lat":43.24806,"lon":5.37448,"is_reserved":false,"is_disabled":true,"rental_uris":{"android":"levelo://app?vid=e62b182d-4f96-430c-8805-6434088e3bd0","ios":"levelo://app?vid=e62b182d-4f96-430c-8805-6434088e3bd0"},"vehicle_type_id":"4","last_reported":1747519717,"current_range_meters":0,"station_id":"ce4bhgh2rcd13ifvqfb0","pricing_plan_id":"cebpf4jnsgd1na2vs0mg"},{"bike_id":"4e5cfbec-6aac-4ee7-ac9c-110bf218aee5","system_id":"levelo_inurba_marseille","lat":43.28159,"lon":5.42658,"is_reserved":false,"is_disabled":true,"rental_uris":{"android":"levelo://app?vid=4e5cfbec-6aac-4ee7-ac9c-110bf218aee5","ios":"levelo://app?vid=4e5cfbec-6aac-4ee7-ac9c-110bf218aee5"},"vehicle_type_id":"4","last_reported":1747519717,"current_range_meters":0,"station_id":"ce4bhnh2rcd13ifvqgug","pricing_plan_id":"cebpf4jnsgd1na2vs0mg"},{"bike_id":"c7224d7b-d179-43c0-83cf-877021dd898f","system_id":"levelo_inurba_marseille","lat":43.30355,"lon":5.418757,"is_reserved":false,"is_disabled":true,"rental_uris":{"android":"levelo://app?vid=c7224d7b-d179-43c0-83cf-877021dd898f","ios":"levelo://app?vid=c7224d7b-d179-43c0-83cf-877021dd898f"},"vehicle_type_id":"4","last_reported":1747519717,"current_range_meters":0,"station_id":"ce4bhop2rcd13ifvqh7g","pricing_plan_id":"cebpf4jnsgd1na2vs0mg"},{"bike_id":"3388862d-1718-4cbd-af6b-91bf7a9a8605","system_id":"levelo_inurba_marseille","lat":43.31088,"lon":5.42427,"is_reserved":false,"is_disabled":true,"rental_uris":{"android":"levelo://app?vid=3388862d-1718-4cbd-af6b-91bf7a9a8605","ios":"levelo://app?vid=3388862d-1718-4cbd-af6b-91bf7a9a8605"},"vehicle_type_id":"4","last_reported":1747519717,"current_range_meters":0,"station_id":"ce4bhp92rcd13ifvqhag","pricing_plan_id":"cebpf4jnsgd1na2vs0mg"},{"bike_id":"761f97ef-3d44-49e1-a980-dbcf9a00e013","system_id":"levelo_inurba_marseille","lat":43.22503,"lon":5.3477,"is_reserved":false,"is_disabled":true,"rental_uris":{"android":"levelo://app?vid=761f97ef-3d44-49e1-a980-dbcf9a00e013","ios":"levelo://app?vid=761f97ef-3d44-49e1-a980-dbcf9a00e013"},"vehicle_type_id":"4","last_reported":1747519717,"current_range_meters":0,"station_id":"st_cvj5dfep6f1abm77gieg","pricing_plan_id":"cebpf4jnsgd1na2vs0mg"},{"bike_id":"570f23ee-7b81-41da-b5a6-953e454ca4ca","system_id":"levelo_inurba_marseille","lat":43.29532,"lon":5.38546,"is_reserved":false,"is_disabled":true,"rental_uris":{"android":"levelo://app?vid=570f23ee-7b81-41da-b5a6-953e454ca4ca","ios":"levelo://app?vid=570f23ee-7b81-41da-b5a6-953e454ca4ca"},"vehicle_type_id":"4","last_reported":1747519717,"current_range_meters":400,"station_id":"ce4bgih2rcd13ifvqba0","pricing_plan_id":"cebpf4jnsgd1na2vs0mg"},{"bike_id":"79014c20-9fb3-4bde-888f-87cd4445595a","system_id":"levelo_inurba_marseille","lat":43.31725,"lon":5.424,"is_reserved":false,"is_disabled":true,"rental_uris":{"android":"levelo://app?vid=79014c20-9fb3-4bde-888f-87cd4445595a","ios":"levelo://app?vid=79014c20-9fb3-4bde-888f-87cd4445595a"},"vehicle_type_id":"4","last_reported":1747519717,"current_range_meters":400,"station_id":"ce4bhp92rcd13ifvqhbg","pricing_plan_id":"cebpf4jnsgd1na2vs0mg"},{"bike_id":"78a72d2e-086e-4202-8619-96d6a7e70ccc","system_id":"levelo_inurba_marseille","lat":43.28363,"lon":5.39907,"is_reserved":false,"is_disabled":true,"rental_uris":{"android":"levelo://app?vid=78a72d2e-086e-4202-8619-96d6a7e70ccc","ios":"levelo://app?vid=78a72d2e-086e-4202-8619-96d6a7e70ccc"},"vehicle_type_id":"4","last_reported":1747519717,"current_range_meters":800,"station_id":"","pricing_plan_id":"cebpf4jnsgd1na2vs0mg"},{"bike_id":"a915da08-5621-4abf-afcd-b10cf6d04b89","system_id":"levelo_inurba_marseille","lat":43.29535,"lon":5.37503,"is_reserved":false,"is_disabled":true,"rental_uris":{"android":"levelo://app?vid=a915da08-5621-4abf-afcd-b10cf6d04b89","ios":"levelo://app?vid=a915da08-5621-4abf-afcd-b10cf6d04b89"},"vehicle_type_id":"4","last_reported":1747519717,"current_range_meters":800,"station_id":"ce4bgkp2rcd13ifvqbmg","pricing_plan_id":"cebpf4jnsgd1na2vs0mg"},{"bike_id":"59f9598d-e110-4192-bc18-7a255f754535","system_id":"levelo_inurba_marseille","lat":43.21751,"lon":5.34623,"is_reserved":false,"is_disabled":true,"rental_uris":{"android":"levelo://app?vid=59f9598d-e110-4192-bc18-7a255f754535","ios":"levelo://app?vid=59f9598d-e110-4192-bc18-7a255f754535"},"vehicle_type_id":"4","last_reported":1747519717,"current_range_meters":800,"station_id":"st_cvj6r9ubvosntc0bgbag","pricing_plan_id":"cebpf4jnsgd1na2vs0mg"},{"bike_id":"550b917b-ee99-432c-8213-e48cc7ede0a4","system_id":"levelo_inurba_marseille","lat":43.27372,"lon":5.36256,"is_reserved":false,"is_disabled":true,"rental_uris":{"android":"levelo://app?vid=550b917b-ee99-432c-8213-e48cc7ede0a4","ios":"levelo://app?vid=550b917b-ee99-432c-8213-e48cc7ede0a4"},"vehicle_type_id":"4","last_reported":1747519717,"current_range_meters":1200,"station_id":"ce4bhbh2rcd13ifvqeo0","pricing_plan_id":"cebpf4jnsgd1na2vs0mg"},{"bike_id":"15bdb2cb-60a0-4c42-8c18-0e6826a8f67b","system_id":"levelo_inurba_marseille","lat":43.27423,"lon":5.39429,"is_reserved":false,"is_disabled":true,"rental_uris":{"android":"levelo://app?vid=15bdb2cb-60a0-4c42-8c18-0e6826a8f67b","ios":"levelo://app?vid=15bdb2cb-60a0-4c42-8c18-0e6826a8f67b"},"vehicle_type_id":"4","last_reported":1747519717,"current_range_meters":1200,"station_id":"ce4bhdp2rcd13ifvqf20","pricing_plan_id":"cebpf4jnsgd1na2vs0mg"},{"bike_id":"b1b53702-5850-4106-bc29-0be507453be9","system_id":"levelo_inurba_marseille","lat":43.26568,"lon":5.39005,"is_reserved":false,"is_disabled":true,"rental_uris":{"android":"levelo://app?vid=b1b53702-5850-4106-bc29-0be507453be9","ios":"levelo://app?vid=b1b53702-5850-4106-bc29-0be507453be9"},"vehicle_type_id":"4","last_reported":1747519717,"current_range_meters":1200,"station_id":"ce4bhe12rcd13ifvqf30","pricing_plan_id":"cebpf4jnsgd1na2vs0mg"},{"bike_id":"a870f763-98f7-46d5-ac70-dd8136b807ad","system_id":"levelo_inurba_marseille","lat":43.26057,"lon":5.39393,"is_reserved":false,"is_disabled":true,"rental_uris":{"android":"levelo://app?vid=a870f763-98f7-46d5-ac70-dd8136b807ad","ios":"levelo://app?vid=a870f763-98f7-46d5-ac70-dd8136b807ad"},"vehicle_type_id":"4","last_reported":1747519717,"current_range_meters":1200,"station_id":"ce4bhh92rcd13ifvqfj0","pricing_plan_id":"cebpf4jnsgd1na2vs0mg"},{"bike_id":"5b4461eb-b127-4223-b2d7-392b1ccde606","system_id":"levelo_inurba_marseille","lat":43.258241,"lon":5.394416,"is_reserved":false,"is_disabled":true,"rental_uris":{"android":"levelo://app?vid=5b4461eb-b127-4223-b2d7-392b1ccde606","ios":"levelo://app?vid=5b4461eb-b127-4223-b2d7-392b1ccde606"},"vehicle_type_id":"4","last_reported":1747519717,"current_range_meters":1200,"station_id":"ce4bhip2rcd13ifvqft0","pricing_plan_id":"cebpf4jnsgd1na2vs0mg"},{"bike_id":"8c217a7f-7fd8-4499-8a59-43e5c4ecc7d0","system_id":"levelo_inurba_marseille","lat":43.30741,"lon":5.42431,"is_reserved":false,"is_disabled":true,"rental_uris":{"android":"levelo://app?vid=8c217a7f-7fd8-4499-8a59-43e5c4ecc7d0","ios":"levelo://app?vid=8c217a7f-7fd8-4499-8a59-43e5c4ecc7d0"},"vehicle_type_id":"4","last_reported":1747519717,"current_range_meters":1200,"station_id":"st_cvj6ca6bvosntc0bfgr0","pricing_plan_id":"cebpf4jnsgd1na2vs0mg"},{"bike_id":"d8911881-e82e-4c7b-963e-42a565f0cadb","system_id":"levelo_inurba_marseille","lat":43.27021,"lon":5.40716,"is_reserved":false,"is_disabled":true,"rental_uris":{"android":"levelo://app?vid=d8911881-e82e-4c7b-963e-42a565f0cadb","ios":"levelo://app?vid=d8911881-e82e-4c7b-963e-42a565f0cadb"},"vehicle_type_id":"4","last_reported":1747519717,"current_range_meters":1600,"station_id":"","pricing_plan_id":"cebpf4jnsgd1na2vs0mg"},{"bike_id":"e896ed05-af2c-492f-9e6d-c5b57a0f471a","system_id":"levelo_inurba_marseille","lat":43.30135,"lon":5.38768,"is_reserved":false,"is_disabled":true,"rental_uris":{"android":"levelo://app?vid=e896ed05-af2c-492f-9e6d-c5b57a0f471a","ios":"levelo://app?vid=e896ed05-af2c-492f-9e6d-c5b57a0f471a"},"vehicle_type_id":"4","last_reported":1747519717,"current_range_meters":1600,"station_id":"ce4bghh2rcd13ifvqb60","pricing_plan_id":"cebpf4jnsgd1na2vs0mg"},{"bike_id":"25ea4c9f-1c90-4913-b290-7071c0e25dd1","system_id":"levelo_inurba_marseille","lat":43.29967,"lon":5.385,"is_reserved":false,"is_disabled":true,"rental_uris":{"android":"levelo://app?vid=25ea4c9f-1c90-4913-b290-7071c0e25dd1","ios":"levelo://app?vid=25ea4c9f-1c90-4913-b290-7071c0e25dd1"},"vehicle_type_id":"4","last_reported":1747519717,"current_range_meters":1600,"station_id":"ce4bgj92rcd13ifvqbd0","pricing_plan_id":"cebpf4jnsgd1na2vs0mg"},{"bike_id":"e052affa-ef78-48da-9a07-44efa2836a2d","system_id":"levelo_inurba_marseille","lat":43.30957,"lon":5.390305,"is_reserved":false,"is_disabled":true,"rental_uris":{"android":"levelo://app?vid=e052affa-ef78-48da-9a07-44efa2836a2d","ios":"levelo://app?vid=e052affa-ef78-48da-9a07-44efa2836a2d"},"vehicle_type_id":"4","last_reported":1747519717,"current_range_meters":2000,"station_id":"ce4bgup2rcd13ifvqco0","pricing_plan_id":"cebpf4jnsgd1na2vs0mg"},{"bike_id":"5c7ea5a8-df7e-447a-9dc4-3f54440098b4","system_id":"levelo_inurba_marseille","lat":43.30936,"lon":5.40142,"is_reserved":false,"is_disabled":true,"rental_uris":{"android":"levelo://app?vid=5c7ea5a8-df7e-447a-9dc4-3f54440098b4","ios":"levelo://app?vid=5c7ea5a8-df7e-447a-9dc4-3f54440098b4"},"vehicle_type_id":"4","last_reported":1747519717,"current_range_meters":2000,"station_id":"ce4bgvp2rcd13ifvqct0","pricing_plan_id":"cebpf4jnsgd1na2vs0mg"},{"bike_id":"9047ecc2-615c-406b-81c4-926e41d9e6e7","system_id":"levelo_inurba_marseille","lat":43.29535,"lon":5.39035,"is_reserved":false,"is_disabled":true,"rental_uris":{"android":"levelo://app?vid=9047ecc2-615c-406b-81c4-926e41d9e6e7","ios":"levelo://app?vid=9047ecc2-615c-406b-81c4-926e41d9e6e7"},"vehicle_type_id":"4","last_reported":1747519717,"current_range_meters":2000,"station_id":"ce4bh3p2rcd13ifvqdp0","pricing_plan_id":"cebpf4jnsgd1na2vs0mg"},{"bike_id":"394abb2b-2736-45b5-a619-58eeccc0cdc5","system_id":"levelo_inurba_marseille","lat":43.261907,"lon":5.374477,"is_reserved":false,"is_disabled":true,"rental_uris":{"android":"levelo://app?vid=394abb2b-2736-45b5-a619-58eeccc0cdc5","ios":"levelo://app?vid=394abb2b-2736-45b5-a619-58eeccc0cdc5"},"vehicle_type_id":"4","last_reported":1747519717,"current_range_meters":2000,"station_id":"ce4bhgp2rcd13ifvqfc0","pricing_plan_id":"cebpf4jnsgd1na2vs0mg"},{"bike_id":"8ee42b5c-8302-4e0b-9b66-e274d1e532d1","system_id":"levelo_inurba_marseille","lat":43.250016,"lon":5.389208,"is_reserved":false,"is_disabled":true,"rental_uris":{"android":"levelo://app?vid=8ee42b5c-8302-4e0b-9b66-e274d1e532d1","ios":"levelo://app?vid=8ee42b5c-8302-4e0b-9b66-e274d1e532d1"},"vehicle_type_id":"4","last_reported":1747519717,"current_range_meters":2000,"station_id":"ce4bhgp2rcd13ifvqfd0","pricing_plan_id":"cebpf4jnsgd1na2vs0mg"},{"bike_id":"3e6256e7-af03-4607-beba-18044e09d88e","system_id":"levelo_inurba_marseille","lat":43.28404,"lon":5.37516,"is_reserved":false,"is_disabled":false,"rental_uris":{"android":"levelo://app?vid=3e6256e7-af03-4607-beba-18044e09d88e","ios":"levelo://app?vid=3e6256e7-af03-4607-beba-18044e09d88e"},"vehicle_type_id":"4","last_reported":1747519717,"current_range_meters":2800,"station_id":"ce4bh412rcd13ifvqds0","pricing_plan_id":"cebpf4jnsgd1na2vs0mg"},{"bike_id":"e2d83be7-c6e2-4389-9cc9-505cb9beee10","system_id":"levelo_inurba_marseille","lat":43.292572,"lon":5.384432,"is_reserved":false,"is_disabled":false,"rental_uris":{"android":"levelo://app?vid=e2d83be7-c6e2-4389-9cc9-505cb9beee10","ios":"levelo://app?vid=e2d83be7-c6e2-4389-9cc9-505cb9beee10"},"vehicle_type_id":"4","last_reported":1747519717,"current_range_meters":2800,"station_id":"ce4bh692rcd13ifvqea0","pricing_plan_id":"cebpf4jnsgd1na2vs0mg"},{"bike_id":"0c2ccf0c-0267-4a9a-9fd9-493b64be5371","system_id":"levelo_inurba_marseille","lat":43.28834,"lon":5.35875,"is_reserved":false,"is_disabled":false,"rental_uris":{"android":"levelo://app?vid=0c2ccf0c-0267-4a9a-9fd9-493b64be5371","ios":"levelo://app?vid=0c2ccf0c-0267-4a9a-9fd9-493b64be5371"},"vehicle_type_id":"4","last_reported":1747519717,"current_range_meters":2800,"station_id":"ce4bhb12rcd13ifvqem0","pricing_plan_id":"cebpf4jnsgd1na2vs0mg"},{"bike_id":"3a75c5f4-243e-4f18-b95d-8635947008bf","system_id":"levelo_inurba_marseille","lat":43.250793,"lon":5.403792,"is_reserved":false,"is_disabled":false,"rental_uris":{"android":"levelo://app?vid=3a75c5f4-243e-4f18-b95d-8635947008bf","ios":"levelo://app?vid=3a75c5f4-243e-4f18-b95d-8635947008bf"},"vehicle_type_id":"4","last_reported":1747519717,"current_range_meters":2800,"station_id":"ce4bhlh2rcd13ifvqgig","pricing_plan_id":"cebpf4jnsgd1na2vs0mg"},{"bike_id":"ac74ea5f-a343-4763-ad31-fb8960bcc3b9","system_id":"levelo_inurba_marseille","lat":43.25114,"lon":5.4033,"is_reserved":false,"is_disabled":false,"rental_uris":{"android":"levelo://app?vid=ac74ea5f-a343-4763-ad31-fb8960bcc3b9","ios":"levelo://app?vid=ac74ea5f-a343-4763-ad31-fb8960bcc3b9"},"vehicle_type_id":"4","last_reported":1747519717,"current_range_meters":2800,"station_id":"ce4bhlh2rcd13ifvqgig","pricing_plan_id":"cebpf4jnsgd1na2vs0mg"},{"bike_id":"79208378-f11b-4e40-93b4-4387ab11dd0e","system_id":"levelo_inurba_marseille","lat":43.27374,"lon":5.36256,"is_reserved":false,"is_disabled":false,"rental_uris":{"android":"levelo://app?vid=79208378-f11b-4e40-93b4-4387ab11dd0e","ios":"levelo://app?vid=79208378-f11b-4e40-93b4-4387ab11dd0e"},"vehicle_type_id":"4","last_reported":1747519717,"current_range_meters":3200,"station_id":"ce4bhbh2rcd13ifvqeo0","pricing_plan_id":"cebpf4jnsgd1na2vs0mg"},{"bike_id":"c7060397-596a-4fa4-b91a-9b4c2eae310b","system_id":"levelo_inurba_marseille","lat":43.30264,"lon":5.40079,"is_reserved":false,"is_disabled":false,"rental_uris":{"android":"levelo://app?vid=c7060397-596a-4fa4-b91a-9b4c2eae310b","ios":"levelo://app?vid=c7060397-596a-4fa4-b91a-9b4c2eae310b"},"vehicle_type_id":"4","last_reported":1747519717,"current_range_meters":3600,"station_id":"ce4bgvh2rcd13ifvqcs0","pricing_plan_id":"cebpf4jnsgd1na2vs0mg"},{"bike_id":"6906f954-bb21-4ff3-9038-904a598decd8","system_id":"levelo_inurba_marseille","lat":43.287,"lon":5.37387,"is_reserved":false,"is_disabled":false,"rental_uris":{"android":"levelo://app?vid=6906f954-bb21-4ff3-9038-904a598decd8","ios":"levelo://app?vid=6906f954-bb21-4ff3-9038-904a598decd8"},"vehicle_type_id":"4","last_reported":1747519717,"current_range_meters":3600,"station_id":"ce4bh3p2rcd13ifvqdq0","pricing_plan_id":"cebpf4jnsgd1na2vs0mg"},{"bike_id":"3193ad55-2474-4440-81b7-a1e4a46d043c","system_id":"levelo_inurba_marseille","lat":43.28463,"lon":5.3589,"is_reserved":false,"is_disabled":false,"rental_uris":{"android":"levelo://app?vid=3193ad55-2474-4440-81b7-a1e4a46d043c","ios":"levelo://app?vid=3193ad55-2474-4440-81b7-a1e4a46d043c"},"vehicle_type_id":"4","last_reported":1747519717,"current_range_meters":3600,"station_id":"ce4bhah2rcd13ifvqei0","pricing_plan_id":"cebpf4jnsgd1na2vs0mg"},{"bike_id":"13a2bb50-d9d0-4fd0-9679-ec4d8dec6129","system_id":"levelo_inurba_marseille","lat":43.27913,"lon":5.38007,"is_reserved":false,"is_disabled":false,"rental_uris":{"android":"levelo://app?vid=13a2bb50-d9d0-4fd0-9679-ec4d8dec6129","ios":"levelo://app?vid=13a2bb50-d9d0-4fd0-9679-ec4d8dec6129"},"vehicle_type_id":"4","last_reported":1747519717,"current_range_meters":3600,"station_id":"ce4bhf92rcd13ifvqf50","pricing_plan_id":"cebpf4jnsgd1na2vs0mg"},{"bike_id":"7634ed91-1643-4b5b-a4ab-e87e196f9f6e","system_id":"levelo_inurba_marseille","lat":43.2621,"lon":5.3745,"is_reserved":false,"is_disabled":false,"rental_uris":{"android":"levelo://app?vid=7634ed91-1643-4b5b-a4ab-e87e196f9f6e","ios":"levelo://app?vid=7634ed91-1643-4b5b-a4ab-e87e196f9f6e"},"vehicle_type_id":"4","last_reported":1747519717,"current_range_meters":3600,"station_id":"ce4bhgp2rcd13ifvqfc0","pricing_plan_id":"cebpf4jnsgd1na2vs0mg"},{"bike_id":"7819a324-4054-46ef-8d76-532ea5e5e97f","system_id":"levelo_inurba_marseille","lat":43.24183,"lon":5.39732,"is_reserved":false,"is_disabled":false,"rental_uris":{"android":"levelo://app?vid=7819a324-4054-46ef-8d76-532ea5e5e97f","ios":"levelo://app?vid=7819a324-4054-46ef-8d76-532ea5e5e97f"},"vehicle_type_id":"4","last_reported":1747519717,"current_range_meters":3600,"station_id":"ce4bhn12rcd13ifvqgpg","pricing_plan_id":"cebpf4jnsgd1na2vs0mg"},{"bike_id":"e9dd3aa4-b5e7-4480-926d-d7f537719bfa","system_id":"levelo_inurba_marseille","lat":43.2301,"lon":5.40202,"is_reserved":false,"is_disabled":false,"rental_uris":{"android":"levelo://app?vid=e9dd3aa4-b5e7-4480-926d-d7f537719bfa","ios":"levelo://app?vid=e9dd3aa4-b5e7-4480-926d-d7f537719bfa"},"vehicle_type_id":"4","last_reported":1747519717,"current_range_meters":4000,"station_id":"","pricing_plan_id":"cebpf4jnsgd1na2vs0mg"},{"bike_id":"94b1fa2f-f7e7-4dbc-960c-3a6165f58202","system_id":"levelo_inurba_marseille","lat":43.303009,"lon":5.392135,"is_reserved":false,"is_disabled":false,"rental_uris":{"android":"levelo://app?vid=94b1fa2f-f7e7-4dbc-960c-3a6165f58202","ios":"levelo://app?vid=94b1fa2f-f7e7-4dbc-960c-3a6165f58202"},"vehicle_type_id":"4","last_reported":1747519717,"current_range_meters":4000,"station_id":"ce4bgkh2rcd13ifvqbk0","pricing_plan_id":"cebpf4jnsgd1na2vs0mg"},{"bike_id":"8e733541-fd75-4317-8f11-f26c38aca832","system_id":"levelo_inurba_marseille","lat":43.24182,"lon":5.39721,"is_reserved":false,"is_disabled":false,"rental_uris":{"android":"levelo://app?vid=8e733541-fd75-4317-8f11-f26c38aca832","ios":"levelo://app?vid=8e733541-fd75-4317-8f11-f26c38aca832"},"vehicle_type_id":"4","last_reported":1747519717,"current_range_meters":4000,"station_id":"ce4bhn12rcd13ifvqgpg","pricing_plan_id":"cebpf4jnsgd1na2vs0mg"},{"bike_id":"8f189487-f31d-4ca2-a926-e41f071bd7f5","system_id":"levelo_inurba_marseille","lat":43.2407,"lon":5.37766,"is_reserved":false,"is_disabled":false,"rental_uris":{"android":"levelo://app?vid=8f189487-f31d-4ca2-a926-e41f071bd7f5","ios":"levelo://app?vid=8f189487-f31d-4ca2-a926-e41f071bd7f5"},"vehicle_type_id":"4","last_reported":1747519717,"current_range_meters":4000,"station_id":"ce4bhnp2rcd13ifvqgvg","pricing_plan_id":"cebpf4jnsgd1na2vs0mg"},{"bike_id":"9e2cb630-8b3e-4acb-a9ea-045c5fcad058","system_id":"levelo_inurba_marseille","lat":43.28852,"lon":5.39317,"is_reserved":false,"is_disabled":false,"rental_uris":{"android":"levelo://app?vid=9e2cb630-8b3e-4acb-a9ea-045c5fcad058","ios":"levelo://app?vid=9e2cb630-8b3e-4acb-a9ea-045c5fcad058"},"vehicle_type_id":"4","last_reported":1747519717,"current_range_meters":4400,"station_id":"ce4bh2p2rcd13ifvqdi0","pricing_plan_id":"cebpf4jnsgd1na2vs0mg"},{"bike_id":"03921903-6b5d-43cc-9b01-96ff9c50c166","system_id":"levelo_inurba_marseille","lat":43.23171,"lon":5.39998,"is_reserved":false,"is_disabled":false,"rental_uris":{"android":"levelo://app?vid=03921903-6b5d-43cc-9b01-96ff9c50c166","ios":"levelo://app?vid=03921903-6b5d-43cc-9b01-96ff9c50c166"},"vehicle_type_id":"4","last_reported":1747519717,"current_range_meters":4400,"station_id":"ce4bhn12rcd13ifvqgqg","pricing_plan_id":"cebpf4jnsgd1na2vs0mg"},{"bike_id":"7ffa559b-85ff-495a-9bbe-80f771e98f78","system_id":"levelo_inurba_marseille","lat":43.2781,"lon":5.40711,"is_reserved":false,"is_disabled":false,"rental_uris":{"android":"levelo://app?vid=7ffa559b-85ff-495a-9bbe-80f771e98f78","ios":"levelo://app?vid=7ffa559b-85ff-495a-9bbe-80f771e98f78"},"vehicle_type_id":"4","last_reported":1747519717,"current_range_meters":4400,"station_id":"ce4bhnh2rcd13ifvqgtg","pricing_plan_id":"cebpf4jnsgd1na2vs0mg"},{"bike_id":"7336b891-4057-4394-8d86-0b9a511a8cb5","system_id":"levelo_inurba_marseille","lat":43.3014,"lon":5.37417,"is_reserved":false,"is_disabled":false,"rental_uris":{"android":"levelo://app?vid=7336b891-4057-4394-8d86-0b9a511a8cb5","ios":"levelo://app?vid=7336b891-4057-4394-8d86-0b9a511a8cb5"},"vehicle_type_id":"4","last_reported":1747519717,"current_range_meters":4800,"station_id":"ce4bgs92rcd13ifvqcc0","pricing_plan_id":"cebpf4jnsgd1na2vs0mg"},{"bike_id":"6e8678e5-46fb-4f76-bffb-1e70e7269d2a","system_id":"levelo_inurba_marseille","lat":43.29262,"lon":5.40907,"is_reserved":false,"is_disabled":false,"rental_uris":{"android":"levelo://app?vid=6e8678e5-46fb-4f76-bffb-1e70e7269d2a","ios":"levelo://app?vid=6e8678e5-46fb-4f76-bffb-1e70e7269d2a"},"vehicle_type_id":"4","last_reported":1747519717,"current_range_meters":4800,"station_id":"ce4bh192rcd13ifvqdc0","pricing_plan_id":"cebpf4jnsgd1na2vs0mg"},{"bike_id":"e2fc8af1-f5b5-4887-bcc2-61f17df64fdc","system_id":"levelo_inurba_marseille","lat":43.24661,"lon":5.38167,"is_reserved":false,"is_disabled":false,"rental_uris":{"android":"levelo://app?vid=e2fc8af1-f5b5-4887-bcc2-61f17df64fdc","ios":"levelo://app?vid=e2fc8af1-f5b5-4887-bcc2-61f17df64fdc"},"vehicle_type_id":"4","last_reported":1747519717,"current_range_meters":4800,"station_id":"ce4bhih2rcd13ifvqfr0","pricing_plan_id":"cebpf4jnsgd1na2vs0mg"},{"bike_id":"9fd661b4-e33b-4178-9872-1d2175b25913","system_id":"levelo_inurba_marseille","lat":43.27812,"lon":5.40716,"is_reserved":false,"is_disabled":false,"rental_uris":{"android":"levelo://app?vid=9fd661b4-e33b-4178-9872-1d2175b25913","ios":"levelo://app?vid=9fd661b4-e33b-4178-9872-1d2175b25913"},"vehicle_type_id":"4","last_reported":1747519717,"current_range_meters":4800,"station_id":"ce4bhnh2rcd13ifvqgtg","pricing_plan_id":"cebpf4jnsgd1na2vs0mg"},{"bike_id":"a140226f-4492-41df-b4bb-4097503cbae7","system_id":"levelo_inurba_marseille","lat":43.30863,"lon":5.39837,"is_reserved":false,"is_disabled":false,"rental_uris":{"android":"levelo://app?vid=a140226f-4492-41df-b4bb-4097503cbae7","ios":"levelo://app?vid=a140226f-4492-41df-b4bb-4097503cbae7"},"vehicle_type_id":"4","last_reported":1747519717,"current_range_meters":5600,"station_id":"","pricing_plan_id":"cebpf4jnsgd1na2vs0mg"},{"bike_id":"bb2a7751-0571-421a-98a6-e024c0db5c3e","system_id":"levelo_inurba_marseille","lat":43.30312,"lon":5.36901,"is_reserved":false,"is_disabled":false,"rental_uris":{"android":"levelo://app?vid=bb2a7751-0571-421a-98a6-e024c0db5c3e","ios":"levelo://app?vid=bb2a7751-0571-421a-98a6-e024c0db5c3e"},"vehicle_type_id":"4","last_reported":1747519717,"current_range_meters":5600,"station_id":"ce4bgqh2rcd13ifvqc5g","pricing_plan_id":"cebpf4jnsgd1na2vs0mg"},{"bike_id":"36b1745a-43fa-4776-bad2-1802bcb8f390","system_id":"levelo_inurba_marseille","lat":43.29796,"lon":5.40407,"is_reserved":false,"is_disabled":false,"rental_uris":{"android":"levelo://app?vid=36b1745a-43fa-4776-bad2-1802bcb8f390","ios":"levelo://app?vid=36b1745a-43fa-4776-bad2-1802bcb8f390"},"vehicle_type_id":"4","last_reported":1747519717,"current_range_meters":5600,"station_id":"ce4bh112rcd13ifvqd90","pricing_plan_id":"cebpf4jnsgd1na2vs0mg"},{"bike_id":"29f3129d-0123-42fc-86d8-d3c048602f07","system_id":"levelo_inurba_marseille","lat":43.27562,"lon":5.38415,"is_reserved":false,"is_disabled":false,"rental_uris":{"android":"levelo://app?vid=29f3129d-0123-42fc-86d8-d3c048602f07","ios":"levelo://app?vid=29f3129d-0123-42fc-86d8-d3c048602f07"},"vehicle_type_id":"4","last_reported":1747519717,"current_range_meters":5600,"station_id":"ce4bhh92rcd13ifvqfi0","pricing_plan_id":"cebpf4jnsgd1na2vs0mg"},{"bike_id":"6e612e7b-28be-478c-9618-97651a5de57b","system_id":"levelo_inurba_marseille","lat":43.24675,"lon":5.39555,"is_reserved":false,"is_disabled":false,"rental_uris":{"android":"levelo://app?vid=6e612e7b-28be-478c-9618-97651a5de57b","ios":"levelo://app?vid=6e612e7b-28be-478c-9618-97651a5de57b"},"vehicle_type_id":"4","last_reported":1747519717,"current_range_meters":6000,"station_id":"","pricing_plan_id":"cebpf4jnsgd1na2vs0mg"},{"bike_id":"94d31be5-b49c-477c-b9e4-fd5b3f1174af","system_id":"levelo_inurba_marseille","lat":43.31007,"lon":5.42048,"is_reserved":false,"is_disabled":false,"rental_uris":{"android":"levelo://app?vid=94d31be5-b49c-477c-b9e4-fd5b3f1174af","ios":"levelo://app?vid=94d31be5-b49c-477c-b9e4-fd5b3f1174af"},"vehicle_type_id":"4","last_reported":1747519717,"current_range_meters":6000,"station_id":"","pricing_plan_id":"cebpf4jnsgd1na2vs0mg"},{"bike_id":"a4063de7-3465-4b39-9bf8-ef1a75de7c2d","system_id":"levelo_inurba_marseille","lat":43.28579,"lon":5.46084,"is_reserved":false,"is_disabled":false,"rental_uris":{"android":"levelo://app?vid=a4063de7-3465-4b39-9bf8-ef1a75de7c2d","ios":"levelo://app?vid=a4063de7-3465-4b39-9bf8-ef1a75de7c2d"},"vehicle_type_id":"4","last_reported":1747519717,"current_range_meters":6000,"station_id":"","pricing_plan_id":"cebpf4jnsgd1na2vs0mg"},{"bike_id":"c9b4bd69-daf5-4390-84ad-eaf975b3b733","system_id":"levelo_inurba_marseille","lat":43.29417,"lon":5.38622,"is_reserved":false,"is_disabled":false,"rental_uris":{"android":"levelo://app?vid=c9b4bd69-daf5-4390-84ad-eaf975b3b733","ios":"levelo://app?vid=c9b4bd69-daf5-4390-84ad-eaf975b3b733"},"vehicle_type_id":"4","last_reported":1747519717,"current_range_meters":6000,"station_id":"ce4bh2h2rcd13ifvqdh0","pricing_plan_id":"cebpf4jnsgd1na2vs0mg"},{"bike_id":"69aa41dd-00d4-4743-85c7-2382bfa71cba","system_id":"levelo_inurba_marseille","lat":43.28434,"lon":5.39168,"is_reserved":false,"is_disabled":false,"rental_uris":{"android":"levelo://app?vid=69aa41dd-00d4-4743-85c7-2382bfa71cba","ios":"levelo://app?vid=69aa41dd-00d4-4743-85c7-2382bfa71cba"},"vehicle_type_id":"4","last_reported":1747519717,"current_range_meters":6000,"station_id":"ce4bhoh2rcd13ifvqh5g","pricing_plan_id":"cebpf4jnsgd1na2vs0mg"},{"bike_id":"6f0eb859-c354-4ec9-9ed0-fc59fdc99960","system_id":"levelo_inurba_marseille","lat":43.31725,"lon":5.42383,"is_reserved":false,"is_disabled":false,"rental_uris":{"android":"levelo://app?vid=6f0eb859-c354-4ec9-9ed0-fc59fdc99960","ios":"levelo://app?vid=6f0eb859-c354-4ec9-9ed0-fc59fdc99960"},"vehicle_type_id":"4","last_reported":1747519717,"current_range_meters":6000,"station_id":"ce4bhp92rcd13ifvqhbg","pricing_plan_id":"cebpf4jnsgd1na2vs0mg"},{"bike_id":"c736ecd3-b8b0-42b2-b2b9-71e0ce8a9b78","system_id":"levelo_inurba_marseille","lat":43.29528,"lon":5.38521,"is_reserved":false,"is_disabled":false,"rental_uris":{"android":"levelo://app?vid=c736ecd3-b8b0-42b2-b2b9-71e0ce8a9b78","ios":"levelo://app?vid=c736ecd3-b8b0-42b2-b2b9-71e0ce8a9b78"},"vehicle_type_id":"4","last_reported":1747519717,"current_range_meters":6400,"station_id":"ce4bgih2rcd13ifvqba0","pricing_plan_id":"cebpf4jnsgd1na2vs0mg"},{"bike_id":"821eef4b-972c-411c-8a31-023ada34db1c","system_id":"levelo_inurba_marseille","lat":43.31188,"lon":5.38734,"is_reserved":false,"is_disabled":false,"rental_uris":{"android":"levelo://app?vid=821eef4b-972c-411c-8a31-023ada34db1c","ios":"levelo://app?vid=821eef4b-972c-411c-8a31-023ada34db1c"},"vehicle_type_id":"4","last_reported":1747519717,"current_range_meters":6400,"station_id":"ce4bgv12rcd13ifvqcp0","pricing_plan_id":"cebpf4jnsgd1na2vs0mg"},{"bike_id":"a377e757-06fa-4e74-a459-39953c1a6a0b","system_id":"levelo_inurba_marseille","lat":43.28698,"lon":5.37391,"is_reserved":false,"is_disabled":false,"rental_uris":{"android":"levelo://app?vid=a377e757-06fa-4e74-a459-39953c1a6a0b","ios":"levelo://app?vid=a377e757-06fa-4e74-a459-39953c1a6a0b"},"vehicle_type_id":"4","last_reported":1747519717,"current_range_meters":6400,"station_id":"ce4bh3p2rcd13ifvqdq0","pricing_plan_id":"cebpf4jnsgd1na2vs0mg"},{"bike_id":"fd381d78-3e81-4ab8-bbc8-4f0764676613","system_id":"levelo_inurba_marseille","lat":43.29022,"lon":5.38126,"is_reserved":false,"is_disabled":false,"rental_uris":{"android":"levelo://app?vid=fd381d78-3e81-4ab8-bbc8-4f0764676613","ios":"levelo://app?vid=fd381d78-3e81-4ab8-bbc8-4f0764676613"},"vehicle_type_id":"4","last_reported":1747519717,"current_range_meters":6400,"station_id":"ce4bh4p2rcd13ifvqe1g","pricing_plan_id":"cebpf4jnsgd1na2vs0mg"},{"bike_id":"5e16ea8f-95fb-446c-ab51-fae1112c0aff","system_id":"levelo_inurba_marseille","lat":43.25932,"lon":5.40906,"is_reserved":false,"is_disabled":false,"rental_uris":{"android":"levelo://app?vid=5e16ea8f-95fb-446c-ab51-fae1112c0aff","ios":"levelo://app?vid=5e16ea8f-95fb-446c-ab51-fae1112c0aff"},"vehicle_type_id":"4","last_reported":1747519717,"current_range_meters":6400,"station_id":"ce4bhm92rcd13ifvqglg","pricing_plan_id":"cebpf4jnsgd1na2vs0mg"},{"bike_id":"6cd5c425-f8ac-4068-b8ea-a8bfbef29ee5","system_id":"levelo_inurba_marseille","lat":43.2498,"lon":5.37946,"is_reserved":false,"is_disabled":false,"rental_uris":{"android":"levelo://app?vid=6cd5c425-f8ac-4068-b8ea-a8bfbef29ee5","ios":"levelo://app?vid=6cd5c425-f8ac-4068-b8ea-a8bfbef29ee5"},"vehicle_type_id":"4","last_reported":1747519717,"current_range_meters":6800,"station_id":"","pricing_plan_id":"cebpf4jnsgd1na2vs0mg"},{"bike_id":"3fa58c22-00c6-48db-914d-ec2861a3d890","system_id":"levelo_inurba_marseille","lat":43.310745,"lon":5.40221,"is_reserved":false,"is_disabled":false,"rental_uris":{"android":"levelo://app?vid=3fa58c22-00c6-48db-914d-ec2861a3d890","ios":"levelo://app?vid=3fa58c22-00c6-48db-914d-ec2861a3d890"},"vehicle_type_id":"4","last_reported":1747519717,"current_range_meters":6800,"station_id":"","pricing_plan_id":"cebpf4jnsgd1na2vs0mg"},{"bike_id":"a4cbb38b-f643-4a51-9e6a-d9e802837208","system_id":"levelo_inurba_marseille","lat":43.28676,"lon":5.38673,"is_reserved":false,"is_disabled":false,"rental_uris":{"android":"levelo://app?vid=a4cbb38b-f643-4a51-9e6a-d9e802837208","ios":"levelo://app?vid=a4cbb38b-f643-4a51-9e6a-d9e802837208"},"vehicle_type_id":"4","last_reported":1747519717,"current_range_meters":6800,"station_id":"ce4bh492rcd13ifvqdug","pricing_plan_id":"cebpf4jnsgd1na2vs0mg"},{"bike_id":"308f006c-a142-4d43-bd3b-5f1626520678","system_id":"levelo_inurba_marseille","lat":43.29039,"lon":5.37555,"is_reserved":false,"is_disabled":false,"rental_uris":{"android":"levelo://app?vid=308f006c-a142-4d43-bd3b-5f1626520678","ios":"levelo://app?vid=308f006c-a142-4d43-bd3b-5f1626520678"},"vehicle_type_id":"4","last_reported":1747519717,"current_range_meters":6800,"station_id":"ce4bh692rcd13ifvqe90","pricing_plan_id":"cebpf4jnsgd1na2vs0mg"},{"bike_id":"3b843dca-d67a-4b0e-916b-710ebb36ec6d","system_id":"levelo_inurba_marseille","lat":43.32493,"lon":5.40128,"is_reserved":false,"is_disabled":false,"rental_uris":{"android":"levelo://app?vid=3b843dca-d67a-4b0e-916b-710ebb36ec6d","ios":"levelo://app?vid=3b843dca-d67a-4b0e-916b-710ebb36ec6d"},"vehicle_type_id":"4","last_reported":1747519717,"current_range_meters":7200,"station_id":"","pricing_plan_id":"cebpf4jnsgd1na2vs0mg"},{"bike_id":"bf106f44-37fe-4238-91dc-77f04a4ad63b","system_id":"levelo_inurba_marseille","lat":43.31361,"lon":5.38495,"is_reserved":false,"is_disabled":false,"rental_uris":{"android":"levelo://app?vid=bf106f44-37fe-4238-91dc-77f04a4ad63b","ios":"levelo://app?vid=bf106f44-37fe-4238-91dc-77f04a4ad63b"},"vehicle_type_id":"4","last_reported":1747519717,"current_range_meters":7200,"station_id":"ce4bgt92rcd13ifvqcf0","pricing_plan_id":"cebpf4jnsgd1na2vs0mg"},{"bike_id":"5d738083-f0b2-4450-bee5-c2a3be09b1e7","system_id":"levelo_inurba_marseille","lat":43.31168,"lon":5.38723,"is_reserved":false,"is_disabled":false,"rental_uris":{"android":"levelo://app?vid=5d738083-f0b2-4450-bee5-c2a3be09b1e7","ios":"levelo://app?vid=5d738083-f0b2-4450-bee5-c2a3be09b1e7"},"vehicle_type_id":"4","last_reported":1747519717,"current_range_meters":7200,"station_id":"ce4bgv12rcd13ifvqcp0","pricing_plan_id":"cebpf4jnsgd1na2vs0mg"},{"bike_id":"a30c920c-484b-4dcc-bc32-f006c1848baf","system_id":"levelo_inurba_marseille","lat":43.30585,"lon":5.39349,"is_reserved":false,"is_disabled":false,"rental_uris":{"android":"levelo://app?vid=a30c920c-484b-4dcc-bc32-f006c1848baf","ios":"levelo://app?vid=a30c920c-484b-4dcc-bc32-f006c1848baf"},"vehicle_type_id":"4","last_reported":1747519717,"current_range_meters":7200,"station_id":"ce4bh0p2rcd13ifvqd80","pricing_plan_id":"cebpf4jnsgd1na2vs0mg"},{"bike_id":"fd8cc24a-6707-458f-be40-b0fcf29dedae","system_id":"levelo_inurba_marseille","lat":43.28566,"lon":5.39518,"is_reserved":false,"is_disabled":false,"rental_uris":{"android":"levelo://app?vid=fd8cc24a-6707-458f-be40-b0fcf29dedae","ios":"levelo://app?vid=fd8cc24a-6707-458f-be40-b0fcf29dedae"},"vehicle_type_id":"4","last_reported":1747519717,"current_range_meters":7200,"station_id":"ce4bh292rcd13ifvqdg0","pricing_plan_id":"cebpf4jnsgd1na2vs0mg"},{"bike_id":"475ed8eb-8f0e-42c3-8018-645d0851151f","system_id":"levelo_inurba_marseille","lat":43.27376,"lon":5.36255,"is_reserved":false,"is_disabled":false,"rental_uris":{"android":"levelo://app?vid=475ed8eb-8f0e-42c3-8018-645d0851151f","ios":"levelo://app?vid=475ed8eb-8f0e-42c3-8018-645d0851151f"},"vehicle_type_id":"4","last_reported":1747519717,"current_range_meters":7200,"station_id":"ce4bhbh2rcd13ifvqeo0","pricing_plan_id":"cebpf4jnsgd1na2vs0mg"},{"bike_id":"2bdbf59f-e481-4844-905c-61239f926a33","system_id":"levelo_inurba_marseille","lat":43.23171,"lon":5.39968,"is_reserved":false,"is_disabled":false,"rental_uris":{"android":"levelo://app?vid=2bdbf59f-e481-4844-905c-61239f926a33","ios":"levelo://app?vid=2bdbf59f-e481-4844-905c-61239f926a33"},"vehicle_type_id":"4","last_reported":1747519717,"current_range_meters":7200,"station_id":"ce4bhn12rcd13ifvqgqg","pricing_plan_id":"cebpf4jnsgd1na2vs0mg"},{"bike_id":"def6ed11-2672-463b-962e-5e52ab3c90e7","system_id":"levelo_inurba_marseille","lat":43.30533,"lon":5.38426,"is_reserved":false,"is_disabled":false,"rental_uris":{"android":"levelo://app?vid=def6ed11-2672-463b-962e-5e52ab3c90e7","ios":"levelo://app?vid=def6ed11-2672-463b-962e-5e52ab3c90e7"},"vehicle_type_id":"4","last_reported":1747519717,"current_range_meters":8000,"station_id":"ce4bgg92rcd13ifvqb30","pricing_plan_id":"cebpf4jnsgd1na2vs0mg"},{"bike_id":"1e5a7839-d218-47a9-988d-f5fdcdfa5acb","system_id":"levelo_inurba_marseille","lat":43.258314,"lon":5.394468,"is_reserved":false,"is_disabled":false,"rental_uris":{"android":"levelo://app?vid=1e5a7839-d218-47a9-988d-f5fdcdfa5acb","ios":"levelo://app?vid=1e5a7839-d218-47a9-988d-f5fdcdfa5acb"},"vehicle_type_id":"4","last_reported":1747519717,"current_range_meters":8000,"station_id":"ce4bhip2rcd13ifvqft0","pricing_plan_id":"cebpf4jnsgd1na2vs0mg"},{"bike_id":"7711fff8-1c30-4c3a-aa27-6e5dbb51f698","system_id":"levelo_inurba_marseille","lat":43.25126,"lon":5.40317,"is_reserved":false,"is_disabled":false,"rental_uris":{"android":"levelo://app?vid=7711fff8-1c30-4c3a-aa27-6e5dbb51f698","ios":"levelo://app?vid=7711fff8-1c30-4c3a-aa27-6e5dbb51f698"},"vehicle_type_id":"4","last_reported":1747519717,"current_range_meters":8000,"station_id":"ce4bhlh2rcd13ifvqgig","pricing_plan_id":"cebpf4jnsgd1na2vs0mg"},{"bike_id":"55fb771a-6e76-45c4-a9b7-cda97a0011d0","system_id":"levelo_inurba_marseille","lat":43.28676,"lon":5.38299,"is_reserved":false,"is_disabled":false,"rental_uris":{"android":"levelo://app?vid=55fb771a-6e76-45c4-a9b7-cda97a0011d0","ios":"levelo://app?vid=55fb771a-6e76-45c4-a9b7-cda97a0011d0"},"vehicle_type_id":"4","last_reported":1747519717,"current_range_meters":8400,"station_id":"","pricing_plan_id":"cebpf4jnsgd1na2vs0mg"},{"bike_id":"032c9ab2-c281-479c-9c59-caa99ced74ad","system_id":"levelo_inurba_marseille","lat":43.30793,"lon":5.38162,"is_reserved":false,"is_disabled":false,"rental_uris":{"android":"levelo://app?vid=032c9ab2-c281-479c-9c59-caa99ced74ad","ios":"levelo://app?vid=032c9ab2-c281-479c-9c59-caa99ced74ad"},"vehicle_type_id":"4","last_reported":1747519717,"current_range_meters":8400,"station_id":"ce4bgt12rcd13ifvqce0","pricing_plan_id":"cebpf4jnsgd1na2vs0mg"},{"bike_id":"8773e7b0-c15b-4e38-852a-8bcc92c8bf89","system_id":"levelo_inurba_marseille","lat":43.30796,"lon":5.38166,"is_reserved":false,"is_disabled":false,"rental_uris":{"android":"levelo://app?vid=8773e7b0-c15b-4e38-852a-8bcc92c8bf89","ios":"levelo://app?vid=8773e7b0-c15b-4e38-852a-8bcc92c8bf89"},"vehicle_type_id":"4","last_reported":1747519717,"current_range_meters":8400,"station_id":"ce4bgt12rcd13ifvqce0","pricing_plan_id":"cebpf4jnsgd1na2vs0mg"},{"bike_id":"d07e06d1-a7ee-4f19-bbc2-614753adbadc","system_id":"levelo_inurba_marseille","lat":43.28401,"lon":5.3751,"is_reserved":false,"is_disabled":false,"rental_uris":{"android":"levelo://app?vid=d07e06d1-a7ee-4f19-bbc2-614753adbadc","ios":"levelo://app?vid=d07e06d1-a7ee-4f19-bbc2-614753adbadc"},"vehicle_type_id":"4","last_reported":1747519717,"current_range_meters":8400,"station_id":"ce4bh412rcd13ifvqds0","pricing_plan_id":"cebpf4jnsgd1na2vs0mg"},{"bike_id":"110e1365-ea8f-4761-a640-25e03fabfbb5","system_id":"levelo_inurba_marseille","lat":43.28489,"lon":5.38541,"is_reserved":false,"is_disabled":false,"rental_uris":{"android":"levelo://app?vid=110e1365-ea8f-4761-a640-25e03fabfbb5","ios":"levelo://app?vid=110e1365-ea8f-4761-a640-25e03fabfbb5"},"vehicle_type_id":"4","last_reported":1747519717,"current_range_meters":8400,"station_id":"ce4bh8p2rcd13ifvqeb0","pricing_plan_id":"cebpf4jnsgd1na2vs0mg"},{"bike_id":"980862ad-514b-4584-a4f6-17bf836981bb","system_id":"levelo_inurba_marseille","lat":43.25507,"lon":5.37652,"is_reserved":false,"is_disabled":false,"rental_uris":{"android":"levelo://app?vid=980862ad-514b-4584-a4f6-17bf836981bb","ios":"levelo://app?vid=980862ad-514b-4584-a4f6-17bf836981bb"},"vehicle_type_id":"4","last_reported":1747519717,"current_range_meters":8400,"station_id":"ce4bhh12rcd13ifvqff0","pricing_plan_id":"cebpf4jnsgd1na2vs0mg"},{"bike_id":"d0cc36ba-dea5-4301-b9bc-2db32098db5e","system_id":"levelo_inurba_marseille","lat":43.25093,"lon":5.39536,"is_reserved":false,"is_disabled":false,"rental_uris":{"android":"levelo://app?vid=d0cc36ba-dea5-4301-b9bc-2db32098db5e","ios":"levelo://app?vid=d0cc36ba-dea5-4301-b9bc-2db32098db5e"},"vehicle_type_id":"4","last_reported":1747519717,"current_range_meters":8400,"station_id":"ce4bhm12rcd13ifvqgkg","pricing_plan_id":"cebpf4jnsgd1na2vs0mg"},{"bike_id":"18e4ed23-84c4-4801-91e1-7b53274d9ead","system_id":"levelo_inurba_marseille","lat":43.321032,"lon":5.367745,"is_reserved":false,"is_disabled":false,"rental_uris":{"android":"levelo://app?vid=18e4ed23-84c4-4801-91e1-7b53274d9ead","ios":"levelo://app?vid=18e4ed23-84c4-4801-91e1-7b53274d9ead"},"vehicle_type_id":"4","last_reported":1747519717,"current_range_meters":8400,"station_id":"ce4bhrh2rcd13ifvqhug","pricing_plan_id":"cebpf4jnsgd1na2vs0mg"},{"bike_id":"8919e065-86b2-4199-a684-07fda96c726f","system_id":"levelo_inurba_marseille","lat":43.3079,"lon":5.38154,"is_reserved":false,"is_disabled":false,"rental_uris":{"android":"levelo://app?vid=8919e065-86b2-4199-a684-07fda96c726f","ios":"levelo://app?vid=8919e065-86b2-4199-a684-07fda96c726f"},"vehicle_type_id":"4","last_reported":1747519717,"current_range_meters":8800,"station_id":"ce4bgt12rcd13ifvqce0","pricing_plan_id":"cebpf4jnsgd1na2vs0mg"},{"bike_id":"4a359f0d-38e1-4bd1-b1c0-cbfd2075ef44","system_id":"levelo_inurba_marseille","lat":43.28855,"lon":5.35845,"is_reserved":false,"is_disabled":false,"rental_uris":{"android":"levelo://app?vid=4a359f0d-38e1-4bd1-b1c0-cbfd2075ef44","ios":"levelo://app?vid=4a359f0d-38e1-4bd1-b1c0-cbfd2075ef44"},"vehicle_type_id":"4","last_reported":1747519717,"current_range_meters":8800,"station_id":"ce4bhb12rcd13ifvqem0","pricing_plan_id":"cebpf4jnsgd1na2vs0mg"},{"bike_id":"456df13e-096a-4823-8eea-67f822f45ee6","system_id":"levelo_inurba_marseille","lat":43.25119,"lon":5.40318,"is_reserved":false,"is_disabled":false,"rental_uris":{"android":"levelo://app?vid=456df13e-096a-4823-8eea-67f822f45ee6","ios":"levelo://app?vid=456df13e-096a-4823-8eea-67f822f45ee6"},"vehicle_type_id":"4","last_reported":1747519717,"current_range_meters":8800,"station_id":"ce4bhlh2rcd13ifvqgig","pricing_plan_id":"cebpf4jnsgd1na2vs0mg"},{"bike_id":"bf984e61-6bf7-4230-8a5b-4fca28462353","system_id":"levelo_inurba_marseille","lat":43.27819,"lon":5.40694,"is_reserved":false,"is_disabled":false,"rental_uris":{"android":"levelo://app?vid=bf984e61-6bf7-4230-8a5b-4fca28462353","ios":"levelo://app?vid=bf984e61-6bf7-4230-8a5b-4fca28462353"},"vehicle_type_id":"4","last_reported":1747519717,"current_range_meters":8800,"station_id":"ce4bhnh2rcd13ifvqgtg","pricing_plan_id":"cebpf4jnsgd1na2vs0mg"},{"bike_id":"df3957a1-e201-411a-ae3c-779ed350509e","system_id":"levelo_inurba_marseille","lat":43.30126,"lon":5.38789,"is_reserved":false,"is_disabled":false,"rental_uris":{"android":"levelo://app?vid=df3957a1-e201-411a-ae3c-779ed350509e","ios":"levelo://app?vid=df3957a1-e201-411a-ae3c-779ed350509e"},"vehicle_type_id":"4","last_reported":1747519717,"current_range_meters":9200,"station_id":"ce4bghh2rcd13ifvqb60","pricing_plan_id":"cebpf4jnsgd1na2vs0mg"},{"bike_id":"3d9a5ea7-d254-47c2-95e0-bc3bfbece4e5","system_id":"levelo_inurba_marseille","lat":43.29885,"lon":5.38895,"is_reserved":false,"is_disabled":false,"rental_uris":{"android":"levelo://app?vid=3d9a5ea7-d254-47c2-95e0-bc3bfbece4e5","ios":"levelo://app?vid=3d9a5ea7-d254-47c2-95e0-bc3bfbece4e5"},"vehicle_type_id":"4","last_reported":1747519717,"current_range_meters":9200,"station_id":"ce4bh392rcd13ifvqdl0","pricing_plan_id":"cebpf4jnsgd1na2vs0mg"},{"bike_id":"5ea6f467-857b-4ea7-a4b9-4a241fcc702a","system_id":"levelo_inurba_marseille","lat":43.2466,"lon":5.38162,"is_reserved":false,"is_disabled":false,"rental_uris":{"android":"levelo://app?vid=5ea6f467-857b-4ea7-a4b9-4a241fcc702a","ios":"levelo://app?vid=5ea6f467-857b-4ea7-a4b9-4a241fcc702a"},"vehicle_type_id":"4","last_reported":1747519717,"current_range_meters":9200,"station_id":"ce4bhih2rcd13ifvqfr0","pricing_plan_id":"cebpf4jnsgd1na2vs0mg"},{"bike_id":"1d0564cc-984d-4702-ab72-78fb3611832a","system_id":"levelo_inurba_marseille","lat":43.246605,"lon":5.381687,"is_reserved":false,"is_disabled":false,"rental_uris":{"android":"levelo://app?vid=1d0564cc-984d-4702-ab72-78fb3611832a","ios":"levelo://app?vid=1d0564cc-984d-4702-ab72-78fb3611832a"},"vehicle_type_id":"4","last_reported":1747519717,"current_range_meters":9200,"station_id":"ce4bhih2rcd13ifvqfr0","pricing_plan_id":"cebpf4jnsgd1na2vs0mg"},{"bike_id":"0e643c49-55b7-4013-9035-8e29a4bbf97b","system_id":"levelo_inurba_marseille","lat":43.2468,"lon":5.3815,"is_reserved":false,"is_disabled":false,"rental_uris":{"android":"levelo://app?vid=0e643c49-55b7-4013-9035-8e29a4bbf97b","ios":"levelo://app?vid=0e643c49-55b7-4013-9035-8e29a4bbf97b"},"vehicle_type_id":"4","last_reported":1747519717,"current_range_meters":9200,"station_id":"ce4bhih2rcd13ifvqfr0","pricing_plan_id":"cebpf4jnsgd1na2vs0mg"},{"bike_id":"e33ec7c3-c738-46e8-b31e-ac64141a24f8","system_id":"levelo_inurba_marseille","lat":43.23195,"lon":5.39976,"is_reserved":false,"is_disabled":false,"rental_uris":{"android":"levelo://app?vid=e33ec7c3-c738-46e8-b31e-ac64141a24f8","ios":"levelo://app?vid=e33ec7c3-c738-46e8-b31e-ac64141a24f8"},"vehicle_type_id":"4","last_reported":1747519717,"current_range_meters":9200,"station_id":"ce4bhn12rcd13ifvqgqg","pricing_plan_id":"cebpf4jnsgd1na2vs0mg"},{"bike_id":"7c9d1de7-411b-4420-bcfa-9f60439808e0","system_id":"levelo_inurba_marseille","lat":43.2781,"lon":5.40714,"is_reserved":false,"is_disabled":false,"rental_uris":{"android":"levelo://app?vid=7c9d1de7-411b-4420-bcfa-9f60439808e0","ios":"levelo://app?vid=7c9d1de7-411b-4420-bcfa-9f60439808e0"},"vehicle_type_id":"4","last_reported":1747519717,"current_range_meters":9200,"station_id":"ce4bhnh2rcd13ifvqgtg","pricing_plan_id":"cebpf4jnsgd1na2vs0mg"},{"bike_id":"1268de3c-1801-4199-8a5b-49c70085e3ce","system_id":"levelo_inurba_marseille","lat":43.28704,"lon":5.39986,"is_reserved":false,"is_disabled":false,"rental_uris":{"android":"levelo://app?vid=1268de3c-1801-4199-8a5b-49c70085e3ce","ios":"levelo://app?vid=1268de3c-1801-4199-8a5b-49c70085e3ce"},"vehicle_type_id":"4","last_reported":1747519717,"current_range_meters":9200,"station_id":"ce4bho92rcd13ifvqh3g","pricing_plan_id":"cebpf4jnsgd1na2vs0mg"},{"bike_id":"26f611de-728d-479b-a369-2aa08e8f7434","system_id":"levelo_inurba_marseille","lat":43.24168,"lon":5.36393,"is_reserved":false,"is_disabled":false,"rental_uris":{"android":"levelo://app?vid=26f611de-728d-479b-a369-2aa08e8f7434","ios":"levelo://app?vid=26f611de-728d-479b-a369-2aa08e8f7434"},"vehicle_type_id":"4","last_reported":1747519717,"current_range_meters":9200,"station_id":"cpo36qri1sfpv3e86is0","pricing_plan_id":"cebpf4jnsgd1na2vs0mg"},{"bike_id":"b8e6468b-87db-4ff6-8122-ef13bf5b7c8c","system_id":"levelo_inurba_marseille","lat":43.31379,"lon":5.37916,"is_reserved":false,"is_disabled":false,"rental_uris":{"android":"levelo://app?vid=b8e6468b-87db-4ff6-8122-ef13bf5b7c8c","ios":"levelo://app?vid=b8e6468b-87db-4ff6-8122-ef13bf5b7c8c"},"vehicle_type_id":"4","last_reported":1747519717,"current_range_meters":9600,"station_id":"","pricing_plan_id":"cebpf4jnsgd1na2vs0mg"},{"bike_id":"6bad99d6-c400-4729-a6f1-dd5f2da6c3f2","system_id":"levelo_inurba_marseille","lat":43.31698,"lon":5.42331,"is_reserved":false,"is_disabled":false,"rental_uris":{"android":"levelo://app?vid=6bad99d6-c400-4729-a6f1-dd5f2da6c3f2","ios":"levelo://app?vid=6bad99d6-c400-4729-a6f1-dd5f2da6c3f2"},"vehicle_type_id":"4","last_reported":1747519717,"current_range_meters":9600,"station_id":"","pricing_plan_id":"cebpf4jnsgd1na2vs0mg"},{"bike_id":"bb6788da-48ce-438a-9256-4471ab3c61fd","system_id":"levelo_inurba_marseille","lat":43.29969,"lon":5.37171,"is_reserved":false,"is_disabled":false,"rental_uris":{"android":"levelo://app?vid=bb6788da-48ce-438a-9256-4471ab3c61fd","ios":"levelo://app?vid=bb6788da-48ce-438a-9256-4471ab3c61fd"},"vehicle_type_id":"4","last_reported":1747519717,"current_range_meters":9600,"station_id":"ce4bgr92rcd13ifvqc7g","pricing_plan_id":"cebpf4jnsgd1na2vs0mg"},{"bike_id":"dd0bf4a8-6ce4-430e-88df-7de97096471b","system_id":"levelo_inurba_marseille","lat":43.31064,"lon":5.38349,"is_reserved":false,"is_disabled":false,"rental_uris":{"android":"levelo://app?vid=dd0bf4a8-6ce4-430e-88df-7de97096471b","ios":"levelo://app?vid=dd0bf4a8-6ce4-430e-88df-7de97096471b"},"vehicle_type_id":"4","last_reported":1747519717,"current_range_meters":9600,"station_id":"ce4bgv92rcd13ifvqcr0","pricing_plan_id":"cebpf4jnsgd1na2vs0mg"},{"bike_id":"442318fb-23da-4bf5-b6ab-5b3f9a8de48a","system_id":"levelo_inurba_marseille","lat":43.31075,"lon":5.38359,"is_reserved":false,"is_disabled":false,"rental_uris":{"android":"levelo://app?vid=442318fb-23da-4bf5-b6ab-5b3f9a8de48a","ios":"levelo://app?vid=442318fb-23da-4bf5-b6ab-5b3f9a8de48a"},"vehicle_type_id":"4","last_reported":1747519717,"current_range_meters":9600,"station_id":"ce4bgv92rcd13ifvqcr0","pricing_plan_id":"cebpf4jnsgd1na2vs0mg"},{"bike_id":"7fdcf52b-541b-4360-8c0a-0ae336ff6d66","system_id":"levelo_inurba_marseille","lat":43.30124,"lon":5.39856,"is_reserved":false,"is_disabled":false,"rental_uris":{"android":"levelo://app?vid=7fdcf52b-541b-4360-8c0a-0ae336ff6d66","ios":"levelo://app?vid=7fdcf52b-541b-4360-8c0a-0ae336ff6d66"},"vehicle_type_id":"4","last_reported":1747519717,"current_range_meters":9600,"station_id":"ce4bh0h2rcd13ifvqd40","pricing_plan_id":"cebpf4jnsgd1na2vs0mg"},{"bike_id":"822dd0b4-7412-48bb-99dc-94cac0c42c1e","system_id":"levelo_inurba_marseille","lat":43.29456,"lon":5.39745,"is_reserved":false,"is_disabled":false,"rental_uris":{"android":"levelo://app?vid=822dd0b4-7412-48bb-99dc-94cac0c42c1e","ios":"levelo://app?vid=822dd0b4-7412-48bb-99dc-94cac0c42c1e"},"vehicle_type_id":"4","last_reported":1747519717,"current_range_meters":9600,"station_id":"ce4bh3h2rcd13ifvqdo0","pricing_plan_id":"cebpf4jnsgd1na2vs0mg"},{"bike_id":"337b08c3-9453-4585-b2d5-7cd494c9cc9f","system_id":"levelo_inurba_marseille","lat":43.28398,"lon":5.3752,"is_reserved":false,"is_disabled":false,"rental_uris":{"android":"levelo://app?vid=337b08c3-9453-4585-b2d5-7cd494c9cc9f","ios":"levelo://app?vid=337b08c3-9453-4585-b2d5-7cd494c9cc9f"},"vehicle_type_id":"4","last_reported":1747519717,"current_range_meters":9600,"station_id":"ce4bh412rcd13ifvqds0","pricing_plan_id":"cebpf4jnsgd1na2vs0mg"},{"bike_id":"62d25987-b4d0-457b-adca-d6ea029e5e3c","system_id":"levelo_inurba_marseille","lat":43.28102,"lon":5.37834,"is_reserved":false,"is_disabled":false,"rental_uris":{"android":"levelo://app?vid=62d25987-b4d0-457b-adca-d6ea029e5e3c","ios":"levelo://app?vid=62d25987-b4d0-457b-adca-d6ea029e5e3c"},"vehicle_type_id":"4","last_reported":1747519717,"current_range_meters":9600,"station_id":"ce4bha12rcd13ifvqee0","pricing_plan_id":"cebpf4jnsgd1na2vs0mg"},{"bike_id":"f96fb7e6-d103-43cc-aa2e-da497d410792","system_id":"levelo_inurba_marseille","lat":43.27908,"lon":5.396,"is_reserved":false,"is_disabled":false,"rental_uris":{"android":"levelo://app?vid=f96fb7e6-d103-43cc-aa2e-da497d410792","ios":"levelo://app?vid=f96fb7e6-d103-43cc-aa2e-da497d410792"},"vehicle_type_id":"4","last_reported":1747519717,"current_range_meters":9600,"station_id":"ce4bhf92rcd13ifvqf40","pricing_plan_id":"cebpf4jnsgd1na2vs0mg"},{"bike_id":"87b1d5a0-ca20-4099-8fc3-ab0909b77445","system_id":"levelo_inurba_marseille","lat":43.30933,"lon":5.40146,"is_reserved":false,"is_disabled":false,"rental_uris":{"android":"levelo://app?vid=87b1d5a0-ca20-4099-8fc3-ab0909b77445","ios":"levelo://app?vid=87b1d5a0-ca20-4099-8fc3-ab0909b77445"},"vehicle_type_id":"4","last_reported":1747519717,"current_range_meters":10000,"station_id":"ce4bgvp2rcd13ifvqct0","pricing_plan_id":"cebpf4jnsgd1na2vs0mg"},{"bike_id":"895399d8-2d54-4356-be86-d86002b19b67","system_id":"levelo_inurba_marseille","lat":43.248,"lon":5.37456,"is_reserved":false,"is_disabled":false,"rental_uris":{"android":"levelo://app?vid=895399d8-2d54-4356-be86-d86002b19b67","ios":"levelo://app?vid=895399d8-2d54-4356-be86-d86002b19b67"},"vehicle_type_id":"4","last_reported":1747519717,"current_range_meters":10000,"station_id":"ce4bhgh2rcd13ifvqfb0","pricing_plan_id":"cebpf4jnsgd1na2vs0mg"},{"bike_id":"3b3f5dcc-0fa8-4734-9826-c70b224ae58e","system_id":"levelo_inurba_marseille","lat":43.25861,"lon":5.39901,"is_reserved":false,"is_disabled":false,"rental_uris":{"android":"levelo://app?vid=3b3f5dcc-0fa8-4734-9826-c70b224ae58e","ios":"levelo://app?vid=3b3f5dcc-0fa8-4734-9826-c70b224ae58e"},"vehicle_type_id":"4","last_reported":1747519717,"current_range_meters":10000,"station_id":"ce4bhl92rcd13ifvqghg","pricing_plan_id":"cebpf4jnsgd1na2vs0mg"},{"bike_id":"0fb02880-5c6e-4026-9e4a-07529c572b44","system_id":"levelo_inurba_marseille","lat":43.25514,"lon":5.37354,"is_reserved":false,"is_disabled":false,"rental_uris":{"android":"levelo://app?vid=0fb02880-5c6e-4026-9e4a-07529c572b44","ios":"levelo://app?vid=0fb02880-5c6e-4026-9e4a-07529c572b44"},"vehicle_type_id":"4","last_reported":1747519717,"current_range_meters":10800,"station_id":"","pricing_plan_id":"cebpf4jnsgd1na2vs0mg"},{"bike_id":"2f45f9d4-7f31-44fe-8b0b-f1df8fd88772","system_id":"levelo_inurba_marseille","lat":43.29533,"lon":5.38534,"is_reserved":false,"is_disabled":false,"rental_uris":{"android":"levelo://app?vid=2f45f9d4-7f31-44fe-8b0b-f1df8fd88772","ios":"levelo://app?vid=2f45f9d4-7f31-44fe-8b0b-f1df8fd88772"},"vehicle_type_id":"4","last_reported":1747519717,"current_range_meters":10800,"station_id":"ce4bgih2rcd13ifvqba0","pricing_plan_id":"cebpf4jnsgd1na2vs0mg"},{"bike_id":"fbb9dc35-fa9d-42e4-9fd8-bc3154190a90","system_id":"levelo_inurba_marseille","lat":43.30931,"lon":5.40164,"is_reserved":false,"is_disabled":false,"rental_uris":{"android":"levelo://app?vid=fbb9dc35-fa9d-42e4-9fd8-bc3154190a90","ios":"levelo://app?vid=fbb9dc35-fa9d-42e4-9fd8-bc3154190a90"},"vehicle_type_id":"4","last_reported":1747519717,"current_range_meters":10800,"station_id":"ce4bgvp2rcd13ifvqct0","pricing_plan_id":"cebpf4jnsgd1na2vs0mg"},{"bike_id":"db22b70b-7de1-403c-85af-ebb538cde99e","system_id":"levelo_inurba_marseille","lat":43.29879,"lon":5.39738,"is_reserved":false,"is_disabled":false,"rental_uris":{"android":"levelo://app?vid=db22b70b-7de1-403c-85af-ebb538cde99e","ios":"levelo://app?vid=db22b70b-7de1-403c-85af-ebb538cde99e"},"vehicle_type_id":"4","last_reported":1747519717,"current_range_meters":10800,"station_id":"ce4bh0h2rcd13ifvqd50","pricing_plan_id":"cebpf4jnsgd1na2vs0mg"},{"bike_id":"c62abd63-42f0-4946-ac80-1c67271af235","system_id":"levelo_inurba_marseille","lat":43.29261,"lon":5.38438,"is_reserved":false,"is_disabled":false,"rental_uris":{"android":"levelo://app?vid=c62abd63-42f0-4946-ac80-1c67271af235","ios":"levelo://app?vid=c62abd63-42f0-4946-ac80-1c67271af235"},"vehicle_type_id":"4","last_reported":1747519717,"current_range_meters":10800,"station_id":"ce4bh692rcd13ifvqea0","pricing_plan_id":"cebpf4jnsgd1na2vs0mg"},{"bike_id":"b443d218-a375-4f56-9db8-e757e2e7f14f","system_id":"levelo_inurba_marseille","lat":43.29257,"lon":5.38446,"is_reserved":false,"is_disabled":false,"rental_uris":{"android":"levelo://app?vid=b443d218-a375-4f56-9db8-e757e2e7f14f","ios":"levelo://app?vid=b443d218-a375-4f56-9db8-e757e2e7f14f"},"vehicle_type_id":"4","last_reported":1747519717,"current_range_meters":10800,"station_id":"ce4bh692rcd13ifvqea0","pricing_plan_id":"cebpf4jnsgd1na2vs0mg"},{"bike_id":"792c9dbd-158e-4661-91d4-2c1ed379e655","system_id":"levelo_inurba_marseille","lat":43.24667,"lon":5.38149,"is_reserved":false,"is_disabled":false,"rental_uris":{"android":"levelo://app?vid=792c9dbd-158e-4661-91d4-2c1ed379e655","ios":"levelo://app?vid=792c9dbd-158e-4661-91d4-2c1ed379e655"},"vehicle_type_id":"4","last_reported":1747519717,"current_range_meters":10800,"station_id":"ce4bhih2rcd13ifvqfr0","pricing_plan_id":"cebpf4jnsgd1na2vs0mg"},{"bike_id":"bbad5bf7-b54d-4284-aeee-744acb86bc7d","system_id":"levelo_inurba_marseille","lat":43.278056,"lon":5.407061,"is_reserved":false,"is_disabled":false,"rental_uris":{"android":"levelo://app?vid=bbad5bf7-b54d-4284-aeee-744acb86bc7d","ios":"levelo://app?vid=bbad5bf7-b54d-4284-aeee-744acb86bc7d"},"vehicle_type_id":"4","last_reported":1747519717,"current_range_meters":10800,"station_id":"ce4bhnh2rcd13ifvqgtg","pricing_plan_id":"cebpf4jnsgd1na2vs0mg"},{"bike_id":"2013cd87-0d43-443c-a50a-2ae65b408add","system_id":"levelo_inurba_marseille","lat":43.32375,"lon":5.38874,"is_reserved":false,"is_disabled":false,"rental_uris":{"android":"levelo://app?vid=2013cd87-0d43-443c-a50a-2ae65b408add","ios":"levelo://app?vid=2013cd87-0d43-443c-a50a-2ae65b408add"},"vehicle_type_id":"4","last_reported":1747519717,"current_range_meters":10800,"station_id":"ce4bhqp2rcd13ifvqhog","pricing_plan_id":"cebpf4jnsgd1na2vs0mg"},{"bike_id":"6e1bd625-3ec1-43df-9657-36d71ae09f8d","system_id":"levelo_inurba_marseille","lat":43.33741,"lon":5.37459,"is_reserved":false,"is_disabled":false,"rental_uris":{"android":"levelo://app?vid=6e1bd625-3ec1-43df-9657-36d71ae09f8d","ios":"levelo://app?vid=6e1bd625-3ec1-43df-9657-36d71ae09f8d"},"vehicle_type_id":"4","last_reported":1747519717,"current_range_meters":11200,"station_id":"","pricing_plan_id":"cebpf4jnsgd1na2vs0mg"},{"bike_id":"d7854cc7-04d8-4a90-9709-3ddfa8af67a9","system_id":"levelo_inurba_marseille","lat":43.2737,"lon":5.3626,"is_reserved":false,"is_disabled":false,"rental_uris":{"android":"levelo://app?vid=d7854cc7-04d8-4a90-9709-3ddfa8af67a9","ios":"levelo://app?vid=d7854cc7-04d8-4a90-9709-3ddfa8af67a9"},"vehicle_type_id":"4","last_reported":1747519717,"current_range_meters":11200,"station_id":"ce4bhbh2rcd13ifvqeo0","pricing_plan_id":"cebpf4jnsgd1na2vs0mg"},{"bike_id":"76036664-705b-4ab1-afc7-90e756b50c05","system_id":"levelo_inurba_marseille","lat":43.23189,"lon":5.39984,"is_reserved":false,"is_disabled":false,"rental_uris":{"android":"levelo://app?vid=76036664-705b-4ab1-afc7-90e756b50c05","ios":"levelo://app?vid=76036664-705b-4ab1-afc7-90e756b50c05"},"vehicle_type_id":"4","last_reported":1747519717,"current_range_meters":11200,"station_id":"ce4bhn12rcd13ifvqgqg","pricing_plan_id":"cebpf4jnsgd1na2vs0mg"},{"bike_id":"3db69897-4eb5-42f7-bca3-c41f6cdaef15","system_id":"levelo_inurba_marseille","lat":43.27813,"lon":5.40698,"is_reserved":false,"is_disabled":false,"rental_uris":{"android":"levelo://app?vid=3db69897-4eb5-42f7-bca3-c41f6cdaef15","ios":"levelo://app?vid=3db69897-4eb5-42f7-bca3-c41f6cdaef15"},"vehicle_type_id":"4","last_reported":1747519717,"current_range_meters":11200,"station_id":"ce4bhnh2rcd13ifvqgtg","pricing_plan_id":"cebpf4jnsgd1na2vs0mg"},{"bike_id":"1d3510af-238c-40c7-8fae-0f5787d3e75c","system_id":"levelo_inurba_marseille","lat":43.28717,"lon":5.36093,"is_reserved":false,"is_disabled":false,"rental_uris":{"android":"levelo://app?vid=1d3510af-238c-40c7-8fae-0f5787d3e75c","ios":"levelo://app?vid=1d3510af-238c-40c7-8fae-0f5787d3e75c"},"vehicle_type_id":"4","last_reported":1747519717,"current_range_meters":11200,"station_id":"cki0cbj6b192h4jlfktg","pricing_plan_id":"cebpf4jnsgd1na2vs0mg"},{"bike_id":"8a67ee22-e899-46db-bf38-31fcb7e4849f","system_id":"levelo_inurba_marseille","lat":43.2961,"lon":5.37732,"is_reserved":false,"is_disabled":false,"rental_uris":{"android":"levelo://app?vid=8a67ee22-e899-46db-bf38-31fcb7e4849f","ios":"levelo://app?vid=8a67ee22-e899-46db-bf38-31fcb7e4849f"},"vehicle_type_id":"4","last_reported":1747519717,"current_range_meters":11600,"station_id":"","pricing_plan_id":"cebpf4jnsgd1na2vs0mg"},{"bike_id":"3980d76b-e904-45ba-9bbd-4ee10919b44c","system_id":"levelo_inurba_marseille","lat":43.31069,"lon":5.38187,"is_reserved":false,"is_disabled":false,"rental_uris":{"android":"levelo://app?vid=3980d76b-e904-45ba-9bbd-4ee10919b44c","ios":"levelo://app?vid=3980d76b-e904-45ba-9bbd-4ee10919b44c"},"vehicle_type_id":"4","last_reported":1747519717,"current_range_meters":11600,"station_id":"","pricing_plan_id":"cebpf4jnsgd1na2vs0mg"},{"bike_id":"4a86f4fc-3711-4a60-b7dd-21c6880091fe","system_id":"levelo_inurba_marseille","lat":43.27687,"lon":5.38954,"is_reserved":false,"is_disabled":false,"rental_uris":{"android":"levelo://app?vid=4a86f4fc-3711-4a60-b7dd-21c6880091fe","ios":"levelo://app?vid=4a86f4fc-3711-4a60-b7dd-21c6880091fe"},"vehicle_type_id":"4","last_reported":1747519717,"current_range_meters":11600,"station_id":"","pricing_plan_id":"cebpf4jnsgd1na2vs0mg"},{"bike_id":"14603e41-b2dd-4757-a53c-2e366aa4f983","system_id":"levelo_inurba_marseille","lat":43.26992,"lon":5.42817,"is_reserved":false,"is_disabled":false,"rental_uris":{"android":"levelo://app?vid=14603e41-b2dd-4757-a53c-2e366aa4f983","ios":"levelo://app?vid=14603e41-b2dd-4757-a53c-2e366aa4f983"},"vehicle_type_id":"4","last_reported":1747519717,"current_range_meters":11600,"station_id":"","pricing_plan_id":"cebpf4jnsgd1na2vs0mg"},{"bike_id":"2aaa1fec-5d89-4772-858b-830dca7816ff","system_id":"levelo_inurba_marseille","lat":43.30152,"lon":5.37381,"is_reserved":false,"is_disabled":false,"rental_uris":{"android":"levelo://app?vid=2aaa1fec-5d89-4772-858b-830dca7816ff","ios":"levelo://app?vid=2aaa1fec-5d89-4772-858b-830dca7816ff"},"vehicle_type_id":"4","last_reported":1747519717,"current_range_meters":11600,"station_id":"ce4bgs92rcd13ifvqcc0","pricing_plan_id":"cebpf4jnsgd1na2vs0mg"},{"bike_id":"0f42c805-92e1-4274-b532-29e3edd02304","system_id":"levelo_inurba_marseille","lat":43.29256,"lon":5.401282,"is_reserved":false,"is_disabled":false,"rental_uris":{"android":"levelo://app?vid=0f42c805-92e1-4274-b532-29e3edd02304","ios":"levelo://app?vid=0f42c805-92e1-4274-b532-29e3edd02304"},"vehicle_type_id":"4","last_reported":1747519717,"current_range_meters":11600,"station_id":"ce4bh312rcd13ifvqdk0","pricing_plan_id":"cebpf4jnsgd1na2vs0mg"},{"bike_id":"c167e95d-4bce-4760-94f3-a0a5f15d6789","system_id":"levelo_inurba_marseille","lat":43.275593,"lon":5.38416,"is_reserved":false,"is_disabled":false,"rental_uris":{"android":"levelo://app?vid=c167e95d-4bce-4760-94f3-a0a5f15d6789","ios":"levelo://app?vid=c167e95d-4bce-4760-94f3-a0a5f15d6789"},"vehicle_type_id":"4","last_reported":1747519717,"current_range_meters":11600,"station_id":"ce4bhh92rcd13ifvqfi0","pricing_plan_id":"cebpf4jnsgd1na2vs0mg"},{"bike_id":"9a5eb216-da74-45a0-a633-c5cb12ab6042","system_id":"levelo_inurba_marseille","lat":43.32289,"lon":5.38272,"is_reserved":false,"is_disabled":false,"rental_uris":{"android":"levelo://app?vid=9a5eb216-da74-45a0-a633-c5cb12ab6042","ios":"levelo://app?vid=9a5eb216-da74-45a0-a633-c5cb12ab6042"},"vehicle_type_id":"4","last_reported":1747519717,"current_range_meters":11600,"station_id":"ce4bhr12rcd13ifvqhqg","pricing_plan_id":"cebpf4jnsgd1na2vs0mg"},{"bike_id":"caf4c81d-8b81-4d8d-a4f9-9d00bac7ad70","system_id":"levelo_inurba_marseille","lat":43.30773,"lon":5.428,"is_reserved":false,"is_disabled":false,"rental_uris":{"android":"levelo://app?vid=caf4c81d-8b81-4d8d-a4f9-9d00bac7ad70","ios":"levelo://app?vid=caf4c81d-8b81-4d8d-a4f9-9d00bac7ad70"},"vehicle_type_id":"4","last_reported":1747519717,"current_range_meters":12000,"station_id":"","pricing_plan_id":"cebpf4jnsgd1na2vs0mg"},{"bike_id":"7d9dd8c1-69f5-4957-8992-21b219e4420c","system_id":"levelo_inurba_marseille","lat":43.24682,"lon":5.38151,"is_reserved":false,"is_disabled":false,"rental_uris":{"android":"levelo://app?vid=7d9dd8c1-69f5-4957-8992-21b219e4420c","ios":"levelo://app?vid=7d9dd8c1-69f5-4957-8992-21b219e4420c"},"vehicle_type_id":"4","last_reported":1747519717,"current_range_meters":12000,"station_id":"ce4bhih2rcd13ifvqfr0","pricing_plan_id":"cebpf4jnsgd1na2vs0mg"},{"bike_id":"ffc3ddf2-0082-4578-9e25-c91f5b4279bc","system_id":"levelo_inurba_marseille","lat":43.28302,"lon":5.41095,"is_reserved":false,"is_disabled":false,"rental_uris":{"android":"levelo://app?vid=ffc3ddf2-0082-4578-9e25-c91f5b4279bc","ios":"levelo://app?vid=ffc3ddf2-0082-4578-9e25-c91f5b4279bc"},"vehicle_type_id":"4","last_reported":1747519717,"current_range_meters":12800,"station_id":"","pricing_plan_id":"cebpf4jnsgd1na2vs0mg"},{"bike_id":"37069834-4ded-40f2-b4c0-1ef61dfb5c13","system_id":"levelo_inurba_marseille","lat":43.294159,"lon":5.386241,"is_reserved":false,"is_disabled":false,"rental_uris":{"android":"levelo://app?vid=37069834-4ded-40f2-b4c0-1ef61dfb5c13","ios":"levelo://app?vid=37069834-4ded-40f2-b4c0-1ef61dfb5c13"},"vehicle_type_id":"4","last_reported":1747519717,"current_range_meters":12800,"station_id":"ce4bh2h2rcd13ifvqdh0","pricing_plan_id":"cebpf4jnsgd1na2vs0mg"},{"bike_id":"c608898e-58b6-42f7-903a-6008119c7a64","system_id":"levelo_inurba_marseille","lat":43.24062,"lon":5.37754,"is_reserved":false,"is_disabled":false,"rental_uris":{"android":"levelo://app?vid=c608898e-58b6-42f7-903a-6008119c7a64","ios":"levelo://app?vid=c608898e-58b6-42f7-903a-6008119c7a64"},"vehicle_type_id":"4","last_reported":1747519717,"current_range_meters":12800,"station_id":"ce4bhnp2rcd13ifvqgvg","pricing_plan_id":"cebpf4jnsgd1na2vs0mg"},{"bike_id":"21c6d32c-90d0-47be-94c5-48372006aeda","system_id":"levelo_inurba_marseille","lat":43.32455,"lon":5.364729,"is_reserved":false,"is_disabled":false,"rental_uris":{"android":"levelo://app?vid=21c6d32c-90d0-47be-94c5-48372006aeda","ios":"levelo://app?vid=21c6d32c-90d0-47be-94c5-48372006aeda"},"vehicle_type_id":"4","last_reported":1747519717,"current_range_meters":12800,"station_id":"ce4bhs12rcd13ifvqhvg","pricing_plan_id":"cebpf4jnsgd1na2vs0mg"},{"bike_id":"3f6cdeef-95a1-4b1e-b3b7-07340d039b2d","system_id":"levelo_inurba_marseille","lat":43.30139,"lon":5.38777,"is_reserved":false,"is_disabled":false,"rental_uris":{"android":"levelo://app?vid=3f6cdeef-95a1-4b1e-b3b7-07340d039b2d","ios":"levelo://app?vid=3f6cdeef-95a1-4b1e-b3b7-07340d039b2d"},"vehicle_type_id":"4","last_reported":1747519717,"current_range_meters":13600,"station_id":"ce4bghh2rcd13ifvqb60","pricing_plan_id":"cebpf4jnsgd1na2vs0mg"},{"bike_id":"8e0e315d-afde-44b0-a7ae-652eccf3a622","system_id":"levelo_inurba_marseille","lat":43.30891,"lon":5.39657,"is_reserved":false,"is_disabled":false,"rental_uris":{"android":"levelo://app?vid=8e0e315d-afde-44b0-a7ae-652eccf3a622","ios":"levelo://app?vid=8e0e315d-afde-44b0-a7ae-652eccf3a622"},"vehicle_type_id":"4","last_reported":1747519717,"current_range_meters":13600,"station_id":"ce4bh012rcd13ifvqcv0","pricing_plan_id":"cebpf4jnsgd1na2vs0mg"},{"bike_id":"8dfe3edc-82df-4b5a-a412-16963c595c57","system_id":"levelo_inurba_marseille","lat":43.30882,"lon":5.39659,"is_reserved":false,"is_disabled":false,"rental_uris":{"android":"levelo://app?vid=8dfe3edc-82df-4b5a-a412-16963c595c57","ios":"levelo://app?vid=8dfe3edc-82df-4b5a-a412-16963c595c57"},"vehicle_type_id":"4","last_reported":1747519717,"current_range_meters":13600,"station_id":"ce4bh012rcd13ifvqcv0","pricing_plan_id":"cebpf4jnsgd1na2vs0mg"},{"bike_id":"c9de8ad8-3fc6-4b6d-a1f1-579938c9f153","system_id":"levelo_inurba_marseille","lat":43.294253,"lon":5.386237,"is_reserved":false,"is_disabled":false,"rental_uris":{"android":"levelo://app?vid=c9de8ad8-3fc6-4b6d-a1f1-579938c9f153","ios":"levelo://app?vid=c9de8ad8-3fc6-4b6d-a1f1-579938c9f153"},"vehicle_type_id":"4","last_reported":1747519717,"current_range_meters":13600,"station_id":"ce4bh2h2rcd13ifvqdh0","pricing_plan_id":"cebpf4jnsgd1na2vs0mg"},{"bike_id":"9fd2e10c-fbe3-4e23-a9c1-0ffaab070447","system_id":"levelo_inurba_marseille","lat":43.28715,"lon":5.37937,"is_reserved":false,"is_disabled":false,"rental_uris":{"android":"levelo://app?vid=9fd2e10c-fbe3-4e23-a9c1-0ffaab070447","ios":"levelo://app?vid=9fd2e10c-fbe3-4e23-a9c1-0ffaab070447"},"vehicle_type_id":"4","last_reported":1747519717,"current_range_meters":13600,"station_id":"ce4bh9p2rcd13ifvqec0","pricing_plan_id":"cebpf4jnsgd1na2vs0mg"},{"bike_id":"486f8830-46e0-4bfa-9dc3-54f1c2fc0ca6","system_id":"levelo_inurba_marseille","lat":43.32648,"lon":5.40992,"is_reserved":false,"is_disabled":false,"rental_uris":{"android":"levelo://app?vid=486f8830-46e0-4bfa-9dc3-54f1c2fc0ca6","ios":"levelo://app?vid=486f8830-46e0-4bfa-9dc3-54f1c2fc0ca6"},"vehicle_type_id":"4","last_reported":1747519717,"current_range_meters":13600,"station_id":"ce4bhpp2rcd13ifvqhgg","pricing_plan_id":"cebpf4jnsgd1na2vs0mg"},{"bike_id":"101323a8-0b67-45da-8cbc-ca338c41dc1f","system_id":"levelo_inurba_marseille","lat":43.3122,"lon":5.36862,"is_reserved":false,"is_disabled":false,"rental_uris":{"android":"levelo://app?vid=101323a8-0b67-45da-8cbc-ca338c41dc1f","ios":"levelo://app?vid=101323a8-0b67-45da-8cbc-ca338c41dc1f"},"vehicle_type_id":"4","last_reported":1747519717,"current_range_meters":14000,"station_id":"ce4bgl92rcd13ifvqbq0","pricing_plan_id":"cebpf4jnsgd1na2vs0mg"},{"bike_id":"00b2dc6d-9971-4194-a503-ab093db331f6","system_id":"levelo_inurba_marseille","lat":43.2892,"lon":5.38397,"is_reserved":false,"is_disabled":false,"rental_uris":{"android":"levelo://app?vid=00b2dc6d-9971-4194-a503-ab093db331f6","ios":"levelo://app?vid=00b2dc6d-9971-4194-a503-ab093db331f6"},"vehicle_type_id":"4","last_reported":1747519717,"current_range_meters":14000,"station_id":"ce4bh612rcd13ifvqe6g","pricing_plan_id":"cebpf4jnsgd1na2vs0mg"},{"bike_id":"07031ae6-f88a-448d-a474-8203fb88708a","system_id":"levelo_inurba_marseille","lat":43.303643,"lon":5.41881,"is_reserved":false,"is_disabled":false,"rental_uris":{"android":"levelo://app?vid=07031ae6-f88a-448d-a474-8203fb88708a","ios":"levelo://app?vid=07031ae6-f88a-448d-a474-8203fb88708a"},"vehicle_type_id":"4","last_reported":1747519717,"current_range_meters":14000,"station_id":"ce4bhop2rcd13ifvqh7g","pricing_plan_id":"cebpf4jnsgd1na2vs0mg"},{"bike_id":"bf57db90-db85-4c9c-a88e-fa64283ad7d7","system_id":"levelo_inurba_marseille","lat":43.30887,"lon":5.39631,"is_reserved":false,"is_disabled":false,"rental_uris":{"android":"levelo://app?vid=bf57db90-db85-4c9c-a88e-fa64283ad7d7","ios":"levelo://app?vid=bf57db90-db85-4c9c-a88e-fa64283ad7d7"},"vehicle_type_id":"4","last_reported":1747519717,"current_range_meters":14400,"station_id":"ce4bh012rcd13ifvqcv0","pricing_plan_id":"cebpf4jnsgd1na2vs0mg"},{"bike_id":"b2bcb91a-c797-44d3-b11c-a9c924fdd37f","system_id":"levelo_inurba_marseille","lat":43.30879,"lon":5.39633,"is_reserved":false,"is_disabled":false,"rental_uris":{"android":"levelo://app?vid=b2bcb91a-c797-44d3-b11c-a9c924fdd37f","ios":"levelo://app?vid=b2bcb91a-c797-44d3-b11c-a9c924fdd37f"},"vehicle_type_id":"4","last_reported":1747519717,"current_range_meters":14400,"station_id":"ce4bh012rcd13ifvqcv0","pricing_plan_id":"cebpf4jnsgd1na2vs0mg"},{"bike_id":"4739d0ee-0dbc-4b41-a171-18fe3d7e3cc9","system_id":"levelo_inurba_marseille","lat":43.29872,"lon":5.39768,"is_reserved":false,"is_disabled":false,"rental_uris":{"android":"levelo://app?vid=4739d0ee-0dbc-4b41-a171-18fe3d7e3cc9","ios":"levelo://app?vid=4739d0ee-0dbc-4b41-a171-18fe3d7e3cc9"},"vehicle_type_id":"4","last_reported":1747519717,"current_range_meters":14400,"station_id":"ce4bh0h2rcd13ifvqd50","pricing_plan_id":"cebpf4jnsgd1na2vs0mg"},{"bike_id":"06ce6dc4-ef33-4c7e-8fe4-965d98e984fb","system_id":"levelo_inurba_marseille","lat":43.28345,"lon":5.38102,"is_reserved":false,"is_disabled":false,"rental_uris":{"android":"levelo://app?vid=06ce6dc4-ef33-4c7e-8fe4-965d98e984fb","ios":"levelo://app?vid=06ce6dc4-ef33-4c7e-8fe4-965d98e984fb"},"vehicle_type_id":"4","last_reported":1747519717,"current_range_meters":14400,"station_id":"ce4bh412rcd13ifvqdr0","pricing_plan_id":"cebpf4jnsgd1na2vs0mg"},{"bike_id":"073b04fc-81d8-4d02-9068-9f3e68c33eb2","system_id":"levelo_inurba_marseille","lat":43.25815,"lon":5.39435,"is_reserved":false,"is_disabled":false,"rental_uris":{"android":"levelo://app?vid=073b04fc-81d8-4d02-9068-9f3e68c33eb2","ios":"levelo://app?vid=073b04fc-81d8-4d02-9068-9f3e68c33eb2"},"vehicle_type_id":"4","last_reported":1747519717,"current_range_meters":14400,"station_id":"ce4bhip2rcd13ifvqft0","pricing_plan_id":"cebpf4jnsgd1na2vs0mg"},{"bike_id":"3f72ffd0-76cd-43fb-99b3-53b6076a8add","system_id":"levelo_inurba_marseille","lat":43.31123,"lon":5.37776,"is_reserved":false,"is_disabled":false,"rental_uris":{"android":"levelo://app?vid=3f72ffd0-76cd-43fb-99b3-53b6076a8add","ios":"levelo://app?vid=3f72ffd0-76cd-43fb-99b3-53b6076a8add"},"vehicle_type_id":"4","last_reported":1747519717,"current_range_meters":14800,"station_id":"ce4bgt92rcd13ifvqcg0","pricing_plan_id":"cebpf4jnsgd1na2vs0mg"},{"bike_id":"0e1bd751-1545-46b3-a4cf-7e2b99f82d96","system_id":"levelo_inurba_marseille","lat":43.305752,"lon":5.393501,"is_reserved":false,"is_disabled":false,"rental_uris":{"android":"levelo://app?vid=0e1bd751-1545-46b3-a4cf-7e2b99f82d96","ios":"levelo://app?vid=0e1bd751-1545-46b3-a4cf-7e2b99f82d96"},"vehicle_type_id":"4","last_reported":1747519717,"current_range_meters":14800,"station_id":"ce4bh0p2rcd13ifvqd80","pricing_plan_id":"cebpf4jnsgd1na2vs0mg"},{"bike_id":"ac3834a9-965b-4a58-89b3-af339b7bb1c6","system_id":"levelo_inurba_marseille","lat":43.28418,"lon":5.37511,"is_reserved":false,"is_disabled":false,"rental_uris":{"android":"levelo://app?vid=ac3834a9-965b-4a58-89b3-af339b7bb1c6","ios":"levelo://app?vid=ac3834a9-965b-4a58-89b3-af339b7bb1c6"},"vehicle_type_id":"4","last_reported":1747519717,"current_range_meters":14800,"station_id":"ce4bh412rcd13ifvqds0","pricing_plan_id":"cebpf4jnsgd1na2vs0mg"},{"bike_id":"b533ef83-850f-4fb4-973c-169f2b7c8873","system_id":"levelo_inurba_marseille","lat":43.29196,"lon":5.35813,"is_reserved":false,"is_disabled":false,"rental_uris":{"android":"levelo://app?vid=b533ef83-850f-4fb4-973c-169f2b7c8873","ios":"levelo://app?vid=b533ef83-850f-4fb4-973c-169f2b7c8873"},"vehicle_type_id":"4","last_reported":1747519717,"current_range_meters":14800,"station_id":"ce4bhb12rcd13ifvqel0","pricing_plan_id":"cebpf4jnsgd1na2vs0mg"},{"bike_id":"584c70d0-0918-4aa0-b289-fcc6a9442003","system_id":"levelo_inurba_marseille","lat":43.25088,"lon":5.39523,"is_reserved":false,"is_disabled":false,"rental_uris":{"android":"levelo://app?vid=584c70d0-0918-4aa0-b289-fcc6a9442003","ios":"levelo://app?vid=584c70d0-0918-4aa0-b289-fcc6a9442003"},"vehicle_type_id":"4","last_reported":1747519717,"current_range_meters":14800,"station_id":"ce4bhm12rcd13ifvqgkg","pricing_plan_id":"cebpf4jnsgd1na2vs0mg"},{"bike_id":"4b0b1f5b-0b5f-4c37-a22b-41ace886ce88","system_id":"levelo_inurba_marseille","lat":43.27635,"lon":5.42645,"is_reserved":false,"is_disabled":false,"rental_uris":{"android":"levelo://app?vid=4b0b1f5b-0b5f-4c37-a22b-41ace886ce88","ios":"levelo://app?vid=4b0b1f5b-0b5f-4c37-a22b-41ace886ce88"},"vehicle_type_id":"4","last_reported":1747519717,"current_range_meters":15200,"station_id":"","pricing_plan_id":"cebpf4jnsgd1na2vs0mg"},{"bike_id":"dc9cc3cc-1b75-4b04-a181-8cba63c152a7","system_id":"levelo_inurba_marseille","lat":43.24652,"lon":5.38894,"is_reserved":false,"is_disabled":false,"rental_uris":{"android":"levelo://app?vid=dc9cc3cc-1b75-4b04-a181-8cba63c152a7","ios":"levelo://app?vid=dc9cc3cc-1b75-4b04-a181-8cba63c152a7"},"vehicle_type_id":"4","last_reported":1747519717,"current_range_meters":15200,"station_id":"ce4bhg12rcd13ifvqf60","pricing_plan_id":"cebpf4jnsgd1na2vs0mg"},{"bike_id":"62231105-e992-48eb-9f23-fba1b796884d","system_id":"levelo_inurba_marseille","lat":43.33024,"lon":5.39044,"is_reserved":false,"is_disabled":false,"rental_uris":{"android":"levelo://app?vid=62231105-e992-48eb-9f23-fba1b796884d","ios":"levelo://app?vid=62231105-e992-48eb-9f23-fba1b796884d"},"vehicle_type_id":"4","last_reported":1747519717,"current_range_meters":15200,"station_id":"ce4bhr92rcd13ifvqhrg","pricing_plan_id":"cebpf4jnsgd1na2vs0mg"},{"bike_id":"55982159-14b0-423d-a8c0-c157cf2770cd","system_id":"levelo_inurba_marseille","lat":43.277858,"lon":5.362273,"is_reserved":false,"is_disabled":false,"rental_uris":{"android":"levelo://app?vid=55982159-14b0-423d-a8c0-c157cf2770cd","ios":"levelo://app?vid=55982159-14b0-423d-a8c0-c157cf2770cd"},"vehicle_type_id":"4","last_reported":1747519717,"current_range_meters":16000,"station_id":"","pricing_plan_id":"cebpf4jnsgd1na2vs0mg"},{"bike_id":"b26a0dd7-cbdc-4ab7-8def-31c4b88b224a","system_id":"levelo_inurba_marseille","lat":43.31215,"lon":5.39254,"is_reserved":false,"is_disabled":false,"rental_uris":{"android":"levelo://app?vid=b26a0dd7-cbdc-4ab7-8def-31c4b88b224a","ios":"levelo://app?vid=b26a0dd7-cbdc-4ab7-8def-31c4b88b224a"},"vehicle_type_id":"4","last_reported":1747519717,"current_range_meters":16000,"station_id":"","pricing_plan_id":"cebpf4jnsgd1na2vs0mg"},{"bike_id":"d796888f-19f7-44cb-b77a-5927886255b3","system_id":"levelo_inurba_marseille","lat":43.29722,"lon":5.3715,"is_reserved":false,"is_disabled":false,"rental_uris":{"android":"levelo://app?vid=d796888f-19f7-44cb-b77a-5927886255b3","ios":"levelo://app?vid=d796888f-19f7-44cb-b77a-5927886255b3"},"vehicle_type_id":"4","last_reported":1747519717,"current_range_meters":16000,"station_id":"","pricing_plan_id":"cebpf4jnsgd1na2vs0mg"},{"bike_id":"5911af4c-0fec-4cf2-a307-b3bae3f3f5c8","system_id":"levelo_inurba_marseille","lat":43.31327,"lon":5.39687,"is_reserved":false,"is_disabled":false,"rental_uris":{"android":"levelo://app?vid=5911af4c-0fec-4cf2-a307-b3bae3f3f5c8","ios":"levelo://app?vid=5911af4c-0fec-4cf2-a307-b3bae3f3f5c8"},"vehicle_type_id":"4","last_reported":1747519717,"current_range_meters":16000,"station_id":"ce4bgvp2rcd13ifvqcu0","pricing_plan_id":"cebpf4jnsgd1na2vs0mg"},{"bike_id":"6190d19d-23e4-479e-988f-fc5815b9ef13","system_id":"levelo_inurba_marseille","lat":43.29264,"lon":5.38445,"is_reserved":false,"is_disabled":false,"rental_uris":{"android":"levelo://app?vid=6190d19d-23e4-479e-988f-fc5815b9ef13","ios":"levelo://app?vid=6190d19d-23e4-479e-988f-fc5815b9ef13"},"vehicle_type_id":"4","last_reported":1747519717,"current_range_meters":16000,"station_id":"ce4bh692rcd13ifvqea0","pricing_plan_id":"cebpf4jnsgd1na2vs0mg"},{"bike_id":"2b57e6e3-04cc-444e-b88e-1cf9848a84ad","system_id":"levelo_inurba_marseille","lat":43.29799,"lon":5.39347,"is_reserved":false,"is_disabled":false,"rental_uris":{"android":"levelo://app?vid=2b57e6e3-04cc-444e-b88e-1cf9848a84ad","ios":"levelo://app?vid=2b57e6e3-04cc-444e-b88e-1cf9848a84ad"},"vehicle_type_id":"4","last_reported":1747519717,"current_range_meters":16000,"station_id":"chh1huq6cuj3fo74tm60","pricing_plan_id":"cebpf4jnsgd1na2vs0mg"},{"bike_id":"0c159fb1-4611-4289-8bc9-111bb87fd7a0","system_id":"levelo_inurba_marseille","lat":43.29541,"lon":5.38536,"is_reserved":false,"is_disabled":false,"rental_uris":{"android":"levelo://app?vid=0c159fb1-4611-4289-8bc9-111bb87fd7a0","ios":"levelo://app?vid=0c159fb1-4611-4289-8bc9-111bb87fd7a0"},"vehicle_type_id":"4","last_reported":1747519717,"current_range_meters":16400,"station_id":"ce4bgih2rcd13ifvqba0","pricing_plan_id":"cebpf4jnsgd1na2vs0mg"},{"bike_id":"118f9ade-fa10-43bf-b940-be2fd30397d5","system_id":"levelo_inurba_marseille","lat":43.29801,"lon":5.38145,"is_reserved":false,"is_disabled":false,"rental_uris":{"android":"levelo://app?vid=118f9ade-fa10-43bf-b940-be2fd30397d5","ios":"levelo://app?vid=118f9ade-fa10-43bf-b940-be2fd30397d5"},"vehicle_type_id":"4","last_reported":1747519717,"current_range_meters":16400,"station_id":"ce4bgip2rcd13ifvqbb0","pricing_plan_id":"cebpf4jnsgd1na2vs0mg"},{"bike_id":"079fe1aa-0b90-49ec-9b81-413da1de78b9","system_id":"levelo_inurba_marseille","lat":43.30426,"lon":5.38888,"is_reserved":false,"is_disabled":false,"rental_uris":{"android":"levelo://app?vid=079fe1aa-0b90-49ec-9b81-413da1de78b9","ios":"levelo://app?vid=079fe1aa-0b90-49ec-9b81-413da1de78b9"},"vehicle_type_id":"4","last_reported":1747519717,"current_range_meters":16400,"station_id":"ce4bgk12rcd13ifvqbi0","pricing_plan_id":"cebpf4jnsgd1na2vs0mg"},{"bike_id":"90da3ac5-51d8-49f3-a744-6e54cb282044","system_id":"levelo_inurba_marseille","lat":43.303031,"lon":5.391758,"is_reserved":false,"is_disabled":false,"rental_uris":{"android":"levelo://app?vid=90da3ac5-51d8-49f3-a744-6e54cb282044","ios":"levelo://app?vid=90da3ac5-51d8-49f3-a744-6e54cb282044"},"vehicle_type_id":"4","last_reported":1747519717,"current_range_meters":16400,"station_id":"ce4bgkh2rcd13ifvqbk0","pricing_plan_id":"cebpf4jnsgd1na2vs0mg"},{"bike_id":"07ebc00b-a954-4610-aea7-7302ca8282d8","system_id":"levelo_inurba_marseille","lat":43.27381,"lon":5.36255,"is_reserved":false,"is_disabled":false,"rental_uris":{"android":"levelo://app?vid=07ebc00b-a954-4610-aea7-7302ca8282d8","ios":"levelo://app?vid=07ebc00b-a954-4610-aea7-7302ca8282d8"},"vehicle_type_id":"4","last_reported":1747519717,"current_range_meters":16400,"station_id":"ce4bhbh2rcd13ifvqeo0","pricing_plan_id":"cebpf4jnsgd1na2vs0mg"},{"bike_id":"c5ff94be-c2ea-413f-a053-ee20ee5d180d","system_id":"levelo_inurba_marseille","lat":43.31117,"lon":5.37763,"is_reserved":false,"is_disabled":false,"rental_uris":{"android":"levelo://app?vid=c5ff94be-c2ea-413f-a053-ee20ee5d180d","ios":"levelo://app?vid=c5ff94be-c2ea-413f-a053-ee20ee5d180d"},"vehicle_type_id":"4","last_reported":1747519717,"current_range_meters":16800,"station_id":"ce4bgt92rcd13ifvqcg0","pricing_plan_id":"cebpf4jnsgd1na2vs0mg"},{"bike_id":"fd02712b-7e36-413d-9b23-073fcfa4aeec","system_id":"levelo_inurba_marseille","lat":43.30877,"lon":5.3963,"is_reserved":false,"is_disabled":false,"rental_uris":{"android":"levelo://app?vid=fd02712b-7e36-413d-9b23-073fcfa4aeec","ios":"levelo://app?vid=fd02712b-7e36-413d-9b23-073fcfa4aeec"},"vehicle_type_id":"4","last_reported":1747519717,"current_range_meters":16800,"station_id":"ce4bh012rcd13ifvqcv0","pricing_plan_id":"cebpf4jnsgd1na2vs0mg"},{"bike_id":"cbff0bd8-ab69-455f-978e-8e044433b1ea","system_id":"levelo_inurba_marseille","lat":43.30324,"lon":5.40439,"is_reserved":false,"is_disabled":false,"rental_uris":{"android":"levelo://app?vid=cbff0bd8-ab69-455f-978e-8e044433b1ea","ios":"levelo://app?vid=cbff0bd8-ab69-455f-978e-8e044433b1ea"},"vehicle_type_id":"4","last_reported":1747519717,"current_range_meters":16800,"station_id":"ce4bh012rcd13ifvqd10","pricing_plan_id":"cebpf4jnsgd1na2vs0mg"},{"bike_id":"b12ec03c-835f-45f9-92d7-543c73572ceb","system_id":"levelo_inurba_marseille","lat":43.30319,"lon":5.40437,"is_reserved":false,"is_disabled":false,"rental_uris":{"android":"levelo://app?vid=b12ec03c-835f-45f9-92d7-543c73572ceb","ios":"levelo://app?vid=b12ec03c-835f-45f9-92d7-543c73572ceb"},"vehicle_type_id":"4","last_reported":1747519717,"current_range_meters":16800,"station_id":"ce4bh012rcd13ifvqd10","pricing_plan_id":"cebpf4jnsgd1na2vs0mg"},{"bike_id":"0df27879-b9ab-4c1d-86ff-031abc232570","system_id":"levelo_inurba_marseille","lat":43.28703,"lon":5.37401,"is_reserved":false,"is_disabled":false,"rental_uris":{"android":"levelo://app?vid=0df27879-b9ab-4c1d-86ff-031abc232570","ios":"levelo://app?vid=0df27879-b9ab-4c1d-86ff-031abc232570"},"vehicle_type_id":"4","last_reported":1747519717,"current_range_meters":16800,"station_id":"ce4bh3p2rcd13ifvqdq0","pricing_plan_id":"cebpf4jnsgd1na2vs0mg"},{"bike_id":"ef6f2706-4c8d-4c10-8fae-9adb690c3f3e","system_id":"levelo_inurba_marseille","lat":43.293125,"lon":5.385226,"is_reserved":false,"is_disabled":false,"rental_uris":{"android":"levelo://app?vid=ef6f2706-4c8d-4c10-8fae-9adb690c3f3e","ios":"levelo://app?vid=ef6f2706-4c8d-4c10-8fae-9adb690c3f3e"},"vehicle_type_id":"4","last_reported":1747519717,"current_range_meters":16800,"station_id":"ce4bh692rcd13ifvqea0","pricing_plan_id":"cebpf4jnsgd1na2vs0mg"},{"bike_id":"f62fb405-e518-4d32-9e23-6dda6dc71957","system_id":"levelo_inurba_marseille","lat":43.27174,"lon":5.40997,"is_reserved":false,"is_disabled":false,"rental_uris":{"android":"levelo://app?vid=f62fb405-e518-4d32-9e23-6dda6dc71957","ios":"levelo://app?vid=f62fb405-e518-4d32-9e23-6dda6dc71957"},"vehicle_type_id":"4","last_reported":1747519717,"current_range_meters":16800,"station_id":"ce4bhl12rcd13ifvqgf0","pricing_plan_id":"cebpf4jnsgd1na2vs0mg"},{"bike_id":"1df77482-56ed-43f0-a80c-7f28eed744f8","system_id":"levelo_inurba_marseille","lat":43.25135,"lon":5.40318,"is_reserved":false,"is_disabled":false,"rental_uris":{"android":"levelo://app?vid=1df77482-56ed-43f0-a80c-7f28eed744f8","ios":"levelo://app?vid=1df77482-56ed-43f0-a80c-7f28eed744f8"},"vehicle_type_id":"4","last_reported":1747519717,"current_range_meters":16800,"station_id":"ce4bhlh2rcd13ifvqgig","pricing_plan_id":"cebpf4jnsgd1na2vs0mg"},{"bike_id":"5ddd41df-5811-4b09-99f7-599fa0ee82b0","system_id":"levelo_inurba_marseille","lat":43.24544,"lon":5.39533,"is_reserved":false,"is_disabled":false,"rental_uris":{"android":"levelo://app?vid=5ddd41df-5811-4b09-99f7-599fa0ee82b0","ios":"levelo://app?vid=5ddd41df-5811-4b09-99f7-599fa0ee82b0"},"vehicle_type_id":"4","last_reported":1747519717,"current_range_meters":16800,"station_id":"ce4bhlp2rcd13ifvqgjg","pricing_plan_id":"cebpf4jnsgd1na2vs0mg"},{"bike_id":"cfb3f049-f7cb-4ec9-b1a9-0a8a4b33e367","system_id":"levelo_inurba_marseille","lat":43.29537,"lon":5.38546,"is_reserved":false,"is_disabled":false,"rental_uris":{"android":"levelo://app?vid=cfb3f049-f7cb-4ec9-b1a9-0a8a4b33e367","ios":"levelo://app?vid=cfb3f049-f7cb-4ec9-b1a9-0a8a4b33e367"},"vehicle_type_id":"4","last_reported":1747519717,"current_range_meters":17200,"station_id":"ce4bgih2rcd13ifvqba0","pricing_plan_id":"cebpf4jnsgd1na2vs0mg"},{"bike_id":"d96dc6bd-f013-4f09-a73c-897b2d8c0f21","system_id":"levelo_inurba_marseille","lat":43.31067,"lon":5.38354,"is_reserved":false,"is_disabled":false,"rental_uris":{"android":"levelo://app?vid=d96dc6bd-f013-4f09-a73c-897b2d8c0f21","ios":"levelo://app?vid=d96dc6bd-f013-4f09-a73c-897b2d8c0f21"},"vehicle_type_id":"4","last_reported":1747519717,"current_range_meters":17200,"station_id":"ce4bgv92rcd13ifvqcr0","pricing_plan_id":"cebpf4jnsgd1na2vs0mg"},{"bike_id":"a850da5e-2c6f-4699-bc79-e368f4fdbff8","system_id":"levelo_inurba_marseille","lat":43.31068,"lon":5.38361,"is_reserved":false,"is_disabled":false,"rental_uris":{"android":"levelo://app?vid=a850da5e-2c6f-4699-bc79-e368f4fdbff8","ios":"levelo://app?vid=a850da5e-2c6f-4699-bc79-e368f4fdbff8"},"vehicle_type_id":"4","last_reported":1747519717,"current_range_meters":17200,"station_id":"ce4bgv92rcd13ifvqcr0","pricing_plan_id":"cebpf4jnsgd1na2vs0mg"},{"bike_id":"53938dfc-7ac1-414c-bf24-f731ccf09b34","system_id":"levelo_inurba_marseille","lat":43.29415,"lon":5.38625,"is_reserved":false,"is_disabled":false,"rental_uris":{"android":"levelo://app?vid=53938dfc-7ac1-414c-bf24-f731ccf09b34","ios":"levelo://app?vid=53938dfc-7ac1-414c-bf24-f731ccf09b34"},"vehicle_type_id":"4","last_reported":1747519717,"current_range_meters":17200,"station_id":"ce4bh2h2rcd13ifvqdh0","pricing_plan_id":"cebpf4jnsgd1na2vs0mg"},{"bike_id":"b70526ec-43a3-4b67-9608-c5e3c822eab0","system_id":"levelo_inurba_marseille","lat":43.2942,"lon":5.3861,"is_reserved":false,"is_disabled":false,"rental_uris":{"android":"levelo://app?vid=b70526ec-43a3-4b67-9608-c5e3c822eab0","ios":"levelo://app?vid=b70526ec-43a3-4b67-9608-c5e3c822eab0"},"vehicle_type_id":"4","last_reported":1747519717,"current_range_meters":17200,"station_id":"ce4bh2h2rcd13ifvqdh0","pricing_plan_id":"cebpf4jnsgd1na2vs0mg"},{"bike_id":"38ee4832-e8b2-49dc-bda0-833ec8b782cc","system_id":"levelo_inurba_marseille","lat":43.295775,"lon":5.399745,"is_reserved":false,"is_disabled":false,"rental_uris":{"android":"levelo://app?vid=38ee4832-e8b2-49dc-bda0-833ec8b782cc","ios":"levelo://app?vid=38ee4832-e8b2-49dc-bda0-833ec8b782cc"},"vehicle_type_id":"4","last_reported":1747519717,"current_range_meters":17200,"station_id":"ce4bh312rcd13ifvqdj0","pricing_plan_id":"cebpf4jnsgd1na2vs0mg"},{"bike_id":"580590d2-fb77-4c6f-8285-c1071dd9c32b","system_id":"levelo_inurba_marseille","lat":43.28937,"lon":5.3962,"is_reserved":false,"is_disabled":false,"rental_uris":{"android":"levelo://app?vid=580590d2-fb77-4c6f-8285-c1071dd9c32b","ios":"levelo://app?vid=580590d2-fb77-4c6f-8285-c1071dd9c32b"},"vehicle_type_id":"4","last_reported":1747519717,"current_range_meters":17200,"station_id":"ce4bh3h2rcd13ifvqdn0","pricing_plan_id":"cebpf4jnsgd1na2vs0mg"},{"bike_id":"942d70f0-6de3-463e-b885-a14fc7604da5","system_id":"levelo_inurba_marseille","lat":43.24671,"lon":5.38161,"is_reserved":false,"is_disabled":false,"rental_uris":{"android":"levelo://app?vid=942d70f0-6de3-463e-b885-a14fc7604da5","ios":"levelo://app?vid=942d70f0-6de3-463e-b885-a14fc7604da5"},"vehicle_type_id":"4","last_reported":1747519717,"current_range_meters":17200,"station_id":"ce4bhih2rcd13ifvqfr0","pricing_plan_id":"cebpf4jnsgd1na2vs0mg"},{"bike_id":"58887f66-7108-4294-a00e-551c17af804a","system_id":"levelo_inurba_marseille","lat":43.26327,"lon":5.40522,"is_reserved":false,"is_disabled":false,"rental_uris":{"android":"levelo://app?vid=58887f66-7108-4294-a00e-551c17af804a","ios":"levelo://app?vid=58887f66-7108-4294-a00e-551c17af804a"},"vehicle_type_id":"4","last_reported":1747519717,"current_range_meters":17200,"station_id":"ce4bhmh2rcd13ifvqgmg","pricing_plan_id":"cebpf4jnsgd1na2vs0mg"},{"bike_id":"06c033d2-3862-4b05-a45e-6ce62efead61","system_id":"levelo_inurba_marseille","lat":43.27815,"lon":5.40712,"is_reserved":false,"is_disabled":false,"rental_uris":{"android":"levelo://app?vid=06c033d2-3862-4b05-a45e-6ce62efead61","ios":"levelo://app?vid=06c033d2-3862-4b05-a45e-6ce62efead61"},"vehicle_type_id":"4","last_reported":1747519717,"current_range_meters":17200,"station_id":"ce4bhnh2rcd13ifvqgtg","pricing_plan_id":"cebpf4jnsgd1na2vs0mg"},{"bike_id":"c08dd715-216a-4a65-896d-b33f6690e3de","system_id":"levelo_inurba_marseille","lat":43.29539,"lon":5.38535,"is_reserved":false,"is_disabled":false,"rental_uris":{"android":"levelo://app?vid=c08dd715-216a-4a65-896d-b33f6690e3de","ios":"levelo://app?vid=c08dd715-216a-4a65-896d-b33f6690e3de"},"vehicle_type_id":"4","last_reported":1747519717,"current_range_meters":17600,"station_id":"ce4bgih2rcd13ifvqba0","pricing_plan_id":"cebpf4jnsgd1na2vs0mg"},{"bike_id":"bc991475-44d7-4563-b1c7-1cc1877d18bc","system_id":"levelo_inurba_marseille","lat":43.31069,"lon":5.38345,"is_reserved":false,"is_disabled":false,"rental_uris":{"android":"levelo://app?vid=bc991475-44d7-4563-b1c7-1cc1877d18bc","ios":"levelo://app?vid=bc991475-44d7-4563-b1c7-1cc1877d18bc"},"vehicle_type_id":"4","last_reported":1747519717,"current_range_meters":17600,"station_id":"ce4bgv92rcd13ifvqcr0","pricing_plan_id":"cebpf4jnsgd1na2vs0mg"},{"bike_id":"6fcf7786-604b-45e4-ad5a-9622ad3ce05f","system_id":"levelo_inurba_marseille","lat":43.29195,"lon":5.39316,"is_reserved":false,"is_disabled":false,"rental_uris":{"android":"levelo://app?vid=6fcf7786-604b-45e4-ad5a-9622ad3ce05f","ios":"levelo://app?vid=6fcf7786-604b-45e4-ad5a-9622ad3ce05f"},"vehicle_type_id":"4","last_reported":1747519717,"current_range_meters":17600,"station_id":"ce4bh192rcd13ifvqdd0","pricing_plan_id":"cebpf4jnsgd1na2vs0mg"},{"bike_id":"c38c0434-7c0b-4918-a236-1841e549db1d","system_id":"levelo_inurba_marseille","lat":43.25114,"lon":5.40335,"is_reserved":false,"is_disabled":false,"rental_uris":{"android":"levelo://app?vid=c38c0434-7c0b-4918-a236-1841e549db1d","ios":"levelo://app?vid=c38c0434-7c0b-4918-a236-1841e549db1d"},"vehicle_type_id":"4","last_reported":1747519717,"current_range_meters":17600,"station_id":"ce4bhlh2rcd13ifvqgig","pricing_plan_id":"cebpf4jnsgd1na2vs0mg"},{"bike_id":"ed34fad4-c48e-4c1a-b9b1-8eb1cd77d573","system_id":"levelo_inurba_marseille","lat":43.30949,"lon":5.38636,"is_reserved":false,"is_disabled":false,"rental_uris":{"android":"levelo://app?vid=ed34fad4-c48e-4c1a-b9b1-8eb1cd77d573","ios":"levelo://app?vid=ed34fad4-c48e-4c1a-b9b1-8eb1cd77d573"},"vehicle_type_id":"4","last_reported":1747519717,"current_range_meters":17600,"station_id":"ce4bhqh2rcd13ifvqhmg","pricing_plan_id":"cebpf4jnsgd1na2vs0mg"},{"bike_id":"c591037e-9bdc-4128-b08a-269580cd419f","system_id":"levelo_inurba_marseille","lat":43.31978,"lon":5.38123,"is_reserved":false,"is_disabled":false,"rental_uris":{"android":"levelo://app?vid=c591037e-9bdc-4128-b08a-269580cd419f","ios":"levelo://app?vid=c591037e-9bdc-4128-b08a-269580cd419f"},"vehicle_type_id":"4","last_reported":1747519717,"current_range_meters":17600,"station_id":"ce4bhr12rcd13ifvqhpg","pricing_plan_id":"cebpf4jnsgd1na2vs0mg"},{"bike_id":"19456222-7d38-48cf-a950-06daadd07927","system_id":"levelo_inurba_marseille","lat":43.25026,"lon":5.37534,"is_reserved":false,"is_disabled":false,"rental_uris":{"android":"levelo://app?vid=19456222-7d38-48cf-a950-06daadd07927","ios":"levelo://app?vid=19456222-7d38-48cf-a950-06daadd07927"},"vehicle_type_id":"4","last_reported":1747519717,"current_range_meters":18000,"station_id":"","pricing_plan_id":"cebpf4jnsgd1na2vs0mg"},{"bike_id":"bf2b2bfb-9733-4bda-908d-03391ae976cc","system_id":"levelo_inurba_marseille","lat":43.31189,"lon":5.41605,"is_reserved":false,"is_disabled":false,"rental_uris":{"android":"levelo://app?vid=bf2b2bfb-9733-4bda-908d-03391ae976cc","ios":"levelo://app?vid=bf2b2bfb-9733-4bda-908d-03391ae976cc"},"vehicle_type_id":"4","last_reported":1747519717,"current_range_meters":18000,"station_id":"","pricing_plan_id":"cebpf4jnsgd1na2vs0mg"},{"bike_id":"86603db7-b462-4e72-8622-a2dee8bb2920","system_id":"levelo_inurba_marseille","lat":43.337444,"lon":5.374475,"is_reserved":false,"is_disabled":false,"rental_uris":{"android":"levelo://app?vid=86603db7-b462-4e72-8622-a2dee8bb2920","ios":"levelo://app?vid=86603db7-b462-4e72-8622-a2dee8bb2920"},"vehicle_type_id":"4","last_reported":1747519717,"current_range_meters":18000,"station_id":"","pricing_plan_id":"cebpf4jnsgd1na2vs0mg"},{"bike_id":"3fbb0458-0dc9-405f-969c-4b2308da0293","system_id":"levelo_inurba_marseille","lat":43.29596,"lon":5.3811,"is_reserved":false,"is_disabled":false,"rental_uris":{"android":"levelo://app?vid=3fbb0458-0dc9-405f-969c-4b2308da0293","ios":"levelo://app?vid=3fbb0458-0dc9-405f-969c-4b2308da0293"},"vehicle_type_id":"4","last_reported":1747519717,"current_range_meters":18000,"station_id":"ce4bgl12rcd13ifvqbo0","pricing_plan_id":"cebpf4jnsgd1na2vs0mg"},{"bike_id":"5dee036b-29cd-483a-bada-e312729a7e07","system_id":"levelo_inurba_marseille","lat":43.30812,"lon":5.38147,"is_reserved":false,"is_disabled":false,"rental_uris":{"android":"levelo://app?vid=5dee036b-29cd-483a-bada-e312729a7e07","ios":"levelo://app?vid=5dee036b-29cd-483a-bada-e312729a7e07"},"vehicle_type_id":"4","last_reported":1747519717,"current_range_meters":18000,"station_id":"ce4bgt12rcd13ifvqce0","pricing_plan_id":"cebpf4jnsgd1na2vs0mg"},{"bike_id":"ab17df2d-b611-483b-8f76-a22e4741131a","system_id":"levelo_inurba_marseille","lat":43.29525,"lon":5.39401,"is_reserved":false,"is_disabled":false,"rental_uris":{"android":"levelo://app?vid=ab17df2d-b611-483b-8f76-a22e4741131a","ios":"levelo://app?vid=ab17df2d-b611-483b-8f76-a22e4741131a"},"vehicle_type_id":"4","last_reported":1747519717,"current_range_meters":18000,"station_id":"ce4bh292rcd13ifvqdf0","pricing_plan_id":"cebpf4jnsgd1na2vs0mg"},{"bike_id":"747dee0c-4306-48a6-a985-edd2a0809808","system_id":"levelo_inurba_marseille","lat":43.29421,"lon":5.38608,"is_reserved":false,"is_disabled":false,"rental_uris":{"android":"levelo://app?vid=747dee0c-4306-48a6-a985-edd2a0809808","ios":"levelo://app?vid=747dee0c-4306-48a6-a985-edd2a0809808"},"vehicle_type_id":"4","last_reported":1747519717,"current_range_meters":18000,"station_id":"ce4bh2h2rcd13ifvqdh0","pricing_plan_id":"cebpf4jnsgd1na2vs0mg"},{"bike_id":"8dbdaf6e-99e1-4012-a611-0aeb59dddc89","system_id":"levelo_inurba_marseille","lat":43.26176,"lon":5.37395,"is_reserved":false,"is_disabled":false,"rental_uris":{"android":"levelo://app?vid=8dbdaf6e-99e1-4012-a611-0aeb59dddc89","ios":"levelo://app?vid=8dbdaf6e-99e1-4012-a611-0aeb59dddc89"},"vehicle_type_id":"4","last_reported":1747519717,"current_range_meters":18000,"station_id":"ce4bhgp2rcd13ifvqfc0","pricing_plan_id":"cebpf4jnsgd1na2vs0mg"},{"bike_id":"4ece3d50-0242-4934-82c7-3f25c018623e","system_id":"levelo_inurba_marseille","lat":43.24386,"lon":5.3706,"is_reserved":false,"is_disabled":false,"rental_uris":{"android":"levelo://app?vid=4ece3d50-0242-4934-82c7-3f25c018623e","ios":"levelo://app?vid=4ece3d50-0242-4934-82c7-3f25c018623e"},"vehicle_type_id":"4","last_reported":1747519717,"current_range_meters":18000,"station_id":"ce4bhhh2rcd13ifvqfk0","pricing_plan_id":"cebpf4jnsgd1na2vs0mg"},{"bike_id":"60620d14-410e-4cf6-af31-fa0e8460721a","system_id":"levelo_inurba_marseille","lat":43.25598,"lon":5.3825,"is_reserved":false,"is_disabled":false,"rental_uris":{"android":"levelo://app?vid=60620d14-410e-4cf6-af31-fa0e8460721a","ios":"levelo://app?vid=60620d14-410e-4cf6-af31-fa0e8460721a"},