{"last_updated":1736669472,"ttl":60,"version":"2.2","data":{"bikes":[{"bike_id":"a45576f7-42f1-4909-b017-bd1e8379966a","system_id":"levelo_inurba_marseille","lat":43.30023,"lon":5.44028,"is_reserved":false,"is_disabled":false,"rental_uris":{"android":"levelo://app?vid=a45576f7-42f1-4909-b017-bd1e8379966a","ios":"levelo://app?vid=a45576f7-42f1-4909-b017-bd1e8379966a"},"vehicle_type_id":"4","last_reported":1736669472,"current_range_meters":22400,"station_id":"","pricing_plan_id":"cebpf4jnsgd1na2vs0mg"},{"bike_id":"8cc03987-fd7d-4d2e-9ed8-4d043c83c82c","system_id":"levelo_inurba_marseille","lat":43.29681,"lon":5.37918,"is_reserved":false,"is_disabled":false,"rental_uris":{"android":"levelo://app?vid=8cc03987-fd7d-4d2e-9ed8-4d043c83c82c","ios":"levelo://app?vid=8cc03987-fd7d-4d2e-9ed8-4d043c83c82c"},"vehicle_type_id":"4","last_reported":1736669472,"current_range_meters":37600,"station_id":"","pricing_plan_id":"cebpf4jnsgd1na2vs0mg"},{"bike_id":"e17ccd69-0a20-4bad-9046-6e88e438ae8a","system_id":"levelo_inurba_marseille","lat":43.29046,"lon":5.39944,"is_reserved":false,"is_disabled":false,"rental_uris":{"android":"levelo://app?vid=e17ccd69-0a20-4bad-9046-6e88e438ae8a","ios":"levelo://app?vid=e17ccd69-0a20-4bad-9046-6e88e438ae8a"},"vehicle_type_id":"4","last_reported":1736669472,"current_range_meters":36800,"station_id":"ce4bh392rcd13ifvqdm0","pricing_plan_id":"cebpf4jnsgd1na2vs0mg"},{"bike_id":"57afdd43-7e07-4d3a-83d0-475a11526376","system_id":"levelo_inurba_marseille","lat":43.25886,"lon":5.39864,"is_reserved":false,"is_disabled":false,"rental_uris":{"android":"levelo://app?vid=57afdd43-7e07-4d3a-83d0-475a11526376","ios":"levelo://app?vid=57afdd43-7e07-4d3a-83d0-475a11526376"},"vehicle_type_id":"4","last_reported":1736669472,"current_range_meters":34000,"station_id":"ce4bhl92rcd13ifvqghg","pricing_plan_id":"cebpf4jnsgd1na2vs0mg"},{"bike_id":"8ec1251a-8baf-4d63-8b7a-28e608dd863b","system_id":"levelo_inurba_marseille","lat":43.2396,"lon":5.36628,"is_reserved":false,"is_disabled":false,"rental_uris":{"android":"levelo://app?vid=8ec1251a-8baf-4d63-8b7a-28e608dd863b","ios":"levelo://app?vid=8ec1251a-8baf-4d63-8b7a-28e608dd863b"},"vehicle_type_id":"4","last_reported":1736669472,"current_range_meters":23200,"station_id":"ce4bhi12rcd13ifvqfp0","pricing_plan_id":"cebpf4jnsgd1na2vs0mg"},{"bike_id":"1f322ef8-d843-413e-a4bb-1984846676ab","system_id":"levelo_inurba_marseille","lat":43.29945,"lon":5.36529,"is_reserved":false,"is_disabled":false,"rental_uris":{"android":"levelo://app?vid=1f322ef8-d843-413e-a4bb-1984846676ab","ios":"levelo://app?vid=1f322ef8-d843-413e-a4bb-1984846676ab"},"vehicle_type_id":"4","last_reported":1736669472,"current_range_meters":16800,"station_id":"ce4bgm92rcd13ifvqbr0","pricing_plan_id":"cebpf4jnsgd1na2vs0mg"},{"bike_id":"d031f589-3619-4bbf-bbf9-1315e5d3b535","system_id":"levelo_inurba_marseille","lat":43.28612,"lon":5.35094,"is_reserved":false,"is_disabled":false,"rental_uris":{"android":"levelo://app?vid=d031f589-3619-4bbf-bbf9-1315e5d3b535","ios":"levelo://app?vid=d031f589-3619-4bbf-bbf9-1315e5d3b535"},"vehicle_type_id":"4","last_reported":1736669472,"current_range_meters":28000,"station_id":"ce4bhch2rcd13ifvqeug","pricing_plan_id":"cebpf4jnsgd1na2vs0mg"},{"bike_id":"a2f393fe-0e07-4ed4-a52c-e182447a5a41","system_id":"levelo_inurba_marseille","lat":43.24675,"lon":5.38159,"is_reserved":false,"is_disabled":false,"rental_uris":{"android":"levelo://app?vid=a2f393fe-0e07-4ed4-a52c-e182447a5a41","ios":"levelo://app?vid=a2f393fe-0e07-4ed4-a52c-e182447a5a41"},"vehicle_type_id":"4","last_reported":1736669472,"current_range_meters":32800,"station_id":"ce4bhih2rcd13ifvqfr0","pricing_plan_id":"cebpf4jnsgd1na2vs0mg"},{"bike_id":"0ea60a2f-cda4-4308-83fa-1ed45460e073","system_id":"levelo_inurba_marseille","lat":43.3228,"lon":5.38296,"is_reserved":false,"is_disabled":false,"rental_uris":{"android":"levelo://app?vid=0ea60a2f-cda4-4308-83fa-1ed45460e073","ios":"levelo://app?vid=0ea60a2f-cda4-4308-83fa-1ed45460e073"},"vehicle_type_id":"4","last_reported":1736669472,"current_range_meters":32800,"station_id":"ce4bhr12rcd13ifvqhqg","pricing_plan_id":"cebpf4jnsgd1na2vs0mg"},{"bike_id":"abf37e93-da64-4481-ab65-53026ce06183","system_id":"levelo_inurba_marseille","lat":43.31689,"lon":5.40471,"is_reserved":false,"is_disabled":false,"rental_uris":{"android":"levelo://app?vid=abf37e93-da64-4481-ab65-53026ce06183","ios":"levelo://app?vid=abf37e93-da64-4481-ab65-53026ce06183"},"vehicle_type_id":"4","last_reported":1736669472,"current_range_meters":37600,"station_id":"ce4bh012rcd13ifvqd00","pricing_plan_id":"cebpf4jnsgd1na2vs0mg"},{"bike_id":"77c7428a-d751-4a96-9a3d-793cc76e156d","system_id":"levelo_inurba_marseille","lat":43.25683,"lon":5.41111,"is_reserved":false,"is_disabled":false,"rental_uris":{"android":"levelo://app?vid=77c7428a-d751-4a96-9a3d-793cc76e156d","ios":"levelo://app?vid=77c7428a-d751-4a96-9a3d-793cc76e156d"},"vehicle_type_id":"4","last_reported":1736669472,"current_range_meters":31200,"station_id":"ce4bhkp2rcd13ifvqgd0","pricing_plan_id":"cebpf4jnsgd1na2vs0mg"},{"bike_id":"a9cf3968-1afa-4287-b566-7da04c0b0960","system_id":"levelo_inurba_marseille","lat":43.28859,"lon":5.35836,"is_reserved":false,"is_disabled":false,"rental_uris":{"android":"levelo://app?vid=a9cf3968-1afa-4287-b566-7da04c0b0960","ios":"levelo://app?vid=a9cf3968-1afa-4287-b566-7da04c0b0960"},"vehicle_type_id":"4","last_reported":1736669472,"current_range_meters":14800,"station_id":"ce4bhb12rcd13ifvqem0","pricing_plan_id":"cebpf4jnsgd1na2vs0mg"},{"bike_id":"7b64ec25-751a-48cd-9609-57e6513e4188","system_id":"levelo_inurba_marseille","lat":43.29257,"lon":5.40919,"is_reserved":false,"is_disabled":false,"rental_uris":{"android":"levelo://app?vid=7b64ec25-751a-48cd-9609-57e6513e4188","ios":"levelo://app?vid=7b64ec25-751a-48cd-9609-57e6513e4188"},"vehicle_type_id":"4","last_reported":1736669472,"current_range_meters":38000,"station_id":"ce4bh192rcd13ifvqdc0","pricing_plan_id":"cebpf4jnsgd1na2vs0mg"},{"bike_id":"ef831cc2-5920-451a-a230-e0620cbcb55e","system_id":"levelo_inurba_marseille","lat":43.31709,"lon":5.437009,"is_reserved":false,"is_disabled":false,"rental_uris":{"android":"levelo://app?vid=ef831cc2-5920-451a-a230-e0620cbcb55e","ios":"levelo://app?vid=ef831cc2-5920-451a-a230-e0620cbcb55e"},"vehicle_type_id":"4","last_reported":1736669472,"current_range_meters":9200,"station_id":"ce4bhp92rcd13ifvqhcg","pricing_plan_id":"cebpf4jnsgd1na2vs0mg"},{"bike_id":"d35eade4-56bf-4d63-86ef-e00d56e9858c","system_id":"levelo_inurba_marseille","lat":43.27062,"lon":5.42271,"is_reserved":false,"is_disabled":false,"rental_uris":{"android":"levelo://app?vid=d35eade4-56bf-4d63-86ef-e00d56e9858c","ios":"levelo://app?vid=d35eade4-56bf-4d63-86ef-e00d56e9858c"},"vehicle_type_id":"4","last_reported":1736669472,"current_range_meters":3600,"station_id":"ce4bhk92rcd13ifvqgb0","pricing_plan_id":"cebpf4jnsgd1na2vs0mg"},{"bike_id":"75ac131f-b1a2-43ec-8632-a213966b1b9a","system_id":"levelo_inurba_marseille","lat":43.31274,"lon":5.40162,"is_reserved":false,"is_disabled":false,"rental_uris":{"android":"levelo://app?vid=75ac131f-b1a2-43ec-8632-a213966b1b9a","ios":"levelo://app?vid=75ac131f-b1a2-43ec-8632-a213966b1b9a"},"vehicle_type_id":"4","last_reported":1736669472,"current_range_meters":38800,"station_id":"ce4bh092rcd13ifvqd30","pricing_plan_id":"cebpf4jnsgd1na2vs0mg"},{"bike_id":"5f160b55-fb3f-48ee-84e2-54e5caf10a0d","system_id":"levelo_inurba_marseille","lat":43.290556,"lon":5.359021,"is_reserved":false,"is_disabled":false,"rental_uris":{"android":"levelo://app?vid=5f160b55-fb3f-48ee-84e2-54e5caf10a0d","ios":"levelo://app?vid=5f160b55-fb3f-48ee-84e2-54e5caf10a0d"},"vehicle_type_id":"4","last_reported":1736669472,"current_range_meters":38800,"station_id":"ce4bha92rcd13ifvqeg0","pricing_plan_id":"cebpf4jnsgd1na2vs0mg"},{"bike_id":"f4c1775f-57a5-41e1-9281-570509b61244","system_id":"levelo_inurba_marseille","lat":43.246504,"lon":5.388965,"is_reserved":false,"is_disabled":false,"rental_uris":{"android":"levelo://app?vid=f4c1775f-57a5-41e1-9281-570509b61244","ios":"levelo://app?vid=f4c1775f-57a5-41e1-9281-570509b61244"},"vehicle_type_id":"4","last_reported":1736669472,"current_range_meters":28000,"station_id":"ce4bhg12rcd13ifvqf60","pricing_plan_id":"cebpf4jnsgd1na2vs0mg"},{"bike_id":"df769e2a-fe2d-4401-bba1-67494069f92a","system_id":"levelo_inurba_marseille","lat":43.28455,"lon":5.35888,"is_reserved":false,"is_disabled":false,"rental_uris":{"android":"levelo://app?vid=df769e2a-fe2d-4401-bba1-67494069f92a","ios":"levelo://app?vid=df769e2a-fe2d-4401-bba1-67494069f92a"},"vehicle_type_id":"4","last_reported":1736669472,"current_range_meters":28800,"station_id":"ce4bhah2rcd13ifvqei0","pricing_plan_id":"cebpf4jnsgd1na2vs0mg"},{"bike_id":"102f5f37-6d05-471d-a558-1d5ddf00f775","system_id":"levelo_inurba_marseille","lat":43.317048,"lon":5.437029,"is_reserved":false,"is_disabled":false,"rental_uris":{"android":"levelo://app?vid=102f5f37-6d05-471d-a558-1d5ddf00f775","ios":"levelo://app?vid=102f5f37-6d05-471d-a558-1d5ddf00f775"},"vehicle_type_id":"4","last_reported":1736669472,"current_range_meters":8400,"station_id":"ce4bhp92rcd13ifvqhcg","pricing_plan_id":"cebpf4jnsgd1na2vs0mg"},{"bike_id":"295b6b1c-1c9c-4719-a530-ff21d5379a47","system_id":"levelo_inurba_marseille","lat":43.24387,"lon":5.37068,"is_reserved":false,"is_disabled":false,"rental_uris":{"android":"levelo://app?vid=295b6b1c-1c9c-4719-a530-ff21d5379a47","ios":"levelo://app?vid=295b6b1c-1c9c-4719-a530-ff21d5379a47"},"vehicle_type_id":"4","last_reported":1736669472,"current_range_meters":36400,"station_id":"ce4bhhh2rcd13ifvqfk0","pricing_plan_id":"cebpf4jnsgd1na2vs0mg"},{"bike_id":"ab3cede9-6893-464c-ac8b-2a932ab1a8af","system_id":"levelo_inurba_marseille","lat":43.29197,"lon":5.39312,"is_reserved":false,"is_disabled":false,"rental_uris":{"android":"levelo://app?vid=ab3cede9-6893-464c-ac8b-2a932ab1a8af","ios":"levelo://app?vid=ab3cede9-6893-464c-ac8b-2a932ab1a8af"},"vehicle_type_id":"4","last_reported":1736669472,"current_range_meters":38800,"station_id":"ce4bh192rcd13ifvqdd0","pricing_plan_id":"cebpf4jnsgd1na2vs0mg"},{"bike_id":"139ac908-a657-42f3-b14e-97ea7720a05d","system_id":"levelo_inurba_marseille","lat":43.34158,"lon":5.40911,"is_reserved":false,"is_disabled":false,"rental_uris":{"android":"levelo://app?vid=139ac908-a657-42f3-b14e-97ea7720a05d","ios":"levelo://app?vid=139ac908-a657-42f3-b14e-97ea7720a05d"},"vehicle_type_id":"4","last_reported":1736669472,"current_range_meters":38800,"station_id":"ce4bhqh2rcd13ifvqhlg","pricing_plan_id":"cebpf4jnsgd1na2vs0mg"},{"bike_id":"004c2ac5-7f25-4e48-8a80-9a02537f6ba6","system_id":"levelo_inurba_marseille","lat":43.32099,"lon":5.36776,"is_reserved":false,"is_disabled":false,"rental_uris":{"android":"levelo://app?vid=004c2ac5-7f25-4e48-8a80-9a02537f6ba6","ios":"levelo://app?vid=004c2ac5-7f25-4e48-8a80-9a02537f6ba6"},"vehicle_type_id":"4","last_reported":1736669472,"current_range_meters":26800,"station_id":"ce4bhrh2rcd13ifvqhug","pricing_plan_id":"cebpf4jnsgd1na2vs0mg"},{"bike_id":"6a8dc65c-8c47-4239-8815-8efa2acdc338","system_id":"levelo_inurba_marseille","lat":43.27982,"lon":5.41667,"is_reserved":false,"is_disabled":true,"rental_uris":{"android":"levelo://app?vid=6a8dc65c-8c47-4239-8815-8efa2acdc338","ios":"levelo://app?vid=6a8dc65c-8c47-4239-8815-8efa2acdc338"},"vehicle_type_id":"4","last_reported":1736669472,"current_range_meters":8400,"station_id":"ce4bho12rcd13ifvqh1g","pricing_plan_id":"cebpf4jnsgd1na2vs0mg"},{"bike_id":"957b1cab-6d66-4896-ae44-55b3b0cd4e0a","system_id":"levelo_inurba_marseille","lat":43.2803,"lon":5.36959,"is_reserved":false,"is_disabled":false,"rental_uris":{"android":"levelo://app?vid=957b1cab-6d66-4896-ae44-55b3b0cd4e0a","ios":"levelo://app?vid=957b1cab-6d66-4896-ae44-55b3b0cd4e0a"},"vehicle_type_id":"4","last_reported":1736669472,"current_range_meters":28400,"station_id":"ce4bha12rcd13ifvqef0","pricing_plan_id":"cebpf4jnsgd1na2vs0mg"},{"bike_id":"94d00723-79f7-443c-bc62-0c89ddbb1d1c","system_id":"levelo_inurba_marseille","lat":43.28142,"lon":5.42655,"is_reserved":false,"is_disabled":true,"rental_uris":{"android":"levelo://app?vid=94d00723-79f7-443c-bc62-0c89ddbb1d1c","ios":"levelo://app?vid=94d00723-79f7-443c-bc62-0c89ddbb1d1c"},"vehicle_type_id":"4","last_reported":1736669472,"current_range_meters":26800,"station_id":"ce4bhnh2rcd13ifvqgug","pricing_plan_id":"cebpf4jnsgd1na2vs0mg"},{"bike_id":"f2e2570c-bb1f-4460-9d53-954a72a660f1","system_id":"levelo_inurba_marseille","lat":43.29811,"lon":5.40404,"is_reserved":false,"is_disabled":false,"rental_uris":{"android":"levelo://app?vid=f2e2570c-bb1f-4460-9d53-954a72a660f1","ios":"levelo://app?vid=f2e2570c-bb1f-4460-9d53-954a72a660f1"},"vehicle_type_id":"4","last_reported":1736669472,"current_range_meters":38000,"station_id":"ce4bh112rcd13ifvqd90","pricing_plan_id":"cebpf4jnsgd1na2vs0mg"},{"bike_id":"cd6d2208-2ce7-4c3f-a18e-8f409506f7d1","system_id":"levelo_inurba_marseille","lat":43.23058,"lon":5.35501,"is_reserved":false,"is_disabled":false,"rental_uris":{"android":"levelo://app?vid=cd6d2208-2ce7-4c3f-a18e-8f409506f7d1","ios":"levelo://app?vid=cd6d2208-2ce7-4c3f-a18e-8f409506f7d1"},"vehicle_type_id":"4","last_reported":1736669472,"current_range_meters":20400,"station_id":"cpo3342slgdg3j2ifvpg","pricing_plan_id":"cebpf4jnsgd1na2vs0mg"},{"bike_id":"11220a06-5578-40ac-bba5-67b992b32098","system_id":"levelo_inurba_marseille","lat":43.27328,"lon":5.39084,"is_reserved":false,"is_disabled":false,"rental_uris":{"android":"levelo://app?vid=11220a06-5578-40ac-bba5-67b992b32098","ios":"levelo://app?vid=11220a06-5578-40ac-bba5-67b992b32098"},"vehicle_type_id":"4","last_reported":1736669472,"current_range_meters":36800,"station_id":"ce4bhgp2rcd13ifvqfe0","pricing_plan_id":"cebpf4jnsgd1na2vs0mg"},{"bike_id":"e616dde7-4b83-43d4-82e4-041bada11ba1","system_id":"levelo_inurba_marseille","lat":43.310736,"lon":5.383479,"is_reserved":false,"is_disabled":false,"rental_uris":{"android":"levelo://app?vid=e616dde7-4b83-43d4-82e4-041bada11ba1","ios":"levelo://app?vid=e616dde7-4b83-43d4-82e4-041bada11ba1"},"vehicle_type_id":"4","last_reported":1736669472,"current_range_meters":16000,"station_id":"ce4bgv92rcd13ifvqcr0","pricing_plan_id":"cebpf4jnsgd1na2vs0mg"},{"bike_id":"c1dea8eb-dedb-48c3-82b9-ba4d059a0755","system_id":"levelo_inurba_marseille","lat":43.26551,"lon":5.37296,"is_reserved":false,"is_disabled":true,"rental_uris":{"android":"levelo://app?vid=c1dea8eb-dedb-48c3-82b9-ba4d059a0755","ios":"levelo://app?vid=c1dea8eb-dedb-48c3-82b9-ba4d059a0755"},"vehicle_type_id":"4","last_reported":1736669472,"current_range_meters":6800,"station_id":"ce4bhg12rcd13ifvqf70","pricing_plan_id":"cebpf4jnsgd1na2vs0mg"},{"bike_id":"f7253ea7-1840-46d0-b4c6-8bc8303cef00","system_id":"levelo_inurba_marseille","lat":43.24398,"lon":5.37063,"is_reserved":false,"is_disabled":false,"rental_uris":{"android":"levelo://app?vid=f7253ea7-1840-46d0-b4c6-8bc8303cef00","ios":"levelo://app?vid=f7253ea7-1840-46d0-b4c6-8bc8303cef00"},"vehicle_type_id":"4","last_reported":1736669472,"current_range_meters":38800,"station_id":"ce4bhhh2rcd13ifvqfk0","pricing_plan_id":"cebpf4jnsgd1na2vs0mg"},{"bike_id":"824c4c31-cff3-42b3-877b-6f5243ac81c7","system_id":"levelo_inurba_marseille","lat":43.2465,"lon":5.38892,"is_reserved":false,"is_disabled":false,"rental_uris":{"android":"levelo://app?vid=824c4c31-cff3-42b3-877b-6f5243ac81c7","ios":"levelo://app?vid=824c4c31-cff3-42b3-877b-6f5243ac81c7"},"vehicle_type_id":"4","last_reported":1736669472,"current_range_meters":25600,"station_id":"ce4bhg12rcd13ifvqf60","pricing_plan_id":"cebpf4jnsgd1na2vs0mg"},{"bike_id":"bde10037-439a-4c35-9259-2f7d936db73a","system_id":"levelo_inurba_marseille","lat":43.2784,"lon":5.39212,"is_reserved":false,"is_disabled":false,"rental_uris":{"android":"levelo://app?vid=bde10037-439a-4c35-9259-2f7d936db73a","ios":"levelo://app?vid=bde10037-439a-4c35-9259-2f7d936db73a"},"vehicle_type_id":"4","last_reported":1736669472,"current_range_meters":28000,"station_id":"ce4bhjp2rcd13ifvqga0","pricing_plan_id":"cebpf4jnsgd1na2vs0mg"},{"bike_id":"74cd82b8-7007-4ec1-90b0-bde4e296072f","system_id":"levelo_inurba_marseille","lat":43.27951,"lon":5.41028,"is_reserved":false,"is_disabled":false,"rental_uris":{"android":"levelo://app?vid=74cd82b8-7007-4ec1-90b0-bde4e296072f","ios":"levelo://app?vid=74cd82b8-7007-4ec1-90b0-bde4e296072f"},"vehicle_type_id":"4","last_reported":1736669472,"current_range_meters":31200,"station_id":"ce4bhnp2rcd13ifvqh0g","pricing_plan_id":"cebpf4jnsgd1na2vs0mg"},{"bike_id":"2f222ba4-ac09-46d4-8ee2-013b716d4228","system_id":"levelo_inurba_marseille","lat":43.31754,"lon":5.39015,"is_reserved":false,"is_disabled":false,"rental_uris":{"android":"levelo://app?vid=2f222ba4-ac09-46d4-8ee2-013b716d4228","ios":"levelo://app?vid=2f222ba4-ac09-46d4-8ee2-013b716d4228"},"vehicle_type_id":"4","last_reported":1736669472,"current_range_meters":37600,"station_id":"ce4bhqp2rcd13ifvqhng","pricing_plan_id":"cebpf4jnsgd1na2vs0mg"},{"bike_id":"86a19de1-8626-42ff-8a88-a9c313ea6892","system_id":"levelo_inurba_marseille","lat":43.28347,"lon":5.38103,"is_reserved":false,"is_disabled":false,"rental_uris":{"android":"levelo://app?vid=86a19de1-8626-42ff-8a88-a9c313ea6892","ios":"levelo://app?vid=86a19de1-8626-42ff-8a88-a9c313ea6892"},"vehicle_type_id":"4","last_reported":1736669472,"current_range_meters":30800,"station_id":"ce4bh412rcd13ifvqdr0","pricing_plan_id":"cebpf4jnsgd1na2vs0mg"},{"bike_id":"44ad9bf6-9550-4530-b74c-7606b4dfb73a","system_id":"levelo_inurba_marseille","lat":43.27328,"lon":5.39072,"is_reserved":false,"is_disabled":false,"rental_uris":{"android":"levelo://app?vid=44ad9bf6-9550-4530-b74c-7606b4dfb73a","ios":"levelo://app?vid=44ad9bf6-9550-4530-b74c-7606b4dfb73a"},"vehicle_type_id":"4","last_reported":1736669472,"current_range_meters":14400,"station_id":"ce4bhgp2rcd13ifvqfe0","pricing_plan_id":"cebpf4jnsgd1na2vs0mg"},{"bike_id":"804acd2c-eff6-4f19-b231-84891b5ea8dc","system_id":"levelo_inurba_marseille","lat":43.25477,"lon":5.37657,"is_reserved":false,"is_disabled":false,"rental_uris":{"android":"levelo://app?vid=804acd2c-eff6-4f19-b231-84891b5ea8dc","ios":"levelo://app?vid=804acd2c-eff6-4f19-b231-84891b5ea8dc"},"vehicle_type_id":"4","last_reported":1736669472,"current_range_meters":9200,"station_id":"ce4bhh12rcd13ifvqff0","pricing_plan_id":"cebpf4jnsgd1na2vs0mg"},{"bike_id":"6b750947-fb43-40e2-9931-495446cc2b3f","system_id":"levelo_inurba_marseille","lat":43.22924,"lon":5.35378,"is_reserved":false,"is_disabled":false,"rental_uris":{"android":"levelo://app?vid=6b750947-fb43-40e2-9931-495446cc2b3f","ios":"levelo://app?vid=6b750947-fb43-40e2-9931-495446cc2b3f"},"vehicle_type_id":"4","last_reported":1736669472,"current_range_meters":34800,"station_id":"cpo3532slgdg3j2ikp40","pricing_plan_id":"cebpf4jnsgd1na2vs0mg"},{"bike_id":"c8e997c0-8580-4d0f-8d9f-0766596381e1","system_id":"levelo_inurba_marseille","lat":43.34034,"lon":5.37544,"is_reserved":false,"is_disabled":true,"rental_uris":{"android":"levelo://app?vid=c8e997c0-8580-4d0f-8d9f-0766596381e1","ios":"levelo://app?vid=c8e997c0-8580-4d0f-8d9f-0766596381e1"},"vehicle_type_id":"4","last_reported":1736669472,"current_range_meters":1600,"station_id":"","pricing_plan_id":"cebpf4jnsgd1na2vs0mg"},{"bike_id":"4b46f18f-aac1-48a7-8621-63c9b65fbd68","system_id":"levelo_inurba_marseille","lat":43.27989,"lon":5.40016,"is_reserved":false,"is_disabled":false,"rental_uris":{"android":"levelo://app?vid=4b46f18f-aac1-48a7-8621-63c9b65fbd68","ios":"levelo://app?vid=4b46f18f-aac1-48a7-8621-63c9b65fbd68"},"vehicle_type_id":"4","last_reported":1736669472,"current_range_meters":3600,"station_id":"ce4bho92rcd13ifvqh4g","pricing_plan_id":"cebpf4jnsgd1na2vs0mg"},{"bike_id":"ba5df164-d25c-4a1c-8679-1bd1a1db0642","system_id":"levelo_inurba_marseille","lat":43.337294,"lon":5.391884,"is_reserved":false,"is_disabled":false,"rental_uris":{"android":"levelo://app?vid=ba5df164-d25c-4a1c-8679-1bd1a1db0642","ios":"levelo://app?vid=ba5df164-d25c-4a1c-8679-1bd1a1db0642"},"vehicle_type_id":"4","last_reported":1736669472,"current_range_meters":24800,"station_id":"ce4bhr92rcd13ifvqhsg","pricing_plan_id":"cebpf4jnsgd1na2vs0mg"},{"bike_id":"087f784c-6451-4665-896b-9e7c7cacc314","system_id":"levelo_inurba_marseille","lat":43.30054,"lon":5.3756,"is_reserved":false,"is_disabled":false,"rental_uris":{"android":"levelo://app?vid=087f784c-6451-4665-896b-9e7c7cacc314","ios":"levelo://app?vid=087f784c-6451-4665-896b-9e7c7cacc314"},"vehicle_type_id":"4","last_reported":1736669472,"current_range_meters":2800,"station_id":"","pricing_plan_id":"cebpf4jnsgd1na2vs0mg"},{"bike_id":"d1b36e84-8ce6-4f7d-a1a3-52c8de035845","system_id":"levelo_inurba_marseille","lat":43.31721,"lon":5.42392,"is_reserved":false,"is_disabled":false,"rental_uris":{"android":"levelo://app?vid=d1b36e84-8ce6-4f7d-a1a3-52c8de035845","ios":"levelo://app?vid=d1b36e84-8ce6-4f7d-a1a3-52c8de035845"},"vehicle_type_id":"4","last_reported":1736669472,"current_range_meters":27200,"station_id":"ce4bhp92rcd13ifvqhbg","pricing_plan_id":"cebpf4jnsgd1na2vs0mg"},{"bike_id":"a0fcb8ae-3c62-42ed-9258-294b5ce23087","system_id":"levelo_inurba_marseille","lat":43.2511,"lon":5.40334,"is_reserved":false,"is_disabled":false,"rental_uris":{"android":"levelo://app?vid=a0fcb8ae-3c62-42ed-9258-294b5ce23087","ios":"levelo://app?vid=a0fcb8ae-3c62-42ed-9258-294b5ce23087"},"vehicle_type_id":"4","last_reported":1736669472,"current_range_meters":38800,"station_id":"ce4bhlh2rcd13ifvqgig","pricing_plan_id":"cebpf4jnsgd1na2vs0mg"},{"bike_id":"eb9b2df2-fdc1-4d66-abed-6bda4748c4f1","system_id":"levelo_inurba_marseille","lat":43.262,"lon":5.37929,"is_reserved":false,"is_disabled":false,"rental_uris":{"android":"levelo://app?vid=eb9b2df2-fdc1-4d66-abed-6bda4748c4f1","ios":"levelo://app?vid=eb9b2df2-fdc1-4d66-abed-6bda4748c4f1"},"vehicle_type_id":"4","last_reported":1736669472,"current_range_meters":24400,"station_id":"ce4bhjp2rcd13ifvqg90","pricing_plan_id":"cebpf4jnsgd1na2vs0mg"},{"bike_id":"7dd5dd5e-1d75-4c5b-b5b8-248a34302cca","system_id":"levelo_inurba_marseille","lat":43.30463,"lon":5.37912,"is_reserved":false,"is_disabled":true,"rental_uris":{"android":"levelo://app?vid=7dd5dd5e-1d75-4c5b-b5b8-248a34302cca","ios":"levelo://app?vid=7dd5dd5e-1d75-4c5b-b5b8-248a34302cca"},"vehicle_type_id":"4","last_reported":1736669472,"current_range_meters":30800,"station_id":"ce4bgup2rcd13ifvqcn0","pricing_plan_id":"cebpf4jnsgd1na2vs0mg"},{"bike_id":"4e6a1fdd-84f1-4ff7-9556-c133bbbd986f","system_id":"levelo_inurba_marseille","lat":43.26185,"lon":5.37478,"is_reserved":false,"is_disabled":false,"rental_uris":{"android":"levelo://app?vid=4e6a1fdd-84f1-4ff7-9556-c133bbbd986f","ios":"levelo://app?vid=4e6a1fdd-84f1-4ff7-9556-c133bbbd986f"},"vehicle_type_id":"4","last_reported":1736669472,"current_range_meters":29600,"station_id":"ce4bhgp2rcd13ifvqfc0","pricing_plan_id":"cebpf4jnsgd1na2vs0mg"},{"bike_id":"226e6ef0-a4fc-4895-9ad6-89f66438544b","system_id":"levelo_inurba_marseille","lat":43.29018,"lon":5.3557,"is_reserved":false,"is_disabled":true,"rental_uris":{"android":"levelo://app?vid=226e6ef0-a4fc-4895-9ad6-89f66438544b","ios":"levelo://app?vid=226e6ef0-a4fc-4895-9ad6-89f66438544b"},"vehicle_type_id":"4","last_reported":1736669472,"current_range_meters":39200,"station_id":"ce4bhb92rcd13ifvqen0","pricing_plan_id":"cebpf4jnsgd1na2vs0mg"},{"bike_id":"d8327471-e10e-4e1d-a46b-c43156fc0620","system_id":"levelo_inurba_marseille","lat":43.26779,"lon":5.394208,"is_reserved":false,"is_disabled":true,"rental_uris":{"android":"levelo://app?vid=d8327471-e10e-4e1d-a46b-c43156fc0620","ios":"levelo://app?vid=d8327471-e10e-4e1d-a46b-c43156fc0620"},"vehicle_type_id":"4","last_reported":1736669472,"current_range_meters":0,"station_id":"ce4bhh12rcd13ifvqfg0","pricing_plan_id":"cebpf4jnsgd1na2vs0mg"},{"bike_id":"c035b76c-6980-4108-a17c-071c32af70e1","system_id":"levelo_inurba_marseille","lat":43.26025,"lon":5.39399,"is_reserved":false,"is_disabled":false,"rental_uris":{"android":"levelo://app?vid=c035b76c-6980-4108-a17c-071c32af70e1","ios":"levelo://app?vid=c035b76c-6980-4108-a17c-071c32af70e1"},"vehicle_type_id":"4","last_reported":1736669472,"current_range_meters":38000,"station_id":"ce4bhh92rcd13ifvqfj0","pricing_plan_id":"cebpf4jnsgd1na2vs0mg"},{"bike_id":"d8f1f104-b6c9-423c-8c65-70d998b9c52b","system_id":"levelo_inurba_marseille","lat":43.324763,"lon":5.365842,"is_reserved":false,"is_disabled":false,"rental_uris":{"android":"levelo://app?vid=d8f1f104-b6c9-423c-8c65-70d998b9c52b","ios":"levelo://app?vid=d8f1f104-b6c9-423c-8c65-70d998b9c52b"},"vehicle_type_id":"4","last_reported":1736669472,"current_range_meters":37600,"station_id":"ce4bhs12rcd13ifvqhvg","pricing_plan_id":"cebpf4jnsgd1na2vs0mg"},{"bike_id":"7d959c37-4d60-4094-901d-194afd224ca0","system_id":"levelo_inurba_marseille","lat":43.2834,"lon":5.38663,"is_reserved":false,"is_disabled":true,"rental_uris":{"android":"levelo://app?vid=7d959c37-4d60-4094-901d-194afd224ca0","ios":"levelo://app?vid=7d959c37-4d60-4094-901d-194afd224ca0"},"vehicle_type_id":"4","last_reported":1736669472,"current_range_meters":11600,"station_id":"ce4bh492rcd13ifvqdvg","pricing_plan_id":"cebpf4jnsgd1na2vs0mg"},{"bike_id":"6efaf63a-d498-4501-96b0-c9655d575055","system_id":"levelo_inurba_marseille","lat":43.28731,"lon":5.39999,"is_reserved":false,"is_disabled":false,"rental_uris":{"android":"levelo://app?vid=6efaf63a-d498-4501-96b0-c9655d575055","ios":"levelo://app?vid=6efaf63a-d498-4501-96b0-c9655d575055"},"vehicle_type_id":"4","last_reported":1736669472,"current_range_meters":38800,"station_id":"ce4bho92rcd13ifvqh3g","pricing_plan_id":"cebpf4jnsgd1na2vs0mg"},{"bike_id":"2f89f973-f79d-4481-ae53-58827e22969c","system_id":"levelo_inurba_marseille","lat":43.25582,"lon":5.38232,"is_reserved":false,"is_disabled":false,"rental_uris":{"android":"levelo://app?vid=2f89f973-f79d-4481-ae53-58827e22969c","ios":"levelo://app?vid=2f89f973-f79d-4481-ae53-58827e22969c"},"vehicle_type_id":"4","last_reported":1736669472,"current_range_meters":20400,"station_id":"ce4bhih2rcd13ifvqfs0","pricing_plan_id":"cebpf4jnsgd1na2vs0mg"},{"bike_id":"426ee80e-06b0-4d0f-86a5-ea8ad64aaa11","system_id":"levelo_inurba_marseille","lat":43.28919,"lon":5.43763,"is_reserved":false,"is_disabled":false,"rental_uris":{"android":"levelo://app?vid=426ee80e-06b0-4d0f-86a5-ea8ad64aaa11","ios":"levelo://app?vid=426ee80e-06b0-4d0f-86a5-ea8ad64aaa11"},"vehicle_type_id":"4","last_reported":1736669472,"current_range_meters":13600,"station_id":"","pricing_plan_id":"cebpf4jnsgd1na2vs0mg"},{"bike_id":"af66193d-fd8e-4c6b-a65c-ee1d59367e83","system_id":"levelo_inurba_marseille","lat":43.28456,"lon":5.35875,"is_reserved":false,"is_disabled":false,"rental_uris":{"android":"levelo://app?vid=af66193d-fd8e-4c6b-a65c-ee1d59367e83","ios":"levelo://app?vid=af66193d-fd8e-4c6b-a65c-ee1d59367e83"},"vehicle_type_id":"4","last_reported":1736669472,"current_range_meters":38800,"station_id":"ce4bhah2rcd13ifvqei0","pricing_plan_id":"cebpf4jnsgd1na2vs0mg"},{"bike_id":"b29dca30-1f99-4556-8d02-1cd94cfb8ea1","system_id":"levelo_inurba_marseille","lat":43.32432,"lon":5.36585,"is_reserved":false,"is_disabled":false,"rental_uris":{"android":"levelo://app?vid=b29dca30-1f99-4556-8d02-1cd94cfb8ea1","ios":"levelo://app?vid=b29dca30-1f99-4556-8d02-1cd94cfb8ea1"},"vehicle_type_id":"4","last_reported":1736669472,"current_range_meters":14800,"station_id":"","pricing_plan_id":"cebpf4jnsgd1na2vs0mg"},{"bike_id":"2b8ddac0-7918-454e-af5a-f9c04a1d3f9e","system_id":"levelo_inurba_marseille","lat":43.297706,"lon":5.378842,"is_reserved":false,"is_disabled":false,"rental_uris":{"android":"levelo://app?vid=2b8ddac0-7918-454e-af5a-f9c04a1d3f9e","ios":"levelo://app?vid=2b8ddac0-7918-454e-af5a-f9c04a1d3f9e"},"vehicle_type_id":"4","last_reported":1736669472,"current_range_meters":6400,"station_id":"","pricing_plan_id":"cebpf4jnsgd1na2vs0mg"},{"bike_id":"c62f567e-4ded-498a-9402-2a1005e58f3e","system_id":"levelo_inurba_marseille","lat":43.30184,"lon":5.36584,"is_reserved":false,"is_disabled":false,"rental_uris":{"android":"levelo://app?vid=c62f567e-4ded-498a-9402-2a1005e58f3e","ios":"levelo://app?vid=c62f567e-4ded-498a-9402-2a1005e58f3e"},"vehicle_type_id":"4","last_reported":1736669472,"current_range_meters":37600,"station_id":"ce4bgrh2rcd13ifvqc8g","pricing_plan_id":"cebpf4jnsgd1na2vs0mg"},{"bike_id":"9fa5613d-39b6-40e4-be80-3428e5831144","system_id":"levelo_inurba_marseille","lat":43.25865,"lon":5.399,"is_reserved":false,"is_disabled":false,"rental_uris":{"android":"levelo://app?vid=9fa5613d-39b6-40e4-be80-3428e5831144","ios":"levelo://app?vid=9fa5613d-39b6-40e4-be80-3428e5831144"},"vehicle_type_id":"4","last_reported":1736669472,"current_range_meters":38800,"station_id":"ce4bhl92rcd13ifvqghg","pricing_plan_id":"cebpf4jnsgd1na2vs0mg"},{"bike_id":"3729f538-7148-458e-bf57-af4b40fcbf2f","system_id":"levelo_inurba_marseille","lat":43.31519,"lon":5.38035,"is_reserved":false,"is_disabled":false,"rental_uris":{"android":"levelo://app?vid=3729f538-7148-458e-bf57-af4b40fcbf2f","ios":"levelo://app?vid=3729f538-7148-458e-bf57-af4b40fcbf2f"},"vehicle_type_id":"4","last_reported":1736669472,"current_range_meters":38800,"station_id":"ce4bhsp2rcd13ifvqi50","pricing_plan_id":"cebpf4jnsgd1na2vs0mg"},{"bike_id":"bfd7fc97-d388-47cb-b784-31a4641f4b4c","system_id":"levelo_inurba_marseille","lat":43.31177,"lon":5.387122,"is_reserved":false,"is_disabled":false,"rental_uris":{"android":"levelo://app?vid=bfd7fc97-d388-47cb-b784-31a4641f4b4c","ios":"levelo://app?vid=bfd7fc97-d388-47cb-b784-31a4641f4b4c"},"vehicle_type_id":"4","last_reported":1736669472,"current_range_meters":38800,"station_id":"ce4bgv12rcd13ifvqcp0","pricing_plan_id":"cebpf4jnsgd1na2vs0mg"},{"bike_id":"ea415a8c-aacb-481b-a750-8855399248a0","system_id":"levelo_inurba_marseille","lat":43.2865,"lon":5.36357,"is_reserved":false,"is_disabled":false,"rental_uris":{"android":"levelo://app?vid=ea415a8c-aacb-481b-a750-8855399248a0","ios":"levelo://app?vid=ea415a8c-aacb-481b-a750-8855399248a0"},"vehicle_type_id":"4","last_reported":1736669472,"current_range_meters":35600,"station_id":"ce4bhah2rcd13ifvqej0","pricing_plan_id":"cebpf4jnsgd1na2vs0mg"},{"bike_id":"251bcb32-9754-4a96-be14-f473e0e9719e","system_id":"levelo_inurba_marseille","lat":43.32551,"lon":5.38017,"is_reserved":false,"is_disabled":false,"rental_uris":{"android":"levelo://app?vid=251bcb32-9754-4a96-be14-f473e0e9719e","ios":"levelo://app?vid=251bcb32-9754-4a96-be14-f473e0e9719e"},"vehicle_type_id":"4","last_reported":1736669472,"current_range_meters":5600,"station_id":"","pricing_plan_id":"cebpf4jnsgd1na2vs0mg"},{"bike_id":"27feaeee-0597-491e-960c-390adee3229f","system_id":"levelo_inurba_marseille","lat":43.29195,"lon":5.39307,"is_reserved":false,"is_disabled":true,"rental_uris":{"android":"levelo://app?vid=27feaeee-0597-491e-960c-390adee3229f","ios":"levelo://app?vid=27feaeee-0597-491e-960c-390adee3229f"},"vehicle_type_id":"4","last_reported":1736669472,"current_range_meters":24400,"station_id":"ce4bh192rcd13ifvqdd0","pricing_plan_id":"cebpf4jnsgd1na2vs0mg"},{"bike_id":"f4dbc556-58b0-4dfd-be99-18a51c032520","system_id":"levelo_inurba_marseille","lat":43.24167,"lon":5.3971,"is_reserved":false,"is_disabled":true,"rental_uris":{"android":"levelo://app?vid=f4dbc556-58b0-4dfd-be99-18a51c032520","ios":"levelo://app?vid=f4dbc556-58b0-4dfd-be99-18a51c032520"},"vehicle_type_id":"4","last_reported":1736669472,"current_range_meters":36000,"station_id":"ce4bhn12rcd13ifvqgpg","pricing_plan_id":"cebpf4jnsgd1na2vs0mg"},{"bike_id":"9c62e164-6cf9-4292-996f-7c2ed5673e8e","system_id":"levelo_inurba_marseille","lat":43.23956,"lon":5.36633,"is_reserved":false,"is_disabled":false,"rental_uris":{"android":"levelo://app?vid=9c62e164-6cf9-4292-996f-7c2ed5673e8e","ios":"levelo://app?vid=9c62e164-6cf9-4292-996f-7c2ed5673e8e"},"vehicle_type_id":"4","last_reported":1736669472,"current_range_meters":27600,"station_id":"ce4bhi12rcd13ifvqfp0","pricing_plan_id":"cebpf4jnsgd1na2vs0mg"},{"bike_id":"0766341f-151d-49eb-a26f-0479a1dc30f8","system_id":"levelo_inurba_marseille","lat":43.27982,"lon":5.40054,"is_reserved":false,"is_disabled":false,"rental_uris":{"android":"levelo://app?vid=0766341f-151d-49eb-a26f-0479a1dc30f8","ios":"levelo://app?vid=0766341f-151d-49eb-a26f-0479a1dc30f8"},"vehicle_type_id":"4","last_reported":1736669472,"current_range_meters":34000,"station_id":"ce4bho92rcd13ifvqh4g","pricing_plan_id":"cebpf4jnsgd1na2vs0mg"},{"bike_id":"b5ed240a-18a2-42c0-8b6e-36914ad075c6","system_id":"levelo_inurba_marseille","lat":43.31123,"lon":5.37775,"is_reserved":false,"is_disabled":false,"rental_uris":{"android":"levelo://app?vid=b5ed240a-18a2-42c0-8b6e-36914ad075c6","ios":"levelo://app?vid=b5ed240a-18a2-42c0-8b6e-36914ad075c6"},"vehicle_type_id":"4","last_reported":1736669472,"current_range_meters":38800,"station_id":"ce4bgt92rcd13ifvqcg0","pricing_plan_id":"cebpf4jnsgd1na2vs0mg"},{"bike_id":"45636413-29bd-43b6-bd8b-1246eb3c7c1a","system_id":"levelo_inurba_marseille","lat":43.27104,"lon":5.38523,"is_reserved":false,"is_disabled":false,"rental_uris":{"android":"levelo://app?vid=45636413-29bd-43b6-bd8b-1246eb3c7c1a","ios":"levelo://app?vid=45636413-29bd-43b6-bd8b-1246eb3c7c1a"},"vehicle_type_id":"4","last_reported":1736669472,"current_range_meters":8800,"station_id":"","pricing_plan_id":"cebpf4jnsgd1na2vs0mg"},{"bike_id":"4d2f8fd0-21ed-4425-9dc5-0ad45a59fb73","system_id":"levelo_inurba_marseille","lat":43.24673,"lon":5.38159,"is_reserved":false,"is_disabled":false,"rental_uris":{"android":"levelo://app?vid=4d2f8fd0-21ed-4425-9dc5-0ad45a59fb73","ios":"levelo://app?vid=4d2f8fd0-21ed-4425-9dc5-0ad45a59fb73"},"vehicle_type_id":"4","last_reported":1736669472,"current_range_meters":7200,"station_id":"ce4bhih2rcd13ifvqfr0","pricing_plan_id":"cebpf4jnsgd1na2vs0mg"},{"bike_id":"ac4d5cd6-b524-4ae0-9988-7068bb5828c5","system_id":"levelo_inurba_marseille","lat":43.305377,"lon":5.366919,"is_reserved":false,"is_disabled":false,"rental_uris":{"android":"levelo://app?vid=ac4d5cd6-b524-4ae0-9988-7068bb5828c5","ios":"levelo://app?vid=ac4d5cd6-b524-4ae0-9988-7068bb5828c5"},"vehicle_type_id":"4","last_reported":1736669472,"current_range_meters":38800,"station_id":"ce4bgrp2rcd13ifvqc9g","pricing_plan_id":"cebpf4jnsgd1na2vs0mg"},{"bike_id":"80609ff8-7d7d-4ae2-9159-aea837c7c52b","system_id":"levelo_inurba_marseille","lat":43.239557,"lon":5.366312,"is_reserved":false,"is_disabled":false,"rental_uris":{"android":"levelo://app?vid=80609ff8-7d7d-4ae2-9159-aea837c7c52b","ios":"levelo://app?vid=80609ff8-7d7d-4ae2-9159-aea837c7c52b"},"vehicle_type_id":"4","last_reported":1736669472,"current_range_meters":8000,"station_id":"ce4bhi12rcd13ifvqfp0","pricing_plan_id":"cebpf4jnsgd1na2vs0mg"},{"bike_id":"01d8cf89-b6fb-431c-ac59-b08e483c001d","system_id":"levelo_inurba_marseille","lat":43.28453,"lon":5.35888,"is_reserved":false,"is_disabled":false,"rental_uris":{"android":"levelo://app?vid=01d8cf89-b6fb-431c-ac59-b08e483c001d","ios":"levelo://app?vid=01d8cf89-b6fb-431c-ac59-b08e483c001d"},"vehicle_type_id":"4","last_reported":1736669472,"current_range_meters":27600,"station_id":"ce4bhah2rcd13ifvqei0","pricing_plan_id":"cebpf4jnsgd1na2vs0mg"},{"bike_id":"c2b657e0-67fb-4721-a4d6-0ebb2fa0fcbe","system_id":"levelo_inurba_marseille","lat":43.28607,"lon":5.35092,"is_reserved":false,"is_disabled":false,"rental_uris":{"android":"levelo://app?vid=c2b657e0-67fb-4721-a4d6-0ebb2fa0fcbe","ios":"levelo://app?vid=c2b657e0-67fb-4721-a4d6-0ebb2fa0fcbe"},"vehicle_type_id":"4","last_reported":1736669472,"current_range_meters":37600,"station_id":"ce4bhch2rcd13ifvqeug","pricing_plan_id":"cebpf4jnsgd1na2vs0mg"},{"bike_id":"ede110e2-d6d1-4df1-a22c-56141f38a63d","system_id":"levelo_inurba_marseille","lat":43.292551,"lon":5.409069,"is_reserved":false,"is_disabled":false,"rental_uris":{"android":"levelo://app?vid=ede110e2-d6d1-4df1-a22c-56141f38a63d","ios":"levelo://app?vid=ede110e2-d6d1-4df1-a22c-56141f38a63d"},"vehicle_type_id":"4","last_reported":1736669472,"current_range_meters":38800,"station_id":"ce4bh192rcd13ifvqdc0","pricing_plan_id":"cebpf4jnsgd1na2vs0mg"},{"bike_id":"d12f9832-4c75-444f-92d0-02d4aa57d464","system_id":"levelo_inurba_marseille","lat":43.2318,"lon":5.39989,"is_reserved":false,"is_disabled":false,"rental_uris":{"android":"levelo://app?vid=d12f9832-4c75-444f-92d0-02d4aa57d464","ios":"levelo://app?vid=d12f9832-4c75-444f-92d0-02d4aa57d464"},"vehicle_type_id":"4","last_reported":1736669472,"current_range_meters":3600,"station_id":"ce4bhn12rcd13ifvqgqg","pricing_plan_id":"cebpf4jnsgd1na2vs0mg"},{"bike_id":"3bf91848-c5d0-4524-ac3b-a43d812f5094","system_id":"levelo_inurba_marseille","lat":43.230621,"lon":5.354818,"is_reserved":false,"is_disabled":false,"rental_uris":{"android":"levelo://app?vid=3bf91848-c5d0-4524-ac3b-a43d812f5094","ios":"levelo://app?vid=3bf91848-c5d0-4524-ac3b-a43d812f5094"},"vehicle_type_id":"4","last_reported":1736669472,"current_range_meters":38400,"station_id":"cpo3342slgdg3j2ifvpg","pricing_plan_id":"cebpf4jnsgd1na2vs0mg"},{"bike_id":"c01c79a6-7861-4ee5-bb28-78d429be4a94","system_id":"levelo_inurba_marseille","lat":43.25731,"lon":5.41097,"is_reserved":false,"is_disabled":false,"rental_uris":{"android":"levelo://app?vid=c01c79a6-7861-4ee5-bb28-78d429be4a94","ios":"levelo://app?vid=c01c79a6-7861-4ee5-bb28-78d429be4a94"},"vehicle_type_id":"4","last_reported":1736669472,"current_range_meters":36400,"station_id":"ce4bhkp2rcd13ifvqgd0","pricing_plan_id":"cebpf4jnsgd1na2vs0mg"},{"bike_id":"aa4fa961-77ec-4d6f-875d-5cba342b5b27","system_id":"levelo_inurba_marseille","lat":43.255745,"lon":5.382439,"is_reserved":false,"is_disabled":false,"rental_uris":{"android":"levelo://app?vid=aa4fa961-77ec-4d6f-875d-5cba342b5b27","ios":"levelo://app?vid=aa4fa961-77ec-4d6f-875d-5cba342b5b27"},"vehicle_type_id":"4","last_reported":1736669472,"current_range_meters":38800,"station_id":"ce4bhih2rcd13ifvqfs0","pricing_plan_id":"cebpf4jnsgd1na2vs0mg"},{"bike_id":"33f772a9-3316-47c9-ba2c-b8bb5b0473dc","system_id":"levelo_inurba_marseille","lat":43.29572,"lon":5.36731,"is_reserved":false,"is_disabled":true,"rental_uris":{"android":"levelo://app?vid=33f772a9-3316-47c9-ba2c-b8bb5b0473dc","ios":"levelo://app?vid=33f772a9-3316-47c9-ba2c-b8bb5b0473dc"},"vehicle_type_id":"4","last_reported":1736669472,"current_range_meters":37600,"station_id":"ce4bgph2rcd13ifvqc2g","pricing_plan_id":"cebpf4jnsgd1na2vs0mg"},{"bike_id":"905452b7-c0dc-4ce7-9290-08103a443dba","system_id":"levelo_inurba_marseille","lat":43.24667,"lon":5.38162,"is_reserved":false,"is_disabled":false,"rental_uris":{"android":"levelo://app?vid=905452b7-c0dc-4ce7-9290-08103a443dba","ios":"levelo://app?vid=905452b7-c0dc-4ce7-9290-08103a443dba"},"vehicle_type_id":"4","last_reported":1736669472,"current_range_meters":28000,"station_id":"ce4bhih2rcd13ifvqfr0","pricing_plan_id":"cebpf4jnsgd1na2vs0mg"},{"bike_id":"55ba99ed-985e-49c8-b072-957201c19c69","system_id":"levelo_inurba_marseille","lat":43.25076,"lon":5.40357,"is_reserved":false,"is_disabled":false,"rental_uris":{"android":"levelo://app?vid=55ba99ed-985e-49c8-b072-957201c19c69","ios":"levelo://app?vid=55ba99ed-985e-49c8-b072-957201c19c69"},"vehicle_type_id":"4","last_reported":1736669472,"current_range_meters":27600,"station_id":"ce4bhlh2rcd13ifvqgig","pricing_plan_id":"cebpf4jnsgd1na2vs0mg"},{"bike_id":"9e3e45cb-74c8-44ce-aa81-179009c6b5b8","system_id":"levelo_inurba_marseille","lat":43.2869,"lon":5.37414,"is_reserved":false,"is_disabled":false,"rental_uris":{"android":"levelo://app?vid=9e3e45cb-74c8-44ce-aa81-179009c6b5b8","ios":"levelo://app?vid=9e3e45cb-74c8-44ce-aa81-179009c6b5b8"},"vehicle_type_id":"4","last_reported":1736669472,"current_range_meters":23200,"station_id":"ce4bh3p2rcd13ifvqdq0","pricing_plan_id":"cebpf4jnsgd1na2vs0mg"},{"bike_id":"b7e2f4aa-3f2d-4412-937a-c1402990155a","system_id":"levelo_inurba_marseille","lat":43.306201,"lon":5.36757,"is_reserved":false,"is_disabled":false,"rental_uris":{"android":"levelo://app?vid=b7e2f4aa-3f2d-4412-937a-c1402990155a","ios":"levelo://app?vid=b7e2f4aa-3f2d-4412-937a-c1402990155a"},"vehicle_type_id":"4","last_reported":1736669472,"current_range_meters":38400,"station_id":"","pricing_plan_id":"cebpf4jnsgd1na2vs0mg"},{"bike_id":"a970c79a-c8a4-4818-b132-1b08b0d8a27c","system_id":"levelo_inurba_marseille","lat":43.29026,"lon":5.39971,"is_reserved":false,"is_disabled":false,"rental_uris":{"android":"levelo://app?vid=a970c79a-c8a4-4818-b132-1b08b0d8a27c","ios":"levelo://app?vid=a970c79a-c8a4-4818-b132-1b08b0d8a27c"},"vehicle_type_id":"4","last_reported":1736669472,"current_range_meters":28000,"station_id":"ce4bh392rcd13ifvqdm0","pricing_plan_id":"cebpf4jnsgd1na2vs0mg"},{"bike_id":"eb135d1a-caa3-4267-9897-276a74f6bc88","system_id":"levelo_inurba_marseille","lat":43.25857,"lon":5.39918,"is_reserved":false,"is_disabled":false,"rental_uris":{"android":"levelo://app?vid=eb135d1a-caa3-4267-9897-276a74f6bc88","ios":"levelo://app?vid=eb135d1a-caa3-4267-9897-276a74f6bc88"},"vehicle_type_id":"4","last_reported":1736669472,"current_range_meters":32400,"station_id":"ce4bhl92rcd13ifvqghg","pricing_plan_id":"cebpf4jnsgd1na2vs0mg"},{"bike_id":"1dcb0e10-1342-44d0-8aa8-ae2d43f8dc77","system_id":"levelo_inurba_marseille","lat":43.30142,"lon":5.38781,"is_reserved":false,"is_disabled":false,"rental_uris":{"android":"levelo://app?vid=1dcb0e10-1342-44d0-8aa8-ae2d43f8dc77","ios":"levelo://app?vid=1dcb0e10-1342-44d0-8aa8-ae2d43f8dc77"},"vehicle_type_id":"4","last_reported":1736669472,"current_range_meters":33200,"station_id":"ce4bhoh2rcd13ifvqh6g","pricing_plan_id":"cebpf4jnsgd1na2vs0mg"},{"bike_id":"19213f91-67d3-45ba-81c7-434952eb84aa","system_id":"levelo_inurba_marseille","lat":43.28569,"lon":5.39493,"is_reserved":false,"is_disabled":false,"rental_uris":{"android":"levelo://app?vid=19213f91-67d3-45ba-81c7-434952eb84aa","ios":"levelo://app?vid=19213f91-67d3-45ba-81c7-434952eb84aa"},"vehicle_type_id":"4","last_reported":1736669472,"current_range_meters":38800,"station_id":"ce4bh292rcd13ifvqdg0","pricing_plan_id":"cebpf4jnsgd1na2vs0mg"},{"bike_id":"066fc890-cce1-4b7e-a941-320c51e991c9","system_id":"levelo_inurba_marseille","lat":43.2396,"lon":5.36624,"is_reserved":false,"is_disabled":false,"rental_uris":{"android":"levelo://app?vid=066fc890-cce1-4b7e-a941-320c51e991c9","ios":"levelo://app?vid=066fc890-cce1-4b7e-a941-320c51e991c9"},"vehicle_type_id":"4","last_reported":1736669472,"current_range_meters":18000,"station_id":"ce4bhi12rcd13ifvqfp0","pricing_plan_id":"cebpf4jnsgd1na2vs0mg"},{"bike_id":"75911712-e1fe-4582-8d3c-3a9f41d95fcc","system_id":"levelo_inurba_marseille","lat":43.27375,"lon":5.36258,"is_reserved":false,"is_disabled":false,"rental_uris":{"android":"levelo://app?vid=75911712-e1fe-4582-8d3c-3a9f41d95fcc","ios":"levelo://app?vid=75911712-e1fe-4582-8d3c-3a9f41d95fcc"},"vehicle_type_id":"4","last_reported":1736669472,"current_range_meters":11600,"station_id":"ce4bhbh2rcd13ifvqeo0","pricing_plan_id":"cebpf4jnsgd1na2vs0mg"},{"bike_id":"4100518d-ec21-4c20-9cbc-a715dd414659","system_id":"levelo_inurba_marseille","lat":43.27835,"lon":5.39208,"is_reserved":false,"is_disabled":false,"rental_uris":{"android":"levelo://app?vid=4100518d-ec21-4c20-9cbc-a715dd414659","ios":"levelo://app?vid=4100518d-ec21-4c20-9cbc-a715dd414659"},"vehicle_type_id":"4","last_reported":1736669472,"current_range_meters":38800,"station_id":"ce4bhjp2rcd13ifvqga0","pricing_plan_id":"cebpf4jnsgd1na2vs0mg"},{"bike_id":"f23303a1-2950-4186-aef1-0aceb167a700","system_id":"levelo_inurba_marseille","lat":43.28935,"lon":5.39622,"is_reserved":false,"is_disabled":false,"rental_uris":{"android":"levelo://app?vid=f23303a1-2950-4186-aef1-0aceb167a700","ios":"levelo://app?vid=f23303a1-2950-4186-aef1-0aceb167a700"},"vehicle_type_id":"4","last_reported":1736669472,"current_range_meters":38400,"station_id":"ce4bh3h2rcd13ifvqdn0","pricing_plan_id":"cebpf4jnsgd1na2vs0mg"},{"bike_id":"c4a9f4d8-3097-4c73-b16c-f476d0136944","system_id":"levelo_inurba_marseille","lat":43.24999,"lon":5.38939,"is_reserved":false,"is_disabled":false,"rental_uris":{"android":"levelo://app?vid=c4a9f4d8-3097-4c73-b16c-f476d0136944","ios":"levelo://app?vid=c4a9f4d8-3097-4c73-b16c-f476d0136944"},"vehicle_type_id":"4","last_reported":1736669472,"current_range_meters":18800,"station_id":"ce4bhgp2rcd13ifvqfd0","pricing_plan_id":"cebpf4jnsgd1na2vs0mg"},{"bike_id":"f30cb7b0-bac8-46ac-92c6-53aa90cba244","system_id":"levelo_inurba_marseille","lat":43.31724,"lon":5.42392,"is_reserved":false,"is_disabled":false,"rental_uris":{"android":"levelo://app?vid=f30cb7b0-bac8-46ac-92c6-53aa90cba244","ios":"levelo://app?vid=f30cb7b0-bac8-46ac-92c6-53aa90cba244"},"vehicle_type_id":"4","last_reported":1736669472,"current_range_meters":31200,"station_id":"ce4bhp92rcd13ifvqhbg","pricing_plan_id":"cebpf4jnsgd1na2vs0mg"},{"bike_id":"54a3f591-d039-4614-bfe0-35b7e0054969","system_id":"levelo_inurba_marseille","lat":43.246646,"lon":5.381668,"is_reserved":false,"is_disabled":false,"rental_uris":{"android":"levelo://app?vid=54a3f591-d039-4614-bfe0-35b7e0054969","ios":"levelo://app?vid=54a3f591-d039-4614-bfe0-35b7e0054969"},"vehicle_type_id":"4","last_reported":1736669472,"current_range_meters":38400,"station_id":"ce4bhih2rcd13ifvqfr0","pricing_plan_id":"cebpf4jnsgd1na2vs0mg"},{"bike_id":"a93f552d-b365-4ed0-9344-b6eeb5fc5fbc","system_id":"levelo_inurba_marseille","lat":43.243876,"lon":5.370624,"is_reserved":false,"is_disabled":false,"rental_uris":{"android":"levelo://app?vid=a93f552d-b365-4ed0-9344-b6eeb5fc5fbc","ios":"levelo://app?vid=a93f552d-b365-4ed0-9344-b6eeb5fc5fbc"},"vehicle_type_id":"4","last_reported":1736669472,"current_range_meters":19200,"station_id":"ce4bhhh2rcd13ifvqfk0","pricing_plan_id":"cebpf4jnsgd1na2vs0mg"},{"bike_id":"705aaf97-205d-4a6b-bf7f-80d89ff319e4","system_id":"levelo_inurba_marseille","lat":43.24663,"lon":5.38151,"is_reserved":false,"is_disabled":false,"rental_uris":{"android":"levelo://app?vid=705aaf97-205d-4a6b-bf7f-80d89ff319e4","ios":"levelo://app?vid=705aaf97-205d-4a6b-bf7f-80d89ff319e4"},"vehicle_type_id":"4","last_reported":1736669472,"current_range_meters":25600,"station_id":"ce4bhih2rcd13ifvqfr0","pricing_plan_id":"cebpf4jnsgd1na2vs0mg"},{"bike_id":"dc388f0e-5ba4-4401-b2b7-3e59da087469","system_id":"levelo_inurba_marseille","lat":43.28629,"lon":5.351,"is_reserved":false,"is_disabled":false,"rental_uris":{"android":"levelo://app?vid=dc388f0e-5ba4-4401-b2b7-3e59da087469","ios":"levelo://app?vid=dc388f0e-5ba4-4401-b2b7-3e59da087469"},"vehicle_type_id":"4","last_reported":1736669472,"current_range_meters":18000,"station_id":"ce4bhch2rcd13ifvqeug","pricing_plan_id":"cebpf4jnsgd1na2vs0mg"},{"bike_id":"a36ce830-7ddc-4a9a-b63e-504e62cc43f0","system_id":"levelo_inurba_marseille","lat":43.26778,"lon":5.39416,"is_reserved":false,"is_disabled":false,"rental_uris":{"android":"levelo://app?vid=a36ce830-7ddc-4a9a-b63e-504e62cc43f0","ios":"levelo://app?vid=a36ce830-7ddc-4a9a-b63e-504e62cc43f0"},"vehicle_type_id":"4","last_reported":1736669472,"current_range_meters":38000,"station_id":"ce4bhh12rcd13ifvqfg0","pricing_plan_id":"cebpf4jnsgd1na2vs0mg"},{"bike_id":"8c00cf29-540b-4d5d-a97c-7e1b2682eb3a","system_id":"levelo_inurba_marseille","lat":43.24674,"lon":5.38138,"is_reserved":false,"is_disabled":false,"rental_uris":{"android":"levelo://app?vid=8c00cf29-540b-4d5d-a97c-7e1b2682eb3a","ios":"levelo://app?vid=8c00cf29-540b-4d5d-a97c-7e1b2682eb3a"},"vehicle_type_id":"4","last_reported":1736669472,"current_range_meters":4400,"station_id":"ce4bhih2rcd13ifvqfr0","pricing_plan_id":"cebpf4jnsgd1na2vs0mg"},{"bike_id":"eabf8fa3-7034-47ca-ac29-c6c3f424c9ec","system_id":"levelo_inurba_marseille","lat":43.32338,"lon":5.40617,"is_reserved":false,"is_disabled":false,"rental_uris":{"android":"levelo://app?vid=eabf8fa3-7034-47ca-ac29-c6c3f424c9ec","ios":"levelo://app?vid=eabf8fa3-7034-47ca-ac29-c6c3f424c9ec"},"vehicle_type_id":"4","last_reported":1736669472,"current_range_meters":38000,"station_id":"ce4bhq92rcd13ifvqhjg","pricing_plan_id":"cebpf4jnsgd1na2vs0mg"},{"bike_id":"c84c60ce-c7f6-42eb-bb3c-f11a697bd396","system_id":"levelo_inurba_marseille","lat":43.299631,"lon":5.385085,"is_reserved":false,"is_disabled":true,"rental_uris":{"android":"levelo://app?vid=c84c60ce-c7f6-42eb-bb3c-f11a697bd396","ios":"levelo://app?vid=c84c60ce-c7f6-42eb-bb3c-f11a697bd396"},"vehicle_type_id":"4","last_reported":1736669472,"current_range_meters":6800,"station_id":"ce4bgj92rcd13ifvqbd0","pricing_plan_id":"cebpf4jnsgd1na2vs0mg"},{"bike_id":"420cc4f0-5dae-4076-8aa5-3954771a9298","system_id":"levelo_inurba_marseille","lat":43.3077,"lon":5.37657,"is_reserved":false,"is_disabled":false,"rental_uris":{"android":"levelo://app?vid=420cc4f0-5dae-4076-8aa5-3954771a9298","ios":"levelo://app?vid=420cc4f0-5dae-4076-8aa5-3954771a9298"},"vehicle_type_id":"4","last_reported":1736669472,"current_range_meters":34000,"station_id":"ce4bgv92rcd13ifvqcq0","pricing_plan_id":"cebpf4jnsgd1na2vs0mg"},{"bike_id":"5b037463-e776-4f8a-b002-41b2aa90a2b6","system_id":"levelo_inurba_marseille","lat":43.23056,"lon":5.35495,"is_reserved":false,"is_disabled":false,"rental_uris":{"android":"levelo://app?vid=5b037463-e776-4f8a-b002-41b2aa90a2b6","ios":"levelo://app?vid=5b037463-e776-4f8a-b002-41b2aa90a2b6"},"vehicle_type_id":"4","last_reported":1736669472,"current_range_meters":38000,"station_id":"cpo3342slgdg3j2ifvpg","pricing_plan_id":"cebpf4jnsgd1na2vs0mg"},{"bike_id":"93ea534c-dc8a-4fcd-9016-c3bd64a7e332","system_id":"levelo_inurba_marseille","lat":43.30314,"lon":5.39216,"is_reserved":false,"is_disabled":false,"rental_uris":{"android":"levelo://app?vid=93ea534c-dc8a-4fcd-9016-c3bd64a7e332","ios":"levelo://app?vid=93ea534c-dc8a-4fcd-9016-c3bd64a7e332"},"vehicle_type_id":"4","last_reported":1736669472,"current_range_meters":38000,"station_id":"ce4bgkh2rcd13ifvqbk0","pricing_plan_id":"cebpf4jnsgd1na2vs0mg"},{"bike_id":"125e826f-483b-47dc-9a84-f3a82cf45a8e","system_id":"levelo_inurba_marseille","lat":43.30125,"lon":5.37805,"is_reserved":false,"is_disabled":false,"rental_uris":{"android":"levelo://app?vid=125e826f-483b-47dc-9a84-f3a82cf45a8e","ios":"levelo://app?vid=125e826f-483b-47dc-9a84-f3a82cf45a8e"},"vehicle_type_id":"4","last_reported":1736669472,"current_range_meters":8000,"station_id":"","pricing_plan_id":"cebpf4jnsgd1na2vs0mg"},{"bike_id":"58ba27ab-c124-4665-ba9c-8ac9098850f3","system_id":"levelo_inurba_marseille","lat":43.26608,"lon":5.37299,"is_reserved":false,"is_disabled":false,"rental_uris":{"android":"levelo://app?vid=58ba27ab-c124-4665-ba9c-8ac9098850f3","ios":"levelo://app?vid=58ba27ab-c124-4665-ba9c-8ac9098850f3"},"vehicle_type_id":"4","last_reported":1736669472,"current_range_meters":38400,"station_id":"ce4bhg12rcd13ifvqf70","pricing_plan_id":"cebpf4jnsgd1na2vs0mg"},{"bike_id":"2c1599c9-7584-4bf2-91fe-b662752a8eaf","system_id":"levelo_inurba_marseille","lat":43.2675,"lon":5.39454,"is_reserved":false,"is_disabled":false,"rental_uris":{"android":"levelo://app?vid=2c1599c9-7584-4bf2-91fe-b662752a8eaf","ios":"levelo://app?vid=2c1599c9-7584-4bf2-91fe-b662752a8eaf"},"vehicle_type_id":"4","last_reported":1736669472,"current_range_meters":38800,"station_id":"ce4bhh12rcd13ifvqfg0","pricing_plan_id":"cebpf4jnsgd1na2vs0mg"},{"bike_id":"c1c51f67-6348-4482-a3d4-31704cefaf37","system_id":"levelo_inurba_marseille","lat":43.2862,"lon":5.35096,"is_reserved":false,"is_disabled":false,"rental_uris":{"android":"levelo://app?vid=c1c51f67-6348-4482-a3d4-31704cefaf37","ios":"levelo://app?vid=c1c51f67-6348-4482-a3d4-31704cefaf37"},"vehicle_type_id":"4","last_reported":1736669472,"current_range_meters":38000,"station_id":"ce4bhch2rcd13ifvqeug","pricing_plan_id":"cebpf4jnsgd1na2vs0mg"},{"bike_id":"91fb11d4-1c76-4f66-b3aa-69dae02619f9","system_id":"levelo_inurba_marseille","lat":43.3237,"lon":5.38873,"is_reserved":false,"is_disabled":false,"rental_uris":{"android":"levelo://app?vid=91fb11d4-1c76-4f66-b3aa-69dae02619f9","ios":"levelo://app?vid=91fb11d4-1c76-4f66-b3aa-69dae02619f9"},"vehicle_type_id":"4","last_reported":1736669472,"current_range_meters":37600,"station_id":"ce4bhqp2rcd13ifvqhog","pricing_plan_id":"cebpf4jnsgd1na2vs0mg"},{"bike_id":"fdfcc230-7432-4acc-8bf2-7aa3267b8017","system_id":"levelo_inurba_marseille","lat":43.27914,"lon":5.39576,"is_reserved":false,"is_disabled":false,"rental_uris":{"android":"levelo://app?vid=fdfcc230-7432-4acc-8bf2-7aa3267b8017","ios":"levelo://app?vid=fdfcc230-7432-4acc-8bf2-7aa3267b8017"},"vehicle_type_id":"4","last_reported":1736669472,"current_range_meters":38800,"station_id":"ce4bhf92rcd13ifvqf40","pricing_plan_id":"cebpf4jnsgd1na2vs0mg"},{"bike_id":"36725181-d3b5-4842-99e3-8dc9c3fc870c","system_id":"levelo_inurba_marseille","lat":43.27489,"lon":5.42451,"is_reserved":false,"is_disabled":false,"rental_uris":{"android":"levelo://app?vid=36725181-d3b5-4842-99e3-8dc9c3fc870c","ios":"levelo://app?vid=36725181-d3b5-4842-99e3-8dc9c3fc870c"},"vehicle_type_id":"4","last_reported":1736669472,"current_range_meters":38800,"station_id":"ce4bhn92rcd13ifvqgrg","pricing_plan_id":"cebpf4jnsgd1na2vs0mg"},{"bike_id":"1a93e2db-cfef-44c3-88cb-cf63f25e1865","system_id":"levelo_inurba_marseille","lat":43.24393,"lon":5.37038,"is_reserved":false,"is_disabled":false,"rental_uris":{"android":"levelo://app?vid=1a93e2db-cfef-44c3-88cb-cf63f25e1865","ios":"levelo://app?vid=1a93e2db-cfef-44c3-88cb-cf63f25e1865"},"vehicle_type_id":"4","last_reported":1736669472,"current_range_meters":30000,"station_id":"ce4bhhh2rcd13ifvqfk0","pricing_plan_id":"cebpf4jnsgd1na2vs0mg"},{"bike_id":"3db15e78-0259-4d3a-9775-04349b1aed30","system_id":"levelo_inurba_marseille","lat":43.305484,"lon":5.365326,"is_reserved":false,"is_disabled":true,"rental_uris":{"android":"levelo://app?vid=3db15e78-0259-4d3a-9775-04349b1aed30","ios":"levelo://app?vid=3db15e78-0259-4d3a-9775-04349b1aed30"},"vehicle_type_id":"4","last_reported":1736669472,"current_range_meters":27600,"station_id":"ce4bgs12rcd13ifvqcag","pricing_plan_id":"cebpf4jnsgd1na2vs0mg"},{"bike_id":"a754abf4-87cb-4915-a97f-0b4d0e8971f5","system_id":"levelo_inurba_marseille","lat":43.28605,"lon":5.3511,"is_reserved":false,"is_disabled":false,"rental_uris":{"android":"levelo://app?vid=a754abf4-87cb-4915-a97f-0b4d0e8971f5","ios":"levelo://app?vid=a754abf4-87cb-4915-a97f-0b4d0e8971f5"},"vehicle_type_id":"4","last_reported":1736669472,"current_range_meters":38000,"station_id":"ce4bhch2rcd13ifvqeug","pricing_plan_id":"cebpf4jnsgd1na2vs0mg"},{"bike_id":"b51b8509-c21e-40ac-802b-edd56e55cdd0","system_id":"levelo_inurba_marseille","lat":43.30366,"lon":5.4189,"is_reserved":false,"is_disabled":true,"rental_uris":{"android":"levelo://app?vid=b51b8509-c21e-40ac-802b-edd56e55cdd0","ios":"levelo://app?vid=b51b8509-c21e-40ac-802b-edd56e55cdd0"},"vehicle_type_id":"4","last_reported":1736669472,"current_range_meters":27200,"station_id":"ce4bhop2rcd13ifvqh7g","pricing_plan_id":"cebpf4jnsgd1na2vs0mg"},{"bike_id":"4e902877-1d1e-491d-be4e-4863106562a0","system_id":"levelo_inurba_marseille","lat":43.25115,"lon":5.40345,"is_reserved":false,"is_disabled":false,"rental_uris":{"android":"levelo://app?vid=4e902877-1d1e-491d-be4e-4863106562a0","ios":"levelo://app?vid=4e902877-1d1e-491d-be4e-4863106562a0"},"vehicle_type_id":"4","last_reported":1736669472,"current_range_meters":33200,"station_id":"ce4bhlh2rcd13ifvqgig","pricing_plan_id":"cebpf4jnsgd1na2vs0mg"},{"bike_id":"78fc2529-851e-44ea-9e17-e5a76c9197b1","system_id":"levelo_inurba_marseille","lat":43.29717,"lon":5.3773,"is_reserved":false,"is_disabled":true,"rental_uris":{"android":"levelo://app?vid=78fc2529-851e-44ea-9e17-e5a76c9197b1","ios":"levelo://app?vid=78fc2529-851e-44ea-9e17-e5a76c9197b1"},"vehicle_type_id":"4","last_reported":1736669472,"current_range_meters":34800,"station_id":"ce4bgkh2rcd13ifvqbl0","pricing_plan_id":"cebpf4jnsgd1na2vs0mg"},{"bike_id":"6e0b7390-3f03-4896-850a-30b735b3a5fe","system_id":"levelo_inurba_marseille","lat":43.25484,"lon":5.37658,"is_reserved":false,"is_disabled":false,"rental_uris":{"android":"levelo://app?vid=6e0b7390-3f03-4896-850a-30b735b3a5fe","ios":"levelo://app?vid=6e0b7390-3f03-4896-850a-30b735b3a5fe"},"vehicle_type_id":"4","last_reported":1736669472,"current_range_meters":17200,"station_id":"ce4bhh12rcd13ifvqff0","pricing_plan_id":"cebpf4jnsgd1na2vs0mg"},{"bike_id":"5af95480-8c13-4b34-a3f1-e8d8f8a10af5","system_id":"levelo_inurba_marseille","lat":43.26495,"lon":5.39555,"is_reserved":false,"is_disabled":false,"rental_uris":{"android":"levelo://app?vid=5af95480-8c13-4b34-a3f1-e8d8f8a10af5","ios":"levelo://app?vid=5af95480-8c13-4b34-a3f1-e8d8f8a10af5"},"vehicle_type_id":"4","last_reported":1736669472,"current_range_meters":39200,"station_id":"ce4bhi12rcd13ifvqfq0","pricing_plan_id":"cebpf4jnsgd1na2vs0mg"},{"bike_id":"ebc55eb9-194f-4e99-8e23-b42fca6cc43d","system_id":"levelo_inurba_marseille","lat":43.2767,"lon":5.38905,"is_reserved":false,"is_disabled":true,"rental_uris":{"android":"levelo://app?vid=ebc55eb9-194f-4e99-8e23-b42fca6cc43d","ios":"levelo://app?vid=ebc55eb9-194f-4e99-8e23-b42fca6cc43d"},"vehicle_type_id":"4","last_reported":1736669472,"current_range_meters":37600,"station_id":"ce4bhi12rcd13ifvqfo0","pricing_plan_id":"cebpf4jnsgd1na2vs0mg"},{"bike_id":"63cdcf82-248c-4b6b-8d66-12ed7f09703d","system_id":"levelo_inurba_marseille","lat":43.2865,"lon":5.36353,"is_reserved":false,"is_disabled":false,"rental_uris":{"android":"levelo://app?vid=63cdcf82-248c-4b6b-8d66-12ed7f09703d","ios":"levelo://app?vid=63cdcf82-248c-4b6b-8d66-12ed7f09703d"},"vehicle_type_id":"4","last_reported":1736669472,"current_range_meters":38000,"station_id":"ce4bhah2rcd13ifvqej0","pricing_plan_id":"cebpf4jnsgd1na2vs0mg"},{"bike_id":"efa73633-1e63-4f83-8274-8587a262ba25","system_id":"levelo_inurba_marseille","lat":43.23182,"lon":5.39989,"is_reserved":false,"is_disabled":false,"rental_uris":{"android":"levelo://app?vid=efa73633-1e63-4f83-8274-8587a262ba25","ios":"levelo://app?vid=efa73633-1e63-4f83-8274-8587a262ba25"},"vehicle_type_id":"4","last_reported":1736669472,"current_range_meters":36800,"station_id":"ce4bhn12rcd13ifvqgqg","pricing_plan_id":"cebpf4jnsgd1na2vs0mg"},{"bike_id":"ddb26e6d-71f7-42b8-bd32-1ee91f073019","system_id":"levelo_inurba_marseille","lat":43.24633,"lon":5.38913,"is_reserved":false,"is_disabled":false,"rental_uris":{"android":"levelo://app?vid=ddb26e6d-71f7-42b8-bd32-1ee91f073019","ios":"levelo://app?vid=ddb26e6d-71f7-42b8-bd32-1ee91f073019"},"vehicle_type_id":"4","last_reported":1736669472,"current_range_meters":25600,"station_id":"ce4bhg12rcd13ifvqf60","pricing_plan_id":"cebpf4jnsgd1na2vs0mg"},{"bike_id":"d679e8ad-e35b-4604-a475-064f331d9c01","system_id":"levelo_inurba_marseille","lat":43.31527,"lon":5.38029,"is_reserved":false,"is_disabled":true,"rental_uris":{"android":"levelo://app?vid=d679e8ad-e35b-4604-a475-064f331d9c01","ios":"levelo://app?vid=d679e8ad-e35b-4604-a475-064f331d9c01"},"vehicle_type_id":"4","last_reported":1736669472,"current_range_meters":38800,"station_id":"ce4bhsp2rcd13ifvqi50","pricing_plan_id":"cebpf4jnsgd1na2vs0mg"},{"bike_id":"d4b26987-77d6-4d15-a0b3-be9f090b112c","system_id":"levelo_inurba_marseille","lat":43.29035,"lon":5.37565,"is_reserved":false,"is_disabled":false,"rental_uris":{"android":"levelo://app?vid=d4b26987-77d6-4d15-a0b3-be9f090b112c","ios":"levelo://app?vid=d4b26987-77d6-4d15-a0b3-be9f090b112c"},"vehicle_type_id":"4","last_reported":1736669472,"current_range_meters":37600,"station_id":"ce4bh692rcd13ifvqe90","pricing_plan_id":"cebpf4jnsgd1na2vs0mg"},{"bike_id":"3bca090d-d2ee-47c3-8380-df45e3cd0054","system_id":"levelo_inurba_marseille","lat":43.28461,"lon":5.35892,"is_reserved":false,"is_disabled":false,"rental_uris":{"android":"levelo://app?vid=3bca090d-d2ee-47c3-8380-df45e3cd0054","ios":"levelo://app?vid=3bca090d-d2ee-47c3-8380-df45e3cd0054"},"vehicle_type_id":"4","last_reported":1736669472,"current_range_meters":24800,"station_id":"ce4bhah2rcd13ifvqei0","pricing_plan_id":"cebpf4jnsgd1na2vs0mg"},{"bike_id":"adeb4d43-e6fe-4087-aaf6-bcebd3403d68","system_id":"levelo_inurba_marseille","lat":43.28703,"lon":5.3999,"is_reserved":false,"is_disabled":false,"rental_uris":{"android":"levelo://app?vid=adeb4d43-e6fe-4087-aaf6-bcebd3403d68","ios":"levelo://app?vid=adeb4d43-e6fe-4087-aaf6-bcebd3403d68"},"vehicle_type_id":"4","last_reported":1736669472,"current_range_meters":26800,"station_id":"ce4bho92rcd13ifvqh3g","pricing_plan_id":"cebpf4jnsgd1na2vs0mg"},{"bike_id":"ff1967d5-1ce8-4480-9abc-3ccac9d3917b","system_id":"levelo_inurba_marseille","lat":43.28275,"lon":5.35077,"is_reserved":false,"is_disabled":false,"rental_uris":{"android":"levelo://app?vid=ff1967d5-1ce8-4480-9abc-3ccac9d3917b","ios":"levelo://app?vid=ff1967d5-1ce8-4480-9abc-3ccac9d3917b"},"vehicle_type_id":"4","last_reported":1736669472,"current_range_meters":11600,"station_id":"ce4bhbp2rcd13ifvqerg","pricing_plan_id":"cebpf4jnsgd1na2vs0mg"},{"bike_id":"a81e0000-9ba4-4446-9746-fec6f4420090","system_id":"levelo_inurba_marseille","lat":43.30163,"lon":5.3809,"is_reserved":false,"is_disabled":false,"rental_uris":{"android":"levelo://app?vid=a81e0000-9ba4-4446-9746-fec6f4420090","ios":"levelo://app?vid=a81e0000-9ba4-4446-9746-fec6f4420090"},"vehicle_type_id":"4","last_reported":1736669472,"current_range_meters":28000,"station_id":"ce4bgjp2rcd13ifvqbh0","pricing_plan_id":"cebpf4jnsgd1na2vs0mg"},{"bike_id":"036da0c6-4fcd-480f-ba3a-c1130ad8ff5d","system_id":"levelo_inurba_marseille","lat":43.29298,"lon":5.37456,"is_reserved":false,"is_disabled":false,"rental_uris":{"android":"levelo://app?vid=036da0c6-4fcd-480f-ba3a-c1130ad8ff5d","ios":"levelo://app?vid=036da0c6-4fcd-480f-ba3a-c1130ad8ff5d"},"vehicle_type_id":"4","last_reported":1736669472,"current_range_meters":24400,"station_id":"ce4bgi12rcd13ifvqb70","pricing_plan_id":"cebpf4jnsgd1na2vs0mg"},{"bike_id":"d9edb216-ee47-40a8-8ccd-82ecd79a1993","system_id":"levelo_inurba_marseille","lat":43.29017,"lon":5.38147,"is_reserved":false,"is_disabled":true,"rental_uris":{"android":"levelo://app?vid=d9edb216-ee47-40a8-8ccd-82ecd79a1993","ios":"levelo://app?vid=d9edb216-ee47-40a8-8ccd-82ecd79a1993"},"vehicle_type_id":"4","last_reported":1736669472,"current_range_meters":38800,"station_id":"ce4bh4p2rcd13ifvqe1g","pricing_plan_id":"cebpf4jnsgd1na2vs0mg"},{"bike_id":"4729126b-0335-4a3c-bc10-3e11d69e82f2","system_id":"levelo_inurba_marseille","lat":43.24067,"lon":5.37763,"is_reserved":false,"is_disabled":false,"rental_uris":{"android":"levelo://app?vid=4729126b-0335-4a3c-bc10-3e11d69e82f2","ios":"levelo://app?vid=4729126b-0335-4a3c-bc10-3e11d69e82f2"},"vehicle_type_id":"4","last_reported":1736669472,"current_range_meters":3600,"station_id":"ce4bhnp2rcd13ifvqgvg","pricing_plan_id":"cebpf4jnsgd1na2vs0mg"},{"bike_id":"7190806d-6efc-4d5f-adc8-8e7c04344e9c","system_id":"levelo_inurba_marseille","lat":43.30559,"lon":5.36494,"is_reserved":false,"is_disabled":true,"rental_uris":{"android":"levelo://app?vid=7190806d-6efc-4d5f-adc8-8e7c04344e9c","ios":"levelo://app?vid=7190806d-6efc-4d5f-adc8-8e7c04344e9c"},"vehicle_type_id":"4","last_reported":1736669472,"current_range_meters":0,"station_id":"ce4bgs12rcd13ifvqcag","pricing_plan_id":"cebpf4jnsgd1na2vs0mg"},{"bike_id":"717c9b7d-e3d6-441e-a2b5-35caee37f8e8","system_id":"levelo_inurba_marseille","lat":43.28606,"lon":5.35119,"is_reserved":false,"is_disabled":false,"rental_uris":{"android":"levelo://app?vid=717c9b7d-e3d6-441e-a2b5-35caee37f8e8","ios":"levelo://app?vid=717c9b7d-e3d6-441e-a2b5-35caee37f8e8"},"vehicle_type_id":"4","last_reported":1736669472,"current_range_meters":37600,"station_id":"ce4bhch2rcd13ifvqeug","pricing_plan_id":"cebpf4jnsgd1na2vs0mg"},{"bike_id":"a66ed9f8-da03-4a0d-a6ac-a956dec5aa10","system_id":"levelo_inurba_marseille","lat":43.27607,"lon":5.36109,"is_reserved":false,"is_disabled":false,"rental_uris":{"android":"levelo://app?vid=a66ed9f8-da03-4a0d-a6ac-a956dec5aa10","ios":"levelo://app?vid=a66ed9f8-da03-4a0d-a6ac-a956dec5aa10"},"vehicle_type_id":"4","last_reported":1736669472,"current_range_meters":37600,"station_id":"ce4bgj92rcd13ifvqbe0","pricing_plan_id":"cebpf4jnsgd1na2vs0mg"},{"bike_id":"1ff4d6af-d168-4206-80a1-8f85ab0c0a00","system_id":"levelo_inurba_marseille","lat":43.2586,"lon":5.39907,"is_reserved":false,"is_disabled":true,"rental_uris":{"android":"levelo://app?vid=1ff4d6af-d168-4206-80a1-8f85ab0c0a00","ios":"levelo://app?vid=1ff4d6af-d168-4206-80a1-8f85ab0c0a00"},"vehicle_type_id":"4","last_reported":1736669472,"current_range_meters":13600,"station_id":"ce4bhl92rcd13ifvqghg","pricing_plan_id":"cebpf4jnsgd1na2vs0mg"},{"bike_id":"a16fd609-1fc6-4798-b9e0-3ea7526c402a","system_id":"levelo_inurba_marseille","lat":43.235554,"lon":5.378846,"is_reserved":false,"is_disabled":false,"rental_uris":{"android":"levelo://app?vid=a16fd609-1fc6-4798-b9e0-3ea7526c402a","ios":"levelo://app?vid=a16fd609-1fc6-4798-b9e0-3ea7526c402a"},"vehicle_type_id":"4","last_reported":1736669472,"current_range_meters":28400,"station_id":"","pricing_plan_id":"cebpf4jnsgd1na2vs0mg"},{"bike_id":"55e10a13-573c-4876-a3f3-1d7244726716","system_id":"levelo_inurba_marseille","lat":43.24803,"lon":5.37455,"is_reserved":false,"is_disabled":false,"rental_uris":{"android":"levelo://app?vid=55e10a13-573c-4876-a3f3-1d7244726716","ios":"levelo://app?vid=55e10a13-573c-4876-a3f3-1d7244726716"},"vehicle_type_id":"4","last_reported":1736669472,"current_range_meters":39200,"station_id":"ce4bhgh2rcd13ifvqfb0","pricing_plan_id":"cebpf4jnsgd1na2vs0mg"},{"bike_id":"86abeea7-c434-4e10-8df8-12c24097eeb0","system_id":"levelo_inurba_marseille","lat":43.30413,"lon":5.39733,"is_reserved":false,"is_disabled":true,"rental_uris":{"android":"levelo://app?vid=86abeea7-c434-4e10-8df8-12c24097eeb0","ios":"levelo://app?vid=86abeea7-c434-4e10-8df8-12c24097eeb0"},"vehicle_type_id":"4","last_reported":1736669472,"current_range_meters":23200,"station_id":"ce4bh092rcd13ifvqd20","pricing_plan_id":"cebpf4jnsgd1na2vs0mg"},{"bike_id":"9e4b700b-0bd2-4742-b6bd-c75a8782c39a","system_id":"levelo_inurba_marseille","lat":43.269373,"lon":5.389235,"is_reserved":false,"is_disabled":false,"rental_uris":{"android":"levelo://app?vid=9e4b700b-0bd2-4742-b6bd-c75a8782c39a","ios":"levelo://app?vid=9e4b700b-0bd2-4742-b6bd-c75a8782c39a"},"vehicle_type_id":"4","last_reported":1736669472,"current_range_meters":16800,"station_id":"ce4bhhh2rcd13ifvqfl0","pricing_plan_id":"cebpf4jnsgd1na2vs0mg"},{"bike_id":"311416b5-73b1-46de-9478-39cfbd47dd40","system_id":"levelo_inurba_marseille","lat":43.28857,"lon":5.35859,"is_reserved":false,"is_disabled":false,"rental_uris":{"android":"levelo://app?vid=311416b5-73b1-46de-9478-39cfbd47dd40","ios":"levelo://app?vid=311416b5-73b1-46de-9478-39cfbd47dd40"},"vehicle_type_id":"4","last_reported":1736669472,"current_range_meters":38400,"station_id":"ce4bhb12rcd13ifvqem0","pricing_plan_id":"cebpf4jnsgd1na2vs0mg"},{"bike_id":"c72bfc00-b8bb-4330-820c-edf0d16ec086","system_id":"levelo_inurba_marseille","lat":43.289205,"lon":5.384026,"is_reserved":false,"is_disabled":false,"rental_uris":{"android":"levelo://app?vid=c72bfc00-b8bb-4330-820c-edf0d16ec086","ios":"levelo://app?vid=c72bfc00-b8bb-4330-820c-edf0d16ec086"},"vehicle_type_id":"4","last_reported":1736669472,"current_range_meters":33600,"station_id":"","pricing_plan_id":"cebpf4jnsgd1na2vs0mg"},{"bike_id":"72ac177e-7f54-4457-9c3d-22be0327d4ff","system_id":"levelo_inurba_marseille","lat":43.29789,"lon":5.39343,"is_reserved":false,"is_disabled":false,"rental_uris":{"android":"levelo://app?vid=72ac177e-7f54-4457-9c3d-22be0327d4ff","ios":"levelo://app?vid=72ac177e-7f54-4457-9c3d-22be0327d4ff"},"vehicle_type_id":"4","last_reported":1736669472,"current_range_meters":35600,"station_id":"chh1huq6cuj3fo74tm60","pricing_plan_id":"cebpf4jnsgd1na2vs0mg"},{"bike_id":"c1ef2878-40ea-4883-a77d-20bf9ce35368","system_id":"levelo_inurba_marseille","lat":43.27966,"lon":5.40056,"is_reserved":false,"is_disabled":false,"rental_uris":{"android":"levelo://app?vid=c1ef2878-40ea-4883-a77d-20bf9ce35368","ios":"levelo://app?vid=c1ef2878-40ea-4883-a77d-20bf9ce35368"},"vehicle_type_id":"4","last_reported":1736669472,"current_range_meters":28000,"station_id":"","pricing_plan_id":"cebpf4jnsgd1na2vs0mg"},{"bike_id":"e4f2aa47-c487-488e-84a4-e0ec89ae813d","system_id":"levelo_inurba_marseille","lat":43.283576,"lon":5.381068,"is_reserved":false,"is_disabled":false,"rental_uris":{"android":"levelo://app?vid=e4f2aa47-c487-488e-84a4-e0ec89ae813d","ios":"levelo://app?vid=e4f2aa47-c487-488e-84a4-e0ec89ae813d"},"vehicle_type_id":"4","last_reported":1736669472,"current_range_meters":38800,"station_id":"ce4bh412rcd13ifvqdr0","pricing_plan_id":"cebpf4jnsgd1na2vs0mg"},{"bike_id":"c7a817d3-63e5-4652-8814-98e74bb31058","system_id":"levelo_inurba_marseille","lat":43.23956,"lon":5.36635,"is_reserved":false,"is_disabled":false,"rental_uris":{"android":"levelo://app?vid=c7a817d3-63e5-4652-8814-98e74bb31058","ios":"levelo://app?vid=c7a817d3-63e5-4652-8814-98e74bb31058"},"vehicle_type_id":"4","last_reported":1736669472,"current_range_meters":6400,"station_id":"ce4bhi12rcd13ifvqfp0","pricing_plan_id":"cebpf4jnsgd1na2vs0mg"},{"bike_id":"10f7d31a-ef8d-4e8a-acbf-8aa9a8c72143","system_id":"levelo_inurba_marseille","lat":43.24392,"lon":5.37078,"is_reserved":false,"is_disabled":false,"rental_uris":{"android":"levelo://app?vid=10f7d31a-ef8d-4e8a-acbf-8aa9a8c72143","ios":"levelo://app?vid=10f7d31a-ef8d-4e8a-acbf-8aa9a8c72143"},"vehicle_type_id":"4","last_reported":1736669472,"current_range_meters":12800,"station_id":"ce4bhhh2rcd13ifvqfk0","pricing_plan_id":"cebpf4jnsgd1na2vs0mg"},{"bike_id":"1fedc598-f70f-4c41-a2c3-d78b434b4e36","system_id":"levelo_inurba_marseille","lat":43.26182,"lon":5.37436,"is_reserved":false,"is_disabled":false,"rental_uris":{"android":"levelo://app?vid=1fedc598-f70f-4c41-a2c3-d78b434b4e36","ios":"levelo://app?vid=1fedc598-f70f-4c41-a2c3-d78b434b4e36"},"vehicle_type_id":"4","last_reported":1736669472,"current_range_meters":21600,"station_id":"ce4bhgp2rcd13ifvqfc0","pricing_plan_id":"cebpf4jnsgd1na2vs0mg"},{"bike_id":"82fe1ae9-210d-4d01-882b-317874e3918c","system_id":"levelo_inurba_marseille","lat":43.29518,"lon":5.39409,"is_reserved":false,"is_disabled":false,"rental_uris":{"android":"levelo://app?vid=82fe1ae9-210d-4d01-882b-317874e3918c","ios":"levelo://app?vid=82fe1ae9-210d-4d01-882b-317874e3918c"},"vehicle_type_id":"4","last_reported":1736669472,"current_range_meters":36800,"station_id":"ce4bh292rcd13ifvqdf0","pricing_plan_id":"cebpf4jnsgd1na2vs0mg"},{"bike_id":"9cda7140-cd76-4b76-af44-293be04b201c","system_id":"levelo_inurba_marseille","lat":43.28697,"lon":5.37395,"is_reserved":false,"is_disabled":false,"rental_uris":{"android":"levelo://app?vid=9cda7140-cd76-4b76-af44-293be04b201c","ios":"levelo://app?vid=9cda7140-cd76-4b76-af44-293be04b201c"},"vehicle_type_id":"4","last_reported":1736669472,"current_range_meters":37600,"station_id":"ce4bh3p2rcd13ifvqdq0","pricing_plan_id":"cebpf4jnsgd1na2vs0mg"},{"bike_id":"295bd26f-64bb-4f9a-b1ce-9227768f18ec","system_id":"levelo_inurba_marseille","lat":43.29166,"lon":5.37143,"is_reserved":false,"is_disabled":true,"rental_uris":{"android":"levelo://app?vid=295bd26f-64bb-4f9a-b1ce-9227768f18ec","ios":"levelo://app?vid=295bd26f-64bb-4f9a-b1ce-9227768f18ec"},"vehicle_type_id":"4","last_reported":1736669472,"current_range_meters":34800,"station_id":"ce4bha92rcd13ifvqeh0","pricing_plan_id":"cebpf4jnsgd1na2vs0mg"},{"bike_id":"61709003-b6f7-4003-8cd3-2af0d79961ef","system_id":"levelo_inurba_marseille","lat":43.33609,"lon":5.41034,"is_reserved":false,"is_disabled":false,"rental_uris":{"android":"levelo://app?vid=61709003-b6f7-4003-8cd3-2af0d79961ef","ios":"levelo://app?vid=61709003-b6f7-4003-8cd3-2af0d79961ef"},"vehicle_type_id":"4","last_reported":1736669472,"current_range_meters":24800,"station_id":"ce4bhqh2rcd13ifvqhmg","pricing_plan_id":"cebpf4jnsgd1na2vs0mg"},{"bike_id":"1bff2bac-4883-4019-adbe-2dc598af8aad","system_id":"levelo_inurba_marseille","lat":43.2743,"lon":5.39417,"is_reserved":false,"is_disabled":true,"rental_uris":{"android":"levelo://app?vid=1bff2bac-4883-4019-adbe-2dc598af8aad","ios":"levelo://app?vid=1bff2bac-4883-4019-adbe-2dc598af8aad"},"vehicle_type_id":"4","last_reported":1736669472,"current_range_meters":26800,"station_id":"ce4bhdp2rcd13ifvqf20","pricing_plan_id":"cebpf4jnsgd1na2vs0mg"},{"bike_id":"ae29e0de-7b5a-45d6-ace3-313c5e88010a","system_id":"levelo_inurba_marseille","lat":43.27961,"lon":5.41688,"is_reserved":false,"is_disabled":true,"rental_uris":{"android":"levelo://app?vid=ae29e0de-7b5a-45d6-ace3-313c5e88010a","ios":"levelo://app?vid=ae29e0de-7b5a-45d6-ace3-313c5e88010a"},"vehicle_type_id":"4","last_reported":1736669472,"current_range_meters":0,"station_id":"ce4bho12rcd13ifvqh1g","pricing_plan_id":"cebpf4jnsgd1na2vs0mg"},{"bike_id":"0bc3f5f5-60c2-41a0-a6ff-a38fba6be8aa","system_id":"levelo_inurba_marseille","lat":43.25494,"lon":5.3765,"is_reserved":false,"is_disabled":true,"rental_uris":{"android":"levelo://app?vid=0bc3f5f5-60c2-41a0-a6ff-a38fba6be8aa","ios":"levelo://app?vid=0bc3f5f5-60c2-41a0-a6ff-a38fba6be8aa"},"vehicle_type_id":"4","last_reported":1736669472,"current_range_meters":30800,"station_id":"ce4bhh12rcd13ifvqff0","pricing_plan_id":"cebpf4jnsgd1na2vs0mg"},{"bike_id":"572f0254-11cf-4ef2-b3f9-66737ed8298a","system_id":"levelo_inurba_marseille","lat":43.28426,"lon":5.34988,"is_reserved":false,"is_disabled":true,"rental_uris":{"android":"levelo://app?vid=572f0254-11cf-4ef2-b3f9-66737ed8298a","ios":"levelo://app?vid=572f0254-11cf-4ef2-b3f9-66737ed8298a"},"vehicle_type_id":"4","last_reported":1736669472,"current_range_meters":0,"station_id":"ce4bhbh2rcd13ifvqepg","pricing_plan_id":"cebpf4jnsgd1na2vs0mg"},{"bike_id":"4562c5c3-1281-4cf2-af01-20b480d2d6d8","system_id":"levelo_inurba_marseille","lat":43.2315,"lon":5.4371,"is_reserved":false,"is_disabled":true,"rental_uris":{"android":"levelo://app?vid=4562c5c3-1281-4cf2-af01-20b480d2d6d8","ios":"levelo://app?vid=4562c5c3-1281-4cf2-af01-20b480d2d6d8"},"vehicle_type_id":"4","last_reported":1736669472,"current_range_meters":800,"station_id":"ce4bhmp2rcd13ifvqgog","pricing_plan_id":"cebpf4jnsgd1na2vs0mg"},{"bike_id":"7ed08f72-ffdd-4ae3-8785-e2d82f1088a2","system_id":"levelo_inurba_marseille","lat":43.248,"lon":5.3746,"is_reserved":false,"is_disabled":false,"rental_uris":{"android":"levelo://app?vid=7ed08f72-ffdd-4ae3-8785-e2d82f1088a2","ios":"levelo://app?vid=7ed08f72-ffdd-4ae3-8785-e2d82f1088a2"},"vehicle_type_id":"4","last_reported":1736669472,"current_range_meters":32800,"station_id":"ce4bhgh2rcd13ifvqfb0","pricing_plan_id":"cebpf4jnsgd1na2vs0mg"},{"bike_id":"0b138612-7eae-42d5-a8f0-8ac6e835360d","system_id":"levelo_inurba_marseille","lat":43.30258,"lon":5.40078,"is_reserved":false,"is_disabled":false,"rental_uris":{"android":"levelo://app?vid=0b138612-7eae-42d5-a8f0-8ac6e835360d","ios":"levelo://app?vid=0b138612-7eae-42d5-a8f0-8ac6e835360d"},"vehicle_type_id":"4","last_reported":1736669472,"current_range_meters":38800,"station_id":"ce4bgvh2rcd13ifvqcs0","pricing_plan_id":"cebpf4jnsgd1na2vs0mg"},{"bike_id":"6845255b-3748-47a8-80ff-32e6d62dd708","system_id":"levelo_inurba_marseille","lat":43.23184,"lon":5.39984,"is_reserved":false,"is_disabled":false,"rental_uris":{"android":"levelo://app?vid=6845255b-3748-47a8-80ff-32e6d62dd708","ios":"levelo://app?vid=6845255b-3748-47a8-80ff-32e6d62dd708"},"vehicle_type_id":"4","last_reported":1736669472,"current_range_meters":38800,"station_id":"ce4bhn12rcd13ifvqgqg","pricing_plan_id":"cebpf4jnsgd1na2vs0mg"},{"bike_id":"136c61aa-a244-4f82-9113-620a348666ce","system_id":"levelo_inurba_marseille","lat":43.275529,"lon":5.384151,"is_reserved":false,"is_disabled":true,"rental_uris":{"android":"levelo://app?vid=136c61aa-a244-4f82-9113-620a348666ce","ios":"levelo://app?vid=136c61aa-a244-4f82-9113-620a348666ce"},"vehicle_type_id":"4","last_reported":1736669472,"current_range_meters":30000,"station_id":"ce4bhh92rcd13ifvqfi0","pricing_plan_id":"cebpf4jnsgd1na2vs0mg"},{"bike_id":"ef988ec5-19bd-46c7-8cc2-ce417331a833","system_id":"levelo_inurba_marseille","lat":43.31086,"lon":5.42422,"is_reserved":false,"is_disabled":false,"rental_uris":{"android":"levelo://app?vid=ef988ec5-19bd-46c7-8cc2-ce417331a833","ios":"levelo://app?vid=ef988ec5-19bd-46c7-8cc2-ce417331a833"},"vehicle_type_id":"4","last_reported":1736669472,"current_range_meters":38800,"station_id":"ce4bhp92rcd13ifvqhag","pricing_plan_id":"cebpf4jnsgd1na2vs0mg"},{"bike_id":"42ecc464-da44-487e-b0da-d25d9d2043d6","system_id":"levelo_inurba_marseille","lat":43.2572,"lon":5.41105,"is_reserved":false,"is_disabled":false,"rental_uris":{"android":"levelo://app?vid=42ecc464-da44-487e-b0da-d25d9d2043d6","ios":"levelo://app?vid=42ecc464-da44-487e-b0da-d25d9d2043d6"},"vehicle_type_id":"4","last_reported":1736669472,"current_range_meters":38800,"station_id":"ce4bhkp2rcd13ifvqgd0","pricing_plan_id":"cebpf4jnsgd1na2vs0mg"},{"bike_id":"88b12e91-6dd1-40a2-a474-d190ad538fe1","system_id":"levelo_inurba_marseille","lat":43.31119,"lon":5.37766,"is_reserved":false,"is_disabled":false,"rental_uris":{"android":"levelo://app?vid=88b12e91-6dd1-40a2-a474-d190ad538fe1","ios":"levelo://app?vid=88b12e91-6dd1-40a2-a474-d190ad538fe1"},"vehicle_type_id":"4","last_reported":1736669472,"current_range_meters":38800,"station_id":"ce4bgt92rcd13ifvqcg0","pricing_plan_id":"cebpf4jnsgd1na2vs0mg"},{"bike_id":"b7e8dd08-60c6-4ec8-95ea-61794c9f9e48","system_id":"levelo_inurba_marseille","lat":43.255,"lon":5.37655,"is_reserved":false,"is_disabled":false,"rental_uris":{"android":"levelo://app?vid=b7e8dd08-60c6-4ec8-95ea-61794c9f9e48","ios":"levelo://app?vid=b7e8dd08-60c6-4ec8-95ea-61794c9f9e48"},"vehicle_type_id":"4","last_reported":1736669472,"current_range_meters":38000,"station_id":"ce4bhh12rcd13ifvqff0","pricing_plan_id":"cebpf4jnsgd1na2vs0mg"},{"bike_id":"65e8b99d-cb00-44f8-a57f-7740743f51e0","system_id":"levelo_inurba_marseille","lat":43.26341,"lon":5.3774,"is_reserved":false,"is_disabled":true,"rental_uris":{"android":"levelo://app?vid=65e8b99d-cb00-44f8-a57f-7740743f51e0","ios":"levelo://app?vid=65e8b99d-cb00-44f8-a57f-7740743f51e0"},"vehicle_type_id":"4","last_reported":1736669472,"current_range_meters":28400,"station_id":"","pricing_plan_id":"cebpf4jnsgd1na2vs0mg"},{"bike_id":"e7bed24c-76b8-4bfe-8ea5-51efa81df6c2","system_id":"levelo_inurba_marseille","lat":43.27491,"lon":5.42446,"is_reserved":false,"is_disabled":true,"rental_uris":{"android":"levelo://app?vid=e7bed24c-76b8-4bfe-8ea5-51efa81df6c2","ios":"levelo://app?vid=e7bed24c-76b8-4bfe-8ea5-51efa81df6c2"},"vehicle_type_id":"4","last_reported":1736669472,"current_range_meters":0,"station_id":"ce4bhn92rcd13ifvqgrg","pricing_plan_id":"cebpf4jnsgd1na2vs0mg"},{"bike_id":"0ebbf7b5-fec9-4a84-b5c9-ee92041a0819","system_id":"levelo_inurba_marseille","lat":43.291926,"lon":5.393343,"is_reserved":false,"is_disabled":false,"rental_uris":{"android":"levelo://app?vid=0ebbf7b5-fec9-4a84-b5c9-ee92041a0819","ios":"levelo://app?vid=0ebbf7b5-fec9-4a84-b5c9-ee92041a0819"},"vehicle_type_id":"4","last_reported":1736669472,"current_range_meters":38800,"station_id":"ce4bh192rcd13ifvqdd0","pricing_plan_id":"cebpf4jnsgd1na2vs0mg"},{"bike_id":"1f9c2bc2-af69-415b-93c8-180a83e425f4","system_id":"levelo_inurba_marseille","lat":43.294366,"lon":5.397675,"is_reserved":false,"is_disabled":false,"rental_uris":{"android":"levelo://app?vid=1f9c2bc2-af69-415b-93c8-180a83e425f4","ios":"levelo://app?vid=1f9c2bc2-af69-415b-93c8-180a83e425f4"},"vehicle_type_id":"4","last_reported":1736669472,"current_range_meters":15200,"station_id":"ce4bh3h2rcd13ifvqdo0","pricing_plan_id":"cebpf4jnsgd1na2vs0mg"},{"bike_id":"db40b82d-e59d-411f-8102-0c88a2a368c3","system_id":"levelo_inurba_marseille","lat":43.28266,"lon":5.35076,"is_reserved":false,"is_disabled":false,"rental_uris":{"android":"levelo://app?vid=db40b82d-e59d-411f-8102-0c88a2a368c3","ios":"levelo://app?vid=db40b82d-e59d-411f-8102-0c88a2a368c3"},"vehicle_type_id":"4","last_reported":1736669472,"current_range_meters":33600,"station_id":"ce4bhbp2rcd13ifvqerg","pricing_plan_id":"cebpf4jnsgd1na2vs0mg"},{"bike_id":"cc464ccb-457a-4c65-bb12-9e9cbd11ca96","system_id":"levelo_inurba_marseille","lat":43.24984,"lon":5.38934,"is_reserved":false,"is_disabled":false,"rental_uris":{"android":"levelo://app?vid=cc464ccb-457a-4c65-bb12-9e9cbd11ca96","ios":"levelo://app?vid=cc464ccb-457a-4c65-bb12-9e9cbd11ca96"},"vehicle_type_id":"4","last_reported":1736669472,"current_range_meters":33600,"station_id":"ce4bhgp2rcd13ifvqfd0","pricing_plan_id":"cebpf4jnsgd1na2vs0mg"},{"bike_id":"0e61ec43-c876-45d3-a431-7ad6cb87fc6c","system_id":"levelo_inurba_marseille","lat":43.25707,"lon":5.41128,"is_reserved":false,"is_disabled":false,"rental_uris":{"android":"levelo://app?vid=0e61ec43-c876-45d3-a431-7ad6cb87fc6c","ios":"levelo://app?vid=0e61ec43-c876-45d3-a431-7ad6cb87fc6c"},"vehicle_type_id":"4","last_reported":1736669472,"current_range_meters":38800,"station_id":"ce4bhkp2rcd13ifvqgd0","pricing_plan_id":"cebpf4jnsgd1na2vs0mg"},{"bike_id":"b704bf42-2bc7-4506-b669-8ca7a3330fef","system_id":"levelo_inurba_marseille","lat":43.28144,"lon":5.42657,"is_reserved":false,"is_disabled":true,"rental_uris":{"android":"levelo://app?vid=b704bf42-2bc7-4506-b669-8ca7a3330fef","ios":"levelo://app?vid=b704bf42-2bc7-4506-b669-8ca7a3330fef"},"vehicle_type_id":"4","last_reported":1736669472,"current_range_meters":28800,"station_id":"ce4bhnh2rcd13ifvqgug","pricing_plan_id":"cebpf4jnsgd1na2vs0mg"},{"bike_id":"cfb1a237-01a2-45b9-8b75-8a36d55c4428","system_id":"levelo_inurba_marseille","lat":43.298525,"lon":5.362886,"is_reserved":false,"is_disabled":false,"rental_uris":{"android":"levelo://app?vid=cfb1a237-01a2-45b9-8b75-8a36d55c4428","ios":"levelo://app?vid=cfb1a237-01a2-45b9-8b75-8a36d55c4428"},"vehicle_type_id":"4","last_reported":1736669472,"current_range_meters":31200,"station_id":"ce4bgpp2rcd13ifvqc3g","pricing_plan_id":"cebpf4jnsgd1na2vs0mg"},{"bike_id":"52cb6240-5285-4796-91cf-940d48fc7b61","system_id":"levelo_inurba_marseille","lat":43.2455,"lon":5.39542,"is_reserved":false,"is_disabled":false,"rental_uris":{"android":"levelo://app?vid=52cb6240-5285-4796-91cf-940d48fc7b61","ios":"levelo://app?vid=52cb6240-5285-4796-91cf-940d48fc7b61"},"vehicle_type_id":"4","last_reported":1736669472,"current_range_meters":27600,"station_id":"ce4bhlp2rcd13ifvqgjg","pricing_plan_id":"cebpf4jnsgd1na2vs0mg"},{"bike_id":"d1c8ef8e-59d9-4023-b21f-1e6f44d5ee36","system_id":"levelo_inurba_marseille","lat":43.28609,"lon":5.35108,"is_reserved":false,"is_disabled":false,"rental_uris":{"android":"levelo://app?vid=d1c8ef8e-59d9-4023-b21f-1e6f44d5ee36","ios":"levelo://app?vid=d1c8ef8e-59d9-4023-b21f-1e6f44d5ee36"},"vehicle_type_id":"4","last_reported":1736669472,"current_range_meters":28400,"station_id":"ce4bhch2rcd13ifvqeug","pricing_plan_id":"cebpf4jnsgd1na2vs0mg"},{"bike_id":"7ea05d8b-1bc3-43a4-a54e-1574f81a46ab","system_id":"levelo_inurba_marseille","lat":43.323348,"lon":5.406142,"is_reserved":false,"is_disabled":false,"rental_uris":{"android":"levelo://app?vid=7ea05d8b-1bc3-43a4-a54e-1574f81a46ab","ios":"levelo://app?vid=7ea05d8b-1bc3-43a4-a54e-1574f81a46ab"},"vehicle_type_id":"4","last_reported":1736669472,"current_range_meters":24000,"station_id":"ce4bhq92rcd13ifvqhjg","pricing_plan_id":"cebpf4jnsgd1na2vs0mg"},{"bike_id":"99992ce0-e13f-4dee-95af-06d78d23df51","system_id":"levelo_inurba_marseille","lat":43.25911,"lon":5.409,"is_reserved":false,"is_disabled":false,"rental_uris":{"android":"levelo://app?vid=99992ce0-e13f-4dee-95af-06d78d23df51","ios":"levelo://app?vid=99992ce0-e13f-4dee-95af-06d78d23df51"},"vehicle_type_id":"4","last_reported":1736669472,"current_range_meters":19200,"station_id":"ce4bhm92rcd13ifvqglg","pricing_plan_id":"cebpf4jnsgd1na2vs0mg"},{"bike_id":"f62a7ed4-7c80-4ed8-9568-a4dea62069d1","system_id":"levelo_inurba_marseille","lat":43.28081,"lon":5.39652,"is_reserved":false,"is_disabled":true,"rental_uris":{"android":"levelo://app?vid=f62a7ed4-7c80-4ed8-9568-a4dea62069d1","ios":"levelo://app?vid=f62a7ed4-7c80-4ed8-9568-a4dea62069d1"},"vehicle_type_id":"4","last_reported":1736669472,"current_range_meters":33600,"station_id":"ce4bho12rcd13ifvqh2g","pricing_plan_id":"cebpf4jnsgd1na2vs0mg"},{"bike_id":"e2744ec8-2f1a-4025-9ec0-6a07f5db3fc4","system_id":"levelo_inurba_marseille","lat":43.25479,"lon":5.3766,"is_reserved":false,"is_disabled":false,"rental_uris":{"android":"levelo://app?vid=e2744ec8-2f1a-4025-9ec0-6a07f5db3fc4","ios":"levelo://app?vid=e2744ec8-2f1a-4025-9ec0-6a07f5db3fc4"},"vehicle_type_id":"4","last_reported":1736669472,"current_range_meters":39200,"station_id":"ce4bhh12rcd13ifvqff0","pricing_plan_id":"cebpf4jnsgd1na2vs0mg"},{"bike_id":"486385ae-09ad-4011-8a40-9152b5cca0c1","system_id":"levelo_inurba_marseille","lat":43.28697,"lon":5.37395,"is_reserved":false,"is_disabled":false,"rental_uris":{"android":"levelo://app?vid=486385ae-09ad-4011-8a40-9152b5cca0c1","ios":"levelo://app?vid=486385ae-09ad-4011-8a40-9152b5cca0c1"},"vehicle_type_id":"4","last_reported":1736669472,"current_range_meters":37600,"station_id":"ce4bh3p2rcd13ifvqdq0","pricing_plan_id":"cebpf4jnsgd1na2vs0mg"},{"bike_id":"5a3301b4-00b7-41e8-b502-11c24d2a1648","system_id":"levelo_inurba_marseille","lat":43.29607,"lon":5.37746,"is_reserved":false,"is_disabled":false,"rental_uris":{"android":"levelo://app?vid=5a3301b4-00b7-41e8-b502-11c24d2a1648","ios":"levelo://app?vid=5a3301b4-00b7-41e8-b502-11c24d2a1648"},"vehicle_type_id":"4","last_reported":1736669472,"current_range_meters":38800,"station_id":"ce4bgi92rcd13ifvqb90","pricing_plan_id":"cebpf4jnsgd1na2vs0mg"},{"bike_id":"c0de8f09-6e9c-4ce0-a55c-424488e55972","system_id":"levelo_inurba_marseille","lat":43.29273,"lon":5.40105,"is_reserved":false,"is_disabled":false,"rental_uris":{"android":"levelo://app?vid=c0de8f09-6e9c-4ce0-a55c-424488e55972","ios":"levelo://app?vid=c0de8f09-6e9c-4ce0-a55c-424488e55972"},"vehicle_type_id":"4","last_reported":1736669472,"current_range_meters":27600,"station_id":"ce4bh312rcd13ifvqdk0","pricing_plan_id":"cebpf4jnsgd1na2vs0mg"},{"bike_id":"79a6c167-29fc-4727-9530-0f2c5abf20a9","system_id":"levelo_inurba_marseille","lat":43.27995,"lon":5.40016,"is_reserved":false,"is_disabled":false,"rental_uris":{"android":"levelo://app?vid=79a6c167-29fc-4727-9530-0f2c5abf20a9","ios":"levelo://app?vid=79a6c167-29fc-4727-9530-0f2c5abf20a9"},"vehicle_type_id":"4","last_reported":1736669472,"current_range_meters":39200,"station_id":"ce4bho92rcd13ifvqh4g","pricing_plan_id":"cebpf4jnsgd1na2vs0mg"},{"bike_id":"543ebf20-736a-455c-a69d-62ec28af6cdd","system_id":"levelo_inurba_marseille","lat":43.28935,"lon":5.36421,"is_reserved":false,"is_disabled":false,"rental_uris":{"android":"levelo://app?vid=543ebf20-736a-455c-a69d-62ec28af6cdd","ios":"levelo://app?vid=543ebf20-736a-455c-a69d-62ec28af6cdd"},"vehicle_type_id":"4","last_reported":1736669472,"current_range_meters":38800,"station_id":"ce4bhc92rcd13ifvqetg","pricing_plan_id":"cebpf4jnsgd1na2vs0mg"},{"bike_id":"c0554c14-b732-413c-8451-54f8ec41ea32","system_id":"levelo_inurba_marseille","lat":43.2718,"lon":5.40982,"is_reserved":false,"is_disabled":false,"rental_uris":{"android":"levelo://app?vid=c0554c14-b732-413c-8451-54f8ec41ea32","ios":"levelo://app?vid=c0554c14-b732-413c-8451-54f8ec41ea32"},"vehicle_type_id":"4","last_reported":1736669472,"current_range_meters":38800,"station_id":"ce4bhl12rcd13ifvqgf0","pricing_plan_id":"cebpf4jnsgd1na2vs0mg"},{"bike_id":"5c381e93-4073-49d5-a465-9aabfddfee01","system_id":"levelo_inurba_marseille","lat":43.246721,"lon":5.381496,"is_reserved":false,"is_disabled":false,"rental_uris":{"android":"levelo://app?vid=5c381e93-4073-49d5-a465-9aabfddfee01","ios":"levelo://app?vid=5c381e93-4073-49d5-a465-9aabfddfee01"},"vehicle_type_id":"4","last_reported":1736669472,"current_range_meters":17200,"station_id":"ce4bhih2rcd13ifvqfr0","pricing_plan_id":"cebpf4jnsgd1na2vs0mg"},{"bike_id":"31240ca4-9f64-4406-9c52-14b4354e548c","system_id":"levelo_inurba_marseille","lat":43.28623,"lon":5.35096,"is_reserved":false,"is_disabled":false,"rental_uris":{"android":"levelo://app?vid=31240ca4-9f64-4406-9c52-14b4354e548c","ios":"levelo://app?vid=31240ca4-9f64-4406-9c52-14b4354e548c"},"vehicle_type_id":"4","last_reported":1736669472,"current_range_meters":37600,"station_id":"ce4bhch2rcd13ifvqeug","pricing_plan_id":"cebpf4jnsgd1na2vs0mg"},{"bike_id":"b1cf0171-e6f8-4824-8fe5-a17e6d6e7517","system_id":"levelo_inurba_marseille","lat":43.31327,"lon":5.397,"is_reserved":false,"is_disabled":false,"rental_uris":{"android":"levelo://app?vid=b1cf0171-e6f8-4824-8fe5-a17e6d6e7517","ios":"levelo://app?vid=b1cf0171-e6f8-4824-8fe5-a17e6d6e7517"},"vehicle_type_id":"4","last_reported":1736669472,"current_range_meters":20400,"station_id":"ce4bgvp2rcd13ifvqcu0","pricing_plan_id":"cebpf4jnsgd1na2vs0mg"},{"bike_id":"d9b042e2-bbf3-47bf-851f-426caf4d0e01","system_id":"levelo_inurba_marseille","lat":43.24807,"lon":5.37457,"is_reserved":false,"is_disabled":false,"rental_uris":{"android":"levelo://app?vid=d9b042e2-bbf3-47bf-851f-426caf4d0e01","ios":"levelo://app?vid=d9b042e2-bbf3-47bf-851f-426caf4d0e01"},"vehicle_type_id":"4","last_reported":1736669472,"current_range_meters":38400,"station_id":"ce4bhgh2rcd13ifvqfb0","pricing_plan_id":"cebpf4jnsgd1na2vs0mg"},{"bike_id":"ce124b13-208e-4c9a-8beb-e49fc2a49e4a","system_id":"levelo_inurba_marseille","lat":43.30303,"lon":5.36909,"is_reserved":false,"is_disabled":true,"rental_uris":{"android":"levelo://app?vid=ce124b13-208e-4c9a-8beb-e49fc2a49e4a","ios":"levelo://app?vid=ce124b13-208e-4c9a-8beb-e49fc2a49e4a"},"vehicle_type_id":"4","last_reported":1736669472,"current_range_meters":38400,"station_id":"ce4bgqh2rcd13ifvqc5g","pricing_plan_id":"cebpf4jnsgd1na2vs0mg"},{"bike_id":"1e2223a2-c032-49e7-8dbf-982df86a0520","system_id":"levelo_inurba_marseille","lat":43.229214,"lon":5.353741,"is_reserved":false,"is_disabled":false,"rental_uris":{"android":"levelo://app?vid=1e2223a2-c032-49e7-8dbf-982df86a0520","ios":"levelo://app?vid=1e2223a2-c032-49e7-8dbf-982df86a0520"},"vehicle_type_id":"4","last_reported":1736669472,"current_range_meters":25200,"station_id":"cpo3532slgdg3j2ikp40","pricing_plan_id":"cebpf4jnsgd1na2vs0mg"},{"bike_id":"b2a49521-11bf-4cd5-b57b-779b50b4b536","system_id":"levelo_inurba_marseille","lat":43.30902,"lon":5.40173,"is_reserved":false,"is_disabled":false,"rental_uris":{"android":"levelo://app?vid=b2a49521-11bf-4cd5-b57b-779b50b4b536","ios":"levelo://app?vid=b2a49521-11bf-4cd5-b57b-779b50b4b536"},"vehicle_type_id":"4","last_reported":1736669472,"current_range_meters":36800,"station_id":"ce4bgvp2rcd13ifvqct0","pricing_plan_id":"cebpf4jnsgd1na2vs0mg"},{"bike_id":"956ef377-09c1-45d7-b30b-51b07e5459bb","system_id":"levelo_inurba_marseille","lat":43.29276,"lon":5.38441,"is_reserved":false,"is_disabled":false,"rental_uris":{"android":"levelo://app?vid=956ef377-09c1-45d7-b30b-51b07e5459bb","ios":"levelo://app?vid=956ef377-09c1-45d7-b30b-51b07e5459bb"},"vehicle_type_id":"4","last_reported":1736669472,"current_range_meters":8800,"station_id":"ce4bh692rcd13ifvqea0","pricing_plan_id":"cebpf4jnsgd1na2vs0mg"},{"bike_id":"5f2cf356-122a-4d24-85ba-e38bc4612223","system_id":"levelo_inurba_marseille","lat":43.255798,"lon":5.382355,"is_reserved":false,"is_disabled":true,"rental_uris":{"android":"levelo://app?vid=5f2cf356-122a-4d24-85ba-e38bc4612223","ios":"levelo://app?vid=5f2cf356-122a-4d24-85ba-e38bc4612223"},"vehicle_type_id":"4","last_reported":1736669472,"current_range_meters":29600,"station_id":"ce4bhih2rcd13ifvqfs0","pricing_plan_id":"cebpf4jnsgd1na2vs0mg"},{"bike_id":"0fa5a85f-7a9d-4dea-b522-cdd0eb609691","system_id":"levelo_inurba_marseille","lat":43.27359,"lon":5.36252,"is_reserved":false,"is_disabled":false,"rental_uris":{"android":"levelo://app?vid=0fa5a85f-7a9d-4dea-b522-cdd0eb609691","ios":"levelo://app?vid=0fa5a85f-7a9d-4dea-b522-cdd0eb609691"},"vehicle_type_id":"4","last_reported":1736669472,"current_range_meters":6000,"station_id":"ce4bhbh2rcd13ifvqeo0","pricing_plan_id":"cebpf4jnsgd1na2vs0mg"},{"bike_id":"ac5ad7d8-ccea-458d-83e0-31976cff9c0d","system_id":"levelo_inurba_marseille","lat":43.25718,"lon":5.41109,"is_reserved":false,"is_disabled":false,"rental_uris":{"android":"levelo://app?vid=ac5ad7d8-ccea-458d-83e0-31976cff9c0d","ios":"levelo://app?vid=ac5ad7d8-ccea-458d-83e0-31976cff9c0d"},"vehicle_type_id":"4","last_reported":1736669472,"current_range_meters":39200,"station_id":"ce4bhkp2rcd13ifvqgd0","pricing_plan_id":"cebpf4jnsgd1na2vs0mg"},{"bike_id":"ff93243d-51a0-4416-8745-9b0d7ce138cb","system_id":"levelo_inurba_marseille","lat":43.28725,"lon":5.36086,"is_reserved":false,"is_disabled":false,"rental_uris":{"android":"levelo://app?vid=ff93243d-51a0-4416-8745-9b0d7ce138cb","ios":"levelo://app?vid=ff93243d-51a0-4416-8745-9b0d7ce138cb"},"vehicle_type_id":"4","last_reported":1736669472,"current_range_meters":38800,"station_id":"cki0cbj6b192h4jlfktg","pricing_plan_id":"cebpf4jnsgd1na2vs0mg"},{"bike_id":"39c3c4a5-d4ec-4fce-95db-3823db8f6b82","system_id":"levelo_inurba_marseille","lat":43.25722,"lon":5.41123,"is_reserved":false,"is_disabled":false,"rental_uris":{"android":"levelo://app?vid=39c3c4a5-d4ec-4fce-95db-3823db8f6b82","ios":"levelo://app?vid=39c3c4a5-d4ec-4fce-95db-3823db8f6b82"},"vehicle_type_id":"4","last_reported":1736669472,"current_range_meters":32400,"station_id":"ce4bhkp2rcd13ifvqgd0","pricing_plan_id":"cebpf4jnsgd1na2vs0mg"},{"bike_id":"eed1aa98-aaa3-4bf9-b90f-e5c0714c3fe6","system_id":"levelo_inurba_marseille","lat":43.2799,"lon":5.41657,"is_reserved":false,"is_disabled":false,"rental_uris":{"android":"levelo://app?vid=eed1aa98-aaa3-4bf9-b90f-e5c0714c3fe6","ios":"levelo://app?vid=eed1aa98-aaa3-4bf9-b90f-e5c0714c3fe6"},"vehicle_type_id":"4","last_reported":1736669472,"current_range_meters":38800,"station_id":"ce4bho12rcd13ifvqh1g","pricing_plan_id":"cebpf4jnsgd1na2vs0mg"},{"bike_id":"6557bc8c-74fd-4fa7-ab08-bf03f041fb06","system_id":"levelo_inurba_marseille","lat":43.31289,"lon":5.3852,"is_reserved":false,"is_disabled":false,"rental_uris":{"android":"levelo://app?vid=6557bc8c-74fd-4fa7-ab08-bf03f041fb06","ios":"levelo://app?vid=6557bc8c-74fd-4fa7-ab08-bf03f041fb06"},"vehicle_type_id":"4","last_reported":1736669472,"current_range_meters":18800,"station_id":"","pricing_plan_id":"cebpf4jnsgd1na2vs0mg"},{"bike_id":"8242826e-ab20-43ea-95c1-e76b426a119e","system_id":"levelo_inurba_marseille","lat":43.33767,"lon":5.37424,"is_reserved":false,"is_disabled":false,"rental_uris":{"android":"levelo://app?vid=8242826e-ab20-43ea-95c1-e76b426a119e","ios":"levelo://app?vid=8242826e-ab20-43ea-95c1-e76b426a119e"},"vehicle_type_id":"4","last_reported":1736669472,"current_range_meters":14000,"station_id":"","pricing_plan_id":"cebpf4jnsgd1na2vs0mg"},{"bike_id":"57f5a8a9-f2e5-4673-966d-ca04b8d8c8e6","system_id":"levelo_inurba_marseille","lat":43.31119,"lon":5.37779,"is_reserved":false,"is_disabled":true,"rental_uris":{"android":"levelo://app?vid=57f5a8a9-f2e5-4673-966d-ca04b8d8c8e6","ios":"levelo://app?vid=57f5a8a9-f2e5-4673-966d-ca04b8d8c8e6"},"vehicle_type_id":"4","last_reported":1736669472,"current_range_meters":2800,"station_id":"ce4bgt92rcd13ifvqcg0","pricing_plan_id":"cebpf4jnsgd1na2vs0mg"},{"bike_id":"70be71ea-57e2-4728-b52f-40370cdcd946","system_id":"levelo_inurba_marseille","lat":43.248,"lon":5.37452,"is_reserved":false,"is_disabled":false,"rental_uris":{"android":"levelo://app?vid=70be71ea-57e2-4728-b52f-40370cdcd946","ios":"levelo://app?vid=70be71ea-57e2-4728-b52f-40370cdcd946"},"vehicle_type_id":"4","last_reported":1736669472,"current_range_meters":32000,"station_id":"ce4bhgh2rcd13ifvqfb0","pricing_plan_id":"cebpf4jnsgd1na2vs0mg"},{"bike_id":"a6855111-0943-4d14-9802-91718c0bec80","system_id":"levelo_inurba_marseille","lat":43.25572,"lon":5.38235,"is_reserved":false,"is_disabled":false,"rental_uris":{"android":"levelo://app?vid=a6855111-0943-4d14-9802-91718c0bec80","ios":"levelo://app?vid=a6855111-0943-4d14-9802-91718c0bec80"},"vehicle_type_id":"4","last_reported":1736669472,"current_range_meters":28800,"station_id":"ce4bhih2rcd13ifvqfs0","pricing_plan_id":"cebpf4jnsgd1na2vs0mg"},{"bike_id":"9343157b-1c2d-4548-bf4c-6991e6c0cdde","system_id":"levelo_inurba_marseille","lat":43.29754,"lon":5.37134,"is_reserved":false,"is_disabled":true,"rental_uris":{"android":"levelo://app?vid=9343157b-1c2d-4548-bf4c-6991e6c0cdde","ios":"levelo://app?vid=9343157b-1c2d-4548-bf4c-6991e6c0cdde"},"vehicle_type_id":"4","last_reported":1736669472,"current_range_meters":28000,"station_id":"ce4bgop2rcd13ifvqc1g","pricing_plan_id":"cebpf4jnsgd1na2vs0mg"},{"bike_id":"7966a29c-09c7-4115-9f20-e57dfa9fe5cc","system_id":"levelo_inurba_marseille","lat":43.27911,"lon":5.39581,"is_reserved":false,"is_disabled":false,"rental_uris":{"android":"levelo://app?vid=7966a29c-09c7-4115-9f20-e57dfa9fe5cc","ios":"levelo://app?vid=7966a29c-09c7-4115-9f20-e57dfa9fe5cc"},"vehicle_type_id":"4","last_reported":1736669472,"current_range_meters":8400,"station_id":"ce4bhf92rcd13ifvqf40","pricing_plan_id":"cebpf4jnsgd1na2vs0mg"},{"bike_id":"f3d63fbe-0b15-4d5a-b8ba-74356810cdf7","system_id":"levelo_inurba_marseille","lat":43.27038,"lon":5.42279,"is_reserved":false,"is_disabled":false,"rental_uris":{"android":"levelo://app?vid=f3d63fbe-0b15-4d5a-b8ba-74356810cdf7","ios":"levelo://app?vid=f3d63fbe-0b15-4d5a-b8ba-74356810cdf7"},"vehicle_type_id":"4","last_reported":1736669472,"current_range_meters":38800,"station_id":"ce4bhk92rcd13ifvqgb0","pricing_plan_id":"cebpf4jnsgd1na2vs0mg"},{"bike_id":"cfc7d4e2-0371-4fb2-9ec5-116a185cb80c","system_id":"levelo_inurba_marseille","lat":43.23171,"lon":5.4002,"is_reserved":false,"is_disabled":false,"rental_uris":{"android":"levelo://app?vid=cfc7d4e2-0371-4fb2-9ec5-116a185cb80c","ios":"levelo://app?vid=cfc7d4e2-0371-4fb2-9ec5-116a185cb80c"},"vehicle_type_id":"4","last_reported":1736669472,"current_range_meters":20800,"station_id":"ce4bhn12rcd13ifvqgqg","pricing_plan_id":"cebpf4jnsgd1na2vs0mg"},{"bike_id":"6f8d5613-68e8-453b-9903-0b6c2da05e2d","system_id":"levelo_inurba_marseille","lat":43.24156,"lon":5.36442,"is_reserved":false,"is_disabled":false,"rental_uris":{"android":"levelo://app?vid=6f8d5613-68e8-453b-9903-0b6c2da05e2d","ios":"levelo://app?vid=6f8d5613-68e8-453b-9903-0b6c2da05e2d"},"vehicle_type_id":"4","last_reported":1736669472,"current_range_meters":36800,"station_id":"cpo36qri1sfpv3e86is0","pricing_plan_id":"cebpf4jnsgd1na2vs0mg"},{"bike_id":"297ed5aa-c846-407f-9135-c1596f506589","system_id":"levelo_inurba_marseille","lat":43.303227,"lon":5.404412,"is_reserved":false,"is_disabled":false,"rental_uris":{"android":"levelo://app?vid=297ed5aa-c846-407f-9135-c1596f506589","ios":"levelo://app?vid=297ed5aa-c846-407f-9135-c1596f506589"},"vehicle_type_id":"4","last_reported":1736669472,"current_range_meters":38800,"station_id":"ce4bh012rcd13ifvqd10","pricing_plan_id":"cebpf4jnsgd1na2vs0mg"},{"bike_id":"139e7dc7-d879-4702-a71f-c7400b4b7dda","system_id":"levelo_inurba_marseille","lat":43.28943,"lon":5.36634,"is_reserved":false,"is_disabled":false,"rental_uris":{"android":"levelo://app?vid=139e7dc7-d879-4702-a71f-c7400b4b7dda","ios":"levelo://app?vid=139e7dc7-d879-4702-a71f-c7400b4b7dda"},"vehicle_type_id":"4","last_reported":1736669472,"current_range_meters":30400,"station_id":"ce4bhap2rcd13ifvqek0","pricing_plan_id":"cebpf4jnsgd1na2vs0mg"},{"bike_id":"ed3f3c69-27c8-48af-8c96-2ad0c07b0d26","system_id":"levelo_inurba_marseille","lat":43.30933,"lon":5.40145,"is_reserved":false,"is_disabled":false,"rental_uris":{"android":"levelo://app?vid=ed3f3c69-27c8-48af-8c96-2ad0c07b0d26","ios":"levelo://app?vid=ed3f3c69-27c8-48af-8c96-2ad0c07b0d26"},"vehicle_type_id":"4","last_reported":1736669472,"current_range_meters":33600,"station_id":"ce4bgvp2rcd13ifvqct0","pricing_plan_id":"cebpf4jnsgd1na2vs0mg"},{"bike_id":"4ea89943-560f-4480-a533-4fe6664bd873","system_id":"levelo_inurba_marseille","lat":43.26189,"lon":5.37456,"is_reserved":false,"is_disabled":false,"rental_uris":{"android":"levelo://app?vid=4ea89943-560f-4480-a533-4fe6664bd873","ios":"levelo://app?vid=4ea89943-560f-4480-a533-4fe6664bd873"},"vehicle_type_id":"4","last_reported":1736669472,"current_range_meters":16000,"station_id":"ce4bhgp2rcd13ifvqfc0","pricing_plan_id":"cebpf4jnsgd1na2vs0mg"},