{"last_updated":1777326262,"ttl":60,"version":"2.2","data":{"bikes":[{"bike_id":"ba232b12-0530-4684-bdcc-232e54b7d12b","system_id":"levelo_inurba_marseille","lat":43.25008,"lon":5.38931,"is_reserved":false,"is_disabled":false,"rental_uris":{"android":"levelo://app?vid=ba232b12-0530-4684-bdcc-232e54b7d12b","ios":"levelo://app?vid=ba232b12-0530-4684-bdcc-232e54b7d12b"},"vehicle_type_id":"4","last_reported":1777326263,"current_range_meters":2800,"station_id":"ce4bhgp2rcd13ifvqfd0","pricing_plan_id":"cebpf4jnsgd1na2vs0mg"},{"bike_id":"a5d1c5f8-e551-41de-b7f3-a52119a1050b","system_id":"levelo_inurba_marseille","lat":43.27804,"lon":5.37469,"is_reserved":false,"is_disabled":false,"rental_uris":{"android":"levelo://app?vid=a5d1c5f8-e551-41de-b7f3-a52119a1050b","ios":"levelo://app?vid=a5d1c5f8-e551-41de-b7f3-a52119a1050b"},"vehicle_type_id":"4","last_reported":1777326263,"current_range_meters":2800,"station_id":"","pricing_plan_id":"cebpf4jnsgd1na2vs0mg"},{"bike_id":"2c5074ca-c137-4cbf-bb08-088c41bfffa2","system_id":"levelo_inurba_marseille","lat":43.28884,"lon":5.39309,"is_reserved":false,"is_disabled":false,"rental_uris":{"android":"levelo://app?vid=2c5074ca-c137-4cbf-bb08-088c41bfffa2","ios":"levelo://app?vid=2c5074ca-c137-4cbf-bb08-088c41bfffa2"},"vehicle_type_id":"4","last_reported":1777326263,"current_range_meters":3200,"station_id":"ce4bh2p2rcd13ifvqdi0","pricing_plan_id":"cebpf4jnsgd1na2vs0mg"},{"bike_id":"efab80e6-a52f-4ebb-a76f-0e659da61b64","system_id":"levelo_inurba_marseille","lat":43.24661,"lon":5.38163,"is_reserved":false,"is_disabled":false,"rental_uris":{"android":"levelo://app?vid=efab80e6-a52f-4ebb-a76f-0e659da61b64","ios":"levelo://app?vid=efab80e6-a52f-4ebb-a76f-0e659da61b64"},"vehicle_type_id":"4","last_reported":1777326263,"current_range_meters":3200,"station_id":"ce4bhih2rcd13ifvqfr0","pricing_plan_id":"cebpf4jnsgd1na2vs0mg"},{"bike_id":"f8cf34cd-ddfc-4c49-9cfb-a8ad4ef06c9e","system_id":"levelo_inurba_marseille","lat":43.29255,"lon":5.40895,"is_reserved":false,"is_disabled":false,"rental_uris":{"android":"levelo://app?vid=f8cf34cd-ddfc-4c49-9cfb-a8ad4ef06c9e","ios":"levelo://app?vid=f8cf34cd-ddfc-4c49-9cfb-a8ad4ef06c9e"},"vehicle_type_id":"4","last_reported":1777326263,"current_range_meters":3200,"station_id":"ce4bh192rcd13ifvqdc0","pricing_plan_id":"cebpf4jnsgd1na2vs0mg"},{"bike_id":"17a645ef-86ba-4d79-9b5d-35ac2166080f","system_id":"levelo_inurba_marseille","lat":43.337444,"lon":5.374475,"is_reserved":false,"is_disabled":false,"rental_uris":{"android":"levelo://app?vid=17a645ef-86ba-4d79-9b5d-35ac2166080f","ios":"levelo://app?vid=17a645ef-86ba-4d79-9b5d-35ac2166080f"},"vehicle_type_id":"4","last_reported":1777326263,"current_range_meters":3200,"station_id":"","pricing_plan_id":"cebpf4jnsgd1na2vs0mg"},{"bike_id":"f570f340-7893-42ae-a436-0dfcd25430c7","system_id":"levelo_inurba_marseille","lat":43.27167,"lon":5.41005,"is_reserved":false,"is_disabled":false,"rental_uris":{"android":"levelo://app?vid=f570f340-7893-42ae-a436-0dfcd25430c7","ios":"levelo://app?vid=f570f340-7893-42ae-a436-0dfcd25430c7"},"vehicle_type_id":"4","last_reported":1777326263,"current_range_meters":3200,"station_id":"ce4bhl12rcd13ifvqgf0","pricing_plan_id":"cebpf4jnsgd1na2vs0mg"},{"bike_id":"1e467ca0-2768-4108-a598-baca0cc991f8","system_id":"levelo_inurba_marseille","lat":43.27466,"lon":5.41589,"is_reserved":false,"is_disabled":true,"rental_uris":{"android":"levelo://app?vid=1e467ca0-2768-4108-a598-baca0cc991f8","ios":"levelo://app?vid=1e467ca0-2768-4108-a598-baca0cc991f8"},"vehicle_type_id":"4","last_reported":1777326263,"current_range_meters":3200,"station_id":"","pricing_plan_id":"cebpf4jnsgd1na2vs0mg"},{"bike_id":"50fcb081-4b05-4355-adf3-07f022c0399c","system_id":"levelo_inurba_marseille","lat":43.30993,"lon":5.37913,"is_reserved":false,"is_disabled":false,"rental_uris":{"android":"levelo://app?vid=50fcb081-4b05-4355-adf3-07f022c0399c","ios":"levelo://app?vid=50fcb081-4b05-4355-adf3-07f022c0399c"},"vehicle_type_id":"4","last_reported":1777326263,"current_range_meters":3200,"station_id":"","pricing_plan_id":"cebpf4jnsgd1na2vs0mg"},{"bike_id":"5676b1df-3102-49f0-94ea-6bd037dc90c9","system_id":"levelo_inurba_marseille","lat":43.31124,"lon":5.38047,"is_reserved":false,"is_disabled":false,"rental_uris":{"android":"levelo://app?vid=5676b1df-3102-49f0-94ea-6bd037dc90c9","ios":"levelo://app?vid=5676b1df-3102-49f0-94ea-6bd037dc90c9"},"vehicle_type_id":"4","last_reported":1777326263,"current_range_meters":3600,"station_id":"","pricing_plan_id":"cebpf4jnsgd1na2vs0mg"},{"bike_id":"30d902e6-ac27-4115-98fd-2af5e6512802","system_id":"levelo_inurba_marseille","lat":43.29735,"lon":5.37681,"is_reserved":false,"is_disabled":true,"rental_uris":{"android":"levelo://app?vid=30d902e6-ac27-4115-98fd-2af5e6512802","ios":"levelo://app?vid=30d902e6-ac27-4115-98fd-2af5e6512802"},"vehicle_type_id":"4","last_reported":1777326263,"current_range_meters":3600,"station_id":"ce4bgkh2rcd13ifvqbl0","pricing_plan_id":"cebpf4jnsgd1na2vs0mg"},{"bike_id":"1f13452b-ac27-48ca-bbd2-1255b0865067","system_id":"levelo_inurba_marseille","lat":43.27889,"lon":5.37947,"is_reserved":false,"is_disabled":false,"rental_uris":{"android":"levelo://app?vid=1f13452b-ac27-48ca-bbd2-1255b0865067","ios":"levelo://app?vid=1f13452b-ac27-48ca-bbd2-1255b0865067"},"vehicle_type_id":"4","last_reported":1777326263,"current_range_meters":3600,"station_id":"","pricing_plan_id":"cebpf4jnsgd1na2vs0mg"},{"bike_id":"ac4eb49f-3c14-42c4-ba54-ac72a41c7cf6","system_id":"levelo_inurba_marseille","lat":43.30101,"lon":5.39085,"is_reserved":false,"is_disabled":false,"rental_uris":{"android":"levelo://app?vid=ac4eb49f-3c14-42c4-ba54-ac72a41c7cf6","ios":"levelo://app?vid=ac4eb49f-3c14-42c4-ba54-ac72a41c7cf6"},"vehicle_type_id":"4","last_reported":1777326263,"current_range_meters":3600,"station_id":"ce4bh192rcd13ifvqdb0","pricing_plan_id":"cebpf4jnsgd1na2vs0mg"},{"bike_id":"fd583349-9e7d-4e5b-8155-1da1a7a44b99","system_id":"levelo_inurba_marseille","lat":43.2796,"lon":5.41047,"is_reserved":false,"is_disabled":false,"rental_uris":{"android":"levelo://app?vid=fd583349-9e7d-4e5b-8155-1da1a7a44b99","ios":"levelo://app?vid=fd583349-9e7d-4e5b-8155-1da1a7a44b99"},"vehicle_type_id":"4","last_reported":1777326263,"current_range_meters":3600,"station_id":"ce4bhnp2rcd13ifvqh0g","pricing_plan_id":"cebpf4jnsgd1na2vs0mg"},{"bike_id":"35a6efba-6e56-4656-8dc6-121dcaca4930","system_id":"levelo_inurba_marseille","lat":43.25612,"lon":5.38617,"is_reserved":false,"is_disabled":false,"rental_uris":{"android":"levelo://app?vid=35a6efba-6e56-4656-8dc6-121dcaca4930","ios":"levelo://app?vid=35a6efba-6e56-4656-8dc6-121dcaca4930"},"vehicle_type_id":"4","last_reported":1777326263,"current_range_meters":3600,"station_id":"","pricing_plan_id":"cebpf4jnsgd1na2vs0mg"},{"bike_id":"ad06fbeb-2893-47bd-9310-693ccba410e9","system_id":"levelo_inurba_marseille","lat":43.28763,"lon":5.46823,"is_reserved":false,"is_disabled":false,"rental_uris":{"android":"levelo://app?vid=ad06fbeb-2893-47bd-9310-693ccba410e9","ios":"levelo://app?vid=ad06fbeb-2893-47bd-9310-693ccba410e9"},"vehicle_type_id":"4","last_reported":1777326263,"current_range_meters":4000,"station_id":"","pricing_plan_id":"cebpf4jnsgd1na2vs0mg"},{"bike_id":"58810f72-66bf-4db0-8bc6-16759fd12703","system_id":"levelo_inurba_marseille","lat":43.29028,"lon":5.38636,"is_reserved":false,"is_disabled":false,"rental_uris":{"android":"levelo://app?vid=58810f72-66bf-4db0-8bc6-16759fd12703","ios":"levelo://app?vid=58810f72-66bf-4db0-8bc6-16759fd12703"},"vehicle_type_id":"4","last_reported":1777326263,"current_range_meters":4000,"station_id":"ce4bh4p2rcd13ifvqe0g","pricing_plan_id":"cebpf4jnsgd1na2vs0mg"},{"bike_id":"c4213189-d76b-43f5-8965-74c9b898dd53","system_id":"levelo_inurba_marseille","lat":43.28483,"lon":5.38544,"is_reserved":false,"is_disabled":false,"rental_uris":{"android":"levelo://app?vid=c4213189-d76b-43f5-8965-74c9b898dd53","ios":"levelo://app?vid=c4213189-d76b-43f5-8965-74c9b898dd53"},"vehicle_type_id":"4","last_reported":1777326263,"current_range_meters":4000,"station_id":"ce4bh8p2rcd13ifvqeb0","pricing_plan_id":"cebpf4jnsgd1na2vs0mg"},{"bike_id":"cf4537a9-051c-4080-9a3f-93f632ce0082","system_id":"levelo_inurba_marseille","lat":43.337444,"lon":5.374475,"is_reserved":false,"is_disabled":false,"rental_uris":{"android":"levelo://app?vid=cf4537a9-051c-4080-9a3f-93f632ce0082","ios":"levelo://app?vid=cf4537a9-051c-4080-9a3f-93f632ce0082"},"vehicle_type_id":"4","last_reported":1777326263,"current_range_meters":4000,"station_id":"","pricing_plan_id":"cebpf4jnsgd1na2vs0mg"},{"bike_id":"bdab1e31-d7ea-4c8e-b3d6-57aabe73b361","system_id":"levelo_inurba_marseille","lat":43.28575,"lon":5.39474,"is_reserved":false,"is_disabled":true,"rental_uris":{"android":"levelo://app?vid=bdab1e31-d7ea-4c8e-b3d6-57aabe73b361","ios":"levelo://app?vid=bdab1e31-d7ea-4c8e-b3d6-57aabe73b361"},"vehicle_type_id":"4","last_reported":1777326263,"current_range_meters":4000,"station_id":"ce4bh292rcd13ifvqdg0","pricing_plan_id":"cebpf4jnsgd1na2vs0mg"},{"bike_id":"3e34be22-8cba-4fde-b852-5eb604dfd620","system_id":"levelo_inurba_marseille","lat":43.31687,"lon":5.37295,"is_reserved":false,"is_disabled":false,"rental_uris":{"android":"levelo://app?vid=3e34be22-8cba-4fde-b852-5eb604dfd620","ios":"levelo://app?vid=3e34be22-8cba-4fde-b852-5eb604dfd620"},"vehicle_type_id":"4","last_reported":1777326263,"current_range_meters":4000,"station_id":"","pricing_plan_id":"cebpf4jnsgd1na2vs0mg"},{"bike_id":"d2a170e9-4683-45e4-8ad8-6a20e503868b","system_id":"levelo_inurba_marseille","lat":43.2551,"lon":5.37659,"is_reserved":false,"is_disabled":true,"rental_uris":{"android":"levelo://app?vid=d2a170e9-4683-45e4-8ad8-6a20e503868b","ios":"levelo://app?vid=d2a170e9-4683-45e4-8ad8-6a20e503868b"},"vehicle_type_id":"4","last_reported":1777326263,"current_range_meters":4400,"station_id":"ce4bhh12rcd13ifvqff0","pricing_plan_id":"cebpf4jnsgd1na2vs0mg"},{"bike_id":"3daa3b5c-dec3-42c1-9eb0-efb7ae17438a","system_id":"levelo_inurba_marseille","lat":43.27718,"lon":5.38882,"is_reserved":false,"is_disabled":false,"rental_uris":{"android":"levelo://app?vid=3daa3b5c-dec3-42c1-9eb0-efb7ae17438a","ios":"levelo://app?vid=3daa3b5c-dec3-42c1-9eb0-efb7ae17438a"},"vehicle_type_id":"4","last_reported":1777326263,"current_range_meters":4400,"station_id":"ce4bhi12rcd13ifvqfo0","pricing_plan_id":"cebpf4jnsgd1na2vs0mg"},{"bike_id":"7e17da21-de27-4e4b-9912-876e46bc8a36","system_id":"levelo_inurba_marseille","lat":43.32138,"lon":5.36746,"is_reserved":false,"is_disabled":false,"rental_uris":{"android":"levelo://app?vid=7e17da21-de27-4e4b-9912-876e46bc8a36","ios":"levelo://app?vid=7e17da21-de27-4e4b-9912-876e46bc8a36"},"vehicle_type_id":"4","last_reported":1777326263,"current_range_meters":4400,"station_id":"ce4bhrh2rcd13ifvqhug","pricing_plan_id":"cebpf4jnsgd1na2vs0mg"},{"bike_id":"b21748b2-fb24-4ee6-8e6a-c7c61264faec","system_id":"levelo_inurba_marseille","lat":43.27404,"lon":5.42233,"is_reserved":false,"is_disabled":false,"rental_uris":{"android":"levelo://app?vid=b21748b2-fb24-4ee6-8e6a-c7c61264faec","ios":"levelo://app?vid=b21748b2-fb24-4ee6-8e6a-c7c61264faec"},"vehicle_type_id":"4","last_reported":1777326263,"current_range_meters":4400,"station_id":"","pricing_plan_id":"cebpf4jnsgd1na2vs0mg"},{"bike_id":"32069193-5258-4d6a-8afe-004c3f16ecd0","system_id":"levelo_inurba_marseille","lat":43.3093,"lon":5.40138,"is_reserved":false,"is_disabled":false,"rental_uris":{"android":"levelo://app?vid=32069193-5258-4d6a-8afe-004c3f16ecd0","ios":"levelo://app?vid=32069193-5258-4d6a-8afe-004c3f16ecd0"},"vehicle_type_id":"4","last_reported":1777326263,"current_range_meters":4400,"station_id":"ce4bgvp2rcd13ifvqct0","pricing_plan_id":"cebpf4jnsgd1na2vs0mg"},{"bike_id":"6702339c-6bbd-44c0-bb90-353a1b7436d9","system_id":"levelo_inurba_marseille","lat":43.24677,"lon":5.4315,"is_reserved":false,"is_disabled":false,"rental_uris":{"android":"levelo://app?vid=6702339c-6bbd-44c0-bb90-353a1b7436d9","ios":"levelo://app?vid=6702339c-6bbd-44c0-bb90-353a1b7436d9"},"vehicle_type_id":"4","last_reported":1777326263,"current_range_meters":4400,"station_id":"st_d2m6c4gdas8pm72e190g","pricing_plan_id":"cebpf4jnsgd1na2vs0mg"},{"bike_id":"0738b116-46d6-4576-94a4-021d359c563e","system_id":"levelo_inurba_marseille","lat":43.28353,"lon":5.38103,"is_reserved":false,"is_disabled":false,"rental_uris":{"android":"levelo://app?vid=0738b116-46d6-4576-94a4-021d359c563e","ios":"levelo://app?vid=0738b116-46d6-4576-94a4-021d359c563e"},"vehicle_type_id":"4","last_reported":1777326263,"current_range_meters":4400,"station_id":"ce4bh412rcd13ifvqdr0","pricing_plan_id":"cebpf4jnsgd1na2vs0mg"},{"bike_id":"91e4eed8-7aa0-4ca6-bc8b-33ffc5693469","system_id":"levelo_inurba_marseille","lat":43.31334,"lon":5.37908,"is_reserved":false,"is_disabled":false,"rental_uris":{"android":"levelo://app?vid=91e4eed8-7aa0-4ca6-bc8b-33ffc5693469","ios":"levelo://app?vid=91e4eed8-7aa0-4ca6-bc8b-33ffc5693469"},"vehicle_type_id":"4","last_reported":1777326263,"current_range_meters":4800,"station_id":"","pricing_plan_id":"cebpf4jnsgd1na2vs0mg"},{"bike_id":"c94021b7-854c-46bb-ae91-7c5fc5228b99","system_id":"levelo_inurba_marseille","lat":43.31174,"lon":5.38711,"is_reserved":false,"is_disabled":false,"rental_uris":{"android":"levelo://app?vid=c94021b7-854c-46bb-ae91-7c5fc5228b99","ios":"levelo://app?vid=c94021b7-854c-46bb-ae91-7c5fc5228b99"},"vehicle_type_id":"4","last_reported":1777326263,"current_range_meters":4800,"station_id":"ce4bgv12rcd13ifvqcp0","pricing_plan_id":"cebpf4jnsgd1na2vs0mg"},{"bike_id":"10d2c39a-e24d-4c10-9b33-f3f6db153578","system_id":"levelo_inurba_marseille","lat":43.31717,"lon":5.43709,"is_reserved":false,"is_disabled":false,"rental_uris":{"android":"levelo://app?vid=10d2c39a-e24d-4c10-9b33-f3f6db153578","ios":"levelo://app?vid=10d2c39a-e24d-4c10-9b33-f3f6db153578"},"vehicle_type_id":"4","last_reported":1777326263,"current_range_meters":4800,"station_id":"ce4bhp92rcd13ifvqhcg","pricing_plan_id":"cebpf4jnsgd1na2vs0mg"},{"bike_id":"ad26b8dc-edee-444c-8fc3-cb83169b331a","system_id":"levelo_inurba_marseille","lat":43.28201,"lon":5.42604,"is_reserved":false,"is_disabled":false,"rental_uris":{"android":"levelo://app?vid=ad26b8dc-edee-444c-8fc3-cb83169b331a","ios":"levelo://app?vid=ad26b8dc-edee-444c-8fc3-cb83169b331a"},"vehicle_type_id":"4","last_reported":1777326263,"current_range_meters":4800,"station_id":"","pricing_plan_id":"cebpf4jnsgd1na2vs0mg"},{"bike_id":"435297f7-e5fc-4160-b337-aaa007c8b5cf","system_id":"levelo_inurba_marseille","lat":43.28478,"lon":5.4839,"is_reserved":false,"is_disabled":false,"rental_uris":{"android":"levelo://app?vid=435297f7-e5fc-4160-b337-aaa007c8b5cf","ios":"levelo://app?vid=435297f7-e5fc-4160-b337-aaa007c8b5cf"},"vehicle_type_id":"4","last_reported":1777326263,"current_range_meters":4800,"station_id":"st_d3svhcjqgbts73a3dn0g","pricing_plan_id":"cebpf4jnsgd1na2vs0mg"},{"bike_id":"70293194-d5cb-42ed-b8ce-7bdd782db57b","system_id":"levelo_inurba_marseille","lat":43.31241,"lon":5.36855,"is_reserved":false,"is_disabled":false,"rental_uris":{"android":"levelo://app?vid=70293194-d5cb-42ed-b8ce-7bdd782db57b","ios":"levelo://app?vid=70293194-d5cb-42ed-b8ce-7bdd782db57b"},"vehicle_type_id":"4","last_reported":1777326263,"current_range_meters":4800,"station_id":"ce4bgl92rcd13ifvqbq0","pricing_plan_id":"cebpf4jnsgd1na2vs0mg"},{"bike_id":"f5f0e7ea-8273-4eda-b4ea-7c050b2d7246","system_id":"levelo_inurba_marseille","lat":43.28709,"lon":5.37409,"is_reserved":false,"is_disabled":false,"rental_uris":{"android":"levelo://app?vid=f5f0e7ea-8273-4eda-b4ea-7c050b2d7246","ios":"levelo://app?vid=f5f0e7ea-8273-4eda-b4ea-7c050b2d7246"},"vehicle_type_id":"4","last_reported":1777326263,"current_range_meters":4800,"station_id":"ce4bh3p2rcd13ifvqdq0","pricing_plan_id":"cebpf4jnsgd1na2vs0mg"},{"bike_id":"127186fe-87fe-4347-8c14-2b72a4effa84","system_id":"levelo_inurba_marseille","lat":43.321045,"lon":5.367552,"is_reserved":false,"is_disabled":false,"rental_uris":{"android":"levelo://app?vid=127186fe-87fe-4347-8c14-2b72a4effa84","ios":"levelo://app?vid=127186fe-87fe-4347-8c14-2b72a4effa84"},"vehicle_type_id":"4","last_reported":1777326263,"current_range_meters":4800,"station_id":"ce4bhrh2rcd13ifvqhug","pricing_plan_id":"cebpf4jnsgd1na2vs0mg"},{"bike_id":"96664ea6-aa56-4a76-9a26-e509828ee890","system_id":"levelo_inurba_marseille","lat":43.30116,"lon":5.39065,"is_reserved":false,"is_disabled":false,"rental_uris":{"android":"levelo://app?vid=96664ea6-aa56-4a76-9a26-e509828ee890","ios":"levelo://app?vid=96664ea6-aa56-4a76-9a26-e509828ee890"},"vehicle_type_id":"4","last_reported":1777326263,"current_range_meters":5600,"station_id":"ce4bh192rcd13ifvqdb0","pricing_plan_id":"cebpf4jnsgd1na2vs0mg"},{"bike_id":"95fcacf0-7086-4a79-916d-eb3549d744d3","system_id":"levelo_inurba_marseille","lat":43.337444,"lon":5.374475,"is_reserved":false,"is_disabled":false,"rental_uris":{"android":"levelo://app?vid=95fcacf0-7086-4a79-916d-eb3549d744d3","ios":"levelo://app?vid=95fcacf0-7086-4a79-916d-eb3549d744d3"},"vehicle_type_id":"4","last_reported":1777326263,"current_range_meters":5600,"station_id":"","pricing_plan_id":"cebpf4jnsgd1na2vs0mg"},{"bike_id":"3c9ce41d-7d0e-4321-95b6-f75f0599af83","system_id":"levelo_inurba_marseille","lat":43.27989,"lon":5.41653,"is_reserved":false,"is_disabled":false,"rental_uris":{"android":"levelo://app?vid=3c9ce41d-7d0e-4321-95b6-f75f0599af83","ios":"levelo://app?vid=3c9ce41d-7d0e-4321-95b6-f75f0599af83"},"vehicle_type_id":"4","last_reported":1777326263,"current_range_meters":5600,"station_id":"ce4bho12rcd13ifvqh1g","pricing_plan_id":"cebpf4jnsgd1na2vs0mg"},{"bike_id":"1c267b42-3346-4d3e-b54a-e87588a5d7e7","system_id":"levelo_inurba_marseille","lat":43.23155,"lon":5.437,"is_reserved":false,"is_disabled":false,"rental_uris":{"android":"levelo://app?vid=1c267b42-3346-4d3e-b54a-e87588a5d7e7","ios":"levelo://app?vid=1c267b42-3346-4d3e-b54a-e87588a5d7e7"},"vehicle_type_id":"4","last_reported":1777326263,"current_range_meters":5600,"station_id":"ce4bhmp2rcd13ifvqgog","pricing_plan_id":"cebpf4jnsgd1na2vs0mg"},{"bike_id":"f0c74e8b-a798-4dae-9ccd-9d533f5a173e","system_id":"levelo_inurba_marseille","lat":43.31188,"lon":5.38709,"is_reserved":false,"is_disabled":true,"rental_uris":{"android":"levelo://app?vid=f0c74e8b-a798-4dae-9ccd-9d533f5a173e","ios":"levelo://app?vid=f0c74e8b-a798-4dae-9ccd-9d533f5a173e"},"vehicle_type_id":"4","last_reported":1777326263,"current_range_meters":5600,"station_id":"ce4bgv12rcd13ifvqcp0","pricing_plan_id":"cebpf4jnsgd1na2vs0mg"},{"bike_id":"dd1a46ba-8d11-4ca4-a48b-231b4cd1a3c5","system_id":"levelo_inurba_marseille","lat":43.28012,"lon":5.36958,"is_reserved":false,"is_disabled":false,"rental_uris":{"android":"levelo://app?vid=dd1a46ba-8d11-4ca4-a48b-231b4cd1a3c5","ios":"levelo://app?vid=dd1a46ba-8d11-4ca4-a48b-231b4cd1a3c5"},"vehicle_type_id":"4","last_reported":1777326263,"current_range_meters":5600,"station_id":"ce4bha12rcd13ifvqef0","pricing_plan_id":"cebpf4jnsgd1na2vs0mg"},{"bike_id":"80b161cc-6e40-44e8-9454-73c670e460e2","system_id":"levelo_inurba_marseille","lat":43.28483,"lon":5.4839,"is_reserved":false,"is_disabled":false,"rental_uris":{"android":"levelo://app?vid=80b161cc-6e40-44e8-9454-73c670e460e2","ios":"levelo://app?vid=80b161cc-6e40-44e8-9454-73c670e460e2"},"vehicle_type_id":"4","last_reported":1777326263,"current_range_meters":5600,"station_id":"","pricing_plan_id":"cebpf4jnsgd1na2vs0mg"},{"bike_id":"69a2d223-bf66-4571-9613-79c65e1e1d32","system_id":"levelo_inurba_marseille","lat":43.29707,"lon":5.36591,"is_reserved":false,"is_disabled":false,"rental_uris":{"android":"levelo://app?vid=69a2d223-bf66-4571-9613-79c65e1e1d32","ios":"levelo://app?vid=69a2d223-bf66-4571-9613-79c65e1e1d32"},"vehicle_type_id":"4","last_reported":1777326263,"current_range_meters":5600,"station_id":"ce4bgn12rcd13ifvqbt0","pricing_plan_id":"cebpf4jnsgd1na2vs0mg"},{"bike_id":"e2cae97f-59e6-4efd-8e6f-8c29bb62e7ad","system_id":"levelo_inurba_marseille","lat":43.28197,"lon":5.39036,"is_reserved":false,"is_disabled":false,"rental_uris":{"android":"levelo://app?vid=e2cae97f-59e6-4efd-8e6f-8c29bb62e7ad","ios":"levelo://app?vid=e2cae97f-59e6-4efd-8e6f-8c29bb62e7ad"},"vehicle_type_id":"4","last_reported":1777326263,"current_range_meters":6000,"station_id":"","pricing_plan_id":"cebpf4jnsgd1na2vs0mg"},{"bike_id":"2519ee8d-92c6-419f-941a-6566274d07bb","system_id":"levelo_inurba_marseille","lat":43.30883,"lon":5.39639,"is_reserved":false,"is_disabled":false,"rental_uris":{"android":"levelo://app?vid=2519ee8d-92c6-419f-941a-6566274d07bb","ios":"levelo://app?vid=2519ee8d-92c6-419f-941a-6566274d07bb"},"vehicle_type_id":"4","last_reported":1777326263,"current_range_meters":6000,"station_id":"ce4bh012rcd13ifvqcv0","pricing_plan_id":"cebpf4jnsgd1na2vs0mg"},{"bike_id":"f60ba69a-4de4-493b-abb6-ceb91b29cfd7","system_id":"levelo_inurba_marseille","lat":43.2957,"lon":5.38132,"is_reserved":false,"is_disabled":false,"rental_uris":{"android":"levelo://app?vid=f60ba69a-4de4-493b-abb6-ceb91b29cfd7","ios":"levelo://app?vid=f60ba69a-4de4-493b-abb6-ceb91b29cfd7"},"vehicle_type_id":"4","last_reported":1777326263,"current_range_meters":6000,"station_id":"ce4bgl12rcd13ifvqbo0","pricing_plan_id":"cebpf4jnsgd1na2vs0mg"},{"bike_id":"56728e98-1fd5-4c39-bdd0-e51e8c8011d0","system_id":"levelo_inurba_marseille","lat":43.28837,"lon":5.39313,"is_reserved":false,"is_disabled":false,"rental_uris":{"android":"levelo://app?vid=56728e98-1fd5-4c39-bdd0-e51e8c8011d0","ios":"levelo://app?vid=56728e98-1fd5-4c39-bdd0-e51e8c8011d0"},"vehicle_type_id":"4","last_reported":1777326263,"current_range_meters":6000,"station_id":"ce4bh2p2rcd13ifvqdi0","pricing_plan_id":"cebpf4jnsgd1na2vs0mg"},{"bike_id":"cc19cd78-dbdf-4319-9261-ddc0b2e71dbc","system_id":"levelo_inurba_marseille","lat":43.23781,"lon":5.36639,"is_reserved":false,"is_disabled":false,"rental_uris":{"android":"levelo://app?vid=cc19cd78-dbdf-4319-9261-ddc0b2e71dbc","ios":"levelo://app?vid=cc19cd78-dbdf-4319-9261-ddc0b2e71dbc"},"vehicle_type_id":"4","last_reported":1777326263,"current_range_meters":6000,"station_id":"st_d3nk18o9ro0c73en2l3g","pricing_plan_id":"cebpf4jnsgd1na2vs0mg"},{"bike_id":"781d8d3d-fabf-4ca2-9f47-16929586692d","system_id":"levelo_inurba_marseille","lat":43.27516,"lon":5.43483,"is_reserved":false,"is_disabled":false,"rental_uris":{"android":"levelo://app?vid=781d8d3d-fabf-4ca2-9f47-16929586692d","ios":"levelo://app?vid=781d8d3d-fabf-4ca2-9f47-16929586692d"},"vehicle_type_id":"4","last_reported":1777326263,"current_range_meters":6000,"station_id":"","pricing_plan_id":"cebpf4jnsgd1na2vs0mg"},{"bike_id":"03c9cb36-982a-4f64-b63a-7e83eb3e7ce2","system_id":"levelo_inurba_marseille","lat":43.29017,"lon":5.38614,"is_reserved":false,"is_disabled":false,"rental_uris":{"android":"levelo://app?vid=03c9cb36-982a-4f64-b63a-7e83eb3e7ce2","ios":"levelo://app?vid=03c9cb36-982a-4f64-b63a-7e83eb3e7ce2"},"vehicle_type_id":"4","last_reported":1777326263,"current_range_meters":6000,"station_id":"ce4bh4p2rcd13ifvqe0g","pricing_plan_id":"cebpf4jnsgd1na2vs0mg"},{"bike_id":"49f06a77-36b5-468b-88fd-60953e8ed03f","system_id":"levelo_inurba_marseille","lat":43.29037,"lon":5.39977,"is_reserved":false,"is_disabled":false,"rental_uris":{"android":"levelo://app?vid=49f06a77-36b5-468b-88fd-60953e8ed03f","ios":"levelo://app?vid=49f06a77-36b5-468b-88fd-60953e8ed03f"},"vehicle_type_id":"4","last_reported":1777326263,"current_range_meters":6000,"station_id":"ce4bh392rcd13ifvqdm0","pricing_plan_id":"cebpf4jnsgd1na2vs0mg"},{"bike_id":"6c0e44b5-b4c6-4989-a0ec-b3c6d257ac1d","system_id":"levelo_inurba_marseille","lat":43.33186,"lon":5.37828,"is_reserved":false,"is_disabled":false,"rental_uris":{"android":"levelo://app?vid=6c0e44b5-b4c6-4989-a0ec-b3c6d257ac1d","ios":"levelo://app?vid=6c0e44b5-b4c6-4989-a0ec-b3c6d257ac1d"},"vehicle_type_id":"4","last_reported":1777326263,"current_range_meters":6400,"station_id":"","pricing_plan_id":"cebpf4jnsgd1na2vs0mg"},{"bike_id":"5367fafd-42a5-4c52-bd35-5d85953af91c","system_id":"levelo_inurba_marseille","lat":43.30933,"lon":5.38013,"is_reserved":false,"is_disabled":true,"rental_uris":{"android":"levelo://app?vid=5367fafd-42a5-4c52-bd35-5d85953af91c","ios":"levelo://app?vid=5367fafd-42a5-4c52-bd35-5d85953af91c"},"vehicle_type_id":"4","last_reported":1777326263,"current_range_meters":6400,"station_id":"","pricing_plan_id":"cebpf4jnsgd1na2vs0mg"},{"bike_id":"2f755aa1-105e-447f-807e-a8d37a45e600","system_id":"levelo_inurba_marseille","lat":43.28951,"lon":5.39287,"is_reserved":false,"is_disabled":false,"rental_uris":{"android":"levelo://app?vid=2f755aa1-105e-447f-807e-a8d37a45e600","ios":"levelo://app?vid=2f755aa1-105e-447f-807e-a8d37a45e600"},"vehicle_type_id":"4","last_reported":1777326263,"current_range_meters":6400,"station_id":"","pricing_plan_id":"cebpf4jnsgd1na2vs0mg"},{"bike_id":"c9a5deaf-f776-47ca-bce8-1efc7dbe0cef","system_id":"levelo_inurba_marseille","lat":43.30108,"lon":5.3907,"is_reserved":false,"is_disabled":false,"rental_uris":{"android":"levelo://app?vid=c9a5deaf-f776-47ca-bce8-1efc7dbe0cef","ios":"levelo://app?vid=c9a5deaf-f776-47ca-bce8-1efc7dbe0cef"},"vehicle_type_id":"4","last_reported":1777326263,"current_range_meters":6400,"station_id":"ce4bh192rcd13ifvqdb0","pricing_plan_id":"cebpf4jnsgd1na2vs0mg"},{"bike_id":"9f2fc3f7-556e-4c37-a225-50c0d5d924cd","system_id":"levelo_inurba_marseille","lat":43.24638,"lon":5.43141,"is_reserved":false,"is_disabled":false,"rental_uris":{"android":"levelo://app?vid=9f2fc3f7-556e-4c37-a225-50c0d5d924cd","ios":"levelo://app?vid=9f2fc3f7-556e-4c37-a225-50c0d5d924cd"},"vehicle_type_id":"4","last_reported":1777326263,"current_range_meters":6400,"station_id":"st_d2m6c4gdas8pm72e190g","pricing_plan_id":"cebpf4jnsgd1na2vs0mg"},{"bike_id":"d91a79ea-757d-4fb0-822d-efffb3df9a9a","system_id":"levelo_inurba_marseille","lat":43.24651,"lon":5.38919,"is_reserved":false,"is_disabled":false,"rental_uris":{"android":"levelo://app?vid=d91a79ea-757d-4fb0-822d-efffb3df9a9a","ios":"levelo://app?vid=d91a79ea-757d-4fb0-822d-efffb3df9a9a"},"vehicle_type_id":"4","last_reported":1777326263,"current_range_meters":6400,"station_id":"ce4bhg12rcd13ifvqf60","pricing_plan_id":"cebpf4jnsgd1na2vs0mg"},{"bike_id":"5cbef2a7-8e83-4097-9949-5967c82353a9","system_id":"levelo_inurba_marseille","lat":43.32501,"lon":5.38273,"is_reserved":false,"is_disabled":false,"rental_uris":{"android":"levelo://app?vid=5cbef2a7-8e83-4097-9949-5967c82353a9","ios":"levelo://app?vid=5cbef2a7-8e83-4097-9949-5967c82353a9"},"vehicle_type_id":"4","last_reported":1777326263,"current_range_meters":6400,"station_id":"st_d4asgbiv49dc73anf9m0","pricing_plan_id":"cebpf4jnsgd1na2vs0mg"},{"bike_id":"6b9ceb44-f98b-4474-bf14-5e53602be7a5","system_id":"levelo_inurba_marseille","lat":43.33548,"lon":5.37469,"is_reserved":false,"is_disabled":false,"rental_uris":{"android":"levelo://app?vid=6b9ceb44-f98b-4474-bf14-5e53602be7a5","ios":"levelo://app?vid=6b9ceb44-f98b-4474-bf14-5e53602be7a5"},"vehicle_type_id":"4","last_reported":1777326263,"current_range_meters":6400,"station_id":"st_d46tts09ee8s73dlu43g","pricing_plan_id":"cebpf4jnsgd1na2vs0mg"},{"bike_id":"55ffa9cb-0e63-4320-8c55-2d765a24cf5f","system_id":"levelo_inurba_marseille","lat":43.24182,"lon":5.36404,"is_reserved":false,"is_disabled":false,"rental_uris":{"android":"levelo://app?vid=55ffa9cb-0e63-4320-8c55-2d765a24cf5f","ios":"levelo://app?vid=55ffa9cb-0e63-4320-8c55-2d765a24cf5f"},"vehicle_type_id":"4","last_reported":1777326263,"current_range_meters":6400,"station_id":"cpo36qri1sfpv3e86is0","pricing_plan_id":"cebpf4jnsgd1na2vs0mg"},{"bike_id":"41c4b54e-2172-478f-8288-0b23d9fa6e85","system_id":"levelo_inurba_marseille","lat":43.28447,"lon":5.39204,"is_reserved":false,"is_disabled":false,"rental_uris":{"android":"levelo://app?vid=41c4b54e-2172-478f-8288-0b23d9fa6e85","ios":"levelo://app?vid=41c4b54e-2172-478f-8288-0b23d9fa6e85"},"vehicle_type_id":"4","last_reported":1777326263,"current_range_meters":6400,"station_id":"ce4bhoh2rcd13ifvqh5g","pricing_plan_id":"cebpf4jnsgd1na2vs0mg"},{"bike_id":"2e013045-b635-4629-a87d-995ec1628a85","system_id":"levelo_inurba_marseille","lat":43.32087,"lon":5.36812,"is_reserved":false,"is_disabled":false,"rental_uris":{"android":"levelo://app?vid=2e013045-b635-4629-a87d-995ec1628a85","ios":"levelo://app?vid=2e013045-b635-4629-a87d-995ec1628a85"},"vehicle_type_id":"4","last_reported":1777326263,"current_range_meters":6400,"station_id":"ce4bhrh2rcd13ifvqhug","pricing_plan_id":"cebpf4jnsgd1na2vs0mg"},{"bike_id":"54976ecc-1d2c-4eef-835b-b4d79a14306d","system_id":"levelo_inurba_marseille","lat":43.29276,"lon":5.36849,"is_reserved":false,"is_disabled":false,"rental_uris":{"android":"levelo://app?vid=54976ecc-1d2c-4eef-835b-b4d79a14306d","ios":"levelo://app?vid=54976ecc-1d2c-4eef-835b-b4d79a14306d"},"vehicle_type_id":"4","last_reported":1777326263,"current_range_meters":6400,"station_id":"ce4bhbp2rcd13ifvqesg","pricing_plan_id":"cebpf4jnsgd1na2vs0mg"},{"bike_id":"f3887d6f-5f58-4650-a2da-9d2cb7467222","system_id":"levelo_inurba_marseille","lat":43.30228,"lon":5.40053,"is_reserved":false,"is_disabled":false,"rental_uris":{"android":"levelo://app?vid=f3887d6f-5f58-4650-a2da-9d2cb7467222","ios":"levelo://app?vid=f3887d6f-5f58-4650-a2da-9d2cb7467222"},"vehicle_type_id":"4","last_reported":1777326263,"current_range_meters":6400,"station_id":"ce4bgvh2rcd13ifvqcs0","pricing_plan_id":"cebpf4jnsgd1na2vs0mg"},{"bike_id":"c01ae11c-f951-4808-bfb3-9cbbee41ebdf","system_id":"levelo_inurba_marseille","lat":43.25492,"lon":5.37655,"is_reserved":false,"is_disabled":false,"rental_uris":{"android":"levelo://app?vid=c01ae11c-f951-4808-bfb3-9cbbee41ebdf","ios":"levelo://app?vid=c01ae11c-f951-4808-bfb3-9cbbee41ebdf"},"vehicle_type_id":"4","last_reported":1777326263,"current_range_meters":6400,"station_id":"ce4bhh12rcd13ifvqff0","pricing_plan_id":"cebpf4jnsgd1na2vs0mg"},{"bike_id":"db5f1b84-43d9-4c3e-87fe-c4a395815fa8","system_id":"levelo_inurba_marseille","lat":43.24945,"lon":5.40496,"is_reserved":false,"is_disabled":false,"rental_uris":{"android":"levelo://app?vid=db5f1b84-43d9-4c3e-87fe-c4a395815fa8","ios":"levelo://app?vid=db5f1b84-43d9-4c3e-87fe-c4a395815fa8"},"vehicle_type_id":"4","last_reported":1777326263,"current_range_meters":6400,"station_id":"st_d2ngiaodas8pm72gd1h0","pricing_plan_id":"cebpf4jnsgd1na2vs0mg"},{"bike_id":"fbb49548-0e6f-4f34-b4f9-7953d4130f20","system_id":"levelo_inurba_marseille","lat":43.30304,"lon":5.39216,"is_reserved":false,"is_disabled":false,"rental_uris":{"android":"levelo://app?vid=fbb49548-0e6f-4f34-b4f9-7953d4130f20","ios":"levelo://app?vid=fbb49548-0e6f-4f34-b4f9-7953d4130f20"},"vehicle_type_id":"4","last_reported":1777326263,"current_range_meters":6400,"station_id":"ce4bgkh2rcd13ifvqbk0","pricing_plan_id":"cebpf4jnsgd1na2vs0mg"},{"bike_id":"f9786373-d574-4c7d-a305-d6e6a750b5fe","system_id":"levelo_inurba_marseille","lat":43.25869,"lon":5.39893,"is_reserved":false,"is_disabled":false,"rental_uris":{"android":"levelo://app?vid=f9786373-d574-4c7d-a305-d6e6a750b5fe","ios":"levelo://app?vid=f9786373-d574-4c7d-a305-d6e6a750b5fe"},"vehicle_type_id":"4","last_reported":1777326263,"current_range_meters":6400,"station_id":"ce4bhl92rcd13ifvqghg","pricing_plan_id":"cebpf4jnsgd1na2vs0mg"},{"bike_id":"8f13b61e-8a25-4927-8213-0f8d3090195b","system_id":"levelo_inurba_marseille","lat":43.28479,"lon":5.48397,"is_reserved":false,"is_disabled":false,"rental_uris":{"android":"levelo://app?vid=8f13b61e-8a25-4927-8213-0f8d3090195b","ios":"levelo://app?vid=8f13b61e-8a25-4927-8213-0f8d3090195b"},"vehicle_type_id":"4","last_reported":1777326263,"current_range_meters":6800,"station_id":"","pricing_plan_id":"cebpf4jnsgd1na2vs0mg"},{"bike_id":"12811a9c-eb10-4b33-9d8f-ee152e8f6264","system_id":"levelo_inurba_marseille","lat":43.26063,"lon":5.39382,"is_reserved":false,"is_disabled":false,"rental_uris":{"android":"levelo://app?vid=12811a9c-eb10-4b33-9d8f-ee152e8f6264","ios":"levelo://app?vid=12811a9c-eb10-4b33-9d8f-ee152e8f6264"},"vehicle_type_id":"4","last_reported":1777326263,"current_range_meters":6800,"station_id":"ce4bhh92rcd13ifvqfj0","pricing_plan_id":"cebpf4jnsgd1na2vs0mg"},{"bike_id":"b06f20e2-7b40-4e46-b06e-55bc14e04088","system_id":"levelo_inurba_marseille","lat":43.2452,"lon":5.42672,"is_reserved":false,"is_disabled":false,"rental_uris":{"android":"levelo://app?vid=b06f20e2-7b40-4e46-b06e-55bc14e04088","ios":"levelo://app?vid=b06f20e2-7b40-4e46-b06e-55bc14e04088"},"vehicle_type_id":"4","last_reported":1777326263,"current_range_meters":6800,"station_id":"","pricing_plan_id":"cebpf4jnsgd1na2vs0mg"},{"bike_id":"77f1be50-d55c-4753-b02a-0b5e7117e7c7","system_id":"levelo_inurba_marseille","lat":43.31305,"lon":5.38194,"is_reserved":false,"is_disabled":false,"rental_uris":{"android":"levelo://app?vid=77f1be50-d55c-4753-b02a-0b5e7117e7c7","ios":"levelo://app?vid=77f1be50-d55c-4753-b02a-0b5e7117e7c7"},"vehicle_type_id":"4","last_reported":1777326263,"current_range_meters":6800,"station_id":"","pricing_plan_id":"cebpf4jnsgd1na2vs0mg"},{"bike_id":"9bceb821-de64-4da8-93fd-a6ddc5e635c0","system_id":"levelo_inurba_marseille","lat":43.29579,"lon":5.3998,"is_reserved":false,"is_disabled":false,"rental_uris":{"android":"levelo://app?vid=9bceb821-de64-4da8-93fd-a6ddc5e635c0","ios":"levelo://app?vid=9bceb821-de64-4da8-93fd-a6ddc5e635c0"},"vehicle_type_id":"4","last_reported":1777326263,"current_range_meters":6800,"station_id":"ce4bh312rcd13ifvqdj0","pricing_plan_id":"cebpf4jnsgd1na2vs0mg"},{"bike_id":"6b8549bf-30d2-490f-8f61-d9ca43e4d06c","system_id":"levelo_inurba_marseille","lat":43.27026,"lon":5.40247,"is_reserved":false,"is_disabled":false,"rental_uris":{"android":"levelo://app?vid=6b8549bf-30d2-490f-8f61-d9ca43e4d06c","ios":"levelo://app?vid=6b8549bf-30d2-490f-8f61-d9ca43e4d06c"},"vehicle_type_id":"4","last_reported":1777326263,"current_range_meters":6800,"station_id":"ce4bhk92rcd13ifvqgc0","pricing_plan_id":"cebpf4jnsgd1na2vs0mg"},{"bike_id":"0f1d3d83-e8b0-4d8e-a0c9-aba4c5bbe46c","system_id":"levelo_inurba_marseille","lat":43.28936,"lon":5.3663,"is_reserved":false,"is_disabled":true,"rental_uris":{"android":"levelo://app?vid=0f1d3d83-e8b0-4d8e-a0c9-aba4c5bbe46c","ios":"levelo://app?vid=0f1d3d83-e8b0-4d8e-a0c9-aba4c5bbe46c"},"vehicle_type_id":"4","last_reported":1777326263,"current_range_meters":6800,"station_id":"ce4bhap2rcd13ifvqek0","pricing_plan_id":"cebpf4jnsgd1na2vs0mg"},{"bike_id":"c39de570-e7a4-42a3-bc87-effa0cfb5c9c","system_id":"levelo_inurba_marseille","lat":43.31048,"lon":5.37177,"is_reserved":false,"is_disabled":false,"rental_uris":{"android":"levelo://app?vid=c39de570-e7a4-42a3-bc87-effa0cfb5c9c","ios":"levelo://app?vid=c39de570-e7a4-42a3-bc87-effa0cfb5c9c"},"vehicle_type_id":"4","last_reported":1777326263,"current_range_meters":6800,"station_id":"st_d4kl2rp97mjs73e7tdfg","pricing_plan_id":"cebpf4jnsgd1na2vs0mg"},{"bike_id":"bf755b54-9bfc-4f5a-b759-04d952b762e5","system_id":"levelo_inurba_marseille","lat":43.24397,"lon":5.37069,"is_reserved":false,"is_disabled":false,"rental_uris":{"android":"levelo://app?vid=bf755b54-9bfc-4f5a-b759-04d952b762e5","ios":"levelo://app?vid=bf755b54-9bfc-4f5a-b759-04d952b762e5"},"vehicle_type_id":"4","last_reported":1777326263,"current_range_meters":6800,"station_id":"ce4bhhh2rcd13ifvqfk0","pricing_plan_id":"cebpf4jnsgd1na2vs0mg"},{"bike_id":"f13fe151-afeb-4327-9952-17422c4d2706","system_id":"levelo_inurba_marseille","lat":43.254,"lon":5.41903,"is_reserved":false,"is_disabled":false,"rental_uris":{"android":"levelo://app?vid=f13fe151-afeb-4327-9952-17422c4d2706","ios":"levelo://app?vid=f13fe151-afeb-4327-9952-17422c4d2706"},"vehicle_type_id":"4","last_reported":1777326263,"current_range_meters":6800,"station_id":"","pricing_plan_id":"cebpf4jnsgd1na2vs0mg"},{"bike_id":"d20ccda7-29ef-4aa5-bbf2-63f1e6c3dcf5","system_id":"levelo_inurba_marseille","lat":43.32124,"lon":5.36752,"is_reserved":false,"is_disabled":false,"rental_uris":{"android":"levelo://app?vid=d20ccda7-29ef-4aa5-bbf2-63f1e6c3dcf5","ios":"levelo://app?vid=d20ccda7-29ef-4aa5-bbf2-63f1e6c3dcf5"},"vehicle_type_id":"4","last_reported":1777326263,"current_range_meters":6800,"station_id":"ce4bhrh2rcd13ifvqhug","pricing_plan_id":"cebpf4jnsgd1na2vs0mg"},{"bike_id":"b43d6513-bdf2-4550-bf3c-68478e7a1416","system_id":"levelo_inurba_marseille","lat":43.30198,"lon":5.39493,"is_reserved":false,"is_disabled":false,"rental_uris":{"android":"levelo://app?vid=b43d6513-bdf2-4550-bf3c-68478e7a1416","ios":"levelo://app?vid=b43d6513-bdf2-4550-bf3c-68478e7a1416"},"vehicle_type_id":"4","last_reported":1777326263,"current_range_meters":6800,"station_id":"ce4bh0p2rcd13ifvqd70","pricing_plan_id":"cebpf4jnsgd1na2vs0mg"},{"bike_id":"7d24a3ee-0eb9-47a1-8904-33af700bdc69","system_id":"levelo_inurba_marseille","lat":43.28479,"lon":5.48405,"is_reserved":false,"is_disabled":false,"rental_uris":{"android":"levelo://app?vid=7d24a3ee-0eb9-47a1-8904-33af700bdc69","ios":"levelo://app?vid=7d24a3ee-0eb9-47a1-8904-33af700bdc69"},"vehicle_type_id":"4","last_reported":1777326263,"current_range_meters":7200,"station_id":"st_d3svhcjqgbts73a3dn0g","pricing_plan_id":"cebpf4jnsgd1na2vs0mg"},{"bike_id":"27cd71a7-0940-4415-a67f-21597fbf1cd9","system_id":"levelo_inurba_marseille","lat":43.34534,"lon":5.37787,"is_reserved":false,"is_disabled":false,"rental_uris":{"android":"levelo://app?vid=27cd71a7-0940-4415-a67f-21597fbf1cd9","ios":"levelo://app?vid=27cd71a7-0940-4415-a67f-21597fbf1cd9"},"vehicle_type_id":"4","last_reported":1777326263,"current_range_meters":7200,"station_id":"","pricing_plan_id":"cebpf4jnsgd1na2vs0mg"},{"bike_id":"8e77f3ba-38f8-4add-b61b-b2f308d4dba7","system_id":"levelo_inurba_marseille","lat":43.2469,"lon":5.3813,"is_reserved":false,"is_disabled":false,"rental_uris":{"android":"levelo://app?vid=8e77f3ba-38f8-4add-b61b-b2f308d4dba7","ios":"levelo://app?vid=8e77f3ba-38f8-4add-b61b-b2f308d4dba7"},"vehicle_type_id":"4","last_reported":1777326263,"current_range_meters":7200,"station_id":"ce4bhih2rcd13ifvqfr0","pricing_plan_id":"cebpf4jnsgd1na2vs0mg"},{"bike_id":"2207323a-44e2-4f1a-a95e-92cd1d0b6f9b","system_id":"levelo_inurba_marseille","lat":43.29194,"lon":5.35796,"is_reserved":false,"is_disabled":false,"rental_uris":{"android":"levelo://app?vid=2207323a-44e2-4f1a-a95e-92cd1d0b6f9b","ios":"levelo://app?vid=2207323a-44e2-4f1a-a95e-92cd1d0b6f9b"},"vehicle_type_id":"4","last_reported":1777326263,"current_range_meters":7200,"station_id":"ce4bhb12rcd13ifvqel0","pricing_plan_id":"cebpf4jnsgd1na2vs0mg"},{"bike_id":"4ba88d8e-2daa-44b9-94a7-860408423931","system_id":"levelo_inurba_marseille","lat":43.30487,"lon":5.38872,"is_reserved":false,"is_disabled":false,"rental_uris":{"android":"levelo://app?vid=4ba88d8e-2daa-44b9-94a7-860408423931","ios":"levelo://app?vid=4ba88d8e-2daa-44b9-94a7-860408423931"},"vehicle_type_id":"4","last_reported":1777326263,"current_range_meters":7200,"station_id":"","pricing_plan_id":"cebpf4jnsgd1na2vs0mg"},{"bike_id":"8b1f5d0b-fff3-453f-8e5c-32008a7ce404","system_id":"levelo_inurba_marseille","lat":43.26946,"lon":5.40335,"is_reserved":false,"is_disabled":false,"rental_uris":{"android":"levelo://app?vid=8b1f5d0b-fff3-453f-8e5c-32008a7ce404","ios":"levelo://app?vid=8b1f5d0b-fff3-453f-8e5c-32008a7ce404"},"vehicle_type_id":"4","last_reported":1777326263,"current_range_meters":7200,"station_id":"cjm6bp8fraef2m0cb0m0","pricing_plan_id":"cebpf4jnsgd1na2vs0mg"},{"bike_id":"99b0db6f-dcff-4455-9282-a2a21a6ff5c6","system_id":"levelo_inurba_marseille","lat":43.29199,"lon":5.39319,"is_reserved":false,"is_disabled":false,"rental_uris":{"android":"levelo://app?vid=99b0db6f-dcff-4455-9282-a2a21a6ff5c6","ios":"levelo://app?vid=99b0db6f-dcff-4455-9282-a2a21a6ff5c6"},"vehicle_type_id":"4","last_reported":1777326263,"current_range_meters":7200,"station_id":"ce4bh192rcd13ifvqdd0","pricing_plan_id":"cebpf4jnsgd1na2vs0mg"},{"bike_id":"b504488c-4a5c-43df-b299-e768506d1980","system_id":"levelo_inurba_marseille","lat":43.29311,"lon":5.37183,"is_reserved":false,"is_disabled":true,"rental_uris":{"android":"levelo://app?vid=b504488c-4a5c-43df-b299-e768506d1980","ios":"levelo://app?vid=b504488c-4a5c-43df-b299-e768506d1980"},"vehicle_type_id":"4","last_reported":1777326263,"current_range_meters":7200,"station_id":"ce4bgh92rcd13ifvqb40","pricing_plan_id":"cebpf4jnsgd1na2vs0mg"},{"bike_id":"65be2cd8-ab0d-46ba-80d2-20d5752f09bd","system_id":"levelo_inurba_marseille","lat":43.33046,"lon":5.39028,"is_reserved":false,"is_disabled":false,"rental_uris":{"android":"levelo://app?vid=65be2cd8-ab0d-46ba-80d2-20d5752f09bd","ios":"levelo://app?vid=65be2cd8-ab0d-46ba-80d2-20d5752f09bd"},"vehicle_type_id":"4","last_reported":1777326263,"current_range_meters":7200,"station_id":"ce4bhr92rcd13ifvqhrg","pricing_plan_id":"cebpf4jnsgd1na2vs0mg"},{"bike_id":"14869599-ab60-4e86-8f2c-d0b35d29b95e","system_id":"levelo_inurba_marseille","lat":43.25637,"lon":5.41854,"is_reserved":false,"is_disabled":false,"rental_uris":{"android":"levelo://app?vid=14869599-ab60-4e86-8f2c-d0b35d29b95e","ios":"levelo://app?vid=14869599-ab60-4e86-8f2c-d0b35d29b95e"},"vehicle_type_id":"4","last_reported":1777326263,"current_range_meters":7200,"station_id":"","pricing_plan_id":"cebpf4jnsgd1na2vs0mg"},{"bike_id":"a1039575-fd20-403a-885c-4d4145ed86ae","system_id":"levelo_inurba_marseille","lat":43.29905,"lon":5.37473,"is_reserved":false,"is_disabled":false,"rental_uris":{"android":"levelo://app?vid=a1039575-fd20-403a-885c-4d4145ed86ae","ios":"levelo://app?vid=a1039575-fd20-403a-885c-4d4145ed86ae"},"vehicle_type_id":"4","last_reported":1777326263,"current_range_meters":7200,"station_id":"ce4bgjh2rcd13ifvqbg0","pricing_plan_id":"cebpf4jnsgd1na2vs0mg"},{"bike_id":"9f9ab910-a023-4363-9524-c19e2f166cf1","system_id":"levelo_inurba_marseille","lat":43.31992,"lon":5.38152,"is_reserved":false,"is_disabled":false,"rental_uris":{"android":"levelo://app?vid=9f9ab910-a023-4363-9524-c19e2f166cf1","ios":"levelo://app?vid=9f9ab910-a023-4363-9524-c19e2f166cf1"},"vehicle_type_id":"4","last_reported":1777326263,"current_range_meters":7200,"station_id":"ce4bhr12rcd13ifvqhpg","pricing_plan_id":"cebpf4jnsgd1na2vs0mg"},{"bike_id":"64633d88-7e11-4956-bb07-afe41f84a160","system_id":"levelo_inurba_marseille","lat":43.31128,"lon":5.37757,"is_reserved":false,"is_disabled":false,"rental_uris":{"android":"levelo://app?vid=64633d88-7e11-4956-bb07-afe41f84a160","ios":"levelo://app?vid=64633d88-7e11-4956-bb07-afe41f84a160"},"vehicle_type_id":"4","last_reported":1777326263,"current_range_meters":7200,"station_id":"ce4bgt92rcd13ifvqcg0","pricing_plan_id":"cebpf4jnsgd1na2vs0mg"},{"bike_id":"336f5cbc-6c28-4ddb-88c7-6ffc052d9724","system_id":"levelo_inurba_marseille","lat":43.31722,"lon":5.42399,"is_reserved":false,"is_disabled":false,"rental_uris":{"android":"levelo://app?vid=336f5cbc-6c28-4ddb-88c7-6ffc052d9724","ios":"levelo://app?vid=336f5cbc-6c28-4ddb-88c7-6ffc052d9724"},"vehicle_type_id":"4","last_reported":1777326263,"current_range_meters":7200,"station_id":"ce4bhp92rcd13ifvqhbg","pricing_plan_id":"cebpf4jnsgd1na2vs0mg"},{"bike_id":"231c5d8b-8d45-4214-ac63-7dfe32936975","system_id":"levelo_inurba_marseille","lat":43.25869,"lon":5.39893,"is_reserved":false,"is_disabled":false,"rental_uris":{"android":"levelo://app?vid=231c5d8b-8d45-4214-ac63-7dfe32936975","ios":"levelo://app?vid=231c5d8b-8d45-4214-ac63-7dfe32936975"},"vehicle_type_id":"4","last_reported":1777326263,"current_range_meters":7200,"station_id":"ce4bhl92rcd13ifvqghg","pricing_plan_id":"cebpf4jnsgd1na2vs0mg"},{"bike_id":"ba620f84-46cc-4f3a-aef3-014ddc408667","system_id":"levelo_inurba_marseille","lat":43.30873,"lon":5.39633,"is_reserved":false,"is_disabled":false,"rental_uris":{"android":"levelo://app?vid=ba620f84-46cc-4f3a-aef3-014ddc408667","ios":"levelo://app?vid=ba620f84-46cc-4f3a-aef3-014ddc408667"},"vehicle_type_id":"4","last_reported":1777326263,"current_range_meters":7200,"station_id":"ce4bh012rcd13ifvqcv0","pricing_plan_id":"cebpf4jnsgd1na2vs0mg"},{"bike_id":"20b68fd5-f7ad-4016-b6cc-12cafe5469c1","system_id":"levelo_inurba_marseille","lat":43.29529,"lon":5.39056,"is_reserved":false,"is_disabled":false,"rental_uris":{"android":"levelo://app?vid=20b68fd5-f7ad-4016-b6cc-12cafe5469c1","ios":"levelo://app?vid=20b68fd5-f7ad-4016-b6cc-12cafe5469c1"},"vehicle_type_id":"4","last_reported":1777326263,"current_range_meters":7200,"station_id":"ce4bh3p2rcd13ifvqdp0","pricing_plan_id":"cebpf4jnsgd1na2vs0mg"},{"bike_id":"2e1487b5-ffbe-4174-a3cb-5f2ca03b60ce","system_id":"levelo_inurba_marseille","lat":43.28487,"lon":5.48392,"is_reserved":false,"is_disabled":false,"rental_uris":{"android":"levelo://app?vid=2e1487b5-ffbe-4174-a3cb-5f2ca03b60ce","ios":"levelo://app?vid=2e1487b5-ffbe-4174-a3cb-5f2ca03b60ce"},"vehicle_type_id":"4","last_reported":1777326263,"current_range_meters":7200,"station_id":"st_d3svhcjqgbts73a3dn0g","pricing_plan_id":"cebpf4jnsgd1na2vs0mg"},{"bike_id":"dfd285f1-0a48-44f6-b0d7-8286d4981c32","system_id":"levelo_inurba_marseille","lat":43.25353,"lon":5.42155,"is_reserved":false,"is_disabled":false,"rental_uris":{"android":"levelo://app?vid=dfd285f1-0a48-44f6-b0d7-8286d4981c32","ios":"levelo://app?vid=dfd285f1-0a48-44f6-b0d7-8286d4981c32"},"vehicle_type_id":"4","last_reported":1777326263,"current_range_meters":7200,"station_id":"st_d2m65c5bi1j21697t3ng","pricing_plan_id":"cebpf4jnsgd1na2vs0mg"},{"bike_id":"1d51c702-75ba-494d-89c9-6b8c4379e860","system_id":"levelo_inurba_marseille","lat":43.31228,"lon":5.37811,"is_reserved":false,"is_disabled":false,"rental_uris":{"android":"levelo://app?vid=1d51c702-75ba-494d-89c9-6b8c4379e860","ios":"levelo://app?vid=1d51c702-75ba-494d-89c9-6b8c4379e860"},"vehicle_type_id":"4","last_reported":1777326263,"current_range_meters":7200,"station_id":"","pricing_plan_id":"cebpf4jnsgd1na2vs0mg"},{"bike_id":"857afe8d-0afc-4ff7-bb19-627f3197cacc","system_id":"levelo_inurba_marseille","lat":43.26552,"lon":5.37296,"is_reserved":false,"is_disabled":false,"rental_uris":{"android":"levelo://app?vid=857afe8d-0afc-4ff7-bb19-627f3197cacc","ios":"levelo://app?vid=857afe8d-0afc-4ff7-bb19-627f3197cacc"},"vehicle_type_id":"4","last_reported":1777326263,"current_range_meters":8000,"station_id":"ce4bhg12rcd13ifvqf70","pricing_plan_id":"cebpf4jnsgd1na2vs0mg"},{"bike_id":"ce68b828-fb91-43d4-ac0c-ceb9763b3f0b","system_id":"levelo_inurba_marseille","lat":43.29542,"lon":5.38508,"is_reserved":false,"is_disabled":false,"rental_uris":{"android":"levelo://app?vid=ce68b828-fb91-43d4-ac0c-ceb9763b3f0b","ios":"levelo://app?vid=ce68b828-fb91-43d4-ac0c-ceb9763b3f0b"},"vehicle_type_id":"4","last_reported":1777326263,"current_range_meters":8000,"station_id":"ce4bgih2rcd13ifvqba0","pricing_plan_id":"cebpf4jnsgd1na2vs0mg"},{"bike_id":"e993cba1-46e4-4461-855f-3f2092ae4ac8","system_id":"levelo_inurba_marseille","lat":43.28411,"lon":5.34984,"is_reserved":false,"is_disabled":true,"rental_uris":{"android":"levelo://app?vid=e993cba1-46e4-4461-855f-3f2092ae4ac8","ios":"levelo://app?vid=e993cba1-46e4-4461-855f-3f2092ae4ac8"},"vehicle_type_id":"4","last_reported":1777326263,"current_range_meters":8000,"station_id":"ce4bhbh2rcd13ifvqepg","pricing_plan_id":"cebpf4jnsgd1na2vs0mg"},{"bike_id":"4d06cad1-2e4a-4159-99f3-38d6bcb9cc90","system_id":"levelo_inurba_marseille","lat":43.23197,"lon":5.3555,"is_reserved":false,"is_disabled":false,"rental_uris":{"android":"levelo://app?vid=4d06cad1-2e4a-4159-99f3-38d6bcb9cc90","ios":"levelo://app?vid=4d06cad1-2e4a-4159-99f3-38d6bcb9cc90"},"vehicle_type_id":"4","last_reported":1777326263,"current_range_meters":8000,"station_id":"ce4bhu92rcd13ifvqi70","pricing_plan_id":"cebpf4jnsgd1na2vs0mg"},{"bike_id":"369ccb57-d03b-41f4-a2b8-8a53088742e0","system_id":"levelo_inurba_marseille","lat":43.2977,"lon":5.39352,"is_reserved":false,"is_disabled":false,"rental_uris":{"android":"levelo://app?vid=369ccb57-d03b-41f4-a2b8-8a53088742e0","ios":"levelo://app?vid=369ccb57-d03b-41f4-a2b8-8a53088742e0"},"vehicle_type_id":"4","last_reported":1777326263,"current_range_meters":8000,"station_id":"chh1huq6cuj3fo74tm60","pricing_plan_id":"cebpf4jnsgd1na2vs0mg"},{"bike_id":"a7ef47ae-ac7a-4811-8371-2ebdbd6eea38","system_id":"levelo_inurba_marseille","lat":43.21746,"lon":5.34605,"is_reserved":false,"is_disabled":false,"rental_uris":{"android":"levelo://app?vid=a7ef47ae-ac7a-4811-8371-2ebdbd6eea38","ios":"levelo://app?vid=a7ef47ae-ac7a-4811-8371-2ebdbd6eea38"},"vehicle_type_id":"4","last_reported":1777326263,"current_range_meters":8000,"station_id":"st_cvj6r9ubvosntc0bgbag","pricing_plan_id":"cebpf4jnsgd1na2vs0mg"},{"bike_id":"d14de05e-8665-4c3d-949e-102c763303bf","system_id":"levelo_inurba_marseille","lat":43.28613,"lon":5.37066,"is_reserved":false,"is_disabled":false,"rental_uris":{"android":"levelo://app?vid=d14de05e-8665-4c3d-949e-102c763303bf","ios":"levelo://app?vid=d14de05e-8665-4c3d-949e-102c763303bf"},"vehicle_type_id":"4","last_reported":1777326263,"current_range_meters":8000,"station_id":"ce4bht12rcd13ifvqi60","pricing_plan_id":"cebpf4jnsgd1na2vs0mg"},{"bike_id":"b4d9b492-c746-46ed-bddf-343e9b749f81","system_id":"levelo_inurba_marseille","lat":43.33722,"lon":5.3691,"is_reserved":false,"is_disabled":true,"rental_uris":{"android":"levelo://app?vid=b4d9b492-c746-46ed-bddf-343e9b749f81","ios":"levelo://app?vid=b4d9b492-c746-46ed-bddf-343e9b749f81"},"vehicle_type_id":"4","last_reported":1777326263,"current_range_meters":8000,"station_id":"","pricing_plan_id":"cebpf4jnsgd1na2vs0mg"},{"bike_id":"c22516ce-13f1-40f9-b093-f55ab42a167b","system_id":"levelo_inurba_marseille","lat":43.28694,"lon":5.3866,"is_reserved":false,"is_disabled":false,"rental_uris":{"android":"levelo://app?vid=c22516ce-13f1-40f9-b093-f55ab42a167b","ios":"levelo://app?vid=c22516ce-13f1-40f9-b093-f55ab42a167b"},"vehicle_type_id":"4","last_reported":1777326263,"current_range_meters":8000,"station_id":"ce4bh492rcd13ifvqdug","pricing_plan_id":"cebpf4jnsgd1na2vs0mg"},{"bike_id":"d0633771-e198-482e-aee8-099fb72776d5","system_id":"levelo_inurba_marseille","lat":43.23192,"lon":5.39988,"is_reserved":false,"is_disabled":true,"rental_uris":{"android":"levelo://app?vid=d0633771-e198-482e-aee8-099fb72776d5","ios":"levelo://app?vid=d0633771-e198-482e-aee8-099fb72776d5"},"vehicle_type_id":"4","last_reported":1777326263,"current_range_meters":8000,"station_id":"ce4bhn12rcd13ifvqgqg","pricing_plan_id":"cebpf4jnsgd1na2vs0mg"},{"bike_id":"9ce63d40-6d31-4810-9d08-18099d265915","system_id":"levelo_inurba_marseille","lat":43.30129,"lon":5.39887,"is_reserved":false,"is_disabled":false,"rental_uris":{"android":"levelo://app?vid=9ce63d40-6d31-4810-9d08-18099d265915","ios":"levelo://app?vid=9ce63d40-6d31-4810-9d08-18099d265915"},"vehicle_type_id":"4","last_reported":1777326263,"current_range_meters":8000,"station_id":"ce4bh0h2rcd13ifvqd40","pricing_plan_id":"cebpf4jnsgd1na2vs0mg"},{"bike_id":"486a6bd7-6877-47a7-872d-b6d92138ce35","system_id":"levelo_inurba_marseille","lat":43.28177,"lon":5.42621,"is_reserved":false,"is_disabled":false,"rental_uris":{"android":"levelo://app?vid=486a6bd7-6877-47a7-872d-b6d92138ce35","ios":"levelo://app?vid=486a6bd7-6877-47a7-872d-b6d92138ce35"},"vehicle_type_id":"4","last_reported":1777326263,"current_range_meters":8000,"station_id":"ce4bhnh2rcd13ifvqgug","pricing_plan_id":"cebpf4jnsgd1na2vs0mg"},{"bike_id":"1b777b2a-868b-41f8-a934-5ffefe1d9742","system_id":"levelo_inurba_marseille","lat":43.28076,"lon":5.39653,"is_reserved":false,"is_disabled":false,"rental_uris":{"android":"levelo://app?vid=1b777b2a-868b-41f8-a934-5ffefe1d9742","ios":"levelo://app?vid=1b777b2a-868b-41f8-a934-5ffefe1d9742"},"vehicle_type_id":"4","last_reported":1777326263,"current_range_meters":8000,"station_id":"ce4bho12rcd13ifvqh2g","pricing_plan_id":"cebpf4jnsgd1na2vs0mg"},{"bike_id":"1979d6c3-880e-4355-8890-54c5090f7a4b","system_id":"levelo_inurba_marseille","lat":43.29265,"lon":5.36849,"is_reserved":false,"is_disabled":false,"rental_uris":{"android":"levelo://app?vid=1979d6c3-880e-4355-8890-54c5090f7a4b","ios":"levelo://app?vid=1979d6c3-880e-4355-8890-54c5090f7a4b"},"vehicle_type_id":"4","last_reported":1777326263,"current_range_meters":8000,"station_id":"ce4bhbp2rcd13ifvqesg","pricing_plan_id":"cebpf4jnsgd1na2vs0mg"},{"bike_id":"2bd163fc-38f0-45ea-a9a5-aeef2cac66b7","system_id":"levelo_inurba_marseille","lat":43.29618,"lon":5.38095,"is_reserved":false,"is_disabled":false,"rental_uris":{"android":"levelo://app?vid=2bd163fc-38f0-45ea-a9a5-aeef2cac66b7","ios":"levelo://app?vid=2bd163fc-38f0-45ea-a9a5-aeef2cac66b7"},"vehicle_type_id":"4","last_reported":1777326263,"current_range_meters":8000,"station_id":"ce4bgl12rcd13ifvqbo0","pricing_plan_id":"cebpf4jnsgd1na2vs0mg"},{"bike_id":"5966df63-83c6-4f34-ae95-a22fe39c03ab","system_id":"levelo_inurba_marseille","lat":43.26575,"lon":5.39049,"is_reserved":false,"is_disabled":true,"rental_uris":{"android":"levelo://app?vid=5966df63-83c6-4f34-ae95-a22fe39c03ab","ios":"levelo://app?vid=5966df63-83c6-4f34-ae95-a22fe39c03ab"},"vehicle_type_id":"4","last_reported":1777326263,"current_range_meters":8000,"station_id":"ce4bhe12rcd13ifvqf30","pricing_plan_id":"cebpf4jnsgd1na2vs0mg"},{"bike_id":"272adfe1-16c9-4d3d-bb04-2ed96330910c","system_id":"levelo_inurba_marseille","lat":43.28849,"lon":5.39307,"is_reserved":false,"is_disabled":false,"rental_uris":{"android":"levelo://app?vid=272adfe1-16c9-4d3d-bb04-2ed96330910c","ios":"levelo://app?vid=272adfe1-16c9-4d3d-bb04-2ed96330910c"},"vehicle_type_id":"4","last_reported":1777326263,"current_range_meters":8000,"station_id":"ce4bh2p2rcd13ifvqdi0","pricing_plan_id":"cebpf4jnsgd1na2vs0mg"},{"bike_id":"30bbf904-fe93-4f57-a563-817621f396a4","system_id":"levelo_inurba_marseille","lat":43.2811,"lon":5.37833,"is_reserved":false,"is_disabled":false,"rental_uris":{"android":"levelo://app?vid=30bbf904-fe93-4f57-a563-817621f396a4","ios":"levelo://app?vid=30bbf904-fe93-4f57-a563-817621f396a4"},"vehicle_type_id":"4","last_reported":1777326263,"current_range_meters":8000,"station_id":"ce4bha12rcd13ifvqee0","pricing_plan_id":"cebpf4jnsgd1na2vs0mg"},{"bike_id":"c04c42cf-36a4-4a3c-b656-dde2fe1bae7e","system_id":"levelo_inurba_marseille","lat":43.28574,"lon":5.40268,"is_reserved":false,"is_disabled":false,"rental_uris":{"android":"levelo://app?vid=c04c42cf-36a4-4a3c-b656-dde2fe1bae7e","ios":"levelo://app?vid=c04c42cf-36a4-4a3c-b656-dde2fe1bae7e"},"vehicle_type_id":"4","last_reported":1777326263,"current_range_meters":8000,"station_id":"","pricing_plan_id":"cebpf4jnsgd1na2vs0mg"},{"bike_id":"baa55d1a-8e1e-46c2-9459-c2953120d083","system_id":"levelo_inurba_marseille","lat":43.28437,"lon":5.34986,"is_reserved":false,"is_disabled":false,"rental_uris":{"android":"levelo://app?vid=baa55d1a-8e1e-46c2-9459-c2953120d083","ios":"levelo://app?vid=baa55d1a-8e1e-46c2-9459-c2953120d083"},"vehicle_type_id":"4","last_reported":1777326263,"current_range_meters":8400,"station_id":"ce4bhbh2rcd13ifvqepg","pricing_plan_id":"cebpf4jnsgd1na2vs0mg"},{"bike_id":"f813821a-ce52-40b8-a9c3-302d9351356b","system_id":"levelo_inurba_marseille","lat":43.25791,"lon":5.38849,"is_reserved":false,"is_disabled":true,"rental_uris":{"android":"levelo://app?vid=f813821a-ce52-40b8-a9c3-302d9351356b","ios":"levelo://app?vid=f813821a-ce52-40b8-a9c3-302d9351356b"},"vehicle_type_id":"4","last_reported":1777326263,"current_range_meters":8400,"station_id":"","pricing_plan_id":"cebpf4jnsgd1na2vs0mg"},{"bike_id":"906bb9fa-4cee-445f-bfb8-ea0d07cc33ac","system_id":"levelo_inurba_marseille","lat":43.2837,"lon":5.38074,"is_reserved":false,"is_disabled":false,"rental_uris":{"android":"levelo://app?vid=906bb9fa-4cee-445f-bfb8-ea0d07cc33ac","ios":"levelo://app?vid=906bb9fa-4cee-445f-bfb8-ea0d07cc33ac"},"vehicle_type_id":"4","last_reported":1777326263,"current_range_meters":8400,"station_id":"ce4bh412rcd13ifvqdr0","pricing_plan_id":"cebpf4jnsgd1na2vs0mg"},{"bike_id":"0d4dfb01-63c5-4be7-bdb0-5163c6b2578c","system_id":"levelo_inurba_marseille","lat":43.31894,"lon":5.3681,"is_reserved":false,"is_disabled":false,"rental_uris":{"android":"levelo://app?vid=0d4dfb01-63c5-4be7-bdb0-5163c6b2578c","ios":"levelo://app?vid=0d4dfb01-63c5-4be7-bdb0-5163c6b2578c"},"vehicle_type_id":"4","last_reported":1777326263,"current_range_meters":8400,"station_id":"st_d6o2h0d0559c73evc1b0","pricing_plan_id":"cebpf4jnsgd1na2vs0mg"},{"bike_id":"f34173ba-e522-42fc-89f1-ad871c6b29c4","system_id":"levelo_inurba_marseille","lat":43.29486,"lon":5.43299,"is_reserved":false,"is_disabled":false,"rental_uris":{"android":"levelo://app?vid=f34173ba-e522-42fc-89f1-ad871c6b29c4","ios":"levelo://app?vid=f34173ba-e522-42fc-89f1-ad871c6b29c4"},"vehicle_type_id":"4","last_reported":1777326263,"current_range_meters":8400,"station_id":"st_d3j5ugp08ojc73fj9d10","pricing_plan_id":"cebpf4jnsgd1na2vs0mg"},{"bike_id":"f447fec5-f118-42c2-be2c-8ef32b6d20a2","system_id":"levelo_inurba_marseille","lat":43.25963,"lon":5.41685,"is_reserved":false,"is_disabled":false,"rental_uris":{"android":"levelo://app?vid=f447fec5-f118-42c2-be2c-8ef32b6d20a2","ios":"levelo://app?vid=f447fec5-f118-42c2-be2c-8ef32b6d20a2"},"vehicle_type_id":"4","last_reported":1777326263,"current_range_meters":8400,"station_id":"","pricing_plan_id":"cebpf4jnsgd1na2vs0mg"},{"bike_id":"e593377f-0b04-468e-be39-461905e9f322","system_id":"levelo_inurba_marseille","lat":43.24656,"lon":5.38887,"is_reserved":false,"is_disabled":false,"rental_uris":{"android":"levelo://app?vid=e593377f-0b04-468e-be39-461905e9f322","ios":"levelo://app?vid=e593377f-0b04-468e-be39-461905e9f322"},"vehicle_type_id":"4","last_reported":1777326263,"current_range_meters":8400,"station_id":"ce4bhg12rcd13ifvqf60","pricing_plan_id":"cebpf4jnsgd1na2vs0mg"},{"bike_id":"8ac0bd5f-2f2a-4833-ada5-2e9beded5ddb","system_id":"levelo_inurba_marseille","lat":43.31503,"lon":5.39136,"is_reserved":false,"is_disabled":false,"rental_uris":{"android":"levelo://app?vid=8ac0bd5f-2f2a-4833-ada5-2e9beded5ddb","ios":"levelo://app?vid=8ac0bd5f-2f2a-4833-ada5-2e9beded5ddb"},"vehicle_type_id":"4","last_reported":1777326263,"current_range_meters":8400,"station_id":"","pricing_plan_id":"cebpf4jnsgd1na2vs0mg"},{"bike_id":"16d472fe-eb19-4acc-8aa8-94088ad37de6","system_id":"levelo_inurba_marseille","lat":43.3519,"lon":5.36385,"is_reserved":false,"is_disabled":false,"rental_uris":{"android":"levelo://app?vid=16d472fe-eb19-4acc-8aa8-94088ad37de6","ios":"levelo://app?vid=16d472fe-eb19-4acc-8aa8-94088ad37de6"},"vehicle_type_id":"4","last_reported":1777326263,"current_range_meters":8400,"station_id":"","pricing_plan_id":"cebpf4jnsgd1na2vs0mg"},{"bike_id":"b5088cd7-5e45-457a-ae9f-32446d67355c","system_id":"levelo_inurba_marseille","lat":43.32496,"lon":5.36613,"is_reserved":false,"is_disabled":false,"rental_uris":{"android":"levelo://app?vid=b5088cd7-5e45-457a-ae9f-32446d67355c","ios":"levelo://app?vid=b5088cd7-5e45-457a-ae9f-32446d67355c"},"vehicle_type_id":"4","last_reported":1777326263,"current_range_meters":8400,"station_id":"","pricing_plan_id":"cebpf4jnsgd1na2vs0mg"},{"bike_id":"74929e98-c2e0-43cc-b447-0901251d01cb","system_id":"levelo_inurba_marseille","lat":43.2549,"lon":5.37677,"is_reserved":false,"is_disabled":false,"rental_uris":{"android":"levelo://app?vid=74929e98-c2e0-43cc-b447-0901251d01cb","ios":"levelo://app?vid=74929e98-c2e0-43cc-b447-0901251d01cb"},"vehicle_type_id":"4","last_reported":1777326263,"current_range_meters":8400,"station_id":"ce4bhh12rcd13ifvqff0","pricing_plan_id":"cebpf4jnsgd1na2vs0mg"},{"bike_id":"e5cd69c7-9379-4379-93b8-62cf25a54177","system_id":"levelo_inurba_marseille","lat":43.337497,"lon":5.374492,"is_reserved":false,"is_disabled":false,"rental_uris":{"android":"levelo://app?vid=e5cd69c7-9379-4379-93b8-62cf25a54177","ios":"levelo://app?vid=e5cd69c7-9379-4379-93b8-62cf25a54177"},"vehicle_type_id":"4","last_reported":1777326263,"current_range_meters":8400,"station_id":"","pricing_plan_id":"cebpf4jnsgd1na2vs0mg"},{"bike_id":"f9f92c5c-5f51-4e1c-a4a4-da02d7396e3a","system_id":"levelo_inurba_marseille","lat":43.21761,"lon":5.34581,"is_reserved":false,"is_disabled":false,"rental_uris":{"android":"levelo://app?vid=f9f92c5c-5f51-4e1c-a4a4-da02d7396e3a","ios":"levelo://app?vid=f9f92c5c-5f51-4e1c-a4a4-da02d7396e3a"},"vehicle_type_id":"4","last_reported":1777326263,"current_range_meters":8400,"station_id":"st_cvj6r9ubvosntc0bgbag","pricing_plan_id":"cebpf4jnsgd1na2vs0mg"},{"bike_id":"2b2662f1-d28b-44f2-b2c8-61c6569e4c3d","system_id":"levelo_inurba_marseille","lat":43.29296,"lon":5.40093,"is_reserved":false,"is_disabled":true,"rental_uris":{"android":"levelo://app?vid=2b2662f1-d28b-44f2-b2c8-61c6569e4c3d","ios":"levelo://app?vid=2b2662f1-d28b-44f2-b2c8-61c6569e4c3d"},"vehicle_type_id":"4","last_reported":1777326263,"current_range_meters":8400,"station_id":"ce4bh312rcd13ifvqdk0","pricing_plan_id":"cebpf4jnsgd1na2vs0mg"},{"bike_id":"3109b0e0-cfd8-4009-92c0-9fa7911dfae1","system_id":"levelo_inurba_marseille","lat":43.31351,"lon":5.39714,"is_reserved":false,"is_disabled":false,"rental_uris":{"android":"levelo://app?vid=3109b0e0-cfd8-4009-92c0-9fa7911dfae1","ios":"levelo://app?vid=3109b0e0-cfd8-4009-92c0-9fa7911dfae1"},"vehicle_type_id":"4","last_reported":1777326263,"current_range_meters":8400,"station_id":"ce4bgvp2rcd13ifvqcu0","pricing_plan_id":"cebpf4jnsgd1na2vs0mg"},{"bike_id":"c5eb2544-6363-4bb7-8f1a-002e9224c711","system_id":"levelo_inurba_marseille","lat":43.31173,"lon":5.38699,"is_reserved":false,"is_disabled":false,"rental_uris":{"android":"levelo://app?vid=c5eb2544-6363-4bb7-8f1a-002e9224c711","ios":"levelo://app?vid=c5eb2544-6363-4bb7-8f1a-002e9224c711"},"vehicle_type_id":"4","last_reported":1777326263,"current_range_meters":8400,"station_id":"ce4bgv12rcd13ifvqcp0","pricing_plan_id":"cebpf4jnsgd1na2vs0mg"},{"bike_id":"1313d3cc-feb5-4a48-99b3-cb4d7635e1e9","system_id":"levelo_inurba_marseille","lat":43.32569,"lon":5.38046,"is_reserved":false,"is_disabled":false,"rental_uris":{"android":"levelo://app?vid=1313d3cc-feb5-4a48-99b3-cb4d7635e1e9","ios":"levelo://app?vid=1313d3cc-feb5-4a48-99b3-cb4d7635e1e9"},"vehicle_type_id":"4","last_reported":1777326263,"current_range_meters":8400,"station_id":"","pricing_plan_id":"cebpf4jnsgd1na2vs0mg"},{"bike_id":"f7cd50ab-86b6-4ec0-a44d-57bbb6fb2471","system_id":"levelo_inurba_marseille","lat":43.28853,"lon":5.39317,"is_reserved":false,"is_disabled":false,"rental_uris":{"android":"levelo://app?vid=f7cd50ab-86b6-4ec0-a44d-57bbb6fb2471","ios":"levelo://app?vid=f7cd50ab-86b6-4ec0-a44d-57bbb6fb2471"},"vehicle_type_id":"4","last_reported":1777326263,"current_range_meters":8400,"station_id":"ce4bh2p2rcd13ifvqdi0","pricing_plan_id":"cebpf4jnsgd1na2vs0mg"},{"bike_id":"9daae5fc-029a-4575-8080-71abfd7ee94e","system_id":"levelo_inurba_marseille","lat":43.21199,"lon":5.35062,"is_reserved":false,"is_disabled":false,"rental_uris":{"android":"levelo://app?vid=9daae5fc-029a-4575-8080-71abfd7ee94e","ios":"levelo://app?vid=9daae5fc-029a-4575-8080-71abfd7ee94e"},"vehicle_type_id":"4","last_reported":1777326263,"current_range_meters":8400,"station_id":"st_cvj6sg6p6f1abm77japg","pricing_plan_id":"cebpf4jnsgd1na2vs0mg"},{"bike_id":"f68f1035-28b2-4d29-bb46-2eba59d9dd05","system_id":"levelo_inurba_marseille","lat":43.29043,"lon":5.35903,"is_reserved":false,"is_disabled":false,"rental_uris":{"android":"levelo://app?vid=f68f1035-28b2-4d29-bb46-2eba59d9dd05","ios":"levelo://app?vid=f68f1035-28b2-4d29-bb46-2eba59d9dd05"},"vehicle_type_id":"4","last_reported":1777326263,"current_range_meters":8400,"station_id":"ce4bha92rcd13ifvqeg0","pricing_plan_id":"cebpf4jnsgd1na2vs0mg"},{"bike_id":"dc4f256b-dad1-4b0e-b0aa-70815278bacb","system_id":"levelo_inurba_marseille","lat":43.28967,"lon":5.39318,"is_reserved":false,"is_disabled":false,"rental_uris":{"android":"levelo://app?vid=dc4f256b-dad1-4b0e-b0aa-70815278bacb","ios":"levelo://app?vid=dc4f256b-dad1-4b0e-b0aa-70815278bacb"},"vehicle_type_id":"4","last_reported":1777326263,"current_range_meters":8400,"station_id":"","pricing_plan_id":"cebpf4jnsgd1na2vs0mg"},{"bike_id":"53aa454e-4f31-4c1f-96b1-d63386a5fa5c","system_id":"levelo_inurba_marseille","lat":43.24828,"lon":5.37456,"is_reserved":false,"is_disabled":false,"rental_uris":{"android":"levelo://app?vid=53aa454e-4f31-4c1f-96b1-d63386a5fa5c","ios":"levelo://app?vid=53aa454e-4f31-4c1f-96b1-d63386a5fa5c"},"vehicle_type_id":"4","last_reported":1777326263,"current_range_meters":8400,"station_id":"ce4bhgh2rcd13ifvqfb0","pricing_plan_id":"cebpf4jnsgd1na2vs0mg"},{"bike_id":"52773601-2a24-4a86-9c82-463ed16cf75e","system_id":"levelo_inurba_marseille","lat":43.26226,"lon":5.38747,"is_reserved":false,"is_disabled":false,"rental_uris":{"android":"levelo://app?vid=52773601-2a24-4a86-9c82-463ed16cf75e","ios":"levelo://app?vid=52773601-2a24-4a86-9c82-463ed16cf75e"},"vehicle_type_id":"4","last_reported":1777326263,"current_range_meters":8400,"station_id":"","pricing_plan_id":"cebpf4jnsgd1na2vs0mg"},{"bike_id":"647c318a-9d6f-4d4d-954d-250588901504","system_id":"levelo_inurba_marseille","lat":43.2895,"lon":5.3639,"is_reserved":false,"is_disabled":false,"rental_uris":{"android":"levelo://app?vid=647c318a-9d6f-4d4d-954d-250588901504","ios":"levelo://app?vid=647c318a-9d6f-4d4d-954d-250588901504"},"vehicle_type_id":"4","last_reported":1777326263,"current_range_meters":8400,"station_id":"ce4bhc92rcd13ifvqetg","pricing_plan_id":"cebpf4jnsgd1na2vs0mg"},{"bike_id":"48567729-a37d-43a5-be29-532eb15e1964","system_id":"levelo_inurba_marseille","lat":43.28947,"lon":5.36429,"is_reserved":false,"is_disabled":false,"rental_uris":{"android":"levelo://app?vid=48567729-a37d-43a5-be29-532eb15e1964","ios":"levelo://app?vid=48567729-a37d-43a5-be29-532eb15e1964"},"vehicle_type_id":"4","last_reported":1777326263,"current_range_meters":8400,"station_id":"ce4bhc92rcd13ifvqetg","pricing_plan_id":"cebpf4jnsgd1na2vs0mg"},{"bike_id":"0ab27b58-0c54-44b4-903b-c64a20d710c1","system_id":"levelo_inurba_marseille","lat":43.2926,"lon":5.38455,"is_reserved":false,"is_disabled":false,"rental_uris":{"android":"levelo://app?vid=0ab27b58-0c54-44b4-903b-c64a20d710c1","ios":"levelo://app?vid=0ab27b58-0c54-44b4-903b-c64a20d710c1"},"vehicle_type_id":"4","last_reported":1777326263,"current_range_meters":8400,"station_id":"ce4bh692rcd13ifvqea0","pricing_plan_id":"cebpf4jnsgd1na2vs0mg"},{"bike_id":"b74f6e85-86ec-4cac-816a-53872c6d4c79","system_id":"levelo_inurba_marseille","lat":43.25828,"lon":5.39439,"is_reserved":false,"is_disabled":false,"rental_uris":{"android":"levelo://app?vid=b74f6e85-86ec-4cac-816a-53872c6d4c79","ios":"levelo://app?vid=b74f6e85-86ec-4cac-816a-53872c6d4c79"},"vehicle_type_id":"4","last_reported":1777326263,"current_range_meters":8400,"station_id":"ce4bhip2rcd13ifvqft0","pricing_plan_id":"cebpf4jnsgd1na2vs0mg"},{"bike_id":"94ee6d81-bcf9-42d0-b1b9-f6174c047c11","system_id":"levelo_inurba_marseille","lat":43.29984,"lon":5.37153,"is_reserved":false,"is_disabled":false,"rental_uris":{"android":"levelo://app?vid=94ee6d81-bcf9-42d0-b1b9-f6174c047c11","ios":"levelo://app?vid=94ee6d81-bcf9-42d0-b1b9-f6174c047c11"},"vehicle_type_id":"4","last_reported":1777326263,"current_range_meters":8800,"station_id":"ce4bgr92rcd13ifvqc7g","pricing_plan_id":"cebpf4jnsgd1na2vs0mg"},{"bike_id":"3462feaa-c9a2-441c-b3a1-f70058c367e6","system_id":"levelo_inurba_marseille","lat":43.24397,"lon":5.37078,"is_reserved":false,"is_disabled":false,"rental_uris":{"android":"levelo://app?vid=3462feaa-c9a2-441c-b3a1-f70058c367e6","ios":"levelo://app?vid=3462feaa-c9a2-441c-b3a1-f70058c367e6"},"vehicle_type_id":"4","last_reported":1777326263,"current_range_meters":8800,"station_id":"ce4bhhh2rcd13ifvqfk0","pricing_plan_id":"cebpf4jnsgd1na2vs0mg"},{"bike_id":"d562c94c-bb0c-4970-b71e-43b0e2ced95a","system_id":"levelo_inurba_marseille","lat":43.28675,"lon":5.36349,"is_reserved":false,"is_disabled":false,"rental_uris":{"android":"levelo://app?vid=d562c94c-bb0c-4970-b71e-43b0e2ced95a","ios":"levelo://app?vid=d562c94c-bb0c-4970-b71e-43b0e2ced95a"},"vehicle_type_id":"4","last_reported":1777326263,"current_range_meters":8800,"station_id":"ce4bhah2rcd13ifvqej0","pricing_plan_id":"cebpf4jnsgd1na2vs0mg"},{"bike_id":"1bca0dbc-0d5b-4841-8651-434c9878a792","system_id":"levelo_inurba_marseille","lat":43.29279,"lon":5.36846,"is_reserved":false,"is_disabled":false,"rental_uris":{"android":"levelo://app?vid=1bca0dbc-0d5b-4841-8651-434c9878a792","ios":"levelo://app?vid=1bca0dbc-0d5b-4841-8651-434c9878a792"},"vehicle_type_id":"4","last_reported":1777326263,"current_range_meters":8800,"station_id":"ce4bhbp2rcd13ifvqesg","pricing_plan_id":"cebpf4jnsgd1na2vs0mg"},{"bike_id":"e67acc8f-2ca9-403b-9a72-d3f8278b7623","system_id":"levelo_inurba_marseille","lat":43.24864,"lon":5.37449,"is_reserved":false,"is_disabled":false,"rental_uris":{"android":"levelo://app?vid=e67acc8f-2ca9-403b-9a72-d3f8278b7623","ios":"levelo://app?vid=e67acc8f-2ca9-403b-9a72-d3f8278b7623"},"vehicle_type_id":"4","last_reported":1777326263,"current_range_meters":8800,"station_id":"","pricing_plan_id":"cebpf4jnsgd1na2vs0mg"},{"bike_id":"fd22e8ad-f64d-443a-8458-84fef3c805b5","system_id":"levelo_inurba_marseille","lat":43.24802,"lon":5.37454,"is_reserved":false,"is_disabled":false,"rental_uris":{"android":"levelo://app?vid=fd22e8ad-f64d-443a-8458-84fef3c805b5","ios":"levelo://app?vid=fd22e8ad-f64d-443a-8458-84fef3c805b5"},"vehicle_type_id":"4","last_reported":1777326263,"current_range_meters":8800,"station_id":"ce4bhgh2rcd13ifvqfb0","pricing_plan_id":"cebpf4jnsgd1na2vs0mg"},{"bike_id":"d2276d1c-4dd8-4805-b674-72347073e05f","system_id":"levelo_inurba_marseille","lat":43.28872,"lon":5.4252,"is_reserved":false,"is_disabled":false,"rental_uris":{"android":"levelo://app?vid=d2276d1c-4dd8-4805-b674-72347073e05f","ios":"levelo://app?vid=d2276d1c-4dd8-4805-b674-72347073e05f"},"vehicle_type_id":"4","last_reported":1777326263,"current_range_meters":8800,"station_id":"st_d3b462108ojc7389ooeg","pricing_plan_id":"cebpf4jnsgd1na2vs0mg"},{"bike_id":"e9e489ed-5efb-43d0-ac34-79efe72d0544","system_id":"levelo_inurba_marseille","lat":43.29247,"lon":5.38484,"is_reserved":false,"is_disabled":false,"rental_uris":{"android":"levelo://app?vid=e9e489ed-5efb-43d0-ac34-79efe72d0544","ios":"levelo://app?vid=e9e489ed-5efb-43d0-ac34-79efe72d0544"},"vehicle_type_id":"4","last_reported":1777326263,"current_range_meters":8800,"station_id":"","pricing_plan_id":"cebpf4jnsgd1na2vs0mg"},{"bike_id":"9a54fe80-e9a9-443a-ac41-a45c15c4d1fd","system_id":"levelo_inurba_marseille","lat":43.30893,"lon":5.39675,"is_reserved":false,"is_disabled":true,"rental_uris":{"android":"levelo://app?vid=9a54fe80-e9a9-443a-ac41-a45c15c4d1fd","ios":"levelo://app?vid=9a54fe80-e9a9-443a-ac41-a45c15c4d1fd"},"vehicle_type_id":"4","last_reported":1777326263,"current_range_meters":8800,"station_id":"ce4bh012rcd13ifvqcv0","pricing_plan_id":"cebpf4jnsgd1na2vs0mg"},{"bike_id":"7691273e-33d0-40e7-9122-ebb011af1b54","system_id":"levelo_inurba_marseille","lat":43.24658,"lon":5.38105,"is_reserved":false,"is_disabled":false,"rental_uris":{"android":"levelo://app?vid=7691273e-33d0-40e7-9122-ebb011af1b54","ios":"levelo://app?vid=7691273e-33d0-40e7-9122-ebb011af1b54"},"vehicle_type_id":"4","last_reported":1777326263,"current_range_meters":8800,"station_id":"ce4bhih2rcd13ifvqfr0","pricing_plan_id":"cebpf4jnsgd1na2vs0mg"},{"bike_id":"76907408-a8ff-4688-9cbf-66e48bb415e8","system_id":"levelo_inurba_marseille","lat":43.28703,"lon":5.46689,"is_reserved":false,"is_disabled":false,"rental_uris":{"android":"levelo://app?vid=76907408-a8ff-4688-9cbf-66e48bb415e8","ios":"levelo://app?vid=76907408-a8ff-4688-9cbf-66e48bb415e8"},"vehicle_type_id":"4","last_reported":1777326263,"current_range_meters":8800,"station_id":"st_d6tc3vkotcvc738tfjhg","pricing_plan_id":"cebpf4jnsgd1na2vs0mg"},{"bike_id":"987eda33-b3ad-4fac-a63c-0e3ff496e921","system_id":"levelo_inurba_marseille","lat":43.32358,"lon":5.36751,"is_reserved":false,"is_disabled":false,"rental_uris":{"android":"levelo://app?vid=987eda33-b3ad-4fac-a63c-0e3ff496e921","ios":"levelo://app?vid=987eda33-b3ad-4fac-a63c-0e3ff496e921"},"vehicle_type_id":"4","last_reported":1777326263,"current_range_meters":8800,"station_id":"ce4bhsh2rcd13ifvqi2g","pricing_plan_id":"cebpf4jnsgd1na2vs0mg"},{"bike_id":"afde96ac-1493-4085-af72-e5da568a87fd","system_id":"levelo_inurba_marseille","lat":43.28528,"lon":5.48373,"is_reserved":false,"is_disabled":false,"rental_uris":{"android":"levelo://app?vid=afde96ac-1493-4085-af72-e5da568a87fd","ios":"levelo://app?vid=afde96ac-1493-4085-af72-e5da568a87fd"},"vehicle_type_id":"4","last_reported":1777326263,"current_range_meters":8800,"station_id":"st_d3svhcjqgbts73a3dn0g","pricing_plan_id":"cebpf4jnsgd1na2vs0mg"},{"bike_id":"f0139309-3da0-445b-ae20-7e213ec938ff","system_id":"levelo_inurba_marseille","lat":43.29044,"lon":5.35897,"is_reserved":false,"is_disabled":false,"rental_uris":{"android":"levelo://app?vid=f0139309-3da0-445b-ae20-7e213ec938ff","ios":"levelo://app?vid=f0139309-3da0-445b-ae20-7e213ec938ff"},"vehicle_type_id":"4","last_reported":1777326263,"current_range_meters":8800,"station_id":"ce4bha92rcd13ifvqeg0","pricing_plan_id":"cebpf4jnsgd1na2vs0mg"},{"bike_id":"24a8bbd8-14c9-4f18-8e3a-66cf13da1d52","system_id":"levelo_inurba_marseille","lat":43.28723,"lon":5.3609,"is_reserved":false,"is_disabled":false,"rental_uris":{"android":"levelo://app?vid=24a8bbd8-14c9-4f18-8e3a-66cf13da1d52","ios":"levelo://app?vid=24a8bbd8-14c9-4f18-8e3a-66cf13da1d52"},"vehicle_type_id":"4","last_reported":1777326263,"current_range_meters":8800,"station_id":"cki0cbj6b192h4jlfktg","pricing_plan_id":"cebpf4jnsgd1na2vs0mg"},{"bike_id":"c4118d6e-3609-4ae2-8c49-d5d7613597bc","system_id":"levelo_inurba_marseille","lat":43.24205,"lon":5.36352,"is_reserved":false,"is_disabled":false,"rental_uris":{"android":"levelo://app?vid=c4118d6e-3609-4ae2-8c49-d5d7613597bc","ios":"levelo://app?vid=c4118d6e-3609-4ae2-8c49-d5d7613597bc"},"vehicle_type_id":"4","last_reported":1777326263,"current_range_meters":8800,"station_id":"","pricing_plan_id":"cebpf4jnsgd1na2vs0mg"},{"bike_id":"20111a87-41c4-4eaf-9fe8-f7469b02a4e4","system_id":"levelo_inurba_marseille","lat":43.30144,"lon":5.43105,"is_reserved":false,"is_disabled":false,"rental_uris":{"android":"levelo://app?vid=20111a87-41c4-4eaf-9fe8-f7469b02a4e4","ios":"levelo://app?vid=20111a87-41c4-4eaf-9fe8-f7469b02a4e4"},"vehicle_type_id":"4","last_reported":1777326263,"current_range_meters":8800,"station_id":"st_d3js3co5814s73ftftug","pricing_plan_id":"cebpf4jnsgd1na2vs0mg"},{"bike_id":"6b4aa15b-259f-4e69-9c10-9ad064f7be7c","system_id":"levelo_inurba_marseille","lat":43.25595,"lon":5.38227,"is_reserved":false,"is_disabled":false,"rental_uris":{"android":"levelo://app?vid=6b4aa15b-259f-4e69-9c10-9ad064f7be7c","ios":"levelo://app?vid=6b4aa15b-259f-4e69-9c10-9ad064f7be7c"},"vehicle_type_id":"4","last_reported":1777326263,"current_range_meters":8800,"station_id":"ce4bhih2rcd13ifvqfs0","pricing_plan_id":"cebpf4jnsgd1na2vs0mg"},{"bike_id":"f5ac82a1-eeda-403a-8b8b-36b77199cda8","system_id":"levelo_inurba_marseille","lat":43.25001,"lon":5.39653,"is_reserved":false,"is_disabled":false,"rental_uris":{"android":"levelo://app?vid=f5ac82a1-eeda-403a-8b8b-36b77199cda8","ios":"levelo://app?vid=f5ac82a1-eeda-403a-8b8b-36b77199cda8"},"vehicle_type_id":"4","last_reported":1777326263,"current_range_meters":8800,"station_id":"","pricing_plan_id":"cebpf4jnsgd1na2vs0mg"},{"bike_id":"8b4e6bd3-1e82-4277-a45a-3a8abaa4e3ab","system_id":"levelo_inurba_marseille","lat":43.28476,"lon":5.48399,"is_reserved":false,"is_disabled":false,"rental_uris":{"android":"levelo://app?vid=8b4e6bd3-1e82-4277-a45a-3a8abaa4e3ab","ios":"levelo://app?vid=8b4e6bd3-1e82-4277-a45a-3a8abaa4e3ab"},"vehicle_type_id":"4","last_reported":1777326263,"current_range_meters":8800,"station_id":"","pricing_plan_id":"cebpf4jnsgd1na2vs0mg"},{"bike_id":"a5c29ba6-9a3f-4a7f-8701-9a67e027726e","system_id":"levelo_inurba_marseille","lat":43.2481,"lon":5.37444,"is_reserved":false,"is_disabled":false,"rental_uris":{"android":"levelo://app?vid=a5c29ba6-9a3f-4a7f-8701-9a67e027726e","ios":"levelo://app?vid=a5c29ba6-9a3f-4a7f-8701-9a67e027726e"},"vehicle_type_id":"4","last_reported":1777326263,"current_range_meters":8800,"station_id":"ce4bhgh2rcd13ifvqfb0","pricing_plan_id":"cebpf4jnsgd1na2vs0mg"},{"bike_id":"4a4414d8-683e-4aa3-949c-5f2c0c55a886","system_id":"levelo_inurba_marseille","lat":43.29439,"lon":5.3976,"is_reserved":false,"is_disabled":false,"rental_uris":{"android":"levelo://app?vid=4a4414d8-683e-4aa3-949c-5f2c0c55a886","ios":"levelo://app?vid=4a4414d8-683e-4aa3-949c-5f2c0c55a886"},"vehicle_type_id":"4","last_reported":1777326263,"current_range_meters":8800,"station_id":"ce4bh3h2rcd13ifvqdo0","pricing_plan_id":"cebpf4jnsgd1na2vs0mg"},{"bike_id":"5099fcc8-f95e-4589-bb9a-71165fa185c1","system_id":"levelo_inurba_marseille","lat":43.28496,"lon":5.38512,"is_reserved":false,"is_disabled":false,"rental_uris":{"android":"levelo://app?vid=5099fcc8-f95e-4589-bb9a-71165fa185c1","ios":"levelo://app?vid=5099fcc8-f95e-4589-bb9a-71165fa185c1"},"vehicle_type_id":"4","last_reported":1777326263,"current_range_meters":9200,"station_id":"ce4bh8p2rcd13ifvqeb0","pricing_plan_id":"cebpf4jnsgd1na2vs0mg"},{"bike_id":"ca970bed-dff0-40b1-aa6e-d0db5b10d8ee","system_id":"levelo_inurba_marseille","lat":43.27448,"lon":5.39362,"is_reserved":false,"is_disabled":true,"rental_uris":{"android":"levelo://app?vid=ca970bed-dff0-40b1-aa6e-d0db5b10d8ee","ios":"levelo://app?vid=ca970bed-dff0-40b1-aa6e-d0db5b10d8ee"},"vehicle_type_id":"4","last_reported":1777326263,"current_range_meters":9200,"station_id":"ce4bhdp2rcd13ifvqf20","pricing_plan_id":"cebpf4jnsgd1na2vs0mg"},{"bike_id":"3c37dbd8-05d1-42e0-9359-7f79e94a3922","system_id":"levelo_inurba_marseille","lat":43.26234,"lon":5.40457,"is_reserved":false,"is_disabled":false,"rental_uris":{"android":"levelo://app?vid=3c37dbd8-05d1-42e0-9359-7f79e94a3922","ios":"levelo://app?vid=3c37dbd8-05d1-42e0-9359-7f79e94a3922"},"vehicle_type_id":"4","last_reported":1777326263,"current_range_meters":9200,"station_id":"ce4bhmh2rcd13ifvqgmg","pricing_plan_id":"cebpf4jnsgd1na2vs0mg"},{"bike_id":"fd1cd0d2-0b61-48a7-b8ac-5a43e93d2eaa","system_id":"levelo_inurba_marseille","lat":43.30103,"lon":5.39083,"is_reserved":false,"is_disabled":false,"rental_uris":{"android":"levelo://app?vid=fd1cd0d2-0b61-48a7-b8ac-5a43e93d2eaa","ios":"levelo://app?vid=fd1cd0d2-0b61-48a7-b8ac-5a43e93d2eaa"},"vehicle_type_id":"4","last_reported":1777326263,"current_range_meters":9200,"station_id":"ce4bh192rcd13ifvqdb0","pricing_plan_id":"cebpf4jnsgd1na2vs0mg"},{"bike_id":"fb55a29e-fc68-4bb3-9b50-a2d7150b05aa","system_id":"levelo_inurba_marseille","lat":43.30641,"lon":5.40059,"is_reserved":false,"is_disabled":false,"rental_uris":{"android":"levelo://app?vid=fb55a29e-fc68-4bb3-9b50-a2d7150b05aa","ios":"levelo://app?vid=fb55a29e-fc68-4bb3-9b50-a2d7150b05aa"},"vehicle_type_id":"4","last_reported":1777326263,"current_range_meters":9200,"station_id":"ce4bh112rcd13ifvqda0","pricing_plan_id":"cebpf4jnsgd1na2vs0mg"},{"bike_id":"60ae7bab-1a5c-4f05-9d31-31cb1f6608ec","system_id":"levelo_inurba_marseille","lat":43.25087,"lon":5.39526,"is_reserved":false,"is_disabled":false,"rental_uris":{"android":"levelo://app?vid=60ae7bab-1a5c-4f05-9d31-31cb1f6608ec","ios":"levelo://app?vid=60ae7bab-1a5c-4f05-9d31-31cb1f6608ec"},"vehicle_type_id":"4","last_reported":1777326263,"current_range_meters":9200,"station_id":"ce4bhm12rcd13ifvqgkg","pricing_plan_id":"cebpf4jnsgd1na2vs0mg"},{"bike_id":"dabc5e28-b9df-4b1a-affa-f2e365a8b45b","system_id":"levelo_inurba_marseille","lat":43.32111,"lon":5.36772,"is_reserved":false,"is_disabled":false,"rental_uris":{"android":"levelo://app?vid=dabc5e28-b9df-4b1a-affa-f2e365a8b45b","ios":"levelo://app?vid=dabc5e28-b9df-4b1a-affa-f2e365a8b45b"},"vehicle_type_id":"4","last_reported":1777326263,"current_range_meters":9200,"station_id":"ce4bhrh2rcd13ifvqhug","pricing_plan_id":"cebpf4jnsgd1na2vs0mg"},{"bike_id":"152f6ba7-28ae-4b6f-adfb-15349721d471","system_id":"levelo_inurba_marseille","lat":43.2923,"lon":5.39322,"is_reserved":false,"is_disabled":false,"rental_uris":{"android":"levelo://app?vid=152f6ba7-28ae-4b6f-adfb-15349721d471","ios":"levelo://app?vid=152f6ba7-28ae-4b6f-adfb-15349721d471"},"vehicle_type_id":"4","last_reported":1777326263,"current_range_meters":9200,"station_id":"ce4bh192rcd13ifvqdd0","pricing_plan_id":"cebpf4jnsgd1na2vs0mg"},{"bike_id":"c1faf23e-4ef3-448a-b7dc-39526523d561","system_id":"levelo_inurba_marseille","lat":43.29273,"lon":5.36855,"is_reserved":false,"is_disabled":false,"rental_uris":{"android":"levelo://app?vid=c1faf23e-4ef3-448a-b7dc-39526523d561","ios":"levelo://app?vid=c1faf23e-4ef3-448a-b7dc-39526523d561"},"vehicle_type_id":"4","last_reported":1777326263,"current_range_meters":9200,"station_id":"ce4bhbp2rcd13ifvqesg","pricing_plan_id":"cebpf4jnsgd1na2vs0mg"},{"bike_id":"d128858b-bebf-45c5-838d-de7a7a289000","system_id":"levelo_inurba_marseille","lat":43.29777,"lon":5.39344,"is_reserved":false,"is_disabled":false,"rental_uris":{"android":"levelo://app?vid=d128858b-bebf-45c5-838d-de7a7a289000","ios":"levelo://app?vid=d128858b-bebf-45c5-838d-de7a7a289000"},"vehicle_type_id":"4","last_reported":1777326263,"current_range_meters":9200,"station_id":"chh1huq6cuj3fo74tm60","pricing_plan_id":"cebpf4jnsgd1na2vs0mg"},{"bike_id":"ea0e9f70-3cf6-4747-81ce-1d670e663ee1","system_id":"levelo_inurba_marseille","lat":43.29571,"lon":5.39971,"is_reserved":false,"is_disabled":false,"rental_uris":{"android":"levelo://app?vid=ea0e9f70-3cf6-4747-81ce-1d670e663ee1","ios":"levelo://app?vid=ea0e9f70-3cf6-4747-81ce-1d670e663ee1"},"vehicle_type_id":"4","last_reported":1777326263,"current_range_meters":9200,"station_id":"ce4bh312rcd13ifvqdj0","pricing_plan_id":"cebpf4jnsgd1na2vs0mg"},{"bike_id":"94b1d427-102e-4c64-aa76-0c93e226150f","system_id":"levelo_inurba_marseille","lat":43.28486,"lon":5.48395,"is_reserved":false,"is_disabled":false,"rental_uris":{"android":"levelo://app?vid=94b1d427-102e-4c64-aa76-0c93e226150f","ios":"levelo://app?vid=94b1d427-102e-4c64-aa76-0c93e226150f"},"vehicle_type_id":"4","last_reported":1777326263,"current_range_meters":9200,"station_id":"st_d3svhcjqgbts73a3dn0g","pricing_plan_id":"cebpf4jnsgd1na2vs0mg"},{"bike_id":"7db19171-5729-4c67-91fd-7ba01dabc5cd","system_id":"levelo_inurba_marseille","lat":43.28725,"lon":5.37376,"is_reserved":false,"is_disabled":false,"rental_uris":{"android":"levelo://app?vid=7db19171-5729-4c67-91fd-7ba01dabc5cd","ios":"levelo://app?vid=7db19171-5729-4c67-91fd-7ba01dabc5cd"},"vehicle_type_id":"4","last_reported":1777326263,"current_range_meters":9200,"station_id":"ce4bh3p2rcd13ifvqdq0","pricing_plan_id":"cebpf4jnsgd1na2vs0mg"},{"bike_id":"81e52b6e-bff7-4875-a0d8-d533ea21c465","system_id":"levelo_inurba_marseille","lat":43.28254,"lon":5.42752,"is_reserved":false,"is_disabled":false,"rental_uris":{"android":"levelo://app?vid=81e52b6e-bff7-4875-a0d8-d533ea21c465","ios":"levelo://app?vid=81e52b6e-bff7-4875-a0d8-d533ea21c465"},"vehicle_type_id":"4","last_reported":1777326263,"current_range_meters":9200,"station_id":"","pricing_plan_id":"cebpf4jnsgd1na2vs0mg"},{"bike_id":"e382ba24-bb4a-4069-862d-738585d83370","system_id":"levelo_inurba_marseille","lat":43.27849,"lon":5.40708,"is_reserved":false,"is_disabled":false,"rental_uris":{"android":"levelo://app?vid=e382ba24-bb4a-4069-862d-738585d83370","ios":"levelo://app?vid=e382ba24-bb4a-4069-862d-738585d83370"},"vehicle_type_id":"4","last_reported":1777326263,"current_range_meters":9200,"station_id":"ce4bhnh2rcd13ifvqgtg","pricing_plan_id":"cebpf4jnsgd1na2vs0mg"},{"bike_id":"626afedd-d732-4bc8-be6f-6408a29380b2","system_id":"levelo_inurba_marseille","lat":43.21194,"lon":5.35069,"is_reserved":false,"is_disabled":false,"rental_uris":{"android":"levelo://app?vid=626afedd-d732-4bc8-be6f-6408a29380b2","ios":"levelo://app?vid=626afedd-d732-4bc8-be6f-6408a29380b2"},"vehicle_type_id":"4","last_reported":1777326263,"current_range_meters":9200,"station_id":"st_cvj6sg6p6f1abm77japg","pricing_plan_id":"cebpf4jnsgd1na2vs0mg"},{"bike_id":"20f579e4-bb0c-44b0-8f96-d7af0d62c620","system_id":"levelo_inurba_marseille","lat":43.25094,"lon":5.39504,"is_reserved":false,"is_disabled":false,"rental_uris":{"android":"levelo://app?vid=20f579e4-bb0c-44b0-8f96-d7af0d62c620","ios":"levelo://app?vid=20f579e4-bb0c-44b0-8f96-d7af0d62c620"},"vehicle_type_id":"4","last_reported":1777326263,"current_range_meters":9200,"station_id":"ce4bhm12rcd13ifvqgkg","pricing_plan_id":"cebpf4jnsgd1na2vs0mg"},{"bike_id":"906f7108-febf-40ba-b432-178e412912d2","system_id":"levelo_inurba_marseille","lat":43.28349,"lon":5.38082,"is_reserved":false,"is_disabled":false,"rental_uris":{"android":"levelo://app?vid=906f7108-febf-40ba-b432-178e412912d2","ios":"levelo://app?vid=906f7108-febf-40ba-b432-178e412912d2"},"vehicle_type_id":"4","last_reported":1777326263,"current_range_meters":9200,"station_id":"ce4bh412rcd13ifvqdr0","pricing_plan_id":"cebpf4jnsgd1na2vs0mg"},{"bike_id":"3534e92c-7f9f-471d-a177-a0eabee4f338","system_id":"levelo_inurba_marseille","lat":43.337444,"lon":5.374475,"is_reserved":false,"is_disabled":false,"rental_uris":{"android":"levelo://app?vid=3534e92c-7f9f-471d-a177-a0eabee4f338","ios":"levelo://app?vid=3534e92c-7f9f-471d-a177-a0eabee4f338"},"vehicle_type_id":"4","last_reported":1777326263,"current_range_meters":9200,"station_id":"st_d6tc004otcvc738tfe70","pricing_plan_id":"cebpf4jnsgd1na2vs0mg"},{"bike_id":"ccc64b12-fba8-4953-9e4c-789c15629674","system_id":"levelo_inurba_marseille","lat":43.23208,"lon":5.35081,"is_reserved":false,"is_disabled":false,"rental_uris":{"android":"levelo://app?vid=ccc64b12-fba8-4953-9e4c-789c15629674","ios":"levelo://app?vid=ccc64b12-fba8-4953-9e4c-789c15629674"},"vehicle_type_id":"4","last_reported":1777326263,"current_range_meters":9200,"station_id":"","pricing_plan_id":"cebpf4jnsgd1na2vs0mg"},{"bike_id":"68ecf2f6-4ac5-45b8-9640-383e9e07a83c","system_id":"levelo_inurba_marseille","lat":43.24648,"lon":5.41558,"is_reserved":false,"is_disabled":false,"rental_uris":{"android":"levelo://app?vid=68ecf2f6-4ac5-45b8-9640-383e9e07a83c","ios":"levelo://app?vid=68ecf2f6-4ac5-45b8-9640-383e9e07a83c"},"vehicle_type_id":"4","last_reported":1777326263,"current_range_meters":9200,"station_id":"","pricing_plan_id":"cebpf4jnsgd1na2vs0mg"},{"bike_id":"e5a38a57-f482-4b24-aa4f-e4a7978b3480","system_id":"levelo_inurba_marseille","lat":43.30375,"lon":5.424905,"is_reserved":false,"is_disabled":false,"rental_uris":{"android":"levelo://app?vid=e5a38a57-f482-4b24-aa4f-e4a7978b3480","ios":"levelo://app?vid=e5a38a57-f482-4b24-aa4f-e4a7978b3480"},"vehicle_type_id":"4","last_reported":1777326263,"current_range_meters":9200,"station_id":"ce4bhoh2rcd13ifvqh6g","pricing_plan_id":"cebpf4jnsgd1na2vs0mg"},{"bike_id":"f13c1412-9987-4b53-aa5c-79a6ecb2ba2d","system_id":"levelo_inurba_marseille","lat":43.32348,"lon":5.36734,"is_reserved":false,"is_disabled":false,"rental_uris":{"android":"levelo://app?vid=f13c1412-9987-4b53-aa5c-79a6ecb2ba2d","ios":"levelo://app?vid=f13c1412-9987-4b53-aa5c-79a6ecb2ba2d"},"vehicle_type_id":"4","last_reported":1777326263,"current_range_meters":9200,"station_id":"ce4bhsh2rcd13ifvqi2g","pricing_plan_id":"cebpf4jnsgd1na2vs0mg"},{"bike_id":"a0306c08-5a06-4f9b-a597-306fad71f9a8","system_id":"levelo_inurba_marseille","lat":43.30856,"lon":5.39638,"is_reserved":false,"is_disabled":false,"rental_uris":{"android":"levelo://app?vid=a0306c08-5a06-4f9b-a597-306fad71f9a8","ios":"levelo://app?vid=a0306c08-5a06-4f9b-a597-306fad71f9a8"},"vehicle_type_id":"4","last_reported":1777326263,"current_range_meters":9200,"station_id":"","pricing_plan_id":"cebpf4jnsgd1na2vs0mg"},{"bike_id":"0c04dc5c-4ad7-4dcf-8291-8a64ac9feca1","system_id":"levelo_inurba_marseille","lat":43.29876,"lon":5.3624,"is_reserved":false,"is_disabled":false,"rental_uris":{"android":"levelo://app?vid=0c04dc5c-4ad7-4dcf-8291-8a64ac9feca1","ios":"levelo://app?vid=0c04dc5c-4ad7-4dcf-8291-8a64ac9feca1"},"vehicle_type_id":"4","last_reported":1777326263,"current_range_meters":9200,"station_id":"ce4bgpp2rcd13ifvqc3g","pricing_plan_id":"cebpf4jnsgd1na2vs0mg"},{"bike_id":"3bb3e953-7b28-4b68-a5fa-b232ff0c32b8","system_id":"levelo_inurba_marseille","lat":43.28883,"lon":5.39278,"is_reserved":false,"is_disabled":false,"rental_uris":{"android":"levelo://app?vid=3bb3e953-7b28-4b68-a5fa-b232ff0c32b8","ios":"levelo://app?vid=3bb3e953-7b28-4b68-a5fa-b232ff0c32b8"},"vehicle_type_id":"4","last_reported":1777326263,"current_range_meters":9200,"station_id":"ce4bh2p2rcd13ifvqdi0","pricing_plan_id":"cebpf4jnsgd1na2vs0mg"},{"bike_id":"efbe742c-385a-4fcb-bad4-5e74e09fe9ac","system_id":"levelo_inurba_marseille","lat":43.30736,"lon":5.42437,"is_reserved":false,"is_disabled":false,"rental_uris":{"android":"levelo://app?vid=efbe742c-385a-4fcb-bad4-5e74e09fe9ac","ios":"levelo://app?vid=efbe742c-385a-4fcb-bad4-5e74e09fe9ac"},"vehicle_type_id":"4","last_reported":1777326263,"current_range_meters":9200,"station_id":"st_cvj6ca6bvosntc0bfgr0","pricing_plan_id":"cebpf4jnsgd1na2vs0mg"},{"bike_id":"b9885613-2ab7-4bfa-8e62-7d197a46e827","system_id":"levelo_inurba_marseille","lat":43.25101,"lon":5.39504,"is_reserved":false,"is_disabled":false,"rental_uris":{"android":"levelo://app?vid=b9885613-2ab7-4bfa-8e62-7d197a46e827","ios":"levelo://app?vid=b9885613-2ab7-4bfa-8e62-7d197a46e827"},"vehicle_type_id":"4","last_reported":1777326263,"current_range_meters":9200,"station_id":"ce4bhm12rcd13ifvqgkg","pricing_plan_id":"cebpf4jnsgd1na2vs0mg"},{"bike_id":"819f824d-530b-4c9e-adb7-e3b742a5d8c9","system_id":"levelo_inurba_marseille","lat":43.30878,"lon":5.39627,"is_reserved":false,"is_disabled":false,"rental_uris":{"android":"levelo://app?vid=819f824d-530b-4c9e-adb7-e3b742a5d8c9","ios":"levelo://app?vid=819f824d-530b-4c9e-adb7-e3b742a5d8c9"},"vehicle_type_id":"4","last_reported":1777326263,"current_range_meters":9200,"station_id":"ce4bh012rcd13ifvqcv0","pricing_plan_id":"cebpf4jnsgd1na2vs0mg"},{"bike_id":"f8e44a3c-c653-40ee-b87d-9af094d24fac","system_id":"levelo_inurba_marseille","lat":43.30841,"lon":5.39955,"is_reserved":false,"is_disabled":false,"rental_uris":{"android":"levelo://app?vid=f8e44a3c-c653-40ee-b87d-9af094d24fac","ios":"levelo://app?vid=f8e44a3c-c653-40ee-b87d-9af094d24fac"},"vehicle_type_id":"4","last_reported":1777326263,"current_range_meters":9600,"station_id":"","pricing_plan_id":"cebpf4jnsgd1na2vs0mg"},{"bike_id":"4541a58b-5803-4873-8531-8182c7674429","system_id":"levelo_inurba_marseille","lat":43.28468,"lon":5.48416,"is_reserved":false,"is_disabled":false,"rental_uris":{"android":"levelo://app?vid=4541a58b-5803-4873-8531-8182c7674429","ios":"levelo://app?vid=4541a58b-5803-4873-8531-8182c7674429"},"vehicle_type_id":"4","last_reported":1777326263,"current_range_meters":9600,"station_id":"st_d3svhcjqgbts73a3dn0g","pricing_plan_id":"cebpf4jnsgd1na2vs0mg"},{"bike_id":"23b9edcd-305b-48b3-b42b-c5b2d1a2cdca","system_id":"levelo_inurba_marseille","lat":43.27025,"lon":5.38615,"is_reserved":false,"is_disabled":false,"rental_uris":{"android":"levelo://app?vid=23b9edcd-305b-48b3-b42b-c5b2d1a2cdca","ios":"levelo://app?vid=23b9edcd-305b-48b3-b42b-c5b2d1a2cdca"},"vehicle_type_id":"4","last_reported":1777326263,"current_range_meters":9600,"station_id":"","pricing_plan_id":"cebpf4jnsgd1na2vs0mg"},{"bike_id":"cc24bfdd-4ce5-4b2e-bbab-4ff8175109bf","system_id":"levelo_inurba_marseille","lat":43.30535,"lon":5.38429,"is_reserved":false,"is_disabled":false,"rental_uris":{"android":"levelo://app?vid=cc24bfdd-4ce5-4b2e-bbab-4ff8175109bf","ios":"levelo://app?vid=cc24bfdd-4ce5-4b2e-bbab-4ff8175109bf"},"vehicle_type_id":"4","last_reported":1777326263,"current_range_meters":9600,"station_id":"ce4bgg92rcd13ifvqb30","pricing_plan_id":"cebpf4jnsgd1na2vs0mg"},{"bike_id":"ff172d56-8aab-4ed6-8642-1d6513b37c2f","system_id":"levelo_inurba_marseille","lat":43.28751,"lon":5.40038,"is_reserved":false,"is_disabled":false,"rental_uris":{"android":"levelo://app?vid=ff172d56-8aab-4ed6-8642-1d6513b37c2f","ios":"levelo://app?vid=ff172d56-8aab-4ed6-8642-1d6513b37c2f"},"vehicle_type_id":"4","last_reported":1777326263,"current_range_meters":9600,"station_id":"ce4bho92rcd13ifvqh3g","pricing_plan_id":"cebpf4jnsgd1na2vs0mg"},{"bike_id":"bdc7799c-e449-46c3-8a73-d7daeb6d1ade","system_id":"levelo_inurba_marseille","lat":43.2566,"lon":5.419,"is_reserved":false,"is_disabled":false,"rental_uris":{"android":"levelo://app?vid=bdc7799c-e449-46c3-8a73-d7daeb6d1ade","ios":"levelo://app?vid=bdc7799c-e449-46c3-8a73-d7daeb6d1ade"},"vehicle_type_id":"4","last_reported":1777326263,"current_range_meters":9600,"station_id":"","pricing_plan_id":"cebpf4jnsgd1na2vs0mg"},{"bike_id":"84b7cd77-f30f-4fac-b8ad-2b060a6cd19b","system_id":"levelo_inurba_marseille","lat":43.29875,"lon":5.39676,"is_reserved":false,"is_disabled":false,"rental_uris":{"android":"levelo://app?vid=84b7cd77-f30f-4fac-b8ad-2b060a6cd19b","ios":"levelo://app?vid=84b7cd77-f30f-4fac-b8ad-2b060a6cd19b"},"vehicle_type_id":"4","last_reported":1777326263,"current_range_meters":9600,"station_id":"ce4bh0h2rcd13ifvqd50","pricing_plan_id":"cebpf4jnsgd1na2vs0mg"},{"bike_id":"77b8dc02-51af-44fd-a00a-7f7f390da885","system_id":"levelo_inurba_marseille","lat":43.28021,"lon":5.41661,"is_reserved":false,"is_disabled":false,"rental_uris":{"android":"levelo://app?vid=77b8dc02-51af-44fd-a00a-7f7f390da885","ios":"levelo://app?vid=77b8dc02-51af-44fd-a00a-7f7f390da885"},"vehicle_type_id":"4","last_reported":1777326263,"current_range_meters":9600,"station_id":"ce4bho12rcd13ifvqh1g","pricing_plan_id":"cebpf4jnsgd1na2vs0mg"},{"bike_id":"58531717-4481-454d-8b8d-39158b11632d","system_id":"levelo_inurba_marseille","lat":43.29189,"lon":5.35832,"is_reserved":false,"is_disabled":false,"rental_uris":{"android":"levelo://app?vid=58531717-4481-454d-8b8d-39158b11632d","ios":"levelo://app?vid=58531717-4481-454d-8b8d-39158b11632d"},"vehicle_type_id":"4","last_reported":1777326263,"current_range_meters":9600,"station_id":"ce4bhb12rcd13ifvqel0","pricing_plan_id":"cebpf4jnsgd1na2vs0mg"},{"bike_id":"afa4e258-7028-4336-abc2-ac6b2f10f6cc","system_id":"levelo_inurba_marseille","lat":43.24827,"lon":5.37446,"is_reserved":false,"is_disabled":false,"rental_uris":{"android":"levelo://app?vid=afa4e258-7028-4336-abc2-ac6b2f10f6cc","ios":"levelo://app?vid=afa4e258-7028-4336-abc2-ac6b2f10f6cc"},"vehicle_type_id":"4","last_reported":1777326263,"current_range_meters":9600,"station_id":"ce4bhgh2rcd13ifvqfb0","pricing_plan_id":"cebpf4jnsgd1na2vs0mg"},{"bike_id":"88cac7ca-0ff7-48b2-a605-b97cc08c4127","system_id":"levelo_inurba_marseille","lat":43.2802,"lon":5.36955,"is_reserved":false,"is_disabled":false,"rental_uris":{"android":"levelo://app?vid=88cac7ca-0ff7-48b2-a605-b97cc08c4127","ios":"levelo://app?vid=88cac7ca-0ff7-48b2-a605-b97cc08c4127"},"vehicle_type_id":"4","last_reported":1777326263,"current_range_meters":9600,"station_id":"ce4bha12rcd13ifvqef0","pricing_plan_id":"cebpf4jnsgd1na2vs0mg"},{"bike_id":"35a6cb4b-5d8c-4bef-b99f-fe238abc9fa9","system_id":"levelo_inurba_marseille","lat":43.21758,"lon":5.34588,"is_reserved":false,"is_disabled":false,"rental_uris":{"android":"levelo://app?vid=35a6cb4b-5d8c-4bef-b99f-fe238abc9fa9","ios":"levelo://app?vid=35a6cb4b-5d8c-4bef-b99f-fe238abc9fa9"},"vehicle_type_id":"4","last_reported":1777326263,"current_range_meters":9600,"station_id":"st_cvj6r9ubvosntc0bgbag","pricing_plan_id":"cebpf4jnsgd1na2vs0mg"},{"bike_id":"8dc1ef37-abdf-464a-a2a5-8795c083c97b","system_id":"levelo_inurba_marseille","lat":43.27671,"lon":5.35876,"is_reserved":false,"is_disabled":false,"rental_uris":{"android":"levelo://app?vid=8dc1ef37-abdf-464a-a2a5-8795c083c97b","ios":"levelo://app?vid=8dc1ef37-abdf-464a-a2a5-8795c083c97b"},"vehicle_type_id":"4","last_reported":1777326263,"current_range_meters":9600,"station_id":"","pricing_plan_id":"cebpf4jnsgd1na2vs0mg"},{"bike_id":"224c405b-b50d-4bc3-9c22-c22cf35f9c91","system_id":"levelo_inurba_marseille","lat":43.31116,"lon":5.37771,"is_reserved":false,"is_disabled":false,"rental_uris":{"android":"levelo://app?vid=224c405b-b50d-4bc3-9c22-c22cf35f9c91","ios":"levelo://app?vid=224c405b-b50d-4bc3-9c22-c22cf35f9c91"},"vehicle_type_id":"4","last_reported":1777326263,"current_range_meters":9600,"station_id":"ce4bgt92rcd13ifvqcg0","pricing_plan_id":"cebpf4jnsgd1na2vs0mg"},{"bike_id":"cd324fe1-c77e-46f1-9019-dce862ef312c","system_id":"levelo_inurba_marseille","lat":43.29205,"lon":5.39322,"is_reserved":false,"is_disabled":false,"rental_uris":{"android":"levelo://app?vid=cd324fe1-c77e-46f1-9019-dce862ef312c","ios":"levelo://app?vid=cd324fe1-c77e-46f1-9019-dce862ef312c"},"vehicle_type_id":"4","last_reported":1777326263,"current_range_meters":9600,"station_id":"ce4bh192rcd13ifvqdd0","pricing_plan_id":"cebpf4jnsgd1na2vs0mg"},{"bike_id":"c85d9b34-5f64-47d6-a9bc-54c7eee87ca4","system_id":"levelo_inurba_marseille","lat":43.2988,"lon":5.38909,"is_reserved":false,"is_disabled":false,"rental_uris":{"android":"levelo://app?vid=c85d9b34-5f64-47d6-a9bc-54c7eee87ca4","ios":"levelo://app?vid=c85d9b34-5f64-47d6-a9bc-54c7eee87ca4"},"vehicle_type_id":"4","last_reported":1777326263,"current_range_meters":9600,"station_id":"ce4bh392rcd13ifvqdl0","pricing_plan_id":"cebpf4jnsgd1na2vs0mg"},{"bike_id":"8ea405c4-474c-429d-a85a-32aebde99956","system_id":"levelo_inurba_marseille","lat":43.29743,"lon":5.35914,"is_reserved":false,"is_disabled":false,"rental_uris":{"android":"levelo://app?vid=8ea405c4-474c-429d-a85a-32aebde99956","ios":"levelo://app?vid=8ea405c4-474c-429d-a85a-32aebde99956"},"vehicle_type_id":"4","last_reported":1777326263,"current_range_meters":9600,"station_id":"","pricing_plan_id":"cebpf4jnsgd1na2vs0mg"},{"bike_id":"1a63ed86-01c3-463f-88a6-ebf0e2c92b7a","system_id":"levelo_inurba_marseille","lat":43.31181,"lon":5.36809,"is_reserved":false,"is_disabled":false,"rental_uris":{"android":"levelo://app?vid=1a63ed86-01c3-463f-88a6-ebf0e2c92b7a","ios":"levelo://app?vid=1a63ed86-01c3-463f-88a6-ebf0e2c92b7a"},"vehicle_type_id":"4","last_reported":1777326263,"current_range_meters":9600,"station_id":"","pricing_plan_id":"cebpf4jnsgd1na2vs0mg"},{"bike_id":"04efbdb6-9a20-4be6-b9d8-337fb14f5357","system_id":"levelo_inurba_marseille","lat":43.2991,"lon":5.39748,"is_reserved":false,"is_disabled":false,"rental_uris":{"android":"levelo://app?vid=04efbdb6-9a20-4be6-b9d8-337fb14f5357","ios":"levelo://app?vid=04efbdb6-9a20-4be6-b9d8-337fb14f5357"},"vehicle_type_id":"4","last_reported":1777326263,"current_range_meters":9600,"station_id":"","pricing_plan_id":"cebpf4jnsgd1na2vs0mg"},{"bike_id":"dbe62709-63cb-4ecb-b3bb-4e4694ad295e","system_id":"levelo_inurba_marseille","lat":43.31615,"lon":5.419,"is_reserved":false,"is_disabled":false,"rental_uris":{"android":"levelo://app?vid=dbe62709-63cb-4ecb-b3bb-4e4694ad295e","ios":"levelo://app?vid=dbe62709-63cb-4ecb-b3bb-4e4694ad295e"},"vehicle_type_id":"4","last_reported":1777326263,"current_range_meters":10000,"station_id":"","pricing_plan_id":"cebpf4jnsgd1na2vs0mg"},{"bike_id":"835b890c-8b59-44c6-9d4b-9eeecdc3eb6a","system_id":"levelo_inurba_marseille","lat":43.24313,"lon":5.39716,"is_reserved":false,"is_disabled":false,"rental_uris":{"android":"levelo://app?vid=835b890c-8b59-44c6-9d4b-9eeecdc3eb6a","ios":"levelo://app?vid=835b890c-8b59-44c6-9d4b-9eeecdc3eb6a"},"vehicle_type_id":"4","last_reported":1777326263,"current_range_meters":10000,"station_id":"","pricing_plan_id":"cebpf4jnsgd1na2vs0mg"},{"bike_id":"a17b2fbf-8606-49a8-ae8b-5fed72d5e1ba","system_id":"levelo_inurba_marseille","lat":43.23182,"lon":5.39983,"is_reserved":false,"is_disabled":false,"rental_uris":{"android":"levelo://app?vid=a17b2fbf-8606-49a8-ae8b-5fed72d5e1ba","ios":"levelo://app?vid=a17b2fbf-8606-49a8-ae8b-5fed72d5e1ba"},"vehicle_type_id":"4","last_reported":1777326263,"current_range_meters":10000,"station_id":"ce4bhn12rcd13ifvqgqg","pricing_plan_id":"cebpf4jnsgd1na2vs0mg"},{"bike_id":"b980ad61-7692-425f-99db-6e646088786e","system_id":"levelo_inurba_marseille","lat":43.29185,"lon":5.39337,"is_reserved":false,"is_disabled":false,"rental_uris":{"android":"levelo://app?vid=b980ad61-7692-425f-99db-6e646088786e","ios":"levelo://app?vid=b980ad61-7692-425f-99db-6e646088786e"},"vehicle_type_id":"4","last_reported":1777326263,"current_range_meters":10000,"station_id":"ce4bh192rcd13ifvqdd0","pricing_plan_id":"cebpf4jnsgd1na2vs0mg"},