{"last_updated":1774880414,"ttl":60,"version":"2.2","data":{"bikes":[{"bike_id":"9aaf8231-70bd-4c0f-9334-e020b4227cf4","system_id":"levelo_inurba_marseille","lat":43.2466,"lon":5.38882,"is_reserved":false,"is_disabled":false,"rental_uris":{"android":"levelo://app?vid=9aaf8231-70bd-4c0f-9334-e020b4227cf4","ios":"levelo://app?vid=9aaf8231-70bd-4c0f-9334-e020b4227cf4"},"vehicle_type_id":"4","last_reported":1774880415,"current_range_meters":2800,"station_id":"ce4bhg12rcd13ifvqf60","pricing_plan_id":"cebpf4jnsgd1na2vs0mg"},{"bike_id":"5a269ec1-9340-49c4-96c7-5d499e12231d","system_id":"levelo_inurba_marseille","lat":43.3046,"lon":5.37908,"is_reserved":false,"is_disabled":true,"rental_uris":{"android":"levelo://app?vid=5a269ec1-9340-49c4-96c7-5d499e12231d","ios":"levelo://app?vid=5a269ec1-9340-49c4-96c7-5d499e12231d"},"vehicle_type_id":"4","last_reported":1774880415,"current_range_meters":2800,"station_id":"ce4bgup2rcd13ifvqcn0","pricing_plan_id":"cebpf4jnsgd1na2vs0mg"},{"bike_id":"172803f2-09bc-4b50-8460-4442ac3a6063","system_id":"levelo_inurba_marseille","lat":43.29821,"lon":5.44051,"is_reserved":false,"is_disabled":false,"rental_uris":{"android":"levelo://app?vid=172803f2-09bc-4b50-8460-4442ac3a6063","ios":"levelo://app?vid=172803f2-09bc-4b50-8460-4442ac3a6063"},"vehicle_type_id":"4","last_reported":1774880415,"current_range_meters":2800,"station_id":"st_d3jp68qikq2c7381ktn0","pricing_plan_id":"cebpf4jnsgd1na2vs0mg"},{"bike_id":"06166c9d-84eb-4aff-b6ac-b8ce2e089a50","system_id":"levelo_inurba_marseille","lat":43.29609,"lon":5.37735,"is_reserved":false,"is_disabled":false,"rental_uris":{"android":"levelo://app?vid=06166c9d-84eb-4aff-b6ac-b8ce2e089a50","ios":"levelo://app?vid=06166c9d-84eb-4aff-b6ac-b8ce2e089a50"},"vehicle_type_id":"4","last_reported":1774880415,"current_range_meters":2800,"station_id":"ce4bgi92rcd13ifvqb90","pricing_plan_id":"cebpf4jnsgd1na2vs0mg"},{"bike_id":"4e7f29d2-357a-487f-8923-aaf06a756027","system_id":"levelo_inurba_marseille","lat":43.28477,"lon":5.4839,"is_reserved":false,"is_disabled":false,"rental_uris":{"android":"levelo://app?vid=4e7f29d2-357a-487f-8923-aaf06a756027","ios":"levelo://app?vid=4e7f29d2-357a-487f-8923-aaf06a756027"},"vehicle_type_id":"4","last_reported":1774880415,"current_range_meters":2800,"station_id":"","pricing_plan_id":"cebpf4jnsgd1na2vs0mg"},{"bike_id":"a71e8aa4-748e-4885-bc6a-7187b068da32","system_id":"levelo_inurba_marseille","lat":43.25748,"lon":5.38682,"is_reserved":false,"is_disabled":false,"rental_uris":{"android":"levelo://app?vid=a71e8aa4-748e-4885-bc6a-7187b068da32","ios":"levelo://app?vid=a71e8aa4-748e-4885-bc6a-7187b068da32"},"vehicle_type_id":"4","last_reported":1774880415,"current_range_meters":2800,"station_id":"","pricing_plan_id":"cebpf4jnsgd1na2vs0mg"},{"bike_id":"d5d8b5a6-4c71-4feb-ac49-e94e204b862d","system_id":"levelo_inurba_marseille","lat":43.23072,"lon":5.35487,"is_reserved":false,"is_disabled":false,"rental_uris":{"android":"levelo://app?vid=d5d8b5a6-4c71-4feb-ac49-e94e204b862d","ios":"levelo://app?vid=d5d8b5a6-4c71-4feb-ac49-e94e204b862d"},"vehicle_type_id":"4","last_reported":1774880415,"current_range_meters":2800,"station_id":"cpo3342slgdg3j2ifvpg","pricing_plan_id":"cebpf4jnsgd1na2vs0mg"},{"bike_id":"e4956c66-fba0-45d5-a7d2-90ca01f34637","system_id":"levelo_inurba_marseille","lat":43.21751,"lon":5.34604,"is_reserved":false,"is_disabled":false,"rental_uris":{"android":"levelo://app?vid=e4956c66-fba0-45d5-a7d2-90ca01f34637","ios":"levelo://app?vid=e4956c66-fba0-45d5-a7d2-90ca01f34637"},"vehicle_type_id":"4","last_reported":1774880415,"current_range_meters":3200,"station_id":"st_cvj6r9ubvosntc0bgbag","pricing_plan_id":"cebpf4jnsgd1na2vs0mg"},{"bike_id":"84c713b7-0b63-4bb8-a6ee-a50270e8a2cc","system_id":"levelo_inurba_marseille","lat":43.29531,"lon":5.38666,"is_reserved":false,"is_disabled":false,"rental_uris":{"android":"levelo://app?vid=84c713b7-0b63-4bb8-a6ee-a50270e8a2cc","ios":"levelo://app?vid=84c713b7-0b63-4bb8-a6ee-a50270e8a2cc"},"vehicle_type_id":"4","last_reported":1774880415,"current_range_meters":3200,"station_id":"","pricing_plan_id":"cebpf4jnsgd1na2vs0mg"},{"bike_id":"9a1e331d-1d6d-423e-90aa-210c6d33f5be","system_id":"levelo_inurba_marseille","lat":43.33269,"lon":5.37919,"is_reserved":false,"is_disabled":false,"rental_uris":{"android":"levelo://app?vid=9a1e331d-1d6d-423e-90aa-210c6d33f5be","ios":"levelo://app?vid=9a1e331d-1d6d-423e-90aa-210c6d33f5be"},"vehicle_type_id":"4","last_reported":1774880415,"current_range_meters":3200,"station_id":"","pricing_plan_id":"cebpf4jnsgd1na2vs0mg"},{"bike_id":"abbbcda3-bb9d-4c1e-8438-081df8f75c24","system_id":"levelo_inurba_marseille","lat":43.23779,"lon":5.3663,"is_reserved":false,"is_disabled":false,"rental_uris":{"android":"levelo://app?vid=abbbcda3-bb9d-4c1e-8438-081df8f75c24","ios":"levelo://app?vid=abbbcda3-bb9d-4c1e-8438-081df8f75c24"},"vehicle_type_id":"4","last_reported":1774880415,"current_range_meters":3200,"station_id":"st_d3nk18o9ro0c73en2l3g","pricing_plan_id":"cebpf4jnsgd1na2vs0mg"},{"bike_id":"4518d333-ae46-4f3f-82be-3d499b7bb7d5","system_id":"levelo_inurba_marseille","lat":43.23382,"lon":5.41217,"is_reserved":false,"is_disabled":true,"rental_uris":{"android":"levelo://app?vid=4518d333-ae46-4f3f-82be-3d499b7bb7d5","ios":"levelo://app?vid=4518d333-ae46-4f3f-82be-3d499b7bb7d5"},"vehicle_type_id":"4","last_reported":1774880415,"current_range_meters":3200,"station_id":"","pricing_plan_id":"cebpf4jnsgd1na2vs0mg"},{"bike_id":"28af8d2b-5bac-433a-894a-9e17123ae234","system_id":"levelo_inurba_marseille","lat":43.28533,"lon":5.44105,"is_reserved":false,"is_disabled":false,"rental_uris":{"android":"levelo://app?vid=28af8d2b-5bac-433a-894a-9e17123ae234","ios":"levelo://app?vid=28af8d2b-5bac-433a-894a-9e17123ae234"},"vehicle_type_id":"4","last_reported":1774880415,"current_range_meters":3200,"station_id":"st_d3j3df2ikq2c7380ej80","pricing_plan_id":"cebpf4jnsgd1na2vs0mg"},{"bike_id":"7fe440fc-9d02-41c1-9509-40882ca1412c","system_id":"levelo_inurba_marseille","lat":43.30971,"lon":5.39038,"is_reserved":false,"is_disabled":false,"rental_uris":{"android":"levelo://app?vid=7fe440fc-9d02-41c1-9509-40882ca1412c","ios":"levelo://app?vid=7fe440fc-9d02-41c1-9509-40882ca1412c"},"vehicle_type_id":"4","last_reported":1774880415,"current_range_meters":3200,"station_id":"ce4bgup2rcd13ifvqco0","pricing_plan_id":"cebpf4jnsgd1na2vs0mg"},{"bike_id":"803f4719-04a4-494d-919f-f0c60480260b","system_id":"levelo_inurba_marseille","lat":43.24812,"lon":5.37451,"is_reserved":false,"is_disabled":false,"rental_uris":{"android":"levelo://app?vid=803f4719-04a4-494d-919f-f0c60480260b","ios":"levelo://app?vid=803f4719-04a4-494d-919f-f0c60480260b"},"vehicle_type_id":"4","last_reported":1774880415,"current_range_meters":3600,"station_id":"ce4bhgh2rcd13ifvqfb0","pricing_plan_id":"cebpf4jnsgd1na2vs0mg"},{"bike_id":"af936f5b-1dac-47e9-8005-379d2e5d9c81","system_id":"levelo_inurba_marseille","lat":43.29029,"lon":5.38639,"is_reserved":false,"is_disabled":false,"rental_uris":{"android":"levelo://app?vid=af936f5b-1dac-47e9-8005-379d2e5d9c81","ios":"levelo://app?vid=af936f5b-1dac-47e9-8005-379d2e5d9c81"},"vehicle_type_id":"4","last_reported":1774880415,"current_range_meters":3600,"station_id":"ce4bh4p2rcd13ifvqe0g","pricing_plan_id":"cebpf4jnsgd1na2vs0mg"},{"bike_id":"3e86744e-c66a-4ea7-85ad-946d60b38d9b","system_id":"levelo_inurba_marseille","lat":43.24202,"lon":5.36383,"is_reserved":false,"is_disabled":false,"rental_uris":{"android":"levelo://app?vid=3e86744e-c66a-4ea7-85ad-946d60b38d9b","ios":"levelo://app?vid=3e86744e-c66a-4ea7-85ad-946d60b38d9b"},"vehicle_type_id":"4","last_reported":1774880415,"current_range_meters":3600,"station_id":"cpo36qri1sfpv3e86is0","pricing_plan_id":"cebpf4jnsgd1na2vs0mg"},{"bike_id":"b8ec0b9a-6353-4141-ad88-1aae2c10ae31","system_id":"levelo_inurba_marseille","lat":43.29077,"lon":5.43088,"is_reserved":false,"is_disabled":false,"rental_uris":{"android":"levelo://app?vid=b8ec0b9a-6353-4141-ad88-1aae2c10ae31","ios":"levelo://app?vid=b8ec0b9a-6353-4141-ad88-1aae2c10ae31"},"vehicle_type_id":"4","last_reported":1774880415,"current_range_meters":3600,"station_id":"","pricing_plan_id":"cebpf4jnsgd1na2vs0mg"},{"bike_id":"0beeb1a7-3c04-43a2-a7f8-69beb8048854","system_id":"levelo_inurba_marseille","lat":43.24671,"lon":5.38146,"is_reserved":false,"is_disabled":false,"rental_uris":{"android":"levelo://app?vid=0beeb1a7-3c04-43a2-a7f8-69beb8048854","ios":"levelo://app?vid=0beeb1a7-3c04-43a2-a7f8-69beb8048854"},"vehicle_type_id":"4","last_reported":1774880415,"current_range_meters":3600,"station_id":"ce4bhih2rcd13ifvqfr0","pricing_plan_id":"cebpf4jnsgd1na2vs0mg"},{"bike_id":"f3dc6696-e61b-4b66-bcd1-e83bcf1e9bcc","system_id":"levelo_inurba_marseille","lat":43.30545,"lon":5.37032,"is_reserved":false,"is_disabled":true,"rental_uris":{"android":"levelo://app?vid=f3dc6696-e61b-4b66-bcd1-e83bcf1e9bcc","ios":"levelo://app?vid=f3dc6696-e61b-4b66-bcd1-e83bcf1e9bcc"},"vehicle_type_id":"4","last_reported":1774880415,"current_range_meters":3600,"station_id":"","pricing_plan_id":"cebpf4jnsgd1na2vs0mg"},{"bike_id":"54af8ddd-273e-4e9b-aee9-9cddb19859c3","system_id":"levelo_inurba_marseille","lat":43.29624,"lon":5.37153,"is_reserved":false,"is_disabled":false,"rental_uris":{"android":"levelo://app?vid=54af8ddd-273e-4e9b-aee9-9cddb19859c3","ios":"levelo://app?vid=54af8ddd-273e-4e9b-aee9-9cddb19859c3"},"vehicle_type_id":"4","last_reported":1774880415,"current_range_meters":3600,"station_id":"ce4bgnh2rcd13ifvqc0g","pricing_plan_id":"cebpf4jnsgd1na2vs0mg"},{"bike_id":"c26843fb-9148-45ec-81b6-e740591c0e8e","system_id":"levelo_inurba_marseille","lat":43.28459,"lon":5.35873,"is_reserved":false,"is_disabled":false,"rental_uris":{"android":"levelo://app?vid=c26843fb-9148-45ec-81b6-e740591c0e8e","ios":"levelo://app?vid=c26843fb-9148-45ec-81b6-e740591c0e8e"},"vehicle_type_id":"4","last_reported":1774880415,"current_range_meters":3600,"station_id":"ce4bhah2rcd13ifvqei0","pricing_plan_id":"cebpf4jnsgd1na2vs0mg"},{"bike_id":"2e2f6f92-a6a4-45c0-97c3-957e3d8f2b5d","system_id":"levelo_inurba_marseille","lat":43.29362,"lon":5.38306,"is_reserved":false,"is_disabled":false,"rental_uris":{"android":"levelo://app?vid=2e2f6f92-a6a4-45c0-97c3-957e3d8f2b5d","ios":"levelo://app?vid=2e2f6f92-a6a4-45c0-97c3-957e3d8f2b5d"},"vehicle_type_id":"4","last_reported":1774880415,"current_range_meters":4000,"station_id":"","pricing_plan_id":"cebpf4jnsgd1na2vs0mg"},{"bike_id":"253445c7-b2cb-4d7c-83bf-028d7652daf3","system_id":"levelo_inurba_marseille","lat":43.28727,"lon":5.37898,"is_reserved":false,"is_disabled":false,"rental_uris":{"android":"levelo://app?vid=253445c7-b2cb-4d7c-83bf-028d7652daf3","ios":"levelo://app?vid=253445c7-b2cb-4d7c-83bf-028d7652daf3"},"vehicle_type_id":"4","last_reported":1774880415,"current_range_meters":4000,"station_id":"ce4bh9p2rcd13ifvqec0","pricing_plan_id":"cebpf4jnsgd1na2vs0mg"},{"bike_id":"cf4e3fa9-d978-402d-a7de-801baf166355","system_id":"levelo_inurba_marseille","lat":43.30215,"lon":5.3706,"is_reserved":false,"is_disabled":false,"rental_uris":{"android":"levelo://app?vid=cf4e3fa9-d978-402d-a7de-801baf166355","ios":"levelo://app?vid=cf4e3fa9-d978-402d-a7de-801baf166355"},"vehicle_type_id":"4","last_reported":1774880415,"current_range_meters":4000,"station_id":"","pricing_plan_id":"cebpf4jnsgd1na2vs0mg"},{"bike_id":"8916d31f-1fc3-4717-8555-fd4bb36fc5b6","system_id":"levelo_inurba_marseille","lat":43.30151,"lon":5.38788,"is_reserved":false,"is_disabled":false,"rental_uris":{"android":"levelo://app?vid=8916d31f-1fc3-4717-8555-fd4bb36fc5b6","ios":"levelo://app?vid=8916d31f-1fc3-4717-8555-fd4bb36fc5b6"},"vehicle_type_id":"4","last_reported":1774880415,"current_range_meters":4000,"station_id":"ce4bghh2rcd13ifvqb60","pricing_plan_id":"cebpf4jnsgd1na2vs0mg"},{"bike_id":"ce7a3b24-907c-4d1b-affa-a23d750b357b","system_id":"levelo_inurba_marseille","lat":43.28475,"lon":5.48394,"is_reserved":false,"is_disabled":false,"rental_uris":{"android":"levelo://app?vid=ce7a3b24-907c-4d1b-affa-a23d750b357b","ios":"levelo://app?vid=ce7a3b24-907c-4d1b-affa-a23d750b357b"},"vehicle_type_id":"4","last_reported":1774880415,"current_range_meters":4000,"station_id":"","pricing_plan_id":"cebpf4jnsgd1na2vs0mg"},{"bike_id":"e8cb18d8-1065-49ec-b1d9-217635f90878","system_id":"levelo_inurba_marseille","lat":43.32549,"lon":5.36566,"is_reserved":false,"is_disabled":false,"rental_uris":{"android":"levelo://app?vid=e8cb18d8-1065-49ec-b1d9-217635f90878","ios":"levelo://app?vid=e8cb18d8-1065-49ec-b1d9-217635f90878"},"vehicle_type_id":"4","last_reported":1774880415,"current_range_meters":4000,"station_id":"","pricing_plan_id":"cebpf4jnsgd1na2vs0mg"},{"bike_id":"0f076fe0-98bd-4b58-8e97-2560d747abf6","system_id":"levelo_inurba_marseille","lat":43.28707,"lon":5.39986,"is_reserved":false,"is_disabled":false,"rental_uris":{"android":"levelo://app?vid=0f076fe0-98bd-4b58-8e97-2560d747abf6","ios":"levelo://app?vid=0f076fe0-98bd-4b58-8e97-2560d747abf6"},"vehicle_type_id":"4","last_reported":1774880415,"current_range_meters":4000,"station_id":"ce4bho92rcd13ifvqh3g","pricing_plan_id":"cebpf4jnsgd1na2vs0mg"},{"bike_id":"02217484-4f32-44c2-b7a8-2ef38d2857a8","system_id":"levelo_inurba_marseille","lat":43.25839,"lon":5.39435,"is_reserved":false,"is_disabled":false,"rental_uris":{"android":"levelo://app?vid=02217484-4f32-44c2-b7a8-2ef38d2857a8","ios":"levelo://app?vid=02217484-4f32-44c2-b7a8-2ef38d2857a8"},"vehicle_type_id":"4","last_reported":1774880415,"current_range_meters":4000,"station_id":"ce4bhip2rcd13ifvqft0","pricing_plan_id":"cebpf4jnsgd1na2vs0mg"},{"bike_id":"f49642d7-0c88-4377-92f6-f3b93aee0876","system_id":"levelo_inurba_marseille","lat":43.29622,"lon":5.38068,"is_reserved":false,"is_disabled":true,"rental_uris":{"android":"levelo://app?vid=f49642d7-0c88-4377-92f6-f3b93aee0876","ios":"levelo://app?vid=f49642d7-0c88-4377-92f6-f3b93aee0876"},"vehicle_type_id":"4","last_reported":1774880415,"current_range_meters":4000,"station_id":"ce4bgl12rcd13ifvqbo0","pricing_plan_id":"cebpf4jnsgd1na2vs0mg"},{"bike_id":"692aff2c-b384-4b59-bd33-6493ff0f8f74","system_id":"levelo_inurba_marseille","lat":43.28446,"lon":5.37512,"is_reserved":false,"is_disabled":false,"rental_uris":{"android":"levelo://app?vid=692aff2c-b384-4b59-bd33-6493ff0f8f74","ios":"levelo://app?vid=692aff2c-b384-4b59-bd33-6493ff0f8f74"},"vehicle_type_id":"4","last_reported":1774880415,"current_range_meters":4000,"station_id":"","pricing_plan_id":"cebpf4jnsgd1na2vs0mg"},{"bike_id":"bf36ab35-5f13-4e41-bd5f-a5c4b49c8a03","system_id":"levelo_inurba_marseille","lat":43.25103,"lon":5.40321,"is_reserved":false,"is_disabled":false,"rental_uris":{"android":"levelo://app?vid=bf36ab35-5f13-4e41-bd5f-a5c4b49c8a03","ios":"levelo://app?vid=bf36ab35-5f13-4e41-bd5f-a5c4b49c8a03"},"vehicle_type_id":"4","last_reported":1774880415,"current_range_meters":4000,"station_id":"ce4bhlh2rcd13ifvqgig","pricing_plan_id":"cebpf4jnsgd1na2vs0mg"},{"bike_id":"e4ac35e4-8859-436b-9a81-4c436fcedcff","system_id":"levelo_inurba_marseille","lat":43.28548,"lon":5.44104,"is_reserved":false,"is_disabled":false,"rental_uris":{"android":"levelo://app?vid=e4ac35e4-8859-436b-9a81-4c436fcedcff","ios":"levelo://app?vid=e4ac35e4-8859-436b-9a81-4c436fcedcff"},"vehicle_type_id":"4","last_reported":1774880415,"current_range_meters":4400,"station_id":"st_d3j3df2ikq2c7380ej80","pricing_plan_id":"cebpf4jnsgd1na2vs0mg"},{"bike_id":"1a7743d3-a0ff-4bc2-b7df-bf848833efa5","system_id":"levelo_inurba_marseille","lat":43.28358,"lon":5.38103,"is_reserved":false,"is_disabled":false,"rental_uris":{"android":"levelo://app?vid=1a7743d3-a0ff-4bc2-b7df-bf848833efa5","ios":"levelo://app?vid=1a7743d3-a0ff-4bc2-b7df-bf848833efa5"},"vehicle_type_id":"4","last_reported":1774880415,"current_range_meters":4400,"station_id":"ce4bh412rcd13ifvqdr0","pricing_plan_id":"cebpf4jnsgd1na2vs0mg"},{"bike_id":"6a48f374-ea42-41e3-948f-cd3946181c87","system_id":"levelo_inurba_marseille","lat":43.29036,"lon":5.38652,"is_reserved":false,"is_disabled":false,"rental_uris":{"android":"levelo://app?vid=6a48f374-ea42-41e3-948f-cd3946181c87","ios":"levelo://app?vid=6a48f374-ea42-41e3-948f-cd3946181c87"},"vehicle_type_id":"4","last_reported":1774880415,"current_range_meters":4400,"station_id":"ce4bh4p2rcd13ifvqe0g","pricing_plan_id":"cebpf4jnsgd1na2vs0mg"},{"bike_id":"cee9b460-3960-4431-84b1-f885e5c227d3","system_id":"levelo_inurba_marseille","lat":43.26567,"lon":5.39008,"is_reserved":false,"is_disabled":false,"rental_uris":{"android":"levelo://app?vid=cee9b460-3960-4431-84b1-f885e5c227d3","ios":"levelo://app?vid=cee9b460-3960-4431-84b1-f885e5c227d3"},"vehicle_type_id":"4","last_reported":1774880415,"current_range_meters":4800,"station_id":"ce4bhe12rcd13ifvqf30","pricing_plan_id":"cebpf4jnsgd1na2vs0mg"},{"bike_id":"7ff5e948-0e94-496d-8b12-67c7c2774e67","system_id":"levelo_inurba_marseille","lat":43.2855,"lon":5.44116,"is_reserved":false,"is_disabled":false,"rental_uris":{"android":"levelo://app?vid=7ff5e948-0e94-496d-8b12-67c7c2774e67","ios":"levelo://app?vid=7ff5e948-0e94-496d-8b12-67c7c2774e67"},"vehicle_type_id":"4","last_reported":1774880415,"current_range_meters":4800,"station_id":"st_d3j3df2ikq2c7380ej80","pricing_plan_id":"cebpf4jnsgd1na2vs0mg"},{"bike_id":"dbc917c4-91bc-4425-9406-e24d33c16284","system_id":"levelo_inurba_marseille","lat":43.33555,"lon":5.37475,"is_reserved":false,"is_disabled":false,"rental_uris":{"android":"levelo://app?vid=dbc917c4-91bc-4425-9406-e24d33c16284","ios":"levelo://app?vid=dbc917c4-91bc-4425-9406-e24d33c16284"},"vehicle_type_id":"4","last_reported":1774880415,"current_range_meters":4800,"station_id":"st_d46tts09ee8s73dlu43g","pricing_plan_id":"cebpf4jnsgd1na2vs0mg"},{"bike_id":"e027651c-1b58-49be-8465-35e7c80537f6","system_id":"levelo_inurba_marseille","lat":43.2862,"lon":5.35098,"is_reserved":false,"is_disabled":false,"rental_uris":{"android":"levelo://app?vid=e027651c-1b58-49be-8465-35e7c80537f6","ios":"levelo://app?vid=e027651c-1b58-49be-8465-35e7c80537f6"},"vehicle_type_id":"4","last_reported":1774880415,"current_range_meters":4800,"station_id":"ce4bhch2rcd13ifvqeug","pricing_plan_id":"cebpf4jnsgd1na2vs0mg"},{"bike_id":"96b45d31-bef5-4eeb-8979-9268c25a6fe7","system_id":"levelo_inurba_marseille","lat":43.31218,"lon":5.36873,"is_reserved":false,"is_disabled":false,"rental_uris":{"android":"levelo://app?vid=96b45d31-bef5-4eeb-8979-9268c25a6fe7","ios":"levelo://app?vid=96b45d31-bef5-4eeb-8979-9268c25a6fe7"},"vehicle_type_id":"4","last_reported":1774880415,"current_range_meters":4800,"station_id":"ce4bgl92rcd13ifvqbq0","pricing_plan_id":"cebpf4jnsgd1na2vs0mg"},{"bike_id":"91eafa08-026f-40c5-b5de-6910a52e733d","system_id":"levelo_inurba_marseille","lat":43.24469,"lon":5.42541,"is_reserved":false,"is_disabled":false,"rental_uris":{"android":"levelo://app?vid=91eafa08-026f-40c5-b5de-6910a52e733d","ios":"levelo://app?vid=91eafa08-026f-40c5-b5de-6910a52e733d"},"vehicle_type_id":"4","last_reported":1774880415,"current_range_meters":4800,"station_id":"st_d4a3vfp97mjs738cd8kg","pricing_plan_id":"cebpf4jnsgd1na2vs0mg"},{"bike_id":"5bbb2a73-11b5-4f9d-a5b1-5b51513103cb","system_id":"levelo_inurba_marseille","lat":43.28619,"lon":5.35095,"is_reserved":false,"is_disabled":false,"rental_uris":{"android":"levelo://app?vid=5bbb2a73-11b5-4f9d-a5b1-5b51513103cb","ios":"levelo://app?vid=5bbb2a73-11b5-4f9d-a5b1-5b51513103cb"},"vehicle_type_id":"4","last_reported":1774880415,"current_range_meters":4800,"station_id":"ce4bhch2rcd13ifvqeug","pricing_plan_id":"cebpf4jnsgd1na2vs0mg"},{"bike_id":"a9163397-fa96-4554-8b2b-ef807a16af1a","system_id":"levelo_inurba_marseille","lat":43.23152,"lon":5.43725,"is_reserved":false,"is_disabled":false,"rental_uris":{"android":"levelo://app?vid=a9163397-fa96-4554-8b2b-ef807a16af1a","ios":"levelo://app?vid=a9163397-fa96-4554-8b2b-ef807a16af1a"},"vehicle_type_id":"4","last_reported":1774880415,"current_range_meters":4800,"station_id":"ce4bhmp2rcd13ifvqgog","pricing_plan_id":"cebpf4jnsgd1na2vs0mg"},{"bike_id":"9529ce32-1fde-4f9e-a37f-52f6da05fce3","system_id":"levelo_inurba_marseille","lat":43.29258,"lon":5.38433,"is_reserved":false,"is_disabled":false,"rental_uris":{"android":"levelo://app?vid=9529ce32-1fde-4f9e-a37f-52f6da05fce3","ios":"levelo://app?vid=9529ce32-1fde-4f9e-a37f-52f6da05fce3"},"vehicle_type_id":"4","last_reported":1774880415,"current_range_meters":4800,"station_id":"ce4bh692rcd13ifvqea0","pricing_plan_id":"cebpf4jnsgd1na2vs0mg"},{"bike_id":"2c82e074-f8a6-4070-8241-a51e6f652ae2","system_id":"levelo_inurba_marseille","lat":43.28205,"lon":5.39053,"is_reserved":false,"is_disabled":false,"rental_uris":{"android":"levelo://app?vid=2c82e074-f8a6-4070-8241-a51e6f652ae2","ios":"levelo://app?vid=2c82e074-f8a6-4070-8241-a51e6f652ae2"},"vehicle_type_id":"4","last_reported":1774880415,"current_range_meters":4800,"station_id":"ce4bhn92rcd13ifvqgsg","pricing_plan_id":"cebpf4jnsgd1na2vs0mg"},{"bike_id":"a5d10b1e-1dfd-460a-8a93-87e9504c4c4a","system_id":"levelo_inurba_marseille","lat":43.2884,"lon":5.39316,"is_reserved":false,"is_disabled":false,"rental_uris":{"android":"levelo://app?vid=a5d10b1e-1dfd-460a-8a93-87e9504c4c4a","ios":"levelo://app?vid=a5d10b1e-1dfd-460a-8a93-87e9504c4c4a"},"vehicle_type_id":"4","last_reported":1774880415,"current_range_meters":4800,"station_id":"ce4bh2p2rcd13ifvqdi0","pricing_plan_id":"cebpf4jnsgd1na2vs0mg"},{"bike_id":"dc79fefa-d554-4ea7-b0f6-dfb50b76419c","system_id":"levelo_inurba_marseille","lat":43.25827,"lon":5.3943,"is_reserved":false,"is_disabled":false,"rental_uris":{"android":"levelo://app?vid=dc79fefa-d554-4ea7-b0f6-dfb50b76419c","ios":"levelo://app?vid=dc79fefa-d554-4ea7-b0f6-dfb50b76419c"},"vehicle_type_id":"4","last_reported":1774880415,"current_range_meters":4800,"station_id":"ce4bhip2rcd13ifvqft0","pricing_plan_id":"cebpf4jnsgd1na2vs0mg"},{"bike_id":"88900821-ac79-4ee5-8fc9-e889474b5abd","system_id":"levelo_inurba_marseille","lat":43.28627,"lon":5.3507,"is_reserved":false,"is_disabled":false,"rental_uris":{"android":"levelo://app?vid=88900821-ac79-4ee5-8fc9-e889474b5abd","ios":"levelo://app?vid=88900821-ac79-4ee5-8fc9-e889474b5abd"},"vehicle_type_id":"4","last_reported":1774880415,"current_range_meters":5600,"station_id":"ce4bhch2rcd13ifvqeug","pricing_plan_id":"cebpf4jnsgd1na2vs0mg"},{"bike_id":"25935fd8-662d-438b-8a78-ddcbba487562","system_id":"levelo_inurba_marseille","lat":43.2961,"lon":5.37756,"is_reserved":false,"is_disabled":false,"rental_uris":{"android":"levelo://app?vid=25935fd8-662d-438b-8a78-ddcbba487562","ios":"levelo://app?vid=25935fd8-662d-438b-8a78-ddcbba487562"},"vehicle_type_id":"4","last_reported":1774880415,"current_range_meters":5600,"station_id":"ce4bgi92rcd13ifvqb90","pricing_plan_id":"cebpf4jnsgd1na2vs0mg"},{"bike_id":"5f95b65e-d716-4b38-8190-e6dc057b7ee7","system_id":"levelo_inurba_marseille","lat":43.24661,"lon":5.38155,"is_reserved":false,"is_disabled":false,"rental_uris":{"android":"levelo://app?vid=5f95b65e-d716-4b38-8190-e6dc057b7ee7","ios":"levelo://app?vid=5f95b65e-d716-4b38-8190-e6dc057b7ee7"},"vehicle_type_id":"4","last_reported":1774880415,"current_range_meters":5600,"station_id":"ce4bhih2rcd13ifvqfr0","pricing_plan_id":"cebpf4jnsgd1na2vs0mg"},{"bike_id":"f16b920d-4760-44fd-92f5-b6cf293c8515","system_id":"levelo_inurba_marseille","lat":43.23199,"lon":5.35543,"is_reserved":false,"is_disabled":false,"rental_uris":{"android":"levelo://app?vid=f16b920d-4760-44fd-92f5-b6cf293c8515","ios":"levelo://app?vid=f16b920d-4760-44fd-92f5-b6cf293c8515"},"vehicle_type_id":"4","last_reported":1774880415,"current_range_meters":5600,"station_id":"ce4bhu92rcd13ifvqi70","pricing_plan_id":"cebpf4jnsgd1na2vs0mg"},{"bike_id":"6bf2f77d-8f33-4b61-a21d-730e410e658a","system_id":"levelo_inurba_marseille","lat":43.23189,"lon":5.35562,"is_reserved":false,"is_disabled":false,"rental_uris":{"android":"levelo://app?vid=6bf2f77d-8f33-4b61-a21d-730e410e658a","ios":"levelo://app?vid=6bf2f77d-8f33-4b61-a21d-730e410e658a"},"vehicle_type_id":"4","last_reported":1774880415,"current_range_meters":5600,"station_id":"ce4bhu92rcd13ifvqi70","pricing_plan_id":"cebpf4jnsgd1na2vs0mg"},{"bike_id":"1f7507c0-1d57-4435-a922-7c4f891a00c7","system_id":"levelo_inurba_marseille","lat":43.28792,"lon":5.35994,"is_reserved":false,"is_disabled":false,"rental_uris":{"android":"levelo://app?vid=1f7507c0-1d57-4435-a922-7c4f891a00c7","ios":"levelo://app?vid=1f7507c0-1d57-4435-a922-7c4f891a00c7"},"vehicle_type_id":"4","last_reported":1774880415,"current_range_meters":5600,"station_id":"","pricing_plan_id":"cebpf4jnsgd1na2vs0mg"},{"bike_id":"93ae4cd9-d2b2-4330-880c-f54dcada6c82","system_id":"levelo_inurba_marseille","lat":43.30545,"lon":5.36526,"is_reserved":false,"is_disabled":false,"rental_uris":{"android":"levelo://app?vid=93ae4cd9-d2b2-4330-880c-f54dcada6c82","ios":"levelo://app?vid=93ae4cd9-d2b2-4330-880c-f54dcada6c82"},"vehicle_type_id":"4","last_reported":1774880415,"current_range_meters":5600,"station_id":"ce4bgs12rcd13ifvqcag","pricing_plan_id":"cebpf4jnsgd1na2vs0mg"},{"bike_id":"169f9719-2bae-4e0a-ac5f-971d68f00e3d","system_id":"levelo_inurba_marseille","lat":43.30609,"lon":5.36692,"is_reserved":false,"is_disabled":false,"rental_uris":{"android":"levelo://app?vid=169f9719-2bae-4e0a-ac5f-971d68f00e3d","ios":"levelo://app?vid=169f9719-2bae-4e0a-ac5f-971d68f00e3d"},"vehicle_type_id":"4","last_reported":1774880415,"current_range_meters":6000,"station_id":"","pricing_plan_id":"cebpf4jnsgd1na2vs0mg"},{"bike_id":"1faa5505-633d-42e0-8f1b-8299dbd5fe13","system_id":"levelo_inurba_marseille","lat":43.3055,"lon":5.36699,"is_reserved":false,"is_disabled":false,"rental_uris":{"android":"levelo://app?vid=1faa5505-633d-42e0-8f1b-8299dbd5fe13","ios":"levelo://app?vid=1faa5505-633d-42e0-8f1b-8299dbd5fe13"},"vehicle_type_id":"4","last_reported":1774880415,"current_range_meters":6000,"station_id":"ce4bgrp2rcd13ifvqc9g","pricing_plan_id":"cebpf4jnsgd1na2vs0mg"},{"bike_id":"0f21b971-f11a-49fc-b8bc-1c0e1b19361b","system_id":"levelo_inurba_marseille","lat":43.288502,"lon":5.39321,"is_reserved":false,"is_disabled":false,"rental_uris":{"android":"levelo://app?vid=0f21b971-f11a-49fc-b8bc-1c0e1b19361b","ios":"levelo://app?vid=0f21b971-f11a-49fc-b8bc-1c0e1b19361b"},"vehicle_type_id":"4","last_reported":1774880415,"current_range_meters":6000,"station_id":"","pricing_plan_id":"cebpf4jnsgd1na2vs0mg"},{"bike_id":"00e4b274-2ae9-49c6-9cc7-67ba165d5023","system_id":"levelo_inurba_marseille","lat":43.29022,"lon":5.38133,"is_reserved":false,"is_disabled":false,"rental_uris":{"android":"levelo://app?vid=00e4b274-2ae9-49c6-9cc7-67ba165d5023","ios":"levelo://app?vid=00e4b274-2ae9-49c6-9cc7-67ba165d5023"},"vehicle_type_id":"4","last_reported":1774880415,"current_range_meters":6000,"station_id":"ce4bh4p2rcd13ifvqe1g","pricing_plan_id":"cebpf4jnsgd1na2vs0mg"},{"bike_id":"2e473b1d-39dc-4686-a52e-6eb05e99392b","system_id":"levelo_inurba_marseille","lat":43.28421,"lon":5.34977,"is_reserved":false,"is_disabled":false,"rental_uris":{"android":"levelo://app?vid=2e473b1d-39dc-4686-a52e-6eb05e99392b","ios":"levelo://app?vid=2e473b1d-39dc-4686-a52e-6eb05e99392b"},"vehicle_type_id":"4","last_reported":1774880415,"current_range_meters":6000,"station_id":"ce4bhbh2rcd13ifvqepg","pricing_plan_id":"cebpf4jnsgd1na2vs0mg"},{"bike_id":"2817facb-256d-45c8-a9d8-1e2afd5bbff1","system_id":"levelo_inurba_marseille","lat":43.28945,"lon":5.36394,"is_reserved":false,"is_disabled":false,"rental_uris":{"android":"levelo://app?vid=2817facb-256d-45c8-a9d8-1e2afd5bbff1","ios":"levelo://app?vid=2817facb-256d-45c8-a9d8-1e2afd5bbff1"},"vehicle_type_id":"4","last_reported":1774880415,"current_range_meters":6000,"station_id":"ce4bhc92rcd13ifvqetg","pricing_plan_id":"cebpf4jnsgd1na2vs0mg"},{"bike_id":"c86d845d-a9a1-4000-acdd-408b4f74bb9d","system_id":"levelo_inurba_marseille","lat":43.31462,"lon":5.36551,"is_reserved":false,"is_disabled":false,"rental_uris":{"android":"levelo://app?vid=c86d845d-a9a1-4000-acdd-408b4f74bb9d","ios":"levelo://app?vid=c86d845d-a9a1-4000-acdd-408b4f74bb9d"},"vehicle_type_id":"4","last_reported":1774880415,"current_range_meters":6000,"station_id":"","pricing_plan_id":"cebpf4jnsgd1na2vs0mg"},{"bike_id":"722178ea-9ec4-4a61-a4f3-4a88327f65c6","system_id":"levelo_inurba_marseille","lat":43.32354,"lon":5.36739,"is_reserved":false,"is_disabled":false,"rental_uris":{"android":"levelo://app?vid=722178ea-9ec4-4a61-a4f3-4a88327f65c6","ios":"levelo://app?vid=722178ea-9ec4-4a61-a4f3-4a88327f65c6"},"vehicle_type_id":"4","last_reported":1774880415,"current_range_meters":6000,"station_id":"ce4bhsh2rcd13ifvqi2g","pricing_plan_id":"cebpf4jnsgd1na2vs0mg"},{"bike_id":"3aae17fa-7bc6-455a-960a-4ceda4265238","system_id":"levelo_inurba_marseille","lat":43.32364,"lon":5.36755,"is_reserved":false,"is_disabled":false,"rental_uris":{"android":"levelo://app?vid=3aae17fa-7bc6-455a-960a-4ceda4265238","ios":"levelo://app?vid=3aae17fa-7bc6-455a-960a-4ceda4265238"},"vehicle_type_id":"4","last_reported":1774880415,"current_range_meters":6000,"station_id":"ce4bhsh2rcd13ifvqi2g","pricing_plan_id":"cebpf4jnsgd1na2vs0mg"},{"bike_id":"67a5d5c7-3521-4623-a1ce-e8cf1f7867be","system_id":"levelo_inurba_marseille","lat":43.24464,"lon":5.42546,"is_reserved":false,"is_disabled":false,"rental_uris":{"android":"levelo://app?vid=67a5d5c7-3521-4623-a1ce-e8cf1f7867be","ios":"levelo://app?vid=67a5d5c7-3521-4623-a1ce-e8cf1f7867be"},"vehicle_type_id":"4","last_reported":1774880415,"current_range_meters":6000,"station_id":"st_d4a3vfp97mjs738cd8kg","pricing_plan_id":"cebpf4jnsgd1na2vs0mg"},{"bike_id":"fe6a12c1-cf8d-496e-b371-dddcb52201b6","system_id":"levelo_inurba_marseille","lat":43.25873,"lon":5.39902,"is_reserved":false,"is_disabled":false,"rental_uris":{"android":"levelo://app?vid=fe6a12c1-cf8d-496e-b371-dddcb52201b6","ios":"levelo://app?vid=fe6a12c1-cf8d-496e-b371-dddcb52201b6"},"vehicle_type_id":"4","last_reported":1774880415,"current_range_meters":6000,"station_id":"ce4bhl92rcd13ifvqghg","pricing_plan_id":"cebpf4jnsgd1na2vs0mg"},{"bike_id":"8489331d-8f95-4b36-a026-08bb56c1991f","system_id":"levelo_inurba_marseille","lat":43.23794,"lon":5.36616,"is_reserved":false,"is_disabled":false,"rental_uris":{"android":"levelo://app?vid=8489331d-8f95-4b36-a026-08bb56c1991f","ios":"levelo://app?vid=8489331d-8f95-4b36-a026-08bb56c1991f"},"vehicle_type_id":"4","last_reported":1774880415,"current_range_meters":6000,"station_id":"st_d3nk18o9ro0c73en2l3g","pricing_plan_id":"cebpf4jnsgd1na2vs0mg"},{"bike_id":"609a3f51-95d7-4bff-9fb9-07e7f142b6aa","system_id":"levelo_inurba_marseille","lat":43.29729,"lon":5.37031,"is_reserved":false,"is_disabled":false,"rental_uris":{"android":"levelo://app?vid=609a3f51-95d7-4bff-9fb9-07e7f142b6aa","ios":"levelo://app?vid=609a3f51-95d7-4bff-9fb9-07e7f142b6aa"},"vehicle_type_id":"4","last_reported":1774880415,"current_range_meters":6000,"station_id":"","pricing_plan_id":"cebpf4jnsgd1na2vs0mg"},{"bike_id":"1cd7a7e0-330d-4f3a-86bc-5d34f25bc7a5","system_id":"levelo_inurba_marseille","lat":43.23895,"lon":5.3745,"is_reserved":false,"is_disabled":false,"rental_uris":{"android":"levelo://app?vid=1cd7a7e0-330d-4f3a-86bc-5d34f25bc7a5","ios":"levelo://app?vid=1cd7a7e0-330d-4f3a-86bc-5d34f25bc7a5"},"vehicle_type_id":"4","last_reported":1774880415,"current_range_meters":6000,"station_id":"st_d6sm7csbq4hs73f8fpjg","pricing_plan_id":"cebpf4jnsgd1na2vs0mg"},{"bike_id":"26571ed5-db40-4d56-b790-4bdfa657369f","system_id":"levelo_inurba_marseille","lat":43.27212,"lon":5.3918,"is_reserved":false,"is_disabled":false,"rental_uris":{"android":"levelo://app?vid=26571ed5-db40-4d56-b790-4bdfa657369f","ios":"levelo://app?vid=26571ed5-db40-4d56-b790-4bdfa657369f"},"vehicle_type_id":"4","last_reported":1774880415,"current_range_meters":6000,"station_id":"ce4bhhp2rcd13ifvqfm0","pricing_plan_id":"cebpf4jnsgd1na2vs0mg"},{"bike_id":"053b79a5-7eb1-4b8b-8918-0b5613892845","system_id":"levelo_inurba_marseille","lat":43.26387,"lon":5.41076,"is_reserved":false,"is_disabled":false,"rental_uris":{"android":"levelo://app?vid=053b79a5-7eb1-4b8b-8918-0b5613892845","ios":"levelo://app?vid=053b79a5-7eb1-4b8b-8918-0b5613892845"},"vehicle_type_id":"4","last_reported":1774880415,"current_range_meters":6000,"station_id":"st_d4e5ca6na9uc73bfl5fg","pricing_plan_id":"cebpf4jnsgd1na2vs0mg"},{"bike_id":"54ba8736-089a-4123-be38-99d9e4fabbdc","system_id":"levelo_inurba_marseille","lat":43.24396,"lon":5.37063,"is_reserved":false,"is_disabled":false,"rental_uris":{"android":"levelo://app?vid=54ba8736-089a-4123-be38-99d9e4fabbdc","ios":"levelo://app?vid=54ba8736-089a-4123-be38-99d9e4fabbdc"},"vehicle_type_id":"4","last_reported":1774880415,"current_range_meters":6000,"station_id":"ce4bhhh2rcd13ifvqfk0","pricing_plan_id":"cebpf4jnsgd1na2vs0mg"},{"bike_id":"34f528ae-d358-4eff-85c8-f2efd8d77151","system_id":"levelo_inurba_marseille","lat":43.23885,"lon":5.37469,"is_reserved":false,"is_disabled":false,"rental_uris":{"android":"levelo://app?vid=34f528ae-d358-4eff-85c8-f2efd8d77151","ios":"levelo://app?vid=34f528ae-d358-4eff-85c8-f2efd8d77151"},"vehicle_type_id":"4","last_reported":1774880415,"current_range_meters":6000,"station_id":"st_d6sm7csbq4hs73f8fpjg","pricing_plan_id":"cebpf4jnsgd1na2vs0mg"},{"bike_id":"169c1d4a-c874-4f24-8a56-560e80814a9e","system_id":"levelo_inurba_marseille","lat":43.30957,"lon":5.39036,"is_reserved":false,"is_disabled":false,"rental_uris":{"android":"levelo://app?vid=169c1d4a-c874-4f24-8a56-560e80814a9e","ios":"levelo://app?vid=169c1d4a-c874-4f24-8a56-560e80814a9e"},"vehicle_type_id":"4","last_reported":1774880415,"current_range_meters":6400,"station_id":"ce4bgup2rcd13ifvqco0","pricing_plan_id":"cebpf4jnsgd1na2vs0mg"},{"bike_id":"64d579c7-b505-40db-90d3-6c19a539a7f5","system_id":"levelo_inurba_marseille","lat":43.31325,"lon":5.39688,"is_reserved":false,"is_disabled":false,"rental_uris":{"android":"levelo://app?vid=64d579c7-b505-40db-90d3-6c19a539a7f5","ios":"levelo://app?vid=64d579c7-b505-40db-90d3-6c19a539a7f5"},"vehicle_type_id":"4","last_reported":1774880415,"current_range_meters":6400,"station_id":"ce4bgvp2rcd13ifvqcu0","pricing_plan_id":"cebpf4jnsgd1na2vs0mg"},{"bike_id":"53f142a0-3955-4808-b4c6-e1524bc3e079","system_id":"levelo_inurba_marseille","lat":43.21201,"lon":5.35077,"is_reserved":false,"is_disabled":false,"rental_uris":{"android":"levelo://app?vid=53f142a0-3955-4808-b4c6-e1524bc3e079","ios":"levelo://app?vid=53f142a0-3955-4808-b4c6-e1524bc3e079"},"vehicle_type_id":"4","last_reported":1774880415,"current_range_meters":6400,"station_id":"st_cvj6sg6p6f1abm77japg","pricing_plan_id":"cebpf4jnsgd1na2vs0mg"},{"bike_id":"085c38b5-98f5-41a6-a385-8b6d28bfb2c1","system_id":"levelo_inurba_marseille","lat":43.22545,"lon":5.34826,"is_reserved":false,"is_disabled":false,"rental_uris":{"android":"levelo://app?vid=085c38b5-98f5-41a6-a385-8b6d28bfb2c1","ios":"levelo://app?vid=085c38b5-98f5-41a6-a385-8b6d28bfb2c1"},"vehicle_type_id":"4","last_reported":1774880415,"current_range_meters":6400,"station_id":"st_cvj5dfep6f1abm77gieg","pricing_plan_id":"cebpf4jnsgd1na2vs0mg"},{"bike_id":"e514b04b-9f50-4119-bfb2-7f19c4fc4c24","system_id":"levelo_inurba_marseille","lat":43.28163,"lon":5.40428,"is_reserved":false,"is_disabled":false,"rental_uris":{"android":"levelo://app?vid=e514b04b-9f50-4119-bfb2-7f19c4fc4c24","ios":"levelo://app?vid=e514b04b-9f50-4119-bfb2-7f19c4fc4c24"},"vehicle_type_id":"4","last_reported":1774880415,"current_range_meters":6400,"station_id":"","pricing_plan_id":"cebpf4jnsgd1na2vs0mg"},{"bike_id":"1dfcddc6-55fd-4bff-aeb3-95681c7e7ddf","system_id":"levelo_inurba_marseille","lat":43.31706,"lon":5.40452,"is_reserved":false,"is_disabled":false,"rental_uris":{"android":"levelo://app?vid=1dfcddc6-55fd-4bff-aeb3-95681c7e7ddf","ios":"levelo://app?vid=1dfcddc6-55fd-4bff-aeb3-95681c7e7ddf"},"vehicle_type_id":"4","last_reported":1774880415,"current_range_meters":6400,"station_id":"ce4bh012rcd13ifvqd00","pricing_plan_id":"cebpf4jnsgd1na2vs0mg"},{"bike_id":"b90caad3-7060-4253-981e-42cd0d5fd64b","system_id":"levelo_inurba_marseille","lat":43.2847,"lon":5.48412,"is_reserved":false,"is_disabled":false,"rental_uris":{"android":"levelo://app?vid=b90caad3-7060-4253-981e-42cd0d5fd64b","ios":"levelo://app?vid=b90caad3-7060-4253-981e-42cd0d5fd64b"},"vehicle_type_id":"4","last_reported":1774880415,"current_range_meters":6400,"station_id":"st_d3svhcjqgbts73a3dn0g","pricing_plan_id":"cebpf4jnsgd1na2vs0mg"},{"bike_id":"00f8160b-5fa7-45df-ac08-a473dd13e2f4","system_id":"levelo_inurba_marseille","lat":43.29553,"lon":5.38535,"is_reserved":false,"is_disabled":false,"rental_uris":{"android":"levelo://app?vid=00f8160b-5fa7-45df-ac08-a473dd13e2f4","ios":"levelo://app?vid=00f8160b-5fa7-45df-ac08-a473dd13e2f4"},"vehicle_type_id":"4","last_reported":1774880415,"current_range_meters":6400,"station_id":"ce4bgih2rcd13ifvqba0","pricing_plan_id":"cebpf4jnsgd1na2vs0mg"},{"bike_id":"3e56278a-47c3-4d27-b2a7-b0223efdc25d","system_id":"levelo_inurba_marseille","lat":43.28413,"lon":5.3498,"is_reserved":false,"is_disabled":false,"rental_uris":{"android":"levelo://app?vid=3e56278a-47c3-4d27-b2a7-b0223efdc25d","ios":"levelo://app?vid=3e56278a-47c3-4d27-b2a7-b0223efdc25d"},"vehicle_type_id":"4","last_reported":1774880415,"current_range_meters":6400,"station_id":"ce4bhbh2rcd13ifvqepg","pricing_plan_id":"cebpf4jnsgd1na2vs0mg"},{"bike_id":"119cad68-1815-4565-81d1-f194b3bbca80","system_id":"levelo_inurba_marseille","lat":43.30341,"lon":5.36902,"is_reserved":false,"is_disabled":false,"rental_uris":{"android":"levelo://app?vid=119cad68-1815-4565-81d1-f194b3bbca80","ios":"levelo://app?vid=119cad68-1815-4565-81d1-f194b3bbca80"},"vehicle_type_id":"4","last_reported":1774880415,"current_range_meters":6400,"station_id":"ce4bgqh2rcd13ifvqc5g","pricing_plan_id":"cebpf4jnsgd1na2vs0mg"},{"bike_id":"fe448dd6-41e6-4316-8322-1ef9307a87c2","system_id":"levelo_inurba_marseille","lat":43.23898,"lon":5.3745,"is_reserved":false,"is_disabled":true,"rental_uris":{"android":"levelo://app?vid=fe448dd6-41e6-4316-8322-1ef9307a87c2","ios":"levelo://app?vid=fe448dd6-41e6-4316-8322-1ef9307a87c2"},"vehicle_type_id":"4","last_reported":1774880415,"current_range_meters":6400,"station_id":"st_d6sm7csbq4hs73f8fpjg","pricing_plan_id":"cebpf4jnsgd1na2vs0mg"},{"bike_id":"fe403204-bde1-42fb-bd59-5bc984e17331","system_id":"levelo_inurba_marseille","lat":43.2316,"lon":5.43697,"is_reserved":false,"is_disabled":false,"rental_uris":{"android":"levelo://app?vid=fe403204-bde1-42fb-bd59-5bc984e17331","ios":"levelo://app?vid=fe403204-bde1-42fb-bd59-5bc984e17331"},"vehicle_type_id":"4","last_reported":1774880415,"current_range_meters":6400,"station_id":"ce4bhmp2rcd13ifvqgog","pricing_plan_id":"cebpf4jnsgd1na2vs0mg"},{"bike_id":"d702f9f6-8c8f-4dee-8b59-b578a0195d00","system_id":"levelo_inurba_marseille","lat":43.31174,"lon":5.3683,"is_reserved":false,"is_disabled":false,"rental_uris":{"android":"levelo://app?vid=d702f9f6-8c8f-4dee-8b59-b578a0195d00","ios":"levelo://app?vid=d702f9f6-8c8f-4dee-8b59-b578a0195d00"},"vehicle_type_id":"4","last_reported":1774880415,"current_range_meters":6400,"station_id":"","pricing_plan_id":"cebpf4jnsgd1na2vs0mg"},{"bike_id":"172d68dd-1896-43d5-b04a-1d445e23d465","system_id":"levelo_inurba_marseille","lat":43.31038,"lon":5.37141,"is_reserved":false,"is_disabled":false,"rental_uris":{"android":"levelo://app?vid=172d68dd-1896-43d5-b04a-1d445e23d465","ios":"levelo://app?vid=172d68dd-1896-43d5-b04a-1d445e23d465"},"vehicle_type_id":"4","last_reported":1774880415,"current_range_meters":6800,"station_id":"st_d4kl2rp97mjs73e7tdfg","pricing_plan_id":"cebpf4jnsgd1na2vs0mg"},{"bike_id":"44182f06-c1df-47a2-b158-e314a4dcf8ae","system_id":"levelo_inurba_marseille","lat":43.29286,"lon":5.4013,"is_reserved":false,"is_disabled":false,"rental_uris":{"android":"levelo://app?vid=44182f06-c1df-47a2-b158-e314a4dcf8ae","ios":"levelo://app?vid=44182f06-c1df-47a2-b158-e314a4dcf8ae"},"vehicle_type_id":"4","last_reported":1774880415,"current_range_meters":6800,"station_id":"ce4bh312rcd13ifvqdk0","pricing_plan_id":"cebpf4jnsgd1na2vs0mg"},{"bike_id":"a5b70ce0-33a9-4ec6-a8ee-730ff0ef7a5a","system_id":"levelo_inurba_marseille","lat":43.30557,"lon":5.36533,"is_reserved":false,"is_disabled":false,"rental_uris":{"android":"levelo://app?vid=a5b70ce0-33a9-4ec6-a8ee-730ff0ef7a5a","ios":"levelo://app?vid=a5b70ce0-33a9-4ec6-a8ee-730ff0ef7a5a"},"vehicle_type_id":"4","last_reported":1774880415,"current_range_meters":6800,"station_id":"ce4bgs12rcd13ifvqcag","pricing_plan_id":"cebpf4jnsgd1na2vs0mg"},{"bike_id":"7ea68384-f694-4a28-85a7-1a4829b38dc5","system_id":"levelo_inurba_marseille","lat":43.28506,"lon":5.44084,"is_reserved":false,"is_disabled":false,"rental_uris":{"android":"levelo://app?vid=7ea68384-f694-4a28-85a7-1a4829b38dc5","ios":"levelo://app?vid=7ea68384-f694-4a28-85a7-1a4829b38dc5"},"vehicle_type_id":"4","last_reported":1774880415,"current_range_meters":6800,"station_id":"st_d3j3df2ikq2c7380ej80","pricing_plan_id":"cebpf4jnsgd1na2vs0mg"},{"bike_id":"14e7a081-448d-429e-8742-53ba000d00ec","system_id":"levelo_inurba_marseille","lat":43.23791,"lon":5.36625,"is_reserved":false,"is_disabled":false,"rental_uris":{"android":"levelo://app?vid=14e7a081-448d-429e-8742-53ba000d00ec","ios":"levelo://app?vid=14e7a081-448d-429e-8742-53ba000d00ec"},"vehicle_type_id":"4","last_reported":1774880415,"current_range_meters":6800,"station_id":"st_d3nk18o9ro0c73en2l3g","pricing_plan_id":"cebpf4jnsgd1na2vs0mg"},{"bike_id":"9946de1a-4931-4637-a85a-c3571b2ee6c5","system_id":"levelo_inurba_marseille","lat":43.21747,"lon":5.34607,"is_reserved":false,"is_disabled":false,"rental_uris":{"android":"levelo://app?vid=9946de1a-4931-4637-a85a-c3571b2ee6c5","ios":"levelo://app?vid=9946de1a-4931-4637-a85a-c3571b2ee6c5"},"vehicle_type_id":"4","last_reported":1774880415,"current_range_meters":6800,"station_id":"st_cvj6r9ubvosntc0bgbag","pricing_plan_id":"cebpf4jnsgd1na2vs0mg"},{"bike_id":"1b34016d-29d9-454b-85e2-ebed534db640","system_id":"levelo_inurba_marseille","lat":43.27806,"lon":5.40722,"is_reserved":false,"is_disabled":false,"rental_uris":{"android":"levelo://app?vid=1b34016d-29d9-454b-85e2-ebed534db640","ios":"levelo://app?vid=1b34016d-29d9-454b-85e2-ebed534db640"},"vehicle_type_id":"4","last_reported":1774880415,"current_range_meters":6800,"station_id":"ce4bhnh2rcd13ifvqgtg","pricing_plan_id":"cebpf4jnsgd1na2vs0mg"},{"bike_id":"29049f9a-cda2-426d-9e6c-1d886e0b8215","system_id":"levelo_inurba_marseille","lat":43.29174,"lon":5.42755,"is_reserved":false,"is_disabled":false,"rental_uris":{"android":"levelo://app?vid=29049f9a-cda2-426d-9e6c-1d886e0b8215","ios":"levelo://app?vid=29049f9a-cda2-426d-9e6c-1d886e0b8215"},"vehicle_type_id":"4","last_reported":1774880415,"current_range_meters":6800,"station_id":"","pricing_plan_id":"cebpf4jnsgd1na2vs0mg"},{"bike_id":"4f90db87-6a00-40ec-8f5b-10ec598aff9b","system_id":"levelo_inurba_marseille","lat":43.2803,"lon":5.36951,"is_reserved":false,"is_disabled":false,"rental_uris":{"android":"levelo://app?vid=4f90db87-6a00-40ec-8f5b-10ec598aff9b","ios":"levelo://app?vid=4f90db87-6a00-40ec-8f5b-10ec598aff9b"},"vehicle_type_id":"4","last_reported":1774880415,"current_range_meters":6800,"station_id":"ce4bha12rcd13ifvqef0","pricing_plan_id":"cebpf4jnsgd1na2vs0mg"},{"bike_id":"bed085cd-e643-4cf8-a83c-4e3f37218df7","system_id":"levelo_inurba_marseille","lat":43.23127,"lon":5.40256,"is_reserved":false,"is_disabled":false,"rental_uris":{"android":"levelo://app?vid=bed085cd-e643-4cf8-a83c-4e3f37218df7","ios":"levelo://app?vid=bed085cd-e643-4cf8-a83c-4e3f37218df7"},"vehicle_type_id":"4","last_reported":1774880415,"current_range_meters":6800,"station_id":"","pricing_plan_id":"cebpf4jnsgd1na2vs0mg"},{"bike_id":"b943011c-538b-4fbc-a053-990f016462cd","system_id":"levelo_inurba_marseille","lat":43.27511,"lon":5.42446,"is_reserved":false,"is_disabled":false,"rental_uris":{"android":"levelo://app?vid=b943011c-538b-4fbc-a053-990f016462cd","ios":"levelo://app?vid=b943011c-538b-4fbc-a053-990f016462cd"},"vehicle_type_id":"4","last_reported":1774880415,"current_range_meters":6800,"station_id":"ce4bhn92rcd13ifvqgrg","pricing_plan_id":"cebpf4jnsgd1na2vs0mg"},{"bike_id":"86db0319-41a7-4493-adee-c184becfe762","system_id":"levelo_inurba_marseille","lat":43.28897,"lon":5.45681,"is_reserved":false,"is_disabled":false,"rental_uris":{"android":"levelo://app?vid=86db0319-41a7-4493-adee-c184becfe762","ios":"levelo://app?vid=86db0319-41a7-4493-adee-c184becfe762"},"vehicle_type_id":"4","last_reported":1774880415,"current_range_meters":6800,"station_id":"","pricing_plan_id":"cebpf4jnsgd1na2vs0mg"},{"bike_id":"8a93cc46-5ede-483d-b379-80f53b8301af","system_id":"levelo_inurba_marseille","lat":43.24543,"lon":5.39526,"is_reserved":false,"is_disabled":false,"rental_uris":{"android":"levelo://app?vid=8a93cc46-5ede-483d-b379-80f53b8301af","ios":"levelo://app?vid=8a93cc46-5ede-483d-b379-80f53b8301af"},"vehicle_type_id":"4","last_reported":1774880415,"current_range_meters":6800,"station_id":"ce4bhlp2rcd13ifvqgjg","pricing_plan_id":"cebpf4jnsgd1na2vs0mg"},{"bike_id":"aba4a31a-18d2-4cad-bb8c-30bd606f5c4c","system_id":"levelo_inurba_marseille","lat":43.24162,"lon":5.36389,"is_reserved":false,"is_disabled":false,"rental_uris":{"android":"levelo://app?vid=aba4a31a-18d2-4cad-bb8c-30bd606f5c4c","ios":"levelo://app?vid=aba4a31a-18d2-4cad-bb8c-30bd606f5c4c"},"vehicle_type_id":"4","last_reported":1774880415,"current_range_meters":6800,"station_id":"cpo36qri1sfpv3e86is0","pricing_plan_id":"cebpf4jnsgd1na2vs0mg"},{"bike_id":"c0eec902-074b-4a18-af47-ff048b653a5e","system_id":"levelo_inurba_marseille","lat":43.28482,"lon":5.48391,"is_reserved":false,"is_disabled":false,"rental_uris":{"android":"levelo://app?vid=c0eec902-074b-4a18-af47-ff048b653a5e","ios":"levelo://app?vid=c0eec902-074b-4a18-af47-ff048b653a5e"},"vehicle_type_id":"4","last_reported":1774880415,"current_range_meters":7200,"station_id":"","pricing_plan_id":"cebpf4jnsgd1na2vs0mg"},{"bike_id":"fa2139d7-56b5-4664-870b-94753042ac1d","system_id":"levelo_inurba_marseille","lat":43.21182,"lon":5.35102,"is_reserved":false,"is_disabled":false,"rental_uris":{"android":"levelo://app?vid=fa2139d7-56b5-4664-870b-94753042ac1d","ios":"levelo://app?vid=fa2139d7-56b5-4664-870b-94753042ac1d"},"vehicle_type_id":"4","last_reported":1774880415,"current_range_meters":7200,"station_id":"st_cvj6sg6p6f1abm77japg","pricing_plan_id":"cebpf4jnsgd1na2vs0mg"},{"bike_id":"d04f709c-d702-4a3e-8fe6-e62255574b5f","system_id":"levelo_inurba_marseille","lat":43.3015,"lon":5.38096,"is_reserved":false,"is_disabled":false,"rental_uris":{"android":"levelo://app?vid=d04f709c-d702-4a3e-8fe6-e62255574b5f","ios":"levelo://app?vid=d04f709c-d702-4a3e-8fe6-e62255574b5f"},"vehicle_type_id":"4","last_reported":1774880415,"current_range_meters":7200,"station_id":"ce4bgjp2rcd13ifvqbh0","pricing_plan_id":"cebpf4jnsgd1na2vs0mg"},{"bike_id":"ccb4a9c4-3dcf-4760-a40f-88641a1476d6","system_id":"levelo_inurba_marseille","lat":43.29856,"lon":5.39727,"is_reserved":false,"is_disabled":false,"rental_uris":{"android":"levelo://app?vid=ccb4a9c4-3dcf-4760-a40f-88641a1476d6","ios":"levelo://app?vid=ccb4a9c4-3dcf-4760-a40f-88641a1476d6"},"vehicle_type_id":"4","last_reported":1774880415,"current_range_meters":7200,"station_id":"ce4bh0h2rcd13ifvqd50","pricing_plan_id":"cebpf4jnsgd1na2vs0mg"},{"bike_id":"5966ab47-3cda-4e62-bd42-ae4a9709b9b1","system_id":"levelo_inurba_marseille","lat":43.26693,"lon":5.38264,"is_reserved":false,"is_disabled":false,"rental_uris":{"android":"levelo://app?vid=5966ab47-3cda-4e62-bd42-ae4a9709b9b1","ios":"levelo://app?vid=5966ab47-3cda-4e62-bd42-ae4a9709b9b1"},"vehicle_type_id":"4","last_reported":1774880415,"current_range_meters":7200,"station_id":"ce4bhg92rcd13ifvqf90","pricing_plan_id":"cebpf4jnsgd1na2vs0mg"},{"bike_id":"97ce69f1-7181-466d-9bc2-d076363b5f27","system_id":"levelo_inurba_marseille","lat":43.24168,"lon":5.36393,"is_reserved":false,"is_disabled":false,"rental_uris":{"android":"levelo://app?vid=97ce69f1-7181-466d-9bc2-d076363b5f27","ios":"levelo://app?vid=97ce69f1-7181-466d-9bc2-d076363b5f27"},"vehicle_type_id":"4","last_reported":1774880415,"current_range_meters":7200,"station_id":"cpo36qri1sfpv3e86is0","pricing_plan_id":"cebpf4jnsgd1na2vs0mg"},{"bike_id":"131a88d5-b5b2-4532-b511-14fa6f230522","system_id":"levelo_inurba_marseille","lat":43.33734,"lon":5.39187,"is_reserved":false,"is_disabled":false,"rental_uris":{"android":"levelo://app?vid=131a88d5-b5b2-4532-b511-14fa6f230522","ios":"levelo://app?vid=131a88d5-b5b2-4532-b511-14fa6f230522"},"vehicle_type_id":"4","last_reported":1774880415,"current_range_meters":7200,"station_id":"ce4bhr92rcd13ifvqhsg","pricing_plan_id":"cebpf4jnsgd1na2vs0mg"},{"bike_id":"1227dc61-c55b-43f3-83a0-014c73aacab8","system_id":"levelo_inurba_marseille","lat":43.23974,"lon":5.36611,"is_reserved":false,"is_disabled":false,"rental_uris":{"android":"levelo://app?vid=1227dc61-c55b-43f3-83a0-014c73aacab8","ios":"levelo://app?vid=1227dc61-c55b-43f3-83a0-014c73aacab8"},"vehicle_type_id":"4","last_reported":1774880415,"current_range_meters":7200,"station_id":"ce4bhi12rcd13ifvqfp0","pricing_plan_id":"cebpf4jnsgd1na2vs0mg"},{"bike_id":"53ab5b1d-cae9-45a1-acf9-cea4f7b6ff95","system_id":"levelo_inurba_marseille","lat":43.23066,"lon":5.35485,"is_reserved":false,"is_disabled":false,"rental_uris":{"android":"levelo://app?vid=53ab5b1d-cae9-45a1-acf9-cea4f7b6ff95","ios":"levelo://app?vid=53ab5b1d-cae9-45a1-acf9-cea4f7b6ff95"},"vehicle_type_id":"4","last_reported":1774880415,"current_range_meters":7200,"station_id":"cpo3342slgdg3j2ifvpg","pricing_plan_id":"cebpf4jnsgd1na2vs0mg"},{"bike_id":"3ac0129c-9c97-4af6-b6ad-c66c14a5c227","system_id":"levelo_inurba_marseille","lat":43.28474,"lon":5.48389,"is_reserved":false,"is_disabled":false,"rental_uris":{"android":"levelo://app?vid=3ac0129c-9c97-4af6-b6ad-c66c14a5c227","ios":"levelo://app?vid=3ac0129c-9c97-4af6-b6ad-c66c14a5c227"},"vehicle_type_id":"4","last_reported":1774880415,"current_range_meters":7200,"station_id":"","pricing_plan_id":"cebpf4jnsgd1na2vs0mg"},{"bike_id":"7f146765-ecec-4e99-af2e-38aaff0f5b9c","system_id":"levelo_inurba_marseille","lat":43.28967,"lon":5.37839,"is_reserved":false,"is_disabled":false,"rental_uris":{"android":"levelo://app?vid=7f146765-ecec-4e99-af2e-38aaff0f5b9c","ios":"levelo://app?vid=7f146765-ecec-4e99-af2e-38aaff0f5b9c"},"vehicle_type_id":"4","last_reported":1774880415,"current_range_meters":7200,"station_id":"ce4bh9p2rcd13ifvqed0","pricing_plan_id":"cebpf4jnsgd1na2vs0mg"},{"bike_id":"e589261b-c8a2-4282-a7a8-0cffe840d18a","system_id":"levelo_inurba_marseille","lat":43.30146,"lon":5.38083,"is_reserved":false,"is_disabled":false,"rental_uris":{"android":"levelo://app?vid=e589261b-c8a2-4282-a7a8-0cffe840d18a","ios":"levelo://app?vid=e589261b-c8a2-4282-a7a8-0cffe840d18a"},"vehicle_type_id":"4","last_reported":1774880415,"current_range_meters":7200,"station_id":"ce4bgjp2rcd13ifvqbh0","pricing_plan_id":"cebpf4jnsgd1na2vs0mg"},{"bike_id":"c0d049d2-9884-47fd-b25d-2edd239d3046","system_id":"levelo_inurba_marseille","lat":43.2853,"lon":5.44104,"is_reserved":false,"is_disabled":false,"rental_uris":{"android":"levelo://app?vid=c0d049d2-9884-47fd-b25d-2edd239d3046","ios":"levelo://app?vid=c0d049d2-9884-47fd-b25d-2edd239d3046"},"vehicle_type_id":"4","last_reported":1774880415,"current_range_meters":7200,"station_id":"st_d3j3df2ikq2c7380ej80","pricing_plan_id":"cebpf4jnsgd1na2vs0mg"},{"bike_id":"de3208ad-e0aa-43cf-b3d0-9b02dc8b1328","system_id":"levelo_inurba_marseille","lat":43.24166,"lon":5.36407,"is_reserved":false,"is_disabled":false,"rental_uris":{"android":"levelo://app?vid=de3208ad-e0aa-43cf-b3d0-9b02dc8b1328","ios":"levelo://app?vid=de3208ad-e0aa-43cf-b3d0-9b02dc8b1328"},"vehicle_type_id":"4","last_reported":1774880415,"current_range_meters":7200,"station_id":"cpo36qri1sfpv3e86is0","pricing_plan_id":"cebpf4jnsgd1na2vs0mg"},{"bike_id":"71983624-569c-45d9-9fb5-891a7993a82a","system_id":"levelo_inurba_marseille","lat":43.28411,"lon":5.35,"is_reserved":false,"is_disabled":false,"rental_uris":{"android":"levelo://app?vid=71983624-569c-45d9-9fb5-891a7993a82a","ios":"levelo://app?vid=71983624-569c-45d9-9fb5-891a7993a82a"},"vehicle_type_id":"4","last_reported":1774880415,"current_range_meters":7200,"station_id":"ce4bhbh2rcd13ifvqepg","pricing_plan_id":"cebpf4jnsgd1na2vs0mg"},{"bike_id":"02daddca-61cb-4ffc-9851-e380e9b55dbc","system_id":"levelo_inurba_marseille","lat":43.27943,"lon":5.38718,"is_reserved":false,"is_disabled":false,"rental_uris":{"android":"levelo://app?vid=02daddca-61cb-4ffc-9851-e380e9b55dbc","ios":"levelo://app?vid=02daddca-61cb-4ffc-9851-e380e9b55dbc"},"vehicle_type_id":"4","last_reported":1774880415,"current_range_meters":8000,"station_id":"ce4bhg12rcd13ifvqf80","pricing_plan_id":"cebpf4jnsgd1na2vs0mg"},{"bike_id":"815b682f-ef7e-45f5-ab90-7392d98720d6","system_id":"levelo_inurba_marseille","lat":43.26051,"lon":5.394,"is_reserved":false,"is_disabled":false,"rental_uris":{"android":"levelo://app?vid=815b682f-ef7e-45f5-ab90-7392d98720d6","ios":"levelo://app?vid=815b682f-ef7e-45f5-ab90-7392d98720d6"},"vehicle_type_id":"4","last_reported":1774880415,"current_range_meters":8000,"station_id":"ce4bhh92rcd13ifvqfj0","pricing_plan_id":"cebpf4jnsgd1na2vs0mg"},{"bike_id":"132e7de0-1c60-4e16-8ba9-01efee9304af","system_id":"levelo_inurba_marseille","lat":43.32356,"lon":5.36724,"is_reserved":false,"is_disabled":false,"rental_uris":{"android":"levelo://app?vid=132e7de0-1c60-4e16-8ba9-01efee9304af","ios":"levelo://app?vid=132e7de0-1c60-4e16-8ba9-01efee9304af"},"vehicle_type_id":"4","last_reported":1774880415,"current_range_meters":8000,"station_id":"ce4bhsh2rcd13ifvqi2g","pricing_plan_id":"cebpf4jnsgd1na2vs0mg"},{"bike_id":"8429f855-c4a0-4803-9ce7-0d1fb93dbfe8","system_id":"levelo_inurba_marseille","lat":43.28476,"lon":5.48404,"is_reserved":false,"is_disabled":false,"rental_uris":{"android":"levelo://app?vid=8429f855-c4a0-4803-9ce7-0d1fb93dbfe8","ios":"levelo://app?vid=8429f855-c4a0-4803-9ce7-0d1fb93dbfe8"},"vehicle_type_id":"4","last_reported":1774880415,"current_range_meters":8000,"station_id":"st_d3svhcjqgbts73a3dn0g","pricing_plan_id":"cebpf4jnsgd1na2vs0mg"},{"bike_id":"c6f0bfb9-609a-4cc4-9c64-edb005bc49da","system_id":"levelo_inurba_marseille","lat":43.28477,"lon":5.34988,"is_reserved":false,"is_disabled":false,"rental_uris":{"android":"levelo://app?vid=c6f0bfb9-609a-4cc4-9c64-edb005bc49da","ios":"levelo://app?vid=c6f0bfb9-609a-4cc4-9c64-edb005bc49da"},"vehicle_type_id":"4","last_reported":1774880415,"current_range_meters":8000,"station_id":"","pricing_plan_id":"cebpf4jnsgd1na2vs0mg"},{"bike_id":"c07aa2dd-1092-4400-9c39-93aef6a06842","system_id":"levelo_inurba_marseille","lat":43.2762,"lon":5.36104,"is_reserved":false,"is_disabled":false,"rental_uris":{"android":"levelo://app?vid=c07aa2dd-1092-4400-9c39-93aef6a06842","ios":"levelo://app?vid=c07aa2dd-1092-4400-9c39-93aef6a06842"},"vehicle_type_id":"4","last_reported":1774880415,"current_range_meters":8000,"station_id":"ce4bgj92rcd13ifvqbe0","pricing_plan_id":"cebpf4jnsgd1na2vs0mg"},{"bike_id":"b6cc933c-6bc2-4eef-9a7c-4e6a85131db4","system_id":"levelo_inurba_marseille","lat":43.24172,"lon":5.36393,"is_reserved":false,"is_disabled":false,"rental_uris":{"android":"levelo://app?vid=b6cc933c-6bc2-4eef-9a7c-4e6a85131db4","ios":"levelo://app?vid=b6cc933c-6bc2-4eef-9a7c-4e6a85131db4"},"vehicle_type_id":"4","last_reported":1774880415,"current_range_meters":8000,"station_id":"cpo36qri1sfpv3e86is0","pricing_plan_id":"cebpf4jnsgd1na2vs0mg"},{"bike_id":"3a6cd128-2bd9-4487-82c3-2d64dde17ac7","system_id":"levelo_inurba_marseille","lat":43.31183,"lon":5.39053,"is_reserved":false,"is_disabled":false,"rental_uris":{"android":"levelo://app?vid=3a6cd128-2bd9-4487-82c3-2d64dde17ac7","ios":"levelo://app?vid=3a6cd128-2bd9-4487-82c3-2d64dde17ac7"},"vehicle_type_id":"4","last_reported":1774880415,"current_range_meters":8000,"station_id":"","pricing_plan_id":"cebpf4jnsgd1na2vs0mg"},{"bike_id":"ccf225b1-f4e7-468c-b7be-f7e3965c10ed","system_id":"levelo_inurba_marseille","lat":43.26206,"lon":5.37923,"is_reserved":false,"is_disabled":false,"rental_uris":{"android":"levelo://app?vid=ccf225b1-f4e7-468c-b7be-f7e3965c10ed","ios":"levelo://app?vid=ccf225b1-f4e7-468c-b7be-f7e3965c10ed"},"vehicle_type_id":"4","last_reported":1774880415,"current_range_meters":8000,"station_id":"ce4bhjp2rcd13ifvqg90","pricing_plan_id":"cebpf4jnsgd1na2vs0mg"},{"bike_id":"073f36a8-fcb1-4a6b-9072-2c42883573b0","system_id":"levelo_inurba_marseille","lat":43.25946,"lon":5.40874,"is_reserved":false,"is_disabled":false,"rental_uris":{"android":"levelo://app?vid=073f36a8-fcb1-4a6b-9072-2c42883573b0","ios":"levelo://app?vid=073f36a8-fcb1-4a6b-9072-2c42883573b0"},"vehicle_type_id":"4","last_reported":1774880415,"current_range_meters":8000,"station_id":"ce4bhm92rcd13ifvqglg","pricing_plan_id":"cebpf4jnsgd1na2vs0mg"},{"bike_id":"0dff1657-701a-46a5-aa66-060096e7915a","system_id":"levelo_inurba_marseille","lat":43.27368,"lon":5.36249,"is_reserved":false,"is_disabled":false,"rental_uris":{"android":"levelo://app?vid=0dff1657-701a-46a5-aa66-060096e7915a","ios":"levelo://app?vid=0dff1657-701a-46a5-aa66-060096e7915a"},"vehicle_type_id":"4","last_reported":1774880415,"current_range_meters":8000,"station_id":"ce4bhbh2rcd13ifvqeo0","pricing_plan_id":"cebpf4jnsgd1na2vs0mg"},{"bike_id":"989bebe7-8615-4cd7-aeef-fec5c5f64679","system_id":"levelo_inurba_marseille","lat":43.2441,"lon":5.37064,"is_reserved":false,"is_disabled":false,"rental_uris":{"android":"levelo://app?vid=989bebe7-8615-4cd7-aeef-fec5c5f64679","ios":"levelo://app?vid=989bebe7-8615-4cd7-aeef-fec5c5f64679"},"vehicle_type_id":"4","last_reported":1774880415,"current_range_meters":8000,"station_id":"ce4bhhh2rcd13ifvqfk0","pricing_plan_id":"cebpf4jnsgd1na2vs0mg"},{"bike_id":"036a2b6b-ea99-41eb-9a61-1b3cd4fc7387","system_id":"levelo_inurba_marseille","lat":43.31313,"lon":5.39722,"is_reserved":false,"is_disabled":false,"rental_uris":{"android":"levelo://app?vid=036a2b6b-ea99-41eb-9a61-1b3cd4fc7387","ios":"levelo://app?vid=036a2b6b-ea99-41eb-9a61-1b3cd4fc7387"},"vehicle_type_id":"4","last_reported":1774880415,"current_range_meters":8000,"station_id":"ce4bgvp2rcd13ifvqcu0","pricing_plan_id":"cebpf4jnsgd1na2vs0mg"},{"bike_id":"c67c5d5c-6a86-4840-bc88-5726340ce24f","system_id":"levelo_inurba_marseille","lat":43.23903,"lon":5.37443,"is_reserved":false,"is_disabled":false,"rental_uris":{"android":"levelo://app?vid=c67c5d5c-6a86-4840-bc88-5726340ce24f","ios":"levelo://app?vid=c67c5d5c-6a86-4840-bc88-5726340ce24f"},"vehicle_type_id":"4","last_reported":1774880415,"current_range_meters":8000,"station_id":"st_d6sm7csbq4hs73f8fpjg","pricing_plan_id":"cebpf4jnsgd1na2vs0mg"},{"bike_id":"0f20fa83-5694-4393-a47b-7caf9e918801","system_id":"levelo_inurba_marseille","lat":43.29538,"lon":5.423,"is_reserved":false,"is_disabled":false,"rental_uris":{"android":"levelo://app?vid=0f20fa83-5694-4393-a47b-7caf9e918801","ios":"levelo://app?vid=0f20fa83-5694-4393-a47b-7caf9e918801"},"vehicle_type_id":"4","last_reported":1774880415,"current_range_meters":8000,"station_id":"ce4bhph2rcd13ifvqhdg","pricing_plan_id":"cebpf4jnsgd1na2vs0mg"},{"bike_id":"8d26c30b-3847-405c-8066-75bf15658130","system_id":"levelo_inurba_marseille","lat":43.29855,"lon":5.365,"is_reserved":false,"is_disabled":false,"rental_uris":{"android":"levelo://app?vid=8d26c30b-3847-405c-8066-75bf15658130","ios":"levelo://app?vid=8d26c30b-3847-405c-8066-75bf15658130"},"vehicle_type_id":"4","last_reported":1774880415,"current_range_meters":8000,"station_id":"","pricing_plan_id":"cebpf4jnsgd1na2vs0mg"},{"bike_id":"10f1856a-4d9e-4488-93db-5b114348e204","system_id":"levelo_inurba_marseille","lat":43.27497,"lon":5.42452,"is_reserved":false,"is_disabled":false,"rental_uris":{"android":"levelo://app?vid=10f1856a-4d9e-4488-93db-5b114348e204","ios":"levelo://app?vid=10f1856a-4d9e-4488-93db-5b114348e204"},"vehicle_type_id":"4","last_reported":1774880415,"current_range_meters":8000,"station_id":"ce4bhn92rcd13ifvqgrg","pricing_plan_id":"cebpf4jnsgd1na2vs0mg"},{"bike_id":"98730a64-980b-4e41-a702-4407fb35d73f","system_id":"levelo_inurba_marseille","lat":43.30551,"lon":5.38424,"is_reserved":false,"is_disabled":false,"rental_uris":{"android":"levelo://app?vid=98730a64-980b-4e41-a702-4407fb35d73f","ios":"levelo://app?vid=98730a64-980b-4e41-a702-4407fb35d73f"},"vehicle_type_id":"4","last_reported":1774880415,"current_range_meters":8000,"station_id":"ce4bgg92rcd13ifvqb30","pricing_plan_id":"cebpf4jnsgd1na2vs0mg"},{"bike_id":"0136c66f-2f5b-4d52-9639-2227f1fe0d68","system_id":"levelo_inurba_marseille","lat":43.26815,"lon":5.40272,"is_reserved":false,"is_disabled":false,"rental_uris":{"android":"levelo://app?vid=0136c66f-2f5b-4d52-9639-2227f1fe0d68","ios":"levelo://app?vid=0136c66f-2f5b-4d52-9639-2227f1fe0d68"},"vehicle_type_id":"4","last_reported":1774880415,"current_range_meters":8000,"station_id":"ce501612rcd8frsf0b60","pricing_plan_id":"cebpf4jnsgd1na2vs0mg"},{"bike_id":"97c39884-24ca-43ee-b263-5b5f3c69e1a7","system_id":"levelo_inurba_marseille","lat":43.29933,"lon":5.36527,"is_reserved":false,"is_disabled":false,"rental_uris":{"android":"levelo://app?vid=97c39884-24ca-43ee-b263-5b5f3c69e1a7","ios":"levelo://app?vid=97c39884-24ca-43ee-b263-5b5f3c69e1a7"},"vehicle_type_id":"4","last_reported":1774880415,"current_range_meters":8000,"station_id":"ce4bgm92rcd13ifvqbr0","pricing_plan_id":"cebpf4jnsgd1na2vs0mg"},{"bike_id":"90c5083d-61d7-4212-893f-2dfc58168774","system_id":"levelo_inurba_marseille","lat":43.242,"lon":5.36395,"is_reserved":false,"is_disabled":false,"rental_uris":{"android":"levelo://app?vid=90c5083d-61d7-4212-893f-2dfc58168774","ios":"levelo://app?vid=90c5083d-61d7-4212-893f-2dfc58168774"},"vehicle_type_id":"4","last_reported":1774880415,"current_range_meters":8000,"station_id":"cpo36qri1sfpv3e86is0","pricing_plan_id":"cebpf4jnsgd1na2vs0mg"},{"bike_id":"016b0ed3-61e4-48ca-ad9d-f2955fa011b5","system_id":"levelo_inurba_marseille","lat":43.28472,"lon":5.35887,"is_reserved":false,"is_disabled":false,"rental_uris":{"android":"levelo://app?vid=016b0ed3-61e4-48ca-ad9d-f2955fa011b5","ios":"levelo://app?vid=016b0ed3-61e4-48ca-ad9d-f2955fa011b5"},"vehicle_type_id":"4","last_reported":1774880415,"current_range_meters":8000,"station_id":"ce4bhah2rcd13ifvqei0","pricing_plan_id":"cebpf4jnsgd1na2vs0mg"},{"bike_id":"6ec34bea-26f7-40b0-a43f-af966ce23820","system_id":"levelo_inurba_marseille","lat":43.30165,"lon":5.38087,"is_reserved":false,"is_disabled":false,"rental_uris":{"android":"levelo://app?vid=6ec34bea-26f7-40b0-a43f-af966ce23820","ios":"levelo://app?vid=6ec34bea-26f7-40b0-a43f-af966ce23820"},"vehicle_type_id":"4","last_reported":1774880415,"current_range_meters":8000,"station_id":"ce4bgjp2rcd13ifvqbh0","pricing_plan_id":"cebpf4jnsgd1na2vs0mg"},{"bike_id":"1f8b06bb-3f91-46ec-ae05-36fb92f0336b","system_id":"levelo_inurba_marseille","lat":43.26398,"lon":5.39872,"is_reserved":false,"is_disabled":false,"rental_uris":{"android":"levelo://app?vid=1f8b06bb-3f91-46ec-ae05-36fb92f0336b","ios":"levelo://app?vid=1f8b06bb-3f91-46ec-ae05-36fb92f0336b"},"vehicle_type_id":"4","last_reported":1774880415,"current_range_meters":8000,"station_id":"","pricing_plan_id":"cebpf4jnsgd1na2vs0mg"},{"bike_id":"26216dd8-3d71-4532-8d1e-7040c3289df2","system_id":"levelo_inurba_marseille","lat":43.30426,"lon":5.39737,"is_reserved":false,"is_disabled":false,"rental_uris":{"android":"levelo://app?vid=26216dd8-3d71-4532-8d1e-7040c3289df2","ios":"levelo://app?vid=26216dd8-3d71-4532-8d1e-7040c3289df2"},"vehicle_type_id":"4","last_reported":1774880415,"current_range_meters":8000,"station_id":"ce4bh092rcd13ifvqd20","pricing_plan_id":"cebpf4jnsgd1na2vs0mg"},{"bike_id":"8b4108a6-c7e2-4043-b547-cb1e59a8963a","system_id":"levelo_inurba_marseille","lat":43.24317,"lon":5.40833,"is_reserved":false,"is_disabled":false,"rental_uris":{"android":"levelo://app?vid=8b4108a6-c7e2-4043-b547-cb1e59a8963a","ios":"levelo://app?vid=8b4108a6-c7e2-4043-b547-cb1e59a8963a"},"vehicle_type_id":"4","last_reported":1774880415,"current_range_meters":8000,"station_id":"","pricing_plan_id":"cebpf4jnsgd1na2vs0mg"},{"bike_id":"4977f95e-718a-4120-8926-2364059fe1a3","system_id":"levelo_inurba_marseille","lat":43.26684,"lon":5.38267,"is_reserved":false,"is_disabled":false,"rental_uris":{"android":"levelo://app?vid=4977f95e-718a-4120-8926-2364059fe1a3","ios":"levelo://app?vid=4977f95e-718a-4120-8926-2364059fe1a3"},"vehicle_type_id":"4","last_reported":1774880415,"current_range_meters":8400,"station_id":"","pricing_plan_id":"cebpf4jnsgd1na2vs0mg"},{"bike_id":"1f50d665-ad56-4564-8bce-5cff2a4e2b4f","system_id":"levelo_inurba_marseille","lat":43.24184,"lon":5.39736,"is_reserved":false,"is_disabled":false,"rental_uris":{"android":"levelo://app?vid=1f50d665-ad56-4564-8bce-5cff2a4e2b4f","ios":"levelo://app?vid=1f50d665-ad56-4564-8bce-5cff2a4e2b4f"},"vehicle_type_id":"4","last_reported":1774880415,"current_range_meters":8400,"station_id":"ce4bhn12rcd13ifvqgpg","pricing_plan_id":"cebpf4jnsgd1na2vs0mg"},{"bike_id":"046881a8-ab16-4490-bda4-767f874d1bc8","system_id":"levelo_inurba_marseille","lat":43.287178,"lon":5.360977,"is_reserved":false,"is_disabled":false,"rental_uris":{"android":"levelo://app?vid=046881a8-ab16-4490-bda4-767f874d1bc8","ios":"levelo://app?vid=046881a8-ab16-4490-bda4-767f874d1bc8"},"vehicle_type_id":"4","last_reported":1774880415,"current_range_meters":8400,"station_id":"","pricing_plan_id":"cebpf4jnsgd1na2vs0mg"},{"bike_id":"bbea286a-6e48-49d8-bcfc-d69bfefa013e","system_id":"levelo_inurba_marseille","lat":43.28613,"lon":5.35101,"is_reserved":false,"is_disabled":false,"rental_uris":{"android":"levelo://app?vid=bbea286a-6e48-49d8-bcfc-d69bfefa013e","ios":"levelo://app?vid=bbea286a-6e48-49d8-bcfc-d69bfefa013e"},"vehicle_type_id":"4","last_reported":1774880415,"current_range_meters":8400,"station_id":"ce4bhch2rcd13ifvqeug","pricing_plan_id":"cebpf4jnsgd1na2vs0mg"},{"bike_id":"b2fedf6b-2cd3-4ea3-9573-b48aa9b36329","system_id":"levelo_inurba_marseille","lat":43.28636,"lon":5.35095,"is_reserved":false,"is_disabled":false,"rental_uris":{"android":"levelo://app?vid=b2fedf6b-2cd3-4ea3-9573-b48aa9b36329","ios":"levelo://app?vid=b2fedf6b-2cd3-4ea3-9573-b48aa9b36329"},"vehicle_type_id":"4","last_reported":1774880415,"current_range_meters":8400,"station_id":"ce4bhch2rcd13ifvqeug","pricing_plan_id":"cebpf4jnsgd1na2vs0mg"},{"bike_id":"9805c95b-690f-4ff4-a83b-12c9a47aff25","system_id":"levelo_inurba_marseille","lat":43.31276,"lon":5.40178,"is_reserved":false,"is_disabled":false,"rental_uris":{"android":"levelo://app?vid=9805c95b-690f-4ff4-a83b-12c9a47aff25","ios":"levelo://app?vid=9805c95b-690f-4ff4-a83b-12c9a47aff25"},"vehicle_type_id":"4","last_reported":1774880415,"current_range_meters":8400,"station_id":"ce4bh092rcd13ifvqd30","pricing_plan_id":"cebpf4jnsgd1na2vs0mg"},{"bike_id":"94ebd6be-fb80-4ec3-8693-d1f514f30182","system_id":"levelo_inurba_marseille","lat":43.3053,"lon":5.36653,"is_reserved":false,"is_disabled":false,"rental_uris":{"android":"levelo://app?vid=94ebd6be-fb80-4ec3-8693-d1f514f30182","ios":"levelo://app?vid=94ebd6be-fb80-4ec3-8693-d1f514f30182"},"vehicle_type_id":"4","last_reported":1774880415,"current_range_meters":8400,"station_id":"","pricing_plan_id":"cebpf4jnsgd1na2vs0mg"},{"bike_id":"d653ed05-f213-45fd-84c6-b781deb83672","system_id":"levelo_inurba_marseille","lat":43.22555,"lon":5.41633,"is_reserved":false,"is_disabled":false,"rental_uris":{"android":"levelo://app?vid=d653ed05-f213-45fd-84c6-b781deb83672","ios":"levelo://app?vid=d653ed05-f213-45fd-84c6-b781deb83672"},"vehicle_type_id":"4","last_reported":1774880415,"current_range_meters":8400,"station_id":"st_d2o4gvlbi1j2169b742g","pricing_plan_id":"cebpf4jnsgd1na2vs0mg"},{"bike_id":"e2491530-7c3b-41df-80e0-1a5c4af36aa4","system_id":"levelo_inurba_marseille","lat":43.2379,"lon":5.36618,"is_reserved":false,"is_disabled":false,"rental_uris":{"android":"levelo://app?vid=e2491530-7c3b-41df-80e0-1a5c4af36aa4","ios":"levelo://app?vid=e2491530-7c3b-41df-80e0-1a5c4af36aa4"},"vehicle_type_id":"4","last_reported":1774880415,"current_range_meters":8400,"station_id":"st_d3nk18o9ro0c73en2l3g","pricing_plan_id":"cebpf4jnsgd1na2vs0mg"},{"bike_id":"fadec8bd-7099-474e-a447-0aba7618e044","system_id":"levelo_inurba_marseille","lat":43.25582,"lon":5.38225,"is_reserved":false,"is_disabled":false,"rental_uris":{"android":"levelo://app?vid=fadec8bd-7099-474e-a447-0aba7618e044","ios":"levelo://app?vid=fadec8bd-7099-474e-a447-0aba7618e044"},"vehicle_type_id":"4","last_reported":1774880415,"current_range_meters":8400,"station_id":"ce4bhih2rcd13ifvqfs0","pricing_plan_id":"cebpf4jnsgd1na2vs0mg"},{"bike_id":"6fcb32fe-d8f6-451e-b607-cd83870fcf58","system_id":"levelo_inurba_marseille","lat":43.3111,"lon":5.37758,"is_reserved":false,"is_disabled":false,"rental_uris":{"android":"levelo://app?vid=6fcb32fe-d8f6-451e-b607-cd83870fcf58","ios":"levelo://app?vid=6fcb32fe-d8f6-451e-b607-cd83870fcf58"},"vehicle_type_id":"4","last_reported":1774880415,"current_range_meters":8400,"station_id":"ce4bgt92rcd13ifvqcg0","pricing_plan_id":"cebpf4jnsgd1na2vs0mg"},{"bike_id":"4c0ad3b2-eaa3-4ff7-aeac-f17179188f8e","system_id":"levelo_inurba_marseille","lat":43.3256,"lon":5.41058,"is_reserved":false,"is_disabled":false,"rental_uris":{"android":"levelo://app?vid=4c0ad3b2-eaa3-4ff7-aeac-f17179188f8e","ios":"levelo://app?vid=4c0ad3b2-eaa3-4ff7-aeac-f17179188f8e"},"vehicle_type_id":"4","last_reported":1774880415,"current_range_meters":8400,"station_id":"","pricing_plan_id":"cebpf4jnsgd1na2vs0mg"},{"bike_id":"cace6a75-41af-4909-a80a-68d60c5c1a04","system_id":"levelo_inurba_marseille","lat":43.2842,"lon":5.34985,"is_reserved":false,"is_disabled":false,"rental_uris":{"android":"levelo://app?vid=cace6a75-41af-4909-a80a-68d60c5c1a04","ios":"levelo://app?vid=cace6a75-41af-4909-a80a-68d60c5c1a04"},"vehicle_type_id":"4","last_reported":1774880415,"current_range_meters":8400,"station_id":"ce4bhbh2rcd13ifvqepg","pricing_plan_id":"cebpf4jnsgd1na2vs0mg"},{"bike_id":"fbb8d1ee-af97-443e-a94c-eaf376f4d550","system_id":"levelo_inurba_marseille","lat":43.2996,"lon":5.36662,"is_reserved":false,"is_disabled":false,"rental_uris":{"android":"levelo://app?vid=fbb8d1ee-af97-443e-a94c-eaf376f4d550","ios":"levelo://app?vid=fbb8d1ee-af97-443e-a94c-eaf376f4d550"},"vehicle_type_id":"4","last_reported":1774880415,"current_range_meters":8400,"station_id":"","pricing_plan_id":"cebpf4jnsgd1na2vs0mg"},{"bike_id":"9f270880-e9b9-4843-a1a3-caf796cce2d5","system_id":"levelo_inurba_marseille","lat":43.30774,"lon":5.3766,"is_reserved":false,"is_disabled":false,"rental_uris":{"android":"levelo://app?vid=9f270880-e9b9-4843-a1a3-caf796cce2d5","ios":"levelo://app?vid=9f270880-e9b9-4843-a1a3-caf796cce2d5"},"vehicle_type_id":"4","last_reported":1774880415,"current_range_meters":8400,"station_id":"ce4bgv92rcd13ifvqcq0","pricing_plan_id":"cebpf4jnsgd1na2vs0mg"},{"bike_id":"b9e51a78-81d9-4e62-8e94-b83f5a68a2b2","system_id":"levelo_inurba_marseille","lat":43.27681,"lon":5.38873,"is_reserved":false,"is_disabled":false,"rental_uris":{"android":"levelo://app?vid=b9e51a78-81d9-4e62-8e94-b83f5a68a2b2","ios":"levelo://app?vid=b9e51a78-81d9-4e62-8e94-b83f5a68a2b2"},"vehicle_type_id":"4","last_reported":1774880415,"current_range_meters":8400,"station_id":"ce4bhi12rcd13ifvqfo0","pricing_plan_id":"cebpf4jnsgd1na2vs0mg"},{"bike_id":"cb88b7c0-158f-47d6-b62a-c3ee88f004a1","system_id":"levelo_inurba_marseille","lat":43.24457,"lon":5.42535,"is_reserved":false,"is_disabled":false,"rental_uris":{"android":"levelo://app?vid=cb88b7c0-158f-47d6-b62a-c3ee88f004a1","ios":"levelo://app?vid=cb88b7c0-158f-47d6-b62a-c3ee88f004a1"},"vehicle_type_id":"4","last_reported":1774880415,"current_range_meters":8400,"station_id":"st_d4a3vfp97mjs738cd8kg","pricing_plan_id":"cebpf4jnsgd1na2vs0mg"},{"bike_id":"f54bfc49-c52e-433a-9661-97eeb8e5a586","system_id":"levelo_inurba_marseille","lat":43.23804,"lon":5.36632,"is_reserved":false,"is_disabled":false,"rental_uris":{"android":"levelo://app?vid=f54bfc49-c52e-433a-9661-97eeb8e5a586","ios":"levelo://app?vid=f54bfc49-c52e-433a-9661-97eeb8e5a586"},"vehicle_type_id":"4","last_reported":1774880415,"current_range_meters":8400,"station_id":"st_d3nk18o9ro0c73en2l3g","pricing_plan_id":"cebpf4jnsgd1na2vs0mg"},{"bike_id":"d175c754-8563-4b72-ba16-a3e037f90e46","system_id":"levelo_inurba_marseille","lat":43.27125,"lon":5.39157,"is_reserved":false,"is_disabled":false,"rental_uris":{"android":"levelo://app?vid=d175c754-8563-4b72-ba16-a3e037f90e46","ios":"levelo://app?vid=d175c754-8563-4b72-ba16-a3e037f90e46"},"vehicle_type_id":"4","last_reported":1774880415,"current_range_meters":8400,"station_id":"","pricing_plan_id":"cebpf4jnsgd1na2vs0mg"},{"bike_id":"03ec0070-1d93-4ac5-87d3-21d47edad7cd","system_id":"levelo_inurba_marseille","lat":43.23771,"lon":5.36624,"is_reserved":false,"is_disabled":false,"rental_uris":{"android":"levelo://app?vid=03ec0070-1d93-4ac5-87d3-21d47edad7cd","ios":"levelo://app?vid=03ec0070-1d93-4ac5-87d3-21d47edad7cd"},"vehicle_type_id":"4","last_reported":1774880415,"current_range_meters":8800,"station_id":"st_d3nk18o9ro0c73en2l3g","pricing_plan_id":"cebpf4jnsgd1na2vs0mg"},{"bike_id":"cde37b3d-5bf8-45ad-ae5c-441c1680e201","system_id":"levelo_inurba_marseille","lat":43.27903,"lon":5.39125,"is_reserved":false,"is_disabled":false,"rental_uris":{"android":"levelo://app?vid=cde37b3d-5bf8-45ad-ae5c-441c1680e201","ios":"levelo://app?vid=cde37b3d-5bf8-45ad-ae5c-441c1680e201"},"vehicle_type_id":"4","last_reported":1774880415,"current_range_meters":8800,"station_id":"","pricing_plan_id":"cebpf4jnsgd1na2vs0mg"},{"bike_id":"7cefc45d-38f5-45cf-a99c-dfb4be1018fe","system_id":"levelo_inurba_marseille","lat":43.24471,"lon":5.42531,"is_reserved":false,"is_disabled":false,"rental_uris":{"android":"levelo://app?vid=7cefc45d-38f5-45cf-a99c-dfb4be1018fe","ios":"levelo://app?vid=7cefc45d-38f5-45cf-a99c-dfb4be1018fe"},"vehicle_type_id":"4","last_reported":1774880415,"current_range_meters":8800,"station_id":"st_d4a3vfp97mjs738cd8kg","pricing_plan_id":"cebpf4jnsgd1na2vs0mg"},{"bike_id":"25914d04-e334-4c56-8a4a-85df5e396b66","system_id":"levelo_inurba_marseille","lat":43.29534,"lon":5.37523,"is_reserved":false,"is_disabled":false,"rental_uris":{"android":"levelo://app?vid=25914d04-e334-4c56-8a4a-85df5e396b66","ios":"levelo://app?vid=25914d04-e334-4c56-8a4a-85df5e396b66"},"vehicle_type_id":"4","last_reported":1774880415,"current_range_meters":8800,"station_id":"ce4bgkp2rcd13ifvqbmg","pricing_plan_id":"cebpf4jnsgd1na2vs0mg"},{"bike_id":"af9487f5-3b11-44b0-ad1c-8f757cfe59eb","system_id":"levelo_inurba_marseille","lat":43.2979,"lon":5.37103,"is_reserved":false,"is_disabled":false,"rental_uris":{"android":"levelo://app?vid=af9487f5-3b11-44b0-ad1c-8f757cfe59eb","ios":"levelo://app?vid=af9487f5-3b11-44b0-ad1c-8f757cfe59eb"},"vehicle_type_id":"4","last_reported":1774880415,"current_range_meters":8800,"station_id":"ce4bgop2rcd13ifvqc1g","pricing_plan_id":"cebpf4jnsgd1na2vs0mg"},{"bike_id":"fe2c2d4e-ad0a-4ad1-b727-7e9a7d4ef824","system_id":"levelo_inurba_marseille","lat":43.28487,"lon":5.484,"is_reserved":false,"is_disabled":false,"rental_uris":{"android":"levelo://app?vid=fe2c2d4e-ad0a-4ad1-b727-7e9a7d4ef824","ios":"levelo://app?vid=fe2c2d4e-ad0a-4ad1-b727-7e9a7d4ef824"},"vehicle_type_id":"4","last_reported":1774880415,"current_range_meters":8800,"station_id":"","pricing_plan_id":"cebpf4jnsgd1na2vs0mg"},{"bike_id":"bd22810e-4e9c-45ac-8057-6360dc8fe6a3","system_id":"levelo_inurba_marseille","lat":43.24163,"lon":5.36396,"is_reserved":false,"is_disabled":false,"rental_uris":{"android":"levelo://app?vid=bd22810e-4e9c-45ac-8057-6360dc8fe6a3","ios":"levelo://app?vid=bd22810e-4e9c-45ac-8057-6360dc8fe6a3"},"vehicle_type_id":"4","last_reported":1774880415,"current_range_meters":8800,"station_id":"cpo36qri1sfpv3e86is0","pricing_plan_id":"cebpf4jnsgd1na2vs0mg"},{"bike_id":"30ea0687-2730-4625-814d-fbdaa5906416","system_id":"levelo_inurba_marseille","lat":43.30138,"lon":5.38785,"is_reserved":false,"is_disabled":false,"rental_uris":{"android":"levelo://app?vid=30ea0687-2730-4625-814d-fbdaa5906416","ios":"levelo://app?vid=30ea0687-2730-4625-814d-fbdaa5906416"},"vehicle_type_id":"4","last_reported":1774880415,"current_range_meters":8800,"station_id":"ce4bghh2rcd13ifvqb60","pricing_plan_id":"cebpf4jnsgd1na2vs0mg"},{"bike_id":"0153dc8d-396f-44f2-8858-2825c36dae53","system_id":"levelo_inurba_marseille","lat":43.30545,"lon":5.3667,"is_reserved":false,"is_disabled":false,"rental_uris":{"android":"levelo://app?vid=0153dc8d-396f-44f2-8858-2825c36dae53","ios":"levelo://app?vid=0153dc8d-396f-44f2-8858-2825c36dae53"},"vehicle_type_id":"4","last_reported":1774880415,"current_range_meters":8800,"station_id":"ce4bgrp2rcd13ifvqc9g","pricing_plan_id":"cebpf4jnsgd1na2vs0mg"},{"bike_id":"5ae1cde3-c020-448f-8cff-83f80611c531","system_id":"levelo_inurba_marseille","lat":43.24446,"lon":5.42534,"is_reserved":false,"is_disabled":false,"rental_uris":{"android":"levelo://app?vid=5ae1cde3-c020-448f-8cff-83f80611c531","ios":"levelo://app?vid=5ae1cde3-c020-448f-8cff-83f80611c531"},"vehicle_type_id":"4","last_reported":1774880415,"current_range_meters":8800,"station_id":"st_d4a3vfp97mjs738cd8kg","pricing_plan_id":"cebpf4jnsgd1na2vs0mg"},{"bike_id":"3e95f38f-2252-4598-8fa3-b319e7ea78d6","system_id":"levelo_inurba_marseille","lat":43.23157,"lon":5.437,"is_reserved":false,"is_disabled":false,"rental_uris":{"android":"levelo://app?vid=3e95f38f-2252-4598-8fa3-b319e7ea78d6","ios":"levelo://app?vid=3e95f38f-2252-4598-8fa3-b319e7ea78d6"},"vehicle_type_id":"4","last_reported":1774880415,"current_range_meters":8800,"station_id":"ce4bhmp2rcd13ifvqgog","pricing_plan_id":"cebpf4jnsgd1na2vs0mg"},{"bike_id":"6cb80350-a12f-414d-8a45-edb4d9decdf0","system_id":"levelo_inurba_marseille","lat":43.28539,"lon":5.44102,"is_reserved":false,"is_disabled":false,"rental_uris":{"android":"levelo://app?vid=6cb80350-a12f-414d-8a45-edb4d9decdf0","ios":"levelo://app?vid=6cb80350-a12f-414d-8a45-edb4d9decdf0"},"vehicle_type_id":"4","last_reported":1774880415,"current_range_meters":8800,"station_id":"st_d3j3df2ikq2c7380ej80","pricing_plan_id":"cebpf4jnsgd1na2vs0mg"},{"bike_id":"8a1f00fe-baa7-466d-896d-1d3a6b1e9478","system_id":"levelo_inurba_marseille","lat":43.31045,"lon":5.39363,"is_reserved":false,"is_disabled":false,"rental_uris":{"android":"levelo://app?vid=8a1f00fe-baa7-466d-896d-1d3a6b1e9478","ios":"levelo://app?vid=8a1f00fe-baa7-466d-896d-1d3a6b1e9478"},"vehicle_type_id":"4","last_reported":1774880415,"current_range_meters":8800,"station_id":"","pricing_plan_id":"cebpf4jnsgd1na2vs0mg"},{"bike_id":"f660094b-c009-494b-803a-9336581a7727","system_id":"levelo_inurba_marseille","lat":43.23776,"lon":5.36642,"is_reserved":false,"is_disabled":false,"rental_uris":{"android":"levelo://app?vid=f660094b-c009-494b-803a-9336581a7727","ios":"levelo://app?vid=f660094b-c009-494b-803a-9336581a7727"},"vehicle_type_id":"4","last_reported":1774880415,"current_range_meters":8800,"station_id":"st_d3nk18o9ro0c73en2l3g","pricing_plan_id":"cebpf4jnsgd1na2vs0mg"},{"bike_id":"d82cc982-b9fc-4c4f-8140-34d07a0bac7e","system_id":"levelo_inurba_marseille","lat":43.270431,"lon":5.402449,"is_reserved":false,"is_disabled":false,"rental_uris":{"android":"levelo://app?vid=d82cc982-b9fc-4c4f-8140-34d07a0bac7e","ios":"levelo://app?vid=d82cc982-b9fc-4c4f-8140-34d07a0bac7e"},"vehicle_type_id":"4","last_reported":1774880415,"current_range_meters":8800,"station_id":"ce4bhk92rcd13ifvqgc0","pricing_plan_id":"cebpf4jnsgd1na2vs0mg"},{"bike_id":"c0f606fe-baa5-492a-85a1-9ee65c00252f","system_id":"levelo_inurba_marseille","lat":43.23208,"lon":5.35546,"is_reserved":false,"is_disabled":false,"rental_uris":{"android":"levelo://app?vid=c0f606fe-baa5-492a-85a1-9ee65c00252f","ios":"levelo://app?vid=c0f606fe-baa5-492a-85a1-9ee65c00252f"},"vehicle_type_id":"4","last_reported":1774880415,"current_range_meters":8800,"station_id":"ce4bhu92rcd13ifvqi70","pricing_plan_id":"cebpf4jnsgd1na2vs0mg"},{"bike_id":"c4b95ebd-7f1d-45da-a00b-69d6d7c574e4","system_id":"levelo_inurba_marseille","lat":43.24392,"lon":5.37073,"is_reserved":false,"is_disabled":false,"rental_uris":{"android":"levelo://app?vid=c4b95ebd-7f1d-45da-a00b-69d6d7c574e4","ios":"levelo://app?vid=c4b95ebd-7f1d-45da-a00b-69d6d7c574e4"},"vehicle_type_id":"4","last_reported":1774880415,"current_range_meters":8800,"station_id":"ce4bhhh2rcd13ifvqfk0","pricing_plan_id":"cebpf4jnsgd1na2vs0mg"},{"bike_id":"6281c998-3b6b-442d-9a81-ad7d20fdcdd7","system_id":"levelo_inurba_marseille","lat":43.26688,"lon":5.38273,"is_reserved":false,"is_disabled":false,"rental_uris":{"android":"levelo://app?vid=6281c998-3b6b-442d-9a81-ad7d20fdcdd7","ios":"levelo://app?vid=6281c998-3b6b-442d-9a81-ad7d20fdcdd7"},"vehicle_type_id":"4","last_reported":1774880415,"current_range_meters":8800,"station_id":"ce4bhg92rcd13ifvqf90","pricing_plan_id":"cebpf4jnsgd1na2vs0mg"},{"bike_id":"227cc43c-6fb3-476a-abb2-74c924061fb2","system_id":"levelo_inurba_marseille","lat":43.2257,"lon":5.4163,"is_reserved":false,"is_disabled":false,"rental_uris":{"android":"levelo://app?vid=227cc43c-6fb3-476a-abb2-74c924061fb2","ios":"levelo://app?vid=227cc43c-6fb3-476a-abb2-74c924061fb2"},"vehicle_type_id":"4","last_reported":1774880415,"current_range_meters":8800,"station_id":"st_d2o4gvlbi1j2169b742g","pricing_plan_id":"cebpf4jnsgd1na2vs0mg"},{"bike_id":"ee7ee462-8de4-4b35-bcd7-7cc26280210e","system_id":"levelo_inurba_marseille","lat":43.28284,"lon":5.35074,"is_reserved":false,"is_disabled":false,"rental_uris":{"android":"levelo://app?vid=ee7ee462-8de4-4b35-bcd7-7cc26280210e","ios":"levelo://app?vid=ee7ee462-8de4-4b35-bcd7-7cc26280210e"},"vehicle_type_id":"4","last_reported":1774880415,"current_range_meters":8800,"station_id":"ce4bhbp2rcd13ifvqerg","pricing_plan_id":"cebpf4jnsgd1na2vs0mg"},{"bike_id":"b1475a9a-5aef-4599-9609-2f9fd8e27a3c","system_id":"levelo_inurba_marseille","lat":43.29435,"lon":5.39755,"is_reserved":false,"is_disabled":false,"rental_uris":{"android":"levelo://app?vid=b1475a9a-5aef-4599-9609-2f9fd8e27a3c","ios":"levelo://app?vid=b1475a9a-5aef-4599-9609-2f9fd8e27a3c"},"vehicle_type_id":"4","last_reported":1774880415,"current_range_meters":9200,"station_id":"ce4bh3h2rcd13ifvqdo0","pricing_plan_id":"cebpf4jnsgd1na2vs0mg"},{"bike_id":"f0128422-c3d2-47fc-a12c-9f5ab4f2bded","system_id":"levelo_inurba_marseille","lat":43.31351,"lon":5.36711,"is_reserved":false,"is_disabled":false,"rental_uris":{"android":"levelo://app?vid=f0128422-c3d2-47fc-a12c-9f5ab4f2bded","ios":"levelo://app?vid=f0128422-c3d2-47fc-a12c-9f5ab4f2bded"},"vehicle_type_id":"4","last_reported":1774880415,"current_range_meters":9200,"station_id":"ce4bgr92rcd13ifvqc6g","pricing_plan_id":"cebpf4jnsgd1na2vs0mg"},{"bike_id":"10063e3f-8609-45d7-a82d-682af1ae1436","system_id":"levelo_inurba_marseille","lat":43.29099,"lon":5.42894,"is_reserved":false,"is_disabled":false,"rental_uris":{"android":"levelo://app?vid=10063e3f-8609-45d7-a82d-682af1ae1436","ios":"levelo://app?vid=10063e3f-8609-45d7-a82d-682af1ae1436"},"vehicle_type_id":"4","last_reported":1774880415,"current_range_meters":9200,"station_id":"","pricing_plan_id":"cebpf4jnsgd1na2vs0mg"},{"bike_id":"eac6a123-5f69-4eb4-aa4b-cdeaecf10b56","system_id":"levelo_inurba_marseille","lat":43.30533,"lon":5.36567,"is_reserved":false,"is_disabled":false,"rental_uris":{"android":"levelo://app?vid=eac6a123-5f69-4eb4-aa4b-cdeaecf10b56","ios":"levelo://app?vid=eac6a123-5f69-4eb4-aa4b-cdeaecf10b56"},"vehicle_type_id":"4","last_reported":1774880415,"current_range_meters":9200,"station_id":"ce4bgs12rcd13ifvqcag","pricing_plan_id":"cebpf4jnsgd1na2vs0mg"},{"bike_id":"d2bad6c8-f251-4929-aec5-bcbcf038d54c","system_id":"levelo_inurba_marseille","lat":43.23855,"lon":5.37477,"is_reserved":false,"is_disabled":false,"rental_uris":{"android":"levelo://app?vid=d2bad6c8-f251-4929-aec5-bcbcf038d54c","ios":"levelo://app?vid=d2bad6c8-f251-4929-aec5-bcbcf038d54c"},"vehicle_type_id":"4","last_reported":1774880415,"current_range_meters":9200,"station_id":"st_d6sm7csbq4hs73f8fpjg","pricing_plan_id":"cebpf4jnsgd1na2vs0mg"},{"bike_id":"f2ac8faa-b8e8-4025-bb6d-4e45873c4422","system_id":"levelo_inurba_marseille","lat":43.23154,"lon":5.43718,"is_reserved":false,"is_disabled":false,"rental_uris":{"android":"levelo://app?vid=f2ac8faa-b8e8-4025-bb6d-4e45873c4422","ios":"levelo://app?vid=f2ac8faa-b8e8-4025-bb6d-4e45873c4422"},"vehicle_type_id":"4","last_reported":1774880415,"current_range_meters":9200,"station_id":"ce4bhmp2rcd13ifvqgog","pricing_plan_id":"cebpf4jnsgd1na2vs0mg"},{"bike_id":"aff3ff3f-6b67-4330-8619-cb367673fc13","system_id":"levelo_inurba_marseille","lat":43.24342,"lon":5.37154,"is_reserved":false,"is_disabled":false,"rental_uris":{"android":"levelo://app?vid=aff3ff3f-6b67-4330-8619-cb367673fc13","ios":"levelo://app?vid=aff3ff3f-6b67-4330-8619-cb367673fc13"},"vehicle_type_id":"4","last_reported":1774880415,"current_range_meters":9200,"station_id":"","pricing_plan_id":"cebpf4jnsgd1na2vs0mg"},{"bike_id":"9c1440ce-c955-43db-9800-7794805da744","system_id":"levelo_inurba_marseille","lat":43.23965,"lon":5.36653,"is_reserved":false,"is_disabled":false,"rental_uris":{"android":"levelo://app?vid=9c1440ce-c955-43db-9800-7794805da744","ios":"levelo://app?vid=9c1440ce-c955-43db-9800-7794805da744"},"vehicle_type_id":"4","last_reported":1774880415,"current_range_meters":9200,"station_id":"ce4bhi12rcd13ifvqfp0","pricing_plan_id":"cebpf4jnsgd1na2vs0mg"},{"bike_id":"f7bbba91-ee9a-4abe-bd88-c64afed9737f","system_id":"levelo_inurba_marseille","lat":43.23199,"lon":5.35539,"is_reserved":false,"is_disabled":false,"rental_uris":{"android":"levelo://app?vid=f7bbba91-ee9a-4abe-bd88-c64afed9737f","ios":"levelo://app?vid=f7bbba91-ee9a-4abe-bd88-c64afed9737f"},"vehicle_type_id":"4","last_reported":1774880415,"current_range_meters":9200,"station_id":"ce4bhu92rcd13ifvqi70","pricing_plan_id":"cebpf4jnsgd1na2vs0mg"},{"bike_id":"b69b7ee0-eb68-4e40-9110-6ed5a17a58dc","system_id":"levelo_inurba_marseille","lat":43.28426,"lon":5.34978,"is_reserved":false,"is_disabled":false,"rental_uris":{"android":"levelo://app?vid=b69b7ee0-eb68-4e40-9110-6ed5a17a58dc","ios":"levelo://app?vid=b69b7ee0-eb68-4e40-9110-6ed5a17a58dc"},"vehicle_type_id":"4","last_reported":1774880415,"current_range_meters":9200,"station_id":"ce4bhbh2rcd13ifvqepg","pricing_plan_id":"cebpf4jnsgd1na2vs0mg"},{"bike_id":"7807e959-548b-4573-9349-6f8ad219a4a5","system_id":"levelo_inurba_marseille","lat":43.24169,"lon":5.36396,"is_reserved":false,"is_disabled":false,"rental_uris":{"android":"levelo://app?vid=7807e959-548b-4573-9349-6f8ad219a4a5","ios":"levelo://app?vid=7807e959-548b-4573-9349-6f8ad219a4a5"},"vehicle_type_id":"4","last_reported":1774880415,"current_range_meters":9200,"station_id":"cpo36qri1sfpv3e86is0","pricing_plan_id":"cebpf4jnsgd1na2vs0mg"},{"bike_id":"70d43021-d0d5-46ae-b732-349c735ced01","system_id":"levelo_inurba_marseille","lat":43.28429,"lon":5.38773,"is_reserved":false,"is_disabled":false,"rental_uris":{"android":"levelo://app?vid=70d43021-d0d5-46ae-b732-349c735ced01","ios":"levelo://app?vid=70d43021-d0d5-46ae-b732-349c735ced01"},"vehicle_type_id":"4","last_reported":1774880415,"current_range_meters":9200,"station_id":"","pricing_plan_id":"cebpf4jnsgd1na2vs0mg"},{"bike_id":"cf039980-8909-4a03-aa52-b426c9efd4e8","system_id":"levelo_inurba_marseille","lat":43.21747,"lon":5.34599,"is_reserved":false,"is_disabled":false,"rental_uris":{"android":"levelo://app?vid=cf039980-8909-4a03-aa52-b426c9efd4e8","ios":"levelo://app?vid=cf039980-8909-4a03-aa52-b426c9efd4e8"},"vehicle_type_id":"4","last_reported":1774880415,"current_range_meters":9200,"station_id":"st_cvj6r9ubvosntc0bgbag","pricing_plan_id":"cebpf4jnsgd1na2vs0mg"},{"bike_id":"2cab3106-28b1-489a-9ace-306eecb4056a","system_id":"levelo_inurba_marseille","lat":43.337444,"lon":5.374475,"is_reserved":false,"is_disabled":false,"rental_uris":{"android":"levelo://app?vid=2cab3106-28b1-489a-9ace-306eecb4056a","ios":"levelo://app?vid=2cab3106-28b1-489a-9ace-306eecb4056a"},"vehicle_type_id":"4","last_reported":1774880415,"current_range_meters":9200,"station_id":"ce4bhp92rcd13ifvqhbg","pricing_plan_id":"cebpf4jnsgd1na2vs0mg"},{"bike_id":"5324f073-a80f-4b44-b3a4-717613026589","system_id":"levelo_inurba_marseille","lat":43.24187,"lon":5.39723,"is_reserved":false,"is_disabled":false,"rental_uris":{"android":"levelo://app?vid=5324f073-a80f-4b44-b3a4-717613026589","ios":"levelo://app?vid=5324f073-a80f-4b44-b3a4-717613026589"},"vehicle_type_id":"4","last_reported":1774880415,"current_range_meters":9200,"station_id":"ce4bhn12rcd13ifvqgpg","pricing_plan_id":"cebpf4jnsgd1na2vs0mg"},{"bike_id":"e61a3b02-8828-47a8-8796-a0480c283119","system_id":"levelo_inurba_marseille","lat":43.22922,"lon":5.35386,"is_reserved":false,"is_disabled":false,"rental_uris":{"android":"levelo://app?vid=e61a3b02-8828-47a8-8796-a0480c283119","ios":"levelo://app?vid=e61a3b02-8828-47a8-8796-a0480c283119"},"vehicle_type_id":"4","last_reported":1774880415,"current_range_meters":9200,"station_id":"cpo3532slgdg3j2ikp40","pricing_plan_id":"cebpf4jnsgd1na2vs0mg"},{"bike_id":"287ab833-25ca-42ea-8baa-ec02f1c9b2ea","system_id":"levelo_inurba_marseille","lat":43.2956,"lon":5.36384,"is_reserved":false,"is_disabled":false,"rental_uris":{"android":"levelo://app?vid=287ab833-25ca-42ea-8baa-ec02f1c9b2ea","ios":"levelo://app?vid=287ab833-25ca-42ea-8baa-ec02f1c9b2ea"},"vehicle_type_id":"4","last_reported":1774880415,"current_range_meters":9200,"station_id":"ce4bgm92rcd13ifvqbr0","pricing_plan_id":"cebpf4jnsgd1na2vs0mg"},{"bike_id":"bb9c9ce8-7ad8-4c58-9c75-429d43a3d175","system_id":"levelo_inurba_marseille","lat":43.24027,"lon":5.36234,"is_reserved":false,"is_disabled":false,"rental_uris":{"android":"levelo://app?vid=bb9c9ce8-7ad8-4c58-9c75-429d43a3d175","ios":"levelo://app?vid=bb9c9ce8-7ad8-4c58-9c75-429d43a3d175"},"vehicle_type_id":"4","last_reported":1774880415,"current_range_meters":9200,"station_id":"","pricing_plan_id":"cebpf4jnsgd1na2vs0mg"},{"bike_id":"72ee8908-2118-4510-8242-1cee77f54b7c","system_id":"levelo_inurba_marseille","lat":43.2736,"lon":5.42394,"is_reserved":false,"is_disabled":false,"rental_uris":{"android":"levelo://app?vid=72ee8908-2118-4510-8242-1cee77f54b7c","ios":"levelo://app?vid=72ee8908-2118-4510-8242-1cee77f54b7c"},"vehicle_type_id":"4","last_reported":1774880415,"current_range_meters":9200,"station_id":"","pricing_plan_id":"cebpf4jnsgd1na2vs0mg"},{"bike_id":"8224fee4-1d52-4b11-b16a-70c5a6603dd7","system_id":"levelo_inurba_marseille","lat":43.28482,"lon":5.48394,"is_reserved":false,"is_disabled":false,"rental_uris":{"android":"levelo://app?vid=8224fee4-1d52-4b11-b16a-70c5a6603dd7","ios":"levelo://app?vid=8224fee4-1d52-4b11-b16a-70c5a6603dd7"},"vehicle_type_id":"4","last_reported":1774880415,"current_range_meters":9200,"station_id":"","pricing_plan_id":"cebpf4jnsgd1na2vs0mg"},{"bike_id":"c8f4c43b-5a4c-417a-ac5d-3eb1afdb2fe0","system_id":"levelo_inurba_marseille","lat":43.32456,"lon":5.3656,"is_reserved":false,"is_disabled":false,"rental_uris":{"android":"levelo://app?vid=c8f4c43b-5a4c-417a-ac5d-3eb1afdb2fe0","ios":"levelo://app?vid=c8f4c43b-5a4c-417a-ac5d-3eb1afdb2fe0"},"vehicle_type_id":"4","last_reported":1774880415,"current_range_meters":9600,"station_id":"ce4bhs12rcd13ifvqhvg","pricing_plan_id":"cebpf4jnsgd1na2vs0mg"},{"bike_id":"a2df5bbc-915e-4be4-8861-be4d46ce41c0","system_id":"levelo_inurba_marseille","lat":43.28479,"lon":5.48401,"is_reserved":false,"is_disabled":false,"rental_uris":{"android":"levelo://app?vid=a2df5bbc-915e-4be4-8861-be4d46ce41c0","ios":"levelo://app?vid=a2df5bbc-915e-4be4-8861-be4d46ce41c0"},"vehicle_type_id":"4","last_reported":1774880415,"current_range_meters":9600,"station_id":"","pricing_plan_id":"cebpf4jnsgd1na2vs0mg"},{"bike_id":"4086b2ca-54f4-468c-a9c4-93b3edb1a625","system_id":"levelo_inurba_marseille","lat":43.29842,"lon":5.37155,"is_reserved":false,"is_disabled":false,"rental_uris":{"android":"levelo://app?vid=4086b2ca-54f4-468c-a9c4-93b3edb1a625","ios":"levelo://app?vid=4086b2ca-54f4-468c-a9c4-93b3edb1a625"},"vehicle_type_id":"4","last_reported":1774880415,"current_range_meters":9600,"station_id":"","pricing_plan_id":"cebpf4jnsgd1na2vs0mg"},{"bike_id":"3a922081-a991-4b97-906e-7f7dba00403a","system_id":"levelo_inurba_marseille","lat":43.32355,"lon":5.36738,"is_reserved":false,"is_disabled":false,"rental_uris":{"android":"levelo://app?vid=3a922081-a991-4b97-906e-7f7dba00403a","ios":"levelo://app?vid=3a922081-a991-4b97-906e-7f7dba00403a"},"vehicle_type_id":"4","last_reported":1774880415,"current_range_meters":9600,"station_id":"ce4bhsh2rcd13ifvqi2g","pricing_plan_id":"cebpf4jnsgd1na2vs0mg"},{"bike_id":"405bedfb-9935-4390-a8a3-f9ddcf9a97e8","system_id":"levelo_inurba_marseille","lat":43.22535,"lon":5.34836,"is_reserved":false,"is_disabled":false,"rental_uris":{"android":"levelo://app?vid=405bedfb-9935-4390-a8a3-f9ddcf9a97e8","ios":"levelo://app?vid=405bedfb-9935-4390-a8a3-f9ddcf9a97e8"},"vehicle_type_id":"4","last_reported":1774880415,"current_range_meters":9600,"station_id":"","pricing_plan_id":"cebpf4jnsgd1na2vs0mg"},{"bike_id":"2f4d7dc2-1f45-47d2-9aa6-0704800973ee","system_id":"levelo_inurba_marseille","lat":43.28693,"lon":5.46687,"is_reserved":false,"is_disabled":false,"rental_uris":{"android":"levelo://app?vid=2f4d7dc2-1f45-47d2-9aa6-0704800973ee","ios":"levelo://app?vid=2f4d7dc2-1f45-47d2-9aa6-0704800973ee"},"vehicle_type_id":"4","last_reported":1774880415,"current_range_meters":9600,"station_id":"st_d6tc3vkotcvc738tfjhg","pricing_plan_id":"cebpf4jnsgd1na2vs0mg"},{"bike_id":"fc230a14-954a-4d36-be5c-8f8498288ae5","system_id":"levelo_inurba_marseille","lat":43.28289,"lon":5.35054,"is_reserved":false,"is_disabled":false,"rental_uris":{"android":"levelo://app?vid=fc230a14-954a-4d36-be5c-8f8498288ae5","ios":"levelo://app?vid=fc230a14-954a-4d36-be5c-8f8498288ae5"},"vehicle_type_id":"4","last_reported":1774880415,"current_range_meters":9600,"station_id":"ce4bhbp2rcd13ifvqerg","pricing_plan_id":"cebpf4jnsgd1na2vs0mg"},{"bike_id":"71402cb6-01ee-4f5a-9551-b1e9fe6371e2","system_id":"levelo_inurba_marseille","lat":43.2896,"lon":5.43235,"is_reserved":false,"is_disabled":false,"rental_uris":{"android":"levelo://app?vid=71402cb6-01ee-4f5a-9551-b1e9fe6371e2","ios":"levelo://app?vid=71402cb6-01ee-4f5a-9551-b1e9fe6371e2"},"vehicle_type_id":"4","last_reported":1774880415,"current_range_meters":9600,"station_id":"","pricing_plan_id":"cebpf4jnsgd1na2vs0mg"},{"bike_id":"3a0058cf-efbc-4267-b19d-a2ef1622297f","system_id":"levelo_inurba_marseille","lat":43.28619,"lon":5.35099,"is_reserved":false,"is_disabled":false,"rental_uris":{"android":"levelo://app?vid=3a0058cf-efbc-4267-b19d-a2ef1622297f","ios":"levelo://app?vid=3a0058cf-efbc-4267-b19d-a2ef1622297f"},"vehicle_type_id":"4","last_reported":1774880415,"current_range_meters":9600,"station_id":"ce4bhch2rcd13ifvqeug","pricing_plan_id":"cebpf4jnsgd1na2vs0mg"},{"bike_id":"f7253833-614c-42c1-869b-ee053891ecac","system_id":"levelo_inurba_marseille","lat":43.29043,"lon":5.39983,"is_reserved":false,"is_disabled":false,"rental_uris":{"android":"levelo://app?vid=f7253833-614c-42c1-869b-ee053891ecac","ios":"levelo://app?vid=f7253833-614c-42c1-869b-ee053891ecac"},"vehicle_type_id":"4","last_reported":1774880415,"current_range_meters":9600,"station_id":"ce4bh392rcd13ifvqdm0","pricing_plan_id":"cebpf4jnsgd1na2vs0mg"},{"bike_id":"370e4e08-6d82-4b38-8b87-e7eadfcbd0ed","system_id":"levelo_inurba_marseille","lat":43.24182,"lon":5.39716,"is_reserved":false,"is_disabled":false,"rental_uris":{"android":"levelo://app?vid=370e4e08-6d82-4b38-8b87-e7eadfcbd0ed","ios":"levelo://app?vid=370e4e08-6d82-4b38-8b87-e7eadfcbd0ed"},"vehicle_type_id":"4","last_reported":1774880415,"current_range_meters":9600,"station_id":"ce4bhn12rcd13ifvqgpg","pricing_plan_id":"cebpf4jnsgd1na2vs0mg"},{"bike_id":"608a3b13-67b8-465c-9c87-c01fccd4c016","system_id":"levelo_inurba_marseille","lat":43.31336,"lon":5.39689,"is_reserved":false,"is_disabled":false,"rental_uris":{"android":"levelo://app?vid=608a3b13-67b8-465c-9c87-c01fccd4c016","ios":"levelo://app?vid=608a3b13-67b8-465c-9c87-c01fccd4c016"},"vehicle_type_id":"4","last_reported":1774880415,"current_range_meters":9600,"station_id":"ce4bgvp2rcd13ifvqcu0","pricing_plan_id":"cebpf4jnsgd1na2vs0mg"},{"bike_id":"10f05ed2-5813-4d4b-a9c2-f44482f892e6","system_id":"levelo_inurba_marseille","lat":43.31567,"lon":5.36848,"is_reserved":false,"is_disabled":false,"rental_uris":{"android":"levelo://app?vid=10f05ed2-5813-4d4b-a9c2-f44482f892e6","ios":"levelo://app?vid=10f05ed2-5813-4d4b-a9c2-f44482f892e6"},"vehicle_type_id":"4","last_reported":1774880415,"current_range_meters":9600,"station_id":"","pricing_plan_id":"cebpf4jnsgd1na2vs0mg"},{"bike_id":"ff536e32-995c-48bc-8a75-10aca82f1576","system_id":"levelo_inurba_marseille","lat":43.29278,"lon":5.37625,"is_reserved":false,"is_disabled":false,"rental_uris":{"android":"levelo://app?vid=ff536e32-995c-48bc-8a75-10aca82f1576","ios":"levelo://app?vid=ff536e32-995c-48bc-8a75-10aca82f1576"},"vehicle_type_id":"4","last_reported":1774880415,"current_range_meters":9600,"station_id":"ce4bgi12rcd13ifvqb80","pricing_plan_id":"cebpf4jnsgd1na2vs0mg"},{"bike_id":"df222e19-2a08-43ea-a37e-7bbfc665166a","system_id":"levelo_inurba_marseille","lat":43.29826,"lon":5.44057,"is_reserved":false,"is_disabled":false,"rental_uris":{"android":"levelo://app?vid=df222e19-2a08-43ea-a37e-7bbfc665166a","ios":"levelo://app?vid=df222e19-2a08-43ea-a37e-7bbfc665166a"},"vehicle_type_id":"4","last_reported":1774880415,"current_range_meters":9600,"station_id":"st_d3jp68qikq2c7381ktn0","pricing_plan_id":"cebpf4jnsgd1na2vs0mg"},{"bike_id":"9c042e76-477c-4bdb-8379-b079496784bf","system_id":"levelo_inurba_marseille","lat":43.23894,"lon":5.37446,"is_reserved":false,"is_disabled":false,"rental_uris":{"android":"levelo://app?vid=9c042e76-477c-4bdb-8379-b079496784bf","ios":"levelo://app?vid=9c042e76-477c-4bdb-8379-b079496784bf"},"vehicle_type_id":"4","last_reported":1774880415,"current_range_meters":9600,"station_id":"st_d6sm7csbq4hs73f8fpjg","pricing_plan_id":"cebpf4jnsgd1na2vs0mg"},{"bike_id":"0f2aaab1-6172-4bc1-9a4f-2fb906580fc3","system_id":"levelo_inurba_marseille","lat":43.24957,"lon":5.40486,"is_reserved":false,"is_disabled":false,"rental_uris":{"android":"levelo://app?vid=0f2aaab1-6172-4bc1-9a4f-2fb906580fc3","ios":"levelo://app?vid=0f2aaab1-6172-4bc1-9a4f-2fb906580fc3"},"vehicle_type_id":"4","last_reported":1774880415,"current_range_meters":9600,"station_id":"st_d2ngiaodas8pm72gd1h0","pricing_plan_id":"cebpf4jnsgd1na2vs0mg"},{"bike_id":"8289ea9c-9f3c-47cc-ae82-8027b0a738ac","system_id":"levelo_inurba_marseille","lat":43.31927,"lon":5.36734,"is_reserved":false,"is_disabled":false,"rental_uris":{"android":"levelo://app?vid=8289ea9c-9f3c-47cc-ae82-8027b0a738ac","ios":"levelo://app?vid=8289ea9c-9f3c-47cc-ae82-8027b0a738ac"},"vehicle_type_id":"4","last_reported":1774880415,"current_range_meters":9600,"station_id":"","pricing_plan_id":"cebpf4jnsgd1na2vs0mg"},{"bike_id":"e75d5ab0-201a-49aa-aee4-ccc6a30f5664","system_id":"levelo_inurba_marseille","lat":43.29527,"lon":5.38674,"is_reserved":false,"is_disabled":false,"rental_uris":{"android":"levelo://app?vid=e75d5ab0-201a-49aa-aee4-ccc6a30f5664","ios":"levelo://app?vid=e75d5ab0-201a-49aa-aee4-ccc6a30f5664"},"vehicle_type_id":"4","last_reported":1774880415,"current_range_meters":9600,"station_id":"","pricing_plan_id":"cebpf4jnsgd1na2vs0mg"},{"bike_id":"43e4bb96-0cd3-4e42-baf5-dd0ee842f69a","system_id":"levelo_inurba_marseille","lat":43.23797,"lon":5.36635,"is_reserved":false,"is_disabled":false,"rental_uris":{"android":"levelo://app?vid=43e4bb96-0cd3-4e42-baf5-dd0ee842f69a","ios":"levelo://app?vid=43e4bb96-0cd3-4e42-baf5-dd0ee842f69a"},"vehicle_type_id":"4","last_reported":1774880415,"current_range_meters":9600,"station_id":"st_d3nk18o9ro0c73en2l3g","pricing_plan_id":"cebpf4jnsgd1na2vs0mg"},{"bike_id":"99357e4e-0fd2-4bed-b022-406a548cc7c5","system_id":"levelo_inurba_marseille","lat":43.23951,"lon":5.36619,"is_reserved":false,"is_disabled":false,"rental_uris":{"android":"levelo://app?vid=99357e4e-0fd2-4bed-b022-406a548cc7c5","ios":"levelo://app?vid=99357e4e-0fd2-4bed-b022-406a548cc7c5"},"vehicle_type_id":"4","last_reported":1774880415,"current_range_meters":9600,"station_id":"ce4bhi12rcd13ifvqfp0","pricing_plan_id":"cebpf4jnsgd1na2vs0mg"},