{"last_updated":1776945180,"ttl":60,"version":"2.2","data":{"bikes":[{"bike_id":"97aa55f3-b395-4ffc-9a9e-35d6914463e4","system_id":"levelo_inurba_marseille","lat":43.311567,"lon":5.396131,"is_reserved":false,"is_disabled":false,"rental_uris":{"android":"levelo://app?vid=97aa55f3-b395-4ffc-9a9e-35d6914463e4","ios":"levelo://app?vid=97aa55f3-b395-4ffc-9a9e-35d6914463e4"},"vehicle_type_id":"4","last_reported":1776945181,"current_range_meters":0,"station_id":"","pricing_plan_id":"cebpf4jnsgd1na2vs0mg"},{"bike_id":"ab441cdc-9cd1-4c8e-b69e-34bb46fece34","system_id":"levelo_inurba_marseille","lat":43.29391,"lon":5.363,"is_reserved":false,"is_disabled":false,"rental_uris":{"android":"levelo://app?vid=ab441cdc-9cd1-4c8e-b69e-34bb46fece34","ios":"levelo://app?vid=ab441cdc-9cd1-4c8e-b69e-34bb46fece34"},"vehicle_type_id":"4","last_reported":1776945181,"current_range_meters":2800,"station_id":"","pricing_plan_id":"cebpf4jnsgd1na2vs0mg"},{"bike_id":"a94d236d-eba8-4733-81ef-6d7a05120d94","system_id":"levelo_inurba_marseille","lat":43.24855,"lon":5.39424,"is_reserved":false,"is_disabled":false,"rental_uris":{"android":"levelo://app?vid=a94d236d-eba8-4733-81ef-6d7a05120d94","ios":"levelo://app?vid=a94d236d-eba8-4733-81ef-6d7a05120d94"},"vehicle_type_id":"4","last_reported":1776945181,"current_range_meters":2800,"station_id":"","pricing_plan_id":"cebpf4jnsgd1na2vs0mg"},{"bike_id":"7185d8ec-9dc6-41c8-947f-9d3b0aaeb86b","system_id":"levelo_inurba_marseille","lat":43.239,"lon":5.37474,"is_reserved":false,"is_disabled":true,"rental_uris":{"android":"levelo://app?vid=7185d8ec-9dc6-41c8-947f-9d3b0aaeb86b","ios":"levelo://app?vid=7185d8ec-9dc6-41c8-947f-9d3b0aaeb86b"},"vehicle_type_id":"4","last_reported":1776945181,"current_range_meters":2800,"station_id":"st_d6sm7csbq4hs73f8fpjg","pricing_plan_id":"cebpf4jnsgd1na2vs0mg"},{"bike_id":"94dd750c-b803-4852-8849-ece161b19e86","system_id":"levelo_inurba_marseille","lat":43.28476,"lon":5.48385,"is_reserved":false,"is_disabled":false,"rental_uris":{"android":"levelo://app?vid=94dd750c-b803-4852-8849-ece161b19e86","ios":"levelo://app?vid=94dd750c-b803-4852-8849-ece161b19e86"},"vehicle_type_id":"4","last_reported":1776945181,"current_range_meters":2800,"station_id":"st_d3svhcjqgbts73a3dn0g","pricing_plan_id":"cebpf4jnsgd1na2vs0mg"},{"bike_id":"a5932d33-7fe4-4ab5-ab73-558a4a420627","system_id":"levelo_inurba_marseille","lat":43.24537,"lon":5.4012,"is_reserved":false,"is_disabled":false,"rental_uris":{"android":"levelo://app?vid=a5932d33-7fe4-4ab5-ab73-558a4a420627","ios":"levelo://app?vid=a5932d33-7fe4-4ab5-ab73-558a4a420627"},"vehicle_type_id":"4","last_reported":1776945181,"current_range_meters":2800,"station_id":"","pricing_plan_id":"cebpf4jnsgd1na2vs0mg"},{"bike_id":"73d436be-8bb5-400c-b5b8-edfd7e8d5913","system_id":"levelo_inurba_marseille","lat":43.337444,"lon":5.374475,"is_reserved":false,"is_disabled":false,"rental_uris":{"android":"levelo://app?vid=73d436be-8bb5-400c-b5b8-edfd7e8d5913","ios":"levelo://app?vid=73d436be-8bb5-400c-b5b8-edfd7e8d5913"},"vehicle_type_id":"4","last_reported":1776945181,"current_range_meters":3200,"station_id":"ce4bhgp2rcd13ifvqfc0","pricing_plan_id":"cebpf4jnsgd1na2vs0mg"},{"bike_id":"04257b95-4499-46e1-a4e3-88ab526291ba","system_id":"levelo_inurba_marseille","lat":43.28487,"lon":5.48401,"is_reserved":false,"is_disabled":false,"rental_uris":{"android":"levelo://app?vid=04257b95-4499-46e1-a4e3-88ab526291ba","ios":"levelo://app?vid=04257b95-4499-46e1-a4e3-88ab526291ba"},"vehicle_type_id":"4","last_reported":1776945181,"current_range_meters":3200,"station_id":"","pricing_plan_id":"cebpf4jnsgd1na2vs0mg"},{"bike_id":"4300ac50-5f46-4a9d-9de6-bb4f1fc4b0fe","system_id":"levelo_inurba_marseille","lat":43.29276,"lon":5.401132,"is_reserved":false,"is_disabled":false,"rental_uris":{"android":"levelo://app?vid=4300ac50-5f46-4a9d-9de6-bb4f1fc4b0fe","ios":"levelo://app?vid=4300ac50-5f46-4a9d-9de6-bb4f1fc4b0fe"},"vehicle_type_id":"4","last_reported":1776945181,"current_range_meters":3200,"station_id":"ce4bh312rcd13ifvqdk0","pricing_plan_id":"cebpf4jnsgd1na2vs0mg"},{"bike_id":"96ca303c-088d-4ad6-b070-ffe3c07180af","system_id":"levelo_inurba_marseille","lat":43.23966,"lon":5.36629,"is_reserved":false,"is_disabled":false,"rental_uris":{"android":"levelo://app?vid=96ca303c-088d-4ad6-b070-ffe3c07180af","ios":"levelo://app?vid=96ca303c-088d-4ad6-b070-ffe3c07180af"},"vehicle_type_id":"4","last_reported":1776945181,"current_range_meters":3200,"station_id":"ce4bhi12rcd13ifvqfp0","pricing_plan_id":"cebpf4jnsgd1na2vs0mg"},{"bike_id":"54af1c20-62de-4c63-87ac-e2f6f9d247e0","system_id":"levelo_inurba_marseille","lat":43.23153,"lon":5.43702,"is_reserved":false,"is_disabled":false,"rental_uris":{"android":"levelo://app?vid=54af1c20-62de-4c63-87ac-e2f6f9d247e0","ios":"levelo://app?vid=54af1c20-62de-4c63-87ac-e2f6f9d247e0"},"vehicle_type_id":"4","last_reported":1776945181,"current_range_meters":3600,"station_id":"ce4bhmp2rcd13ifvqgog","pricing_plan_id":"cebpf4jnsgd1na2vs0mg"},{"bike_id":"3ba35096-bfdc-44a9-bbfe-7c0ca475acd5","system_id":"levelo_inurba_marseille","lat":43.27369,"lon":5.36256,"is_reserved":false,"is_disabled":false,"rental_uris":{"android":"levelo://app?vid=3ba35096-bfdc-44a9-bbfe-7c0ca475acd5","ios":"levelo://app?vid=3ba35096-bfdc-44a9-bbfe-7c0ca475acd5"},"vehicle_type_id":"4","last_reported":1776945181,"current_range_meters":3600,"station_id":"ce4bhbh2rcd13ifvqeo0","pricing_plan_id":"cebpf4jnsgd1na2vs0mg"},{"bike_id":"1c4db81e-e54e-450a-b910-a202dc639503","system_id":"levelo_inurba_marseille","lat":43.28477,"lon":5.48403,"is_reserved":false,"is_disabled":false,"rental_uris":{"android":"levelo://app?vid=1c4db81e-e54e-450a-b910-a202dc639503","ios":"levelo://app?vid=1c4db81e-e54e-450a-b910-a202dc639503"},"vehicle_type_id":"4","last_reported":1776945181,"current_range_meters":3600,"station_id":"","pricing_plan_id":"cebpf4jnsgd1na2vs0mg"},{"bike_id":"f01d500d-617f-458b-a119-1676466bce0e","system_id":"levelo_inurba_marseille","lat":43.29602,"lon":5.36722,"is_reserved":false,"is_disabled":true,"rental_uris":{"android":"levelo://app?vid=f01d500d-617f-458b-a119-1676466bce0e","ios":"levelo://app?vid=f01d500d-617f-458b-a119-1676466bce0e"},"vehicle_type_id":"4","last_reported":1776945181,"current_range_meters":3600,"station_id":"ce4bgph2rcd13ifvqc2g","pricing_plan_id":"cebpf4jnsgd1na2vs0mg"},{"bike_id":"97640678-22eb-456e-8a6b-8940edbd10ca","system_id":"levelo_inurba_marseille","lat":43.23901,"lon":5.41489,"is_reserved":false,"is_disabled":false,"rental_uris":{"android":"levelo://app?vid=97640678-22eb-456e-8a6b-8940edbd10ca","ios":"levelo://app?vid=97640678-22eb-456e-8a6b-8940edbd10ca"},"vehicle_type_id":"4","last_reported":1776945181,"current_range_meters":3600,"station_id":"","pricing_plan_id":"cebpf4jnsgd1na2vs0mg"},{"bike_id":"53ac9b94-d2b8-401a-8133-9009372f217e","system_id":"levelo_inurba_marseille","lat":43.2848,"lon":5.48408,"is_reserved":false,"is_disabled":false,"rental_uris":{"android":"levelo://app?vid=53ac9b94-d2b8-401a-8133-9009372f217e","ios":"levelo://app?vid=53ac9b94-d2b8-401a-8133-9009372f217e"},"vehicle_type_id":"4","last_reported":1776945181,"current_range_meters":3600,"station_id":"","pricing_plan_id":"cebpf4jnsgd1na2vs0mg"},{"bike_id":"4c424ecd-2b5b-40e1-86a1-ab69d5c86c84","system_id":"levelo_inurba_marseille","lat":43.32653,"lon":5.40992,"is_reserved":false,"is_disabled":false,"rental_uris":{"android":"levelo://app?vid=4c424ecd-2b5b-40e1-86a1-ab69d5c86c84","ios":"levelo://app?vid=4c424ecd-2b5b-40e1-86a1-ab69d5c86c84"},"vehicle_type_id":"4","last_reported":1776945181,"current_range_meters":3600,"station_id":"ce4bhpp2rcd13ifvqhgg","pricing_plan_id":"cebpf4jnsgd1na2vs0mg"},{"bike_id":"fc83597b-c92a-4d6b-9ec3-85cccb5b70a7","system_id":"levelo_inurba_marseille","lat":43.31958,"lon":5.36814,"is_reserved":false,"is_disabled":false,"rental_uris":{"android":"levelo://app?vid=fc83597b-c92a-4d6b-9ec3-85cccb5b70a7","ios":"levelo://app?vid=fc83597b-c92a-4d6b-9ec3-85cccb5b70a7"},"vehicle_type_id":"4","last_reported":1776945181,"current_range_meters":4000,"station_id":"","pricing_plan_id":"cebpf4jnsgd1na2vs0mg"},{"bike_id":"46fcd30c-c87b-4d27-8e72-a965b5215561","system_id":"levelo_inurba_marseille","lat":43.30351,"lon":5.42499,"is_reserved":false,"is_disabled":false,"rental_uris":{"android":"levelo://app?vid=46fcd30c-c87b-4d27-8e72-a965b5215561","ios":"levelo://app?vid=46fcd30c-c87b-4d27-8e72-a965b5215561"},"vehicle_type_id":"4","last_reported":1776945181,"current_range_meters":4000,"station_id":"","pricing_plan_id":"cebpf4jnsgd1na2vs0mg"},{"bike_id":"b0292b57-bc6e-4d3d-855f-2c85d8c85123","system_id":"levelo_inurba_marseille","lat":43.29321,"lon":5.36256,"is_reserved":false,"is_disabled":false,"rental_uris":{"android":"levelo://app?vid=b0292b57-bc6e-4d3d-855f-2c85d8c85123","ios":"levelo://app?vid=b0292b57-bc6e-4d3d-855f-2c85d8c85123"},"vehicle_type_id":"4","last_reported":1776945181,"current_range_meters":4000,"station_id":"","pricing_plan_id":"cebpf4jnsgd1na2vs0mg"},{"bike_id":"bd3c6b3e-d299-464a-9a96-a94e112dc80d","system_id":"levelo_inurba_marseille","lat":43.29834,"lon":5.36274,"is_reserved":false,"is_disabled":false,"rental_uris":{"android":"levelo://app?vid=bd3c6b3e-d299-464a-9a96-a94e112dc80d","ios":"levelo://app?vid=bd3c6b3e-d299-464a-9a96-a94e112dc80d"},"vehicle_type_id":"4","last_reported":1776945181,"current_range_meters":4000,"station_id":"ce4bgpp2rcd13ifvqc3g","pricing_plan_id":"cebpf4jnsgd1na2vs0mg"},{"bike_id":"98e26014-ac24-4d7d-a5fa-d78708df50ac","system_id":"levelo_inurba_marseille","lat":43.23138,"lon":5.4372,"is_reserved":false,"is_disabled":true,"rental_uris":{"android":"levelo://app?vid=98e26014-ac24-4d7d-a5fa-d78708df50ac","ios":"levelo://app?vid=98e26014-ac24-4d7d-a5fa-d78708df50ac"},"vehicle_type_id":"4","last_reported":1776945181,"current_range_meters":4000,"station_id":"ce4bhmp2rcd13ifvqgog","pricing_plan_id":"cebpf4jnsgd1na2vs0mg"},{"bike_id":"fd090187-b3cd-49e0-82c6-b3817cf3be1b","system_id":"levelo_inurba_marseille","lat":43.29822,"lon":5.38558,"is_reserved":false,"is_disabled":false,"rental_uris":{"android":"levelo://app?vid=fd090187-b3cd-49e0-82c6-b3817cf3be1b","ios":"levelo://app?vid=fd090187-b3cd-49e0-82c6-b3817cf3be1b"},"vehicle_type_id":"4","last_reported":1776945181,"current_range_meters":4000,"station_id":"","pricing_plan_id":"cebpf4jnsgd1na2vs0mg"},{"bike_id":"cfcc8dcf-6816-46a1-945d-fdf5ccf50752","system_id":"levelo_inurba_marseille","lat":43.30924,"lon":5.41189,"is_reserved":false,"is_disabled":false,"rental_uris":{"android":"levelo://app?vid=cfcc8dcf-6816-46a1-945d-fdf5ccf50752","ios":"levelo://app?vid=cfcc8dcf-6816-46a1-945d-fdf5ccf50752"},"vehicle_type_id":"4","last_reported":1776945181,"current_range_meters":4000,"station_id":"","pricing_plan_id":"cebpf4jnsgd1na2vs0mg"},{"bike_id":"e9d8fce9-a5b1-47db-ba7d-e68cf8fcb5c2","system_id":"levelo_inurba_marseille","lat":43.21193,"lon":5.35073,"is_reserved":false,"is_disabled":false,"rental_uris":{"android":"levelo://app?vid=e9d8fce9-a5b1-47db-ba7d-e68cf8fcb5c2","ios":"levelo://app?vid=e9d8fce9-a5b1-47db-ba7d-e68cf8fcb5c2"},"vehicle_type_id":"4","last_reported":1776945181,"current_range_meters":4000,"station_id":"st_cvj6sg6p6f1abm77japg","pricing_plan_id":"cebpf4jnsgd1na2vs0mg"},{"bike_id":"1920230f-cceb-4ecb-946a-b5363e0e586f","system_id":"levelo_inurba_marseille","lat":43.21192,"lon":5.35074,"is_reserved":false,"is_disabled":true,"rental_uris":{"android":"levelo://app?vid=1920230f-cceb-4ecb-946a-b5363e0e586f","ios":"levelo://app?vid=1920230f-cceb-4ecb-946a-b5363e0e586f"},"vehicle_type_id":"4","last_reported":1776945181,"current_range_meters":4000,"station_id":"st_cvj6sg6p6f1abm77japg","pricing_plan_id":"cebpf4jnsgd1na2vs0mg"},{"bike_id":"7890c4dc-8244-4ddd-88cb-746f0f6e39f6","system_id":"levelo_inurba_marseille","lat":43.24822,"lon":5.37455,"is_reserved":false,"is_disabled":true,"rental_uris":{"android":"levelo://app?vid=7890c4dc-8244-4ddd-88cb-746f0f6e39f6","ios":"levelo://app?vid=7890c4dc-8244-4ddd-88cb-746f0f6e39f6"},"vehicle_type_id":"4","last_reported":1776945181,"current_range_meters":4400,"station_id":"ce4bhgh2rcd13ifvqfb0","pricing_plan_id":"cebpf4jnsgd1na2vs0mg"},{"bike_id":"16f7fe35-694a-4eb9-9cc6-4679694d07e2","system_id":"levelo_inurba_marseille","lat":43.2977,"lon":5.37096,"is_reserved":false,"is_disabled":false,"rental_uris":{"android":"levelo://app?vid=16f7fe35-694a-4eb9-9cc6-4679694d07e2","ios":"levelo://app?vid=16f7fe35-694a-4eb9-9cc6-4679694d07e2"},"vehicle_type_id":"4","last_reported":1776945181,"current_range_meters":4400,"station_id":"ce4bgop2rcd13ifvqc1g","pricing_plan_id":"cebpf4jnsgd1na2vs0mg"},{"bike_id":"9b83de7e-627c-4b6a-97f2-e9456822b44d","system_id":"levelo_inurba_marseille","lat":43.26358,"lon":5.41073,"is_reserved":false,"is_disabled":false,"rental_uris":{"android":"levelo://app?vid=9b83de7e-627c-4b6a-97f2-e9456822b44d","ios":"levelo://app?vid=9b83de7e-627c-4b6a-97f2-e9456822b44d"},"vehicle_type_id":"4","last_reported":1776945181,"current_range_meters":4400,"station_id":"st_d4e5ca6na9uc73bfl5fg","pricing_plan_id":"cebpf4jnsgd1na2vs0mg"},{"bike_id":"5bab2a6a-1dca-42e7-a0e2-160af5917ea8","system_id":"levelo_inurba_marseille","lat":43.28267,"lon":5.35057,"is_reserved":false,"is_disabled":false,"rental_uris":{"android":"levelo://app?vid=5bab2a6a-1dca-42e7-a0e2-160af5917ea8","ios":"levelo://app?vid=5bab2a6a-1dca-42e7-a0e2-160af5917ea8"},"vehicle_type_id":"4","last_reported":1776945181,"current_range_meters":4400,"station_id":"ce4bhbp2rcd13ifvqerg","pricing_plan_id":"cebpf4jnsgd1na2vs0mg"},{"bike_id":"425af88a-55d1-4323-97d5-68a9cd76663d","system_id":"levelo_inurba_marseille","lat":43.26224,"lon":5.37433,"is_reserved":false,"is_disabled":false,"rental_uris":{"android":"levelo://app?vid=425af88a-55d1-4323-97d5-68a9cd76663d","ios":"levelo://app?vid=425af88a-55d1-4323-97d5-68a9cd76663d"},"vehicle_type_id":"4","last_reported":1776945181,"current_range_meters":4400,"station_id":"ce4bhgp2rcd13ifvqfc0","pricing_plan_id":"cebpf4jnsgd1na2vs0mg"},{"bike_id":"0d8738c8-efd5-4f83-bedf-81eb9a1d6096","system_id":"levelo_inurba_marseille","lat":43.33166,"lon":5.36172,"is_reserved":false,"is_disabled":false,"rental_uris":{"android":"levelo://app?vid=0d8738c8-efd5-4f83-bedf-81eb9a1d6096","ios":"levelo://app?vid=0d8738c8-efd5-4f83-bedf-81eb9a1d6096"},"vehicle_type_id":"4","last_reported":1776945181,"current_range_meters":4400,"station_id":"","pricing_plan_id":"cebpf4jnsgd1na2vs0mg"},{"bike_id":"059b4ad8-665d-46df-9a3f-e9b9a20a1c99","system_id":"levelo_inurba_marseille","lat":43.3354,"lon":5.37466,"is_reserved":false,"is_disabled":false,"rental_uris":{"android":"levelo://app?vid=059b4ad8-665d-46df-9a3f-e9b9a20a1c99","ios":"levelo://app?vid=059b4ad8-665d-46df-9a3f-e9b9a20a1c99"},"vehicle_type_id":"4","last_reported":1776945181,"current_range_meters":4400,"station_id":"st_d46tts09ee8s73dlu43g","pricing_plan_id":"cebpf4jnsgd1na2vs0mg"},{"bike_id":"09012acd-7e2a-4e46-b00e-3df38d87fafc","system_id":"levelo_inurba_marseille","lat":43.24846,"lon":5.40632,"is_reserved":false,"is_disabled":false,"rental_uris":{"android":"levelo://app?vid=09012acd-7e2a-4e46-b00e-3df38d87fafc","ios":"levelo://app?vid=09012acd-7e2a-4e46-b00e-3df38d87fafc"},"vehicle_type_id":"4","last_reported":1776945181,"current_range_meters":4800,"station_id":"","pricing_plan_id":"cebpf4jnsgd1na2vs0mg"},{"bike_id":"55f585b9-cb27-49d4-ab67-b14346195d8c","system_id":"levelo_inurba_marseille","lat":43.28703,"lon":5.46686,"is_reserved":false,"is_disabled":false,"rental_uris":{"android":"levelo://app?vid=55f585b9-cb27-49d4-ab67-b14346195d8c","ios":"levelo://app?vid=55f585b9-cb27-49d4-ab67-b14346195d8c"},"vehicle_type_id":"4","last_reported":1776945181,"current_range_meters":4800,"station_id":"st_d6tc3vkotcvc738tfjhg","pricing_plan_id":"cebpf4jnsgd1na2vs0mg"},{"bike_id":"b0936f8e-a2ee-4926-83f8-c09cbc215038","system_id":"levelo_inurba_marseille","lat":43.30352,"lon":5.42484,"is_reserved":false,"is_disabled":false,"rental_uris":{"android":"levelo://app?vid=b0936f8e-a2ee-4926-83f8-c09cbc215038","ios":"levelo://app?vid=b0936f8e-a2ee-4926-83f8-c09cbc215038"},"vehicle_type_id":"4","last_reported":1776945181,"current_range_meters":4800,"station_id":"","pricing_plan_id":"cebpf4jnsgd1na2vs0mg"},{"bike_id":"f8d46f57-68ae-42a5-9479-ae67d8834276","system_id":"levelo_inurba_marseille","lat":43.29978,"lon":5.37129,"is_reserved":false,"is_disabled":false,"rental_uris":{"android":"levelo://app?vid=f8d46f57-68ae-42a5-9479-ae67d8834276","ios":"levelo://app?vid=f8d46f57-68ae-42a5-9479-ae67d8834276"},"vehicle_type_id":"4","last_reported":1776945181,"current_range_meters":4800,"station_id":"ce4bgr92rcd13ifvqc7g","pricing_plan_id":"cebpf4jnsgd1na2vs0mg"},{"bike_id":"2f98c3a8-4cbd-455b-a0ac-71eea290945b","system_id":"levelo_inurba_marseille","lat":43.21199,"lon":5.35063,"is_reserved":false,"is_disabled":false,"rental_uris":{"android":"levelo://app?vid=2f98c3a8-4cbd-455b-a0ac-71eea290945b","ios":"levelo://app?vid=2f98c3a8-4cbd-455b-a0ac-71eea290945b"},"vehicle_type_id":"4","last_reported":1776945181,"current_range_meters":4800,"station_id":"st_cvj6sg6p6f1abm77japg","pricing_plan_id":"cebpf4jnsgd1na2vs0mg"},{"bike_id":"fd4e7dcb-068b-4b9e-bfe6-b98c2944b3c1","system_id":"levelo_inurba_marseille","lat":43.27948,"lon":5.38711,"is_reserved":false,"is_disabled":false,"rental_uris":{"android":"levelo://app?vid=fd4e7dcb-068b-4b9e-bfe6-b98c2944b3c1","ios":"levelo://app?vid=fd4e7dcb-068b-4b9e-bfe6-b98c2944b3c1"},"vehicle_type_id":"4","last_reported":1776945181,"current_range_meters":5600,"station_id":"ce4bhg12rcd13ifvqf80","pricing_plan_id":"cebpf4jnsgd1na2vs0mg"},{"bike_id":"b03d1d29-2f1f-4b9c-b3b6-0acc1d859b2b","system_id":"levelo_inurba_marseille","lat":43.2315,"lon":5.43702,"is_reserved":false,"is_disabled":false,"rental_uris":{"android":"levelo://app?vid=b03d1d29-2f1f-4b9c-b3b6-0acc1d859b2b","ios":"levelo://app?vid=b03d1d29-2f1f-4b9c-b3b6-0acc1d859b2b"},"vehicle_type_id":"4","last_reported":1776945181,"current_range_meters":5600,"station_id":"ce4bhmp2rcd13ifvqgog","pricing_plan_id":"cebpf4jnsgd1na2vs0mg"},{"bike_id":"b31dcf29-c59f-4a8c-956d-3fa94c9099c6","system_id":"levelo_inurba_marseille","lat":43.29211,"lon":5.36074,"is_reserved":false,"is_disabled":false,"rental_uris":{"android":"levelo://app?vid=b31dcf29-c59f-4a8c-956d-3fa94c9099c6","ios":"levelo://app?vid=b31dcf29-c59f-4a8c-956d-3fa94c9099c6"},"vehicle_type_id":"4","last_reported":1776945181,"current_range_meters":5600,"station_id":"ce4bhbh2rcd13ifvqeqg","pricing_plan_id":"cebpf4jnsgd1na2vs0mg"},{"bike_id":"5aae259f-6388-45b9-b50c-b5675d4abfe5","system_id":"levelo_inurba_marseille","lat":43.27313,"lon":5.39077,"is_reserved":false,"is_disabled":false,"rental_uris":{"android":"levelo://app?vid=5aae259f-6388-45b9-b50c-b5675d4abfe5","ios":"levelo://app?vid=5aae259f-6388-45b9-b50c-b5675d4abfe5"},"vehicle_type_id":"4","last_reported":1776945181,"current_range_meters":5600,"station_id":"ce4bhgp2rcd13ifvqfe0","pricing_plan_id":"cebpf4jnsgd1na2vs0mg"},{"bike_id":"a4ded1f5-1e63-49de-ab49-0ec5508728eb","system_id":"levelo_inurba_marseille","lat":43.26781,"lon":5.39405,"is_reserved":false,"is_disabled":false,"rental_uris":{"android":"levelo://app?vid=a4ded1f5-1e63-49de-ab49-0ec5508728eb","ios":"levelo://app?vid=a4ded1f5-1e63-49de-ab49-0ec5508728eb"},"vehicle_type_id":"4","last_reported":1776945181,"current_range_meters":5600,"station_id":"ce4bhh12rcd13ifvqfg0","pricing_plan_id":"cebpf4jnsgd1na2vs0mg"},{"bike_id":"2e2bce0c-31ae-4bce-a1f6-fd288ae8e98c","system_id":"levelo_inurba_marseille","lat":43.30956,"lon":5.39042,"is_reserved":false,"is_disabled":false,"rental_uris":{"android":"levelo://app?vid=2e2bce0c-31ae-4bce-a1f6-fd288ae8e98c","ios":"levelo://app?vid=2e2bce0c-31ae-4bce-a1f6-fd288ae8e98c"},"vehicle_type_id":"4","last_reported":1776945181,"current_range_meters":6000,"station_id":"ce4bgup2rcd13ifvqco0","pricing_plan_id":"cebpf4jnsgd1na2vs0mg"},{"bike_id":"d5c77ed1-6ea1-4998-aea0-e9a1dcb59dd3","system_id":"levelo_inurba_marseille","lat":43.33152,"lon":5.37697,"is_reserved":false,"is_disabled":false,"rental_uris":{"android":"levelo://app?vid=d5c77ed1-6ea1-4998-aea0-e9a1dcb59dd3","ios":"levelo://app?vid=d5c77ed1-6ea1-4998-aea0-e9a1dcb59dd3"},"vehicle_type_id":"4","last_reported":1776945181,"current_range_meters":6000,"station_id":"st_d46cu089ee8s73dldbu0","pricing_plan_id":"cebpf4jnsgd1na2vs0mg"},{"bike_id":"b4a633d6-0d70-4d53-b37a-e3c75dc3a02d","system_id":"levelo_inurba_marseille","lat":43.21199,"lon":5.35059,"is_reserved":false,"is_disabled":false,"rental_uris":{"android":"levelo://app?vid=b4a633d6-0d70-4d53-b37a-e3c75dc3a02d","ios":"levelo://app?vid=b4a633d6-0d70-4d53-b37a-e3c75dc3a02d"},"vehicle_type_id":"4","last_reported":1776945181,"current_range_meters":6000,"station_id":"st_cvj6sg6p6f1abm77japg","pricing_plan_id":"cebpf4jnsgd1na2vs0mg"},{"bike_id":"8331af0f-100e-470f-9e36-7657fa113fe2","system_id":"levelo_inurba_marseille","lat":43.31234,"lon":5.36858,"is_reserved":false,"is_disabled":false,"rental_uris":{"android":"levelo://app?vid=8331af0f-100e-470f-9e36-7657fa113fe2","ios":"levelo://app?vid=8331af0f-100e-470f-9e36-7657fa113fe2"},"vehicle_type_id":"4","last_reported":1776945181,"current_range_meters":6000,"station_id":"ce4bgl92rcd13ifvqbq0","pricing_plan_id":"cebpf4jnsgd1na2vs0mg"},{"bike_id":"f32d251e-0345-49a1-928a-b16bc7d3dd4a","system_id":"levelo_inurba_marseille","lat":43.231826,"lon":5.399858,"is_reserved":false,"is_disabled":false,"rental_uris":{"android":"levelo://app?vid=f32d251e-0345-49a1-928a-b16bc7d3dd4a","ios":"levelo://app?vid=f32d251e-0345-49a1-928a-b16bc7d3dd4a"},"vehicle_type_id":"4","last_reported":1776945181,"current_range_meters":6000,"station_id":"ce4bhn12rcd13ifvqgqg","pricing_plan_id":"cebpf4jnsgd1na2vs0mg"},{"bike_id":"5fef44c5-b3e5-491f-ab14-4ddbff8f86b2","system_id":"levelo_inurba_marseille","lat":43.28413,"lon":5.34983,"is_reserved":false,"is_disabled":false,"rental_uris":{"android":"levelo://app?vid=5fef44c5-b3e5-491f-ab14-4ddbff8f86b2","ios":"levelo://app?vid=5fef44c5-b3e5-491f-ab14-4ddbff8f86b2"},"vehicle_type_id":"4","last_reported":1776945181,"current_range_meters":6000,"station_id":"ce4bhbh2rcd13ifvqepg","pricing_plan_id":"cebpf4jnsgd1na2vs0mg"},{"bike_id":"772652df-39a3-4a7d-ab76-86683fdc6511","system_id":"levelo_inurba_marseille","lat":43.28931,"lon":5.36858,"is_reserved":false,"is_disabled":false,"rental_uris":{"android":"levelo://app?vid=772652df-39a3-4a7d-ab76-86683fdc6511","ios":"levelo://app?vid=772652df-39a3-4a7d-ab76-86683fdc6511"},"vehicle_type_id":"4","last_reported":1776945181,"current_range_meters":6000,"station_id":"","pricing_plan_id":"cebpf4jnsgd1na2vs0mg"},{"bike_id":"e8c9d71a-afbc-4c59-af4d-6ad77f1ebe3b","system_id":"levelo_inurba_marseille","lat":43.32716,"lon":5.36303,"is_reserved":false,"is_disabled":false,"rental_uris":{"android":"levelo://app?vid=e8c9d71a-afbc-4c59-af4d-6ad77f1ebe3b","ios":"levelo://app?vid=e8c9d71a-afbc-4c59-af4d-6ad77f1ebe3b"},"vehicle_type_id":"4","last_reported":1776945181,"current_range_meters":6000,"station_id":"","pricing_plan_id":"cebpf4jnsgd1na2vs0mg"},{"bike_id":"5452cec5-0d50-46b6-acc9-641ef1c160ec","system_id":"levelo_inurba_marseille","lat":43.2904,"lon":5.3994,"is_reserved":false,"is_disabled":false,"rental_uris":{"android":"levelo://app?vid=5452cec5-0d50-46b6-acc9-641ef1c160ec","ios":"levelo://app?vid=5452cec5-0d50-46b6-acc9-641ef1c160ec"},"vehicle_type_id":"4","last_reported":1776945181,"current_range_meters":6000,"station_id":"ce4bh392rcd13ifvqdm0","pricing_plan_id":"cebpf4jnsgd1na2vs0mg"},{"bike_id":"d69e3f92-6ac2-4953-a29c-24ebc1d4d17a","system_id":"levelo_inurba_marseille","lat":43.259338,"lon":5.40912,"is_reserved":false,"is_disabled":false,"rental_uris":{"android":"levelo://app?vid=d69e3f92-6ac2-4953-a29c-24ebc1d4d17a","ios":"levelo://app?vid=d69e3f92-6ac2-4953-a29c-24ebc1d4d17a"},"vehicle_type_id":"4","last_reported":1776945181,"current_range_meters":6000,"station_id":"ce4bhm92rcd13ifvqglg","pricing_plan_id":"cebpf4jnsgd1na2vs0mg"},{"bike_id":"97563811-de7e-4fb9-bbc8-59c1cb66a0eb","system_id":"levelo_inurba_marseille","lat":43.243839,"lon":5.370514,"is_reserved":false,"is_disabled":false,"rental_uris":{"android":"levelo://app?vid=97563811-de7e-4fb9-bbc8-59c1cb66a0eb","ios":"levelo://app?vid=97563811-de7e-4fb9-bbc8-59c1cb66a0eb"},"vehicle_type_id":"4","last_reported":1776945181,"current_range_meters":6400,"station_id":"ce4bhhh2rcd13ifvqfk0","pricing_plan_id":"cebpf4jnsgd1na2vs0mg"},{"bike_id":"fa01097f-8880-4771-9b78-1f0d5b9be756","system_id":"levelo_inurba_marseille","lat":43.26021,"lon":5.37551,"is_reserved":false,"is_disabled":false,"rental_uris":{"android":"levelo://app?vid=fa01097f-8880-4771-9b78-1f0d5b9be756","ios":"levelo://app?vid=fa01097f-8880-4771-9b78-1f0d5b9be756"},"vehicle_type_id":"4","last_reported":1776945181,"current_range_meters":6400,"station_id":"ce4bhgh2rcd13ifvqfa0","pricing_plan_id":"cebpf4jnsgd1na2vs0mg"},{"bike_id":"4b8819bd-ccb3-4c6d-bc27-721fcf9f9ad9","system_id":"levelo_inurba_marseille","lat":43.23963,"lon":5.36625,"is_reserved":false,"is_disabled":false,"rental_uris":{"android":"levelo://app?vid=4b8819bd-ccb3-4c6d-bc27-721fcf9f9ad9","ios":"levelo://app?vid=4b8819bd-ccb3-4c6d-bc27-721fcf9f9ad9"},"vehicle_type_id":"4","last_reported":1776945181,"current_range_meters":6400,"station_id":"ce4bhi12rcd13ifvqfp0","pricing_plan_id":"cebpf4jnsgd1na2vs0mg"},{"bike_id":"205eefac-f379-49f9-b02e-ad048a493b05","system_id":"levelo_inurba_marseille","lat":43.27122,"lon":5.42549,"is_reserved":false,"is_disabled":false,"rental_uris":{"android":"levelo://app?vid=205eefac-f379-49f9-b02e-ad048a493b05","ios":"levelo://app?vid=205eefac-f379-49f9-b02e-ad048a493b05"},"vehicle_type_id":"4","last_reported":1776945181,"current_range_meters":6400,"station_id":"","pricing_plan_id":"cebpf4jnsgd1na2vs0mg"},{"bike_id":"b29662ca-6054-48c3-b86e-74800019cf61","system_id":"levelo_inurba_marseille","lat":43.29623,"lon":5.37723,"is_reserved":false,"is_disabled":false,"rental_uris":{"android":"levelo://app?vid=b29662ca-6054-48c3-b86e-74800019cf61","ios":"levelo://app?vid=b29662ca-6054-48c3-b86e-74800019cf61"},"vehicle_type_id":"4","last_reported":1776945181,"current_range_meters":6400,"station_id":"ce4bgi92rcd13ifvqb90","pricing_plan_id":"cebpf4jnsgd1na2vs0mg"},{"bike_id":"469c197f-dddb-4a7a-88bb-6164f7480f75","system_id":"levelo_inurba_marseille","lat":43.29928,"lon":5.36528,"is_reserved":false,"is_disabled":false,"rental_uris":{"android":"levelo://app?vid=469c197f-dddb-4a7a-88bb-6164f7480f75","ios":"levelo://app?vid=469c197f-dddb-4a7a-88bb-6164f7480f75"},"vehicle_type_id":"4","last_reported":1776945181,"current_range_meters":6400,"station_id":"ce4bgm92rcd13ifvqbr0","pricing_plan_id":"cebpf4jnsgd1na2vs0mg"},{"bike_id":"4546b1c6-bacb-4ed7-82ca-09a35652258f","system_id":"levelo_inurba_marseille","lat":43.28333,"lon":5.42637,"is_reserved":false,"is_disabled":false,"rental_uris":{"android":"levelo://app?vid=4546b1c6-bacb-4ed7-82ca-09a35652258f","ios":"levelo://app?vid=4546b1c6-bacb-4ed7-82ca-09a35652258f"},"vehicle_type_id":"4","last_reported":1776945181,"current_range_meters":6400,"station_id":"","pricing_plan_id":"cebpf4jnsgd1na2vs0mg"},{"bike_id":"799adbb7-386e-421f-becc-4f1ba55645eb","system_id":"levelo_inurba_marseille","lat":43.30332,"lon":5.40422,"is_reserved":false,"is_disabled":false,"rental_uris":{"android":"levelo://app?vid=799adbb7-386e-421f-becc-4f1ba55645eb","ios":"levelo://app?vid=799adbb7-386e-421f-becc-4f1ba55645eb"},"vehicle_type_id":"4","last_reported":1776945181,"current_range_meters":6800,"station_id":"ce4bh012rcd13ifvqd10","pricing_plan_id":"cebpf4jnsgd1na2vs0mg"},{"bike_id":"98cf7b7e-14c7-47a7-bf8a-99a341e6bc39","system_id":"levelo_inurba_marseille","lat":43.29269,"lon":5.3685,"is_reserved":false,"is_disabled":false,"rental_uris":{"android":"levelo://app?vid=98cf7b7e-14c7-47a7-bf8a-99a341e6bc39","ios":"levelo://app?vid=98cf7b7e-14c7-47a7-bf8a-99a341e6bc39"},"vehicle_type_id":"4","last_reported":1776945181,"current_range_meters":6800,"station_id":"ce4bhbp2rcd13ifvqesg","pricing_plan_id":"cebpf4jnsgd1na2vs0mg"},{"bike_id":"137bb92b-25d3-4fd1-83b2-2c4d5cd75fe8","system_id":"levelo_inurba_marseille","lat":43.29196,"lon":5.36053,"is_reserved":false,"is_disabled":false,"rental_uris":{"android":"levelo://app?vid=137bb92b-25d3-4fd1-83b2-2c4d5cd75fe8","ios":"levelo://app?vid=137bb92b-25d3-4fd1-83b2-2c4d5cd75fe8"},"vehicle_type_id":"4","last_reported":1776945181,"current_range_meters":6800,"station_id":"ce4bhbh2rcd13ifvqeqg","pricing_plan_id":"cebpf4jnsgd1na2vs0mg"},{"bike_id":"a0e38a6e-b23a-4042-8ab3-4968d6020be8","system_id":"levelo_inurba_marseille","lat":43.23158,"lon":5.43698,"is_reserved":false,"is_disabled":false,"rental_uris":{"android":"levelo://app?vid=a0e38a6e-b23a-4042-8ab3-4968d6020be8","ios":"levelo://app?vid=a0e38a6e-b23a-4042-8ab3-4968d6020be8"},"vehicle_type_id":"4","last_reported":1776945181,"current_range_meters":6800,"station_id":"ce4bhmp2rcd13ifvqgog","pricing_plan_id":"cebpf4jnsgd1na2vs0mg"},{"bike_id":"b076ddf3-5e32-4188-aa56-bd51a7313e1d","system_id":"levelo_inurba_marseille","lat":43.30457,"lon":5.37908,"is_reserved":false,"is_disabled":false,"rental_uris":{"android":"levelo://app?vid=b076ddf3-5e32-4188-aa56-bd51a7313e1d","ios":"levelo://app?vid=b076ddf3-5e32-4188-aa56-bd51a7313e1d"},"vehicle_type_id":"4","last_reported":1776945181,"current_range_meters":6800,"station_id":"ce4bgup2rcd13ifvqcn0","pricing_plan_id":"cebpf4jnsgd1na2vs0mg"},{"bike_id":"1c21b5e4-18ba-4d77-b990-0019b8294ddb","system_id":"levelo_inurba_marseille","lat":43.26545,"lon":5.3962,"is_reserved":false,"is_disabled":false,"rental_uris":{"android":"levelo://app?vid=1c21b5e4-18ba-4d77-b990-0019b8294ddb","ios":"levelo://app?vid=1c21b5e4-18ba-4d77-b990-0019b8294ddb"},"vehicle_type_id":"4","last_reported":1776945181,"current_range_meters":6800,"station_id":"","pricing_plan_id":"cebpf4jnsgd1na2vs0mg"},{"bike_id":"f2944932-2b87-4c97-b473-fbb5f8b6c3d3","system_id":"levelo_inurba_marseille","lat":43.28618,"lon":5.39879,"is_reserved":false,"is_disabled":false,"rental_uris":{"android":"levelo://app?vid=f2944932-2b87-4c97-b473-fbb5f8b6c3d3","ios":"levelo://app?vid=f2944932-2b87-4c97-b473-fbb5f8b6c3d3"},"vehicle_type_id":"4","last_reported":1776945181,"current_range_meters":6800,"station_id":"st_d4a7ka997mjs738ck50g","pricing_plan_id":"cebpf4jnsgd1na2vs0mg"},{"bike_id":"44802263-bf04-4e59-a917-0da2c7d90855","system_id":"levelo_inurba_marseille","lat":43.21189,"lon":5.35074,"is_reserved":false,"is_disabled":false,"rental_uris":{"android":"levelo://app?vid=44802263-bf04-4e59-a917-0da2c7d90855","ios":"levelo://app?vid=44802263-bf04-4e59-a917-0da2c7d90855"},"vehicle_type_id":"4","last_reported":1776945181,"current_range_meters":6800,"station_id":"st_cvj6sg6p6f1abm77japg","pricing_plan_id":"cebpf4jnsgd1na2vs0mg"},{"bike_id":"a381adf1-7cfa-4d12-8b64-9fe3ec77b50e","system_id":"levelo_inurba_marseille","lat":43.28864,"lon":5.4252,"is_reserved":false,"is_disabled":false,"rental_uris":{"android":"levelo://app?vid=a381adf1-7cfa-4d12-8b64-9fe3ec77b50e","ios":"levelo://app?vid=a381adf1-7cfa-4d12-8b64-9fe3ec77b50e"},"vehicle_type_id":"4","last_reported":1776945181,"current_range_meters":6800,"station_id":"st_d3b462108ojc7389ooeg","pricing_plan_id":"cebpf4jnsgd1na2vs0mg"},{"bike_id":"2346fd01-4d76-4904-a7c8-8e15290cb065","system_id":"levelo_inurba_marseille","lat":43.29291,"lon":5.36845,"is_reserved":false,"is_disabled":false,"rental_uris":{"android":"levelo://app?vid=2346fd01-4d76-4904-a7c8-8e15290cb065","ios":"levelo://app?vid=2346fd01-4d76-4904-a7c8-8e15290cb065"},"vehicle_type_id":"4","last_reported":1776945181,"current_range_meters":6800,"station_id":"ce4bhbp2rcd13ifvqesg","pricing_plan_id":"cebpf4jnsgd1na2vs0mg"},{"bike_id":"7bcf589d-1485-482c-947e-3b81d1633d3f","system_id":"levelo_inurba_marseille","lat":43.26336,"lon":5.41055,"is_reserved":false,"is_disabled":false,"rental_uris":{"android":"levelo://app?vid=7bcf589d-1485-482c-947e-3b81d1633d3f","ios":"levelo://app?vid=7bcf589d-1485-482c-947e-3b81d1633d3f"},"vehicle_type_id":"4","last_reported":1776945181,"current_range_meters":6800,"station_id":"st_d4e5ca6na9uc73bfl5fg","pricing_plan_id":"cebpf4jnsgd1na2vs0mg"},{"bike_id":"eaa56526-29a5-4cc4-abc0-c621dd30f9a4","system_id":"levelo_inurba_marseille","lat":43.29262,"lon":5.4268,"is_reserved":false,"is_disabled":false,"rental_uris":{"android":"levelo://app?vid=eaa56526-29a5-4cc4-abc0-c621dd30f9a4","ios":"levelo://app?vid=eaa56526-29a5-4cc4-abc0-c621dd30f9a4"},"vehicle_type_id":"4","last_reported":1776945181,"current_range_meters":7200,"station_id":"","pricing_plan_id":"cebpf4jnsgd1na2vs0mg"},{"bike_id":"0923929c-d272-4fa1-a3d9-8f4c7a6f830d","system_id":"levelo_inurba_marseille","lat":43.30818,"lon":5.38195,"is_reserved":false,"is_disabled":false,"rental_uris":{"android":"levelo://app?vid=0923929c-d272-4fa1-a3d9-8f4c7a6f830d","ios":"levelo://app?vid=0923929c-d272-4fa1-a3d9-8f4c7a6f830d"},"vehicle_type_id":"4","last_reported":1776945181,"current_range_meters":7200,"station_id":"ce4bgt12rcd13ifvqce0","pricing_plan_id":"cebpf4jnsgd1na2vs0mg"},{"bike_id":"f7f551e1-e4de-432b-8499-625f44ef4d79","system_id":"levelo_inurba_marseille","lat":43.28954,"lon":5.37824,"is_reserved":false,"is_disabled":false,"rental_uris":{"android":"levelo://app?vid=f7f551e1-e4de-432b-8499-625f44ef4d79","ios":"levelo://app?vid=f7f551e1-e4de-432b-8499-625f44ef4d79"},"vehicle_type_id":"4","last_reported":1776945181,"current_range_meters":7200,"station_id":"ce4bh9p2rcd13ifvqed0","pricing_plan_id":"cebpf4jnsgd1na2vs0mg"},{"bike_id":"150dfd24-ad53-44d8-a454-937d2631c502","system_id":"levelo_inurba_marseille","lat":43.31908,"lon":5.36813,"is_reserved":false,"is_disabled":false,"rental_uris":{"android":"levelo://app?vid=150dfd24-ad53-44d8-a454-937d2631c502","ios":"levelo://app?vid=150dfd24-ad53-44d8-a454-937d2631c502"},"vehicle_type_id":"4","last_reported":1776945181,"current_range_meters":7200,"station_id":"st_d6o2h0d0559c73evc1b0","pricing_plan_id":"cebpf4jnsgd1na2vs0mg"},{"bike_id":"500638d0-cf5c-4061-b413-99b5dc6f2377","system_id":"levelo_inurba_marseille","lat":43.27439,"lon":5.4246,"is_reserved":false,"is_disabled":false,"rental_uris":{"android":"levelo://app?vid=500638d0-cf5c-4061-b413-99b5dc6f2377","ios":"levelo://app?vid=500638d0-cf5c-4061-b413-99b5dc6f2377"},"vehicle_type_id":"4","last_reported":1776945181,"current_range_meters":7200,"station_id":"","pricing_plan_id":"cebpf4jnsgd1na2vs0mg"},{"bike_id":"44f2edab-edc8-4eec-9a9f-93c54f56caf1","system_id":"levelo_inurba_marseille","lat":43.31377,"lon":5.36739,"is_reserved":false,"is_disabled":false,"rental_uris":{"android":"levelo://app?vid=44f2edab-edc8-4eec-9a9f-93c54f56caf1","ios":"levelo://app?vid=44f2edab-edc8-4eec-9a9f-93c54f56caf1"},"vehicle_type_id":"4","last_reported":1776945181,"current_range_meters":7200,"station_id":"ce4bgr92rcd13ifvqc6g","pricing_plan_id":"cebpf4jnsgd1na2vs0mg"},{"bike_id":"5390e971-2331-4638-a17e-2cc5b50b5147","system_id":"levelo_inurba_marseille","lat":43.29004,"lon":5.35607,"is_reserved":false,"is_disabled":false,"rental_uris":{"android":"levelo://app?vid=5390e971-2331-4638-a17e-2cc5b50b5147","ios":"levelo://app?vid=5390e971-2331-4638-a17e-2cc5b50b5147"},"vehicle_type_id":"4","last_reported":1776945181,"current_range_meters":7200,"station_id":"ce4bhb92rcd13ifvqen0","pricing_plan_id":"cebpf4jnsgd1na2vs0mg"},{"bike_id":"b7865545-f009-4e52-8331-7c9633c24b08","system_id":"levelo_inurba_marseille","lat":43.29734,"lon":5.3769,"is_reserved":false,"is_disabled":false,"rental_uris":{"android":"levelo://app?vid=b7865545-f009-4e52-8331-7c9633c24b08","ios":"levelo://app?vid=b7865545-f009-4e52-8331-7c9633c24b08"},"vehicle_type_id":"4","last_reported":1776945181,"current_range_meters":7200,"station_id":"ce4bgkh2rcd13ifvqbl0","pricing_plan_id":"cebpf4jnsgd1na2vs0mg"},{"bike_id":"4b5c9616-03fc-4148-9a82-6312937be70d","system_id":"levelo_inurba_marseille","lat":43.24393,"lon":5.37046,"is_reserved":false,"is_disabled":false,"rental_uris":{"android":"levelo://app?vid=4b5c9616-03fc-4148-9a82-6312937be70d","ios":"levelo://app?vid=4b5c9616-03fc-4148-9a82-6312937be70d"},"vehicle_type_id":"4","last_reported":1776945181,"current_range_meters":7200,"station_id":"ce4bhhh2rcd13ifvqfk0","pricing_plan_id":"cebpf4jnsgd1na2vs0mg"},{"bike_id":"e317649b-4504-4ed9-9803-3a2579ab9f5a","system_id":"levelo_inurba_marseille","lat":43.29161,"lon":5.37149,"is_reserved":false,"is_disabled":false,"rental_uris":{"android":"levelo://app?vid=e317649b-4504-4ed9-9803-3a2579ab9f5a","ios":"levelo://app?vid=e317649b-4504-4ed9-9803-3a2579ab9f5a"},"vehicle_type_id":"4","last_reported":1776945181,"current_range_meters":7200,"station_id":"ce4bha92rcd13ifvqeh0","pricing_plan_id":"cebpf4jnsgd1na2vs0mg"},{"bike_id":"af9962a9-d0d5-4bde-8e56-1ff345066744","system_id":"levelo_inurba_marseille","lat":43.31381,"lon":5.36737,"is_reserved":false,"is_disabled":false,"rental_uris":{"android":"levelo://app?vid=af9962a9-d0d5-4bde-8e56-1ff345066744","ios":"levelo://app?vid=af9962a9-d0d5-4bde-8e56-1ff345066744"},"vehicle_type_id":"4","last_reported":1776945181,"current_range_meters":7200,"station_id":"","pricing_plan_id":"cebpf4jnsgd1na2vs0mg"},{"bike_id":"32de0fae-92d5-4145-90d8-5bddc1b76342","system_id":"levelo_inurba_marseille","lat":43.25936,"lon":5.40908,"is_reserved":false,"is_disabled":false,"rental_uris":{"android":"levelo://app?vid=32de0fae-92d5-4145-90d8-5bddc1b76342","ios":"levelo://app?vid=32de0fae-92d5-4145-90d8-5bddc1b76342"},"vehicle_type_id":"4","last_reported":1776945181,"current_range_meters":7200,"station_id":"ce4bhm92rcd13ifvqglg","pricing_plan_id":"cebpf4jnsgd1na2vs0mg"},{"bike_id":"2ed2dd64-f49a-4e00-82f9-73efb1b2c0fa","system_id":"levelo_inurba_marseille","lat":43.29226,"lon":5.36037,"is_reserved":false,"is_disabled":false,"rental_uris":{"android":"levelo://app?vid=2ed2dd64-f49a-4e00-82f9-73efb1b2c0fa","ios":"levelo://app?vid=2ed2dd64-f49a-4e00-82f9-73efb1b2c0fa"},"vehicle_type_id":"4","last_reported":1776945181,"current_range_meters":8000,"station_id":"ce4bhbh2rcd13ifvqeqg","pricing_plan_id":"cebpf4jnsgd1na2vs0mg"},{"bike_id":"d3459eb4-e536-4ed2-be6c-562e04af8a58","system_id":"levelo_inurba_marseille","lat":43.26211,"lon":5.37458,"is_reserved":false,"is_disabled":false,"rental_uris":{"android":"levelo://app?vid=d3459eb4-e536-4ed2-be6c-562e04af8a58","ios":"levelo://app?vid=d3459eb4-e536-4ed2-be6c-562e04af8a58"},"vehicle_type_id":"4","last_reported":1776945181,"current_range_meters":8000,"station_id":"ce4bhgp2rcd13ifvqfc0","pricing_plan_id":"cebpf4jnsgd1na2vs0mg"},{"bike_id":"16d99947-0c7a-4b8c-8b99-eb4a7ba89842","system_id":"levelo_inurba_marseille","lat":43.28615,"lon":5.35106,"is_reserved":false,"is_disabled":false,"rental_uris":{"android":"levelo://app?vid=16d99947-0c7a-4b8c-8b99-eb4a7ba89842","ios":"levelo://app?vid=16d99947-0c7a-4b8c-8b99-eb4a7ba89842"},"vehicle_type_id":"4","last_reported":1776945181,"current_range_meters":8000,"station_id":"ce4bhch2rcd13ifvqeug","pricing_plan_id":"cebpf4jnsgd1na2vs0mg"},{"bike_id":"74c10f11-4b6a-4e16-81bf-bd1df3b5dcd2","system_id":"levelo_inurba_marseille","lat":43.21189,"lon":5.35069,"is_reserved":false,"is_disabled":false,"rental_uris":{"android":"levelo://app?vid=74c10f11-4b6a-4e16-81bf-bd1df3b5dcd2","ios":"levelo://app?vid=74c10f11-4b6a-4e16-81bf-bd1df3b5dcd2"},"vehicle_type_id":"4","last_reported":1776945181,"current_range_meters":8000,"station_id":"st_cvj6sg6p6f1abm77japg","pricing_plan_id":"cebpf4jnsgd1na2vs0mg"},{"bike_id":"eec536b9-c08c-4fd2-aea2-18f1d9facbf0","system_id":"levelo_inurba_marseille","lat":43.29623,"lon":5.3773,"is_reserved":false,"is_disabled":false,"rental_uris":{"android":"levelo://app?vid=eec536b9-c08c-4fd2-aea2-18f1d9facbf0","ios":"levelo://app?vid=eec536b9-c08c-4fd2-aea2-18f1d9facbf0"},"vehicle_type_id":"4","last_reported":1776945181,"current_range_meters":8000,"station_id":"ce4bgi92rcd13ifvqb90","pricing_plan_id":"cebpf4jnsgd1na2vs0mg"},{"bike_id":"9c338bc8-6b26-453c-aa74-7770d16d292b","system_id":"levelo_inurba_marseille","lat":43.26547,"lon":5.37287,"is_reserved":false,"is_disabled":false,"rental_uris":{"android":"levelo://app?vid=9c338bc8-6b26-453c-aa74-7770d16d292b","ios":"levelo://app?vid=9c338bc8-6b26-453c-aa74-7770d16d292b"},"vehicle_type_id":"4","last_reported":1776945181,"current_range_meters":8000,"station_id":"ce4bhg12rcd13ifvqf70","pricing_plan_id":"cebpf4jnsgd1na2vs0mg"},{"bike_id":"a48b64d6-6579-43e4-beaa-0afc4f38fc3b","system_id":"levelo_inurba_marseille","lat":43.29965,"lon":5.38492,"is_reserved":false,"is_disabled":false,"rental_uris":{"android":"levelo://app?vid=a48b64d6-6579-43e4-beaa-0afc4f38fc3b","ios":"levelo://app?vid=a48b64d6-6579-43e4-beaa-0afc4f38fc3b"},"vehicle_type_id":"4","last_reported":1776945181,"current_range_meters":8000,"station_id":"ce4bgj92rcd13ifvqbd0","pricing_plan_id":"cebpf4jnsgd1na2vs0mg"},{"bike_id":"f82739a7-e7b1-4a6e-803d-39bdc01a08c4","system_id":"levelo_inurba_marseille","lat":43.21189,"lon":5.3507,"is_reserved":false,"is_disabled":false,"rental_uris":{"android":"levelo://app?vid=f82739a7-e7b1-4a6e-803d-39bdc01a08c4","ios":"levelo://app?vid=f82739a7-e7b1-4a6e-803d-39bdc01a08c4"},"vehicle_type_id":"4","last_reported":1776945181,"current_range_meters":8000,"station_id":"st_cvj6sg6p6f1abm77japg","pricing_plan_id":"cebpf4jnsgd1na2vs0mg"},{"bike_id":"b10e388b-a119-4b7b-87b2-c9ca007b4026","system_id":"levelo_inurba_marseille","lat":43.32598,"lon":5.35831,"is_reserved":false,"is_disabled":false,"rental_uris":{"android":"levelo://app?vid=b10e388b-a119-4b7b-87b2-c9ca007b4026","ios":"levelo://app?vid=b10e388b-a119-4b7b-87b2-c9ca007b4026"},"vehicle_type_id":"4","last_reported":1776945181,"current_range_meters":8000,"station_id":"","pricing_plan_id":"cebpf4jnsgd1na2vs0mg"},{"bike_id":"9c3677d0-627f-49f8-bd9c-64ba96ef4fce","system_id":"levelo_inurba_marseille","lat":43.28466,"lon":5.48391,"is_reserved":false,"is_disabled":false,"rental_uris":{"android":"levelo://app?vid=9c3677d0-627f-49f8-bd9c-64ba96ef4fce","ios":"levelo://app?vid=9c3677d0-627f-49f8-bd9c-64ba96ef4fce"},"vehicle_type_id":"4","last_reported":1776945181,"current_range_meters":8000,"station_id":"","pricing_plan_id":"cebpf4jnsgd1na2vs0mg"},{"bike_id":"5ffcf573-e1dc-4f63-a31b-04781cc66d0d","system_id":"levelo_inurba_marseille","lat":43.32343,"lon":5.36731,"is_reserved":false,"is_disabled":false,"rental_uris":{"android":"levelo://app?vid=5ffcf573-e1dc-4f63-a31b-04781cc66d0d","ios":"levelo://app?vid=5ffcf573-e1dc-4f63-a31b-04781cc66d0d"},"vehicle_type_id":"4","last_reported":1776945181,"current_range_meters":8000,"station_id":"ce4bhsh2rcd13ifvqi2g","pricing_plan_id":"cebpf4jnsgd1na2vs0mg"},{"bike_id":"88f890fb-d5ee-4423-9c7d-7bc75792c249","system_id":"levelo_inurba_marseille","lat":43.30355,"lon":5.42489,"is_reserved":false,"is_disabled":false,"rental_uris":{"android":"levelo://app?vid=88f890fb-d5ee-4423-9c7d-7bc75792c249","ios":"levelo://app?vid=88f890fb-d5ee-4423-9c7d-7bc75792c249"},"vehicle_type_id":"4","last_reported":1776945181,"current_range_meters":8000,"station_id":"","pricing_plan_id":"cebpf4jnsgd1na2vs0mg"},{"bike_id":"c366be47-591a-4881-84b3-6ecaca0c6af3","system_id":"levelo_inurba_marseille","lat":43.330238,"lon":5.390502,"is_reserved":false,"is_disabled":false,"rental_uris":{"android":"levelo://app?vid=c366be47-591a-4881-84b3-6ecaca0c6af3","ios":"levelo://app?vid=c366be47-591a-4881-84b3-6ecaca0c6af3"},"vehicle_type_id":"4","last_reported":1776945181,"current_range_meters":8000,"station_id":"","pricing_plan_id":"cebpf4jnsgd1na2vs0mg"},{"bike_id":"c1c44c37-a0a8-4f88-8c31-22a11947a234","system_id":"levelo_inurba_marseille","lat":43.25588,"lon":5.38248,"is_reserved":false,"is_disabled":false,"rental_uris":{"android":"levelo://app?vid=c1c44c37-a0a8-4f88-8c31-22a11947a234","ios":"levelo://app?vid=c1c44c37-a0a8-4f88-8c31-22a11947a234"},"vehicle_type_id":"4","last_reported":1776945181,"current_range_meters":8000,"station_id":"ce4bhih2rcd13ifvqfs0","pricing_plan_id":"cebpf4jnsgd1na2vs0mg"},{"bike_id":"25931435-472d-4946-9b9a-fc67e50f018d","system_id":"levelo_inurba_marseille","lat":43.23027,"lon":5.4447,"is_reserved":false,"is_disabled":false,"rental_uris":{"android":"levelo://app?vid=25931435-472d-4946-9b9a-fc67e50f018d","ios":"levelo://app?vid=25931435-472d-4946-9b9a-fc67e50f018d"},"vehicle_type_id":"4","last_reported":1776945181,"current_range_meters":8000,"station_id":"","pricing_plan_id":"cebpf4jnsgd1na2vs0mg"},{"bike_id":"313d7876-bd22-496b-9dfe-19d4d4c34de9","system_id":"levelo_inurba_marseille","lat":43.21187,"lon":5.35074,"is_reserved":false,"is_disabled":false,"rental_uris":{"android":"levelo://app?vid=313d7876-bd22-496b-9dfe-19d4d4c34de9","ios":"levelo://app?vid=313d7876-bd22-496b-9dfe-19d4d4c34de9"},"vehicle_type_id":"4","last_reported":1776945181,"current_range_meters":8000,"station_id":"st_cvj6sg6p6f1abm77japg","pricing_plan_id":"cebpf4jnsgd1na2vs0mg"},{"bike_id":"e3e9e264-898c-4144-81c8-feef46976ec6","system_id":"levelo_inurba_marseille","lat":43.27536,"lon":5.38979,"is_reserved":false,"is_disabled":false,"rental_uris":{"android":"levelo://app?vid=e3e9e264-898c-4144-81c8-feef46976ec6","ios":"levelo://app?vid=e3e9e264-898c-4144-81c8-feef46976ec6"},"vehicle_type_id":"4","last_reported":1776945181,"current_range_meters":8000,"station_id":"","pricing_plan_id":"cebpf4jnsgd1na2vs0mg"},{"bike_id":"1b71b8fb-ac3e-4c7a-b83e-94381b0d6745","system_id":"levelo_inurba_marseille","lat":43.30307,"lon":5.36895,"is_reserved":false,"is_disabled":false,"rental_uris":{"android":"levelo://app?vid=1b71b8fb-ac3e-4c7a-b83e-94381b0d6745","ios":"levelo://app?vid=1b71b8fb-ac3e-4c7a-b83e-94381b0d6745"},"vehicle_type_id":"4","last_reported":1776945181,"current_range_meters":8400,"station_id":"ce4bgqh2rcd13ifvqc5g","pricing_plan_id":"cebpf4jnsgd1na2vs0mg"},{"bike_id":"7db8e5f3-3982-4808-8fb4-746a2f23f4b1","system_id":"levelo_inurba_marseille","lat":43.29342,"lon":5.4389,"is_reserved":false,"is_disabled":false,"rental_uris":{"android":"levelo://app?vid=7db8e5f3-3982-4808-8fb4-746a2f23f4b1","ios":"levelo://app?vid=7db8e5f3-3982-4808-8fb4-746a2f23f4b1"},"vehicle_type_id":"4","last_reported":1776945181,"current_range_meters":8400,"station_id":"","pricing_plan_id":"cebpf4jnsgd1na2vs0mg"},{"bike_id":"1f812c79-a1cc-4770-94e4-c447fae650ce","system_id":"levelo_inurba_marseille","lat":43.28576,"lon":5.3896,"is_reserved":false,"is_disabled":false,"rental_uris":{"android":"levelo://app?vid=1f812c79-a1cc-4770-94e4-c447fae650ce","ios":"levelo://app?vid=1f812c79-a1cc-4770-94e4-c447fae650ce"},"vehicle_type_id":"4","last_reported":1776945181,"current_range_meters":8400,"station_id":"","pricing_plan_id":"cebpf4jnsgd1na2vs0mg"},{"bike_id":"8f975cf4-69f4-4fd4-8c34-d7df8df21514","system_id":"levelo_inurba_marseille","lat":43.3376,"lon":5.37457,"is_reserved":false,"is_disabled":false,"rental_uris":{"android":"levelo://app?vid=8f975cf4-69f4-4fd4-8c34-d7df8df21514","ios":"levelo://app?vid=8f975cf4-69f4-4fd4-8c34-d7df8df21514"},"vehicle_type_id":"4","last_reported":1776945181,"current_range_meters":8400,"station_id":"st_d46cu089ee8s73dldbu0","pricing_plan_id":"cebpf4jnsgd1na2vs0mg"},{"bike_id":"b94479fe-5fb6-49b6-bbd0-4794bc39cdce","system_id":"levelo_inurba_marseille","lat":43.29189,"lon":5.35801,"is_reserved":false,"is_disabled":false,"rental_uris":{"android":"levelo://app?vid=b94479fe-5fb6-49b6-bbd0-4794bc39cdce","ios":"levelo://app?vid=b94479fe-5fb6-49b6-bbd0-4794bc39cdce"},"vehicle_type_id":"4","last_reported":1776945181,"current_range_meters":8400,"station_id":"ce4bhb12rcd13ifvqel0","pricing_plan_id":"cebpf4jnsgd1na2vs0mg"},{"bike_id":"7e05e2c8-a8cb-4d7f-bf9d-58db748c4f8c","system_id":"levelo_inurba_marseille","lat":43.29043,"lon":5.40033,"is_reserved":false,"is_disabled":false,"rental_uris":{"android":"levelo://app?vid=7e05e2c8-a8cb-4d7f-bf9d-58db748c4f8c","ios":"levelo://app?vid=7e05e2c8-a8cb-4d7f-bf9d-58db748c4f8c"},"vehicle_type_id":"4","last_reported":1776945181,"current_range_meters":8400,"station_id":"ce4bh392rcd13ifvqdm0","pricing_plan_id":"cebpf4jnsgd1na2vs0mg"},{"bike_id":"67fedc0c-5193-4aaf-9f8e-99baeae8e7d4","system_id":"levelo_inurba_marseille","lat":43.30973,"lon":5.39006,"is_reserved":false,"is_disabled":false,"rental_uris":{"android":"levelo://app?vid=67fedc0c-5193-4aaf-9f8e-99baeae8e7d4","ios":"levelo://app?vid=67fedc0c-5193-4aaf-9f8e-99baeae8e7d4"},"vehicle_type_id":"4","last_reported":1776945181,"current_range_meters":8400,"station_id":"ce4bgup2rcd13ifvqco0","pricing_plan_id":"cebpf4jnsgd1na2vs0mg"},{"bike_id":"29d3fd81-1a63-4ed0-af1a-3c7b518627bd","system_id":"levelo_inurba_marseille","lat":43.30274,"lon":5.37693,"is_reserved":false,"is_disabled":false,"rental_uris":{"android":"levelo://app?vid=29d3fd81-1a63-4ed0-af1a-3c7b518627bd","ios":"levelo://app?vid=29d3fd81-1a63-4ed0-af1a-3c7b518627bd"},"vehicle_type_id":"4","last_reported":1776945181,"current_range_meters":8400,"station_id":"ce4bguh2rcd13ifvqcj0","pricing_plan_id":"cebpf4jnsgd1na2vs0mg"},{"bike_id":"51b2c878-6014-4a7a-956f-84d26d4eaec3","system_id":"levelo_inurba_marseille","lat":43.30113,"lon":5.37395,"is_reserved":false,"is_disabled":false,"rental_uris":{"android":"levelo://app?vid=51b2c878-6014-4a7a-956f-84d26d4eaec3","ios":"levelo://app?vid=51b2c878-6014-4a7a-956f-84d26d4eaec3"},"vehicle_type_id":"4","last_reported":1776945181,"current_range_meters":8400,"station_id":"ce4bgs92rcd13ifvqcc0","pricing_plan_id":"cebpf4jnsgd1na2vs0mg"},{"bike_id":"cfe7238a-0ca3-41a7-b1d5-287191ada9d4","system_id":"levelo_inurba_marseille","lat":43.2926,"lon":5.36832,"is_reserved":false,"is_disabled":false,"rental_uris":{"android":"levelo://app?vid=cfe7238a-0ca3-41a7-b1d5-287191ada9d4","ios":"levelo://app?vid=cfe7238a-0ca3-41a7-b1d5-287191ada9d4"},"vehicle_type_id":"4","last_reported":1776945181,"current_range_meters":8400,"station_id":"ce4bhbp2rcd13ifvqesg","pricing_plan_id":"cebpf4jnsgd1na2vs0mg"},{"bike_id":"4b06cc4e-bc56-4c9c-bff0-080a6223029a","system_id":"levelo_inurba_marseille","lat":43.23145,"lon":5.43727,"is_reserved":false,"is_disabled":false,"rental_uris":{"android":"levelo://app?vid=4b06cc4e-bc56-4c9c-bff0-080a6223029a","ios":"levelo://app?vid=4b06cc4e-bc56-4c9c-bff0-080a6223029a"},"vehicle_type_id":"4","last_reported":1776945181,"current_range_meters":8400,"station_id":"ce4bhmp2rcd13ifvqgog","pricing_plan_id":"cebpf4jnsgd1na2vs0mg"},{"bike_id":"b1878473-b722-45ed-99b4-ccac71814f28","system_id":"levelo_inurba_marseille","lat":43.30339,"lon":5.42456,"is_reserved":false,"is_disabled":false,"rental_uris":{"android":"levelo://app?vid=b1878473-b722-45ed-99b4-ccac71814f28","ios":"levelo://app?vid=b1878473-b722-45ed-99b4-ccac71814f28"},"vehicle_type_id":"4","last_reported":1776945181,"current_range_meters":8400,"station_id":"","pricing_plan_id":"cebpf4jnsgd1na2vs0mg"},{"bike_id":"8db75b79-5718-462d-b907-a22490118526","system_id":"levelo_inurba_marseille","lat":43.27822,"lon":5.40714,"is_reserved":false,"is_disabled":false,"rental_uris":{"android":"levelo://app?vid=8db75b79-5718-462d-b907-a22490118526","ios":"levelo://app?vid=8db75b79-5718-462d-b907-a22490118526"},"vehicle_type_id":"4","last_reported":1776945181,"current_range_meters":8800,"station_id":"ce4bhnh2rcd13ifvqgtg","pricing_plan_id":"cebpf4jnsgd1na2vs0mg"},{"bike_id":"0f57f6fa-bc89-4215-a76c-5f96b1f6690f","system_id":"levelo_inurba_marseille","lat":43.26193,"lon":5.37458,"is_reserved":false,"is_disabled":false,"rental_uris":{"android":"levelo://app?vid=0f57f6fa-bc89-4215-a76c-5f96b1f6690f","ios":"levelo://app?vid=0f57f6fa-bc89-4215-a76c-5f96b1f6690f"},"vehicle_type_id":"4","last_reported":1776945181,"current_range_meters":8800,"station_id":"ce4bhgp2rcd13ifvqfc0","pricing_plan_id":"cebpf4jnsgd1na2vs0mg"},{"bike_id":"c7041db6-efe9-470b-b3aa-61638cf7bac3","system_id":"levelo_inurba_marseille","lat":43.33533,"lon":5.37499,"is_reserved":false,"is_disabled":false,"rental_uris":{"android":"levelo://app?vid=c7041db6-efe9-470b-b3aa-61638cf7bac3","ios":"levelo://app?vid=c7041db6-efe9-470b-b3aa-61638cf7bac3"},"vehicle_type_id":"4","last_reported":1776945181,"current_range_meters":8800,"station_id":"st_d46tts09ee8s73dlu43g","pricing_plan_id":"cebpf4jnsgd1na2vs0mg"},{"bike_id":"3ab04e0a-3ab2-4266-b34a-546ec1625124","system_id":"levelo_inurba_marseille","lat":43.2984,"lon":5.36275,"is_reserved":false,"is_disabled":false,"rental_uris":{"android":"levelo://app?vid=3ab04e0a-3ab2-4266-b34a-546ec1625124","ios":"levelo://app?vid=3ab04e0a-3ab2-4266-b34a-546ec1625124"},"vehicle_type_id":"4","last_reported":1776945181,"current_range_meters":8800,"station_id":"ce4bgpp2rcd13ifvqc3g","pricing_plan_id":"cebpf4jnsgd1na2vs0mg"},{"bike_id":"8cf4aaef-20b2-4c4b-8fd6-8496f3f6c9d2","system_id":"levelo_inurba_marseille","lat":43.2396,"lon":5.36637,"is_reserved":false,"is_disabled":true,"rental_uris":{"android":"levelo://app?vid=8cf4aaef-20b2-4c4b-8fd6-8496f3f6c9d2","ios":"levelo://app?vid=8cf4aaef-20b2-4c4b-8fd6-8496f3f6c9d2"},"vehicle_type_id":"4","last_reported":1776945181,"current_range_meters":8800,"station_id":"ce4bhi12rcd13ifvqfp0","pricing_plan_id":"cebpf4jnsgd1na2vs0mg"},{"bike_id":"43efc0c2-e644-4d51-b8b9-487c57e13e91","system_id":"levelo_inurba_marseille","lat":43.29989,"lon":5.37176,"is_reserved":false,"is_disabled":false,"rental_uris":{"android":"levelo://app?vid=43efc0c2-e644-4d51-b8b9-487c57e13e91","ios":"levelo://app?vid=43efc0c2-e644-4d51-b8b9-487c57e13e91"},"vehicle_type_id":"4","last_reported":1776945181,"current_range_meters":8800,"station_id":"ce4bgr92rcd13ifvqc7g","pricing_plan_id":"cebpf4jnsgd1na2vs0mg"},{"bike_id":"50e51e9b-2c3c-484b-8e64-c3bb282b94a2","system_id":"levelo_inurba_marseille","lat":43.3036,"lon":5.39121,"is_reserved":false,"is_disabled":false,"rental_uris":{"android":"levelo://app?vid=50e51e9b-2c3c-484b-8e64-c3bb282b94a2","ios":"levelo://app?vid=50e51e9b-2c3c-484b-8e64-c3bb282b94a2"},"vehicle_type_id":"4","last_reported":1776945181,"current_range_meters":8800,"station_id":"","pricing_plan_id":"cebpf4jnsgd1na2vs0mg"},{"bike_id":"92ba4891-d81e-4929-847d-0ed9dbb3d620","system_id":"levelo_inurba_marseille","lat":43.29899,"lon":5.39748,"is_reserved":false,"is_disabled":true,"rental_uris":{"android":"levelo://app?vid=92ba4891-d81e-4929-847d-0ed9dbb3d620","ios":"levelo://app?vid=92ba4891-d81e-4929-847d-0ed9dbb3d620"},"vehicle_type_id":"4","last_reported":1776945181,"current_range_meters":8800,"station_id":"ce4bh0h2rcd13ifvqd50","pricing_plan_id":"cebpf4jnsgd1na2vs0mg"},{"bike_id":"7f4c3183-89e3-4ed9-befc-adf07e20e103","system_id":"levelo_inurba_marseille","lat":43.30288,"lon":5.3974,"is_reserved":false,"is_disabled":false,"rental_uris":{"android":"levelo://app?vid=7f4c3183-89e3-4ed9-befc-adf07e20e103","ios":"levelo://app?vid=7f4c3183-89e3-4ed9-befc-adf07e20e103"},"vehicle_type_id":"4","last_reported":1776945181,"current_range_meters":8800,"station_id":"","pricing_plan_id":"cebpf4jnsgd1na2vs0mg"},{"bike_id":"50f98b8c-4207-4bdc-ae07-106925d85bea","system_id":"levelo_inurba_marseille","lat":43.25939,"lon":5.40902,"is_reserved":false,"is_disabled":false,"rental_uris":{"android":"levelo://app?vid=50f98b8c-4207-4bdc-ae07-106925d85bea","ios":"levelo://app?vid=50f98b8c-4207-4bdc-ae07-106925d85bea"},"vehicle_type_id":"4","last_reported":1776945181,"current_range_meters":9200,"station_id":"ce4bhm92rcd13ifvqglg","pricing_plan_id":"cebpf4jnsgd1na2vs0mg"},{"bike_id":"3b89a1e0-92f8-4b23-b0ea-f343995f28d6","system_id":"levelo_inurba_marseille","lat":43.31171,"lon":5.38726,"is_reserved":false,"is_disabled":false,"rental_uris":{"android":"levelo://app?vid=3b89a1e0-92f8-4b23-b0ea-f343995f28d6","ios":"levelo://app?vid=3b89a1e0-92f8-4b23-b0ea-f343995f28d6"},"vehicle_type_id":"4","last_reported":1776945181,"current_range_meters":9200,"station_id":"ce4bgv12rcd13ifvqcp0","pricing_plan_id":"cebpf4jnsgd1na2vs0mg"},{"bike_id":"b7dd2963-52b7-4d45-aa25-e76d8a74b0ce","system_id":"levelo_inurba_marseille","lat":43.21197,"lon":5.35051,"is_reserved":false,"is_disabled":false,"rental_uris":{"android":"levelo://app?vid=b7dd2963-52b7-4d45-aa25-e76d8a74b0ce","ios":"levelo://app?vid=b7dd2963-52b7-4d45-aa25-e76d8a74b0ce"},"vehicle_type_id":"4","last_reported":1776945181,"current_range_meters":9200,"station_id":"st_cvj6sg6p6f1abm77japg","pricing_plan_id":"cebpf4jnsgd1na2vs0mg"},{"bike_id":"2d226bc0-d360-4472-bc45-a0a64b909ef8","system_id":"levelo_inurba_marseille","lat":43.33534,"lon":5.37465,"is_reserved":false,"is_disabled":false,"rental_uris":{"android":"levelo://app?vid=2d226bc0-d360-4472-bc45-a0a64b909ef8","ios":"levelo://app?vid=2d226bc0-d360-4472-bc45-a0a64b909ef8"},"vehicle_type_id":"4","last_reported":1776945181,"current_range_meters":9200,"station_id":"st_d46tts09ee8s73dlu43g","pricing_plan_id":"cebpf4jnsgd1na2vs0mg"},{"bike_id":"ba0f19f9-bc38-4c7c-aba0-3dad327ba6be","system_id":"levelo_inurba_marseille","lat":43.31361,"lon":5.36716,"is_reserved":false,"is_disabled":false,"rental_uris":{"android":"levelo://app?vid=ba0f19f9-bc38-4c7c-aba0-3dad327ba6be","ios":"levelo://app?vid=ba0f19f9-bc38-4c7c-aba0-3dad327ba6be"},"vehicle_type_id":"4","last_reported":1776945181,"current_range_meters":9200,"station_id":"ce4bgr92rcd13ifvqc6g","pricing_plan_id":"cebpf4jnsgd1na2vs0mg"},{"bike_id":"fc7363fe-b04d-489a-9727-90ca30e7bca6","system_id":"levelo_inurba_marseille","lat":43.32102,"lon":5.36764,"is_reserved":false,"is_disabled":false,"rental_uris":{"android":"levelo://app?vid=fc7363fe-b04d-489a-9727-90ca30e7bca6","ios":"levelo://app?vid=fc7363fe-b04d-489a-9727-90ca30e7bca6"},"vehicle_type_id":"4","last_reported":1776945181,"current_range_meters":9200,"station_id":"ce4bhrh2rcd13ifvqhug","pricing_plan_id":"cebpf4jnsgd1na2vs0mg"},{"bike_id":"6efae23b-4853-4978-a046-e2118aa389db","system_id":"levelo_inurba_marseille","lat":43.29459,"lon":5.38208,"is_reserved":false,"is_disabled":false,"rental_uris":{"android":"levelo://app?vid=6efae23b-4853-4978-a046-e2118aa389db","ios":"levelo://app?vid=6efae23b-4853-4978-a046-e2118aa389db"},"vehicle_type_id":"4","last_reported":1776945181,"current_range_meters":9200,"station_id":"","pricing_plan_id":"cebpf4jnsgd1na2vs0mg"},{"bike_id":"f87ad1c2-83f3-408c-aa2d-3c3890ba65d3","system_id":"levelo_inurba_marseille","lat":43.27366,"lon":5.36246,"is_reserved":false,"is_disabled":false,"rental_uris":{"android":"levelo://app?vid=f87ad1c2-83f3-408c-aa2d-3c3890ba65d3","ios":"levelo://app?vid=f87ad1c2-83f3-408c-aa2d-3c3890ba65d3"},"vehicle_type_id":"4","last_reported":1776945181,"current_range_meters":9200,"station_id":"ce4bhbh2rcd13ifvqeo0","pricing_plan_id":"cebpf4jnsgd1na2vs0mg"},{"bike_id":"89cb976b-df3a-46fc-a9ef-0025de561630","system_id":"levelo_inurba_marseille","lat":43.2942,"lon":5.43369,"is_reserved":false,"is_disabled":false,"rental_uris":{"android":"levelo://app?vid=89cb976b-df3a-46fc-a9ef-0025de561630","ios":"levelo://app?vid=89cb976b-df3a-46fc-a9ef-0025de561630"},"vehicle_type_id":"4","last_reported":1776945181,"current_range_meters":9200,"station_id":"","pricing_plan_id":"cebpf4jnsgd1na2vs0mg"},{"bike_id":"c1117c23-61a8-49de-bc6b-f0c8e5fe4350","system_id":"levelo_inurba_marseille","lat":43.27531,"lon":5.39566,"is_reserved":false,"is_disabled":false,"rental_uris":{"android":"levelo://app?vid=c1117c23-61a8-49de-bc6b-f0c8e5fe4350","ios":"levelo://app?vid=c1117c23-61a8-49de-bc6b-f0c8e5fe4350"},"vehicle_type_id":"4","last_reported":1776945181,"current_range_meters":9200,"station_id":"","pricing_plan_id":"cebpf4jnsgd1na2vs0mg"},{"bike_id":"a15cdab9-680f-4286-8f38-4a3449c3e787","system_id":"levelo_inurba_marseille","lat":43.2815,"lon":5.4264,"is_reserved":false,"is_disabled":false,"rental_uris":{"android":"levelo://app?vid=a15cdab9-680f-4286-8f38-4a3449c3e787","ios":"levelo://app?vid=a15cdab9-680f-4286-8f38-4a3449c3e787"},"vehicle_type_id":"4","last_reported":1776945181,"current_range_meters":9200,"station_id":"ce4bhnh2rcd13ifvqgug","pricing_plan_id":"cebpf4jnsgd1na2vs0mg"},{"bike_id":"2211873a-8d69-4149-b901-1282addc24c2","system_id":"levelo_inurba_marseille","lat":43.29005,"lon":5.35611,"is_reserved":false,"is_disabled":false,"rental_uris":{"android":"levelo://app?vid=2211873a-8d69-4149-b901-1282addc24c2","ios":"levelo://app?vid=2211873a-8d69-4149-b901-1282addc24c2"},"vehicle_type_id":"4","last_reported":1776945181,"current_range_meters":9200,"station_id":"ce4bhb92rcd13ifvqen0","pricing_plan_id":"cebpf4jnsgd1na2vs0mg"},{"bike_id":"63fe0f88-9c23-4539-8e22-fe4404d70bb6","system_id":"levelo_inurba_marseille","lat":43.30532,"lon":5.36544,"is_reserved":false,"is_disabled":false,"rental_uris":{"android":"levelo://app?vid=63fe0f88-9c23-4539-8e22-fe4404d70bb6","ios":"levelo://app?vid=63fe0f88-9c23-4539-8e22-fe4404d70bb6"},"vehicle_type_id":"4","last_reported":1776945181,"current_range_meters":9200,"station_id":"ce4bgs12rcd13ifvqcag","pricing_plan_id":"cebpf4jnsgd1na2vs0mg"},{"bike_id":"35a6dbb5-1f6c-499d-b0dc-f3a5b44380bf","system_id":"levelo_inurba_marseille","lat":43.32477,"lon":5.38266,"is_reserved":false,"is_disabled":false,"rental_uris":{"android":"levelo://app?vid=35a6dbb5-1f6c-499d-b0dc-f3a5b44380bf","ios":"levelo://app?vid=35a6dbb5-1f6c-499d-b0dc-f3a5b44380bf"},"vehicle_type_id":"4","last_reported":1776945181,"current_range_meters":9200,"station_id":"st_d4asgbiv49dc73anf9m0","pricing_plan_id":"cebpf4jnsgd1na2vs0mg"},{"bike_id":"35a9c97c-b85e-449d-99bb-1116c761abbd","system_id":"levelo_inurba_marseille","lat":43.3235,"lon":5.36715,"is_reserved":false,"is_disabled":false,"rental_uris":{"android":"levelo://app?vid=35a9c97c-b85e-449d-99bb-1116c761abbd","ios":"levelo://app?vid=35a9c97c-b85e-449d-99bb-1116c761abbd"},"vehicle_type_id":"4","last_reported":1776945181,"current_range_meters":9200,"station_id":"ce4bhsh2rcd13ifvqi2g","pricing_plan_id":"cebpf4jnsgd1na2vs0mg"},{"bike_id":"317213aa-694d-4877-9dcc-586bcc282c8c","system_id":"levelo_inurba_marseille","lat":43.28714,"lon":5.46685,"is_reserved":false,"is_disabled":false,"rental_uris":{"android":"levelo://app?vid=317213aa-694d-4877-9dcc-586bcc282c8c","ios":"levelo://app?vid=317213aa-694d-4877-9dcc-586bcc282c8c"},"vehicle_type_id":"4","last_reported":1776945181,"current_range_meters":9200,"station_id":"st_d6tc3vkotcvc738tfjhg","pricing_plan_id":"cebpf4jnsgd1na2vs0mg"},{"bike_id":"77bae04d-b155-4a06-9049-fda6a4b9e974","system_id":"levelo_inurba_marseille","lat":43.29147,"lon":5.42616,"is_reserved":false,"is_disabled":false,"rental_uris":{"android":"levelo://app?vid=77bae04d-b155-4a06-9049-fda6a4b9e974","ios":"levelo://app?vid=77bae04d-b155-4a06-9049-fda6a4b9e974"},"vehicle_type_id":"4","last_reported":1776945181,"current_range_meters":9600,"station_id":"","pricing_plan_id":"cebpf4jnsgd1na2vs0mg"},{"bike_id":"c1068d92-3817-4571-a77e-dc7a098c28f9","system_id":"levelo_inurba_marseille","lat":43.25511,"lon":5.37655,"is_reserved":false,"is_disabled":false,"rental_uris":{"android":"levelo://app?vid=c1068d92-3817-4571-a77e-dc7a098c28f9","ios":"levelo://app?vid=c1068d92-3817-4571-a77e-dc7a098c28f9"},"vehicle_type_id":"4","last_reported":1776945181,"current_range_meters":9600,"station_id":"ce4bhh12rcd13ifvqff0","pricing_plan_id":"cebpf4jnsgd1na2vs0mg"},{"bike_id":"d3ee5326-29bd-49b4-8d14-2cbd41904530","system_id":"levelo_inurba_marseille","lat":43.29962,"lon":5.41315,"is_reserved":false,"is_disabled":false,"rental_uris":{"android":"levelo://app?vid=d3ee5326-29bd-49b4-8d14-2cbd41904530","ios":"levelo://app?vid=d3ee5326-29bd-49b4-8d14-2cbd41904530"},"vehicle_type_id":"4","last_reported":1776945181,"current_range_meters":9600,"station_id":"ce4bhp12rcd13ifvqh9g","pricing_plan_id":"cebpf4jnsgd1na2vs0mg"},{"bike_id":"fb3546c1-d293-4c3c-a9c4-d7b00890bfdb","system_id":"levelo_inurba_marseille","lat":43.32472,"lon":5.36573,"is_reserved":false,"is_disabled":true,"rental_uris":{"android":"levelo://app?vid=fb3546c1-d293-4c3c-a9c4-d7b00890bfdb","ios":"levelo://app?vid=fb3546c1-d293-4c3c-a9c4-d7b00890bfdb"},"vehicle_type_id":"4","last_reported":1776945181,"current_range_meters":9600,"station_id":"ce4bhs12rcd13ifvqhvg","pricing_plan_id":"cebpf4jnsgd1na2vs0mg"},{"bike_id":"fda817eb-235e-48d5-b407-48260e4ef3fa","system_id":"levelo_inurba_marseille","lat":43.237817,"lon":5.436017,"is_reserved":false,"is_disabled":false,"rental_uris":{"android":"levelo://app?vid=fda817eb-235e-48d5-b407-48260e4ef3fa","ios":"levelo://app?vid=fda817eb-235e-48d5-b407-48260e4ef3fa"},"vehicle_type_id":"4","last_reported":1776945181,"current_range_meters":9600,"station_id":"","pricing_plan_id":"cebpf4jnsgd1na2vs0mg"},{"bike_id":"e6cb6647-3e72-422a-86c7-56e5bf4979b7","system_id":"levelo_inurba_marseille","lat":43.28704,"lon":5.46694,"is_reserved":false,"is_disabled":false,"rental_uris":{"android":"levelo://app?vid=e6cb6647-3e72-422a-86c7-56e5bf4979b7","ios":"levelo://app?vid=e6cb6647-3e72-422a-86c7-56e5bf4979b7"},"vehicle_type_id":"4","last_reported":1776945181,"current_range_meters":9600,"station_id":"st_d6tc3vkotcvc738tfjhg","pricing_plan_id":"cebpf4jnsgd1na2vs0mg"},{"bike_id":"584cdce0-810e-4b55-bd3b-08e2bfb93074","system_id":"levelo_inurba_marseille","lat":43.22568,"lon":5.41614,"is_reserved":false,"is_disabled":false,"rental_uris":{"android":"levelo://app?vid=584cdce0-810e-4b55-bd3b-08e2bfb93074","ios":"levelo://app?vid=584cdce0-810e-4b55-bd3b-08e2bfb93074"},"vehicle_type_id":"4","last_reported":1776945181,"current_range_meters":9600,"station_id":"st_d2o4gvlbi1j2169b742g","pricing_plan_id":"cebpf4jnsgd1na2vs0mg"},{"bike_id":"67562115-7e20-43bc-a0ef-fa5df64207c6","system_id":"levelo_inurba_marseille","lat":43.26567,"lon":5.39057,"is_reserved":false,"is_disabled":false,"rental_uris":{"android":"levelo://app?vid=67562115-7e20-43bc-a0ef-fa5df64207c6","ios":"levelo://app?vid=67562115-7e20-43bc-a0ef-fa5df64207c6"},"vehicle_type_id":"4","last_reported":1776945181,"current_range_meters":9600,"station_id":"ce4bhe12rcd13ifvqf30","pricing_plan_id":"cebpf4jnsgd1na2vs0mg"},{"bike_id":"4bd27919-adad-4ba7-865d-5f7142e927cd","system_id":"levelo_inurba_marseille","lat":43.29002,"lon":5.35613,"is_reserved":false,"is_disabled":false,"rental_uris":{"android":"levelo://app?vid=4bd27919-adad-4ba7-865d-5f7142e927cd","ios":"levelo://app?vid=4bd27919-adad-4ba7-865d-5f7142e927cd"},"vehicle_type_id":"4","last_reported":1776945181,"current_range_meters":9600,"station_id":"ce4bhb92rcd13ifvqen0","pricing_plan_id":"cebpf4jnsgd1na2vs0mg"},{"bike_id":"aac64b90-6277-4c0b-a2fa-560cc38493d2","system_id":"levelo_inurba_marseille","lat":43.305272,"lon":5.384248,"is_reserved":false,"is_disabled":false,"rental_uris":{"android":"levelo://app?vid=aac64b90-6277-4c0b-a2fa-560cc38493d2","ios":"levelo://app?vid=aac64b90-6277-4c0b-a2fa-560cc38493d2"},"vehicle_type_id":"4","last_reported":1776945181,"current_range_meters":9600,"station_id":"ce4bgg92rcd13ifvqb30","pricing_plan_id":"cebpf4jnsgd1na2vs0mg"},{"bike_id":"5d6f2e33-0e5f-41fd-94ee-eb7bd5085516","system_id":"levelo_inurba_marseille","lat":43.24818,"lon":5.37452,"is_reserved":false,"is_disabled":false,"rental_uris":{"android":"levelo://app?vid=5d6f2e33-0e5f-41fd-94ee-eb7bd5085516","ios":"levelo://app?vid=5d6f2e33-0e5f-41fd-94ee-eb7bd5085516"},"vehicle_type_id":"4","last_reported":1776945181,"current_range_meters":9600,"station_id":"ce4bhgh2rcd13ifvqfb0","pricing_plan_id":"cebpf4jnsgd1na2vs0mg"},{"bike_id":"9e5fd21b-18a9-4a14-a82f-e21eea85b2e6","system_id":"levelo_inurba_marseille","lat":43.23392,"lon":5.41223,"is_reserved":false,"is_disabled":false,"rental_uris":{"android":"levelo://app?vid=9e5fd21b-18a9-4a14-a82f-e21eea85b2e6","ios":"levelo://app?vid=9e5fd21b-18a9-4a14-a82f-e21eea85b2e6"},"vehicle_type_id":"4","last_reported":1776945181,"current_range_meters":9600,"station_id":"st_d75pvndhf9lc73cqq3eg","pricing_plan_id":"cebpf4jnsgd1na2vs0mg"},{"bike_id":"b4ab2c3e-44f4-4d1f-91df-37e62e37d6e2","system_id":"levelo_inurba_marseille","lat":43.31685,"lon":5.40464,"is_reserved":false,"is_disabled":false,"rental_uris":{"android":"levelo://app?vid=b4ab2c3e-44f4-4d1f-91df-37e62e37d6e2","ios":"levelo://app?vid=b4ab2c3e-44f4-4d1f-91df-37e62e37d6e2"},"vehicle_type_id":"4","last_reported":1776945181,"current_range_meters":9600,"station_id":"ce4bh012rcd13ifvqd00","pricing_plan_id":"cebpf4jnsgd1na2vs0mg"},{"bike_id":"45310fcb-6339-49cf-a8dd-3a863ceeb723","system_id":"levelo_inurba_marseille","lat":43.25336,"lon":5.42171,"is_reserved":false,"is_disabled":false,"rental_uris":{"android":"levelo://app?vid=45310fcb-6339-49cf-a8dd-3a863ceeb723","ios":"levelo://app?vid=45310fcb-6339-49cf-a8dd-3a863ceeb723"},"vehicle_type_id":"4","last_reported":1776945181,"current_range_meters":9600,"station_id":"st_d2m65c5bi1j21697t3ng","pricing_plan_id":"cebpf4jnsgd1na2vs0mg"},{"bike_id":"f4155e17-f4c5-4d95-b472-8f2fc55ce1c8","system_id":"levelo_inurba_marseille","lat":43.2871,"lon":5.3882,"is_reserved":false,"is_disabled":false,"rental_uris":{"android":"levelo://app?vid=f4155e17-f4c5-4d95-b472-8f2fc55ce1c8","ios":"levelo://app?vid=f4155e17-f4c5-4d95-b472-8f2fc55ce1c8"},"vehicle_type_id":"4","last_reported":1776945181,"current_range_meters":9600,"station_id":"","pricing_plan_id":"cebpf4jnsgd1na2vs0mg"},{"bike_id":"af782dc0-eb75-4fbb-9cdd-f600b3e5f660","system_id":"levelo_inurba_marseille","lat":43.29888,"lon":5.39742,"is_reserved":false,"is_disabled":true,"rental_uris":{"android":"levelo://app?vid=af782dc0-eb75-4fbb-9cdd-f600b3e5f660","ios":"levelo://app?vid=af782dc0-eb75-4fbb-9cdd-f600b3e5f660"},"vehicle_type_id":"4","last_reported":1776945181,"current_range_meters":10000,"station_id":"ce4bh0h2rcd13ifvqd50","pricing_plan_id":"cebpf4jnsgd1na2vs0mg"},{"bike_id":"ccf9364e-5060-405b-9427-da49c47aa005","system_id":"levelo_inurba_marseille","lat":43.33101,"lon":5.37807,"is_reserved":false,"is_disabled":false,"rental_uris":{"android":"levelo://app?vid=ccf9364e-5060-405b-9427-da49c47aa005","ios":"levelo://app?vid=ccf9364e-5060-405b-9427-da49c47aa005"},"vehicle_type_id":"4","last_reported":1776945181,"current_range_meters":10000,"station_id":"","pricing_plan_id":"cebpf4jnsgd1na2vs0mg"},{"bike_id":"c4a6cf3f-a5b9-43d7-91d0-4da564433a66","system_id":"levelo_inurba_marseille","lat":43.30145,"lon":5.37414,"is_reserved":false,"is_disabled":false,"rental_uris":{"android":"levelo://app?vid=c4a6cf3f-a5b9-43d7-91d0-4da564433a66","ios":"levelo://app?vid=c4a6cf3f-a5b9-43d7-91d0-4da564433a66"},"vehicle_type_id":"4","last_reported":1776945181,"current_range_meters":10000,"station_id":"ce4bgs92rcd13ifvqcc0","pricing_plan_id":"cebpf4jnsgd1na2vs0mg"},{"bike_id":"73100f66-0a50-4250-9690-5d743e57d85e","system_id":"levelo_inurba_marseille","lat":43.24802,"lon":5.37453,"is_reserved":false,"is_disabled":false,"rental_uris":{"android":"levelo://app?vid=73100f66-0a50-4250-9690-5d743e57d85e","ios":"levelo://app?vid=73100f66-0a50-4250-9690-5d743e57d85e"},"vehicle_type_id":"4","last_reported":1776945181,"current_range_meters":10000,"station_id":"ce4bhgh2rcd13ifvqfb0","pricing_plan_id":"cebpf4jnsgd1na2vs0mg"},{"bike_id":"da3aa570-f2f0-4f54-8d3b-e27ea10a365e","system_id":"levelo_inurba_marseille","lat":43.30128,"lon":5.3742,"is_reserved":false,"is_disabled":false,"rental_uris":{"android":"levelo://app?vid=da3aa570-f2f0-4f54-8d3b-e27ea10a365e","ios":"levelo://app?vid=da3aa570-f2f0-4f54-8d3b-e27ea10a365e"},"vehicle_type_id":"4","last_reported":1776945181,"current_range_meters":10000,"station_id":"ce4bgs92rcd13ifvqcc0","pricing_plan_id":"cebpf4jnsgd1na2vs0mg"},{"bike_id":"ac4f1360-04da-4a5e-8d32-d951694c33bd","system_id":"levelo_inurba_marseille","lat":43.28416,"lon":5.34977,"is_reserved":false,"is_disabled":false,"rental_uris":{"android":"levelo://app?vid=ac4f1360-04da-4a5e-8d32-d951694c33bd","ios":"levelo://app?vid=ac4f1360-04da-4a5e-8d32-d951694c33bd"},"vehicle_type_id":"4","last_reported":1776945181,"current_range_meters":10000,"station_id":"ce4bhbh2rcd13ifvqepg","pricing_plan_id":"cebpf4jnsgd1na2vs0mg"},{"bike_id":"1b05f883-ee07-4add-a8e8-2c92297ddb00","system_id":"levelo_inurba_marseille","lat":43.29855,"lon":5.36296,"is_reserved":false,"is_disabled":false,"rental_uris":{"android":"levelo://app?vid=1b05f883-ee07-4add-a8e8-2c92297ddb00","ios":"levelo://app?vid=1b05f883-ee07-4add-a8e8-2c92297ddb00"},"vehicle_type_id":"4","last_reported":1776945181,"current_range_meters":10000,"station_id":"ce4bgpp2rcd13ifvqc3g","pricing_plan_id":"cebpf4jnsgd1na2vs0mg"},{"bike_id":"998c535b-310d-41f7-ac79-e7a5eada4a5d","system_id":"levelo_inurba_marseille","lat":43.30145,"lon":5.38098,"is_reserved":false,"is_disabled":false,"rental_uris":{"android":"levelo://app?vid=998c535b-310d-41f7-ac79-e7a5eada4a5d","ios":"levelo://app?vid=998c535b-310d-41f7-ac79-e7a5eada4a5d"},"vehicle_type_id":"4","last_reported":1776945181,"current_range_meters":10000,"station_id":"ce4bgjp2rcd13ifvqbh0","pricing_plan_id":"cebpf4jnsgd1na2vs0mg"},{"bike_id":"e780e40f-6e52-4e5d-a115-03ec9286ffa2","system_id":"levelo_inurba_marseille","lat":43.28972,"lon":5.37832,"is_reserved":false,"is_disabled":false,"rental_uris":{"android":"levelo://app?vid=e780e40f-6e52-4e5d-a115-03ec9286ffa2","ios":"levelo://app?vid=e780e40f-6e52-4e5d-a115-03ec9286ffa2"},"vehicle_type_id":"4","last_reported":1776945181,"current_range_meters":10000,"station_id":"ce4bh9p2rcd13ifvqed0","pricing_plan_id":"cebpf4jnsgd1na2vs0mg"},{"bike_id":"89bfdfdd-26aa-40f0-9b76-46e5c1b7095d","system_id":"levelo_inurba_marseille","lat":43.23157,"lon":5.43712,"is_reserved":false,"is_disabled":false,"rental_uris":{"android":"levelo://app?vid=89bfdfdd-26aa-40f0-9b76-46e5c1b7095d","ios":"levelo://app?vid=89bfdfdd-26aa-40f0-9b76-46e5c1b7095d"},"vehicle_type_id":"4","last_reported":1776945181,"current_range_meters":10000,"station_id":"ce4bhmp2rcd13ifvqgog","pricing_plan_id":"cebpf4jnsgd1na2vs0mg"},{"bike_id":"22f3dd1a-1976-4d88-b495-5f7c88f26f6d","system_id":"levelo_inurba_marseille","lat":43.27573,"lon":5.38398,"is_reserved":false,"is_disabled":false,"rental_uris":{"android":"levelo://app?vid=22f3dd1a-1976-4d88-b495-5f7c88f26f6d","ios":"levelo://app?vid=22f3dd1a-1976-4d88-b495-5f7c88f26f6d"},"vehicle_type_id":"4","last_reported":1776945181,"current_range_meters":10000,"station_id":"ce4bhh92rcd13ifvqfi0","pricing_plan_id":"cebpf4jnsgd1na2vs0mg"},{"bike_id":"49bf73e2-2df1-46ad-a9e8-378946a88809","system_id":"levelo_inurba_marseille","lat":43.29223,"lon":5.36051,"is_reserved":false,"is_disabled":false,"rental_uris":{"android":"levelo://app?vid=49bf73e2-2df1-46ad-a9e8-378946a88809","ios":"levelo://app?vid=49bf73e2-2df1-46ad-a9e8-378946a88809"},"vehicle_type_id":"4","last_reported":1776945181,"current_range_meters":10000,"station_id":"ce4bhbh2rcd13ifvqeqg","pricing_plan_id":"cebpf4jnsgd1na2vs0mg"},{"bike_id":"82e987a7-986b-42e8-9e83-de5508697153","system_id":"levelo_inurba_marseille","lat":43.28416,"lon":5.3499,"is_reserved":false,"is_disabled":false,"rental_uris":{"android":"levelo://app?vid=82e987a7-986b-42e8-9e83-de5508697153","ios":"levelo://app?vid=82e987a7-986b-42e8-9e83-de5508697153"},"vehicle_type_id":"4","last_reported":1776945181,"current_range_meters":10000,"station_id":"ce4bhbh2rcd13ifvqepg","pricing_plan_id":"cebpf4jnsgd1na2vs0mg"},{"bike_id":"0055f3f7-cbc3-4fcf-91e2-0e3475f7162d","system_id":"levelo_inurba_marseille","lat":43.31349,"lon":5.36716,"is_reserved":false,"is_disabled":false,"rental_uris":{"android":"levelo://app?vid=0055f3f7-cbc3-4fcf-91e2-0e3475f7162d","ios":"levelo://app?vid=0055f3f7-cbc3-4fcf-91e2-0e3475f7162d"},"vehicle_type_id":"4","last_reported":1776945181,"current_range_meters":10000,"station_id":"ce4bgr92rcd13ifvqc6g","pricing_plan_id":"cebpf4jnsgd1na2vs0mg"},{"bike_id":"7ef0f373-29c5-4b88-a2be-1a08902aa450","system_id":"levelo_inurba_marseille","lat":43.24178,"lon":5.3972,"is_reserved":false,"is_disabled":false,"rental_uris":{"android":"levelo://app?vid=7ef0f373-29c5-4b88-a2be-1a08902aa450","ios":"levelo://app?vid=7ef0f373-29c5-4b88-a2be-1a08902aa450"},"vehicle_type_id":"4","last_reported":1776945181,"current_range_meters":10000,"station_id":"ce4bhn12rcd13ifvqgpg","pricing_plan_id":"cebpf4jnsgd1na2vs0mg"},{"bike_id":"ed6c751d-11aa-4980-9be5-d32dd24768fe","system_id":"levelo_inurba_marseille","lat":43.33175,"lon":5.37799,"is_reserved":false,"is_disabled":false,"rental_uris":{"android":"levelo://app?vid=ed6c751d-11aa-4980-9be5-d32dd24768fe","ios":"levelo://app?vid=ed6c751d-11aa-4980-9be5-d32dd24768fe"},"vehicle_type_id":"4","last_reported":1776945181,"current_range_meters":10000,"station_id":"","pricing_plan_id":"cebpf4jnsgd1na2vs0mg"},{"bike_id":"509c858a-b894-4ee7-8fb5-9a2dbfad5398","system_id":"levelo_inurba_marseille","lat":43.30953,"lon":5.39043,"is_reserved":false,"is_disabled":false,"rental_uris":{"android":"levelo://app?vid=509c858a-b894-4ee7-8fb5-9a2dbfad5398","ios":"levelo://app?vid=509c858a-b894-4ee7-8fb5-9a2dbfad5398"},"vehicle_type_id":"4","last_reported":1776945181,"current_range_meters":10000,"station_id":"ce4bgup2rcd13ifvqco0","pricing_plan_id":"cebpf4jnsgd1na2vs0mg"},{"bike_id":"5e0c7f3d-da29-4dc5-87db-4b9e8db14118","system_id":"levelo_inurba_marseille","lat":43.33611,"lon":5.41031,"is_reserved":false,"is_disabled":false,"rental_uris":{"android":"levelo://app?vid=5e0c7f3d-da29-4dc5-87db-4b9e8db14118","ios":"levelo://app?vid=5e0c7f3d-da29-4dc5-87db-4b9e8db14118"},"vehicle_type_id":"4","last_reported":1776945181,"current_range_meters":10000,"station_id":"ce4bhqh2rcd13ifvqhmg","pricing_plan_id":"cebpf4jnsgd1na2vs0mg"},{"bike_id":"768abb91-8be4-4d81-b498-ec9507b98665","system_id":"levelo_inurba_marseille","lat":43.264,"lon":5.42291,"is_reserved":false,"is_disabled":false,"rental_uris":{"android":"levelo://app?vid=768abb91-8be4-4d81-b498-ec9507b98665","ios":"levelo://app?vid=768abb91-8be4-4d81-b498-ec9507b98665"},"vehicle_type_id":"4","last_reported":1776945181,"current_range_meters":10000,"station_id":"","pricing_plan_id":"cebpf4jnsgd1na2vs0mg"},{"bike_id":"62f4f0a4-da45-45b9-a994-6f4ecbfee115","system_id":"levelo_inurba_marseille","lat":43.33779,"lon":5.37432,"is_reserved":false,"is_disabled":false,"rental_uris":{"android":"levelo://app?vid=62f4f0a4-da45-45b9-a994-6f4ecbfee115","ios":"levelo://app?vid=62f4f0a4-da45-45b9-a994-6f4ecbfee115"},"vehicle_type_id":"4","last_reported":1776945181,"current_range_meters":10000,"station_id":"","pricing_plan_id":"cebpf4jnsgd1na2vs0mg"},{"bike_id":"8b3b74a9-bb15-4b2d-8d4a-21b276b3d168","system_id":"levelo_inurba_marseille","lat":43.29101,"lon":5.38128,"is_reserved":false,"is_disabled":false,"rental_uris":{"android":"levelo://app?vid=8b3b74a9-bb15-4b2d-8d4a-21b276b3d168","ios":"levelo://app?vid=8b3b74a9-bb15-4b2d-8d4a-21b276b3d168"},"vehicle_type_id":"4","last_reported":1776945181,"current_range_meters":10000,"station_id":"ce4bh512rcd13ifvqe2g","pricing_plan_id":"cebpf4jnsgd1na2vs0mg"},{"bike_id":"8b8f3535-c7af-476e-8213-ec0d499f5ab4","system_id":"levelo_inurba_marseille","lat":43.25548,"lon":5.38232,"is_reserved":false,"is_disabled":false,"rental_uris":{"android":"levelo://app?vid=8b8f3535-c7af-476e-8213-ec0d499f5ab4","ios":"levelo://app?vid=8b8f3535-c7af-476e-8213-ec0d499f5ab4"},"vehicle_type_id":"4","last_reported":1776945181,"current_range_meters":10800,"station_id":"ce4bhih2rcd13ifvqfs0","pricing_plan_id":"cebpf4jnsgd1na2vs0mg"},{"bike_id":"dd1fc7ef-9f17-4cfa-8d30-b00670d9ac8f","system_id":"levelo_inurba_marseille","lat":43.23146,"lon":5.43702,"is_reserved":false,"is_disabled":false,"rental_uris":{"android":"levelo://app?vid=dd1fc7ef-9f17-4cfa-8d30-b00670d9ac8f","ios":"levelo://app?vid=dd1fc7ef-9f17-4cfa-8d30-b00670d9ac8f"},"vehicle_type_id":"4","last_reported":1776945181,"current_range_meters":10800,"station_id":"ce4bhmp2rcd13ifvqgog","pricing_plan_id":"cebpf4jnsgd1na2vs0mg"},{"bike_id":"3746d7cc-f173-4311-836b-c0fcbee16812","system_id":"levelo_inurba_marseille","lat":43.29865,"lon":5.36244,"is_reserved":false,"is_disabled":false,"rental_uris":{"android":"levelo://app?vid=3746d7cc-f173-4311-836b-c0fcbee16812","ios":"levelo://app?vid=3746d7cc-f173-4311-836b-c0fcbee16812"},"vehicle_type_id":"4","last_reported":1776945181,"current_range_meters":10800,"station_id":"ce4bgpp2rcd13ifvqc3g","pricing_plan_id":"cebpf4jnsgd1na2vs0mg"},{"bike_id":"046876e1-b78f-4faf-8c08-93865bd4ab62","system_id":"levelo_inurba_marseille","lat":43.27372,"lon":5.36253,"is_reserved":false,"is_disabled":false,"rental_uris":{"android":"levelo://app?vid=046876e1-b78f-4faf-8c08-93865bd4ab62","ios":"levelo://app?vid=046876e1-b78f-4faf-8c08-93865bd4ab62"},"vehicle_type_id":"4","last_reported":1776945181,"current_range_meters":10800,"station_id":"ce4bhbh2rcd13ifvqeo0","pricing_plan_id":"cebpf4jnsgd1na2vs0mg"},{"bike_id":"d01e5ed0-578a-463a-acda-92085d3be77d","system_id":"levelo_inurba_marseille","lat":43.31331,"lon":5.36724,"is_reserved":false,"is_disabled":false,"rental_uris":{"android":"levelo://app?vid=d01e5ed0-578a-463a-acda-92085d3be77d","ios":"levelo://app?vid=d01e5ed0-578a-463a-acda-92085d3be77d"},"vehicle_type_id":"4","last_reported":1776945181,"current_range_meters":10800,"station_id":"ce4bgr92rcd13ifvqc6g","pricing_plan_id":"cebpf4jnsgd1na2vs0mg"},{"bike_id":"e8d6ce3d-1aa9-47ef-9b48-93862ee5f7fd","system_id":"levelo_inurba_marseille","lat":43.21272,"lon":5.35426,"is_reserved":false,"is_disabled":false,"rental_uris":{"android":"levelo://app?vid=e8d6ce3d-1aa9-47ef-9b48-93862ee5f7fd","ios":"levelo://app?vid=e8d6ce3d-1aa9-47ef-9b48-93862ee5f7fd"},"vehicle_type_id":"4","last_reported":1776945181,"current_range_meters":10800,"station_id":"","pricing_plan_id":"cebpf4jnsgd1na2vs0mg"},{"bike_id":"ec19aaad-2410-439f-9123-e83fa1c535f8","system_id":"levelo_inurba_marseille","lat":43.28275,"lon":5.37911,"is_reserved":false,"is_disabled":false,"rental_uris":{"android":"levelo://app?vid=ec19aaad-2410-439f-9123-e83fa1c535f8","ios":"levelo://app?vid=ec19aaad-2410-439f-9123-e83fa1c535f8"},"vehicle_type_id":"4","last_reported":1776945181,"current_range_meters":10800,"station_id":"","pricing_plan_id":"cebpf4jnsgd1na2vs0mg"},{"bike_id":"9e8cd4b0-4d0a-4ce3-ba40-f515aff21908","system_id":"levelo_inurba_marseille","lat":43.30965,"lon":5.39023,"is_reserved":false,"is_disabled":false,"rental_uris":{"android":"levelo://app?vid=9e8cd4b0-4d0a-4ce3-ba40-f515aff21908","ios":"levelo://app?vid=9e8cd4b0-4d0a-4ce3-ba40-f515aff21908"},"vehicle_type_id":"4","last_reported":1776945181,"current_range_meters":10800,"station_id":"ce4bgup2rcd13ifvqco0","pricing_plan_id":"cebpf4jnsgd1na2vs0mg"},{"bike_id":"2aaad7a4-9d5f-4074-b0a3-86e02980fd84","system_id":"levelo_inurba_marseille","lat":43.33596,"lon":5.37405,"is_reserved":false,"is_disabled":false,"rental_uris":{"android":"levelo://app?vid=2aaad7a4-9d5f-4074-b0a3-86e02980fd84","ios":"levelo://app?vid=2aaad7a4-9d5f-4074-b0a3-86e02980fd84"},"vehicle_type_id":"4","last_reported":1776945181,"current_range_meters":10800,"station_id":"st_d46tts09ee8s73dlu43g","pricing_plan_id":"cebpf4jnsgd1na2vs0mg"},{"bike_id":"393c5833-7c08-441a-be69-ec4724061205","system_id":"levelo_inurba_marseille","lat":43.267892,"lon":5.394144,"is_reserved":false,"is_disabled":false,"rental_uris":{"android":"levelo://app?vid=393c5833-7c08-441a-be69-ec4724061205","ios":"levelo://app?vid=393c5833-7c08-441a-be69-ec4724061205"},"vehicle_type_id":"4","last_reported":1776945181,"current_range_meters":11200,"station_id":"ce4bhh12rcd13ifvqfg0","pricing_plan_id":"cebpf4jnsgd1na2vs0mg"},{"bike_id":"53d0b464-9d84-4ebb-a788-233487c8451c","system_id":"levelo_inurba_marseille","lat":43.33261,"lon":5.37783,"is_reserved":false,"is_disabled":false,"rental_uris":{"android":"levelo://app?vid=53d0b464-9d84-4ebb-a788-233487c8451c","ios":"levelo://app?vid=53d0b464-9d84-4ebb-a788-233487c8451c"},"vehicle_type_id":"4","last_reported":1776945181,"current_range_meters":11200,"station_id":"","pricing_plan_id":"cebpf4jnsgd1na2vs0mg"},{"bike_id":"ffb6c160-15e7-4200-9bf1-3a749fe92177","system_id":"levelo_inurba_marseille","lat":43.29212,"lon":5.36057,"is_reserved":false,"is_disabled":false,"rental_uris":{"android":"levelo://app?vid=ffb6c160-15e7-4200-9bf1-3a749fe92177","ios":"levelo://app?vid=ffb6c160-15e7-4200-9bf1-3a749fe92177"},"vehicle_type_id":"4","last_reported":1776945181,"current_range_meters":11200,"station_id":"ce4bhbh2rcd13ifvqeqg","pricing_plan_id":"cebpf4jnsgd1na2vs0mg"},{"bike_id":"d43d07a3-dce0-4542-b229-efb075755245","system_id":"levelo_inurba_marseille","lat":43.30952,"lon":5.39037,"is_reserved":false,"is_disabled":false,"rental_uris":{"android":"levelo://app?vid=d43d07a3-dce0-4542-b229-efb075755245","ios":"levelo://app?vid=d43d07a3-dce0-4542-b229-efb075755245"},"vehicle_type_id":"4","last_reported":1776945181,"current_range_meters":11200,"station_id":"ce4bgup2rcd13ifvqco0","pricing_plan_id":"cebpf4jnsgd1na2vs0mg"},{"bike_id":"8fe7305b-d3f3-41e5-a6a6-343d97df01ed","system_id":"levelo_inurba_marseille","lat":43.24348,"lon":5.37097,"is_reserved":false,"is_disabled":false,"rental_uris":{"android":"levelo://app?vid=8fe7305b-d3f3-41e5-a6a6-343d97df01ed","ios":"levelo://app?vid=8fe7305b-d3f3-41e5-a6a6-343d97df01ed"},"vehicle_type_id":"4","last_reported":1776945181,"current_range_meters":11200,"station_id":"ce4bhhh2rcd13ifvqfk0","pricing_plan_id":"cebpf4jnsgd1na2vs0mg"},{"bike_id":"25977f8c-77a4-4229-964b-b0397415f8fa","system_id":"levelo_inurba_marseille","lat":43.3053,"lon":5.36562,"is_reserved":false,"is_disabled":false,"rental_uris":{"android":"levelo://app?vid=25977f8c-77a4-4229-964b-b0397415f8fa","ios":"levelo://app?vid=25977f8c-77a4-4229-964b-b0397415f8fa"},"vehicle_type_id":"4","last_reported":1776945181,"current_range_meters":11200,"station_id":"ce4bgs12rcd13ifvqcag","pricing_plan_id":"cebpf4jnsgd1na2vs0mg"},{"bike_id":"b86cdcc4-f0f3-4318-9ba8-cb6004587517","system_id":"levelo_inurba_marseille","lat":43.28617,"lon":5.35103,"is_reserved":false,"is_disabled":false,"rental_uris":{"android":"levelo://app?vid=b86cdcc4-f0f3-4318-9ba8-cb6004587517","ios":"levelo://app?vid=b86cdcc4-f0f3-4318-9ba8-cb6004587517"},"vehicle_type_id":"4","last_reported":1776945181,"current_range_meters":11200,"station_id":"ce4bhch2rcd13ifvqeug","pricing_plan_id":"cebpf4jnsgd1na2vs0mg"},{"bike_id":"13de453e-5197-477c-bba1-2d4c0d148eb7","system_id":"levelo_inurba_marseille","lat":43.33195,"lon":5.37811,"is_reserved":false,"is_disabled":false,"rental_uris":{"android":"levelo://app?vid=13de453e-5197-477c-bba1-2d4c0d148eb7","ios":"levelo://app?vid=13de453e-5197-477c-bba1-2d4c0d148eb7"},"vehicle_type_id":"4","last_reported":1776945181,"current_range_meters":11200,"station_id":"","pricing_plan_id":"cebpf4jnsgd1na2vs0mg"},{"bike_id":"d00fb57b-b548-4be9-8b8b-3978839df30d","system_id":"levelo_inurba_marseille","lat":43.29266,"lon":5.3844,"is_reserved":false,"is_disabled":false,"rental_uris":{"android":"levelo://app?vid=d00fb57b-b548-4be9-8b8b-3978839df30d","ios":"levelo://app?vid=d00fb57b-b548-4be9-8b8b-3978839df30d"},"vehicle_type_id":"4","last_reported":1776945181,"current_range_meters":11200,"station_id":"ce4bh692rcd13ifvqea0","pricing_plan_id":"cebpf4jnsgd1na2vs0mg"},{"bike_id":"97a31c23-d2c6-444d-b99f-0939e9d9ad7a","system_id":"levelo_inurba_marseille","lat":43.29219,"lon":5.36056,"is_reserved":false,"is_disabled":false,"rental_uris":{"android":"levelo://app?vid=97a31c23-d2c6-444d-b99f-0939e9d9ad7a","ios":"levelo://app?vid=97a31c23-d2c6-444d-b99f-0939e9d9ad7a"},"vehicle_type_id":"4","last_reported":1776945181,"current_range_meters":11200,"station_id":"ce4bhbh2rcd13ifvqeqg","pricing_plan_id":"cebpf4jnsgd1na2vs0mg"},{"bike_id":"e86d74c4-216f-42a1-aafd-1921c5663744","system_id":"levelo_inurba_marseille","lat":43.23953,"lon":5.36635,"is_reserved":false,"is_disabled":false,"rental_uris":{"android":"levelo://app?vid=e86d74c4-216f-42a1-aafd-1921c5663744","ios":"levelo://app?vid=e86d74c4-216f-42a1-aafd-1921c5663744"},"vehicle_type_id":"4","last_reported":1776945181,"current_range_meters":11200,"station_id":"ce4bhi12rcd13ifvqfp0","pricing_plan_id":"cebpf4jnsgd1na2vs0mg"},{"bike_id":"51de1683-0dbd-45a8-9189-ff7d78152235","system_id":"levelo_inurba_marseille","lat":43.28874,"lon":5.42533,"is_reserved":false,"is_disabled":false,"rental_uris":{"android":"levelo://app?vid=51de1683-0dbd-45a8-9189-ff7d78152235","ios":"levelo://app?vid=51de1683-0dbd-45a8-9189-ff7d78152235"},"vehicle_type_id":"4","last_reported":1776945181,"current_range_meters":11200,"station_id":"st_d3b462108ojc7389ooeg","pricing_plan_id":"cebpf4jnsgd1na2vs0mg"},{"bike_id":"d065d3c4-6f83-48a7-b9e4-e1474f1031c9","system_id":"levelo_inurba_marseille","lat":43.27838,"lon":5.3921,"is_reserved":false,"is_disabled":false,"rental_uris":{"android":"levelo://app?vid=d065d3c4-6f83-48a7-b9e4-e1474f1031c9","ios":"levelo://app?vid=d065d3c4-6f83-48a7-b9e4-e1474f1031c9"},"vehicle_type_id":"4","last_reported":1776945181,"current_range_meters":11600,"station_id":"ce4bhjp2rcd13ifvqga0","pricing_plan_id":"cebpf4jnsgd1na2vs0mg"},{"bike_id":"4a4a0df8-5f31-45c3-a76c-fd61c25cab78","system_id":"levelo_inurba_marseille","lat":43.31266,"lon":5.40162,"is_reserved":false,"is_disabled":false,"rental_uris":{"android":"levelo://app?vid=4a4a0df8-5f31-45c3-a76c-fd61c25cab78","ios":"levelo://app?vid=4a4a0df8-5f31-45c3-a76c-fd61c25cab78"},"vehicle_type_id":"4","last_reported":1776945181,"current_range_meters":11600,"station_id":"ce4bh092rcd13ifvqd30","pricing_plan_id":"cebpf4jnsgd1na2vs0mg"},{"bike_id":"ca50a841-22f5-4bf2-93d0-fbd38315d453","system_id":"levelo_inurba_marseille","lat":43.25501,"lon":5.37648,"is_reserved":false,"is_disabled":false,"rental_uris":{"android":"levelo://app?vid=ca50a841-22f5-4bf2-93d0-fbd38315d453","ios":"levelo://app?vid=ca50a841-22f5-4bf2-93d0-fbd38315d453"},"vehicle_type_id":"4","last_reported":1776945181,"current_range_meters":11600,"station_id":"ce4bhh12rcd13ifvqff0","pricing_plan_id":"cebpf4jnsgd1na2vs0mg"},{"bike_id":"3f5e7837-6f5a-4446-b246-4ad4bc7d004c","system_id":"levelo_inurba_marseille","lat":43.29791,"lon":5.37124,"is_reserved":false,"is_disabled":false,"rental_uris":{"android":"levelo://app?vid=3f5e7837-6f5a-4446-b246-4ad4bc7d004c","ios":"levelo://app?vid=3f5e7837-6f5a-4446-b246-4ad4bc7d004c"},"vehicle_type_id":"4","last_reported":1776945181,"current_range_meters":11600,"station_id":"ce4bgop2rcd13ifvqc1g","pricing_plan_id":"cebpf4jnsgd1na2vs0mg"},{"bike_id":"cd21f6c1-a1f8-4978-8025-1d254a6bf514","system_id":"levelo_inurba_marseille","lat":43.28465,"lon":5.48402,"is_reserved":false,"is_disabled":false,"rental_uris":{"android":"levelo://app?vid=cd21f6c1-a1f8-4978-8025-1d254a6bf514","ios":"levelo://app?vid=cd21f6c1-a1f8-4978-8025-1d254a6bf514"},"vehicle_type_id":"4","last_reported":1776945181,"current_range_meters":11600,"station_id":"st_d3svhcjqgbts73a3dn0g","pricing_plan_id":"cebpf4jnsgd1na2vs0mg"},{"bike_id":"ad34945a-a214-4b6e-bbbb-2e55b107c025","system_id":"levelo_inurba_marseille","lat":43.28878,"lon":5.43038,"is_reserved":false,"is_disabled":false,"rental_uris":{"android":"levelo://app?vid=ad34945a-a214-4b6e-bbbb-2e55b107c025","ios":"levelo://app?vid=ad34945a-a214-4b6e-bbbb-2e55b107c025"},"vehicle_type_id":"4","last_reported":1776945181,"current_range_meters":11600,"station_id":"","pricing_plan_id":"cebpf4jnsgd1na2vs0mg"},{"bike_id":"21e622b6-cf2d-404c-9819-d35ef026b55e","system_id":"levelo_inurba_marseille","lat":43.28273,"lon":5.35064,"is_reserved":false,"is_disabled":false,"rental_uris":{"android":"levelo://app?vid=21e622b6-cf2d-404c-9819-d35ef026b55e","ios":"levelo://app?vid=21e622b6-cf2d-404c-9819-d35ef026b55e"},"vehicle_type_id":"4","last_reported":1776945181,"current_range_meters":11600,"station_id":"ce4bhbp2rcd13ifvqerg","pricing_plan_id":"cebpf4jnsgd1na2vs0mg"},{"bike_id":"f3c86fed-ea4f-48d5-971f-33ebd2599771","system_id":"levelo_inurba_marseille","lat":43.2315,"lon":5.43711,"is_reserved":false,"is_disabled":false,"rental_uris":{"android":"levelo://app?vid=f3c86fed-ea4f-48d5-971f-33ebd2599771","ios":"levelo://app?vid=f3c86fed-ea4f-48d5-971f-33ebd2599771"},"vehicle_type_id":"4","last_reported":1776945181,"current_range_meters":11600,"station_id":"ce4bhmp2rcd13ifvqgog","pricing_plan_id":"cebpf4jnsgd1na2vs0mg"},{"bike_id":"49adb6be-4da2-4211-a280-01fe91c66339","system_id":"levelo_inurba_marseille","lat":43.30591,"lon":5.37225,"is_reserved":false,"is_disabled":false,"rental_uris":{"android":"levelo://app?vid=49adb6be-4da2-4211-a280-01fe91c66339","ios":"levelo://app?vid=49adb6be-4da2-4211-a280-01fe91c66339"},"vehicle_type_id":"4","last_reported":1776945181,"current_range_meters":11600,"station_id":"ce4bgqh2rcd13ifvqc4g","pricing_plan_id":"cebpf4jnsgd1na2vs0mg"},{"bike_id":"fa19ac8d-39c6-4878-bed9-f6a5b189b25a","system_id":"levelo_inurba_marseille","lat":43.30061,"lon":5.36367,"is_reserved":false,"is_disabled":false,"rental_uris":{"android":"levelo://app?vid=fa19ac8d-39c6-4878-bed9-f6a5b189b25a","ios":"levelo://app?vid=fa19ac8d-39c6-4878-bed9-f6a5b189b25a"},"vehicle_type_id":"4","last_reported":1776945181,"current_range_meters":11600,"station_id":"","pricing_plan_id":"cebpf4jnsgd1na2vs0mg"},{"bike_id":"ca241e67-9d69-48a5-9182-24294aae202f","system_id":"levelo_inurba_marseille","lat":43.29189,"lon":5.35801,"is_reserved":false,"is_disabled":false,"rental_uris":{"android":"levelo://app?vid=ca241e67-9d69-48a5-9182-24294aae202f","ios":"levelo://app?vid=ca241e67-9d69-48a5-9182-24294aae202f"},"vehicle_type_id":"4","last_reported":1776945181,"current_range_meters":11600,"station_id":"ce4bhb12rcd13ifvqel0","pricing_plan_id":"cebpf4jnsgd1na2vs0mg"},{"bike_id":"d59302d9-0289-4d10-9994-7c59a6e76854","system_id":"levelo_inurba_marseille","lat":43.31096,"lon":5.37687,"is_reserved":false,"is_disabled":false,"rental_uris":{"android":"levelo://app?vid=d59302d9-0289-4d10-9994-7c59a6e76854","ios":"levelo://app?vid=d59302d9-0289-4d10-9994-7c59a6e76854"},"vehicle_type_id":"4","last_reported":1776945181,"current_range_meters":11600,"station_id":"","pricing_plan_id":"cebpf4jnsgd1na2vs0mg"},{"bike_id":"c7ac0306-6afc-4781-8692-f962ddfe1a23","system_id":"levelo_inurba_marseille","lat":43.32321,"lon":5.36763,"is_reserved":false,"is_disabled":false,"rental_uris":{"android":"levelo://app?vid=c7ac0306-6afc-4781-8692-f962ddfe1a23","ios":"levelo://app?vid=c7ac0306-6afc-4781-8692-f962ddfe1a23"},"vehicle_type_id":"4","last_reported":1776945181,"current_range_meters":11600,"station_id":"ce4bhsh2rcd13ifvqi2g","pricing_plan_id":"cebpf4jnsgd1na2vs0mg"},{"bike_id":"63c3f03e-d7c1-48af-b0d2-e1116fc4f8d0","system_id":"levelo_inurba_marseille","lat":43.25327,"lon":5.42152,"is_reserved":false,"is_disabled":false,"rental_uris":{"android":"levelo://app?vid=63c3f03e-d7c1-48af-b0d2-e1116fc4f8d0","ios":"levelo://app?vid=63c3f03e-d7c1-48af-b0d2-e1116fc4f8d0"},"vehicle_type_id":"4","last_reported":1776945181,"current_range_meters":12000,"station_id":"st_d2m65c5bi1j21697t3ng","pricing_plan_id":"cebpf4jnsgd1na2vs0mg"},{"bike_id":"ef1780af-1aea-4e08-82c2-da4d0be385bf","system_id":"levelo_inurba_marseille","lat":43.29015,"lon":5.36047,"is_reserved":false,"is_disabled":false,"rental_uris":{"android":"levelo://app?vid=ef1780af-1aea-4e08-82c2-da4d0be385bf","ios":"levelo://app?vid=ef1780af-1aea-4e08-82c2-da4d0be385bf"},"vehicle_type_id":"4","last_reported":1776945181,"current_range_meters":12000,"station_id":"","pricing_plan_id":"cebpf4jnsgd1na2vs0mg"},{"bike_id":"e987853b-eba2-4a6c-b3e0-785407c83d4a","system_id":"levelo_inurba_marseille","lat":43.30908,"lon":5.36834,"is_reserved":false,"is_disabled":false,"rental_uris":{"android":"levelo://app?vid=e987853b-eba2-4a6c-b3e0-785407c83d4a","ios":"levelo://app?vid=e987853b-eba2-4a6c-b3e0-785407c83d4a"},"vehicle_type_id":"4","last_reported":1776945181,"current_range_meters":12000,"station_id":"ce4bgn92rcd13ifvqbvg","pricing_plan_id":"cebpf4jnsgd1na2vs0mg"},{"bike_id":"b51ac87f-04a3-4bf1-9075-041179aa6f28","system_id":"levelo_inurba_marseille","lat":43.22546,"lon":5.41627,"is_reserved":false,"is_disabled":false,"rental_uris":{"android":"levelo://app?vid=b51ac87f-04a3-4bf1-9075-041179aa6f28","ios":"levelo://app?vid=b51ac87f-04a3-4bf1-9075-041179aa6f28"},"vehicle_type_id":"4","last_reported":1776945181,"current_range_meters":12000,"station_id":"st_d2o4gvlbi1j2169b742g","pricing_plan_id":"cebpf4jnsgd1na2vs0mg"},{"bike_id":"7aded1df-1953-4558-a7ef-8b222a90db8f","system_id":"levelo_inurba_marseille","lat":43.2481,"lon":5.37451,"is_reserved":false,"is_disabled":false,"rental_uris":{"android":"levelo://app?vid=7aded1df-1953-4558-a7ef-8b222a90db8f","ios":"levelo://app?vid=7aded1df-1953-4558-a7ef-8b222a90db8f"},"vehicle_type_id":"4","last_reported":1776945181,"current_range_meters":12000,"station_id":"ce4bhgh2rcd13ifvqfb0","pricing_plan_id":"cebpf4jnsgd1na2vs0mg"},{"bike_id":"b94b0170-209f-4164-9632-61f14589e29a","system_id":"levelo_inurba_marseille","lat":43.25919,"lon":5.40931,"is_reserved":false,"is_disabled":false,"rental_uris":{"android":"levelo://app?vid=b94b0170-209f-4164-9632-61f14589e29a","ios":"levelo://app?vid=b94b0170-209f-4164-9632-61f14589e29a"},"vehicle_type_id":"4","last_reported":1776945181,"current_range_meters":12000,"station_id":"ce4bhm92rcd13ifvqglg","pricing_plan_id":"cebpf4jnsgd1na2vs0mg"},{"bike_id":"e5878d81-397f-4fb7-8f70-23fc191d9e6b","system_id":"levelo_inurba_marseille","lat":43.24166,"lon":5.36394,"is_reserved":false,"is_disabled":false,"rental_uris":{"android":"levelo://app?vid=e5878d81-397f-4fb7-8f70-23fc191d9e6b","ios":"levelo://app?vid=e5878d81-397f-4fb7-8f70-23fc191d9e6b"},"vehicle_type_id":"4","last_reported":1776945181,"current_range_meters":12000,"station_id":"cpo36qri1sfpv3e86is0","pricing_plan_id":"cebpf4jnsgd1na2vs0mg"},{"bike_id":"3a6d8c72-c585-4b53-b9fd-bae60ebdb6d5","system_id":"levelo_inurba_marseille","lat":43.29812,"lon":5.44049,"is_reserved":false,"is_disabled":false,"rental_uris":{"android":"levelo://app?vid=3a6d8c72-c585-4b53-b9fd-bae60ebdb6d5","ios":"levelo://app?vid=3a6d8c72-c585-4b53-b9fd-bae60ebdb6d5"},"vehicle_type_id":"4","last_reported":1776945181,"current_range_meters":12000,"station_id":"st_d3jp68qikq2c7381ktn0","pricing_plan_id":"cebpf4jnsgd1na2vs0mg"},{"bike_id":"33bac7ae-2adc-4e15-80a0-f6be3dd7e3ea","system_id":"levelo_inurba_marseille","lat":43.27674,"lon":5.38878,"is_reserved":false,"is_disabled":false,"rental_uris":{"android":"levelo://app?vid=33bac7ae-2adc-4e15-80a0-f6be3dd7e3ea","ios":"levelo://app?vid=33bac7ae-2adc-4e15-80a0-f6be3dd7e3ea"},"vehicle_type_id":"4","last_reported":1776945181,"current_range_meters":12000,"station_id":"ce4bhi12rcd13ifvqfo0","pricing_plan_id":"cebpf4jnsgd1na2vs0mg"},{"bike_id":"c35737f4-1afb-4aca-a154-9b94eff3d0b2","system_id":"levelo_inurba_marseille","lat":43.325,"lon":5.38281,"is_reserved":false,"is_disabled":false,"rental_uris":{"android":"levelo://app?vid=c35737f4-1afb-4aca-a154-9b94eff3d0b2","ios":"levelo://app?vid=c35737f4-1afb-4aca-a154-9b94eff3d0b2"},"vehicle_type_id":"4","last_reported":1776945181,"current_range_meters":12000,"station_id":"st_d4asgbiv49dc73anf9m0","pricing_plan_id":"cebpf4jnsgd1na2vs0mg"},{"bike_id":"9d311097-510f-4b23-8cfc-de44f3314a74","system_id":"levelo_inurba_marseille","lat":43.30499,"lon":5.36603,"is_reserved":false,"is_disabled":false,"rental_uris":{"android":"levelo://app?vid=9d311097-510f-4b23-8cfc-de44f3314a74","ios":"levelo://app?vid=9d311097-510f-4b23-8cfc-de44f3314a74"},"vehicle_type_id":"4","last_reported":1776945181,"current_range_meters":12000,"station_id":"","pricing_plan_id":"cebpf4jnsgd1na2vs0mg"},{"bike_id":"98dc036e-6920-4e07-91c6-b039ab1ae503","system_id":"levelo_inurba_marseille","lat":43.30963,"lon":5.39038,"is_reserved":false,"is_disabled":false,"rental_uris":{"android":"levelo://app?vid=98dc036e-6920-4e07-91c6-b039ab1ae503","ios":"levelo://app?vid=98dc036e-6920-4e07-91c6-b039ab1ae503"},"vehicle_type_id":"4","last_reported":1776945181,"current_range_meters":12400,"station_id":"ce4bgup2rcd13ifvqco0","pricing_plan_id":"cebpf4jnsgd1na2vs0mg"},{"bike_id":"0abdcc11-6585-4919-85b4-bfc2cefd3284","system_id":"levelo_inurba_marseille","lat":43.28419,"lon":5.34954,"is_reserved":false,"is_disabled":false,"rental_uris":{"android":"levelo://app?vid=0abdcc11-6585-4919-85b4-bfc2cefd3284","ios":"levelo://app?vid=0abdcc11-6585-4919-85b4-bfc2cefd3284"},"vehicle_type_id":"4","last_reported":1776945181,"current_range_meters":12400,"station_id":"ce4bhbh2rcd13ifvqepg","pricing_plan_id":"cebpf4jnsgd1na2vs0mg"},{"bike_id":"f95f6745-d60d-4676-bdf9-45cab8406df0","system_id":"levelo_inurba_marseille","lat":43.30318,"lon":5.40411,"is_reserved":false,"is_disabled":true,"rental_uris":{"android":"levelo://app?vid=f95f6745-d60d-4676-bdf9-45cab8406df0","ios":"levelo://app?vid=f95f6745-d60d-4676-bdf9-45cab8406df0"},"vehicle_type_id":"4","last_reported":1776945181,"current_range_meters":12400,"station_id":"ce4bh012rcd13ifvqd10","pricing_plan_id":"cebpf4jnsgd1na2vs0mg"},