{"last_updated":1716750360,"ttl":30,"version":"2.2","data":{"bikes":[{"bike_id":"45f69cf0-a561-4985-9918-a74b520c5bee","system_id":"levelo_inurba_marseille","lat":43.31341,"lon":5.367098,"is_reserved":false,"is_disabled":false,"rental_uris":{"android":"levelo://app?vid=45f69cf0-a561-4985-9918-a74b520c5bee","ios":"levelo://app?vid=45f69cf0-a561-4985-9918-a74b520c5bee"},"vehicle_type_id":"4","last_reported":1716750360,"current_range_meters":23600,"station_id":"ce4bgr92rcd13ifvqc6g","pricing_plan_id":"cebpf4jnsgd1na2vs0mg"},{"bike_id":"892f1f38-5881-4422-8ae7-a45e5dd3fc37","system_id":"levelo_inurba_marseille","lat":43.312239,"lon":5.368562,"is_reserved":false,"is_disabled":false,"rental_uris":{"android":"levelo://app?vid=892f1f38-5881-4422-8ae7-a45e5dd3fc37","ios":"levelo://app?vid=892f1f38-5881-4422-8ae7-a45e5dd3fc37"},"vehicle_type_id":"4","last_reported":1716750360,"current_range_meters":25600,"station_id":"ce4bgl92rcd13ifvqbq0","pricing_plan_id":"cebpf4jnsgd1na2vs0mg"},{"bike_id":"1e78883d-e7fe-4cb4-9914-a31e9e5c6e9d","system_id":"levelo_inurba_marseille","lat":43.312239,"lon":5.368562,"is_reserved":false,"is_disabled":false,"rental_uris":{"android":"levelo://app?vid=1e78883d-e7fe-4cb4-9914-a31e9e5c6e9d","ios":"levelo://app?vid=1e78883d-e7fe-4cb4-9914-a31e9e5c6e9d"},"vehicle_type_id":"4","last_reported":1716750360,"current_range_meters":1200,"station_id":"ce4bgl92rcd13ifvqbq0","pricing_plan_id":"cebpf4jnsgd1na2vs0mg"},{"bike_id":"443e805a-6515-4bfe-9863-c67d96f7d316","system_id":"levelo_inurba_marseille","lat":43.309076,"lon":5.368465,"is_reserved":false,"is_disabled":false,"rental_uris":{"android":"levelo://app?vid=443e805a-6515-4bfe-9863-c67d96f7d316","ios":"levelo://app?vid=443e805a-6515-4bfe-9863-c67d96f7d316"},"vehicle_type_id":"4","last_reported":1716750360,"current_range_meters":1200,"station_id":"ce4bgn92rcd13ifvqbvg","pricing_plan_id":"cebpf4jnsgd1na2vs0mg"},{"bike_id":"ff1d1dc4-8e77-4661-a32a-40a0e7334423","system_id":"levelo_inurba_marseille","lat":43.31307,"lon":5.37335,"is_reserved":false,"is_disabled":false,"rental_uris":{"android":"levelo://app?vid=ff1d1dc4-8e77-4661-a32a-40a0e7334423","ios":"levelo://app?vid=ff1d1dc4-8e77-4661-a32a-40a0e7334423"},"vehicle_type_id":"4","last_reported":1716750360,"current_range_meters":14000,"station_id":"ce4bgs92rcd13ifvqcc0","pricing_plan_id":"cebpf4jnsgd1na2vs0mg"},{"bike_id":"39c1a12a-64f0-491d-be69-6b130706d6cf","system_id":"levelo_inurba_marseille","lat":43.314811,"lon":5.373103,"is_reserved":false,"is_disabled":false,"rental_uris":{"android":"levelo://app?vid=39c1a12a-64f0-491d-be69-6b130706d6cf","ios":"levelo://app?vid=39c1a12a-64f0-491d-be69-6b130706d6cf"},"vehicle_type_id":"4","last_reported":1716750360,"current_range_meters":15200,"station_id":"ce4bgt12rcd13ifvqcd0","pricing_plan_id":"cebpf4jnsgd1na2vs0mg"},{"bike_id":"28dab4a6-e3a7-4bf9-a6f0-83b122fb0f24","system_id":"levelo_inurba_marseille","lat":43.314811,"lon":5.373103,"is_reserved":false,"is_disabled":false,"rental_uris":{"android":"levelo://app?vid=28dab4a6-e3a7-4bf9-a6f0-83b122fb0f24","ios":"levelo://app?vid=28dab4a6-e3a7-4bf9-a6f0-83b122fb0f24"},"vehicle_type_id":"4","last_reported":1716750360,"current_range_meters":28400,"station_id":"ce4bgt12rcd13ifvqcd0","pricing_plan_id":"cebpf4jnsgd1na2vs0mg"},{"bike_id":"119bc072-0450-4505-b670-a97239426d99","system_id":"levelo_inurba_marseille","lat":43.31485,"lon":5.37313,"is_reserved":false,"is_disabled":false,"rental_uris":{"android":"levelo://app?vid=119bc072-0450-4505-b670-a97239426d99","ios":"levelo://app?vid=119bc072-0450-4505-b670-a97239426d99"},"vehicle_type_id":"4","last_reported":1716750360,"current_range_meters":0,"station_id":"ce4bgt12rcd13ifvqcd0","pricing_plan_id":"cebpf4jnsgd1na2vs0mg"},{"bike_id":"832bc339-8530-44e7-a8f9-30919121c7c3","system_id":"levelo_inurba_marseille","lat":43.314811,"lon":5.373103,"is_reserved":false,"is_disabled":false,"rental_uris":{"android":"levelo://app?vid=832bc339-8530-44e7-a8f9-30919121c7c3","ios":"levelo://app?vid=832bc339-8530-44e7-a8f9-30919121c7c3"},"vehicle_type_id":"4","last_reported":1716750360,"current_range_meters":0,"station_id":"ce4bgt12rcd13ifvqcd0","pricing_plan_id":"cebpf4jnsgd1na2vs0mg"},{"bike_id":"eb54ec3e-1fd7-4242-80da-e34dc5cb452e","system_id":"levelo_inurba_marseille","lat":43.310804,"lon":5.38359,"is_reserved":false,"is_disabled":false,"rental_uris":{"android":"levelo://app?vid=eb54ec3e-1fd7-4242-80da-e34dc5cb452e","ios":"levelo://app?vid=eb54ec3e-1fd7-4242-80da-e34dc5cb452e"},"vehicle_type_id":"4","last_reported":1716750360,"current_range_meters":16000,"station_id":"ce4bgv92rcd13ifvqcr0","pricing_plan_id":"cebpf4jnsgd1na2vs0mg"},{"bike_id":"7e64fa29-1f6d-43e5-a9e2-fa24baa43c46","system_id":"levelo_inurba_marseille","lat":43.305989,"lon":5.37225,"is_reserved":false,"is_disabled":false,"rental_uris":{"android":"levelo://app?vid=7e64fa29-1f6d-43e5-a9e2-fa24baa43c46","ios":"levelo://app?vid=7e64fa29-1f6d-43e5-a9e2-fa24baa43c46"},"vehicle_type_id":"4","last_reported":1716750360,"current_range_meters":9600,"station_id":"ce4bgqh2rcd13ifvqc4g","pricing_plan_id":"cebpf4jnsgd1na2vs0mg"},{"bike_id":"39313537-a837-4532-9555-9aa15e9ea964","system_id":"levelo_inurba_marseille","lat":43.305989,"lon":5.37225,"is_reserved":false,"is_disabled":false,"rental_uris":{"android":"levelo://app?vid=39313537-a837-4532-9555-9aa15e9ea964","ios":"levelo://app?vid=39313537-a837-4532-9555-9aa15e9ea964"},"vehicle_type_id":"4","last_reported":1716750360,"current_range_meters":30800,"station_id":"ce4bgqh2rcd13ifvqc4g","pricing_plan_id":"cebpf4jnsgd1na2vs0mg"},{"bike_id":"085f8808-1d82-4a31-a42a-8e58df7e3717","system_id":"levelo_inurba_marseille","lat":43.305989,"lon":5.37225,"is_reserved":false,"is_disabled":false,"rental_uris":{"android":"levelo://app?vid=085f8808-1d82-4a31-a42a-8e58df7e3717","ios":"levelo://app?vid=085f8808-1d82-4a31-a42a-8e58df7e3717"},"vehicle_type_id":"4","last_reported":1716750360,"current_range_meters":31200,"station_id":"ce4bgqh2rcd13ifvqc4g","pricing_plan_id":"cebpf4jnsgd1na2vs0mg"},{"bike_id":"a431c994-c043-4cc9-a1ae-a376af89f5f5","system_id":"levelo_inurba_marseille","lat":43.305989,"lon":5.37225,"is_reserved":false,"is_disabled":false,"rental_uris":{"android":"levelo://app?vid=a431c994-c043-4cc9-a1ae-a376af89f5f5","ios":"levelo://app?vid=a431c994-c043-4cc9-a1ae-a376af89f5f5"},"vehicle_type_id":"4","last_reported":1716750360,"current_range_meters":30000,"station_id":"ce4bgqh2rcd13ifvqc4g","pricing_plan_id":"cebpf4jnsgd1na2vs0mg"},{"bike_id":"b88a76a0-86d4-4426-a02f-5f8aae22dce2","system_id":"levelo_inurba_marseille","lat":43.311125,"lon":5.377624,"is_reserved":false,"is_disabled":false,"rental_uris":{"android":"levelo://app?vid=b88a76a0-86d4-4426-a02f-5f8aae22dce2","ios":"levelo://app?vid=b88a76a0-86d4-4426-a02f-5f8aae22dce2"},"vehicle_type_id":"4","last_reported":1716750360,"current_range_meters":1200,"station_id":"ce4bgt92rcd13ifvqcg0","pricing_plan_id":"cebpf4jnsgd1na2vs0mg"},{"bike_id":"47f176ea-c8bb-448d-86bb-3267dbcf5781","system_id":"levelo_inurba_marseille","lat":43.311125,"lon":5.377624,"is_reserved":false,"is_disabled":false,"rental_uris":{"android":"levelo://app?vid=47f176ea-c8bb-448d-86bb-3267dbcf5781","ios":"levelo://app?vid=47f176ea-c8bb-448d-86bb-3267dbcf5781"},"vehicle_type_id":"4","last_reported":1716750360,"current_range_meters":6000,"station_id":"ce4bgt92rcd13ifvqcg0","pricing_plan_id":"cebpf4jnsgd1na2vs0mg"},{"bike_id":"1306bd09-c8a5-4d00-ba60-501ed000b077","system_id":"levelo_inurba_marseille","lat":43.311125,"lon":5.377624,"is_reserved":false,"is_disabled":false,"rental_uris":{"android":"levelo://app?vid=1306bd09-c8a5-4d00-ba60-501ed000b077","ios":"levelo://app?vid=1306bd09-c8a5-4d00-ba60-501ed000b077"},"vehicle_type_id":"4","last_reported":1716750360,"current_range_meters":13600,"station_id":"ce4bgt92rcd13ifvqcg0","pricing_plan_id":"cebpf4jnsgd1na2vs0mg"},{"bike_id":"3e2c3554-5c64-475f-9f6c-90d65986624e","system_id":"levelo_inurba_marseille","lat":43.307945,"lon":5.376487,"is_reserved":false,"is_disabled":false,"rental_uris":{"android":"levelo://app?vid=3e2c3554-5c64-475f-9f6c-90d65986624e","ios":"levelo://app?vid=3e2c3554-5c64-475f-9f6c-90d65986624e"},"vehicle_type_id":"4","last_reported":1716750360,"current_range_meters":7600,"station_id":"ce4bgv92rcd13ifvqcq0","pricing_plan_id":"cebpf4jnsgd1na2vs0mg"},{"bike_id":"2e8c76cc-4d8a-4e9c-988e-304e1ef65c3b","system_id":"levelo_inurba_marseille","lat":43.307945,"lon":5.376487,"is_reserved":false,"is_disabled":false,"rental_uris":{"android":"levelo://app?vid=2e8c76cc-4d8a-4e9c-988e-304e1ef65c3b","ios":"levelo://app?vid=2e8c76cc-4d8a-4e9c-988e-304e1ef65c3b"},"vehicle_type_id":"4","last_reported":1716750360,"current_range_meters":13600,"station_id":"ce4bgv92rcd13ifvqcq0","pricing_plan_id":"cebpf4jnsgd1na2vs0mg"},{"bike_id":"a82a3333-eff0-4716-9957-024827a2c18c","system_id":"levelo_inurba_marseille","lat":43.307945,"lon":5.376487,"is_reserved":false,"is_disabled":false,"rental_uris":{"android":"levelo://app?vid=a82a3333-eff0-4716-9957-024827a2c18c","ios":"levelo://app?vid=a82a3333-eff0-4716-9957-024827a2c18c"},"vehicle_type_id":"4","last_reported":1716750360,"current_range_meters":1200,"station_id":"ce4bgv92rcd13ifvqcq0","pricing_plan_id":"cebpf4jnsgd1na2vs0mg"},{"bike_id":"a9404d43-a7e5-4002-93a2-d47cac797078","system_id":"levelo_inurba_marseille","lat":43.307945,"lon":5.376487,"is_reserved":false,"is_disabled":false,"rental_uris":{"android":"levelo://app?vid=a9404d43-a7e5-4002-93a2-d47cac797078","ios":"levelo://app?vid=a9404d43-a7e5-4002-93a2-d47cac797078"},"vehicle_type_id":"4","last_reported":1716750360,"current_range_meters":8000,"station_id":"ce4bgv92rcd13ifvqcq0","pricing_plan_id":"cebpf4jnsgd1na2vs0mg"},{"bike_id":"ebe57eae-e52a-42f3-865c-57871f12c9ee","system_id":"levelo_inurba_marseille","lat":43.317075,"lon":5.377367,"is_reserved":false,"is_disabled":false,"rental_uris":{"android":"levelo://app?vid=ebe57eae-e52a-42f3-865c-57871f12c9ee","ios":"levelo://app?vid=ebe57eae-e52a-42f3-865c-57871f12c9ee"},"vehicle_type_id":"4","last_reported":1716750360,"current_range_meters":31600,"station_id":"ce4bgth2rcd13ifvqch0","pricing_plan_id":"cebpf4jnsgd1na2vs0mg"},{"bike_id":"7438aaf8-85be-4606-a9da-8bb150545d0d","system_id":"levelo_inurba_marseille","lat":43.31538,"lon":5.38026,"is_reserved":false,"is_disabled":false,"rental_uris":{"android":"levelo://app?vid=7438aaf8-85be-4606-a9da-8bb150545d0d","ios":"levelo://app?vid=7438aaf8-85be-4606-a9da-8bb150545d0d"},"vehicle_type_id":"4","last_reported":1716750360,"current_range_meters":13600,"station_id":"ce4bhsp2rcd13ifvqi50","pricing_plan_id":"cebpf4jnsgd1na2vs0mg"},{"bike_id":"385867f6-e50f-4faf-8b3b-0d95395f9151","system_id":"levelo_inurba_marseille","lat":43.315289,"lon":5.380349,"is_reserved":false,"is_disabled":false,"rental_uris":{"android":"levelo://app?vid=385867f6-e50f-4faf-8b3b-0d95395f9151","ios":"levelo://app?vid=385867f6-e50f-4faf-8b3b-0d95395f9151"},"vehicle_type_id":"4","last_reported":1716750360,"current_range_meters":27600,"station_id":"ce4bhsp2rcd13ifvqi50","pricing_plan_id":"cebpf4jnsgd1na2vs0mg"},{"bike_id":"c456f866-b3e7-4301-8fc3-90c13219b920","system_id":"levelo_inurba_marseille","lat":43.30264,"lon":5.37298,"is_reserved":false,"is_disabled":false,"rental_uris":{"android":"levelo://app?vid=c456f866-b3e7-4301-8fc3-90c13219b920","ios":"levelo://app?vid=c456f866-b3e7-4301-8fc3-90c13219b920"},"vehicle_type_id":"4","last_reported":1716750360,"current_range_meters":5600,"station_id":"","pricing_plan_id":"cebpf4jnsgd1na2vs0mg"},{"bike_id":"94e2cf41-72c2-4c50-bdc1-803f84710b3e","system_id":"levelo_inurba_marseille","lat":43.32409,"lon":5.3672,"is_reserved":false,"is_disabled":false,"rental_uris":{"android":"levelo://app?vid=94e2cf41-72c2-4c50-bdc1-803f84710b3e","ios":"levelo://app?vid=94e2cf41-72c2-4c50-bdc1-803f84710b3e"},"vehicle_type_id":"4","last_reported":1716750360,"current_range_meters":8000,"station_id":"","pricing_plan_id":"cebpf4jnsgd1na2vs0mg"},{"bike_id":"ed38837c-dc88-46db-90f8-799b290a007b","system_id":"levelo_inurba_marseille","lat":43.30817,"lon":5.3815,"is_reserved":false,"is_disabled":false,"rental_uris":{"android":"levelo://app?vid=ed38837c-dc88-46db-90f8-799b290a007b","ios":"levelo://app?vid=ed38837c-dc88-46db-90f8-799b290a007b"},"vehicle_type_id":"4","last_reported":1716750360,"current_range_meters":23600,"station_id":"ce4bgt12rcd13ifvqce0","pricing_plan_id":"cebpf4jnsgd1na2vs0mg"},{"bike_id":"4bebd6de-9eae-447e-bb0d-82981c469092","system_id":"levelo_inurba_marseille","lat":43.304606,"lon":5.379026,"is_reserved":false,"is_disabled":false,"rental_uris":{"android":"levelo://app?vid=4bebd6de-9eae-447e-bb0d-82981c469092","ios":"levelo://app?vid=4bebd6de-9eae-447e-bb0d-82981c469092"},"vehicle_type_id":"4","last_reported":1716750360,"current_range_meters":0,"station_id":"ce4bgup2rcd13ifvqcn0","pricing_plan_id":"cebpf4jnsgd1na2vs0mg"},{"bike_id":"fd2f74f3-2a58-47fe-b3f7-a5034c71e7ce","system_id":"levelo_inurba_marseille","lat":43.324771,"lon":5.36557,"is_reserved":false,"is_disabled":false,"rental_uris":{"android":"levelo://app?vid=fd2f74f3-2a58-47fe-b3f7-a5034c71e7ce","ios":"levelo://app?vid=fd2f74f3-2a58-47fe-b3f7-a5034c71e7ce"},"vehicle_type_id":"4","last_reported":1716750360,"current_range_meters":6400,"station_id":"ce4bhs12rcd13ifvqhvg","pricing_plan_id":"cebpf4jnsgd1na2vs0mg"},{"bike_id":"1dd036a0-faa0-4463-816f-60690e76335a","system_id":"levelo_inurba_marseille","lat":43.324771,"lon":5.36557,"is_reserved":false,"is_disabled":false,"rental_uris":{"android":"levelo://app?vid=1dd036a0-faa0-4463-816f-60690e76335a","ios":"levelo://app?vid=1dd036a0-faa0-4463-816f-60690e76335a"},"vehicle_type_id":"4","last_reported":1716750360,"current_range_meters":6400,"station_id":"ce4bhs12rcd13ifvqhvg","pricing_plan_id":"cebpf4jnsgd1na2vs0mg"},{"bike_id":"11afafd0-4eff-440f-850c-1e17bea26cdf","system_id":"levelo_inurba_marseille","lat":43.32483,"lon":5.36564,"is_reserved":false,"is_disabled":false,"rental_uris":{"android":"levelo://app?vid=11afafd0-4eff-440f-850c-1e17bea26cdf","ios":"levelo://app?vid=11afafd0-4eff-440f-850c-1e17bea26cdf"},"vehicle_type_id":"4","last_reported":1716750360,"current_range_meters":16400,"station_id":"ce4bhs12rcd13ifvqhvg","pricing_plan_id":"cebpf4jnsgd1na2vs0mg"},{"bike_id":"2eb25ca6-6c46-4097-97a1-0e357bdb9752","system_id":"levelo_inurba_marseille","lat":43.32485,"lon":5.36563,"is_reserved":false,"is_disabled":false,"rental_uris":{"android":"levelo://app?vid=2eb25ca6-6c46-4097-97a1-0e357bdb9752","ios":"levelo://app?vid=2eb25ca6-6c46-4097-97a1-0e357bdb9752"},"vehicle_type_id":"4","last_reported":1716750360,"current_range_meters":14000,"station_id":"ce4bhs12rcd13ifvqhvg","pricing_plan_id":"cebpf4jnsgd1na2vs0mg"},{"bike_id":"50c9a0f7-feb2-46c1-a69a-845036d6b996","system_id":"levelo_inurba_marseille","lat":43.324771,"lon":5.36557,"is_reserved":false,"is_disabled":false,"rental_uris":{"android":"levelo://app?vid=50c9a0f7-feb2-46c1-a69a-845036d6b996","ios":"levelo://app?vid=50c9a0f7-feb2-46c1-a69a-845036d6b996"},"vehicle_type_id":"4","last_reported":1716750360,"current_range_meters":8800,"station_id":"ce4bhs12rcd13ifvqhvg","pricing_plan_id":"cebpf4jnsgd1na2vs0mg"},{"bike_id":"72ba4090-3817-4ac9-a00a-506384b53c7f","system_id":"levelo_inurba_marseille","lat":43.324889,"lon":5.365789,"is_reserved":false,"is_disabled":false,"rental_uris":{"android":"levelo://app?vid=72ba4090-3817-4ac9-a00a-506384b53c7f","ios":"levelo://app?vid=72ba4090-3817-4ac9-a00a-506384b53c7f"},"vehicle_type_id":"4","last_reported":1716750360,"current_range_meters":29600,"station_id":"ce4bhs12rcd13ifvqhvg","pricing_plan_id":"cebpf4jnsgd1na2vs0mg"},{"bike_id":"7589a0bc-3a41-43bc-9009-10b75ed9bcf8","system_id":"levelo_inurba_marseille","lat":43.31471,"lon":5.38402,"is_reserved":false,"is_disabled":false,"rental_uris":{"android":"levelo://app?vid=7589a0bc-3a41-43bc-9009-10b75ed9bcf8","ios":"levelo://app?vid=7589a0bc-3a41-43bc-9009-10b75ed9bcf8"},"vehicle_type_id":"4","last_reported":1716750360,"current_range_meters":16400,"station_id":"","pricing_plan_id":"cebpf4jnsgd1na2vs0mg"},{"bike_id":"64514a2d-3a5e-4d83-b334-d35229e36325","system_id":"levelo_inurba_marseille","lat":43.319935,"lon":5.381699,"is_reserved":false,"is_disabled":false,"rental_uris":{"android":"levelo://app?vid=64514a2d-3a5e-4d83-b334-d35229e36325","ios":"levelo://app?vid=64514a2d-3a5e-4d83-b334-d35229e36325"},"vehicle_type_id":"4","last_reported":1716750360,"current_range_meters":2800,"station_id":"ce4bhr12rcd13ifvqhpg","pricing_plan_id":"cebpf4jnsgd1na2vs0mg"},{"bike_id":"af062eb6-cf22-4d6a-9ac6-7d78d5c5e27d","system_id":"levelo_inurba_marseille","lat":43.313571,"lon":5.384829,"is_reserved":false,"is_disabled":false,"rental_uris":{"android":"levelo://app?vid=af062eb6-cf22-4d6a-9ac6-7d78d5c5e27d","ios":"levelo://app?vid=af062eb6-cf22-4d6a-9ac6-7d78d5c5e27d"},"vehicle_type_id":"4","last_reported":1716750360,"current_range_meters":6400,"station_id":"ce4bgt92rcd13ifvqcf0","pricing_plan_id":"cebpf4jnsgd1na2vs0mg"},{"bike_id":"05546636-ce21-4a93-84ec-4dbd940289b5","system_id":"levelo_inurba_marseille","lat":43.29936,"lon":5.3655,"is_reserved":false,"is_disabled":false,"rental_uris":{"android":"levelo://app?vid=05546636-ce21-4a93-84ec-4dbd940289b5","ios":"levelo://app?vid=05546636-ce21-4a93-84ec-4dbd940289b5"},"vehicle_type_id":"4","last_reported":1716750360,"current_range_meters":18000,"station_id":"","pricing_plan_id":"cebpf4jnsgd1na2vs0mg"},{"bike_id":"d88bab0d-3c88-4b3e-b032-cf28380b0bdc","system_id":"levelo_inurba_marseille","lat":43.299222,"lon":5.365554,"is_reserved":false,"is_disabled":false,"rental_uris":{"android":"levelo://app?vid=d88bab0d-3c88-4b3e-b032-cf28380b0bdc","ios":"levelo://app?vid=d88bab0d-3c88-4b3e-b032-cf28380b0bdc"},"vehicle_type_id":"4","last_reported":1716750360,"current_range_meters":0,"station_id":"ce4bgm92rcd13ifvqbr0","pricing_plan_id":"cebpf4jnsgd1na2vs0mg"},{"bike_id":"0d5f538e-8dee-44d2-8b70-1f5ceb9b8666","system_id":"levelo_inurba_marseille","lat":43.299769,"lon":5.371872,"is_reserved":false,"is_disabled":false,"rental_uris":{"android":"levelo://app?vid=0d5f538e-8dee-44d2-8b70-1f5ceb9b8666","ios":"levelo://app?vid=0d5f538e-8dee-44d2-8b70-1f5ceb9b8666"},"vehicle_type_id":"4","last_reported":1716750360,"current_range_meters":1600,"station_id":"ce4bgr92rcd13ifvqc7g","pricing_plan_id":"cebpf4jnsgd1na2vs0mg"},{"bike_id":"17eed158-dee8-46bc-8bfa-06c4936637cd","system_id":"levelo_inurba_marseille","lat":43.298579,"lon":5.362936,"is_reserved":false,"is_disabled":false,"rental_uris":{"android":"levelo://app?vid=17eed158-dee8-46bc-8bfa-06c4936637cd","ios":"levelo://app?vid=17eed158-dee8-46bc-8bfa-06c4936637cd"},"vehicle_type_id":"4","last_reported":1716750360,"current_range_meters":0,"station_id":"","pricing_plan_id":"cebpf4jnsgd1na2vs0mg"},{"bike_id":"7c0279c4-785e-41cc-9875-11b1aa5697b0","system_id":"levelo_inurba_marseille","lat":43.298433,"lon":5.362774,"is_reserved":false,"is_disabled":false,"rental_uris":{"android":"levelo://app?vid=7c0279c4-785e-41cc-9875-11b1aa5697b0","ios":"levelo://app?vid=7c0279c4-785e-41cc-9875-11b1aa5697b0"},"vehicle_type_id":"4","last_reported":1716750360,"current_range_meters":31200,"station_id":"ce4bgpp2rcd13ifvqc3g","pricing_plan_id":"cebpf4jnsgd1na2vs0mg"},{"bike_id":"c70d197d-6f1a-411a-8287-034ce7bb850a","system_id":"levelo_inurba_marseille","lat":43.31173,"lon":5.3871,"is_reserved":false,"is_disabled":false,"rental_uris":{"android":"levelo://app?vid=c70d197d-6f1a-411a-8287-034ce7bb850a","ios":"levelo://app?vid=c70d197d-6f1a-411a-8287-034ce7bb850a"},"vehicle_type_id":"4","last_reported":1716750360,"current_range_meters":0,"station_id":"ce4bgv12rcd13ifvqcp0","pricing_plan_id":"cebpf4jnsgd1na2vs0mg"},{"bike_id":"5d7313df-e5dc-4aee-9e88-fc795e43a5b6","system_id":"levelo_inurba_marseille","lat":43.31178,"lon":5.38713,"is_reserved":false,"is_disabled":false,"rental_uris":{"android":"levelo://app?vid=5d7313df-e5dc-4aee-9e88-fc795e43a5b6","ios":"levelo://app?vid=5d7313df-e5dc-4aee-9e88-fc795e43a5b6"},"vehicle_type_id":"4","last_reported":1716750360,"current_range_meters":0,"station_id":"ce4bgv12rcd13ifvqcp0","pricing_plan_id":"cebpf4jnsgd1na2vs0mg"},{"bike_id":"e0b678a9-a72e-4c84-85ce-8b66366b9cb8","system_id":"levelo_inurba_marseille","lat":43.31168,"lon":5.38714,"is_reserved":false,"is_disabled":false,"rental_uris":{"android":"levelo://app?vid=e0b678a9-a72e-4c84-85ce-8b66366b9cb8","ios":"levelo://app?vid=e0b678a9-a72e-4c84-85ce-8b66366b9cb8"},"vehicle_type_id":"4","last_reported":1716750360,"current_range_meters":5600,"station_id":"ce4bgv12rcd13ifvqcp0","pricing_plan_id":"cebpf4jnsgd1na2vs0mg"},{"bike_id":"1a58fa11-4aa0-485e-8ed0-4b7e68dbb3ae","system_id":"levelo_inurba_marseille","lat":43.3118,"lon":5.38718,"is_reserved":false,"is_disabled":false,"rental_uris":{"android":"levelo://app?vid=1a58fa11-4aa0-485e-8ed0-4b7e68dbb3ae","ios":"levelo://app?vid=1a58fa11-4aa0-485e-8ed0-4b7e68dbb3ae"},"vehicle_type_id":"4","last_reported":1716750360,"current_range_meters":800,"station_id":"ce4bgv12rcd13ifvqcp0","pricing_plan_id":"cebpf4jnsgd1na2vs0mg"},{"bike_id":"23577ba4-bf15-4629-881c-a925aaa00eb7","system_id":"levelo_inurba_marseille","lat":43.311722,"lon":5.387247,"is_reserved":false,"is_disabled":false,"rental_uris":{"android":"levelo://app?vid=23577ba4-bf15-4629-881c-a925aaa00eb7","ios":"levelo://app?vid=23577ba4-bf15-4629-881c-a925aaa00eb7"},"vehicle_type_id":"4","last_reported":1716750360,"current_range_meters":10400,"station_id":"ce4bgv12rcd13ifvqcp0","pricing_plan_id":"cebpf4jnsgd1na2vs0mg"},{"bike_id":"d5b68ed7-7f0e-4e4c-8622-2bc0faa8102d","system_id":"levelo_inurba_marseille","lat":43.31163,"lon":5.38724,"is_reserved":false,"is_disabled":false,"rental_uris":{"android":"levelo://app?vid=d5b68ed7-7f0e-4e4c-8622-2bc0faa8102d","ios":"levelo://app?vid=d5b68ed7-7f0e-4e4c-8622-2bc0faa8102d"},"vehicle_type_id":"4","last_reported":1716750360,"current_range_meters":20400,"station_id":"ce4bgv12rcd13ifvqcp0","pricing_plan_id":"cebpf4jnsgd1na2vs0mg"},{"bike_id":"f7302532-44a9-422b-9abe-2a7d6eb12612","system_id":"levelo_inurba_marseille","lat":43.311722,"lon":5.387247,"is_reserved":false,"is_disabled":false,"rental_uris":{"android":"levelo://app?vid=f7302532-44a9-422b-9abe-2a7d6eb12612","ios":"levelo://app?vid=f7302532-44a9-422b-9abe-2a7d6eb12612"},"vehicle_type_id":"4","last_reported":1716750360,"current_range_meters":11600,"station_id":"ce4bgv12rcd13ifvqcp0","pricing_plan_id":"cebpf4jnsgd1na2vs0mg"},{"bike_id":"45208fe8-26e9-4940-95fe-a79b95140d5e","system_id":"levelo_inurba_marseille","lat":43.31158,"lon":5.38731,"is_reserved":false,"is_disabled":false,"rental_uris":{"android":"levelo://app?vid=45208fe8-26e9-4940-95fe-a79b95140d5e","ios":"levelo://app?vid=45208fe8-26e9-4940-95fe-a79b95140d5e"},"vehicle_type_id":"4","last_reported":1716750360,"current_range_meters":4800,"station_id":"ce4bgv12rcd13ifvqcp0","pricing_plan_id":"cebpf4jnsgd1na2vs0mg"},{"bike_id":"ed492a4e-944e-43b3-bd26-4581a8e6f7a8","system_id":"levelo_inurba_marseille","lat":43.297794,"lon":5.370888,"is_reserved":false,"is_disabled":false,"rental_uris":{"android":"levelo://app?vid=ed492a4e-944e-43b3-bd26-4581a8e6f7a8","ios":"levelo://app?vid=ed492a4e-944e-43b3-bd26-4581a8e6f7a8"},"vehicle_type_id":"4","last_reported":1716750360,"current_range_meters":29200,"station_id":"ce4bgop2rcd13ifvqc1g","pricing_plan_id":"cebpf4jnsgd1na2vs0mg"},{"bike_id":"5894a7f3-2728-4073-b841-3793211dd860","system_id":"levelo_inurba_marseille","lat":43.322872,"lon":5.382756,"is_reserved":false,"is_disabled":false,"rental_uris":{"android":"levelo://app?vid=5894a7f3-2728-4073-b841-3793211dd860","ios":"levelo://app?vid=5894a7f3-2728-4073-b841-3793211dd860"},"vehicle_type_id":"4","last_reported":1716750360,"current_range_meters":0,"station_id":"ce4bhr12rcd13ifvqhqg","pricing_plan_id":"cebpf4jnsgd1na2vs0mg"},{"bike_id":"c0aad146-9ed3-4a6e-826f-afdb900f41e2","system_id":"levelo_inurba_marseille","lat":43.322872,"lon":5.382756,"is_reserved":false,"is_disabled":false,"rental_uris":{"android":"levelo://app?vid=c0aad146-9ed3-4a6e-826f-afdb900f41e2","ios":"levelo://app?vid=c0aad146-9ed3-4a6e-826f-afdb900f41e2"},"vehicle_type_id":"4","last_reported":1716750360,"current_range_meters":17200,"station_id":"ce4bhr12rcd13ifvqhqg","pricing_plan_id":"cebpf4jnsgd1na2vs0mg"},{"bike_id":"83ce824f-b1a3-47e1-9cea-1174d1cf320b","system_id":"levelo_inurba_marseille","lat":43.297163,"lon":5.365866,"is_reserved":false,"is_disabled":false,"rental_uris":{"android":"levelo://app?vid=83ce824f-b1a3-47e1-9cea-1174d1cf320b","ios":"levelo://app?vid=83ce824f-b1a3-47e1-9cea-1174d1cf320b"},"vehicle_type_id":"4","last_reported":1716750360,"current_range_meters":5600,"station_id":"ce4bgn12rcd13ifvqbt0","pricing_plan_id":"cebpf4jnsgd1na2vs0mg"},{"bike_id":"65a435a0-70ac-4359-9a1a-d8ba16d9711b","system_id":"levelo_inurba_marseille","lat":43.30211,"lon":5.38347,"is_reserved":false,"is_disabled":false,"rental_uris":{"android":"levelo://app?vid=65a435a0-70ac-4359-9a1a-d8ba16d9711b","ios":"levelo://app?vid=65a435a0-70ac-4359-9a1a-d8ba16d9711b"},"vehicle_type_id":"4","last_reported":1716750360,"current_range_meters":0,"station_id":"","pricing_plan_id":"cebpf4jnsgd1na2vs0mg"},{"bike_id":"622f7257-6ed1-4c0e-aa73-706c2f56571e","system_id":"levelo_inurba_marseille","lat":43.2968,"lon":5.37291,"is_reserved":false,"is_disabled":false,"rental_uris":{"android":"levelo://app?vid=622f7257-6ed1-4c0e-aa73-706c2f56571e","ios":"levelo://app?vid=622f7257-6ed1-4c0e-aa73-706c2f56571e"},"vehicle_type_id":"4","last_reported":1716750360,"current_range_meters":19600,"station_id":"ce4bgk12rcd13ifvqbj0","pricing_plan_id":"cebpf4jnsgd1na2vs0mg"},{"bike_id":"b0181dbd-d16d-4347-9382-b450da867146","system_id":"levelo_inurba_marseille","lat":43.29657,"lon":5.36162,"is_reserved":false,"is_disabled":false,"rental_uris":{"android":"levelo://app?vid=b0181dbd-d16d-4347-9382-b450da867146","ios":"levelo://app?vid=b0181dbd-d16d-4347-9382-b450da867146"},"vehicle_type_id":"4","last_reported":1716750360,"current_range_meters":4000,"station_id":"","pricing_plan_id":"cebpf4jnsgd1na2vs0mg"},{"bike_id":"1d282037-0d77-474b-96bf-ed785ce15c4e","system_id":"levelo_inurba_marseille","lat":43.29573,"lon":5.367355,"is_reserved":false,"is_disabled":false,"rental_uris":{"android":"levelo://app?vid=1d282037-0d77-474b-96bf-ed785ce15c4e","ios":"levelo://app?vid=1d282037-0d77-474b-96bf-ed785ce15c4e"},"vehicle_type_id":"4","last_reported":1716750360,"current_range_meters":0,"station_id":"ce4bgph2rcd13ifvqc2g","pricing_plan_id":"cebpf4jnsgd1na2vs0mg"},{"bike_id":"ab8e007b-5967-4760-9409-fb7b7bd9d85c","system_id":"levelo_inurba_marseille","lat":43.29573,"lon":5.367355,"is_reserved":false,"is_disabled":false,"rental_uris":{"android":"levelo://app?vid=ab8e007b-5967-4760-9409-fb7b7bd9d85c","ios":"levelo://app?vid=ab8e007b-5967-4760-9409-fb7b7bd9d85c"},"vehicle_type_id":"4","last_reported":1716750360,"current_range_meters":20000,"station_id":"ce4bgph2rcd13ifvqc2g","pricing_plan_id":"cebpf4jnsgd1na2vs0mg"},{"bike_id":"d87ca3b0-6768-45c8-87c8-d5963e50065f","system_id":"levelo_inurba_marseille","lat":43.296935,"lon":5.376544,"is_reserved":false,"is_disabled":false,"rental_uris":{"android":"levelo://app?vid=d87ca3b0-6768-45c8-87c8-d5963e50065f","ios":"levelo://app?vid=d87ca3b0-6768-45c8-87c8-d5963e50065f"},"vehicle_type_id":"4","last_reported":1716750360,"current_range_meters":16800,"station_id":"ce4bgkh2rcd13ifvqbl0","pricing_plan_id":"cebpf4jnsgd1na2vs0mg"},{"bike_id":"63fde5b4-8bac-4785-ad3a-13eb66c2a3a5","system_id":"levelo_inurba_marseille","lat":43.296921,"lon":5.376579,"is_reserved":false,"is_disabled":false,"rental_uris":{"android":"levelo://app?vid=63fde5b4-8bac-4785-ad3a-13eb66c2a3a5","ios":"levelo://app?vid=63fde5b4-8bac-4785-ad3a-13eb66c2a3a5"},"vehicle_type_id":"4","last_reported":1716750360,"current_range_meters":8400,"station_id":"ce4bgkh2rcd13ifvqbl0","pricing_plan_id":"cebpf4jnsgd1na2vs0mg"},{"bike_id":"999b7222-ce5e-40be-9494-7ccbdafd322c","system_id":"levelo_inurba_marseille","lat":43.296921,"lon":5.376579,"is_reserved":false,"is_disabled":false,"rental_uris":{"android":"levelo://app?vid=999b7222-ce5e-40be-9494-7ccbdafd322c","ios":"levelo://app?vid=999b7222-ce5e-40be-9494-7ccbdafd322c"},"vehicle_type_id":"4","last_reported":1716750360,"current_range_meters":1600,"station_id":"ce4bgkh2rcd13ifvqbl0","pricing_plan_id":"cebpf4jnsgd1na2vs0mg"},{"bike_id":"6c88c36c-80fb-4284-93cc-e62775e212e1","system_id":"levelo_inurba_marseille","lat":43.296921,"lon":5.376579,"is_reserved":false,"is_disabled":false,"rental_uris":{"android":"levelo://app?vid=6c88c36c-80fb-4284-93cc-e62775e212e1","ios":"levelo://app?vid=6c88c36c-80fb-4284-93cc-e62775e212e1"},"vehicle_type_id":"4","last_reported":1716750360,"current_range_meters":14000,"station_id":"ce4bgkh2rcd13ifvqbl0","pricing_plan_id":"cebpf4jnsgd1na2vs0mg"},{"bike_id":"a3d929bd-4530-4d93-9446-e60f33248595","system_id":"levelo_inurba_marseille","lat":43.296935,"lon":5.376544,"is_reserved":false,"is_disabled":false,"rental_uris":{"android":"levelo://app?vid=a3d929bd-4530-4d93-9446-e60f33248595","ios":"levelo://app?vid=a3d929bd-4530-4d93-9446-e60f33248595"},"vehicle_type_id":"4","last_reported":1716750360,"current_range_meters":16800,"station_id":"ce4bgkh2rcd13ifvqbl0","pricing_plan_id":"cebpf4jnsgd1na2vs0mg"},{"bike_id":"6823ca6d-3735-496b-a8fd-4bffa87ea3d4","system_id":"levelo_inurba_marseille","lat":43.317557,"lon":5.390173,"is_reserved":false,"is_disabled":false,"rental_uris":{"android":"levelo://app?vid=6823ca6d-3735-496b-a8fd-4bffa87ea3d4","ios":"levelo://app?vid=6823ca6d-3735-496b-a8fd-4bffa87ea3d4"},"vehicle_type_id":"4","last_reported":1716750360,"current_range_meters":18400,"station_id":"ce4bhqp2rcd13ifvqhng","pricing_plan_id":"cebpf4jnsgd1na2vs0mg"},{"bike_id":"74225929-670d-4ec0-a39b-b74b4897485f","system_id":"levelo_inurba_marseille","lat":43.317557,"lon":5.390173,"is_reserved":false,"is_disabled":false,"rental_uris":{"android":"levelo://app?vid=74225929-670d-4ec0-a39b-b74b4897485f","ios":"levelo://app?vid=74225929-670d-4ec0-a39b-b74b4897485f"},"vehicle_type_id":"4","last_reported":1716750360,"current_range_meters":5200,"station_id":"ce4bhqp2rcd13ifvqhng","pricing_plan_id":"cebpf4jnsgd1na2vs0mg"},{"bike_id":"f2bf4d3a-e713-4388-a93a-ca852a4b03d7","system_id":"levelo_inurba_marseille","lat":43.31751,"lon":5.39028,"is_reserved":false,"is_disabled":false,"rental_uris":{"android":"levelo://app?vid=f2bf4d3a-e713-4388-a93a-ca852a4b03d7","ios":"levelo://app?vid=f2bf4d3a-e713-4388-a93a-ca852a4b03d7"},"vehicle_type_id":"4","last_reported":1716750360,"current_range_meters":4000,"station_id":"ce4bhqp2rcd13ifvqhng","pricing_plan_id":"cebpf4jnsgd1na2vs0mg"},{"bike_id":"56577985-8f15-45d1-b765-f1ee599030dd","system_id":"levelo_inurba_marseille","lat":43.317536,"lon":5.390286,"is_reserved":false,"is_disabled":false,"rental_uris":{"android":"levelo://app?vid=56577985-8f15-45d1-b765-f1ee599030dd","ios":"levelo://app?vid=56577985-8f15-45d1-b765-f1ee599030dd"},"vehicle_type_id":"4","last_reported":1716750360,"current_range_meters":0,"station_id":"ce4bhqp2rcd13ifvqhng","pricing_plan_id":"cebpf4jnsgd1na2vs0mg"},{"bike_id":"965948d8-812d-429d-bdcb-0f2f6a593635","system_id":"levelo_inurba_marseille","lat":43.298037,"lon":5.381066,"is_reserved":false,"is_disabled":false,"rental_uris":{"android":"levelo://app?vid=965948d8-812d-429d-bdcb-0f2f6a593635","ios":"levelo://app?vid=965948d8-812d-429d-bdcb-0f2f6a593635"},"vehicle_type_id":"4","last_reported":1716750360,"current_range_meters":0,"station_id":"ce4bgip2rcd13ifvqbb0","pricing_plan_id":"cebpf4jnsgd1na2vs0mg"},{"bike_id":"cd8b606e-b8ff-4875-ad9f-173a2e23e2d8","system_id":"levelo_inurba_marseille","lat":43.298037,"lon":5.381066,"is_reserved":false,"is_disabled":false,"rental_uris":{"android":"levelo://app?vid=cd8b606e-b8ff-4875-ad9f-173a2e23e2d8","ios":"levelo://app?vid=cd8b606e-b8ff-4875-ad9f-173a2e23e2d8"},"vehicle_type_id":"4","last_reported":1716750360,"current_range_meters":8000,"station_id":"ce4bgip2rcd13ifvqbb0","pricing_plan_id":"cebpf4jnsgd1na2vs0mg"},{"bike_id":"c7191a07-ada5-4045-ae84-63d98f979528","system_id":"levelo_inurba_marseille","lat":43.295757,"lon":5.375049,"is_reserved":false,"is_disabled":false,"rental_uris":{"android":"levelo://app?vid=c7191a07-ada5-4045-ae84-63d98f979528","ios":"levelo://app?vid=c7191a07-ada5-4045-ae84-63d98f979528"},"vehicle_type_id":"4","last_reported":1716750360,"current_range_meters":0,"station_id":"ce4bgh92rcd13ifvqb50","pricing_plan_id":"cebpf4jnsgd1na2vs0mg"},{"bike_id":"c51982f3-8f31-4e0c-a02b-79fda6dab5de","system_id":"levelo_inurba_marseille","lat":43.29576,"lon":5.37508,"is_reserved":false,"is_disabled":false,"rental_uris":{"android":"levelo://app?vid=c51982f3-8f31-4e0c-a02b-79fda6dab5de","ios":"levelo://app?vid=c51982f3-8f31-4e0c-a02b-79fda6dab5de"},"vehicle_type_id":"4","last_reported":1716750360,"current_range_meters":0,"station_id":"ce4bgh92rcd13ifvqb50","pricing_plan_id":"cebpf4jnsgd1na2vs0mg"},{"bike_id":"74957173-9dc7-4e75-b603-07f1dd6a58bf","system_id":"levelo_inurba_marseille","lat":43.29573,"lon":5.375087,"is_reserved":false,"is_disabled":false,"rental_uris":{"android":"levelo://app?vid=74957173-9dc7-4e75-b603-07f1dd6a58bf","ios":"levelo://app?vid=74957173-9dc7-4e75-b603-07f1dd6a58bf"},"vehicle_type_id":"4","last_reported":1716750360,"current_range_meters":0,"station_id":"ce4bgh92rcd13ifvqb50","pricing_plan_id":"cebpf4jnsgd1na2vs0mg"},{"bike_id":"ff44051c-d3b8-417a-b9ed-a0b45dc18a1d","system_id":"levelo_inurba_marseille","lat":43.297928,"lon":5.381068,"is_reserved":false,"is_disabled":false,"rental_uris":{"android":"levelo://app?vid=ff44051c-d3b8-417a-b9ed-a0b45dc18a1d","ios":"levelo://app?vid=ff44051c-d3b8-417a-b9ed-a0b45dc18a1d"},"vehicle_type_id":"4","last_reported":1716750360,"current_range_meters":0,"station_id":"ce4bgip2rcd13ifvqbb0","pricing_plan_id":"cebpf4jnsgd1na2vs0mg"},{"bike_id":"aef9d254-2674-4ddd-9492-6dd1aade4790","system_id":"levelo_inurba_marseille","lat":43.304274,"lon":5.388873,"is_reserved":false,"is_disabled":false,"rental_uris":{"android":"levelo://app?vid=aef9d254-2674-4ddd-9492-6dd1aade4790","ios":"levelo://app?vid=aef9d254-2674-4ddd-9492-6dd1aade4790"},"vehicle_type_id":"4","last_reported":1716750360,"current_range_meters":1600,"station_id":"ce4bgk12rcd13ifvqbi0","pricing_plan_id":"cebpf4jnsgd1na2vs0mg"},{"bike_id":"8754fe41-23ed-40c3-87de-5f3ddbb0c20a","system_id":"levelo_inurba_marseille","lat":43.304274,"lon":5.388873,"is_reserved":false,"is_disabled":false,"rental_uris":{"android":"levelo://app?vid=8754fe41-23ed-40c3-87de-5f3ddbb0c20a","ios":"levelo://app?vid=8754fe41-23ed-40c3-87de-5f3ddbb0c20a"},"vehicle_type_id":"4","last_reported":1716750360,"current_range_meters":13200,"station_id":"ce4bgk12rcd13ifvqbi0","pricing_plan_id":"cebpf4jnsgd1na2vs0mg"},{"bike_id":"7790c781-79f2-4cb4-9bea-35d776e022d8","system_id":"levelo_inurba_marseille","lat":43.298037,"lon":5.381066,"is_reserved":false,"is_disabled":false,"rental_uris":{"android":"levelo://app?vid=7790c781-79f2-4cb4-9bea-35d776e022d8","ios":"levelo://app?vid=7790c781-79f2-4cb4-9bea-35d776e022d8"},"vehicle_type_id":"4","last_reported":1716750360,"current_range_meters":800,"station_id":"ce4bgip2rcd13ifvqbb0","pricing_plan_id":"cebpf4jnsgd1na2vs0mg"},{"bike_id":"24768e28-63f9-49f1-b2d7-77b376c11acc","system_id":"levelo_inurba_marseille","lat":43.295748,"lon":5.37522,"is_reserved":false,"is_disabled":false,"rental_uris":{"android":"levelo://app?vid=24768e28-63f9-49f1-b2d7-77b376c11acc","ios":"levelo://app?vid=24768e28-63f9-49f1-b2d7-77b376c11acc"},"vehicle_type_id":"4","last_reported":1716750360,"current_range_meters":0,"station_id":"ce4bgh92rcd13ifvqb50","pricing_plan_id":"cebpf4jnsgd1na2vs0mg"},{"bike_id":"2ee6ebb9-bb5d-4bf0-a6e1-19c23c7a365c","system_id":"levelo_inurba_marseille","lat":43.304274,"lon":5.388873,"is_reserved":false,"is_disabled":false,"rental_uris":{"android":"levelo://app?vid=2ee6ebb9-bb5d-4bf0-a6e1-19c23c7a365c","ios":"levelo://app?vid=2ee6ebb9-bb5d-4bf0-a6e1-19c23c7a365c"},"vehicle_type_id":"4","last_reported":1716750360,"current_range_meters":23600,"station_id":"ce4bgk12rcd13ifvqbi0","pricing_plan_id":"cebpf4jnsgd1na2vs0mg"},{"bike_id":"57bd131e-2b4d-4055-b819-0c132d7d826f","system_id":"levelo_inurba_marseille","lat":43.296254,"lon":5.377372,"is_reserved":false,"is_disabled":false,"rental_uris":{"android":"levelo://app?vid=57bd131e-2b4d-4055-b819-0c132d7d826f","ios":"levelo://app?vid=57bd131e-2b4d-4055-b819-0c132d7d826f"},"vehicle_type_id":"4","last_reported":1716750360,"current_range_meters":0,"station_id":"ce4bgi92rcd13ifvqb90","pricing_plan_id":"cebpf4jnsgd1na2vs0mg"},{"bike_id":"54c5b3f6-b907-4c26-9f69-586b5eb71db5","system_id":"levelo_inurba_marseille","lat":43.29616,"lon":5.377285,"is_reserved":false,"is_disabled":false,"rental_uris":{"android":"levelo://app?vid=54c5b3f6-b907-4c26-9f69-586b5eb71db5","ios":"levelo://app?vid=54c5b3f6-b907-4c26-9f69-586b5eb71db5"},"vehicle_type_id":"4","last_reported":1716750360,"current_range_meters":0,"station_id":"ce4bgi92rcd13ifvqb90","pricing_plan_id":"cebpf4jnsgd1na2vs0mg"},{"bike_id":"e42863bf-04c2-4318-ad7e-a413770e8d21","system_id":"levelo_inurba_marseille","lat":43.296263,"lon":5.377094,"is_reserved":false,"is_disabled":false,"rental_uris":{"android":"levelo://app?vid=e42863bf-04c2-4318-ad7e-a413770e8d21","ios":"levelo://app?vid=e42863bf-04c2-4318-ad7e-a413770e8d21"},"vehicle_type_id":"4","last_reported":1716750360,"current_range_meters":2800,"station_id":"ce4bgi92rcd13ifvqb90","pricing_plan_id":"cebpf4jnsgd1na2vs0mg"},{"bike_id":"a285e1a7-7037-43da-9cb5-692fde07e76e","system_id":"levelo_inurba_marseille","lat":43.295279,"lon":5.375048,"is_reserved":false,"is_disabled":false,"rental_uris":{"android":"levelo://app?vid=a285e1a7-7037-43da-9cb5-692fde07e76e","ios":"levelo://app?vid=a285e1a7-7037-43da-9cb5-692fde07e76e"},"vehicle_type_id":"4","last_reported":1716750360,"current_range_meters":14400,"station_id":"ce4bgkp2rcd13ifvqbmg","pricing_plan_id":"cebpf4jnsgd1na2vs0mg"},{"bike_id":"caaf4ceb-92e9-457b-90d6-d7d7fc2ce489","system_id":"levelo_inurba_marseille","lat":43.295748,"lon":5.37522,"is_reserved":false,"is_disabled":false,"rental_uris":{"android":"levelo://app?vid=caaf4ceb-92e9-457b-90d6-d7d7fc2ce489","ios":"levelo://app?vid=caaf4ceb-92e9-457b-90d6-d7d7fc2ce489"},"vehicle_type_id":"4","last_reported":1716750360,"current_range_meters":3600,"station_id":"ce4bgh92rcd13ifvqb50","pricing_plan_id":"cebpf4jnsgd1na2vs0mg"},{"bike_id":"b3373a79-b049-49e8-8636-d3b258f72bf6","system_id":"levelo_inurba_marseille","lat":43.295289,"lon":5.374979,"is_reserved":false,"is_disabled":false,"rental_uris":{"android":"levelo://app?vid=b3373a79-b049-49e8-8636-d3b258f72bf6","ios":"levelo://app?vid=b3373a79-b049-49e8-8636-d3b258f72bf6"},"vehicle_type_id":"4","last_reported":1716750360,"current_range_meters":0,"station_id":"ce4bgkp2rcd13ifvqbmg","pricing_plan_id":"cebpf4jnsgd1na2vs0mg"},{"bike_id":"f8024285-27fb-4a21-8183-d73dc057c156","system_id":"levelo_inurba_marseille","lat":43.304278,"lon":5.388868,"is_reserved":false,"is_disabled":false,"rental_uris":{"android":"levelo://app?vid=f8024285-27fb-4a21-8183-d73dc057c156","ios":"levelo://app?vid=f8024285-27fb-4a21-8183-d73dc057c156"},"vehicle_type_id":"4","last_reported":1716750360,"current_range_meters":8800,"station_id":"ce4bgk12rcd13ifvqbi0","pricing_plan_id":"cebpf4jnsgd1na2vs0mg"},{"bike_id":"b0f5f036-fb5d-477d-9c36-d67eccee124b","system_id":"levelo_inurba_marseille","lat":43.299724,"lon":5.384848,"is_reserved":false,"is_disabled":false,"rental_uris":{"android":"levelo://app?vid=b0f5f036-fb5d-477d-9c36-d67eccee124b","ios":"levelo://app?vid=b0f5f036-fb5d-477d-9c36-d67eccee124b"},"vehicle_type_id":"4","last_reported":1716750360,"current_range_meters":6800,"station_id":"ce4bgj92rcd13ifvqbd0","pricing_plan_id":"cebpf4jnsgd1na2vs0mg"},{"bike_id":"934f3b10-e89d-4a7c-a313-42350c08ef56","system_id":"levelo_inurba_marseille","lat":43.299717,"lon":5.384845,"is_reserved":false,"is_disabled":false,"rental_uris":{"android":"levelo://app?vid=934f3b10-e89d-4a7c-a313-42350c08ef56","ios":"levelo://app?vid=934f3b10-e89d-4a7c-a313-42350c08ef56"},"vehicle_type_id":"4","last_reported":1716750360,"current_range_meters":10400,"station_id":"ce4bgj92rcd13ifvqbd0","pricing_plan_id":"cebpf4jnsgd1na2vs0mg"},{"bike_id":"1a2fe032-b050-4a0a-a51e-e7491a360b99","system_id":"levelo_inurba_marseille","lat":43.296263,"lon":5.377094,"is_reserved":false,"is_disabled":false,"rental_uris":{"android":"levelo://app?vid=1a2fe032-b050-4a0a-a51e-e7491a360b99","ios":"levelo://app?vid=1a2fe032-b050-4a0a-a51e-e7491a360b99"},"vehicle_type_id":"4","last_reported":1716750360,"current_range_meters":1200,"station_id":"ce4bgi92rcd13ifvqb90","pricing_plan_id":"cebpf4jnsgd1na2vs0mg"},{"bike_id":"88c6fb2f-edca-4a1e-9420-8c9419d398d0","system_id":"levelo_inurba_marseille","lat":43.29973,"lon":5.38496,"is_reserved":false,"is_disabled":false,"rental_uris":{"android":"levelo://app?vid=88c6fb2f-edca-4a1e-9420-8c9419d398d0","ios":"levelo://app?vid=88c6fb2f-edca-4a1e-9420-8c9419d398d0"},"vehicle_type_id":"4","last_reported":1716750360,"current_range_meters":0,"station_id":"ce4bgj92rcd13ifvqbd0","pricing_plan_id":"cebpf4jnsgd1na2vs0mg"},{"bike_id":"ea5c8d42-c861-4802-a2ac-9f57d3bd183f","system_id":"levelo_inurba_marseille","lat":43.299717,"lon":5.384845,"is_reserved":false,"is_disabled":false,"rental_uris":{"android":"levelo://app?vid=ea5c8d42-c861-4802-a2ac-9f57d3bd183f","ios":"levelo://app?vid=ea5c8d42-c861-4802-a2ac-9f57d3bd183f"},"vehicle_type_id":"4","last_reported":1716750360,"current_range_meters":31200,"station_id":"ce4bgj92rcd13ifvqbd0","pricing_plan_id":"cebpf4jnsgd1na2vs0mg"},{"bike_id":"d014cf3e-048b-41f0-8f75-4b7171a47831","system_id":"levelo_inurba_marseille","lat":43.299724,"lon":5.384848,"is_reserved":false,"is_disabled":false,"rental_uris":{"android":"levelo://app?vid=d014cf3e-048b-41f0-8f75-4b7171a47831","ios":"levelo://app?vid=d014cf3e-048b-41f0-8f75-4b7171a47831"},"vehicle_type_id":"4","last_reported":1716750360,"current_range_meters":31200,"station_id":"ce4bgj92rcd13ifvqbd0","pricing_plan_id":"cebpf4jnsgd1na2vs0mg"},{"bike_id":"bdc2d3ba-86e0-4abd-9c44-0c2c8869efad","system_id":"levelo_inurba_marseille","lat":43.299717,"lon":5.384845,"is_reserved":false,"is_disabled":false,"rental_uris":{"android":"levelo://app?vid=bdc2d3ba-86e0-4abd-9c44-0c2c8869efad","ios":"levelo://app?vid=bdc2d3ba-86e0-4abd-9c44-0c2c8869efad"},"vehicle_type_id":"4","last_reported":1716750360,"current_range_meters":0,"station_id":"ce4bgj92rcd13ifvqbd0","pricing_plan_id":"cebpf4jnsgd1na2vs0mg"},{"bike_id":"377dc84d-9765-4983-9fbe-367d284c07c6","system_id":"levelo_inurba_marseille","lat":43.299695,"lon":5.384975,"is_reserved":false,"is_disabled":false,"rental_uris":{"android":"levelo://app?vid=377dc84d-9765-4983-9fbe-367d284c07c6","ios":"levelo://app?vid=377dc84d-9765-4983-9fbe-367d284c07c6"},"vehicle_type_id":"4","last_reported":1716750360,"current_range_meters":0,"station_id":"ce4bgj92rcd13ifvqbd0","pricing_plan_id":"cebpf4jnsgd1na2vs0mg"},{"bike_id":"a97f6729-e70a-4289-9af7-d81c7eb3a0b5","system_id":"levelo_inurba_marseille","lat":43.299717,"lon":5.384845,"is_reserved":false,"is_disabled":false,"rental_uris":{"android":"levelo://app?vid=a97f6729-e70a-4289-9af7-d81c7eb3a0b5","ios":"levelo://app?vid=a97f6729-e70a-4289-9af7-d81c7eb3a0b5"},"vehicle_type_id":"4","last_reported":1716750360,"current_range_meters":26800,"station_id":"ce4bgj92rcd13ifvqbd0","pricing_plan_id":"cebpf4jnsgd1na2vs0mg"},{"bike_id":"305bd1fc-903e-4332-bf30-3816a9be03d4","system_id":"levelo_inurba_marseille","lat":43.299724,"lon":5.384848,"is_reserved":false,"is_disabled":false,"rental_uris":{"android":"levelo://app?vid=305bd1fc-903e-4332-bf30-3816a9be03d4","ios":"levelo://app?vid=305bd1fc-903e-4332-bf30-3816a9be03d4"},"vehicle_type_id":"4","last_reported":1716750360,"current_range_meters":12800,"station_id":"ce4bgj92rcd13ifvqbd0","pricing_plan_id":"cebpf4jnsgd1na2vs0mg"},{"bike_id":"e5d179ce-d18c-48d7-aaad-7d0e5744438d","system_id":"levelo_inurba_marseille","lat":43.2936,"lon":5.37835,"is_reserved":false,"is_disabled":false,"rental_uris":{"android":"levelo://app?vid=e5d179ce-d18c-48d7-aaad-7d0e5744438d","ios":"levelo://app?vid=e5d179ce-d18c-48d7-aaad-7d0e5744438d"},"vehicle_type_id":"4","last_reported":1716750360,"current_range_meters":18000,"station_id":"ce4bgjh2rcd13ifvqbf0","pricing_plan_id":"cebpf4jnsgd1na2vs0mg"},{"bike_id":"ac2138f0-7d6b-44b6-bbe7-037e29f9dafe","system_id":"levelo_inurba_marseille","lat":43.29897,"lon":5.38489,"is_reserved":false,"is_disabled":false,"rental_uris":{"android":"levelo://app?vid=ac2138f0-7d6b-44b6-bbe7-037e29f9dafe","ios":"levelo://app?vid=ac2138f0-7d6b-44b6-bbe7-037e29f9dafe"},"vehicle_type_id":"4","last_reported":1716750360,"current_range_meters":17600,"station_id":"","pricing_plan_id":"cebpf4jnsgd1na2vs0mg"},{"bike_id":"ce2572fd-6a5d-4f40-aca2-e6d885d1df51","system_id":"levelo_inurba_marseille","lat":43.298764,"lon":5.388973,"is_reserved":false,"is_disabled":false,"rental_uris":{"android":"levelo://app?vid=ce2572fd-6a5d-4f40-aca2-e6d885d1df51","ios":"levelo://app?vid=ce2572fd-6a5d-4f40-aca2-e6d885d1df51"},"vehicle_type_id":"4","last_reported":1716750360,"current_range_meters":7600,"station_id":"ce4bh392rcd13ifvqdl0","pricing_plan_id":"cebpf4jnsgd1na2vs0mg"},{"bike_id":"8731fc23-92d1-4ffd-9491-1de09a3329f3","system_id":"levelo_inurba_marseille","lat":43.32367,"lon":5.388836,"is_reserved":false,"is_disabled":false,"rental_uris":{"android":"levelo://app?vid=8731fc23-92d1-4ffd-9491-1de09a3329f3","ios":"levelo://app?vid=8731fc23-92d1-4ffd-9491-1de09a3329f3"},"vehicle_type_id":"4","last_reported":1716750360,"current_range_meters":0,"station_id":"ce4bhqp2rcd13ifvqhog","pricing_plan_id":"cebpf4jnsgd1na2vs0mg"},{"bike_id":"d4b7fb86-33d3-420c-baed-7d98f27d20bd","system_id":"levelo_inurba_marseille","lat":43.310914,"lon":5.393317,"is_reserved":false,"is_disabled":false,"rental_uris":{"android":"levelo://app?vid=d4b7fb86-33d3-420c-baed-7d98f27d20bd","ios":"levelo://app?vid=d4b7fb86-33d3-420c-baed-7d98f27d20bd"},"vehicle_type_id":"4","last_reported":1716750360,"current_range_meters":9200,"station_id":"","pricing_plan_id":"cebpf4jnsgd1na2vs0mg"},{"bike_id":"bd19ee68-2ede-4e53-a637-ccedc251e23a","system_id":"levelo_inurba_marseille","lat":43.29602,"lon":5.381084,"is_reserved":false,"is_disabled":false,"rental_uris":{"android":"levelo://app?vid=bd19ee68-2ede-4e53-a637-ccedc251e23a","ios":"levelo://app?vid=bd19ee68-2ede-4e53-a637-ccedc251e23a"},"vehicle_type_id":"4","last_reported":1716750360,"current_range_meters":10800,"station_id":"ce4bgl12rcd13ifvqbo0","pricing_plan_id":"cebpf4jnsgd1na2vs0mg"},{"bike_id":"57005fed-9c6c-40e6-b486-4f680b5314a7","system_id":"levelo_inurba_marseille","lat":43.29602,"lon":5.381084,"is_reserved":false,"is_disabled":false,"rental_uris":{"android":"levelo://app?vid=57005fed-9c6c-40e6-b486-4f680b5314a7","ios":"levelo://app?vid=57005fed-9c6c-40e6-b486-4f680b5314a7"},"vehicle_type_id":"4","last_reported":1716750360,"current_range_meters":12800,"station_id":"ce4bgl12rcd13ifvqbo0","pricing_plan_id":"cebpf4jnsgd1na2vs0mg"},{"bike_id":"2a740448-0097-430a-88cd-b491e0ac075c","system_id":"levelo_inurba_marseille","lat":43.29601,"lon":5.381084,"is_reserved":false,"is_disabled":false,"rental_uris":{"android":"levelo://app?vid=2a740448-0097-430a-88cd-b491e0ac075c","ios":"levelo://app?vid=2a740448-0097-430a-88cd-b491e0ac075c"},"vehicle_type_id":"4","last_reported":1716750360,"current_range_meters":8400,"station_id":"ce4bgl12rcd13ifvqbo0","pricing_plan_id":"cebpf4jnsgd1na2vs0mg"},{"bike_id":"85d01def-7e56-4f39-8ffd-8206d1c75912","system_id":"levelo_inurba_marseille","lat":43.293009,"lon":5.374584,"is_reserved":false,"is_disabled":false,"rental_uris":{"android":"levelo://app?vid=85d01def-7e56-4f39-8ffd-8206d1c75912","ios":"levelo://app?vid=85d01def-7e56-4f39-8ffd-8206d1c75912"},"vehicle_type_id":"4","last_reported":1716750360,"current_range_meters":28400,"station_id":"ce4bgi12rcd13ifvqb70","pricing_plan_id":"cebpf4jnsgd1na2vs0mg"},{"bike_id":"7026d70e-3348-4510-a6d6-eb3aeb1a50c0","system_id":"levelo_inurba_marseille","lat":43.29282,"lon":5.36852,"is_reserved":false,"is_disabled":false,"rental_uris":{"android":"levelo://app?vid=7026d70e-3348-4510-a6d6-eb3aeb1a50c0","ios":"levelo://app?vid=7026d70e-3348-4510-a6d6-eb3aeb1a50c0"},"vehicle_type_id":"4","last_reported":1716750360,"current_range_meters":0,"station_id":"ce4bhbp2rcd13ifvqesg","pricing_plan_id":"cebpf4jnsgd1na2vs0mg"},{"bike_id":"daac098f-1f9b-4505-a7de-5c83db0919fc","system_id":"levelo_inurba_marseille","lat":43.293259,"lon":5.371586,"is_reserved":false,"is_disabled":false,"rental_uris":{"android":"levelo://app?vid=daac098f-1f9b-4505-a7de-5c83db0919fc","ios":"levelo://app?vid=daac098f-1f9b-4505-a7de-5c83db0919fc"},"vehicle_type_id":"4","last_reported":1716750360,"current_range_meters":400,"station_id":"ce4bgh92rcd13ifvqb40","pricing_plan_id":"cebpf4jnsgd1na2vs0mg"},{"bike_id":"27fe07aa-ee5f-4b45-ae07-2bab608800b8","system_id":"levelo_inurba_marseille","lat":43.292749,"lon":5.368398,"is_reserved":false,"is_disabled":false,"rental_uris":{"android":"levelo://app?vid=27fe07aa-ee5f-4b45-ae07-2bab608800b8","ios":"levelo://app?vid=27fe07aa-ee5f-4b45-ae07-2bab608800b8"},"vehicle_type_id":"4","last_reported":1716750360,"current_range_meters":1200,"station_id":"ce4bhbp2rcd13ifvqesg","pricing_plan_id":"cebpf4jnsgd1na2vs0mg"},{"bike_id":"05dfe98b-28d2-4285-876f-0f9c7e946d02","system_id":"levelo_inurba_marseille","lat":43.293009,"lon":5.374584,"is_reserved":false,"is_disabled":false,"rental_uris":{"android":"levelo://app?vid=05dfe98b-28d2-4285-876f-0f9c7e946d02","ios":"levelo://app?vid=05dfe98b-28d2-4285-876f-0f9c7e946d02"},"vehicle_type_id":"4","last_reported":1716750360,"current_range_meters":0,"station_id":"ce4bgi12rcd13ifvqb70","pricing_plan_id":"cebpf4jnsgd1na2vs0mg"},{"bike_id":"cc09a9a0-34c5-4217-a5de-9fab1fbc172b","system_id":"levelo_inurba_marseille","lat":43.29305,"lon":5.37461,"is_reserved":false,"is_disabled":false,"rental_uris":{"android":"levelo://app?vid=cc09a9a0-34c5-4217-a5de-9fab1fbc172b","ios":"levelo://app?vid=cc09a9a0-34c5-4217-a5de-9fab1fbc172b"},"vehicle_type_id":"4","last_reported":1716750360,"current_range_meters":0,"station_id":"ce4bgi12rcd13ifvqb70","pricing_plan_id":"cebpf4jnsgd1na2vs0mg"},{"bike_id":"9a3d7216-8c07-4646-af39-6486e456569c","system_id":"levelo_inurba_marseille","lat":43.293,"lon":5.374571,"is_reserved":false,"is_disabled":false,"rental_uris":{"android":"levelo://app?vid=9a3d7216-8c07-4646-af39-6486e456569c","ios":"levelo://app?vid=9a3d7216-8c07-4646-af39-6486e456569c"},"vehicle_type_id":"4","last_reported":1716750360,"current_range_meters":0,"station_id":"ce4bgi12rcd13ifvqb70","pricing_plan_id":"cebpf4jnsgd1na2vs0mg"},{"bike_id":"32dca432-c5d9-4823-b250-7622f3089291","system_id":"levelo_inurba_marseille","lat":43.305994,"lon":5.393687,"is_reserved":false,"is_disabled":false,"rental_uris":{"android":"levelo://app?vid=32dca432-c5d9-4823-b250-7622f3089291","ios":"levelo://app?vid=32dca432-c5d9-4823-b250-7622f3089291"},"vehicle_type_id":"4","last_reported":1716750360,"current_range_meters":1200,"station_id":"ce4bh0p2rcd13ifvqd80","pricing_plan_id":"cebpf4jnsgd1na2vs0mg"},{"bike_id":"f1e86568-e94f-4404-bf35-2dc849518f99","system_id":"levelo_inurba_marseille","lat":43.302992,"lon":5.392136,"is_reserved":false,"is_disabled":false,"rental_uris":{"android":"levelo://app?vid=f1e86568-e94f-4404-bf35-2dc849518f99","ios":"levelo://app?vid=f1e86568-e94f-4404-bf35-2dc849518f99"},"vehicle_type_id":"4","last_reported":1716750360,"current_range_meters":6800,"station_id":"ce4bgkh2rcd13ifvqbk0","pricing_plan_id":"cebpf4jnsgd1na2vs0mg"},{"bike_id":"ba0581f4-c585-473c-a310-67a6aea6c84e","system_id":"levelo_inurba_marseille","lat":43.302992,"lon":5.392136,"is_reserved":false,"is_disabled":false,"rental_uris":{"android":"levelo://app?vid=ba0581f4-c585-473c-a310-67a6aea6c84e","ios":"levelo://app?vid=ba0581f4-c585-473c-a310-67a6aea6c84e"},"vehicle_type_id":"4","last_reported":1716750360,"current_range_meters":14400,"station_id":"ce4bgkh2rcd13ifvqbk0","pricing_plan_id":"cebpf4jnsgd1na2vs0mg"},{"bike_id":"3097aa64-ee19-47fd-976b-3d25effd32e6","system_id":"levelo_inurba_marseille","lat":43.302992,"lon":5.392136,"is_reserved":false,"is_disabled":false,"rental_uris":{"android":"levelo://app?vid=3097aa64-ee19-47fd-976b-3d25effd32e6","ios":"levelo://app?vid=3097aa64-ee19-47fd-976b-3d25effd32e6"},"vehicle_type_id":"4","last_reported":1716750360,"current_range_meters":4000,"station_id":"ce4bgkh2rcd13ifvqbk0","pricing_plan_id":"cebpf4jnsgd1na2vs0mg"},{"bike_id":"c342b590-042e-4b0f-86c6-db9986eb736d","system_id":"levelo_inurba_marseille","lat":43.302992,"lon":5.392136,"is_reserved":false,"is_disabled":false,"rental_uris":{"android":"levelo://app?vid=c342b590-042e-4b0f-86c6-db9986eb736d","ios":"levelo://app?vid=c342b590-042e-4b0f-86c6-db9986eb736d"},"vehicle_type_id":"4","last_reported":1716750360,"current_range_meters":16800,"station_id":"ce4bgkh2rcd13ifvqbk0","pricing_plan_id":"cebpf4jnsgd1na2vs0mg"},{"bike_id":"3f188017-491b-4d4c-a329-f0cfbc383038","system_id":"levelo_inurba_marseille","lat":43.302992,"lon":5.392136,"is_reserved":false,"is_disabled":false,"rental_uris":{"android":"levelo://app?vid=3f188017-491b-4d4c-a329-f0cfbc383038","ios":"levelo://app?vid=3f188017-491b-4d4c-a329-f0cfbc383038"},"vehicle_type_id":"4","last_reported":1716750360,"current_range_meters":10400,"station_id":"ce4bgkh2rcd13ifvqbk0","pricing_plan_id":"cebpf4jnsgd1na2vs0mg"},{"bike_id":"13d9c34e-531c-43a4-bd88-a5255f1280b4","system_id":"levelo_inurba_marseille","lat":43.305994,"lon":5.393687,"is_reserved":false,"is_disabled":false,"rental_uris":{"android":"levelo://app?vid=13d9c34e-531c-43a4-bd88-a5255f1280b4","ios":"levelo://app?vid=13d9c34e-531c-43a4-bd88-a5255f1280b4"},"vehicle_type_id":"4","last_reported":1716750360,"current_range_meters":17200,"station_id":"ce4bh0p2rcd13ifvqd80","pricing_plan_id":"cebpf4jnsgd1na2vs0mg"},{"bike_id":"8f0b6636-63db-48fb-aa29-6d09557a42c2","system_id":"levelo_inurba_marseille","lat":43.302992,"lon":5.392136,"is_reserved":false,"is_disabled":false,"rental_uris":{"android":"levelo://app?vid=8f0b6636-63db-48fb-aa29-6d09557a42c2","ios":"levelo://app?vid=8f0b6636-63db-48fb-aa29-6d09557a42c2"},"vehicle_type_id":"4","last_reported":1716750360,"current_range_meters":10000,"station_id":"ce4bgkh2rcd13ifvqbk0","pricing_plan_id":"cebpf4jnsgd1na2vs0mg"},{"bike_id":"4eabeb0c-8fb7-49a0-8127-60aff034052a","system_id":"levelo_inurba_marseille","lat":43.293673,"lon":5.378523,"is_reserved":false,"is_disabled":false,"rental_uris":{"android":"levelo://app?vid=4eabeb0c-8fb7-49a0-8127-60aff034052a","ios":"levelo://app?vid=4eabeb0c-8fb7-49a0-8127-60aff034052a"},"vehicle_type_id":"4","last_reported":1716750360,"current_range_meters":0,"station_id":"ce4bgjh2rcd13ifvqbf0","pricing_plan_id":"cebpf4jnsgd1na2vs0mg"},{"bike_id":"267edc98-32c1-47ce-b204-a06fb44b7fec","system_id":"levelo_inurba_marseille","lat":43.292287,"lon":5.360567,"is_reserved":false,"is_disabled":false,"rental_uris":{"android":"levelo://app?vid=267edc98-32c1-47ce-b204-a06fb44b7fec","ios":"levelo://app?vid=267edc98-32c1-47ce-b204-a06fb44b7fec"},"vehicle_type_id":"4","last_reported":1716750360,"current_range_meters":0,"station_id":"ce4bhbh2rcd13ifvqeqg","pricing_plan_id":"cebpf4jnsgd1na2vs0mg"},{"bike_id":"d5699b27-5302-489d-abf3-9a5f3d7cf41a","system_id":"levelo_inurba_marseille","lat":43.2936,"lon":5.37835,"is_reserved":false,"is_disabled":false,"rental_uris":{"android":"levelo://app?vid=d5699b27-5302-489d-abf3-9a5f3d7cf41a","ios":"levelo://app?vid=d5699b27-5302-489d-abf3-9a5f3d7cf41a"},"vehicle_type_id":"4","last_reported":1716750360,"current_range_meters":5200,"station_id":"ce4bgjh2rcd13ifvqbf0","pricing_plan_id":"cebpf4jnsgd1na2vs0mg"},{"bike_id":"3a14d25e-ec50-43de-b7a3-0af2480fdac8","system_id":"levelo_inurba_marseille","lat":43.29224,"lon":5.360573,"is_reserved":false,"is_disabled":false,"rental_uris":{"android":"levelo://app?vid=3a14d25e-ec50-43de-b7a3-0af2480fdac8","ios":"levelo://app?vid=3a14d25e-ec50-43de-b7a3-0af2480fdac8"},"vehicle_type_id":"4","last_reported":1716750360,"current_range_meters":0,"station_id":"ce4bhbh2rcd13ifvqeqg","pricing_plan_id":"cebpf4jnsgd1na2vs0mg"},{"bike_id":"503466df-0863-40ef-b185-a08f9717baff","system_id":"levelo_inurba_marseille","lat":43.29276,"lon":5.37619,"is_reserved":false,"is_disabled":false,"rental_uris":{"android":"levelo://app?vid=503466df-0863-40ef-b185-a08f9717baff","ios":"levelo://app?vid=503466df-0863-40ef-b185-a08f9717baff"},"vehicle_type_id":"4","last_reported":1716750360,"current_range_meters":12400,"station_id":"","pricing_plan_id":"cebpf4jnsgd1na2vs0mg"},{"bike_id":"ad560d2b-6205-459b-a900-a125b3b52cd7","system_id":"levelo_inurba_marseille","lat":43.292151,"lon":5.360199,"is_reserved":false,"is_disabled":false,"rental_uris":{"android":"levelo://app?vid=ad560d2b-6205-459b-a900-a125b3b52cd7","ios":"levelo://app?vid=ad560d2b-6205-459b-a900-a125b3b52cd7"},"vehicle_type_id":"4","last_reported":1716750360,"current_range_meters":0,"station_id":"ce4bhbh2rcd13ifvqeqg","pricing_plan_id":"cebpf4jnsgd1na2vs0mg"},{"bike_id":"4e822c66-d799-418b-af6b-05b88db76ee9","system_id":"levelo_inurba_marseille","lat":43.3008,"lon":5.39097,"is_reserved":false,"is_disabled":false,"rental_uris":{"android":"levelo://app?vid=4e822c66-d799-418b-af6b-05b88db76ee9","ios":"levelo://app?vid=4e822c66-d799-418b-af6b-05b88db76ee9"},"vehicle_type_id":"4","last_reported":1716750360,"current_range_meters":10000,"station_id":"ce4bh192rcd13ifvqdb0","pricing_plan_id":"cebpf4jnsgd1na2vs0mg"},{"bike_id":"a55a39c0-22b7-4907-95ea-973f2255df9f","system_id":"levelo_inurba_marseille","lat":43.29268,"lon":5.37629,"is_reserved":false,"is_disabled":false,"rental_uris":{"android":"levelo://app?vid=a55a39c0-22b7-4907-95ea-973f2255df9f","ios":"levelo://app?vid=a55a39c0-22b7-4907-95ea-973f2255df9f"},"vehicle_type_id":"4","last_reported":1716750360,"current_range_meters":400,"station_id":"","pricing_plan_id":"cebpf4jnsgd1na2vs0mg"},{"bike_id":"b71cacb3-d922-4d84-81d8-381bfe966036","system_id":"levelo_inurba_marseille","lat":43.30085,"lon":5.390856,"is_reserved":false,"is_disabled":false,"rental_uris":{"android":"levelo://app?vid=b71cacb3-d922-4d84-81d8-381bfe966036","ios":"levelo://app?vid=b71cacb3-d922-4d84-81d8-381bfe966036"},"vehicle_type_id":"4","last_reported":1716750360,"current_range_meters":12400,"station_id":"ce4bh192rcd13ifvqdb0","pricing_plan_id":"cebpf4jnsgd1na2vs0mg"},{"bike_id":"23743ace-c485-410c-8b8f-0b08b0e661f7","system_id":"levelo_inurba_marseille","lat":43.298764,"lon":5.388973,"is_reserved":false,"is_disabled":false,"rental_uris":{"android":"levelo://app?vid=23743ace-c485-410c-8b8f-0b08b0e661f7","ios":"levelo://app?vid=23743ace-c485-410c-8b8f-0b08b0e661f7"},"vehicle_type_id":"4","last_reported":1716750360,"current_range_meters":10800,"station_id":"ce4bh392rcd13ifvqdl0","pricing_plan_id":"cebpf4jnsgd1na2vs0mg"},{"bike_id":"e52fe38b-2a89-4f60-80d1-bf146056989b","system_id":"levelo_inurba_marseille","lat":43.298764,"lon":5.388973,"is_reserved":false,"is_disabled":false,"rental_uris":{"android":"levelo://app?vid=e52fe38b-2a89-4f60-80d1-bf146056989b","ios":"levelo://app?vid=e52fe38b-2a89-4f60-80d1-bf146056989b"},"vehicle_type_id":"4","last_reported":1716750360,"current_range_meters":6000,"station_id":"ce4bh392rcd13ifvqdl0","pricing_plan_id":"cebpf4jnsgd1na2vs0mg"},{"bike_id":"833b6ebe-4cee-4899-bc2f-596933bb5c86","system_id":"levelo_inurba_marseille","lat":43.291675,"lon":5.371583,"is_reserved":false,"is_disabled":false,"rental_uris":{"android":"levelo://app?vid=833b6ebe-4cee-4899-bc2f-596933bb5c86","ios":"levelo://app?vid=833b6ebe-4cee-4899-bc2f-596933bb5c86"},"vehicle_type_id":"4","last_reported":1716750360,"current_range_meters":0,"station_id":"ce4bha92rcd13ifvqeh0","pricing_plan_id":"cebpf4jnsgd1na2vs0mg"},{"bike_id":"261215c0-3d87-468a-b283-c21856756075","system_id":"levelo_inurba_marseille","lat":43.298764,"lon":5.388973,"is_reserved":false,"is_disabled":false,"rental_uris":{"android":"levelo://app?vid=261215c0-3d87-468a-b283-c21856756075","ios":"levelo://app?vid=261215c0-3d87-468a-b283-c21856756075"},"vehicle_type_id":"4","last_reported":1716750360,"current_range_meters":8400,"station_id":"ce4bh392rcd13ifvqdl0","pricing_plan_id":"cebpf4jnsgd1na2vs0mg"},{"bike_id":"b6ca873b-ff83-4f49-bd36-d2182997b0f4","system_id":"levelo_inurba_marseille","lat":43.291675,"lon":5.371583,"is_reserved":false,"is_disabled":false,"rental_uris":{"android":"levelo://app?vid=b6ca873b-ff83-4f49-bd36-d2182997b0f4","ios":"levelo://app?vid=b6ca873b-ff83-4f49-bd36-d2182997b0f4"},"vehicle_type_id":"4","last_reported":1716750360,"current_range_meters":14800,"station_id":"ce4bha92rcd13ifvqeh0","pricing_plan_id":"cebpf4jnsgd1na2vs0mg"},{"bike_id":"f2fef318-190c-44ee-a520-58e1c2b12d92","system_id":"levelo_inurba_marseille","lat":43.298764,"lon":5.388973,"is_reserved":false,"is_disabled":false,"rental_uris":{"android":"levelo://app?vid=f2fef318-190c-44ee-a520-58e1c2b12d92","ios":"levelo://app?vid=f2fef318-190c-44ee-a520-58e1c2b12d92"},"vehicle_type_id":"4","last_reported":1716750360,"current_range_meters":6400,"station_id":"ce4bh392rcd13ifvqdl0","pricing_plan_id":"cebpf4jnsgd1na2vs0mg"},{"bike_id":"1fa893ff-0e15-405b-9eba-e25e102b25b4","system_id":"levelo_inurba_marseille","lat":43.298764,"lon":5.388973,"is_reserved":false,"is_disabled":false,"rental_uris":{"android":"levelo://app?vid=1fa893ff-0e15-405b-9eba-e25e102b25b4","ios":"levelo://app?vid=1fa893ff-0e15-405b-9eba-e25e102b25b4"},"vehicle_type_id":"4","last_reported":1716750360,"current_range_meters":6800,"station_id":"ce4bh392rcd13ifvqdl0","pricing_plan_id":"cebpf4jnsgd1na2vs0mg"},{"bike_id":"c5262746-403d-4f72-a7d9-86f939f434bc","system_id":"levelo_inurba_marseille","lat":43.29162,"lon":5.371559,"is_reserved":false,"is_disabled":false,"rental_uris":{"android":"levelo://app?vid=c5262746-403d-4f72-a7d9-86f939f434bc","ios":"levelo://app?vid=c5262746-403d-4f72-a7d9-86f939f434bc"},"vehicle_type_id":"4","last_reported":1716750360,"current_range_meters":24000,"station_id":"ce4bha92rcd13ifvqeh0","pricing_plan_id":"cebpf4jnsgd1na2vs0mg"},{"bike_id":"5d30bbb7-e90d-4366-b497-f980064d2f22","system_id":"levelo_inurba_marseille","lat":43.29834,"lon":5.388776,"is_reserved":false,"is_disabled":false,"rental_uris":{"android":"levelo://app?vid=5d30bbb7-e90d-4366-b497-f980064d2f22","ios":"levelo://app?vid=5d30bbb7-e90d-4366-b497-f980064d2f22"},"vehicle_type_id":"4","last_reported":1716750360,"current_range_meters":400,"station_id":"ce4bgih2rcd13ifvqba0","pricing_plan_id":"cebpf4jnsgd1na2vs0mg"},{"bike_id":"f76928c6-a0ad-4467-b774-1cc8329f37b9","system_id":"levelo_inurba_marseille","lat":43.291671,"lon":5.371575,"is_reserved":false,"is_disabled":false,"rental_uris":{"android":"levelo://app?vid=f76928c6-a0ad-4467-b774-1cc8329f37b9","ios":"levelo://app?vid=f76928c6-a0ad-4467-b774-1cc8329f37b9"},"vehicle_type_id":"4","last_reported":1716750360,"current_range_meters":30400,"station_id":"ce4bha92rcd13ifvqeh0","pricing_plan_id":"cebpf4jnsgd1na2vs0mg"},{"bike_id":"39b23b27-0fb6-429d-95a4-3cf189f1c59f","system_id":"levelo_inurba_marseille","lat":43.309047,"lon":5.396551,"is_reserved":false,"is_disabled":false,"rental_uris":{"android":"levelo://app?vid=39b23b27-0fb6-429d-95a4-3cf189f1c59f","ios":"levelo://app?vid=39b23b27-0fb6-429d-95a4-3cf189f1c59f"},"vehicle_type_id":"4","last_reported":1716750360,"current_range_meters":16400,"station_id":"ce4bh012rcd13ifvqcv0","pricing_plan_id":"cebpf4jnsgd1na2vs0mg"},{"bike_id":"7b654985-fa4f-4201-92d3-6e4c89b68971","system_id":"levelo_inurba_marseille","lat":43.313291,"lon":5.396838,"is_reserved":false,"is_disabled":false,"rental_uris":{"android":"levelo://app?vid=7b654985-fa4f-4201-92d3-6e4c89b68971","ios":"levelo://app?vid=7b654985-fa4f-4201-92d3-6e4c89b68971"},"vehicle_type_id":"4","last_reported":1716750360,"current_range_meters":22000,"station_id":"ce4bgvp2rcd13ifvqcu0","pricing_plan_id":"cebpf4jnsgd1na2vs0mg"},{"bike_id":"601eecd8-e543-4b82-8109-68748ac47d66","system_id":"levelo_inurba_marseille","lat":43.29195,"lon":5.35794,"is_reserved":false,"is_disabled":false,"rental_uris":{"android":"levelo://app?vid=601eecd8-e543-4b82-8109-68748ac47d66","ios":"levelo://app?vid=601eecd8-e543-4b82-8109-68748ac47d66"},"vehicle_type_id":"4","last_reported":1716750360,"current_range_meters":26400,"station_id":"ce4bhb12rcd13ifvqel0","pricing_plan_id":"cebpf4jnsgd1na2vs0mg"},{"bike_id":"1fc2e95d-a03d-4379-a713-38d1a55cfd90","system_id":"levelo_inurba_marseille","lat":43.313291,"lon":5.396838,"is_reserved":false,"is_disabled":false,"rental_uris":{"android":"levelo://app?vid=1fc2e95d-a03d-4379-a713-38d1a55cfd90","ios":"levelo://app?vid=1fc2e95d-a03d-4379-a713-38d1a55cfd90"},"vehicle_type_id":"4","last_reported":1716750360,"current_range_meters":11200,"station_id":"ce4bgvp2rcd13ifvqcu0","pricing_plan_id":"cebpf4jnsgd1na2vs0mg"},{"bike_id":"e6f26cd0-c66d-449d-90d2-660c00a037f6","system_id":"levelo_inurba_marseille","lat":43.29192,"lon":5.358,"is_reserved":false,"is_disabled":false,"rental_uris":{"android":"levelo://app?vid=e6f26cd0-c66d-449d-90d2-660c00a037f6","ios":"levelo://app?vid=e6f26cd0-c66d-449d-90d2-660c00a037f6"},"vehicle_type_id":"4","last_reported":1716750360,"current_range_meters":0,"station_id":"ce4bhb12rcd13ifvqel0","pricing_plan_id":"cebpf4jnsgd1na2vs0mg"},{"bike_id":"9462c5a1-60e2-4666-a7cc-ef25871fc041","system_id":"levelo_inurba_marseille","lat":43.309038,"lon":5.396546,"is_reserved":false,"is_disabled":false,"rental_uris":{"android":"levelo://app?vid=9462c5a1-60e2-4666-a7cc-ef25871fc041","ios":"levelo://app?vid=9462c5a1-60e2-4666-a7cc-ef25871fc041"},"vehicle_type_id":"4","last_reported":1716750360,"current_range_meters":6400,"station_id":"ce4bh012rcd13ifvqcv0","pricing_plan_id":"cebpf4jnsgd1na2vs0mg"},{"bike_id":"25b71919-2f4c-4d60-abe6-06bc193ef57d","system_id":"levelo_inurba_marseille","lat":43.31328,"lon":5.39694,"is_reserved":false,"is_disabled":false,"rental_uris":{"android":"levelo://app?vid=25b71919-2f4c-4d60-abe6-06bc193ef57d","ios":"levelo://app?vid=25b71919-2f4c-4d60-abe6-06bc193ef57d"},"vehicle_type_id":"4","last_reported":1716750360,"current_range_meters":3200,"station_id":"ce4bgvp2rcd13ifvqcu0","pricing_plan_id":"cebpf4jnsgd1na2vs0mg"},{"bike_id":"43556283-2c36-4082-bde8-0371cd381d36","system_id":"levelo_inurba_marseille","lat":43.309047,"lon":5.396551,"is_reserved":false,"is_disabled":false,"rental_uris":{"android":"levelo://app?vid=43556283-2c36-4082-bde8-0371cd381d36","ios":"levelo://app?vid=43556283-2c36-4082-bde8-0371cd381d36"},"vehicle_type_id":"4","last_reported":1716750360,"current_range_meters":13200,"station_id":"ce4bh012rcd13ifvqcv0","pricing_plan_id":"cebpf4jnsgd1na2vs0mg"},{"bike_id":"ab72d1c9-c555-4dd8-8375-8f8e5b70f0bf","system_id":"levelo_inurba_marseille","lat":43.313291,"lon":5.396838,"is_reserved":false,"is_disabled":false,"rental_uris":{"android":"levelo://app?vid=ab72d1c9-c555-4dd8-8375-8f8e5b70f0bf","ios":"levelo://app?vid=ab72d1c9-c555-4dd8-8375-8f8e5b70f0bf"},"vehicle_type_id":"4","last_reported":1716750360,"current_range_meters":400,"station_id":"ce4bgvp2rcd13ifvqcu0","pricing_plan_id":"cebpf4jnsgd1na2vs0mg"},{"bike_id":"ce6b881f-071c-491e-99db-bae78d9345b3","system_id":"levelo_inurba_marseille","lat":43.313291,"lon":5.396838,"is_reserved":false,"is_disabled":false,"rental_uris":{"android":"levelo://app?vid=ce6b881f-071c-491e-99db-bae78d9345b3","ios":"levelo://app?vid=ce6b881f-071c-491e-99db-bae78d9345b3"},"vehicle_type_id":"4","last_reported":1716750360,"current_range_meters":0,"station_id":"ce4bgvp2rcd13ifvqcu0","pricing_plan_id":"cebpf4jnsgd1na2vs0mg"},{"bike_id":"98fc1215-a0a3-4626-94aa-3edd58a8a1b0","system_id":"levelo_inurba_marseille","lat":43.313291,"lon":5.396838,"is_reserved":false,"is_disabled":false,"rental_uris":{"android":"levelo://app?vid=98fc1215-a0a3-4626-94aa-3edd58a8a1b0","ios":"levelo://app?vid=98fc1215-a0a3-4626-94aa-3edd58a8a1b0"},"vehicle_type_id":"4","last_reported":1716750360,"current_range_meters":14400,"station_id":"ce4bgvp2rcd13ifvqcu0","pricing_plan_id":"cebpf4jnsgd1na2vs0mg"},{"bike_id":"410af055-7edb-44f2-98d3-0604b8a95e88","system_id":"levelo_inurba_marseille","lat":43.309047,"lon":5.396551,"is_reserved":false,"is_disabled":false,"rental_uris":{"android":"levelo://app?vid=410af055-7edb-44f2-98d3-0604b8a95e88","ios":"levelo://app?vid=410af055-7edb-44f2-98d3-0604b8a95e88"},"vehicle_type_id":"4","last_reported":1716750360,"current_range_meters":12400,"station_id":"ce4bh012rcd13ifvqcv0","pricing_plan_id":"cebpf4jnsgd1na2vs0mg"},{"bike_id":"c6cabb9c-23e3-4780-a04f-e5d73269348d","system_id":"levelo_inurba_marseille","lat":43.29529,"lon":5.385581,"is_reserved":false,"is_disabled":false,"rental_uris":{"android":"levelo://app?vid=c6cabb9c-23e3-4780-a04f-e5d73269348d","ios":"levelo://app?vid=c6cabb9c-23e3-4780-a04f-e5d73269348d"},"vehicle_type_id":"4","last_reported":1716750360,"current_range_meters":0,"station_id":"ce4bgih2rcd13ifvqba0","pricing_plan_id":"cebpf4jnsgd1na2vs0mg"},{"bike_id":"9aebcfbc-064c-4002-af0f-9c7c77cffd5f","system_id":"levelo_inurba_marseille","lat":43.290779,"lon":5.371482,"is_reserved":false,"is_disabled":false,"rental_uris":{"android":"levelo://app?vid=9aebcfbc-064c-4002-af0f-9c7c77cffd5f","ios":"levelo://app?vid=9aebcfbc-064c-4002-af0f-9c7c77cffd5f"},"vehicle_type_id":"4","last_reported":1716750360,"current_range_meters":15200,"station_id":"ce4bh5p2rcd13ifvqe4g","pricing_plan_id":"cebpf4jnsgd1na2vs0mg"},{"bike_id":"f0b9ecb0-7545-4926-bd57-1215c5ea1067","system_id":"levelo_inurba_marseille","lat":43.290718,"lon":5.371884,"is_reserved":false,"is_disabled":false,"rental_uris":{"android":"levelo://app?vid=f0b9ecb0-7545-4926-bd57-1215c5ea1067","ios":"levelo://app?vid=f0b9ecb0-7545-4926-bd57-1215c5ea1067"},"vehicle_type_id":"4","last_reported":1716750360,"current_range_meters":0,"station_id":"ce4bh5p2rcd13ifvqe4g","pricing_plan_id":"cebpf4jnsgd1na2vs0mg"},{"bike_id":"9b948d06-9e67-4267-8f60-c6feb22d8314","system_id":"levelo_inurba_marseille","lat":43.290779,"lon":5.371482,"is_reserved":false,"is_disabled":false,"rental_uris":{"android":"levelo://app?vid=9b948d06-9e67-4267-8f60-c6feb22d8314","ios":"levelo://app?vid=9b948d06-9e67-4267-8f60-c6feb22d8314"},"vehicle_type_id":"4","last_reported":1716750360,"current_range_meters":24000,"station_id":"ce4bh5p2rcd13ifvqe4g","pricing_plan_id":"cebpf4jnsgd1na2vs0mg"},{"bike_id":"c156ac10-2f73-4ddf-ad09-344fac68d9b7","system_id":"levelo_inurba_marseille","lat":43.290779,"lon":5.371482,"is_reserved":false,"is_disabled":false,"rental_uris":{"android":"levelo://app?vid=c156ac10-2f73-4ddf-ad09-344fac68d9b7","ios":"levelo://app?vid=c156ac10-2f73-4ddf-ad09-344fac68d9b7"},"vehicle_type_id":"4","last_reported":1716750360,"current_range_meters":4800,"station_id":"ce4bh5p2rcd13ifvqe4g","pricing_plan_id":"cebpf4jnsgd1na2vs0mg"},{"bike_id":"7af983c4-c3b8-4d79-ad47-29c7920affc4","system_id":"levelo_inurba_marseille","lat":43.290779,"lon":5.371482,"is_reserved":false,"is_disabled":false,"rental_uris":{"android":"levelo://app?vid=7af983c4-c3b8-4d79-ad47-29c7920affc4","ios":"levelo://app?vid=7af983c4-c3b8-4d79-ad47-29c7920affc4"},"vehicle_type_id":"4","last_reported":1716750360,"current_range_meters":6000,"station_id":"ce4bh5p2rcd13ifvqe4g","pricing_plan_id":"cebpf4jnsgd1na2vs0mg"},{"bike_id":"4d01a983-c074-434f-9510-d3feb31e03d9","system_id":"levelo_inurba_marseille","lat":43.29057,"lon":5.37139,"is_reserved":false,"is_disabled":false,"rental_uris":{"android":"levelo://app?vid=4d01a983-c074-434f-9510-d3feb31e03d9","ios":"levelo://app?vid=4d01a983-c074-434f-9510-d3feb31e03d9"},"vehicle_type_id":"4","last_reported":1716750360,"current_range_meters":31200,"station_id":"ce4bh5p2rcd13ifvqe4g","pricing_plan_id":"cebpf4jnsgd1na2vs0mg"},{"bike_id":"3c002983-92bc-4d83-b722-4921080e7545","system_id":"levelo_inurba_marseille","lat":43.290779,"lon":5.371482,"is_reserved":false,"is_disabled":false,"rental_uris":{"android":"levelo://app?vid=3c002983-92bc-4d83-b722-4921080e7545","ios":"levelo://app?vid=3c002983-92bc-4d83-b722-4921080e7545"},"vehicle_type_id":"4","last_reported":1716750360,"current_range_meters":18000,"station_id":"ce4bh5p2rcd13ifvqe4g","pricing_plan_id":"cebpf4jnsgd1na2vs0mg"},{"bike_id":"f8422165-de6d-4ae6-948d-af9247dd8381","system_id":"levelo_inurba_marseille","lat":43.299612,"lon":5.392482,"is_reserved":false,"is_disabled":false,"rental_uris":{"android":"levelo://app?vid=f8422165-de6d-4ae6-948d-af9247dd8381","ios":"levelo://app?vid=f8422165-de6d-4ae6-948d-af9247dd8381"},"vehicle_type_id":"4","last_reported":1716750360,"current_range_meters":12400,"station_id":"ce4bh692rcd13ifvqea0","pricing_plan_id":"cebpf4jnsgd1na2vs0mg"},{"bike_id":"d2f8d114-3ded-4094-8916-d1db0af26e02","system_id":"levelo_inurba_marseille","lat":43.294162,"lon":5.386292,"is_reserved":false,"is_disabled":false,"rental_uris":{"android":"levelo://app?vid=d2f8d114-3ded-4094-8916-d1db0af26e02","ios":"levelo://app?vid=d2f8d114-3ded-4094-8916-d1db0af26e02"},"vehicle_type_id":"4","last_reported":1716750360,"current_range_meters":18000,"station_id":"ce4bh2h2rcd13ifvqdh0","pricing_plan_id":"cebpf4jnsgd1na2vs0mg"},{"bike_id":"254169e7-924e-453b-87d7-accc185d21bd","system_id":"levelo_inurba_marseille","lat":43.28955,"lon":5.36631,"is_reserved":false,"is_disabled":false,"rental_uris":{"android":"levelo://app?vid=254169e7-924e-453b-87d7-accc185d21bd","ios":"levelo://app?vid=254169e7-924e-453b-87d7-accc185d21bd"},"vehicle_type_id":"4","last_reported":1716750360,"current_range_meters":27600,"station_id":"ce4bhap2rcd13ifvqek0","pricing_plan_id":"cebpf4jnsgd1na2vs0mg"},{"bike_id":"77aed718-fba4-4056-9496-372c7bd35eeb","system_id":"levelo_inurba_marseille","lat":43.29422,"lon":5.38613,"is_reserved":false,"is_disabled":false,"rental_uris":{"android":"levelo://app?vid=77aed718-fba4-4056-9496-372c7bd35eeb","ios":"levelo://app?vid=77aed718-fba4-4056-9496-372c7bd35eeb"},"vehicle_type_id":"4","last_reported":1716750360,"current_range_meters":4400,"station_id":"ce4bh2h2rcd13ifvqdh0","pricing_plan_id":"cebpf4jnsgd1na2vs0mg"},{"bike_id":"0bdf205b-f0cb-48d0-9c9e-e35d7f62bb82","system_id":"levelo_inurba_marseille","lat":43.290392,"lon":5.37562,"is_reserved":false,"is_disabled":false,"rental_uris":{"android":"levelo://app?vid=0bdf205b-f0cb-48d0-9c9e-e35d7f62bb82","ios":"levelo://app?vid=0bdf205b-f0cb-48d0-9c9e-e35d7f62bb82"},"vehicle_type_id":"4","last_reported":1716750360,"current_range_meters":24000,"station_id":"","pricing_plan_id":"cebpf4jnsgd1na2vs0mg"},{"bike_id":"3d62dd83-b929-4b2b-b2b6-cc5615a6770e","system_id":"levelo_inurba_marseille","lat":43.289514,"lon":5.366422,"is_reserved":false,"is_disabled":false,"rental_uris":{"android":"levelo://app?vid=3d62dd83-b929-4b2b-b2b6-cc5615a6770e","ios":"levelo://app?vid=3d62dd83-b929-4b2b-b2b6-cc5615a6770e"},"vehicle_type_id":"4","last_reported":1716750360,"current_range_meters":23200,"station_id":"ce4bhap2rcd13ifvqek0","pricing_plan_id":"cebpf4jnsgd1na2vs0mg"},{"bike_id":"d52168c7-0700-4354-98b0-822ca8d3f009","system_id":"levelo_inurba_marseille","lat":43.294162,"lon":5.386292,"is_reserved":false,"is_disabled":false,"rental_uris":{"android":"levelo://app?vid=d52168c7-0700-4354-98b0-822ca8d3f009","ios":"levelo://app?vid=d52168c7-0700-4354-98b0-822ca8d3f009"},"vehicle_type_id":"4","last_reported":1716750360,"current_range_meters":0,"station_id":"ce4bh2h2rcd13ifvqdh0","pricing_plan_id":"cebpf4jnsgd1na2vs0mg"},{"bike_id":"3aa6383a-7ed6-442a-9a03-ab86dd4e8d7f","system_id":"levelo_inurba_marseille","lat":43.28949,"lon":5.36638,"is_reserved":false,"is_disabled":false,"rental_uris":{"android":"levelo://app?vid=3aa6383a-7ed6-442a-9a03-ab86dd4e8d7f","ios":"levelo://app?vid=3aa6383a-7ed6-442a-9a03-ab86dd4e8d7f"},"vehicle_type_id":"4","last_reported":1716750360,"current_range_meters":22800,"station_id":"ce4bhap2rcd13ifvqek0","pricing_plan_id":"cebpf4jnsgd1na2vs0mg"},{"bike_id":"d5047acd-3d47-400b-b086-aed2b76a3021","system_id":"levelo_inurba_marseille","lat":43.294162,"lon":5.386292,"is_reserved":false,"is_disabled":false,"rental_uris":{"android":"levelo://app?vid=d5047acd-3d47-400b-b086-aed2b76a3021","ios":"levelo://app?vid=d5047acd-3d47-400b-b086-aed2b76a3021"},"vehicle_type_id":"4","last_reported":1716750360,"current_range_meters":10000,"station_id":"ce4bh2h2rcd13ifvqdh0","pricing_plan_id":"cebpf4jnsgd1na2vs0mg"},{"bike_id":"335e5cf5-e26b-4403-badc-e5c5bf7966c9","system_id":"levelo_inurba_marseille","lat":43.29419,"lon":5.38624,"is_reserved":false,"is_disabled":false,"rental_uris":{"android":"levelo://app?vid=335e5cf5-e26b-4403-badc-e5c5bf7966c9","ios":"levelo://app?vid=335e5cf5-e26b-4403-badc-e5c5bf7966c9"},"vehicle_type_id":"4","last_reported":1716750360,"current_range_meters":1200,"station_id":"ce4bh2h2rcd13ifvqdh0","pricing_plan_id":"cebpf4jnsgd1na2vs0mg"},{"bike_id":"d7bf1b5f-8955-4008-9e71-dc69b2e38e25","system_id":"levelo_inurba_marseille","lat":43.289464,"lon":5.366318,"is_reserved":false,"is_disabled":false,"rental_uris":{"android":"levelo://app?vid=d7bf1b5f-8955-4008-9e71-dc69b2e38e25","ios":"levelo://app?vid=d7bf1b5f-8955-4008-9e71-dc69b2e38e25"},"vehicle_type_id":"4","last_reported":1716750360,"current_range_meters":31200,"station_id":"ce4bhap2rcd13ifvqek0","pricing_plan_id":"cebpf4jnsgd1na2vs0mg"},{"bike_id":"612434e1-d982-49b7-9d29-9ecd8d835a95","system_id":"levelo_inurba_marseille","lat":43.289463,"lon":5.366277,"is_reserved":false,"is_disabled":false,"rental_uris":{"android":"levelo://app?vid=612434e1-d982-49b7-9d29-9ecd8d835a95","ios":"levelo://app?vid=612434e1-d982-49b7-9d29-9ecd8d835a95"},"vehicle_type_id":"4","last_reported":1716750360,"current_range_meters":31200,"station_id":"ce4bhap2rcd13ifvqek0","pricing_plan_id":"cebpf4jnsgd1na2vs0mg"},{"bike_id":"7ec54df4-14d5-4cd7-bc15-560c96cc5281","system_id":"levelo_inurba_marseille","lat":43.294162,"lon":5.386292,"is_reserved":false,"is_disabled":false,"rental_uris":{"android":"levelo://app?vid=7ec54df4-14d5-4cd7-bc15-560c96cc5281","ios":"levelo://app?vid=7ec54df4-14d5-4cd7-bc15-560c96cc5281"},"vehicle_type_id":"4","last_reported":1716750360,"current_range_meters":18000,"station_id":"ce4bh2h2rcd13ifvqdh0","pricing_plan_id":"cebpf4jnsgd1na2vs0mg"},{"bike_id":"96fd7219-0375-4f7a-aed4-862acb82fc0f","system_id":"levelo_inurba_marseille","lat":43.289452,"lon":5.366185,"is_reserved":false,"is_disabled":false,"rental_uris":{"android":"levelo://app?vid=96fd7219-0375-4f7a-aed4-862acb82fc0f","ios":"levelo://app?vid=96fd7219-0375-4f7a-aed4-862acb82fc0f"},"vehicle_type_id":"4","last_reported":1716750360,"current_range_meters":25600,"station_id":"ce4bhap2rcd13ifvqek0","pricing_plan_id":"cebpf4jnsgd1na2vs0mg"},{"bike_id":"3ad48ddf-68c7-40e7-916b-b6aae10e5895","system_id":"levelo_inurba_marseille","lat":43.294162,"lon":5.386292,"is_reserved":false,"is_disabled":false,"rental_uris":{"android":"levelo://app?vid=3ad48ddf-68c7-40e7-916b-b6aae10e5895","ios":"levelo://app?vid=3ad48ddf-68c7-40e7-916b-b6aae10e5895"},"vehicle_type_id":"4","last_reported":1716750360,"current_range_meters":19200,"station_id":"ce4bh2h2rcd13ifvqdh0","pricing_plan_id":"cebpf4jnsgd1na2vs0mg"},{"bike_id":"0b1c11ec-1bc1-4a28-a083-97bb61051bd0","system_id":"levelo_inurba_marseille","lat":43.290319,"lon":5.375732,"is_reserved":false,"is_disabled":false,"rental_uris":{"android":"levelo://app?vid=0b1c11ec-1bc1-4a28-a083-97bb61051bd0","ios":"levelo://app?vid=0b1c11ec-1bc1-4a28-a083-97bb61051bd0"},"vehicle_type_id":"4","last_reported":1716750360,"current_range_meters":6400,"station_id":"ce4bh692rcd13ifvqe90","pricing_plan_id":"cebpf4jnsgd1na2vs0mg"},{"bike_id":"119f4f29-89d6-4cac-85fc-de592dc0c769","system_id":"levelo_inurba_marseille","lat":43.28941,"lon":5.36623,"is_reserved":false,"is_disabled":false,"rental_uris":{"android":"levelo://app?vid=119f4f29-89d6-4cac-85fc-de592dc0c769","ios":"levelo://app?vid=119f4f29-89d6-4cac-85fc-de592dc0c769"},"vehicle_type_id":"4","last_reported":1716750360,"current_range_meters":31200,"station_id":"ce4bhap2rcd13ifvqek0","pricing_plan_id":"cebpf4jnsgd1na2vs0mg"},{"bike_id":"751b1b4c-8bc8-4c05-8d49-51e494db5e0d","system_id":"levelo_inurba_marseille","lat":43.289184,"lon":5.366408,"is_reserved":false,"is_disabled":false,"rental_uris":{"android":"levelo://app?vid=751b1b4c-8bc8-4c05-8d49-51e494db5e0d","ios":"levelo://app?vid=751b1b4c-8bc8-4c05-8d49-51e494db5e0d"},"vehicle_type_id":"4","last_reported":1716750360,"current_range_meters":19600,"station_id":"ce4bhap2rcd13ifvqek0","pricing_plan_id":"cebpf4jnsgd1na2vs0mg"},{"bike_id":"f2d382c5-9206-4a43-919c-518ab39688c3","system_id":"levelo_inurba_marseille","lat":43.28939,"lon":5.36641,"is_reserved":false,"is_disabled":false,"rental_uris":{"android":"levelo://app?vid=f2d382c5-9206-4a43-919c-518ab39688c3","ios":"levelo://app?vid=f2d382c5-9206-4a43-919c-518ab39688c3"},"vehicle_type_id":"4","last_reported":1716750360,"current_range_meters":27200,"station_id":"ce4bhap2rcd13ifvqek0","pricing_plan_id":"cebpf4jnsgd1na2vs0mg"},{"bike_id":"f10eac9e-1bec-4977-a6d6-51631b57a5ac","system_id":"levelo_inurba_marseille","lat":43.28938,"lon":5.36636,"is_reserved":false,"is_disabled":false,"rental_uris":{"android":"levelo://app?vid=f10eac9e-1bec-4977-a6d6-51631b57a5ac","ios":"levelo://app?vid=f10eac9e-1bec-4977-a6d6-51631b57a5ac"},"vehicle_type_id":"4","last_reported":1716750360,"current_range_meters":18400,"station_id":"","pricing_plan_id":"cebpf4jnsgd1na2vs0mg"},{"bike_id":"1fe40827-bb13-41ae-95e4-0bf4acd4c02e","system_id":"levelo_inurba_marseille","lat":43.2893,"lon":5.3663,"is_reserved":false,"is_disabled":false,"rental_uris":{"android":"levelo://app?vid=1fe40827-bb13-41ae-95e4-0bf4acd4c02e","ios":"levelo://app?vid=1fe40827-bb13-41ae-95e4-0bf4acd4c02e"},"vehicle_type_id":"4","last_reported":1716750360,"current_range_meters":14000,"station_id":"ce4bhap2rcd13ifvqek0","pricing_plan_id":"cebpf4jnsgd1na2vs0mg"},{"bike_id":"aa9ebd84-11b1-409f-a0f6-98c3c675dba8","system_id":"levelo_inurba_marseille","lat":43.289313,"lon":5.364017,"is_reserved":false,"is_disabled":false,"rental_uris":{"android":"levelo://app?vid=aa9ebd84-11b1-409f-a0f6-98c3c675dba8","ios":"levelo://app?vid=aa9ebd84-11b1-409f-a0f6-98c3c675dba8"},"vehicle_type_id":"4","last_reported":1716750360,"current_range_meters":0,"station_id":"ce4bhc92rcd13ifvqetg","pricing_plan_id":"cebpf4jnsgd1na2vs0mg"},{"bike_id":"39b5f5e8-2fe4-49c9-a9dd-a36d86ac1566","system_id":"levelo_inurba_marseille","lat":43.29264,"lon":5.3844,"is_reserved":false,"is_disabled":false,"rental_uris":{"android":"levelo://app?vid=39b5f5e8-2fe4-49c9-a9dd-a36d86ac1566","ios":"levelo://app?vid=39b5f5e8-2fe4-49c9-a9dd-a36d86ac1566"},"vehicle_type_id":"4","last_reported":1716750360,"current_range_meters":27200,"station_id":"ce4bh692rcd13ifvqea0","pricing_plan_id":"cebpf4jnsgd1na2vs0mg"},{"bike_id":"232bc4ab-59be-4347-a3fc-8cc2c3d8468d","system_id":"levelo_inurba_marseille","lat":43.290995,"lon":5.381361,"is_reserved":false,"is_disabled":false,"rental_uris":{"android":"levelo://app?vid=232bc4ab-59be-4347-a3fc-8cc2c3d8468d","ios":"levelo://app?vid=232bc4ab-59be-4347-a3fc-8cc2c3d8468d"},"vehicle_type_id":"4","last_reported":1716750360,"current_range_meters":5600,"station_id":"ce4bh512rcd13ifvqe2g","pricing_plan_id":"cebpf4jnsgd1na2vs0mg"},{"bike_id":"d5bda17c-2d26-4f58-852b-5af2ee5e32e1","system_id":"levelo_inurba_marseille","lat":43.292642,"lon":5.384254,"is_reserved":false,"is_disabled":false,"rental_uris":{"android":"levelo://app?vid=d5bda17c-2d26-4f58-852b-5af2ee5e32e1","ios":"levelo://app?vid=d5bda17c-2d26-4f58-852b-5af2ee5e32e1"},"vehicle_type_id":"4","last_reported":1716750360,"current_range_meters":11600,"station_id":"ce4bh692rcd13ifvqea0","pricing_plan_id":"cebpf4jnsgd1na2vs0mg"},{"bike_id":"67cb31ea-fe0c-4918-8950-a806c1edf62e","system_id":"levelo_inurba_marseille","lat":43.292642,"lon":5.384254,"is_reserved":false,"is_disabled":false,"rental_uris":{"android":"levelo://app?vid=67cb31ea-fe0c-4918-8950-a806c1edf62e","ios":"levelo://app?vid=67cb31ea-fe0c-4918-8950-a806c1edf62e"},"vehicle_type_id":"4","last_reported":1716750360,"current_range_meters":17200,"station_id":"ce4bh692rcd13ifvqea0","pricing_plan_id":"cebpf4jnsgd1na2vs0mg"},{"bike_id":"94c7a0c4-08c0-4c81-9969-cf684c156cb4","system_id":"levelo_inurba_marseille","lat":43.29259,"lon":5.38439,"is_reserved":false,"is_disabled":false,"rental_uris":{"android":"levelo://app?vid=94c7a0c4-08c0-4c81-9969-cf684c156cb4","ios":"levelo://app?vid=94c7a0c4-08c0-4c81-9969-cf684c156cb4"},"vehicle_type_id":"4","last_reported":1716750360,"current_range_meters":14800,"station_id":"ce4bh692rcd13ifvqea0","pricing_plan_id":"cebpf4jnsgd1na2vs0mg"},{"bike_id":"db3399c1-1e1a-4056-a0a6-bb9bf36a492c","system_id":"levelo_inurba_marseille","lat":43.29258,"lon":5.38441,"is_reserved":false,"is_disabled":false,"rental_uris":{"android":"levelo://app?vid=db3399c1-1e1a-4056-a0a6-bb9bf36a492c","ios":"levelo://app?vid=db3399c1-1e1a-4056-a0a6-bb9bf36a492c"},"vehicle_type_id":"4","last_reported":1716750360,"current_range_meters":22000,"station_id":"ce4bh692rcd13ifvqea0","pricing_plan_id":"cebpf4jnsgd1na2vs0mg"},{"bike_id":"0fd038bc-c460-4132-acdf-cf0581d83033","system_id":"levelo_inurba_marseille","lat":43.292644,"lon":5.384257,"is_reserved":false,"is_disabled":false,"rental_uris":{"android":"levelo://app?vid=0fd038bc-c460-4132-acdf-cf0581d83033","ios":"levelo://app?vid=0fd038bc-c460-4132-acdf-cf0581d83033"},"vehicle_type_id":"4","last_reported":1716750360,"current_range_meters":20800,"station_id":"ce4bh692rcd13ifvqea0","pricing_plan_id":"cebpf4jnsgd1na2vs0mg"},{"bike_id":"acf8c613-9313-45d4-86a5-c98ed9494c9e","system_id":"levelo_inurba_marseille","lat":43.292644,"lon":5.384257,"is_reserved":false,"is_disabled":false,"rental_uris":{"android":"levelo://app?vid=acf8c613-9313-45d4-86a5-c98ed9494c9e","ios":"levelo://app?vid=acf8c613-9313-45d4-86a5-c98ed9494c9e"},"vehicle_type_id":"4","last_reported":1716750360,"current_range_meters":0,"station_id":"ce4bh692rcd13ifvqea0","pricing_plan_id":"cebpf4jnsgd1na2vs0mg"},{"bike_id":"e2ba1e5c-ae61-4691-8cb3-ec7b4f5491b4","system_id":"levelo_inurba_marseille","lat":43.290104,"lon":5.356111,"is_reserved":false,"is_disabled":false,"rental_uris":{"android":"levelo://app?vid=e2ba1e5c-ae61-4691-8cb3-ec7b4f5491b4","ios":"levelo://app?vid=e2ba1e5c-ae61-4691-8cb3-ec7b4f5491b4"},"vehicle_type_id":"4","last_reported":1716750360,"current_range_meters":2800,"station_id":"ce4bhb92rcd13ifvqen0","pricing_plan_id":"cebpf4jnsgd1na2vs0mg"},{"bike_id":"8f706726-ab1e-460f-a307-ddc732458cc3","system_id":"levelo_inurba_marseille","lat":43.292644,"lon":5.384257,"is_reserved":false,"is_disabled":false,"rental_uris":{"android":"levelo://app?vid=8f706726-ab1e-460f-a307-ddc732458cc3","ios":"levelo://app?vid=8f706726-ab1e-460f-a307-ddc732458cc3"},"vehicle_type_id":"4","last_reported":1716750360,"current_range_meters":800,"station_id":"ce4bh692rcd13ifvqea0","pricing_plan_id":"cebpf4jnsgd1na2vs0mg"},{"bike_id":"7fb9c3af-b5e2-4370-a428-e1e4c6d84c00","system_id":"levelo_inurba_marseille","lat":43.290995,"lon":5.381361,"is_reserved":false,"is_disabled":false,"rental_uris":{"android":"levelo://app?vid=7fb9c3af-b5e2-4370-a428-e1e4c6d84c00","ios":"levelo://app?vid=7fb9c3af-b5e2-4370-a428-e1e4c6d84c00"},"vehicle_type_id":"4","last_reported":1716750360,"current_range_meters":5600,"station_id":"ce4bh512rcd13ifvqe2g","pricing_plan_id":"cebpf4jnsgd1na2vs0mg"},{"bike_id":"aae92e94-8ea0-431d-82f5-36216c16afdf","system_id":"levelo_inurba_marseille","lat":43.297938,"lon":5.393295,"is_reserved":false,"is_disabled":false,"rental_uris":{"android":"levelo://app?vid=aae92e94-8ea0-431d-82f5-36216c16afdf","ios":"levelo://app?vid=aae92e94-8ea0-431d-82f5-36216c16afdf"},"vehicle_type_id":"4","last_reported":1716750360,"current_range_meters":6400,"station_id":"chh1huq6cuj3fo74tm60","pricing_plan_id":"cebpf4jnsgd1na2vs0mg"},{"bike_id":"d19dacf6-6efb-431c-b922-b01c7c3cdd8d","system_id":"levelo_inurba_marseille","lat":43.297815,"lon":5.393548,"is_reserved":false,"is_disabled":false,"rental_uris":{"android":"levelo://app?vid=d19dacf6-6efb-431c-b922-b01c7c3cdd8d","ios":"levelo://app?vid=d19dacf6-6efb-431c-b922-b01c7c3cdd8d"},"vehicle_type_id":"4","last_reported":1716750360,"current_range_meters":2800,"station_id":"chh1huq6cuj3fo74tm60","pricing_plan_id":"cebpf4jnsgd1na2vs0mg"},{"bike_id":"5e2d426e-ece8-4336-8faa-419974bf2119","system_id":"levelo_inurba_marseille","lat":43.2978,"lon":5.39335,"is_reserved":false,"is_disabled":false,"rental_uris":{"android":"levelo://app?vid=5e2d426e-ece8-4336-8faa-419974bf2119","ios":"levelo://app?vid=5e2d426e-ece8-4336-8faa-419974bf2119"},"vehicle_type_id":"4","last_reported":1716750360,"current_range_meters":5200,"station_id":"chh1huq6cuj3fo74tm60","pricing_plan_id":"cebpf4jnsgd1na2vs0mg"},{"bike_id":"646cd69e-b652-40b0-bd5e-841417c5bbf7","system_id":"levelo_inurba_marseille","lat":43.290079,"lon":5.379221,"is_reserved":false,"is_disabled":false,"rental_uris":{"android":"levelo://app?vid=646cd69e-b652-40b0-bd5e-841417c5bbf7","ios":"levelo://app?vid=646cd69e-b652-40b0-bd5e-841417c5bbf7"},"vehicle_type_id":"4","last_reported":1716750360,"current_range_meters":0,"station_id":"","pricing_plan_id":"cebpf4jnsgd1na2vs0mg"},{"bike_id":"568da741-632b-4d2d-8ee1-69810b401455","system_id":"levelo_inurba_marseille","lat":43.297815,"lon":5.393548,"is_reserved":false,"is_disabled":false,"rental_uris":{"android":"levelo://app?vid=568da741-632b-4d2d-8ee1-69810b401455","ios":"levelo://app?vid=568da741-632b-4d2d-8ee1-69810b401455"},"vehicle_type_id":"4","last_reported":1716750360,"current_range_meters":28400,"station_id":"chh1huq6cuj3fo74tm60","pricing_plan_id":"cebpf4jnsgd1na2vs0mg"},{"bike_id":"7ae0b789-55e9-4e36-bd1b-d06c4e9d5438","system_id":"levelo_inurba_marseille","lat":43.295169,"lon":5.390426,"is_reserved":false,"is_disabled":false,"rental_uris":{"android":"levelo://app?vid=7ae0b789-55e9-4e36-bd1b-d06c4e9d5438","ios":"levelo://app?vid=7ae0b789-55e9-4e36-bd1b-d06c4e9d5438"},"vehicle_type_id":"4","last_reported":1716750360,"current_range_meters":9200,"station_id":"ce4bh3p2rcd13ifvqdp0","pricing_plan_id":"cebpf4jnsgd1na2vs0mg"},{"bike_id":"6fb055cc-b404-4919-9ec2-131135e5728e","system_id":"levelo_inurba_marseille","lat":43.289775,"lon":5.37846,"is_reserved":false,"is_disabled":false,"rental_uris":{"android":"levelo://app?vid=6fb055cc-b404-4919-9ec2-131135e5728e","ios":"levelo://app?vid=6fb055cc-b404-4919-9ec2-131135e5728e"},"vehicle_type_id":"4","last_reported":1716750360,"current_range_meters":0,"station_id":"ce4bh9p2rcd13ifvqed0","pricing_plan_id":"cebpf4jnsgd1na2vs0mg"},{"bike_id":"7f55f95b-89d6-43ea-b17a-7b821a673c81","system_id":"levelo_inurba_marseille","lat":43.330442,"lon":5.389148,"is_reserved":false,"is_disabled":false,"rental_uris":{"android":"levelo://app?vid=7f55f95b-89d6-43ea-b17a-7b821a673c81","ios":"levelo://app?vid=7f55f95b-89d6-43ea-b17a-7b821a673c81"},"vehicle_type_id":"4","last_reported":1716750360,"current_range_meters":16400,"station_id":"ce4bhr92rcd13ifvqhrg","pricing_plan_id":"cebpf4jnsgd1na2vs0mg"},{"bike_id":"4cba8cf8-3562-46ae-aa14-020f44abb92b","system_id":"levelo_inurba_marseille","lat":43.295169,"lon":5.390426,"is_reserved":false,"is_disabled":false,"rental_uris":{"android":"levelo://app?vid=4cba8cf8-3562-46ae-aa14-020f44abb92b","ios":"levelo://app?vid=4cba8cf8-3562-46ae-aa14-020f44abb92b"},"vehicle_type_id":"4","last_reported":1716750360,"current_range_meters":10000,"station_id":"ce4bh3p2rcd13ifvqdp0","pricing_plan_id":"cebpf4jnsgd1na2vs0mg"},{"bike_id":"9cf2dd9a-973f-40f1-bcc8-5cac15ca2484","system_id":"levelo_inurba_marseille","lat":43.295169,"lon":5.390426,"is_reserved":false,"is_disabled":false,"rental_uris":{"android":"levelo://app?vid=9cf2dd9a-973f-40f1-bcc8-5cac15ca2484","ios":"levelo://app?vid=9cf2dd9a-973f-40f1-bcc8-5cac15ca2484"},"vehicle_type_id":"4","last_reported":1716750360,"current_range_meters":10400,"station_id":"ce4bh3p2rcd13ifvqdp0","pricing_plan_id":"cebpf4jnsgd1na2vs0mg"},{"bike_id":"30a9afd5-744e-40e3-9a59-edfba781b71b","system_id":"levelo_inurba_marseille","lat":43.290345,"lon":5.381031,"is_reserved":false,"is_disabled":false,"rental_uris":{"android":"levelo://app?vid=30a9afd5-744e-40e3-9a59-edfba781b71b","ios":"levelo://app?vid=30a9afd5-744e-40e3-9a59-edfba781b71b"},"vehicle_type_id":"4","last_reported":1716750360,"current_range_meters":3600,"station_id":"ce4bh4p2rcd13ifvqe1g","pricing_plan_id":"cebpf4jnsgd1na2vs0mg"},{"bike_id":"ba7bba16-c57b-44f6-9f9c-c9839289854f","system_id":"levelo_inurba_marseille","lat":43.31065,"lon":5.40081,"is_reserved":false,"is_disabled":false,"rental_uris":{"android":"levelo://app?vid=ba7bba16-c57b-44f6-9f9c-c9839289854f","ios":"levelo://app?vid=ba7bba16-c57b-44f6-9f9c-c9839289854f"},"vehicle_type_id":"4","last_reported":1716750360,"current_range_meters":9200,"station_id":"","pricing_plan_id":"cebpf4jnsgd1na2vs0mg"},{"bike_id":"be6e5f4b-40ef-4e2e-8115-adeeb5891c3c","system_id":"levelo_inurba_marseille","lat":43.290264,"lon":5.381254,"is_reserved":false,"is_disabled":false,"rental_uris":{"android":"levelo://app?vid=be6e5f4b-40ef-4e2e-8115-adeeb5891c3c","ios":"levelo://app?vid=be6e5f4b-40ef-4e2e-8115-adeeb5891c3c"},"vehicle_type_id":"4","last_reported":1716750360,"current_range_meters":15200,"station_id":"ce4bh4p2rcd13ifvqe1g","pricing_plan_id":"cebpf4jnsgd1na2vs0mg"},{"bike_id":"5154dabb-97bc-4da9-802e-f0ddeb9ef9a7","system_id":"levelo_inurba_marseille","lat":43.28856,"lon":5.358371,"is_reserved":false,"is_disabled":false,"rental_uris":{"android":"levelo://app?vid=5154dabb-97bc-4da9-802e-f0ddeb9ef9a7","ios":"levelo://app?vid=5154dabb-97bc-4da9-802e-f0ddeb9ef9a7"},"vehicle_type_id":"4","last_reported":1716750360,"current_range_meters":5600,"station_id":"ce4bhb12rcd13ifvqem0","pricing_plan_id":"cebpf4jnsgd1na2vs0mg"},{"bike_id":"1a1505af-a805-4e97-b6c5-ef86c8ad33ae","system_id":"levelo_inurba_marseille","lat":43.310723,"lon":5.401007,"is_reserved":false,"is_disabled":false,"rental_uris":{"android":"levelo://app?vid=1a1505af-a805-4e97-b6c5-ef86c8ad33ae","ios":"levelo://app?vid=1a1505af-a805-4e97-b6c5-ef86c8ad33ae"},"vehicle_type_id":"4","last_reported":1716750360,"current_range_meters":0,"station_id":"","pricing_plan_id":"cebpf4jnsgd1na2vs0mg"},{"bike_id":"8a060fb5-783f-43b8-8224-bb4dc70a6067","system_id":"levelo_inurba_marseille","lat":43.2901,"lon":5.381269,"is_reserved":false,"is_disabled":false,"rental_uris":{"android":"levelo://app?vid=8a060fb5-783f-43b8-8224-bb4dc70a6067","ios":"levelo://app?vid=8a060fb5-783f-43b8-8224-bb4dc70a6067"},"vehicle_type_id":"4","last_reported":1716750360,"current_range_meters":7600,"station_id":"ce4bh4p2rcd13ifvqe1g","pricing_plan_id":"cebpf4jnsgd1na2vs0mg"},{"bike_id":"45a9437f-9d8b-43f9-9674-424a8cee4e22","system_id":"levelo_inurba_marseille","lat":43.28856,"lon":5.358371,"is_reserved":false,"is_disabled":false,"rental_uris":{"android":"levelo://app?vid=45a9437f-9d8b-43f9-9674-424a8cee4e22","ios":"levelo://app?vid=45a9437f-9d8b-43f9-9674-424a8cee4e22"},"vehicle_type_id":"4","last_reported":1716750360,"current_range_meters":3200,"station_id":"ce4bhb12rcd13ifvqem0","pricing_plan_id":"cebpf4jnsgd1na2vs0mg"},{"bike_id":"225257f2-48e0-439a-9853-dd9cce9b0504","system_id":"levelo_inurba_marseille","lat":43.28856,"lon":5.358371,"is_reserved":false,"is_disabled":false,"rental_uris":{"android":"levelo://app?vid=225257f2-48e0-439a-9853-dd9cce9b0504","ios":"levelo://app?vid=225257f2-48e0-439a-9853-dd9cce9b0504"},"vehicle_type_id":"4","last_reported":1716750360,"current_range_meters":2800,"station_id":"ce4bhb12rcd13ifvqem0","pricing_plan_id":"cebpf4jnsgd1na2vs0mg"},{"bike_id":"b3f92c01-5e1c-43cf-863a-dc981e3685f7","system_id":"levelo_inurba_marseille","lat":43.28856,"lon":5.358371,"is_reserved":false,"is_disabled":false,"rental_uris":{"android":"levelo://app?vid=b3f92c01-5e1c-43cf-863a-dc981e3685f7","ios":"levelo://app?vid=b3f92c01-5e1c-43cf-863a-dc981e3685f7"},"vehicle_type_id":"4","last_reported":1716750360,"current_range_meters":1200,"station_id":"ce4bhb12rcd13ifvqem0","pricing_plan_id":"cebpf4jnsgd1na2vs0mg"},{"bike_id":"2ae8cd35-c559-45fe-aeb1-0973830a6a61","system_id":"levelo_inurba_marseille","lat":43.28856,"lon":5.358371,"is_reserved":false,"is_disabled":false,"rental_uris":{"android":"levelo://app?vid=2ae8cd35-c559-45fe-aeb1-0973830a6a61","ios":"levelo://app?vid=2ae8cd35-c559-45fe-aeb1-0973830a6a61"},"vehicle_type_id":"4","last_reported":1716750360,"current_range_meters":6800,"station_id":"ce4bhb12rcd13ifvqem0","pricing_plan_id":"cebpf4jnsgd1na2vs0mg"},{"bike_id":"e6fdf674-585c-4d41-89f8-42b98213bcfd","system_id":"levelo_inurba_marseille","lat":43.288439,"lon":5.358518,"is_reserved":false,"is_disabled":false,"rental_uris":{"android":"levelo://app?vid=e6fdf674-585c-4d41-89f8-42b98213bcfd","ios":"levelo://app?vid=e6fdf674-585c-4d41-89f8-42b98213bcfd"},"vehicle_type_id":"4","last_reported":1716750360,"current_range_meters":28000,"station_id":"ce4bhb12rcd13ifvqem0","pricing_plan_id":"cebpf4jnsgd1na2vs0mg"},{"bike_id":"98d9cc5c-e4c5-4c99-ae29-e83597184ca2","system_id":"levelo_inurba_marseille","lat":43.28843,"lon":5.35841,"is_reserved":false,"is_disabled":false,"rental_uris":{"android":"levelo://app?vid=98d9cc5c-e4c5-4c99-ae29-e83597184ca2","ios":"levelo://app?vid=98d9cc5c-e4c5-4c99-ae29-e83597184ca2"},"vehicle_type_id":"4","last_reported":1716750360,"current_range_meters":0,"station_id":"ce4bhb12rcd13ifvqem0","pricing_plan_id":"cebpf4jnsgd1na2vs0mg"},{"bike_id":"82d5a059-f0d6-4d88-bfd3-72591044fdd0","system_id":"levelo_inurba_marseille","lat":43.309371,"lon":5.401449,"is_reserved":false,"is_disabled":false,"rental_uris":{"android":"levelo://app?vid=82d5a059-f0d6-4d88-bfd3-72591044fdd0","ios":"levelo://app?vid=82d5a059-f0d6-4d88-bfd3-72591044fdd0"},"vehicle_type_id":"4","last_reported":1716750360,"current_range_meters":0,"station_id":"ce4bgvp2rcd13ifvqct0","pricing_plan_id":"cebpf4jnsgd1na2vs0mg"},{"bike_id":"c817be8a-4d3f-428e-9e83-fb97be659edc","system_id":"levelo_inurba_marseille","lat":43.33739,"lon":5.37443,"is_reserved":false,"is_disabled":false,"rental_uris":{"android":"levelo://app?vid=c817be8a-4d3f-428e-9e83-fb97be659edc","ios":"levelo://app?vid=c817be8a-4d3f-428e-9e83-fb97be659edc"},"vehicle_type_id":"4","last_reported":1716750360,"current_range_meters":20000,"station_id":"","pricing_plan_id":"cebpf4jnsgd1na2vs0mg"},{"bike_id":"7449a4d8-d035-4b25-91b1-c0a54c98e73f","system_id":"levelo_inurba_marseille","lat":43.312609,"lon":5.401662,"is_reserved":false,"is_disabled":false,"rental_uris":{"android":"levelo://app?vid=7449a4d8-d035-4b25-91b1-c0a54c98e73f","ios":"levelo://app?vid=7449a4d8-d035-4b25-91b1-c0a54c98e73f"},"vehicle_type_id":"4","last_reported":1716750360,"current_range_meters":3200,"station_id":"ce4bh092rcd13ifvqd30","pricing_plan_id":"cebpf4jnsgd1na2vs0mg"},{"bike_id":"7a32acb0-b2fd-481c-b194-35b59e369ec2","system_id":"levelo_inurba_marseille","lat":43.312609,"lon":5.401662,"is_reserved":false,"is_disabled":false,"rental_uris":{"android":"levelo://app?vid=7a32acb0-b2fd-481c-b194-35b59e369ec2","ios":"levelo://app?vid=7a32acb0-b2fd-481c-b194-35b59e369ec2"},"vehicle_type_id":"4","last_reported":1716750360,"current_range_meters":10000,"station_id":"ce4bh092rcd13ifvqd30","pricing_plan_id":"cebpf4jnsgd1na2vs0mg"},{"bike_id":"6080ad0c-005f-4214-98b8-969e3b701ab3","system_id":"levelo_inurba_marseille","lat":43.312609,"lon":5.401662,"is_reserved":false,"is_disabled":false,"rental_uris":{"android":"levelo://app?vid=6080ad0c-005f-4214-98b8-969e3b701ab3","ios":"levelo://app?vid=6080ad0c-005f-4214-98b8-969e3b701ab3"},"vehicle_type_id":"4","last_reported":1716750360,"current_range_meters":20800,"station_id":"ce4bh092rcd13ifvqd30","pricing_plan_id":"cebpf4jnsgd1na2vs0mg"},{"bike_id":"4e630300-0db7-4aa4-b051-9baeed88ca8f","system_id":"levelo_inurba_marseille","lat":43.312609,"lon":5.401662,"is_reserved":false,"is_disabled":false,"rental_uris":{"android":"levelo://app?vid=4e630300-0db7-4aa4-b051-9baeed88ca8f","ios":"levelo://app?vid=4e630300-0db7-4aa4-b051-9baeed88ca8f"},"vehicle_type_id":"4","last_reported":1716750360,"current_range_meters":10000,"station_id":"ce4bh092rcd13ifvqd30","pricing_plan_id":"cebpf4jnsgd1na2vs0mg"},