{"last_updated":1767063254,"ttl":60,"version":"2.2","data":{"bikes":[{"bike_id":"ec3a3c86-9abd-43c8-b159-b95b9b1267ed","system_id":"levelo_inurba_marseille","lat":43.28821,"lon":5.35546,"is_reserved":false,"is_disabled":false,"rental_uris":{"android":"levelo://app?vid=ec3a3c86-9abd-43c8-b159-b95b9b1267ed","ios":"levelo://app?vid=ec3a3c86-9abd-43c8-b159-b95b9b1267ed"},"vehicle_type_id":"4","last_reported":1767063255,"current_range_meters":2800,"station_id":"","pricing_plan_id":"cebpf4jnsgd1na2vs0mg"},{"bike_id":"f75e6baf-9d5a-46d5-8526-f63734be8e78","system_id":"levelo_inurba_marseille","lat":43.30363,"lon":5.4042,"is_reserved":false,"is_disabled":false,"rental_uris":{"android":"levelo://app?vid=f75e6baf-9d5a-46d5-8526-f63734be8e78","ios":"levelo://app?vid=f75e6baf-9d5a-46d5-8526-f63734be8e78"},"vehicle_type_id":"4","last_reported":1767063255,"current_range_meters":3200,"station_id":"ce4bh012rcd13ifvqd10","pricing_plan_id":"cebpf4jnsgd1na2vs0mg"},{"bike_id":"94b65cfe-edaf-4322-865d-06eff46e3ede","system_id":"levelo_inurba_marseille","lat":43.30038,"lon":5.37359,"is_reserved":false,"is_disabled":false,"rental_uris":{"android":"levelo://app?vid=94b65cfe-edaf-4322-865d-06eff46e3ede","ios":"levelo://app?vid=94b65cfe-edaf-4322-865d-06eff46e3ede"},"vehicle_type_id":"4","last_reported":1767063255,"current_range_meters":4000,"station_id":"","pricing_plan_id":"cebpf4jnsgd1na2vs0mg"},{"bike_id":"607908dd-2d9b-423b-b8e7-66bc0d8b8799","system_id":"levelo_inurba_marseille","lat":43.28672,"lon":5.38673,"is_reserved":false,"is_disabled":false,"rental_uris":{"android":"levelo://app?vid=607908dd-2d9b-423b-b8e7-66bc0d8b8799","ios":"levelo://app?vid=607908dd-2d9b-423b-b8e7-66bc0d8b8799"},"vehicle_type_id":"4","last_reported":1767063255,"current_range_meters":4000,"station_id":"ce4bh492rcd13ifvqdug","pricing_plan_id":"cebpf4jnsgd1na2vs0mg"},{"bike_id":"17a49efb-d179-4b85-b20c-4afe87c0613f","system_id":"levelo_inurba_marseille","lat":43.31051,"lon":5.37179,"is_reserved":false,"is_disabled":true,"rental_uris":{"android":"levelo://app?vid=17a49efb-d179-4b85-b20c-4afe87c0613f","ios":"levelo://app?vid=17a49efb-d179-4b85-b20c-4afe87c0613f"},"vehicle_type_id":"4","last_reported":1767063255,"current_range_meters":4000,"station_id":"st_d4kl2rp97mjs73e7tdfg","pricing_plan_id":"cebpf4jnsgd1na2vs0mg"},{"bike_id":"c93bbf3c-9650-44c3-9782-9bef181a9bed","system_id":"levelo_inurba_marseille","lat":43.24763,"lon":5.37564,"is_reserved":false,"is_disabled":false,"rental_uris":{"android":"levelo://app?vid=c93bbf3c-9650-44c3-9782-9bef181a9bed","ios":"levelo://app?vid=c93bbf3c-9650-44c3-9782-9bef181a9bed"},"vehicle_type_id":"4","last_reported":1767063255,"current_range_meters":4000,"station_id":"","pricing_plan_id":"cebpf4jnsgd1na2vs0mg"},{"bike_id":"08f4624a-a23d-4738-b794-a8bd53bfd7e8","system_id":"levelo_inurba_marseille","lat":43.298458,"lon":5.376545,"is_reserved":false,"is_disabled":false,"rental_uris":{"android":"levelo://app?vid=08f4624a-a23d-4738-b794-a8bd53bfd7e8","ios":"levelo://app?vid=08f4624a-a23d-4738-b794-a8bd53bfd7e8"},"vehicle_type_id":"4","last_reported":1767063255,"current_range_meters":4800,"station_id":"","pricing_plan_id":"cebpf4jnsgd1na2vs0mg"},{"bike_id":"36e3ab74-d85b-46de-9904-53928a1da310","system_id":"levelo_inurba_marseille","lat":43.25673,"lon":5.40018,"is_reserved":false,"is_disabled":false,"rental_uris":{"android":"levelo://app?vid=36e3ab74-d85b-46de-9904-53928a1da310","ios":"levelo://app?vid=36e3ab74-d85b-46de-9904-53928a1da310"},"vehicle_type_id":"4","last_reported":1767063255,"current_range_meters":4800,"station_id":"","pricing_plan_id":"cebpf4jnsgd1na2vs0mg"},{"bike_id":"b8359eb8-309f-4919-a9d8-14bc8a289068","system_id":"levelo_inurba_marseille","lat":43.29845,"lon":5.381046,"is_reserved":false,"is_disabled":false,"rental_uris":{"android":"levelo://app?vid=b8359eb8-309f-4919-a9d8-14bc8a289068","ios":"levelo://app?vid=b8359eb8-309f-4919-a9d8-14bc8a289068"},"vehicle_type_id":"4","last_reported":1767063255,"current_range_meters":4800,"station_id":"","pricing_plan_id":"cebpf4jnsgd1na2vs0mg"},{"bike_id":"d6a449d9-67ef-4444-ae17-bd1e29b48728","system_id":"levelo_inurba_marseille","lat":43.285767,"lon":5.429835,"is_reserved":false,"is_disabled":false,"rental_uris":{"android":"levelo://app?vid=d6a449d9-67ef-4444-ae17-bd1e29b48728","ios":"levelo://app?vid=d6a449d9-67ef-4444-ae17-bd1e29b48728"},"vehicle_type_id":"4","last_reported":1767063255,"current_range_meters":4800,"station_id":"","pricing_plan_id":"cebpf4jnsgd1na2vs0mg"},{"bike_id":"0fdd0e2d-569f-400f-aa1a-abb1bbad6613","system_id":"levelo_inurba_marseille","lat":43.28482,"lon":5.3842,"is_reserved":false,"is_disabled":false,"rental_uris":{"android":"levelo://app?vid=0fdd0e2d-569f-400f-aa1a-abb1bbad6613","ios":"levelo://app?vid=0fdd0e2d-569f-400f-aa1a-abb1bbad6613"},"vehicle_type_id":"4","last_reported":1767063255,"current_range_meters":5600,"station_id":"ce4bh512rcd13ifvqe3g","pricing_plan_id":"cebpf4jnsgd1na2vs0mg"},{"bike_id":"6f43cfcd-5b7c-4880-b513-fb31e9502d04","system_id":"levelo_inurba_marseille","lat":43.2801,"lon":5.44034,"is_reserved":false,"is_disabled":false,"rental_uris":{"android":"levelo://app?vid=6f43cfcd-5b7c-4880-b513-fb31e9502d04","ios":"levelo://app?vid=6f43cfcd-5b7c-4880-b513-fb31e9502d04"},"vehicle_type_id":"4","last_reported":1767063255,"current_range_meters":5600,"station_id":"","pricing_plan_id":"cebpf4jnsgd1na2vs0mg"},{"bike_id":"b5361c9a-50ed-489c-8641-68e20b861fe1","system_id":"levelo_inurba_marseille","lat":43.30468,"lon":5.37901,"is_reserved":false,"is_disabled":false,"rental_uris":{"android":"levelo://app?vid=b5361c9a-50ed-489c-8641-68e20b861fe1","ios":"levelo://app?vid=b5361c9a-50ed-489c-8641-68e20b861fe1"},"vehicle_type_id":"4","last_reported":1767063255,"current_range_meters":6000,"station_id":"ce4bgup2rcd13ifvqcn0","pricing_plan_id":"cebpf4jnsgd1na2vs0mg"},{"bike_id":"d5eb7ea9-5123-4837-ae8e-a8251928e11c","system_id":"levelo_inurba_marseille","lat":43.31344,"lon":5.36723,"is_reserved":false,"is_disabled":false,"rental_uris":{"android":"levelo://app?vid=d5eb7ea9-5123-4837-ae8e-a8251928e11c","ios":"levelo://app?vid=d5eb7ea9-5123-4837-ae8e-a8251928e11c"},"vehicle_type_id":"4","last_reported":1767063255,"current_range_meters":6400,"station_id":"ce4bgr92rcd13ifvqc6g","pricing_plan_id":"cebpf4jnsgd1na2vs0mg"},{"bike_id":"54c8f443-d67f-4946-a776-419f325e3b53","system_id":"levelo_inurba_marseille","lat":43.28507,"lon":5.38413,"is_reserved":false,"is_disabled":false,"rental_uris":{"android":"levelo://app?vid=54c8f443-d67f-4946-a776-419f325e3b53","ios":"levelo://app?vid=54c8f443-d67f-4946-a776-419f325e3b53"},"vehicle_type_id":"4","last_reported":1767063255,"current_range_meters":6400,"station_id":"ce4bh512rcd13ifvqe3g","pricing_plan_id":"cebpf4jnsgd1na2vs0mg"},{"bike_id":"cddfe332-82ca-4b3f-894d-3df0b9e3ab20","system_id":"levelo_inurba_marseille","lat":43.27657,"lon":5.38901,"is_reserved":false,"is_disabled":false,"rental_uris":{"android":"levelo://app?vid=cddfe332-82ca-4b3f-894d-3df0b9e3ab20","ios":"levelo://app?vid=cddfe332-82ca-4b3f-894d-3df0b9e3ab20"},"vehicle_type_id":"4","last_reported":1767063255,"current_range_meters":6400,"station_id":"ce4bhi12rcd13ifvqfo0","pricing_plan_id":"cebpf4jnsgd1na2vs0mg"},{"bike_id":"ed7684ab-2fee-42e6-9639-1bd83461c228","system_id":"levelo_inurba_marseille","lat":43.24476,"lon":5.42541,"is_reserved":false,"is_disabled":false,"rental_uris":{"android":"levelo://app?vid=ed7684ab-2fee-42e6-9639-1bd83461c228","ios":"levelo://app?vid=ed7684ab-2fee-42e6-9639-1bd83461c228"},"vehicle_type_id":"4","last_reported":1767063255,"current_range_meters":6400,"station_id":"st_d4a3vfp97mjs738cd8kg","pricing_plan_id":"cebpf4jnsgd1na2vs0mg"},{"bike_id":"1c818977-717b-41f2-8fae-ce6b0c328c89","system_id":"levelo_inurba_marseille","lat":43.31194,"lon":5.36878,"is_reserved":false,"is_disabled":false,"rental_uris":{"android":"levelo://app?vid=1c818977-717b-41f2-8fae-ce6b0c328c89","ios":"levelo://app?vid=1c818977-717b-41f2-8fae-ce6b0c328c89"},"vehicle_type_id":"4","last_reported":1767063255,"current_range_meters":6400,"station_id":"ce4bgl92rcd13ifvqbq0","pricing_plan_id":"cebpf4jnsgd1na2vs0mg"},{"bike_id":"93238dbe-7e18-4ff9-acc5-cf08ef47ac5a","system_id":"levelo_inurba_marseille","lat":43.27396,"lon":5.41539,"is_reserved":false,"is_disabled":false,"rental_uris":{"android":"levelo://app?vid=93238dbe-7e18-4ff9-acc5-cf08ef47ac5a","ios":"levelo://app?vid=93238dbe-7e18-4ff9-acc5-cf08ef47ac5a"},"vehicle_type_id":"4","last_reported":1767063255,"current_range_meters":6800,"station_id":"","pricing_plan_id":"cebpf4jnsgd1na2vs0mg"},{"bike_id":"2d6d1d63-7e4b-4467-a654-80bbbdeccadb","system_id":"levelo_inurba_marseille","lat":43.30438,"lon":5.38882,"is_reserved":false,"is_disabled":false,"rental_uris":{"android":"levelo://app?vid=2d6d1d63-7e4b-4467-a654-80bbbdeccadb","ios":"levelo://app?vid=2d6d1d63-7e4b-4467-a654-80bbbdeccadb"},"vehicle_type_id":"4","last_reported":1767063255,"current_range_meters":6800,"station_id":"ce4bgk12rcd13ifvqbi0","pricing_plan_id":"cebpf4jnsgd1na2vs0mg"},{"bike_id":"83e9271d-da0c-4317-a757-27fc89b1a40a","system_id":"levelo_inurba_marseille","lat":43.32481,"lon":5.36569,"is_reserved":false,"is_disabled":false,"rental_uris":{"android":"levelo://app?vid=83e9271d-da0c-4317-a757-27fc89b1a40a","ios":"levelo://app?vid=83e9271d-da0c-4317-a757-27fc89b1a40a"},"vehicle_type_id":"4","last_reported":1767063255,"current_range_meters":6800,"station_id":"ce4bhs12rcd13ifvqhvg","pricing_plan_id":"cebpf4jnsgd1na2vs0mg"},{"bike_id":"d567b4a3-edeb-4d97-810b-0f09ddc6655c","system_id":"levelo_inurba_marseille","lat":43.28695,"lon":5.37394,"is_reserved":false,"is_disabled":false,"rental_uris":{"android":"levelo://app?vid=d567b4a3-edeb-4d97-810b-0f09ddc6655c","ios":"levelo://app?vid=d567b4a3-edeb-4d97-810b-0f09ddc6655c"},"vehicle_type_id":"4","last_reported":1767063255,"current_range_meters":6800,"station_id":"ce4bh3p2rcd13ifvqdq0","pricing_plan_id":"cebpf4jnsgd1na2vs0mg"},{"bike_id":"c098d0eb-2dfa-40ab-a976-f879f8822fb9","system_id":"levelo_inurba_marseille","lat":43.29025,"lon":5.38139,"is_reserved":false,"is_disabled":false,"rental_uris":{"android":"levelo://app?vid=c098d0eb-2dfa-40ab-a976-f879f8822fb9","ios":"levelo://app?vid=c098d0eb-2dfa-40ab-a976-f879f8822fb9"},"vehicle_type_id":"4","last_reported":1767063255,"current_range_meters":6800,"station_id":"ce4bh4p2rcd13ifvqe1g","pricing_plan_id":"cebpf4jnsgd1na2vs0mg"},{"bike_id":"02e6a02b-5d58-4066-b2bf-d0dd6a6f02b1","system_id":"levelo_inurba_marseille","lat":43.25,"lon":5.38937,"is_reserved":false,"is_disabled":false,"rental_uris":{"android":"levelo://app?vid=02e6a02b-5d58-4066-b2bf-d0dd6a6f02b1","ios":"levelo://app?vid=02e6a02b-5d58-4066-b2bf-d0dd6a6f02b1"},"vehicle_type_id":"4","last_reported":1767063255,"current_range_meters":6800,"station_id":"ce4bhgp2rcd13ifvqfd0","pricing_plan_id":"cebpf4jnsgd1na2vs0mg"},{"bike_id":"49166d3a-7d57-41ae-b5e6-9a6cbabce031","system_id":"levelo_inurba_marseille","lat":43.29686,"lon":5.36771,"is_reserved":false,"is_disabled":false,"rental_uris":{"android":"levelo://app?vid=49166d3a-7d57-41ae-b5e6-9a6cbabce031","ios":"levelo://app?vid=49166d3a-7d57-41ae-b5e6-9a6cbabce031"},"vehicle_type_id":"4","last_reported":1767063255,"current_range_meters":7200,"station_id":"","pricing_plan_id":"cebpf4jnsgd1na2vs0mg"},{"bike_id":"c4e113a3-b17c-48fb-86ca-bf846dac0dfa","system_id":"levelo_inurba_marseille","lat":43.30385,"lon":5.42478,"is_reserved":false,"is_disabled":false,"rental_uris":{"android":"levelo://app?vid=c4e113a3-b17c-48fb-86ca-bf846dac0dfa","ios":"levelo://app?vid=c4e113a3-b17c-48fb-86ca-bf846dac0dfa"},"vehicle_type_id":"4","last_reported":1767063255,"current_range_meters":7200,"station_id":"ce4bhoh2rcd13ifvqh6g","pricing_plan_id":"cebpf4jnsgd1na2vs0mg"},{"bike_id":"a8c2d8de-b6b0-4d76-bd0a-848e73017345","system_id":"levelo_inurba_marseille","lat":43.284588,"lon":5.358869,"is_reserved":false,"is_disabled":false,"rental_uris":{"android":"levelo://app?vid=a8c2d8de-b6b0-4d76-bd0a-848e73017345","ios":"levelo://app?vid=a8c2d8de-b6b0-4d76-bd0a-848e73017345"},"vehicle_type_id":"4","last_reported":1767063255,"current_range_meters":7200,"station_id":"ce4bhah2rcd13ifvqei0","pricing_plan_id":"cebpf4jnsgd1na2vs0mg"},{"bike_id":"31704bec-4f9a-49bc-bf97-b66633aba2e8","system_id":"levelo_inurba_marseille","lat":43.25997,"lon":5.41751,"is_reserved":false,"is_disabled":false,"rental_uris":{"android":"levelo://app?vid=31704bec-4f9a-49bc-bf97-b66633aba2e8","ios":"levelo://app?vid=31704bec-4f9a-49bc-bf97-b66633aba2e8"},"vehicle_type_id":"4","last_reported":1767063255,"current_range_meters":7200,"station_id":"","pricing_plan_id":"cebpf4jnsgd1na2vs0mg"},{"bike_id":"7451e2f1-97cc-4a6a-824e-1c725c74e9d6","system_id":"levelo_inurba_marseille","lat":43.29369,"lon":5.38101,"is_reserved":false,"is_disabled":false,"rental_uris":{"android":"levelo://app?vid=7451e2f1-97cc-4a6a-824e-1c725c74e9d6","ios":"levelo://app?vid=7451e2f1-97cc-4a6a-824e-1c725c74e9d6"},"vehicle_type_id":"4","last_reported":1767063255,"current_range_meters":8000,"station_id":"","pricing_plan_id":"cebpf4jnsgd1na2vs0mg"},{"bike_id":"f1e029ec-966a-4c18-90a6-6313298321ec","system_id":"levelo_inurba_marseille","lat":43.24217,"lon":5.39339,"is_reserved":false,"is_disabled":false,"rental_uris":{"android":"levelo://app?vid=f1e029ec-966a-4c18-90a6-6313298321ec","ios":"levelo://app?vid=f1e029ec-966a-4c18-90a6-6313298321ec"},"vehicle_type_id":"4","last_reported":1767063255,"current_range_meters":8000,"station_id":"","pricing_plan_id":"cebpf4jnsgd1na2vs0mg"},{"bike_id":"823966f8-03dd-4cfc-a62e-7bb24dcd9f0e","system_id":"levelo_inurba_marseille","lat":43.22527,"lon":5.34812,"is_reserved":false,"is_disabled":false,"rental_uris":{"android":"levelo://app?vid=823966f8-03dd-4cfc-a62e-7bb24dcd9f0e","ios":"levelo://app?vid=823966f8-03dd-4cfc-a62e-7bb24dcd9f0e"},"vehicle_type_id":"4","last_reported":1767063255,"current_range_meters":8000,"station_id":"st_cvj5dfep6f1abm77gieg","pricing_plan_id":"cebpf4jnsgd1na2vs0mg"},{"bike_id":"7010e176-e4af-448a-a414-39b5ef7e6b5d","system_id":"levelo_inurba_marseille","lat":43.28466,"lon":5.38422,"is_reserved":false,"is_disabled":false,"rental_uris":{"android":"levelo://app?vid=7010e176-e4af-448a-a414-39b5ef7e6b5d","ios":"levelo://app?vid=7010e176-e4af-448a-a414-39b5ef7e6b5d"},"vehicle_type_id":"4","last_reported":1767063255,"current_range_meters":8000,"station_id":"","pricing_plan_id":"cebpf4jnsgd1na2vs0mg"},{"bike_id":"a5390c1b-8ddc-4e56-baf4-66b1fe2b384c","system_id":"levelo_inurba_marseille","lat":43.28871,"lon":5.42512,"is_reserved":false,"is_disabled":false,"rental_uris":{"android":"levelo://app?vid=a5390c1b-8ddc-4e56-baf4-66b1fe2b384c","ios":"levelo://app?vid=a5390c1b-8ddc-4e56-baf4-66b1fe2b384c"},"vehicle_type_id":"4","last_reported":1767063255,"current_range_meters":8400,"station_id":"st_d3b462108ojc7389ooeg","pricing_plan_id":"cebpf4jnsgd1na2vs0mg"},{"bike_id":"5b0ba313-848b-41cb-98f9-095350fbbf89","system_id":"levelo_inurba_marseille","lat":43.28863,"lon":5.39324,"is_reserved":false,"is_disabled":false,"rental_uris":{"android":"levelo://app?vid=5b0ba313-848b-41cb-98f9-095350fbbf89","ios":"levelo://app?vid=5b0ba313-848b-41cb-98f9-095350fbbf89"},"vehicle_type_id":"4","last_reported":1767063255,"current_range_meters":8400,"station_id":"ce4bh2p2rcd13ifvqdi0","pricing_plan_id":"cebpf4jnsgd1na2vs0mg"},{"bike_id":"52aca331-91cf-432e-9daf-ae1909dce5fd","system_id":"levelo_inurba_marseille","lat":43.30319,"lon":5.40444,"is_reserved":false,"is_disabled":false,"rental_uris":{"android":"levelo://app?vid=52aca331-91cf-432e-9daf-ae1909dce5fd","ios":"levelo://app?vid=52aca331-91cf-432e-9daf-ae1909dce5fd"},"vehicle_type_id":"4","last_reported":1767063255,"current_range_meters":8400,"station_id":"ce4bh012rcd13ifvqd10","pricing_plan_id":"cebpf4jnsgd1na2vs0mg"},{"bike_id":"49e072a8-45d4-49d1-bdbc-2de1dded4d80","system_id":"levelo_inurba_marseille","lat":43.24675,"lon":5.38138,"is_reserved":false,"is_disabled":false,"rental_uris":{"android":"levelo://app?vid=49e072a8-45d4-49d1-bdbc-2de1dded4d80","ios":"levelo://app?vid=49e072a8-45d4-49d1-bdbc-2de1dded4d80"},"vehicle_type_id":"4","last_reported":1767063255,"current_range_meters":8400,"station_id":"ce4bhih2rcd13ifvqfr0","pricing_plan_id":"cebpf4jnsgd1na2vs0mg"},{"bike_id":"959f4659-d365-4ff3-8e93-16417568f80d","system_id":"levelo_inurba_marseille","lat":43.296304,"lon":5.377895,"is_reserved":false,"is_disabled":false,"rental_uris":{"android":"levelo://app?vid=959f4659-d365-4ff3-8e93-16417568f80d","ios":"levelo://app?vid=959f4659-d365-4ff3-8e93-16417568f80d"},"vehicle_type_id":"4","last_reported":1767063255,"current_range_meters":8400,"station_id":"","pricing_plan_id":"cebpf4jnsgd1na2vs0mg"},{"bike_id":"596c9b3b-bd08-4237-a80d-9ed209e66871","system_id":"levelo_inurba_marseille","lat":43.28863,"lon":5.42512,"is_reserved":false,"is_disabled":false,"rental_uris":{"android":"levelo://app?vid=596c9b3b-bd08-4237-a80d-9ed209e66871","ios":"levelo://app?vid=596c9b3b-bd08-4237-a80d-9ed209e66871"},"vehicle_type_id":"4","last_reported":1767063255,"current_range_meters":8400,"station_id":"st_d3b462108ojc7389ooeg","pricing_plan_id":"cebpf4jnsgd1na2vs0mg"},{"bike_id":"85f80c36-b01d-4148-8a0f-5ed00798dda8","system_id":"levelo_inurba_marseille","lat":43.30119,"lon":5.36478,"is_reserved":false,"is_disabled":false,"rental_uris":{"android":"levelo://app?vid=85f80c36-b01d-4148-8a0f-5ed00798dda8","ios":"levelo://app?vid=85f80c36-b01d-4148-8a0f-5ed00798dda8"},"vehicle_type_id":"4","last_reported":1767063255,"current_range_meters":8400,"station_id":"","pricing_plan_id":"cebpf4jnsgd1na2vs0mg"},{"bike_id":"306362d3-800b-4d70-b645-8be0daf40036","system_id":"levelo_inurba_marseille","lat":43.30636,"lon":5.40092,"is_reserved":false,"is_disabled":false,"rental_uris":{"android":"levelo://app?vid=306362d3-800b-4d70-b645-8be0daf40036","ios":"levelo://app?vid=306362d3-800b-4d70-b645-8be0daf40036"},"vehicle_type_id":"4","last_reported":1767063255,"current_range_meters":8400,"station_id":"ce4bh112rcd13ifvqda0","pricing_plan_id":"cebpf4jnsgd1na2vs0mg"},{"bike_id":"a3898c1c-2859-4078-ac20-604b5ad90819","system_id":"levelo_inurba_marseille","lat":43.27063,"lon":5.40244,"is_reserved":false,"is_disabled":false,"rental_uris":{"android":"levelo://app?vid=a3898c1c-2859-4078-ac20-604b5ad90819","ios":"levelo://app?vid=a3898c1c-2859-4078-ac20-604b5ad90819"},"vehicle_type_id":"4","last_reported":1767063255,"current_range_meters":8400,"station_id":"ce4bhk92rcd13ifvqgc0","pricing_plan_id":"cebpf4jnsgd1na2vs0mg"},{"bike_id":"d92812f8-5b57-4c59-8c7f-259f28af8665","system_id":"levelo_inurba_marseille","lat":43.28323,"lon":5.43165,"is_reserved":false,"is_disabled":false,"rental_uris":{"android":"levelo://app?vid=d92812f8-5b57-4c59-8c7f-259f28af8665","ios":"levelo://app?vid=d92812f8-5b57-4c59-8c7f-259f28af8665"},"vehicle_type_id":"4","last_reported":1767063255,"current_range_meters":8400,"station_id":"","pricing_plan_id":"cebpf4jnsgd1na2vs0mg"},{"bike_id":"8ed0aaee-94a4-4a16-a923-e8b24a7704a6","system_id":"levelo_inurba_marseille","lat":43.28858,"lon":5.42509,"is_reserved":false,"is_disabled":false,"rental_uris":{"android":"levelo://app?vid=8ed0aaee-94a4-4a16-a923-e8b24a7704a6","ios":"levelo://app?vid=8ed0aaee-94a4-4a16-a923-e8b24a7704a6"},"vehicle_type_id":"4","last_reported":1767063255,"current_range_meters":8400,"station_id":"st_d3b462108ojc7389ooeg","pricing_plan_id":"cebpf4jnsgd1na2vs0mg"},{"bike_id":"433621e1-12cd-4d0c-b747-14612e74827b","system_id":"levelo_inurba_marseille","lat":43.217524,"lon":5.345967,"is_reserved":false,"is_disabled":false,"rental_uris":{"android":"levelo://app?vid=433621e1-12cd-4d0c-b747-14612e74827b","ios":"levelo://app?vid=433621e1-12cd-4d0c-b747-14612e74827b"},"vehicle_type_id":"4","last_reported":1767063255,"current_range_meters":8800,"station_id":"st_cvj6r9ubvosntc0bgbag","pricing_plan_id":"cebpf4jnsgd1na2vs0mg"},{"bike_id":"036cbba1-2eba-4d3a-bebd-070ee4e03e68","system_id":"levelo_inurba_marseille","lat":43.27426,"lon":5.3941,"is_reserved":false,"is_disabled":true,"rental_uris":{"android":"levelo://app?vid=036cbba1-2eba-4d3a-bebd-070ee4e03e68","ios":"levelo://app?vid=036cbba1-2eba-4d3a-bebd-070ee4e03e68"},"vehicle_type_id":"4","last_reported":1767063255,"current_range_meters":8800,"station_id":"ce4bhdp2rcd13ifvqf20","pricing_plan_id":"cebpf4jnsgd1na2vs0mg"},{"bike_id":"726d26a4-a858-4948-89f2-78d61b06e513","system_id":"levelo_inurba_marseille","lat":43.30515,"lon":5.37243,"is_reserved":false,"is_disabled":false,"rental_uris":{"android":"levelo://app?vid=726d26a4-a858-4948-89f2-78d61b06e513","ios":"levelo://app?vid=726d26a4-a858-4948-89f2-78d61b06e513"},"vehicle_type_id":"4","last_reported":1767063255,"current_range_meters":8800,"station_id":"","pricing_plan_id":"cebpf4jnsgd1na2vs0mg"},{"bike_id":"1b98c6d3-988a-40e8-a138-836b264a962b","system_id":"levelo_inurba_marseille","lat":43.32331,"lon":5.36678,"is_reserved":false,"is_disabled":false,"rental_uris":{"android":"levelo://app?vid=1b98c6d3-988a-40e8-a138-836b264a962b","ios":"levelo://app?vid=1b98c6d3-988a-40e8-a138-836b264a962b"},"vehicle_type_id":"4","last_reported":1767063255,"current_range_meters":8800,"station_id":"","pricing_plan_id":"cebpf4jnsgd1na2vs0mg"},{"bike_id":"c144adb8-946d-4a60-9739-bd28e99b9f29","system_id":"levelo_inurba_marseille","lat":43.28535,"lon":5.44088,"is_reserved":false,"is_disabled":false,"rental_uris":{"android":"levelo://app?vid=c144adb8-946d-4a60-9739-bd28e99b9f29","ios":"levelo://app?vid=c144adb8-946d-4a60-9739-bd28e99b9f29"},"vehicle_type_id":"4","last_reported":1767063255,"current_range_meters":8800,"station_id":"st_d3j3df2ikq2c7380ej80","pricing_plan_id":"cebpf4jnsgd1na2vs0mg"},{"bike_id":"a59ecb87-bb60-4056-991d-cd463f760ad0","system_id":"levelo_inurba_marseille","lat":43.28223,"lon":5.39043,"is_reserved":false,"is_disabled":false,"rental_uris":{"android":"levelo://app?vid=a59ecb87-bb60-4056-991d-cd463f760ad0","ios":"levelo://app?vid=a59ecb87-bb60-4056-991d-cd463f760ad0"},"vehicle_type_id":"4","last_reported":1767063255,"current_range_meters":8800,"station_id":"ce4bhn92rcd13ifvqgsg","pricing_plan_id":"cebpf4jnsgd1na2vs0mg"},{"bike_id":"5e1fe116-145a-4650-80f8-2e49362967cb","system_id":"levelo_inurba_marseille","lat":43.28732,"lon":5.36077,"is_reserved":false,"is_disabled":false,"rental_uris":{"android":"levelo://app?vid=5e1fe116-145a-4650-80f8-2e49362967cb","ios":"levelo://app?vid=5e1fe116-145a-4650-80f8-2e49362967cb"},"vehicle_type_id":"4","last_reported":1767063255,"current_range_meters":8800,"station_id":"cki0cbj6b192h4jlfktg","pricing_plan_id":"cebpf4jnsgd1na2vs0mg"},{"bike_id":"55ff4c1c-20ad-4bf5-9845-be3127b004e9","system_id":"levelo_inurba_marseille","lat":43.2979,"lon":5.40412,"is_reserved":false,"is_disabled":false,"rental_uris":{"android":"levelo://app?vid=55ff4c1c-20ad-4bf5-9845-be3127b004e9","ios":"levelo://app?vid=55ff4c1c-20ad-4bf5-9845-be3127b004e9"},"vehicle_type_id":"4","last_reported":1767063255,"current_range_meters":9200,"station_id":"ce4bh112rcd13ifvqd90","pricing_plan_id":"cebpf4jnsgd1na2vs0mg"},{"bike_id":"8b945551-b14d-486b-ae0f-7379e9ed23b9","system_id":"levelo_inurba_marseille","lat":43.27614,"lon":5.36108,"is_reserved":false,"is_disabled":false,"rental_uris":{"android":"levelo://app?vid=8b945551-b14d-486b-ae0f-7379e9ed23b9","ios":"levelo://app?vid=8b945551-b14d-486b-ae0f-7379e9ed23b9"},"vehicle_type_id":"4","last_reported":1767063255,"current_range_meters":9200,"station_id":"ce4bgj92rcd13ifvqbe0","pricing_plan_id":"cebpf4jnsgd1na2vs0mg"},{"bike_id":"6430d914-0a21-4065-b1bd-22ff590b6d10","system_id":"levelo_inurba_marseille","lat":43.28944,"lon":5.42683,"is_reserved":false,"is_disabled":false,"rental_uris":{"android":"levelo://app?vid=6430d914-0a21-4065-b1bd-22ff590b6d10","ios":"levelo://app?vid=6430d914-0a21-4065-b1bd-22ff590b6d10"},"vehicle_type_id":"4","last_reported":1767063255,"current_range_meters":9200,"station_id":"","pricing_plan_id":"cebpf4jnsgd1na2vs0mg"},{"bike_id":"6fea47af-e6a5-4c7f-9d2a-795c72191d82","system_id":"levelo_inurba_marseille","lat":43.2857,"lon":5.39489,"is_reserved":false,"is_disabled":false,"rental_uris":{"android":"levelo://app?vid=6fea47af-e6a5-4c7f-9d2a-795c72191d82","ios":"levelo://app?vid=6fea47af-e6a5-4c7f-9d2a-795c72191d82"},"vehicle_type_id":"4","last_reported":1767063255,"current_range_meters":9200,"station_id":"ce4bh292rcd13ifvqdg0","pricing_plan_id":"cebpf4jnsgd1na2vs0mg"},{"bike_id":"acb40636-186d-4a1b-a063-860a2acf6a2d","system_id":"levelo_inurba_marseille","lat":43.31162,"lon":5.38726,"is_reserved":false,"is_disabled":false,"rental_uris":{"android":"levelo://app?vid=acb40636-186d-4a1b-a063-860a2acf6a2d","ios":"levelo://app?vid=acb40636-186d-4a1b-a063-860a2acf6a2d"},"vehicle_type_id":"4","last_reported":1767063255,"current_range_meters":9200,"station_id":"ce4bgv12rcd13ifvqcp0","pricing_plan_id":"cebpf4jnsgd1na2vs0mg"},{"bike_id":"55edb854-e379-4f68-8874-1c91792fb1e8","system_id":"levelo_inurba_marseille","lat":43.31188,"lon":5.36823,"is_reserved":false,"is_disabled":false,"rental_uris":{"android":"levelo://app?vid=55edb854-e379-4f68-8874-1c91792fb1e8","ios":"levelo://app?vid=55edb854-e379-4f68-8874-1c91792fb1e8"},"vehicle_type_id":"4","last_reported":1767063255,"current_range_meters":9200,"station_id":"ce4bgl92rcd13ifvqbq0","pricing_plan_id":"cebpf4jnsgd1na2vs0mg"},{"bike_id":"0a62435e-a1a1-4faf-b848-03bd53df937d","system_id":"levelo_inurba_marseille","lat":43.29831,"lon":5.37934,"is_reserved":false,"is_disabled":false,"rental_uris":{"android":"levelo://app?vid=0a62435e-a1a1-4faf-b848-03bd53df937d","ios":"levelo://app?vid=0a62435e-a1a1-4faf-b848-03bd53df937d"},"vehicle_type_id":"4","last_reported":1767063255,"current_range_meters":9200,"station_id":"","pricing_plan_id":"cebpf4jnsgd1na2vs0mg"},{"bike_id":"f02cf114-7175-42eb-9219-d08d88ab3dff","system_id":"levelo_inurba_marseille","lat":43.26543,"lon":5.37297,"is_reserved":false,"is_disabled":false,"rental_uris":{"android":"levelo://app?vid=f02cf114-7175-42eb-9219-d08d88ab3dff","ios":"levelo://app?vid=f02cf114-7175-42eb-9219-d08d88ab3dff"},"vehicle_type_id":"4","last_reported":1767063255,"current_range_meters":9200,"station_id":"ce4bhg12rcd13ifvqf70","pricing_plan_id":"cebpf4jnsgd1na2vs0mg"},{"bike_id":"b827d20d-caad-435d-904a-f21201c03c25","system_id":"levelo_inurba_marseille","lat":43.24632,"lon":5.43147,"is_reserved":false,"is_disabled":false,"rental_uris":{"android":"levelo://app?vid=b827d20d-caad-435d-904a-f21201c03c25","ios":"levelo://app?vid=b827d20d-caad-435d-904a-f21201c03c25"},"vehicle_type_id":"4","last_reported":1767063255,"current_range_meters":9200,"station_id":"st_d2m6c4gdas8pm72e190g","pricing_plan_id":"cebpf4jnsgd1na2vs0mg"},{"bike_id":"f4c01557-62cf-4b89-aaa2-7c63ad0ad51f","system_id":"levelo_inurba_marseille","lat":43.31047,"lon":5.37157,"is_reserved":false,"is_disabled":false,"rental_uris":{"android":"levelo://app?vid=f4c01557-62cf-4b89-aaa2-7c63ad0ad51f","ios":"levelo://app?vid=f4c01557-62cf-4b89-aaa2-7c63ad0ad51f"},"vehicle_type_id":"4","last_reported":1767063255,"current_range_meters":9600,"station_id":"st_d4kl2rp97mjs73e7tdfg","pricing_plan_id":"cebpf4jnsgd1na2vs0mg"},{"bike_id":"591143d8-ec56-46e6-a5ad-1673c0333dae","system_id":"levelo_inurba_marseille","lat":43.30655,"lon":5.40074,"is_reserved":false,"is_disabled":false,"rental_uris":{"android":"levelo://app?vid=591143d8-ec56-46e6-a5ad-1673c0333dae","ios":"levelo://app?vid=591143d8-ec56-46e6-a5ad-1673c0333dae"},"vehicle_type_id":"4","last_reported":1767063255,"current_range_meters":9600,"station_id":"ce4bh112rcd13ifvqda0","pricing_plan_id":"cebpf4jnsgd1na2vs0mg"},{"bike_id":"d3efac8a-91ab-418e-89d2-8fe9a81178e7","system_id":"levelo_inurba_marseille","lat":43.287314,"lon":5.360781,"is_reserved":false,"is_disabled":false,"rental_uris":{"android":"levelo://app?vid=d3efac8a-91ab-418e-89d2-8fe9a81178e7","ios":"levelo://app?vid=d3efac8a-91ab-418e-89d2-8fe9a81178e7"},"vehicle_type_id":"4","last_reported":1767063255,"current_range_meters":9600,"station_id":"cki0cbj6b192h4jlfktg","pricing_plan_id":"cebpf4jnsgd1na2vs0mg"},{"bike_id":"05cee475-8f51-44bf-b271-471df29cca40","system_id":"levelo_inurba_marseille","lat":43.31063,"lon":5.3837,"is_reserved":false,"is_disabled":false,"rental_uris":{"android":"levelo://app?vid=05cee475-8f51-44bf-b271-471df29cca40","ios":"levelo://app?vid=05cee475-8f51-44bf-b271-471df29cca40"},"vehicle_type_id":"4","last_reported":1767063255,"current_range_meters":9600,"station_id":"ce4bgv92rcd13ifvqcr0","pricing_plan_id":"cebpf4jnsgd1na2vs0mg"},{"bike_id":"a2862512-a480-48b5-aff0-0e097c6ac6c9","system_id":"levelo_inurba_marseille","lat":43.24657,"lon":5.38156,"is_reserved":false,"is_disabled":false,"rental_uris":{"android":"levelo://app?vid=a2862512-a480-48b5-aff0-0e097c6ac6c9","ios":"levelo://app?vid=a2862512-a480-48b5-aff0-0e097c6ac6c9"},"vehicle_type_id":"4","last_reported":1767063255,"current_range_meters":10000,"station_id":"ce4bhih2rcd13ifvqfr0","pricing_plan_id":"cebpf4jnsgd1na2vs0mg"},{"bike_id":"3745e737-5737-4541-ab05-7d881133f68f","system_id":"levelo_inurba_marseille","lat":43.279913,"lon":5.400134,"is_reserved":false,"is_disabled":false,"rental_uris":{"android":"levelo://app?vid=3745e737-5737-4541-ab05-7d881133f68f","ios":"levelo://app?vid=3745e737-5737-4541-ab05-7d881133f68f"},"vehicle_type_id":"4","last_reported":1767063255,"current_range_meters":10000,"station_id":"ce4bho92rcd13ifvqh4g","pricing_plan_id":"cebpf4jnsgd1na2vs0mg"},{"bike_id":"928b015a-7167-4e24-8c0a-0c323d75b19b","system_id":"levelo_inurba_marseille","lat":43.28478,"lon":5.38436,"is_reserved":false,"is_disabled":false,"rental_uris":{"android":"levelo://app?vid=928b015a-7167-4e24-8c0a-0c323d75b19b","ios":"levelo://app?vid=928b015a-7167-4e24-8c0a-0c323d75b19b"},"vehicle_type_id":"4","last_reported":1767063255,"current_range_meters":10000,"station_id":"ce4bh512rcd13ifvqe3g","pricing_plan_id":"cebpf4jnsgd1na2vs0mg"},{"bike_id":"daad4982-4e82-4f25-b899-9a8a6b7dfccc","system_id":"levelo_inurba_marseille","lat":43.28721,"lon":5.36083,"is_reserved":false,"is_disabled":false,"rental_uris":{"android":"levelo://app?vid=daad4982-4e82-4f25-b899-9a8a6b7dfccc","ios":"levelo://app?vid=daad4982-4e82-4f25-b899-9a8a6b7dfccc"},"vehicle_type_id":"4","last_reported":1767063255,"current_range_meters":10000,"station_id":"cki0cbj6b192h4jlfktg","pricing_plan_id":"cebpf4jnsgd1na2vs0mg"},{"bike_id":"248a03b6-5cb4-4aa2-8baa-dda3195e836a","system_id":"levelo_inurba_marseille","lat":43.26503,"lon":5.39555,"is_reserved":false,"is_disabled":false,"rental_uris":{"android":"levelo://app?vid=248a03b6-5cb4-4aa2-8baa-dda3195e836a","ios":"levelo://app?vid=248a03b6-5cb4-4aa2-8baa-dda3195e836a"},"vehicle_type_id":"4","last_reported":1767063255,"current_range_meters":10000,"station_id":"ce4bhi12rcd13ifvqfq0","pricing_plan_id":"cebpf4jnsgd1na2vs0mg"},{"bike_id":"2c46c7a5-389f-47fc-8086-ed2504307f23","system_id":"levelo_inurba_marseille","lat":43.27951,"lon":5.41054,"is_reserved":false,"is_disabled":false,"rental_uris":{"android":"levelo://app?vid=2c46c7a5-389f-47fc-8086-ed2504307f23","ios":"levelo://app?vid=2c46c7a5-389f-47fc-8086-ed2504307f23"},"vehicle_type_id":"4","last_reported":1767063255,"current_range_meters":10000,"station_id":"ce4bhnp2rcd13ifvqh0g","pricing_plan_id":"cebpf4jnsgd1na2vs0mg"},{"bike_id":"18faadfe-ae91-4d13-a0c6-9b6383a79fcd","system_id":"levelo_inurba_marseille","lat":43.2319,"lon":5.35546,"is_reserved":false,"is_disabled":false,"rental_uris":{"android":"levelo://app?vid=18faadfe-ae91-4d13-a0c6-9b6383a79fcd","ios":"levelo://app?vid=18faadfe-ae91-4d13-a0c6-9b6383a79fcd"},"vehicle_type_id":"4","last_reported":1767063255,"current_range_meters":10000,"station_id":"ce4bhu92rcd13ifvqi70","pricing_plan_id":"cebpf4jnsgd1na2vs0mg"},{"bike_id":"33b9d6bb-5418-41ed-b8b3-0f7390df3679","system_id":"levelo_inurba_marseille","lat":43.24665,"lon":5.38173,"is_reserved":false,"is_disabled":false,"rental_uris":{"android":"levelo://app?vid=33b9d6bb-5418-41ed-b8b3-0f7390df3679","ios":"levelo://app?vid=33b9d6bb-5418-41ed-b8b3-0f7390df3679"},"vehicle_type_id":"4","last_reported":1767063255,"current_range_meters":10000,"station_id":"ce4bhih2rcd13ifvqfr0","pricing_plan_id":"cebpf4jnsgd1na2vs0mg"},{"bike_id":"49e40505-74b6-4824-8966-059faeedce5c","system_id":"levelo_inurba_marseille","lat":43.25336,"lon":5.42178,"is_reserved":false,"is_disabled":false,"rental_uris":{"android":"levelo://app?vid=49e40505-74b6-4824-8966-059faeedce5c","ios":"levelo://app?vid=49e40505-74b6-4824-8966-059faeedce5c"},"vehicle_type_id":"4","last_reported":1767063255,"current_range_meters":10000,"station_id":"st_d2m65c5bi1j21697t3ng","pricing_plan_id":"cebpf4jnsgd1na2vs0mg"},{"bike_id":"59aab69d-aa14-4a71-8d9b-0aa143ba58f2","system_id":"levelo_inurba_marseille","lat":43.285333,"lon":5.440941,"is_reserved":false,"is_disabled":true,"rental_uris":{"android":"levelo://app?vid=59aab69d-aa14-4a71-8d9b-0aa143ba58f2","ios":"levelo://app?vid=59aab69d-aa14-4a71-8d9b-0aa143ba58f2"},"vehicle_type_id":"4","last_reported":1767063255,"current_range_meters":10000,"station_id":"st_d3j3df2ikq2c7380ej80","pricing_plan_id":"cebpf4jnsgd1na2vs0mg"},{"bike_id":"26517a0d-c3ae-4a8e-8914-35af5c17b4e6","system_id":"levelo_inurba_marseille","lat":43.25861,"lon":5.39912,"is_reserved":false,"is_disabled":false,"rental_uris":{"android":"levelo://app?vid=26517a0d-c3ae-4a8e-8914-35af5c17b4e6","ios":"levelo://app?vid=26517a0d-c3ae-4a8e-8914-35af5c17b4e6"},"vehicle_type_id":"4","last_reported":1767063255,"current_range_meters":10000,"station_id":"ce4bhl92rcd13ifvqghg","pricing_plan_id":"cebpf4jnsgd1na2vs0mg"},{"bike_id":"a291f4e1-1274-4596-b12b-2e0a863acab4","system_id":"levelo_inurba_marseille","lat":43.23178,"lon":5.39992,"is_reserved":false,"is_disabled":false,"rental_uris":{"android":"levelo://app?vid=a291f4e1-1274-4596-b12b-2e0a863acab4","ios":"levelo://app?vid=a291f4e1-1274-4596-b12b-2e0a863acab4"},"vehicle_type_id":"4","last_reported":1767063255,"current_range_meters":10000,"station_id":"ce4bhn12rcd13ifvqgqg","pricing_plan_id":"cebpf4jnsgd1na2vs0mg"},{"bike_id":"8cd8286c-2dd8-41ad-b181-1afd615d6e0d","system_id":"levelo_inurba_marseille","lat":43.28588,"lon":5.38356,"is_reserved":false,"is_disabled":false,"rental_uris":{"android":"levelo://app?vid=8cd8286c-2dd8-41ad-b181-1afd615d6e0d","ios":"levelo://app?vid=8cd8286c-2dd8-41ad-b181-1afd615d6e0d"},"vehicle_type_id":"4","last_reported":1767063255,"current_range_meters":10800,"station_id":"","pricing_plan_id":"cebpf4jnsgd1na2vs0mg"},{"bike_id":"f050f501-50db-43b4-b307-87ce6c3c640b","system_id":"levelo_inurba_marseille","lat":43.27609,"lon":5.36137,"is_reserved":false,"is_disabled":false,"rental_uris":{"android":"levelo://app?vid=f050f501-50db-43b4-b307-87ce6c3c640b","ios":"levelo://app?vid=f050f501-50db-43b4-b307-87ce6c3c640b"},"vehicle_type_id":"4","last_reported":1767063255,"current_range_meters":10800,"station_id":"ce4bgj92rcd13ifvqbe0","pricing_plan_id":"cebpf4jnsgd1na2vs0mg"},{"bike_id":"530d3be3-3828-4903-bd56-2af20d09331a","system_id":"levelo_inurba_marseille","lat":43.2589,"lon":5.3989,"is_reserved":false,"is_disabled":false,"rental_uris":{"android":"levelo://app?vid=530d3be3-3828-4903-bd56-2af20d09331a","ios":"levelo://app?vid=530d3be3-3828-4903-bd56-2af20d09331a"},"vehicle_type_id":"4","last_reported":1767063255,"current_range_meters":10800,"station_id":"ce4bhl92rcd13ifvqghg","pricing_plan_id":"cebpf4jnsgd1na2vs0mg"},{"bike_id":"e4beeca0-014f-45e3-b316-ee5816158ff3","system_id":"levelo_inurba_marseille","lat":43.28726,"lon":5.36097,"is_reserved":false,"is_disabled":false,"rental_uris":{"android":"levelo://app?vid=e4beeca0-014f-45e3-b316-ee5816158ff3","ios":"levelo://app?vid=e4beeca0-014f-45e3-b316-ee5816158ff3"},"vehicle_type_id":"4","last_reported":1767063255,"current_range_meters":10800,"station_id":"cki0cbj6b192h4jlfktg","pricing_plan_id":"cebpf4jnsgd1na2vs0mg"},{"bike_id":"1dd2c077-d7fa-43b2-a55d-f6335f7bc478","system_id":"levelo_inurba_marseille","lat":43.29642,"lon":5.37301,"is_reserved":false,"is_disabled":false,"rental_uris":{"android":"levelo://app?vid=1dd2c077-d7fa-43b2-a55d-f6335f7bc478","ios":"levelo://app?vid=1dd2c077-d7fa-43b2-a55d-f6335f7bc478"},"vehicle_type_id":"4","last_reported":1767063255,"current_range_meters":10800,"station_id":"ce4bgk12rcd13ifvqbj0","pricing_plan_id":"cebpf4jnsgd1na2vs0mg"},{"bike_id":"12c38b32-5974-4311-910a-572392b8079a","system_id":"levelo_inurba_marseille","lat":43.280422,"lon":5.350876,"is_reserved":false,"is_disabled":false,"rental_uris":{"android":"levelo://app?vid=12c38b32-5974-4311-910a-572392b8079a","ios":"levelo://app?vid=12c38b32-5974-4311-910a-572392b8079a"},"vehicle_type_id":"4","last_reported":1767063255,"current_range_meters":10800,"station_id":"","pricing_plan_id":"cebpf4jnsgd1na2vs0mg"},{"bike_id":"8e7f2144-ded3-4aa3-b98e-b9226760d292","system_id":"levelo_inurba_marseille","lat":43.25096,"lon":5.39514,"is_reserved":false,"is_disabled":false,"rental_uris":{"android":"levelo://app?vid=8e7f2144-ded3-4aa3-b98e-b9226760d292","ios":"levelo://app?vid=8e7f2144-ded3-4aa3-b98e-b9226760d292"},"vehicle_type_id":"4","last_reported":1767063255,"current_range_meters":10800,"station_id":"ce4bhm12rcd13ifvqgkg","pricing_plan_id":"cebpf4jnsgd1na2vs0mg"},{"bike_id":"1bf9af3e-5825-4028-b5fa-3733a35fec46","system_id":"levelo_inurba_marseille","lat":43.27064,"lon":5.38295,"is_reserved":false,"is_disabled":false,"rental_uris":{"android":"levelo://app?vid=1bf9af3e-5825-4028-b5fa-3733a35fec46","ios":"levelo://app?vid=1bf9af3e-5825-4028-b5fa-3733a35fec46"},"vehicle_type_id":"4","last_reported":1767063255,"current_range_meters":11200,"station_id":"st_d3n2fo6cfp8s73cte1j0","pricing_plan_id":"cebpf4jnsgd1na2vs0mg"},{"bike_id":"3d3654d4-b73f-4fcc-809b-8deb12504d1c","system_id":"levelo_inurba_marseille","lat":43.28688,"lon":5.38651,"is_reserved":false,"is_disabled":false,"rental_uris":{"android":"levelo://app?vid=3d3654d4-b73f-4fcc-809b-8deb12504d1c","ios":"levelo://app?vid=3d3654d4-b73f-4fcc-809b-8deb12504d1c"},"vehicle_type_id":"4","last_reported":1767063255,"current_range_meters":11200,"station_id":"ce4bh492rcd13ifvqdug","pricing_plan_id":"cebpf4jnsgd1na2vs0mg"},{"bike_id":"c51301be-aa87-4830-8cdc-99d533c9e895","system_id":"levelo_inurba_marseille","lat":43.28036,"lon":5.36946,"is_reserved":false,"is_disabled":false,"rental_uris":{"android":"levelo://app?vid=c51301be-aa87-4830-8cdc-99d533c9e895","ios":"levelo://app?vid=c51301be-aa87-4830-8cdc-99d533c9e895"},"vehicle_type_id":"4","last_reported":1767063255,"current_range_meters":11200,"station_id":"ce4bha12rcd13ifvqef0","pricing_plan_id":"cebpf4jnsgd1na2vs0mg"},{"bike_id":"69a9232f-0c10-42f3-951d-98f9e1d93fde","system_id":"levelo_inurba_marseille","lat":43.29744,"lon":5.37662,"is_reserved":false,"is_disabled":false,"rental_uris":{"android":"levelo://app?vid=69a9232f-0c10-42f3-951d-98f9e1d93fde","ios":"levelo://app?vid=69a9232f-0c10-42f3-951d-98f9e1d93fde"},"vehicle_type_id":"4","last_reported":1767063255,"current_range_meters":11200,"station_id":"ce4bgkh2rcd13ifvqbl0","pricing_plan_id":"cebpf4jnsgd1na2vs0mg"},{"bike_id":"cbad8aae-413f-4da8-bdf4-0f2c2fc39270","system_id":"levelo_inurba_marseille","lat":43.24801,"lon":5.37459,"is_reserved":false,"is_disabled":false,"rental_uris":{"android":"levelo://app?vid=cbad8aae-413f-4da8-bdf4-0f2c2fc39270","ios":"levelo://app?vid=cbad8aae-413f-4da8-bdf4-0f2c2fc39270"},"vehicle_type_id":"4","last_reported":1767063255,"current_range_meters":11200,"station_id":"ce4bhgh2rcd13ifvqfb0","pricing_plan_id":"cebpf4jnsgd1na2vs0mg"},{"bike_id":"1756bd8d-a2c4-41cd-85c6-586541aebd61","system_id":"levelo_inurba_marseille","lat":43.28457,"lon":5.39221,"is_reserved":false,"is_disabled":true,"rental_uris":{"android":"levelo://app?vid=1756bd8d-a2c4-41cd-85c6-586541aebd61","ios":"levelo://app?vid=1756bd8d-a2c4-41cd-85c6-586541aebd61"},"vehicle_type_id":"4","last_reported":1767063255,"current_range_meters":11200,"station_id":"ce4bhoh2rcd13ifvqh5g","pricing_plan_id":"cebpf4jnsgd1na2vs0mg"},{"bike_id":"c568af00-ba90-471e-8a8c-74a2ca4e7c91","system_id":"levelo_inurba_marseille","lat":43.307951,"lon":5.376607,"is_reserved":false,"is_disabled":false,"rental_uris":{"android":"levelo://app?vid=c568af00-ba90-471e-8a8c-74a2ca4e7c91","ios":"levelo://app?vid=c568af00-ba90-471e-8a8c-74a2ca4e7c91"},"vehicle_type_id":"4","last_reported":1767063255,"current_range_meters":11200,"station_id":"ce4bgv92rcd13ifvqcq0","pricing_plan_id":"cebpf4jnsgd1na2vs0mg"},{"bike_id":"8ca27a88-dc4c-4c28-abc9-3ec58d9128d4","system_id":"levelo_inurba_marseille","lat":43.2844,"lon":5.39183,"is_reserved":false,"is_disabled":false,"rental_uris":{"android":"levelo://app?vid=8ca27a88-dc4c-4c28-abc9-3ec58d9128d4","ios":"levelo://app?vid=8ca27a88-dc4c-4c28-abc9-3ec58d9128d4"},"vehicle_type_id":"4","last_reported":1767063255,"current_range_meters":11200,"station_id":"ce4bhoh2rcd13ifvqh5g","pricing_plan_id":"cebpf4jnsgd1na2vs0mg"},{"bike_id":"32541f6a-1d2c-44c2-a392-06055eaf1598","system_id":"levelo_inurba_marseille","lat":43.26254,"lon":5.41615,"is_reserved":false,"is_disabled":false,"rental_uris":{"android":"levelo://app?vid=32541f6a-1d2c-44c2-a392-06055eaf1598","ios":"levelo://app?vid=32541f6a-1d2c-44c2-a392-06055eaf1598"},"vehicle_type_id":"4","last_reported":1767063255,"current_range_meters":11200,"station_id":"","pricing_plan_id":"cebpf4jnsgd1na2vs0mg"},{"bike_id":"e54d4104-9e89-4bb8-b60e-d3755b992e4f","system_id":"levelo_inurba_marseille","lat":43.285463,"lon":5.440898,"is_reserved":false,"is_disabled":false,"rental_uris":{"android":"levelo://app?vid=e54d4104-9e89-4bb8-b60e-d3755b992e4f","ios":"levelo://app?vid=e54d4104-9e89-4bb8-b60e-d3755b992e4f"},"vehicle_type_id":"4","last_reported":1767063255,"current_range_meters":11200,"station_id":"st_d3j3df2ikq2c7380ej80","pricing_plan_id":"cebpf4jnsgd1na2vs0mg"},{"bike_id":"bac2109d-15df-4d0e-bae2-d33bd1ac452e","system_id":"levelo_inurba_marseille","lat":43.29975,"lon":5.37168,"is_reserved":false,"is_disabled":false,"rental_uris":{"android":"levelo://app?vid=bac2109d-15df-4d0e-bae2-d33bd1ac452e","ios":"levelo://app?vid=bac2109d-15df-4d0e-bae2-d33bd1ac452e"},"vehicle_type_id":"4","last_reported":1767063255,"current_range_meters":11600,"station_id":"ce4bgr92rcd13ifvqc7g","pricing_plan_id":"cebpf4jnsgd1na2vs0mg"},{"bike_id":"02e818d7-b252-45c2-ada4-86e500d8fb91","system_id":"levelo_inurba_marseille","lat":43.279541,"lon":5.41049,"is_reserved":false,"is_disabled":false,"rental_uris":{"android":"levelo://app?vid=02e818d7-b252-45c2-ada4-86e500d8fb91","ios":"levelo://app?vid=02e818d7-b252-45c2-ada4-86e500d8fb91"},"vehicle_type_id":"4","last_reported":1767063255,"current_range_meters":11600,"station_id":"ce4bhnp2rcd13ifvqh0g","pricing_plan_id":"cebpf4jnsgd1na2vs0mg"},{"bike_id":"4ab6ecb6-99c2-4e52-bc1c-e83afebb2f86","system_id":"levelo_inurba_marseille","lat":43.27947,"lon":5.391129,"is_reserved":false,"is_disabled":false,"rental_uris":{"android":"levelo://app?vid=4ab6ecb6-99c2-4e52-bc1c-e83afebb2f86","ios":"levelo://app?vid=4ab6ecb6-99c2-4e52-bc1c-e83afebb2f86"},"vehicle_type_id":"4","last_reported":1767063255,"current_range_meters":11600,"station_id":"ce4bhjp2rcd13ifvqga0","pricing_plan_id":"cebpf4jnsgd1na2vs0mg"},{"bike_id":"d0eac433-eb95-429f-992d-0ee094d7908b","system_id":"levelo_inurba_marseille","lat":43.290367,"lon":5.375583,"is_reserved":false,"is_disabled":false,"rental_uris":{"android":"levelo://app?vid=d0eac433-eb95-429f-992d-0ee094d7908b","ios":"levelo://app?vid=d0eac433-eb95-429f-992d-0ee094d7908b"},"vehicle_type_id":"4","last_reported":1767063255,"current_range_meters":11600,"station_id":"","pricing_plan_id":"cebpf4jnsgd1na2vs0mg"},{"bike_id":"1f986bde-e823-4547-a8eb-43be952db802","system_id":"levelo_inurba_marseille","lat":43.29442,"lon":5.37288,"is_reserved":false,"is_disabled":false,"rental_uris":{"android":"levelo://app?vid=1f986bde-e823-4547-a8eb-43be952db802","ios":"levelo://app?vid=1f986bde-e823-4547-a8eb-43be952db802"},"vehicle_type_id":"4","last_reported":1767063255,"current_range_meters":11600,"station_id":"","pricing_plan_id":"cebpf4jnsgd1na2vs0mg"},{"bike_id":"c31d27c0-c7d7-477e-b4af-74f6f0e86775","system_id":"levelo_inurba_marseille","lat":43.26554,"lon":5.37293,"is_reserved":false,"is_disabled":false,"rental_uris":{"android":"levelo://app?vid=c31d27c0-c7d7-477e-b4af-74f6f0e86775","ios":"levelo://app?vid=c31d27c0-c7d7-477e-b4af-74f6f0e86775"},"vehicle_type_id":"4","last_reported":1767063255,"current_range_meters":11600,"station_id":"ce4bhg12rcd13ifvqf70","pricing_plan_id":"cebpf4jnsgd1na2vs0mg"},{"bike_id":"ca871f30-0b0c-4661-97a2-3a92a33862a8","system_id":"levelo_inurba_marseille","lat":43.29359,"lon":5.37202,"is_reserved":false,"is_disabled":false,"rental_uris":{"android":"levelo://app?vid=ca871f30-0b0c-4661-97a2-3a92a33862a8","ios":"levelo://app?vid=ca871f30-0b0c-4661-97a2-3a92a33862a8"},"vehicle_type_id":"4","last_reported":1767063255,"current_range_meters":11600,"station_id":"","pricing_plan_id":"cebpf4jnsgd1na2vs0mg"},{"bike_id":"2703b803-944c-4f90-b5fc-f9ddd565456b","system_id":"levelo_inurba_marseille","lat":43.27919,"lon":5.39598,"is_reserved":false,"is_disabled":true,"rental_uris":{"android":"levelo://app?vid=2703b803-944c-4f90-b5fc-f9ddd565456b","ios":"levelo://app?vid=2703b803-944c-4f90-b5fc-f9ddd565456b"},"vehicle_type_id":"4","last_reported":1767063255,"current_range_meters":12000,"station_id":"ce4bhf92rcd13ifvqf40","pricing_plan_id":"cebpf4jnsgd1na2vs0mg"},{"bike_id":"1976f061-e064-45cd-9d75-48c90f29fe4d","system_id":"levelo_inurba_marseille","lat":43.28435,"lon":5.35,"is_reserved":false,"is_disabled":false,"rental_uris":{"android":"levelo://app?vid=1976f061-e064-45cd-9d75-48c90f29fe4d","ios":"levelo://app?vid=1976f061-e064-45cd-9d75-48c90f29fe4d"},"vehicle_type_id":"4","last_reported":1767063255,"current_range_meters":12000,"station_id":"ce4bhbh2rcd13ifvqepg","pricing_plan_id":"cebpf4jnsgd1na2vs0mg"},{"bike_id":"b05640fc-cf78-4e6b-bafb-c8aa2abc6f80","system_id":"levelo_inurba_marseille","lat":43.273975,"lon":5.390468,"is_reserved":false,"is_disabled":false,"rental_uris":{"android":"levelo://app?vid=b05640fc-cf78-4e6b-bafb-c8aa2abc6f80","ios":"levelo://app?vid=b05640fc-cf78-4e6b-bafb-c8aa2abc6f80"},"vehicle_type_id":"4","last_reported":1767063255,"current_range_meters":12000,"station_id":"","pricing_plan_id":"cebpf4jnsgd1na2vs0mg"},{"bike_id":"9152dc23-aabb-4dc0-8225-d34b5a4f8b0e","system_id":"levelo_inurba_marseille","lat":43.24661,"lon":5.38897,"is_reserved":false,"is_disabled":false,"rental_uris":{"android":"levelo://app?vid=9152dc23-aabb-4dc0-8225-d34b5a4f8b0e","ios":"levelo://app?vid=9152dc23-aabb-4dc0-8225-d34b5a4f8b0e"},"vehicle_type_id":"4","last_reported":1767063255,"current_range_meters":12000,"station_id":"ce4bhg12rcd13ifvqf60","pricing_plan_id":"cebpf4jnsgd1na2vs0mg"},{"bike_id":"00c547d9-5665-44b9-a5f7-ee3b68efb407","system_id":"levelo_inurba_marseille","lat":43.30582,"lon":5.39349,"is_reserved":false,"is_disabled":false,"rental_uris":{"android":"levelo://app?vid=00c547d9-5665-44b9-a5f7-ee3b68efb407","ios":"levelo://app?vid=00c547d9-5665-44b9-a5f7-ee3b68efb407"},"vehicle_type_id":"4","last_reported":1767063255,"current_range_meters":12000,"station_id":"ce4bh0p2rcd13ifvqd80","pricing_plan_id":"cebpf4jnsgd1na2vs0mg"},{"bike_id":"01cbb8d5-170b-46a8-8e8e-7d25f92ca46d","system_id":"levelo_inurba_marseille","lat":43.29291,"lon":5.37144,"is_reserved":false,"is_disabled":false,"rental_uris":{"android":"levelo://app?vid=01cbb8d5-170b-46a8-8e8e-7d25f92ca46d","ios":"levelo://app?vid=01cbb8d5-170b-46a8-8e8e-7d25f92ca46d"},"vehicle_type_id":"4","last_reported":1767063255,"current_range_meters":12400,"station_id":"ce4bgh92rcd13ifvqb40","pricing_plan_id":"cebpf4jnsgd1na2vs0mg"},{"bike_id":"3ec10031-fc4a-4ca1-9a2d-ec4ad8826e98","system_id":"levelo_inurba_marseille","lat":43.28725,"lon":5.36091,"is_reserved":false,"is_disabled":false,"rental_uris":{"android":"levelo://app?vid=3ec10031-fc4a-4ca1-9a2d-ec4ad8826e98","ios":"levelo://app?vid=3ec10031-fc4a-4ca1-9a2d-ec4ad8826e98"},"vehicle_type_id":"4","last_reported":1767063255,"current_range_meters":12400,"station_id":"cki0cbj6b192h4jlfktg","pricing_plan_id":"cebpf4jnsgd1na2vs0mg"},{"bike_id":"dbe09716-f079-4c70-a408-7e3d3011c76c","system_id":"levelo_inurba_marseille","lat":43.27414,"lon":5.39408,"is_reserved":false,"is_disabled":true,"rental_uris":{"android":"levelo://app?vid=dbe09716-f079-4c70-a408-7e3d3011c76c","ios":"levelo://app?vid=dbe09716-f079-4c70-a408-7e3d3011c76c"},"vehicle_type_id":"4","last_reported":1767063255,"current_range_meters":12400,"station_id":"ce4bhdp2rcd13ifvqf20","pricing_plan_id":"cebpf4jnsgd1na2vs0mg"},{"bike_id":"23904288-d8db-496e-ac4f-fe2e23c85d61","system_id":"levelo_inurba_marseille","lat":43.299546,"lon":5.376177,"is_reserved":false,"is_disabled":false,"rental_uris":{"android":"levelo://app?vid=23904288-d8db-496e-ac4f-fe2e23c85d61","ios":"levelo://app?vid=23904288-d8db-496e-ac4f-fe2e23c85d61"},"vehicle_type_id":"4","last_reported":1767063255,"current_range_meters":12400,"station_id":"","pricing_plan_id":"cebpf4jnsgd1na2vs0mg"},{"bike_id":"19acd174-21ed-4f5f-909e-79c5e91514cf","system_id":"levelo_inurba_marseille","lat":43.243941,"lon":5.370687,"is_reserved":false,"is_disabled":false,"rental_uris":{"android":"levelo://app?vid=19acd174-21ed-4f5f-909e-79c5e91514cf","ios":"levelo://app?vid=19acd174-21ed-4f5f-909e-79c5e91514cf"},"vehicle_type_id":"4","last_reported":1767063255,"current_range_meters":12400,"station_id":"ce4bhhh2rcd13ifvqfk0","pricing_plan_id":"cebpf4jnsgd1na2vs0mg"},{"bike_id":"bf6369b9-a462-42a4-9878-d7395b7dd88e","system_id":"levelo_inurba_marseille","lat":43.29828,"lon":5.38112,"is_reserved":false,"is_disabled":false,"rental_uris":{"android":"levelo://app?vid=bf6369b9-a462-42a4-9878-d7395b7dd88e","ios":"levelo://app?vid=bf6369b9-a462-42a4-9878-d7395b7dd88e"},"vehicle_type_id":"4","last_reported":1767063255,"current_range_meters":12400,"station_id":"ce4bgip2rcd13ifvqbb0","pricing_plan_id":"cebpf4jnsgd1na2vs0mg"},{"bike_id":"8ba64fa1-2d6b-4b8a-88fe-3f82a74282f8","system_id":"levelo_inurba_marseille","lat":43.297825,"lon":5.393449,"is_reserved":false,"is_disabled":false,"rental_uris":{"android":"levelo://app?vid=8ba64fa1-2d6b-4b8a-88fe-3f82a74282f8","ios":"levelo://app?vid=8ba64fa1-2d6b-4b8a-88fe-3f82a74282f8"},"vehicle_type_id":"4","last_reported":1767063255,"current_range_meters":12400,"station_id":"chh1huq6cuj3fo74tm60","pricing_plan_id":"cebpf4jnsgd1na2vs0mg"},{"bike_id":"5ce02ee5-0a83-4c6d-9413-c8b35717ff55","system_id":"levelo_inurba_marseille","lat":43.29604,"lon":5.36721,"is_reserved":false,"is_disabled":false,"rental_uris":{"android":"levelo://app?vid=5ce02ee5-0a83-4c6d-9413-c8b35717ff55","ios":"levelo://app?vid=5ce02ee5-0a83-4c6d-9413-c8b35717ff55"},"vehicle_type_id":"4","last_reported":1767063255,"current_range_meters":12400,"station_id":"ce4bgph2rcd13ifvqc2g","pricing_plan_id":"cebpf4jnsgd1na2vs0mg"},{"bike_id":"9a2077a2-cebc-468c-82f9-fecda68a9ec3","system_id":"levelo_inurba_marseille","lat":43.29459,"lon":5.40891,"is_reserved":false,"is_disabled":false,"rental_uris":{"android":"levelo://app?vid=9a2077a2-cebc-468c-82f9-fecda68a9ec3","ios":"levelo://app?vid=9a2077a2-cebc-468c-82f9-fecda68a9ec3"},"vehicle_type_id":"4","last_reported":1767063255,"current_range_meters":12400,"station_id":"","pricing_plan_id":"cebpf4jnsgd1na2vs0mg"},{"bike_id":"833f4943-80a3-4386-a7a8-645bc9b306ca","system_id":"levelo_inurba_marseille","lat":43.27629,"lon":5.36108,"is_reserved":false,"is_disabled":false,"rental_uris":{"android":"levelo://app?vid=833f4943-80a3-4386-a7a8-645bc9b306ca","ios":"levelo://app?vid=833f4943-80a3-4386-a7a8-645bc9b306ca"},"vehicle_type_id":"4","last_reported":1767063255,"current_range_meters":12800,"station_id":"ce4bgj92rcd13ifvqbe0","pricing_plan_id":"cebpf4jnsgd1na2vs0mg"},{"bike_id":"c8c35a9a-4fd2-4128-bd87-390adcb17d7d","system_id":"levelo_inurba_marseille","lat":43.3205,"lon":5.415416,"is_reserved":false,"is_disabled":false,"rental_uris":{"android":"levelo://app?vid=c8c35a9a-4fd2-4128-bd87-390adcb17d7d","ios":"levelo://app?vid=c8c35a9a-4fd2-4128-bd87-390adcb17d7d"},"vehicle_type_id":"4","last_reported":1767063255,"current_range_meters":12800,"station_id":"ce4bhq92rcd13ifvqhkg","pricing_plan_id":"cebpf4jnsgd1na2vs0mg"},{"bike_id":"256b0fae-cb64-466e-ae51-c270151a2991","system_id":"levelo_inurba_marseille","lat":43.288561,"lon":5.358338,"is_reserved":false,"is_disabled":false,"rental_uris":{"android":"levelo://app?vid=256b0fae-cb64-466e-ae51-c270151a2991","ios":"levelo://app?vid=256b0fae-cb64-466e-ae51-c270151a2991"},"vehicle_type_id":"4","last_reported":1767063255,"current_range_meters":12800,"station_id":"ce4bhb12rcd13ifvqem0","pricing_plan_id":"cebpf4jnsgd1na2vs0mg"},{"bike_id":"da897b33-268f-4873-a28c-c746964c1e3b","system_id":"levelo_inurba_marseille","lat":43.23189,"lon":5.39984,"is_reserved":false,"is_disabled":false,"rental_uris":{"android":"levelo://app?vid=da897b33-268f-4873-a28c-c746964c1e3b","ios":"levelo://app?vid=da897b33-268f-4873-a28c-c746964c1e3b"},"vehicle_type_id":"4","last_reported":1767063255,"current_range_meters":12800,"station_id":"ce4bhn12rcd13ifvqgqg","pricing_plan_id":"cebpf4jnsgd1na2vs0mg"},{"bike_id":"92ec748d-d331-48c6-a4f4-43a2be28c6b2","system_id":"levelo_inurba_marseille","lat":43.30728,"lon":5.42452,"is_reserved":false,"is_disabled":false,"rental_uris":{"android":"levelo://app?vid=92ec748d-d331-48c6-a4f4-43a2be28c6b2","ios":"levelo://app?vid=92ec748d-d331-48c6-a4f4-43a2be28c6b2"},"vehicle_type_id":"4","last_reported":1767063255,"current_range_meters":13600,"station_id":"st_cvj6ca6bvosntc0bfgr0","pricing_plan_id":"cebpf4jnsgd1na2vs0mg"},{"bike_id":"0905c6d5-0c3a-49d1-8f23-6c4743792616","system_id":"levelo_inurba_marseille","lat":43.27967,"lon":5.40032,"is_reserved":false,"is_disabled":false,"rental_uris":{"android":"levelo://app?vid=0905c6d5-0c3a-49d1-8f23-6c4743792616","ios":"levelo://app?vid=0905c6d5-0c3a-49d1-8f23-6c4743792616"},"vehicle_type_id":"4","last_reported":1767063255,"current_range_meters":13600,"station_id":"ce4bho92rcd13ifvqh4g","pricing_plan_id":"cebpf4jnsgd1na2vs0mg"},{"bike_id":"3400d737-a32e-4dca-a00a-47ca201c9735","system_id":"levelo_inurba_marseille","lat":43.2954,"lon":5.42289,"is_reserved":false,"is_disabled":true,"rental_uris":{"android":"levelo://app?vid=3400d737-a32e-4dca-a00a-47ca201c9735","ios":"levelo://app?vid=3400d737-a32e-4dca-a00a-47ca201c9735"},"vehicle_type_id":"4","last_reported":1767063255,"current_range_meters":13600,"station_id":"ce4bhph2rcd13ifvqhdg","pricing_plan_id":"cebpf4jnsgd1na2vs0mg"},{"bike_id":"fd730288-95bc-4682-8dc4-a5ea5fa11f2b","system_id":"levelo_inurba_marseille","lat":43.3248,"lon":5.41452,"is_reserved":false,"is_disabled":false,"rental_uris":{"android":"levelo://app?vid=fd730288-95bc-4682-8dc4-a5ea5fa11f2b","ios":"levelo://app?vid=fd730288-95bc-4682-8dc4-a5ea5fa11f2b"},"vehicle_type_id":"4","last_reported":1767063255,"current_range_meters":13600,"station_id":"ce4bhq12rcd13ifvqhhg","pricing_plan_id":"cebpf4jnsgd1na2vs0mg"},{"bike_id":"3a6694e6-51f3-4fa5-924d-19a8a09757cc","system_id":"levelo_inurba_marseille","lat":43.31646,"lon":5.37347,"is_reserved":false,"is_disabled":false,"rental_uris":{"android":"levelo://app?vid=3a6694e6-51f3-4fa5-924d-19a8a09757cc","ios":"levelo://app?vid=3a6694e6-51f3-4fa5-924d-19a8a09757cc"},"vehicle_type_id":"4","last_reported":1767063255,"current_range_meters":14000,"station_id":"","pricing_plan_id":"cebpf4jnsgd1na2vs0mg"},{"bike_id":"dce28840-1b59-4930-917a-12d88071d00f","system_id":"levelo_inurba_marseille","lat":43.28549,"lon":5.44097,"is_reserved":false,"is_disabled":false,"rental_uris":{"android":"levelo://app?vid=dce28840-1b59-4930-917a-12d88071d00f","ios":"levelo://app?vid=dce28840-1b59-4930-917a-12d88071d00f"},"vehicle_type_id":"4","last_reported":1767063255,"current_range_meters":14000,"station_id":"st_d3j3df2ikq2c7380ej80","pricing_plan_id":"cebpf4jnsgd1na2vs0mg"},{"bike_id":"df59638d-d2ce-46c9-8792-19c18967ee40","system_id":"levelo_inurba_marseille","lat":43.237857,"lon":5.366295,"is_reserved":false,"is_disabled":false,"rental_uris":{"android":"levelo://app?vid=df59638d-d2ce-46c9-8792-19c18967ee40","ios":"levelo://app?vid=df59638d-d2ce-46c9-8792-19c18967ee40"},"vehicle_type_id":"4","last_reported":1767063255,"current_range_meters":14000,"station_id":"st_d3nk18o9ro0c73en2l3g","pricing_plan_id":"cebpf4jnsgd1na2vs0mg"},{"bike_id":"d4834f7c-8cec-4643-b38e-33ed31e9b71c","system_id":"levelo_inurba_marseille","lat":43.29563,"lon":5.37867,"is_reserved":false,"is_disabled":false,"rental_uris":{"android":"levelo://app?vid=d4834f7c-8cec-4643-b38e-33ed31e9b71c","ios":"levelo://app?vid=d4834f7c-8cec-4643-b38e-33ed31e9b71c"},"vehicle_type_id":"4","last_reported":1767063255,"current_range_meters":14000,"station_id":"","pricing_plan_id":"cebpf4jnsgd1na2vs0mg"},{"bike_id":"b951b24e-9db0-41ad-a6d6-73e46519c168","system_id":"levelo_inurba_marseille","lat":43.273821,"lon":5.362488,"is_reserved":false,"is_disabled":false,"rental_uris":{"android":"levelo://app?vid=b951b24e-9db0-41ad-a6d6-73e46519c168","ios":"levelo://app?vid=b951b24e-9db0-41ad-a6d6-73e46519c168"},"vehicle_type_id":"4","last_reported":1767063255,"current_range_meters":14000,"station_id":"ce4bhbh2rcd13ifvqeo0","pricing_plan_id":"cebpf4jnsgd1na2vs0mg"},{"bike_id":"8fccad20-fd23-4863-809f-c99bd7559390","system_id":"levelo_inurba_marseille","lat":43.311226,"lon":5.377628,"is_reserved":false,"is_disabled":false,"rental_uris":{"android":"levelo://app?vid=8fccad20-fd23-4863-809f-c99bd7559390","ios":"levelo://app?vid=8fccad20-fd23-4863-809f-c99bd7559390"},"vehicle_type_id":"4","last_reported":1767063255,"current_range_meters":14000,"station_id":"ce4bgt92rcd13ifvqcg0","pricing_plan_id":"cebpf4jnsgd1na2vs0mg"},{"bike_id":"1143eabc-e91b-41a6-8eaf-ee9abccf572b","system_id":"levelo_inurba_marseille","lat":43.31416,"lon":5.37501,"is_reserved":false,"is_disabled":false,"rental_uris":{"android":"levelo://app?vid=1143eabc-e91b-41a6-8eaf-ee9abccf572b","ios":"levelo://app?vid=1143eabc-e91b-41a6-8eaf-ee9abccf572b"},"vehicle_type_id":"4","last_reported":1767063255,"current_range_meters":14000,"station_id":"","pricing_plan_id":"cebpf4jnsgd1na2vs0mg"},{"bike_id":"5a0260e2-0834-48c1-8c5d-e32bb2a0d80f","system_id":"levelo_inurba_marseille","lat":43.33534,"lon":5.37465,"is_reserved":false,"is_disabled":false,"rental_uris":{"android":"levelo://app?vid=5a0260e2-0834-48c1-8c5d-e32bb2a0d80f","ios":"levelo://app?vid=5a0260e2-0834-48c1-8c5d-e32bb2a0d80f"},"vehicle_type_id":"4","last_reported":1767063255,"current_range_meters":14000,"station_id":"st_d46tts09ee8s73dlu43g","pricing_plan_id":"cebpf4jnsgd1na2vs0mg"},{"bike_id":"ea654126-b261-4e17-b27a-46816b405b40","system_id":"levelo_inurba_marseille","lat":43.2693,"lon":5.38919,"is_reserved":false,"is_disabled":false,"rental_uris":{"android":"levelo://app?vid=ea654126-b261-4e17-b27a-46816b405b40","ios":"levelo://app?vid=ea654126-b261-4e17-b27a-46816b405b40"},"vehicle_type_id":"4","last_reported":1767063255,"current_range_meters":14400,"station_id":"ce4bhhh2rcd13ifvqfl0","pricing_plan_id":"cebpf4jnsgd1na2vs0mg"},{"bike_id":"fc098e36-5b6c-4f3d-8731-bca1118ada11","system_id":"levelo_inurba_marseille","lat":43.2992,"lon":5.38115,"is_reserved":false,"is_disabled":false,"rental_uris":{"android":"levelo://app?vid=fc098e36-5b6c-4f3d-8731-bca1118ada11","ios":"levelo://app?vid=fc098e36-5b6c-4f3d-8731-bca1118ada11"},"vehicle_type_id":"4","last_reported":1767063255,"current_range_meters":14400,"station_id":"ce4bgj12rcd13ifvqbc0","pricing_plan_id":"cebpf4jnsgd1na2vs0mg"},{"bike_id":"70f6a0cb-9ffb-41a6-b3ba-dcf2720c504b","system_id":"levelo_inurba_marseille","lat":43.31104,"lon":5.3777,"is_reserved":false,"is_disabled":false,"rental_uris":{"android":"levelo://app?vid=70f6a0cb-9ffb-41a6-b3ba-dcf2720c504b","ios":"levelo://app?vid=70f6a0cb-9ffb-41a6-b3ba-dcf2720c504b"},"vehicle_type_id":"4","last_reported":1767063255,"current_range_meters":14400,"station_id":"ce4bgt92rcd13ifvqcg0","pricing_plan_id":"cebpf4jnsgd1na2vs0mg"},{"bike_id":"3f577dd2-4a41-477b-9eb0-e31dacf60ee3","system_id":"levelo_inurba_marseille","lat":43.3207,"lon":5.41526,"is_reserved":false,"is_disabled":false,"rental_uris":{"android":"levelo://app?vid=3f577dd2-4a41-477b-9eb0-e31dacf60ee3","ios":"levelo://app?vid=3f577dd2-4a41-477b-9eb0-e31dacf60ee3"},"vehicle_type_id":"4","last_reported":1767063255,"current_range_meters":14400,"station_id":"ce4bhq92rcd13ifvqhkg","pricing_plan_id":"cebpf4jnsgd1na2vs0mg"},{"bike_id":"e068a5f6-4e95-441a-b414-8f3f8b0cd33a","system_id":"levelo_inurba_marseille","lat":43.30152,"lon":5.38785,"is_reserved":false,"is_disabled":false,"rental_uris":{"android":"levelo://app?vid=e068a5f6-4e95-441a-b414-8f3f8b0cd33a","ios":"levelo://app?vid=e068a5f6-4e95-441a-b414-8f3f8b0cd33a"},"vehicle_type_id":"4","last_reported":1767063255,"current_range_meters":14400,"station_id":"ce4bghh2rcd13ifvqb60","pricing_plan_id":"cebpf4jnsgd1na2vs0mg"},{"bike_id":"003bdecd-43ef-4d1e-8dba-4deefbb1f83e","system_id":"levelo_inurba_marseille","lat":43.29393,"lon":5.41315,"is_reserved":false,"is_disabled":false,"rental_uris":{"android":"levelo://app?vid=003bdecd-43ef-4d1e-8dba-4deefbb1f83e","ios":"levelo://app?vid=003bdecd-43ef-4d1e-8dba-4deefbb1f83e"},"vehicle_type_id":"4","last_reported":1767063255,"current_range_meters":14400,"station_id":"","pricing_plan_id":"cebpf4jnsgd1na2vs0mg"},{"bike_id":"0f0fc6ed-82de-439d-993e-666cb650fe34","system_id":"levelo_inurba_marseille","lat":43.2378,"lon":5.36628,"is_reserved":false,"is_disabled":false,"rental_uris":{"android":"levelo://app?vid=0f0fc6ed-82de-439d-993e-666cb650fe34","ios":"levelo://app?vid=0f0fc6ed-82de-439d-993e-666cb650fe34"},"vehicle_type_id":"4","last_reported":1767063255,"current_range_meters":14400,"station_id":"st_d3nk18o9ro0c73en2l3g","pricing_plan_id":"cebpf4jnsgd1na2vs0mg"},{"bike_id":"43a10900-7ea0-4244-bfef-c328333be543","system_id":"levelo_inurba_marseille","lat":43.262223,"lon":5.404606,"is_reserved":false,"is_disabled":true,"rental_uris":{"android":"levelo://app?vid=43a10900-7ea0-4244-bfef-c328333be543","ios":"levelo://app?vid=43a10900-7ea0-4244-bfef-c328333be543"},"vehicle_type_id":"4","last_reported":1767063255,"current_range_meters":14400,"station_id":"ce4bhmh2rcd13ifvqgmg","pricing_plan_id":"cebpf4jnsgd1na2vs0mg"},{"bike_id":"b0fecc2b-ec8f-4434-ba08-eaae921361a2","system_id":"levelo_inurba_marseille","lat":43.24527,"lon":5.40475,"is_reserved":false,"is_disabled":false,"rental_uris":{"android":"levelo://app?vid=b0fecc2b-ec8f-4434-ba08-eaae921361a2","ios":"levelo://app?vid=b0fecc2b-ec8f-4434-ba08-eaae921361a2"},"vehicle_type_id":"4","last_reported":1767063255,"current_range_meters":14400,"station_id":"","pricing_plan_id":"cebpf4jnsgd1na2vs0mg"},{"bike_id":"6dd6d7de-0746-4ddc-be8f-e1ab3378009e","system_id":"levelo_inurba_marseille","lat":43.2417,"lon":5.36397,"is_reserved":false,"is_disabled":true,"rental_uris":{"android":"levelo://app?vid=6dd6d7de-0746-4ddc-be8f-e1ab3378009e","ios":"levelo://app?vid=6dd6d7de-0746-4ddc-be8f-e1ab3378009e"},"vehicle_type_id":"4","last_reported":1767063255,"current_range_meters":14400,"station_id":"cpo36qri1sfpv3e86is0","pricing_plan_id":"cebpf4jnsgd1na2vs0mg"},{"bike_id":"3fddbb28-2edc-47a2-af05-9d61c64ff251","system_id":"levelo_inurba_marseille","lat":43.3314,"lon":5.37681,"is_reserved":false,"is_disabled":false,"rental_uris":{"android":"levelo://app?vid=3fddbb28-2edc-47a2-af05-9d61c64ff251","ios":"levelo://app?vid=3fddbb28-2edc-47a2-af05-9d61c64ff251"},"vehicle_type_id":"4","last_reported":1767063255,"current_range_meters":14400,"station_id":"st_d46cu089ee8s73dldbu0","pricing_plan_id":"cebpf4jnsgd1na2vs0mg"},{"bike_id":"92cb6e37-1028-4bd9-bcc3-2dec10fdeee8","system_id":"levelo_inurba_marseille","lat":43.31072,"lon":5.38342,"is_reserved":false,"is_disabled":false,"rental_uris":{"android":"levelo://app?vid=92cb6e37-1028-4bd9-bcc3-2dec10fdeee8","ios":"levelo://app?vid=92cb6e37-1028-4bd9-bcc3-2dec10fdeee8"},"vehicle_type_id":"4","last_reported":1767063255,"current_range_meters":14400,"station_id":"ce4bgv92rcd13ifvqcr0","pricing_plan_id":"cebpf4jnsgd1na2vs0mg"},{"bike_id":"3ae180a1-ad81-4fbd-8d8e-5122c1af76f4","system_id":"levelo_inurba_marseille","lat":43.337444,"lon":5.374475,"is_reserved":false,"is_disabled":false,"rental_uris":{"android":"levelo://app?vid=3ae180a1-ad81-4fbd-8d8e-5122c1af76f4","ios":"levelo://app?vid=3ae180a1-ad81-4fbd-8d8e-5122c1af76f4"},"vehicle_type_id":"4","last_reported":1767063255,"current_range_meters":14400,"station_id":"","pricing_plan_id":"cebpf4jnsgd1na2vs0mg"},{"bike_id":"ef7c300f-026c-4b02-8b75-5e5de9a9946e","system_id":"levelo_inurba_marseille","lat":43.29899,"lon":5.37473,"is_reserved":false,"is_disabled":false,"rental_uris":{"android":"levelo://app?vid=ef7c300f-026c-4b02-8b75-5e5de9a9946e","ios":"levelo://app?vid=ef7c300f-026c-4b02-8b75-5e5de9a9946e"},"vehicle_type_id":"4","last_reported":1767063255,"current_range_meters":14400,"station_id":"ce4bgjh2rcd13ifvqbg0","pricing_plan_id":"cebpf4jnsgd1na2vs0mg"},{"bike_id":"687c1be0-d952-4671-a832-8ad6803751f6","system_id":"levelo_inurba_marseille","lat":43.24636,"lon":5.43142,"is_reserved":false,"is_disabled":false,"rental_uris":{"android":"levelo://app?vid=687c1be0-d952-4671-a832-8ad6803751f6","ios":"levelo://app?vid=687c1be0-d952-4671-a832-8ad6803751f6"},"vehicle_type_id":"4","last_reported":1767063255,"current_range_meters":14800,"station_id":"st_d2m6c4gdas8pm72e190g","pricing_plan_id":"cebpf4jnsgd1na2vs0mg"},{"bike_id":"433bf41e-f481-45b2-a1d2-4e8be2c7cb48","system_id":"levelo_inurba_marseille","lat":43.23207,"lon":5.35548,"is_reserved":false,"is_disabled":false,"rental_uris":{"android":"levelo://app?vid=433bf41e-f481-45b2-a1d2-4e8be2c7cb48","ios":"levelo://app?vid=433bf41e-f481-45b2-a1d2-4e8be2c7cb48"},"vehicle_type_id":"4","last_reported":1767063255,"current_range_meters":14800,"station_id":"ce4bhu92rcd13ifvqi70","pricing_plan_id":"cebpf4jnsgd1na2vs0mg"},{"bike_id":"542b2ba6-9fa8-48fd-b661-4556081d0be1","system_id":"levelo_inurba_marseille","lat":43.309061,"lon":5.368407,"is_reserved":false,"is_disabled":true,"rental_uris":{"android":"levelo://app?vid=542b2ba6-9fa8-48fd-b661-4556081d0be1","ios":"levelo://app?vid=542b2ba6-9fa8-48fd-b661-4556081d0be1"},"vehicle_type_id":"4","last_reported":1767063255,"current_range_meters":14800,"station_id":"ce4bgn92rcd13ifvqbvg","pricing_plan_id":"cebpf4jnsgd1na2vs0mg"},{"bike_id":"d70dbd93-8aed-4fe7-814e-589eb06f36b9","system_id":"levelo_inurba_marseille","lat":43.299099,"lon":5.374599,"is_reserved":false,"is_disabled":false,"rental_uris":{"android":"levelo://app?vid=d70dbd93-8aed-4fe7-814e-589eb06f36b9","ios":"levelo://app?vid=d70dbd93-8aed-4fe7-814e-589eb06f36b9"},"vehicle_type_id":"4","last_reported":1767063255,"current_range_meters":14800,"station_id":"ce4bgjh2rcd13ifvqbg0","pricing_plan_id":"cebpf4jnsgd1na2vs0mg"},{"bike_id":"7aacef8e-0a10-4619-9d7f-d7b45880c8f3","system_id":"levelo_inurba_marseille","lat":43.296,"lon":5.3773,"is_reserved":false,"is_disabled":false,"rental_uris":{"android":"levelo://app?vid=7aacef8e-0a10-4619-9d7f-d7b45880c8f3","ios":"levelo://app?vid=7aacef8e-0a10-4619-9d7f-d7b45880c8f3"},"vehicle_type_id":"4","last_reported":1767063255,"current_range_meters":14800,"station_id":"ce4bgi92rcd13ifvqb90","pricing_plan_id":"cebpf4jnsgd1na2vs0mg"},{"bike_id":"dacc1bc0-eec9-4219-9225-c37f13cfc222","system_id":"levelo_inurba_marseille","lat":43.285406,"lon":5.441021,"is_reserved":false,"is_disabled":false,"rental_uris":{"android":"levelo://app?vid=dacc1bc0-eec9-4219-9225-c37f13cfc222","ios":"levelo://app?vid=dacc1bc0-eec9-4219-9225-c37f13cfc222"},"vehicle_type_id":"4","last_reported":1767063255,"current_range_meters":14800,"station_id":"st_d3j3df2ikq2c7380ej80","pricing_plan_id":"cebpf4jnsgd1na2vs0mg"},{"bike_id":"9ea554ce-909a-4d1c-9d2f-97d48170b2f8","system_id":"levelo_inurba_marseille","lat":43.295548,"lon":5.422795,"is_reserved":false,"is_disabled":true,"rental_uris":{"android":"levelo://app?vid=9ea554ce-909a-4d1c-9d2f-97d48170b2f8","ios":"levelo://app?vid=9ea554ce-909a-4d1c-9d2f-97d48170b2f8"},"vehicle_type_id":"4","last_reported":1767063255,"current_range_meters":15200,"station_id":"ce4bhph2rcd13ifvqhdg","pricing_plan_id":"cebpf4jnsgd1na2vs0mg"},{"bike_id":"3c8b8591-858b-4503-8f72-d268b14f0a29","system_id":"levelo_inurba_marseille","lat":43.27807,"lon":5.40727,"is_reserved":false,"is_disabled":false,"rental_uris":{"android":"levelo://app?vid=3c8b8591-858b-4503-8f72-d268b14f0a29","ios":"levelo://app?vid=3c8b8591-858b-4503-8f72-d268b14f0a29"},"vehicle_type_id":"4","last_reported":1767063255,"current_range_meters":15200,"station_id":"ce4bhnh2rcd13ifvqgtg","pricing_plan_id":"cebpf4jnsgd1na2vs0mg"},{"bike_id":"13c6f779-0fa7-435d-8f91-e79ded009d19","system_id":"levelo_inurba_marseille","lat":43.29247,"lon":5.3687,"is_reserved":false,"is_disabled":false,"rental_uris":{"android":"levelo://app?vid=13c6f779-0fa7-435d-8f91-e79ded009d19","ios":"levelo://app?vid=13c6f779-0fa7-435d-8f91-e79ded009d19"},"vehicle_type_id":"4","last_reported":1767063255,"current_range_meters":15200,"station_id":"ce4bhbp2rcd13ifvqesg","pricing_plan_id":"cebpf4jnsgd1na2vs0mg"},{"bike_id":"82cce858-0c3e-43b4-99cd-6eb5b6d5dc02","system_id":"levelo_inurba_marseille","lat":43.321143,"lon":5.367755,"is_reserved":false,"is_disabled":false,"rental_uris":{"android":"levelo://app?vid=82cce858-0c3e-43b4-99cd-6eb5b6d5dc02","ios":"levelo://app?vid=82cce858-0c3e-43b4-99cd-6eb5b6d5dc02"},"vehicle_type_id":"4","last_reported":1767063255,"current_range_meters":15200,"station_id":"ce4bhrh2rcd13ifvqhug","pricing_plan_id":"cebpf4jnsgd1na2vs0mg"},{"bike_id":"49eaeb99-01db-4a25-87fd-cb6c87f1647c","system_id":"levelo_inurba_marseille","lat":43.301234,"lon":5.431132,"is_reserved":false,"is_disabled":false,"rental_uris":{"android":"levelo://app?vid=49eaeb99-01db-4a25-87fd-cb6c87f1647c","ios":"levelo://app?vid=49eaeb99-01db-4a25-87fd-cb6c87f1647c"},"vehicle_type_id":"4","last_reported":1767063255,"current_range_meters":15200,"station_id":"st_d3js3co5814s73ftftug","pricing_plan_id":"cebpf4jnsgd1na2vs0mg"},{"bike_id":"5454917d-4b71-45e5-8d52-19681e51d39b","system_id":"levelo_inurba_marseille","lat":43.31059,"lon":5.37158,"is_reserved":false,"is_disabled":false,"rental_uris":{"android":"levelo://app?vid=5454917d-4b71-45e5-8d52-19681e51d39b","ios":"levelo://app?vid=5454917d-4b71-45e5-8d52-19681e51d39b"},"vehicle_type_id":"4","last_reported":1767063255,"current_range_meters":15200,"station_id":"st_d4kl2rp97mjs73e7tdfg","pricing_plan_id":"cebpf4jnsgd1na2vs0mg"},{"bike_id":"4cd28149-bd26-4a0d-a9a6-6bcb45c5ce10","system_id":"levelo_inurba_marseille","lat":43.28076,"lon":5.39653,"is_reserved":false,"is_disabled":false,"rental_uris":{"android":"levelo://app?vid=4cd28149-bd26-4a0d-a9a6-6bcb45c5ce10","ios":"levelo://app?vid=4cd28149-bd26-4a0d-a9a6-6bcb45c5ce10"},"vehicle_type_id":"4","last_reported":1767063255,"current_range_meters":15200,"station_id":"ce4bho12rcd13ifvqh2g","pricing_plan_id":"cebpf4jnsgd1na2vs0mg"},{"bike_id":"e0a3bc4d-cf11-4b93-a049-9693529dd970","system_id":"levelo_inurba_marseille","lat":43.3139,"lon":5.39021,"is_reserved":false,"is_disabled":false,"rental_uris":{"android":"levelo://app?vid=e0a3bc4d-cf11-4b93-a049-9693529dd970","ios":"levelo://app?vid=e0a3bc4d-cf11-4b93-a049-9693529dd970"},"vehicle_type_id":"4","last_reported":1767063255,"current_range_meters":15200,"station_id":"","pricing_plan_id":"cebpf4jnsgd1na2vs0mg"},{"bike_id":"7daa3897-f110-40f4-9a3c-35b4d44b65c5","system_id":"levelo_inurba_marseille","lat":43.32153,"lon":5.36774,"is_reserved":false,"is_disabled":false,"rental_uris":{"android":"levelo://app?vid=7daa3897-f110-40f4-9a3c-35b4d44b65c5","ios":"levelo://app?vid=7daa3897-f110-40f4-9a3c-35b4d44b65c5"},"vehicle_type_id":"4","last_reported":1767063255,"current_range_meters":15200,"station_id":"ce4bhrh2rcd13ifvqhug","pricing_plan_id":"cebpf4jnsgd1na2vs0mg"},{"bike_id":"cf685c1c-23ca-4a3c-a02e-3d79ef675bfa","system_id":"levelo_inurba_marseille","lat":43.30313,"lon":5.40444,"is_reserved":false,"is_disabled":false,"rental_uris":{"android":"levelo://app?vid=cf685c1c-23ca-4a3c-a02e-3d79ef675bfa","ios":"levelo://app?vid=cf685c1c-23ca-4a3c-a02e-3d79ef675bfa"},"vehicle_type_id":"4","last_reported":1767063255,"current_range_meters":15200,"station_id":"ce4bh012rcd13ifvqd10","pricing_plan_id":"cebpf4jnsgd1na2vs0mg"},{"bike_id":"377fb381-ff5d-414a-8e70-af1d1693b2b9","system_id":"levelo_inurba_marseille","lat":43.29773,"lon":5.40429,"is_reserved":false,"is_disabled":true,"rental_uris":{"android":"levelo://app?vid=377fb381-ff5d-414a-8e70-af1d1693b2b9","ios":"levelo://app?vid=377fb381-ff5d-414a-8e70-af1d1693b2b9"},"vehicle_type_id":"4","last_reported":1767063255,"current_range_meters":15200,"station_id":"ce4bh112rcd13ifvqd90","pricing_plan_id":"cebpf4jnsgd1na2vs0mg"},{"bike_id":"f9defe05-4ff2-4d1f-b650-c0894d9ee537","system_id":"levelo_inurba_marseille","lat":43.28529,"lon":5.44101,"is_reserved":false,"is_disabled":false,"rental_uris":{"android":"levelo://app?vid=f9defe05-4ff2-4d1f-b650-c0894d9ee537","ios":"levelo://app?vid=f9defe05-4ff2-4d1f-b650-c0894d9ee537"},"vehicle_type_id":"4","last_reported":1767063255,"current_range_meters":16000,"station_id":"st_d3j3df2ikq2c7380ej80","pricing_plan_id":"cebpf4jnsgd1na2vs0mg"},{"bike_id":"41889c44-729d-4644-8c53-58cdd953472b","system_id":"levelo_inurba_marseille","lat":43.29534,"lon":5.38554,"is_reserved":false,"is_disabled":false,"rental_uris":{"android":"levelo://app?vid=41889c44-729d-4644-8c53-58cdd953472b","ios":"levelo://app?vid=41889c44-729d-4644-8c53-58cdd953472b"},"vehicle_type_id":"4","last_reported":1767063255,"current_range_meters":16000,"station_id":"ce4bgih2rcd13ifvqba0","pricing_plan_id":"cebpf4jnsgd1na2vs0mg"},{"bike_id":"1b0ca1ce-4eb6-4d1a-8278-47b8e54ea1bc","system_id":"levelo_inurba_marseille","lat":43.29025,"lon":5.35929,"is_reserved":false,"is_disabled":false,"rental_uris":{"android":"levelo://app?vid=1b0ca1ce-4eb6-4d1a-8278-47b8e54ea1bc","ios":"levelo://app?vid=1b0ca1ce-4eb6-4d1a-8278-47b8e54ea1bc"},"vehicle_type_id":"4","last_reported":1767063255,"current_range_meters":16000,"station_id":"ce4bha92rcd13ifvqeg0","pricing_plan_id":"cebpf4jnsgd1na2vs0mg"},{"bike_id":"a9ca0334-3198-48d6-b1ea-de3a6c9cf163","system_id":"levelo_inurba_marseille","lat":43.24543,"lon":5.39525,"is_reserved":false,"is_disabled":false,"rental_uris":{"android":"levelo://app?vid=a9ca0334-3198-48d6-b1ea-de3a6c9cf163","ios":"levelo://app?vid=a9ca0334-3198-48d6-b1ea-de3a6c9cf163"},"vehicle_type_id":"4","last_reported":1767063255,"current_range_meters":16000,"station_id":"ce4bhlp2rcd13ifvqgjg","pricing_plan_id":"cebpf4jnsgd1na2vs0mg"},{"bike_id":"b6bb0504-7fba-4e3c-b400-2a1d155bf674","system_id":"levelo_inurba_marseille","lat":43.24171,"lon":5.36388,"is_reserved":false,"is_disabled":false,"rental_uris":{"android":"levelo://app?vid=b6bb0504-7fba-4e3c-b400-2a1d155bf674","ios":"levelo://app?vid=b6bb0504-7fba-4e3c-b400-2a1d155bf674"},"vehicle_type_id":"4","last_reported":1767063255,"current_range_meters":16000,"station_id":"cpo36qri1sfpv3e86is0","pricing_plan_id":"cebpf4jnsgd1na2vs0mg"},{"bike_id":"0fa76090-b264-4d7f-a0bc-7de1e50f19da","system_id":"levelo_inurba_marseille","lat":43.28005,"lon":5.40419,"is_reserved":false,"is_disabled":false,"rental_uris":{"android":"levelo://app?vid=0fa76090-b264-4d7f-a0bc-7de1e50f19da","ios":"levelo://app?vid=0fa76090-b264-4d7f-a0bc-7de1e50f19da"},"vehicle_type_id":"4","last_reported":1767063255,"current_range_meters":16000,"station_id":"","pricing_plan_id":"cebpf4jnsgd1na2vs0mg"},{"bike_id":"3486b79f-5d37-4ced-ac26-f2e90a6034f3","system_id":"levelo_inurba_marseille","lat":43.231919,"lon":5.355601,"is_reserved":false,"is_disabled":false,"rental_uris":{"android":"levelo://app?vid=3486b79f-5d37-4ced-ac26-f2e90a6034f3","ios":"levelo://app?vid=3486b79f-5d37-4ced-ac26-f2e90a6034f3"},"vehicle_type_id":"4","last_reported":1767063255,"current_range_meters":16000,"station_id":"ce4bhu92rcd13ifvqi70","pricing_plan_id":"cebpf4jnsgd1na2vs0mg"},{"bike_id":"5408588f-d4fc-4d62-a635-9d0edfd602ca","system_id":"levelo_inurba_marseille","lat":43.29518,"lon":5.42502,"is_reserved":false,"is_disabled":false,"rental_uris":{"android":"levelo://app?vid=5408588f-d4fc-4d62-a635-9d0edfd602ca","ios":"levelo://app?vid=5408588f-d4fc-4d62-a635-9d0edfd602ca"},"vehicle_type_id":"4","last_reported":1767063255,"current_range_meters":16000,"station_id":"","pricing_plan_id":"cebpf4jnsgd1na2vs0mg"},{"bike_id":"725512a0-31a0-4e0e-90c7-a762e634dd55","system_id":"levelo_inurba_marseille","lat":43.29977,"lon":5.38493,"is_reserved":false,"is_disabled":false,"rental_uris":{"android":"levelo://app?vid=725512a0-31a0-4e0e-90c7-a762e634dd55","ios":"levelo://app?vid=725512a0-31a0-4e0e-90c7-a762e634dd55"},"vehicle_type_id":"4","last_reported":1767063255,"current_range_meters":16000,"station_id":"ce4bgj92rcd13ifvqbd0","pricing_plan_id":"cebpf4jnsgd1na2vs0mg"},{"bike_id":"2b86a2df-509d-4fdf-8d52-73b679ecec7d","system_id":"levelo_inurba_marseille","lat":43.33535,"lon":5.37462,"is_reserved":false,"is_disabled":false,"rental_uris":{"android":"levelo://app?vid=2b86a2df-509d-4fdf-8d52-73b679ecec7d","ios":"levelo://app?vid=2b86a2df-509d-4fdf-8d52-73b679ecec7d"},"vehicle_type_id":"4","last_reported":1767063255,"current_range_meters":16000,"station_id":"st_d46tts09ee8s73dlu43g","pricing_plan_id":"cebpf4jnsgd1na2vs0mg"},{"bike_id":"0053fc53-a55c-498f-9df4-c2e161a6e543","system_id":"levelo_inurba_marseille","lat":43.31131,"lon":5.3862,"is_reserved":false,"is_disabled":false,"rental_uris":{"android":"levelo://app?vid=0053fc53-a55c-498f-9df4-c2e161a6e543","ios":"levelo://app?vid=0053fc53-a55c-498f-9df4-c2e161a6e543"},"vehicle_type_id":"4","last_reported":1767063255,"current_range_meters":16000,"station_id":"","pricing_plan_id":"cebpf4jnsgd1na2vs0mg"},{"bike_id":"ccec8baf-8de3-4f76-b969-55b0b35b8975","system_id":"levelo_inurba_marseille","lat":43.3007,"lon":5.374327,"is_reserved":false,"is_disabled":false,"rental_uris":{"android":"levelo://app?vid=ccec8baf-8de3-4f76-b969-55b0b35b8975","ios":"levelo://app?vid=ccec8baf-8de3-4f76-b969-55b0b35b8975"},"vehicle_type_id":"4","last_reported":1767063255,"current_range_meters":16000,"station_id":"","pricing_plan_id":"cebpf4jnsgd1na2vs0mg"},{"bike_id":"a954f12c-91a6-48d9-9e5a-ea9caf1dbf6a","system_id":"levelo_inurba_marseille","lat":43.23182,"lon":5.3558,"is_reserved":false,"is_disabled":false,"rental_uris":{"android":"levelo://app?vid=a954f12c-91a6-48d9-9e5a-ea9caf1dbf6a","ios":"levelo://app?vid=a954f12c-91a6-48d9-9e5a-ea9caf1dbf6a"},"vehicle_type_id":"4","last_reported":1767063255,"current_range_meters":16000,"station_id":"ce4bhu92rcd13ifvqi70","pricing_plan_id":"cebpf4jnsgd1na2vs0mg"},{"bike_id":"ca012f14-82a3-4060-8da0-098244b0df8d","system_id":"levelo_inurba_marseille","lat":43.30059,"lon":5.3889,"is_reserved":false,"is_disabled":false,"rental_uris":{"android":"levelo://app?vid=ca012f14-82a3-4060-8da0-098244b0df8d","ios":"levelo://app?vid=ca012f14-82a3-4060-8da0-098244b0df8d"},"vehicle_type_id":"4","last_reported":1767063255,"current_range_meters":16000,"station_id":"","pricing_plan_id":"cebpf4jnsgd1na2vs0mg"},{"bike_id":"a290066c-ca11-4bc9-a4d1-54f3d0c41d5c","system_id":"levelo_inurba_marseille","lat":43.27932,"lon":5.39621,"is_reserved":false,"is_disabled":false,"rental_uris":{"android":"levelo://app?vid=a290066c-ca11-4bc9-a4d1-54f3d0c41d5c","ios":"levelo://app?vid=a290066c-ca11-4bc9-a4d1-54f3d0c41d5c"},"vehicle_type_id":"4","last_reported":1767063255,"current_range_meters":16400,"station_id":"ce4bhf92rcd13ifvqf40","pricing_plan_id":"cebpf4jnsgd1na2vs0mg"},{"bike_id":"872ebd44-91ee-4a28-a06a-652b9e138754","system_id":"levelo_inurba_marseille","lat":43.270601,"lon":5.383065,"is_reserved":false,"is_disabled":false,"rental_uris":{"android":"levelo://app?vid=872ebd44-91ee-4a28-a06a-652b9e138754","ios":"levelo://app?vid=872ebd44-91ee-4a28-a06a-652b9e138754"},"vehicle_type_id":"4","last_reported":1767063255,"current_range_meters":16400,"station_id":"st_d3n2fo6cfp8s73cte1j0","pricing_plan_id":"cebpf4jnsgd1na2vs0mg"},{"bike_id":"1d7704b6-4f24-4463-b2ad-876ee9becb49","system_id":"levelo_inurba_marseille","lat":43.3066,"lon":5.40097,"is_reserved":false,"is_disabled":false,"rental_uris":{"android":"levelo://app?vid=1d7704b6-4f24-4463-b2ad-876ee9becb49","ios":"levelo://app?vid=1d7704b6-4f24-4463-b2ad-876ee9becb49"},"vehicle_type_id":"4","last_reported":1767063255,"current_range_meters":16400,"station_id":"ce4bh112rcd13ifvqda0","pricing_plan_id":"cebpf4jnsgd1na2vs0mg"},{"bike_id":"7eb74d00-8cb3-4eef-a460-2262e932b281","system_id":"levelo_inurba_marseille","lat":43.32689,"lon":5.39209,"is_reserved":false,"is_disabled":false,"rental_uris":{"android":"levelo://app?vid=7eb74d00-8cb3-4eef-a460-2262e932b281","ios":"levelo://app?vid=7eb74d00-8cb3-4eef-a460-2262e932b281"},"vehicle_type_id":"4","last_reported":1767063255,"current_range_meters":16400,"station_id":"","pricing_plan_id":"cebpf4jnsgd1na2vs0mg"},{"bike_id":"b6521d11-99b8-43ca-a853-a51747d5db82","system_id":"levelo_inurba_marseille","lat":43.30123,"lon":5.43134,"is_reserved":false,"is_disabled":false,"rental_uris":{"android":"levelo://app?vid=b6521d11-99b8-43ca-a853-a51747d5db82","ios":"levelo://app?vid=b6521d11-99b8-43ca-a853-a51747d5db82"},"vehicle_type_id":"4","last_reported":1767063255,"current_range_meters":16400,"station_id":"st_d3js3co5814s73ftftug","pricing_plan_id":"cebpf4jnsgd1na2vs0mg"},{"bike_id":"6d55a0a6-80f5-48da-b777-39d28a0ee642","system_id":"levelo_inurba_marseille","lat":43.29623,"lon":5.37712,"is_reserved":false,"is_disabled":false,"rental_uris":{"android":"levelo://app?vid=6d55a0a6-80f5-48da-b777-39d28a0ee642","ios":"levelo://app?vid=6d55a0a6-80f5-48da-b777-39d28a0ee642"},"vehicle_type_id":"4","last_reported":1767063255,"current_range_meters":16400,"station_id":"ce4bgi92rcd13ifvqb90","pricing_plan_id":"cebpf4jnsgd1na2vs0mg"},{"bike_id":"4466e4e7-7d9e-4691-9c78-17a073c9b554","system_id":"levelo_inurba_marseille","lat":43.32484,"lon":5.36558,"is_reserved":false,"is_disabled":false,"rental_uris":{"android":"levelo://app?vid=4466e4e7-7d9e-4691-9c78-17a073c9b554","ios":"levelo://app?vid=4466e4e7-7d9e-4691-9c78-17a073c9b554"},"vehicle_type_id":"4","last_reported":1767063255,"current_range_meters":16400,"station_id":"ce4bhs12rcd13ifvqhvg","pricing_plan_id":"cebpf4jnsgd1na2vs0mg"},{"bike_id":"b3b8c28f-a4a2-4a54-a0d7-bca6b407c06b","system_id":"levelo_inurba_marseille","lat":43.284939,"lon":5.384224,"is_reserved":false,"is_disabled":false,"rental_uris":{"android":"levelo://app?vid=b3b8c28f-a4a2-4a54-a0d7-bca6b407c06b","ios":"levelo://app?vid=b3b8c28f-a4a2-4a54-a0d7-bca6b407c06b"},"vehicle_type_id":"4","last_reported":1767063255,"current_range_meters":16400,"station_id":"ce4bh512rcd13ifvqe3g","pricing_plan_id":"cebpf4jnsgd1na2vs0mg"},{"bike_id":"43193b6b-ec89-44fe-bcdb-56bb34ca50d7","system_id":"levelo_inurba_marseille","lat":43.231863,"lon":5.399829,"is_reserved":false,"is_disabled":false,"rental_uris":{"android":"levelo://app?vid=43193b6b-ec89-44fe-bcdb-56bb34ca50d7","ios":"levelo://app?vid=43193b6b-ec89-44fe-bcdb-56bb34ca50d7"},"vehicle_type_id":"4","last_reported":1767063255,"current_range_meters":16400,"station_id":"ce4bhn12rcd13ifvqgqg","pricing_plan_id":"cebpf4jnsgd1na2vs0mg"},{"bike_id":"246e84fb-1afd-498f-b855-009b4b2e82cd","system_id":"levelo_inurba_marseille","lat":43.304171,"lon":5.412839,"is_reserved":false,"is_disabled":false,"rental_uris":{"android":"levelo://app?vid=246e84fb-1afd-498f-b855-009b4b2e82cd","ios":"levelo://app?vid=246e84fb-1afd-498f-b855-009b4b2e82cd"},"vehicle_type_id":"4","last_reported":1767063255,"current_range_meters":16400,"station_id":"ce4bhop2rcd13ifvqh8g","pricing_plan_id":"cebpf4jnsgd1na2vs0mg"},{"bike_id":"79fda2c3-d85a-402b-9c3b-0dceb91a8171","system_id":"levelo_inurba_marseille","lat":43.29765,"lon":5.36983,"is_reserved":false,"is_disabled":false,"rental_uris":{"android":"levelo://app?vid=79fda2c3-d85a-402b-9c3b-0dceb91a8171","ios":"levelo://app?vid=79fda2c3-d85a-402b-9c3b-0dceb91a8171"},"vehicle_type_id":"4","last_reported":1767063255,"current_range_meters":16400,"station_id":"","pricing_plan_id":"cebpf4jnsgd1na2vs0mg"},{"bike_id":"0035a49f-c924-43b0-93d3-43f42dc9e160","system_id":"levelo_inurba_marseille","lat":43.2848,"lon":5.3843,"is_reserved":false,"is_disabled":false,"rental_uris":{"android":"levelo://app?vid=0035a49f-c924-43b0-93d3-43f42dc9e160","ios":"levelo://app?vid=0035a49f-c924-43b0-93d3-43f42dc9e160"},"vehicle_type_id":"4","last_reported":1767063255,"current_range_meters":16400,"station_id":"ce4bh512rcd13ifvqe3g","pricing_plan_id":"cebpf4jnsgd1na2vs0mg"},{"bike_id":"2dff8587-48e0-4416-89ff-81e5782bfef7","system_id":"levelo_inurba_marseille","lat":43.230648,"lon":5.354896,"is_reserved":false,"is_disabled":false,"rental_uris":{"android":"levelo://app?vid=2dff8587-48e0-4416-89ff-81e5782bfef7","ios":"levelo://app?vid=2dff8587-48e0-4416-89ff-81e5782bfef7"},"vehicle_type_id":"4","last_reported":1767063255,"current_range_meters":16400,"station_id":"cpo3342slgdg3j2ifvpg","pricing_plan_id":"cebpf4jnsgd1na2vs0mg"},{"bike_id":"8853d72b-5a7c-4bdc-8fee-0d65e1406d44","system_id":"levelo_inurba_marseille","lat":43.29196,"lon":5.35805,"is_reserved":false,"is_disabled":false,"rental_uris":{"android":"levelo://app?vid=8853d72b-5a7c-4bdc-8fee-0d65e1406d44","ios":"levelo://app?vid=8853d72b-5a7c-4bdc-8fee-0d65e1406d44"},"vehicle_type_id":"4","last_reported":1767063255,"current_range_meters":16400,"station_id":"ce4bhb12rcd13ifvqel0","pricing_plan_id":"cebpf4jnsgd1na2vs0mg"},{"bike_id":"ec5fae6d-47b5-4030-bf64-4af050af9ecb","system_id":"levelo_inurba_marseille","lat":43.3097,"lon":5.37801,"is_reserved":false,"is_disabled":false,"rental_uris":{"android":"levelo://app?vid=ec5fae6d-47b5-4030-bf64-4af050af9ecb","ios":"levelo://app?vid=ec5fae6d-47b5-4030-bf64-4af050af9ecb"},"vehicle_type_id":"4","last_reported":1767063255,"current_range_meters":16400,"station_id":"","pricing_plan_id":"cebpf4jnsgd1na2vs0mg"},{"bike_id":"32991cf0-a348-4bbb-8a1f-2cae5af4a1de","system_id":"levelo_inurba_marseille","lat":43.28934,"lon":5.38398,"is_reserved":false,"is_disabled":false,"rental_uris":{"android":"levelo://app?vid=32991cf0-a348-4bbb-8a1f-2cae5af4a1de","ios":"levelo://app?vid=32991cf0-a348-4bbb-8a1f-2cae5af4a1de"},"vehicle_type_id":"4","last_reported":1767063255,"current_range_meters":16400,"station_id":"ce4bh612rcd13ifvqe6g","pricing_plan_id":"cebpf4jnsgd1na2vs0mg"},{"bike_id":"26aaa4c3-ca27-43bc-a11f-345371d00b8a","system_id":"levelo_inurba_marseille","lat":43.28697,"lon":5.37395,"is_reserved":false,"is_disabled":true,"rental_uris":{"android":"levelo://app?vid=26aaa4c3-ca27-43bc-a11f-345371d00b8a","ios":"levelo://app?vid=26aaa4c3-ca27-43bc-a11f-345371d00b8a"},"vehicle_type_id":"4","last_reported":1767063255,"current_range_meters":16400,"station_id":"ce4bh3p2rcd13ifvqdq0","pricing_plan_id":"cebpf4jnsgd1na2vs0mg"},{"bike_id":"c06e7247-e800-4999-b2b1-3c3b6e5bdb99","system_id":"levelo_inurba_marseille","lat":43.28533,"lon":5.44105,"is_reserved":false,"is_disabled":false,"rental_uris":{"android":"levelo://app?vid=c06e7247-e800-4999-b2b1-3c3b6e5bdb99","ios":"levelo://app?vid=c06e7247-e800-4999-b2b1-3c3b6e5bdb99"},"vehicle_type_id":"4","last_reported":1767063255,"current_range_meters":16400,"station_id":"st_d3j3df2ikq2c7380ej80","pricing_plan_id":"cebpf4jnsgd1na2vs0mg"},{"bike_id":"17afe1b8-3845-4441-8e5a-d0f128b7e6a7","system_id":"levelo_inurba_marseille","lat":43.28472,"lon":5.38416,"is_reserved":false,"is_disabled":false,"rental_uris":{"android":"levelo://app?vid=17afe1b8-3845-4441-8e5a-d0f128b7e6a7","ios":"levelo://app?vid=17afe1b8-3845-4441-8e5a-d0f128b7e6a7"},"vehicle_type_id":"4","last_reported":1767063255,"current_range_meters":16800,"station_id":"ce4bh512rcd13ifvqe3g","pricing_plan_id":"cebpf4jnsgd1na2vs0mg"},{"bike_id":"93a979ae-2c6b-4810-9aba-a3f202a3630d","system_id":"levelo_inurba_marseille","lat":43.23142,"lon":5.43703,"is_reserved":false,"is_disabled":true,"rental_uris":{"android":"levelo://app?vid=93a979ae-2c6b-4810-9aba-a3f202a3630d","ios":"levelo://app?vid=93a979ae-2c6b-4810-9aba-a3f202a3630d"},"vehicle_type_id":"4","last_reported":1767063255,"current_range_meters":16800,"station_id":"ce4bhmp2rcd13ifvqgog","pricing_plan_id":"cebpf4jnsgd1na2vs0mg"},{"bike_id":"5527eb0b-20f4-4a5b-99d9-f4400a1d9c14","system_id":"levelo_inurba_marseille","lat":43.31054,"lon":5.38378,"is_reserved":false,"is_disabled":false,"rental_uris":{"android":"levelo://app?vid=5527eb0b-20f4-4a5b-99d9-f4400a1d9c14","ios":"levelo://app?vid=5527eb0b-20f4-4a5b-99d9-f4400a1d9c14"},"vehicle_type_id":"4","last_reported":1767063255,"current_range_meters":16800,"station_id":"ce4bgv92rcd13ifvqcr0","pricing_plan_id":"cebpf4jnsgd1na2vs0mg"},{"bike_id":"b1a9f488-bf66-4741-a61f-24b353570a2b","system_id":"levelo_inurba_marseille","lat":43.28364,"lon":5.38636,"is_reserved":false,"is_disabled":false,"rental_uris":{"android":"levelo://app?vid=b1a9f488-bf66-4741-a61f-24b353570a2b","ios":"levelo://app?vid=b1a9f488-bf66-4741-a61f-24b353570a2b"},"vehicle_type_id":"4","last_reported":1767063255,"current_range_meters":16800,"station_id":"ce4bh492rcd13ifvqdvg","pricing_plan_id":"cebpf4jnsgd1na2vs0mg"},{"bike_id":"7be19a66-044f-4223-8a5e-aa464921726b","system_id":"levelo_inurba_marseille","lat":43.2394,"lon":5.36623,"is_reserved":false,"is_disabled":false,"rental_uris":{"android":"levelo://app?vid=7be19a66-044f-4223-8a5e-aa464921726b","ios":"levelo://app?vid=7be19a66-044f-4223-8a5e-aa464921726b"},"vehicle_type_id":"4","last_reported":1767063255,"current_range_meters":16800,"station_id":"ce4bhi12rcd13ifvqfp0","pricing_plan_id":"cebpf4jnsgd1na2vs0mg"},{"bike_id":"78ed77cb-47f0-4c82-bf8a-f958576ec953","system_id":"levelo_inurba_marseille","lat":43.28176,"lon":5.42637,"is_reserved":false,"is_disabled":false,"rental_uris":{"android":"levelo://app?vid=78ed77cb-47f0-4c82-bf8a-f958576ec953","ios":"levelo://app?vid=78ed77cb-47f0-4c82-bf8a-f958576ec953"},"vehicle_type_id":"4","last_reported":1767063255,"current_range_meters":16800,"station_id":"ce4bhnh2rcd13ifvqgug","pricing_plan_id":"cebpf4jnsgd1na2vs0mg"},{"bike_id":"002df4cd-7444-423a-afeb-1433f8189cd4","system_id":"levelo_inurba_marseille","lat":43.30903,"lon":5.40163,"is_reserved":false,"is_disabled":false,"rental_uris":{"android":"levelo://app?vid=002df4cd-7444-423a-afeb-1433f8189cd4","ios":"levelo://app?vid=002df4cd-7444-423a-afeb-1433f8189cd4"},"vehicle_type_id":"4","last_reported":1767063255,"current_range_meters":16800,"station_id":"ce4bgvp2rcd13ifvqct0","pricing_plan_id":"cebpf4jnsgd1na2vs0mg"},{"bike_id":"810b1eed-f4d7-4c9d-bff1-af744a694458","system_id":"levelo_inurba_marseille","lat":43.27933,"lon":5.41049,"is_reserved":false,"is_disabled":false,"rental_uris":{"android":"levelo://app?vid=810b1eed-f4d7-4c9d-bff1-af744a694458","ios":"levelo://app?vid=810b1eed-f4d7-4c9d-bff1-af744a694458"},"vehicle_type_id":"4","last_reported":1767063255,"current_range_meters":16800,"station_id":"ce4bhnp2rcd13ifvqh0g","pricing_plan_id":"cebpf4jnsgd1na2vs0mg"},{"bike_id":"f79561d9-a9e3-4480-bd30-e533c5f19aef","system_id":"levelo_inurba_marseille","lat":43.3085,"lon":5.37604,"is_reserved":false,"is_disabled":false,"rental_uris":{"android":"levelo://app?vid=f79561d9-a9e3-4480-bd30-e533c5f19aef","ios":"levelo://app?vid=f79561d9-a9e3-4480-bd30-e533c5f19aef"},"vehicle_type_id":"4","last_reported":1767063255,"current_range_meters":16800,"station_id":"ce4bgv92rcd13ifvqcq0","pricing_plan_id":"cebpf4jnsgd1na2vs0mg"},{"bike_id":"3db4c3ae-8246-43f3-8b24-7d46694ac906","system_id":"levelo_inurba_marseille","lat":43.28878,"lon":5.42535,"is_reserved":false,"is_disabled":false,"rental_uris":{"android":"levelo://app?vid=3db4c3ae-8246-43f3-8b24-7d46694ac906","ios":"levelo://app?vid=3db4c3ae-8246-43f3-8b24-7d46694ac906"},"vehicle_type_id":"4","last_reported":1767063255,"current_range_meters":16800,"station_id":"st_d3b462108ojc7389ooeg","pricing_plan_id":"cebpf4jnsgd1na2vs0mg"},{"bike_id":"591be244-07b5-4fd2-81ce-5f3dd6546392","system_id":"levelo_inurba_marseille","lat":43.282337,"lon":5.390344,"is_reserved":false,"is_disabled":false,"rental_uris":{"android":"levelo://app?vid=591be244-07b5-4fd2-81ce-5f3dd6546392","ios":"levelo://app?vid=591be244-07b5-4fd2-81ce-5f3dd6546392"},"vehicle_type_id":"4","last_reported":1767063255,"current_range_meters":16800,"station_id":"ce4bhn92rcd13ifvqgsg","pricing_plan_id":"cebpf4jnsgd1na2vs0mg"},{"bike_id":"7a9f5bae-e6a7-4331-b078-77244cac4fa6","system_id":"levelo_inurba_marseille","lat":43.27896,"lon":5.37994,"is_reserved":false,"is_disabled":false,"rental_uris":{"android":"levelo://app?vid=7a9f5bae-e6a7-4331-b078-77244cac4fa6","ios":"levelo://app?vid=7a9f5bae-e6a7-4331-b078-77244cac4fa6"},"vehicle_type_id":"4","last_reported":1767063255,"current_range_meters":16800,"station_id":"ce4bhf92rcd13ifvqf50","pricing_plan_id":"cebpf4jnsgd1na2vs0mg"},{"bike_id":"99845526-4044-4e14-9d82-95d6704a08b7","system_id":"levelo_inurba_marseille","lat":43.29299,"lon":5.37173,"is_reserved":false,"is_disabled":false,"rental_uris":{"android":"levelo://app?vid=99845526-4044-4e14-9d82-95d6704a08b7","ios":"levelo://app?vid=99845526-4044-4e14-9d82-95d6704a08b7"},"vehicle_type_id":"4","last_reported":1767063255,"current_range_meters":16800,"station_id":"ce4bgh92rcd13ifvqb40","pricing_plan_id":"cebpf4jnsgd1na2vs0mg"},{"bike_id":"062a0235-2d89-4fc1-b10d-ee79c97b2c64","system_id":"levelo_inurba_marseille","lat":43.31799,"lon":5.3689,"is_reserved":false,"is_disabled":false,"rental_uris":{"android":"levelo://app?vid=062a0235-2d89-4fc1-b10d-ee79c97b2c64","ios":"levelo://app?vid=062a0235-2d89-4fc1-b10d-ee79c97b2c64"},"vehicle_type_id":"4","last_reported":1767063255,"current_range_meters":16800,"station_id":"","pricing_plan_id":"cebpf4jnsgd1na2vs0mg"},{"bike_id":"ff2a9260-98fd-4327-a921-2b433595e5d8","system_id":"levelo_inurba_marseille","lat":43.26925,"lon":5.40239,"is_reserved":false,"is_disabled":false,"rental_uris":{"android":"levelo://app?vid=ff2a9260-98fd-4327-a921-2b433595e5d8","ios":"levelo://app?vid=ff2a9260-98fd-4327-a921-2b433595e5d8"},"vehicle_type_id":"4","last_reported":1767063255,"current_range_meters":16800,"station_id":"cjm6bp8fraef2m0cb0m0","pricing_plan_id":"cebpf4jnsgd1na2vs0mg"},{"bike_id":"3efab223-71c4-490b-ad3a-1369cb90475e","system_id":"levelo_inurba_marseille","lat":43.255689,"lon":5.382399,"is_reserved":false,"is_disabled":false,"rental_uris":{"android":"levelo://app?vid=3efab223-71c4-490b-ad3a-1369cb90475e","ios":"levelo://app?vid=3efab223-71c4-490b-ad3a-1369cb90475e"},"vehicle_type_id":"4","last_reported":1767063255,"current_range_meters":16800,"station_id":"ce4bhih2rcd13ifvqfs0","pricing_plan_id":"cebpf4jnsgd1na2vs0mg"},{"bike_id":"4aed622d-7a62-4b52-a47d-ee7156e1c7ce","system_id":"levelo_inurba_marseille","lat":43.2534,"lon":5.42184,"is_reserved":false,"is_disabled":false,"rental_uris":{"android":"levelo://app?vid=4aed622d-7a62-4b52-a47d-ee7156e1c7ce","ios":"levelo://app?vid=4aed622d-7a62-4b52-a47d-ee7156e1c7ce"},"vehicle_type_id":"4","last_reported":1767063255,"current_range_meters":16800,"station_id":"st_d2m65c5bi1j21697t3ng","pricing_plan_id":"cebpf4jnsgd1na2vs0mg"},{"bike_id":"14230e9b-1838-41fe-8bec-67268a0a01ac","system_id":"levelo_inurba_marseille","lat":43.30615,"lon":5.37228,"is_reserved":false,"is_disabled":false,"rental_uris":{"android":"levelo://app?vid=14230e9b-1838-41fe-8bec-67268a0a01ac","ios":"levelo://app?vid=14230e9b-1838-41fe-8bec-67268a0a01ac"},"vehicle_type_id":"4","last_reported":1767063255,"current_range_meters":16800,"station_id":"ce4bgqh2rcd13ifvqc4g","pricing_plan_id":"cebpf4jnsgd1na2vs0mg"},{"bike_id":"b30c6014-a175-4bb9-ad78-49f058f742ef","system_id":"levelo_inurba_marseille","lat":43.264863,"lon":5.395655,"is_reserved":false,"is_disabled":false,"rental_uris":{"android":"levelo://app?vid=b30c6014-a175-4bb9-ad78-49f058f742ef","ios":"levelo://app?vid=b30c6014-a175-4bb9-ad78-49f058f742ef"},"vehicle_type_id":"4","last_reported":1767063255,"current_range_meters":16800,"station_id":"ce4bhi12rcd13ifvqfq0","pricing_plan_id":"cebpf4jnsgd1na2vs0mg"},{"bike_id":"22eef0a3-17fe-44b8-b64f-6f944c8af2a7","system_id":"levelo_inurba_marseille","lat":43.24648,"lon":5.38901,"is_reserved":false,"is_disabled":false,"rental_uris":{"android":"levelo://app?vid=22eef0a3-17fe-44b8-b64f-6f944c8af2a7","ios":"levelo://app?vid=22eef0a3-17fe-44b8-b64f-6f944c8af2a7"},"vehicle_type_id":"4","last_reported":1767063255,"current_range_meters":16800,"station_id":"ce4bhg12rcd13ifvqf60","pricing_plan_id":"cebpf4jnsgd1na2vs0mg"},{"bike_id":"0a3632ab-94ef-4709-894a-be1973cc312c","system_id":"levelo_inurba_marseille","lat":43.30871,"lon":5.39637,"is_reserved":false,"is_disabled":false,"rental_uris":{"android":"levelo://app?vid=0a3632ab-94ef-4709-894a-be1973cc312c","ios":"levelo://app?vid=0a3632ab-94ef-4709-894a-be1973cc312c"},"vehicle_type_id":"4","last_reported":1767063255,"current_range_meters":16800,"station_id":"ce4bh012rcd13ifvqcv0","pricing_plan_id":"cebpf4jnsgd1na2vs0mg"},{"bike_id":"c6990927-f112-43dc-993b-cc97e862332f","system_id":"levelo_inurba_marseille","lat":43.275714,"lon":5.384313,"is_reserved":false,"is_disabled":false,"rental_uris":{"android":"levelo://app?vid=c6990927-f112-43dc-993b-cc97e862332f","ios":"levelo://app?vid=c6990927-f112-43dc-993b-cc97e862332f"},"vehicle_type_id":"4","last_reported":1767063255,"current_range_meters":16800,"station_id":"ce4bhh92rcd13ifvqfi0","pricing_plan_id":"cebpf4jnsgd1na2vs0mg"},{"bike_id":"3a94f210-d8dc-4c4e-810e-94c61d027ad8","system_id":"levelo_inurba_marseille","lat":43.27207,"lon":5.40988,"is_reserved":false,"is_disabled":true,"rental_uris":{"android":"levelo://app?vid=3a94f210-d8dc-4c4e-810e-94c61d027ad8","ios":"levelo://app?vid=3a94f210-d8dc-4c4e-810e-94c61d027ad8"},"vehicle_type_id":"4","last_reported":1767063255,"current_range_meters":16800,"station_id":"ce4bhl12rcd13ifvqgf0","pricing_plan_id":"cebpf4jnsgd1na2vs0mg"},{"bike_id":"9a9c6b56-d749-4673-a09a-3801c816a291","system_id":"levelo_inurba_marseille","lat":43.28488,"lon":5.38405,"is_reserved":false,"is_disabled":false,"rental_uris":{"android":"levelo://app?vid=9a9c6b56-d749-4673-a09a-3801c816a291","ios":"levelo://app?vid=9a9c6b56-d749-4673-a09a-3801c816a291"},"vehicle_type_id":"4","last_reported":1767063255,"current_range_meters":16800,"station_id":"ce4bh512rcd13ifvqe3g","pricing_plan_id":"cebpf4jnsgd1na2vs0mg"},{"bike_id":"5265762e-9468-4f8e-963d-e1d647f4d72d","system_id":"levelo_inurba_marseille","lat":43.337444,"lon":5.374475,"is_reserved":false,"is_disabled":false,"rental_uris":{"android":"levelo://app?vid=5265762e-9468-4f8e-963d-e1d647f4d72d","ios":"levelo://app?vid=5265762e-9468-4f8e-963d-e1d647f4d72d"},"vehicle_type_id":"4","last_reported":1767063255,"current_range_meters":17200,"station_id":"","pricing_plan_id":"cebpf4jnsgd1na2vs0mg"},{"bike_id":"d250a799-5d35-48b4-8052-313c992efcb5","system_id":"levelo_inurba_marseille","lat":43.28568,"lon":5.39496,"is_reserved":false,"is_disabled":false,"rental_uris":{"android":"levelo://app?vid=d250a799-5d35-48b4-8052-313c992efcb5","ios":"levelo://app?vid=d250a799-5d35-48b4-8052-313c992efcb5"},"vehicle_type_id":"4","last_reported":1767063255,"current_range_meters":17200,"station_id":"ce4bh292rcd13ifvqdg0","pricing_plan_id":"cebpf4jnsgd1na2vs0mg"},{"bike_id":"e93c83d5-bafc-41ab-b80f-422d8d8d6d2a","system_id":"levelo_inurba_marseille","lat":43.26848,"lon":5.40078,"is_reserved":false,"is_disabled":false,"rental_uris":{"android":"levelo://app?vid=e93c83d5-bafc-41ab-b80f-422d8d8d6d2a","ios":"levelo://app?vid=e93c83d5-bafc-41ab-b80f-422d8d8d6d2a"},"vehicle_type_id":"4","last_reported":1767063255,"current_range_meters":17200,"station_id":"","pricing_plan_id":"cebpf4jnsgd1na2vs0mg"},{"bike_id":"36894647-7ec6-4c2f-94d9-a4fc278abadd","system_id":"levelo_inurba_marseille","lat":43.307843,"lon":5.376493,"is_reserved":false,"is_disabled":false,"rental_uris":{"android":"levelo://app?vid=36894647-7ec6-4c2f-94d9-a4fc278abadd","ios":"levelo://app?vid=36894647-7ec6-4c2f-94d9-a4fc278abadd"},"vehicle_type_id":"4","last_reported":1767063255,"current_range_meters":17200,"station_id":"ce4bgv92rcd13ifvqcq0","pricing_plan_id":"cebpf4jnsgd1na2vs0mg"},