{"last_updated":1734775686,"ttl":60,"version":"2.2","data":{"bikes":[{"bike_id":"ef6ff72d-ccfc-44d1-92b9-b5c83e8d80e4","system_id":"levelo_inurba_marseille","lat":43.30458,"lon":5.379,"is_reserved":false,"is_disabled":false,"rental_uris":{"android":"levelo://app?vid=ef6ff72d-ccfc-44d1-92b9-b5c83e8d80e4","ios":"levelo://app?vid=ef6ff72d-ccfc-44d1-92b9-b5c83e8d80e4"},"vehicle_type_id":"4","last_reported":1734775686,"current_range_meters":25200,"station_id":"ce4bgup2rcd13ifvqcn0","pricing_plan_id":"cebpf4jnsgd1na2vs0mg"},{"bike_id":"8b58a356-7b53-4941-baff-a82d27c8533d","system_id":"levelo_inurba_marseille","lat":43.29566,"lon":5.39981,"is_reserved":false,"is_disabled":false,"rental_uris":{"android":"levelo://app?vid=8b58a356-7b53-4941-baff-a82d27c8533d","ios":"levelo://app?vid=8b58a356-7b53-4941-baff-a82d27c8533d"},"vehicle_type_id":"4","last_reported":1734775686,"current_range_meters":38800,"station_id":"ce4bh312rcd13ifvqdj0","pricing_plan_id":"cebpf4jnsgd1na2vs0mg"},{"bike_id":"5f1f11c0-31e2-4aa9-bcc7-0a8c4240a45b","system_id":"levelo_inurba_marseille","lat":43.31705,"lon":5.37741,"is_reserved":false,"is_disabled":false,"rental_uris":{"android":"levelo://app?vid=5f1f11c0-31e2-4aa9-bcc7-0a8c4240a45b","ios":"levelo://app?vid=5f1f11c0-31e2-4aa9-bcc7-0a8c4240a45b"},"vehicle_type_id":"4","last_reported":1734775686,"current_range_meters":30000,"station_id":"ce4bgth2rcd13ifvqch0","pricing_plan_id":"cebpf4jnsgd1na2vs0mg"},{"bike_id":"c20c717d-c827-41e6-9454-3f93a777b421","system_id":"levelo_inurba_marseille","lat":43.278395,"lon":5.391928,"is_reserved":false,"is_disabled":false,"rental_uris":{"android":"levelo://app?vid=c20c717d-c827-41e6-9454-3f93a777b421","ios":"levelo://app?vid=c20c717d-c827-41e6-9454-3f93a777b421"},"vehicle_type_id":"4","last_reported":1734775686,"current_range_meters":36800,"station_id":"ce4bhjp2rcd13ifvqga0","pricing_plan_id":"cebpf4jnsgd1na2vs0mg"},{"bike_id":"12b28a6a-a08d-4088-a058-24fc8a1b7dad","system_id":"levelo_inurba_marseille","lat":43.25871,"lon":5.39893,"is_reserved":false,"is_disabled":false,"rental_uris":{"android":"levelo://app?vid=12b28a6a-a08d-4088-a058-24fc8a1b7dad","ios":"levelo://app?vid=12b28a6a-a08d-4088-a058-24fc8a1b7dad"},"vehicle_type_id":"4","last_reported":1734775686,"current_range_meters":29600,"station_id":"ce4bhl92rcd13ifvqghg","pricing_plan_id":"cebpf4jnsgd1na2vs0mg"},{"bike_id":"24041a61-6630-4c4c-89da-019f888e35f5","system_id":"levelo_inurba_marseille","lat":43.28718,"lon":5.39993,"is_reserved":false,"is_disabled":true,"rental_uris":{"android":"levelo://app?vid=24041a61-6630-4c4c-89da-019f888e35f5","ios":"levelo://app?vid=24041a61-6630-4c4c-89da-019f888e35f5"},"vehicle_type_id":"4","last_reported":1734775686,"current_range_meters":30000,"station_id":"ce4bho92rcd13ifvqh3g","pricing_plan_id":"cebpf4jnsgd1na2vs0mg"},{"bike_id":"aa496fe5-ff01-4c76-b230-91db42ff1c79","system_id":"levelo_inurba_marseille","lat":43.26964,"lon":5.40196,"is_reserved":false,"is_disabled":false,"rental_uris":{"android":"levelo://app?vid=aa496fe5-ff01-4c76-b230-91db42ff1c79","ios":"levelo://app?vid=aa496fe5-ff01-4c76-b230-91db42ff1c79"},"vehicle_type_id":"4","last_reported":1734775686,"current_range_meters":36800,"station_id":"cjm6bp8fraef2m0cb0m0","pricing_plan_id":"cebpf4jnsgd1na2vs0mg"},{"bike_id":"19b4fa94-a9e7-43f4-bb42-436dcb8c21dd","system_id":"levelo_inurba_marseille","lat":43.29001,"lon":5.35624,"is_reserved":false,"is_disabled":false,"rental_uris":{"android":"levelo://app?vid=19b4fa94-a9e7-43f4-bb42-436dcb8c21dd","ios":"levelo://app?vid=19b4fa94-a9e7-43f4-bb42-436dcb8c21dd"},"vehicle_type_id":"4","last_reported":1734775686,"current_range_meters":38800,"station_id":"ce4bhb92rcd13ifvqen0","pricing_plan_id":"cebpf4jnsgd1na2vs0mg"},{"bike_id":"c05e7616-33bf-4fd1-bb8b-bad4822419fe","system_id":"levelo_inurba_marseille","lat":43.24812,"lon":5.37461,"is_reserved":false,"is_disabled":false,"rental_uris":{"android":"levelo://app?vid=c05e7616-33bf-4fd1-bb8b-bad4822419fe","ios":"levelo://app?vid=c05e7616-33bf-4fd1-bb8b-bad4822419fe"},"vehicle_type_id":"4","last_reported":1734775686,"current_range_meters":28400,"station_id":"ce4bhgh2rcd13ifvqfb0","pricing_plan_id":"cebpf4jnsgd1na2vs0mg"},{"bike_id":"3d29f6ff-3784-4945-a8a1-4f0e8a8bbd5a","system_id":"levelo_inurba_marseille","lat":43.29232,"lon":5.36875,"is_reserved":false,"is_disabled":false,"rental_uris":{"android":"levelo://app?vid=3d29f6ff-3784-4945-a8a1-4f0e8a8bbd5a","ios":"levelo://app?vid=3d29f6ff-3784-4945-a8a1-4f0e8a8bbd5a"},"vehicle_type_id":"4","last_reported":1734775686,"current_range_meters":38400,"station_id":"ce4bhbp2rcd13ifvqesg","pricing_plan_id":"cebpf4jnsgd1na2vs0mg"},{"bike_id":"6d401513-66ba-4f40-af76-25e509695a78","system_id":"levelo_inurba_marseille","lat":43.29216,"lon":5.3608,"is_reserved":false,"is_disabled":false,"rental_uris":{"android":"levelo://app?vid=6d401513-66ba-4f40-af76-25e509695a78","ios":"levelo://app?vid=6d401513-66ba-4f40-af76-25e509695a78"},"vehicle_type_id":"4","last_reported":1734775686,"current_range_meters":24400,"station_id":"ce4bhbh2rcd13ifvqeqg","pricing_plan_id":"cebpf4jnsgd1na2vs0mg"},{"bike_id":"93cd12d2-ee52-454b-a1c6-a2a94b1185da","system_id":"levelo_inurba_marseille","lat":43.24807,"lon":5.37447,"is_reserved":false,"is_disabled":false,"rental_uris":{"android":"levelo://app?vid=93cd12d2-ee52-454b-a1c6-a2a94b1185da","ios":"levelo://app?vid=93cd12d2-ee52-454b-a1c6-a2a94b1185da"},"vehicle_type_id":"4","last_reported":1734775686,"current_range_meters":38000,"station_id":"ce4bhgh2rcd13ifvqfb0","pricing_plan_id":"cebpf4jnsgd1na2vs0mg"},{"bike_id":"8bb7c29d-136f-4d82-a893-bfdb30cfdbbe","system_id":"levelo_inurba_marseille","lat":43.30879,"lon":5.39662,"is_reserved":false,"is_disabled":false,"rental_uris":{"android":"levelo://app?vid=8bb7c29d-136f-4d82-a893-bfdb30cfdbbe","ios":"levelo://app?vid=8bb7c29d-136f-4d82-a893-bfdb30cfdbbe"},"vehicle_type_id":"4","last_reported":1734775686,"current_range_meters":17600,"station_id":"ce4bh012rcd13ifvqcv0","pricing_plan_id":"cebpf4jnsgd1na2vs0mg"},{"bike_id":"608374e1-f5ef-4e14-aac6-f3b4fbfd2453","system_id":"levelo_inurba_marseille","lat":43.25083,"lon":5.39524,"is_reserved":false,"is_disabled":false,"rental_uris":{"android":"levelo://app?vid=608374e1-f5ef-4e14-aac6-f3b4fbfd2453","ios":"levelo://app?vid=608374e1-f5ef-4e14-aac6-f3b4fbfd2453"},"vehicle_type_id":"4","last_reported":1734775686,"current_range_meters":31200,"station_id":"ce4bhm12rcd13ifvqgkg","pricing_plan_id":"cebpf4jnsgd1na2vs0mg"},{"bike_id":"644e3219-1450-4f2a-b186-c356cfe42ba2","system_id":"levelo_inurba_marseille","lat":43.28076,"lon":5.39647,"is_reserved":false,"is_disabled":false,"rental_uris":{"android":"levelo://app?vid=644e3219-1450-4f2a-b186-c356cfe42ba2","ios":"levelo://app?vid=644e3219-1450-4f2a-b186-c356cfe42ba2"},"vehicle_type_id":"4","last_reported":1734775686,"current_range_meters":10000,"station_id":"ce4bho12rcd13ifvqh2g","pricing_plan_id":"cebpf4jnsgd1na2vs0mg"},{"bike_id":"5481ebd9-b3a3-4db6-ba37-c92c821046b1","system_id":"levelo_inurba_marseille","lat":43.27619,"lon":5.36105,"is_reserved":false,"is_disabled":false,"rental_uris":{"android":"levelo://app?vid=5481ebd9-b3a3-4db6-ba37-c92c821046b1","ios":"levelo://app?vid=5481ebd9-b3a3-4db6-ba37-c92c821046b1"},"vehicle_type_id":"4","last_reported":1734775686,"current_range_meters":38800,"station_id":"ce4bgj92rcd13ifvqbe0","pricing_plan_id":"cebpf4jnsgd1na2vs0mg"},{"bike_id":"0dc27d4a-8841-4be6-998d-8a86b6d393f2","system_id":"levelo_inurba_marseille","lat":43.30415,"lon":5.41289,"is_reserved":false,"is_disabled":false,"rental_uris":{"android":"levelo://app?vid=0dc27d4a-8841-4be6-998d-8a86b6d393f2","ios":"levelo://app?vid=0dc27d4a-8841-4be6-998d-8a86b6d393f2"},"vehicle_type_id":"4","last_reported":1734775686,"current_range_meters":38800,"station_id":"ce4bhop2rcd13ifvqh8g","pricing_plan_id":"cebpf4jnsgd1na2vs0mg"},{"bike_id":"060e6fa0-a4e2-44d1-8524-b5da8e77bf21","system_id":"levelo_inurba_marseille","lat":43.29527,"lon":5.38561,"is_reserved":false,"is_disabled":false,"rental_uris":{"android":"levelo://app?vid=060e6fa0-a4e2-44d1-8524-b5da8e77bf21","ios":"levelo://app?vid=060e6fa0-a4e2-44d1-8524-b5da8e77bf21"},"vehicle_type_id":"4","last_reported":1734775686,"current_range_meters":29600,"station_id":"ce4bgih2rcd13ifvqba0","pricing_plan_id":"cebpf4jnsgd1na2vs0mg"},{"bike_id":"28d82292-98ba-4250-85c9-c5fea471f0be","system_id":"levelo_inurba_marseille","lat":43.29556,"lon":5.42281,"is_reserved":false,"is_disabled":false,"rental_uris":{"android":"levelo://app?vid=28d82292-98ba-4250-85c9-c5fea471f0be","ios":"levelo://app?vid=28d82292-98ba-4250-85c9-c5fea471f0be"},"vehicle_type_id":"4","last_reported":1734775686,"current_range_meters":14000,"station_id":"ce4bhph2rcd13ifvqhdg","pricing_plan_id":"cebpf4jnsgd1na2vs0mg"},{"bike_id":"a552f0f7-f135-4aca-b80e-8e9a86d87428","system_id":"levelo_inurba_marseille","lat":43.34133,"lon":5.40923,"is_reserved":false,"is_disabled":false,"rental_uris":{"android":"levelo://app?vid=a552f0f7-f135-4aca-b80e-8e9a86d87428","ios":"levelo://app?vid=a552f0f7-f135-4aca-b80e-8e9a86d87428"},"vehicle_type_id":"4","last_reported":1734775686,"current_range_meters":27200,"station_id":"ce4bhqh2rcd13ifvqhlg","pricing_plan_id":"cebpf4jnsgd1na2vs0mg"},{"bike_id":"310ff8fa-5cc6-4047-bf9d-779daaea8d73","system_id":"levelo_inurba_marseille","lat":43.28419,"lon":5.34998,"is_reserved":false,"is_disabled":false,"rental_uris":{"android":"levelo://app?vid=310ff8fa-5cc6-4047-bf9d-779daaea8d73","ios":"levelo://app?vid=310ff8fa-5cc6-4047-bf9d-779daaea8d73"},"vehicle_type_id":"4","last_reported":1734775686,"current_range_meters":18000,"station_id":"ce4bhbh2rcd13ifvqepg","pricing_plan_id":"cebpf4jnsgd1na2vs0mg"},{"bike_id":"23726d0d-b3e3-4a9d-9049-6a4ee15b329c","system_id":"levelo_inurba_marseille","lat":43.32659,"lon":5.40985,"is_reserved":false,"is_disabled":false,"rental_uris":{"android":"levelo://app?vid=23726d0d-b3e3-4a9d-9049-6a4ee15b329c","ios":"levelo://app?vid=23726d0d-b3e3-4a9d-9049-6a4ee15b329c"},"vehicle_type_id":"4","last_reported":1734775686,"current_range_meters":37600,"station_id":"ce4bhpp2rcd13ifvqhgg","pricing_plan_id":"cebpf4jnsgd1na2vs0mg"},{"bike_id":"9dd2c5cb-faef-44c4-9812-3e599949d098","system_id":"levelo_inurba_marseille","lat":43.29907,"lon":5.38138,"is_reserved":false,"is_disabled":false,"rental_uris":{"android":"levelo://app?vid=9dd2c5cb-faef-44c4-9812-3e599949d098","ios":"levelo://app?vid=9dd2c5cb-faef-44c4-9812-3e599949d098"},"vehicle_type_id":"4","last_reported":1734775686,"current_range_meters":28800,"station_id":"ce4bgj12rcd13ifvqbc0","pricing_plan_id":"cebpf4jnsgd1na2vs0mg"},{"bike_id":"3d2e7b3c-8e7f-4212-90cd-fa103541ba03","system_id":"levelo_inurba_marseille","lat":43.30929,"lon":5.40144,"is_reserved":false,"is_disabled":false,"rental_uris":{"android":"levelo://app?vid=3d2e7b3c-8e7f-4212-90cd-fa103541ba03","ios":"levelo://app?vid=3d2e7b3c-8e7f-4212-90cd-fa103541ba03"},"vehicle_type_id":"4","last_reported":1734775686,"current_range_meters":39200,"station_id":"ce4bgvp2rcd13ifvqct0","pricing_plan_id":"cebpf4jnsgd1na2vs0mg"},{"bike_id":"c886d264-379a-484f-b43b-b16e34181651","system_id":"levelo_inurba_marseille","lat":43.29366,"lon":5.37857,"is_reserved":false,"is_disabled":false,"rental_uris":{"android":"levelo://app?vid=c886d264-379a-484f-b43b-b16e34181651","ios":"levelo://app?vid=c886d264-379a-484f-b43b-b16e34181651"},"vehicle_type_id":"4","last_reported":1734775686,"current_range_meters":38800,"station_id":"ce4bgjh2rcd13ifvqbf0","pricing_plan_id":"cebpf4jnsgd1na2vs0mg"},{"bike_id":"7bf00481-e119-414e-90ce-ea5678d48638","system_id":"levelo_inurba_marseille","lat":43.239663,"lon":5.366349,"is_reserved":false,"is_disabled":false,"rental_uris":{"android":"levelo://app?vid=7bf00481-e119-414e-90ce-ea5678d48638","ios":"levelo://app?vid=7bf00481-e119-414e-90ce-ea5678d48638"},"vehicle_type_id":"4","last_reported":1734775686,"current_range_meters":11200,"station_id":"ce4bhi12rcd13ifvqfp0","pricing_plan_id":"cebpf4jnsgd1na2vs0mg"},{"bike_id":"9adbfd80-4a90-423e-918b-efc9aefda7cd","system_id":"levelo_inurba_marseille","lat":43.258637,"lon":5.399085,"is_reserved":false,"is_disabled":false,"rental_uris":{"android":"levelo://app?vid=9adbfd80-4a90-423e-918b-efc9aefda7cd","ios":"levelo://app?vid=9adbfd80-4a90-423e-918b-efc9aefda7cd"},"vehicle_type_id":"4","last_reported":1734775686,"current_range_meters":38800,"station_id":"ce4bhl92rcd13ifvqghg","pricing_plan_id":"cebpf4jnsgd1na2vs0mg"},{"bike_id":"9bb7491e-7fad-44f7-9d24-70eead9038dc","system_id":"levelo_inurba_marseille","lat":43.26052,"lon":5.39388,"is_reserved":false,"is_disabled":false,"rental_uris":{"android":"levelo://app?vid=9bb7491e-7fad-44f7-9d24-70eead9038dc","ios":"levelo://app?vid=9bb7491e-7fad-44f7-9d24-70eead9038dc"},"vehicle_type_id":"4","last_reported":1734775686,"current_range_meters":30400,"station_id":"ce4bhh92rcd13ifvqfj0","pricing_plan_id":"cebpf4jnsgd1na2vs0mg"},{"bike_id":"3f055656-674e-434f-bb6b-6872f59749d0","system_id":"levelo_inurba_marseille","lat":43.27998,"lon":5.40008,"is_reserved":false,"is_disabled":false,"rental_uris":{"android":"levelo://app?vid=3f055656-674e-434f-bb6b-6872f59749d0","ios":"levelo://app?vid=3f055656-674e-434f-bb6b-6872f59749d0"},"vehicle_type_id":"4","last_reported":1734775686,"current_range_meters":38800,"station_id":"ce4bho92rcd13ifvqh4g","pricing_plan_id":"cebpf4jnsgd1na2vs0mg"},{"bike_id":"4010d8ba-4b80-425c-8eba-2845f10315fb","system_id":"levelo_inurba_marseille","lat":43.24072,"lon":5.37758,"is_reserved":false,"is_disabled":false,"rental_uris":{"android":"levelo://app?vid=4010d8ba-4b80-425c-8eba-2845f10315fb","ios":"levelo://app?vid=4010d8ba-4b80-425c-8eba-2845f10315fb"},"vehicle_type_id":"4","last_reported":1734775686,"current_range_meters":17200,"station_id":"ce4bhnp2rcd13ifvqgvg","pricing_plan_id":"cebpf4jnsgd1na2vs0mg"},{"bike_id":"dd52cea9-6fe3-460c-a4fc-255f18d6f38c","system_id":"levelo_inurba_marseille","lat":43.250009,"lon":5.389248,"is_reserved":false,"is_disabled":false,"rental_uris":{"android":"levelo://app?vid=dd52cea9-6fe3-460c-a4fc-255f18d6f38c","ios":"levelo://app?vid=dd52cea9-6fe3-460c-a4fc-255f18d6f38c"},"vehicle_type_id":"4","last_reported":1734775686,"current_range_meters":26800,"station_id":"ce4bhgp2rcd13ifvqfd0","pricing_plan_id":"cebpf4jnsgd1na2vs0mg"},{"bike_id":"02835011-6781-4b21-8cf5-3bf4e96fb2c9","system_id":"levelo_inurba_marseille","lat":43.32478,"lon":5.36603,"is_reserved":false,"is_disabled":false,"rental_uris":{"android":"levelo://app?vid=02835011-6781-4b21-8cf5-3bf4e96fb2c9","ios":"levelo://app?vid=02835011-6781-4b21-8cf5-3bf4e96fb2c9"},"vehicle_type_id":"4","last_reported":1734775686,"current_range_meters":28800,"station_id":"ce4bhs12rcd13ifvqhvg","pricing_plan_id":"cebpf4jnsgd1na2vs0mg"},{"bike_id":"dbfa572c-48d2-40b7-9e4a-c067a654725a","system_id":"levelo_inurba_marseille","lat":43.29709,"lon":5.36621,"is_reserved":false,"is_disabled":false,"rental_uris":{"android":"levelo://app?vid=dbfa572c-48d2-40b7-9e4a-c067a654725a","ios":"levelo://app?vid=dbfa572c-48d2-40b7-9e4a-c067a654725a"},"vehicle_type_id":"4","last_reported":1734775686,"current_range_meters":38800,"station_id":"ce4bgn12rcd13ifvqbt0","pricing_plan_id":"cebpf4jnsgd1na2vs0mg"},{"bike_id":"374fafa2-2dc8-4406-bdf6-9d271c94e496","system_id":"levelo_inurba_marseille","lat":43.29972,"lon":5.37185,"is_reserved":false,"is_disabled":false,"rental_uris":{"android":"levelo://app?vid=374fafa2-2dc8-4406-bdf6-9d271c94e496","ios":"levelo://app?vid=374fafa2-2dc8-4406-bdf6-9d271c94e496"},"vehicle_type_id":"4","last_reported":1734775686,"current_range_meters":20000,"station_id":"ce4bgr92rcd13ifvqc7g","pricing_plan_id":"cebpf4jnsgd1na2vs0mg"},{"bike_id":"0330259f-0861-48f5-9a21-7a991082f91c","system_id":"levelo_inurba_marseille","lat":43.27083,"lon":5.40217,"is_reserved":false,"is_disabled":false,"rental_uris":{"android":"levelo://app?vid=0330259f-0861-48f5-9a21-7a991082f91c","ios":"levelo://app?vid=0330259f-0861-48f5-9a21-7a991082f91c"},"vehicle_type_id":"4","last_reported":1734775686,"current_range_meters":34000,"station_id":"ce4bhk92rcd13ifvqgc0","pricing_plan_id":"cebpf4jnsgd1na2vs0mg"},{"bike_id":"fbf3da40-6db3-4b0a-ba01-e3b05174c03a","system_id":"levelo_inurba_marseille","lat":43.28268,"lon":5.35084,"is_reserved":false,"is_disabled":false,"rental_uris":{"android":"levelo://app?vid=fbf3da40-6db3-4b0a-ba01-e3b05174c03a","ios":"levelo://app?vid=fbf3da40-6db3-4b0a-ba01-e3b05174c03a"},"vehicle_type_id":"4","last_reported":1734775686,"current_range_meters":38800,"station_id":"ce4bhbp2rcd13ifvqerg","pricing_plan_id":"cebpf4jnsgd1na2vs0mg"},{"bike_id":"1f265f2c-c3ce-4530-9858-4eca3d9e00e1","system_id":"levelo_inurba_marseille","lat":43.23187,"lon":5.39995,"is_reserved":false,"is_disabled":false,"rental_uris":{"android":"levelo://app?vid=1f265f2c-c3ce-4530-9858-4eca3d9e00e1","ios":"levelo://app?vid=1f265f2c-c3ce-4530-9858-4eca3d9e00e1"},"vehicle_type_id":"4","last_reported":1734775686,"current_range_meters":10800,"station_id":"ce4bhn12rcd13ifvqgqg","pricing_plan_id":"cebpf4jnsgd1na2vs0mg"},{"bike_id":"7fd1c797-e3d8-4dec-be0f-7347244fa071","system_id":"levelo_inurba_marseille","lat":43.31727,"lon":5.42408,"is_reserved":false,"is_disabled":false,"rental_uris":{"android":"levelo://app?vid=7fd1c797-e3d8-4dec-be0f-7347244fa071","ios":"levelo://app?vid=7fd1c797-e3d8-4dec-be0f-7347244fa071"},"vehicle_type_id":"4","last_reported":1734775686,"current_range_meters":13600,"station_id":"ce4bhp92rcd13ifvqhbg","pricing_plan_id":"cebpf4jnsgd1na2vs0mg"},{"bike_id":"955e581d-46cf-4b13-95aa-95ef0f9ecd7a","system_id":"levelo_inurba_marseille","lat":43.26561,"lon":5.390104,"is_reserved":false,"is_disabled":false,"rental_uris":{"android":"levelo://app?vid=955e581d-46cf-4b13-95aa-95ef0f9ecd7a","ios":"levelo://app?vid=955e581d-46cf-4b13-95aa-95ef0f9ecd7a"},"vehicle_type_id":"4","last_reported":1734775686,"current_range_meters":38800,"station_id":"ce4bhe12rcd13ifvqf30","pricing_plan_id":"cebpf4jnsgd1na2vs0mg"},{"bike_id":"e724f4e5-0922-4e36-91f4-8a4c9d514ff5","system_id":"levelo_inurba_marseille","lat":43.29839,"lon":5.36256,"is_reserved":false,"is_disabled":false,"rental_uris":{"android":"levelo://app?vid=e724f4e5-0922-4e36-91f4-8a4c9d514ff5","ios":"levelo://app?vid=e724f4e5-0922-4e36-91f4-8a4c9d514ff5"},"vehicle_type_id":"4","last_reported":1734775686,"current_range_meters":38800,"station_id":"ce4bgpp2rcd13ifvqc3g","pricing_plan_id":"cebpf4jnsgd1na2vs0mg"},{"bike_id":"abf860be-3d3d-4a76-b353-f7286e2856a9","system_id":"levelo_inurba_marseille","lat":43.337444,"lon":5.374475,"is_reserved":false,"is_disabled":false,"rental_uris":{"android":"levelo://app?vid=abf860be-3d3d-4a76-b353-f7286e2856a9","ios":"levelo://app?vid=abf860be-3d3d-4a76-b353-f7286e2856a9"},"vehicle_type_id":"4","last_reported":1734775686,"current_range_meters":23200,"station_id":"ce4bgj92rcd13ifvqbe0","pricing_plan_id":"cebpf4jnsgd1na2vs0mg"},{"bike_id":"d98f0b8a-1ef4-43b4-85a1-12b00b5f4de1","system_id":"levelo_inurba_marseille","lat":43.28417,"lon":5.3498,"is_reserved":false,"is_disabled":false,"rental_uris":{"android":"levelo://app?vid=d98f0b8a-1ef4-43b4-85a1-12b00b5f4de1","ios":"levelo://app?vid=d98f0b8a-1ef4-43b4-85a1-12b00b5f4de1"},"vehicle_type_id":"4","last_reported":1734775686,"current_range_meters":38800,"station_id":"ce4bhbh2rcd13ifvqepg","pricing_plan_id":"cebpf4jnsgd1na2vs0mg"},{"bike_id":"cbd8c37e-4c23-4764-beb6-a16227464b84","system_id":"levelo_inurba_marseille","lat":43.26809,"lon":5.40263,"is_reserved":false,"is_disabled":false,"rental_uris":{"android":"levelo://app?vid=cbd8c37e-4c23-4764-beb6-a16227464b84","ios":"levelo://app?vid=cbd8c37e-4c23-4764-beb6-a16227464b84"},"vehicle_type_id":"4","last_reported":1734775686,"current_range_meters":36000,"station_id":"ce501612rcd8frsf0b60","pricing_plan_id":"cebpf4jnsgd1na2vs0mg"},{"bike_id":"59ca2ebc-7c6f-439a-a11b-02933f88209e","system_id":"levelo_inurba_marseille","lat":43.27068,"lon":5.42289,"is_reserved":false,"is_disabled":false,"rental_uris":{"android":"levelo://app?vid=59ca2ebc-7c6f-439a-a11b-02933f88209e","ios":"levelo://app?vid=59ca2ebc-7c6f-439a-a11b-02933f88209e"},"vehicle_type_id":"4","last_reported":1734775686,"current_range_meters":38000,"station_id":"ce4bhk92rcd13ifvqgb0","pricing_plan_id":"cebpf4jnsgd1na2vs0mg"},{"bike_id":"c36f9794-db64-4a07-823f-b590f113a19f","system_id":"levelo_inurba_marseille","lat":43.27938,"lon":5.41069,"is_reserved":false,"is_disabled":false,"rental_uris":{"android":"levelo://app?vid=c36f9794-db64-4a07-823f-b590f113a19f","ios":"levelo://app?vid=c36f9794-db64-4a07-823f-b590f113a19f"},"vehicle_type_id":"4","last_reported":1734775686,"current_range_meters":7200,"station_id":"ce4bhnp2rcd13ifvqh0g","pricing_plan_id":"cebpf4jnsgd1na2vs0mg"},{"bike_id":"a05e82d5-edf0-4bab-8347-bee3a08758db","system_id":"levelo_inurba_marseille","lat":43.30323,"lon":5.40444,"is_reserved":false,"is_disabled":false,"rental_uris":{"android":"levelo://app?vid=a05e82d5-edf0-4bab-8347-bee3a08758db","ios":"levelo://app?vid=a05e82d5-edf0-4bab-8347-bee3a08758db"},"vehicle_type_id":"4","last_reported":1734775686,"current_range_meters":37600,"station_id":"ce4bh012rcd13ifvqd10","pricing_plan_id":"cebpf4jnsgd1na2vs0mg"},{"bike_id":"18b3f870-bfe7-4396-81e5-34ed6ada0d75","system_id":"levelo_inurba_marseille","lat":43.30149,"lon":5.38085,"is_reserved":false,"is_disabled":false,"rental_uris":{"android":"levelo://app?vid=18b3f870-bfe7-4396-81e5-34ed6ada0d75","ios":"levelo://app?vid=18b3f870-bfe7-4396-81e5-34ed6ada0d75"},"vehicle_type_id":"4","last_reported":1734775686,"current_range_meters":38800,"station_id":"ce4bgjp2rcd13ifvqbh0","pricing_plan_id":"cebpf4jnsgd1na2vs0mg"},{"bike_id":"75bcc3b1-3091-4198-922a-90b0ea0094c0","system_id":"levelo_inurba_marseille","lat":43.25581,"lon":5.38237,"is_reserved":false,"is_disabled":false,"rental_uris":{"android":"levelo://app?vid=75bcc3b1-3091-4198-922a-90b0ea0094c0","ios":"levelo://app?vid=75bcc3b1-3091-4198-922a-90b0ea0094c0"},"vehicle_type_id":"4","last_reported":1734775686,"current_range_meters":39200,"station_id":"ce4bhih2rcd13ifvqfs0","pricing_plan_id":"cebpf4jnsgd1na2vs0mg"},{"bike_id":"25dffdc4-12e6-479d-a1cf-aedf5dd4dcc0","system_id":"levelo_inurba_marseille","lat":43.29037,"lon":5.39961,"is_reserved":false,"is_disabled":false,"rental_uris":{"android":"levelo://app?vid=25dffdc4-12e6-479d-a1cf-aedf5dd4dcc0","ios":"levelo://app?vid=25dffdc4-12e6-479d-a1cf-aedf5dd4dcc0"},"vehicle_type_id":"4","last_reported":1734775686,"current_range_meters":39200,"station_id":"ce4bh392rcd13ifvqdm0","pricing_plan_id":"cebpf4jnsgd1na2vs0mg"},{"bike_id":"050c3878-40f7-4736-b04e-eb1dd4174ffa","system_id":"levelo_inurba_marseille","lat":43.2319,"lon":5.3999,"is_reserved":false,"is_disabled":false,"rental_uris":{"android":"levelo://app?vid=050c3878-40f7-4736-b04e-eb1dd4174ffa","ios":"levelo://app?vid=050c3878-40f7-4736-b04e-eb1dd4174ffa"},"vehicle_type_id":"4","last_reported":1734775686,"current_range_meters":38800,"station_id":"ce4bhn12rcd13ifvqgqg","pricing_plan_id":"cebpf4jnsgd1na2vs0mg"},{"bike_id":"ceca975b-b342-4918-8353-e4cd51aebfcc","system_id":"levelo_inurba_marseille","lat":43.28614,"lon":5.35112,"is_reserved":false,"is_disabled":false,"rental_uris":{"android":"levelo://app?vid=ceca975b-b342-4918-8353-e4cd51aebfcc","ios":"levelo://app?vid=ceca975b-b342-4918-8353-e4cd51aebfcc"},"vehicle_type_id":"4","last_reported":1734775686,"current_range_meters":38800,"station_id":"ce4bhch2rcd13ifvqeug","pricing_plan_id":"cebpf4jnsgd1na2vs0mg"},{"bike_id":"34721ad7-a92e-445d-bc4f-63022c928c09","system_id":"levelo_inurba_marseille","lat":43.23151,"lon":5.4371,"is_reserved":false,"is_disabled":false,"rental_uris":{"android":"levelo://app?vid=34721ad7-a92e-445d-bc4f-63022c928c09","ios":"levelo://app?vid=34721ad7-a92e-445d-bc4f-63022c928c09"},"vehicle_type_id":"4","last_reported":1734775686,"current_range_meters":34800,"station_id":"ce4bhmp2rcd13ifvqgog","pricing_plan_id":"cebpf4jnsgd1na2vs0mg"},{"bike_id":"66dcc16e-bdd1-4b60-bb3a-7e807e47a410","system_id":"levelo_inurba_marseille","lat":43.26928,"lon":5.38941,"is_reserved":false,"is_disabled":false,"rental_uris":{"android":"levelo://app?vid=66dcc16e-bdd1-4b60-bb3a-7e807e47a410","ios":"levelo://app?vid=66dcc16e-bdd1-4b60-bb3a-7e807e47a410"},"vehicle_type_id":"4","last_reported":1734775686,"current_range_meters":17600,"station_id":"ce4bhhh2rcd13ifvqfl0","pricing_plan_id":"cebpf4jnsgd1na2vs0mg"},{"bike_id":"7355d426-9f36-49d1-ab11-cfd4ce1d25fa","system_id":"levelo_inurba_marseille","lat":43.31885,"lon":5.40742,"is_reserved":false,"is_disabled":false,"rental_uris":{"android":"levelo://app?vid=7355d426-9f36-49d1-ab11-cfd4ce1d25fa","ios":"levelo://app?vid=7355d426-9f36-49d1-ab11-cfd4ce1d25fa"},"vehicle_type_id":"4","last_reported":1734775686,"current_range_meters":36800,"station_id":"ce4bhq12rcd13ifvqhig","pricing_plan_id":"cebpf4jnsgd1na2vs0mg"},{"bike_id":"4ed128f2-c289-492e-b733-41626add23cd","system_id":"levelo_inurba_marseille","lat":43.31892,"lon":5.40748,"is_reserved":false,"is_disabled":false,"rental_uris":{"android":"levelo://app?vid=4ed128f2-c289-492e-b733-41626add23cd","ios":"levelo://app?vid=4ed128f2-c289-492e-b733-41626add23cd"},"vehicle_type_id":"4","last_reported":1734775686,"current_range_meters":37600,"station_id":"ce4bhq12rcd13ifvqhig","pricing_plan_id":"cebpf4jnsgd1na2vs0mg"},{"bike_id":"4cc3998f-f769-41ac-a74c-397255d17c70","system_id":"levelo_inurba_marseille","lat":43.30805,"lon":5.3816,"is_reserved":false,"is_disabled":false,"rental_uris":{"android":"levelo://app?vid=4cc3998f-f769-41ac-a74c-397255d17c70","ios":"levelo://app?vid=4cc3998f-f769-41ac-a74c-397255d17c70"},"vehicle_type_id":"4","last_reported":1734775686,"current_range_meters":38800,"station_id":"ce4bgt12rcd13ifvqce0","pricing_plan_id":"cebpf4jnsgd1na2vs0mg"},{"bike_id":"0980de7c-a667-49ae-a8d0-d19b45101443","system_id":"levelo_inurba_marseille","lat":43.27386,"lon":5.39392,"is_reserved":false,"is_disabled":false,"rental_uris":{"android":"levelo://app?vid=0980de7c-a667-49ae-a8d0-d19b45101443","ios":"levelo://app?vid=0980de7c-a667-49ae-a8d0-d19b45101443"},"vehicle_type_id":"4","last_reported":1734775686,"current_range_meters":26000,"station_id":"ce4bhdp2rcd13ifvqf20","pricing_plan_id":"cebpf4jnsgd1na2vs0mg"},{"bike_id":"360112d3-ef8c-43c6-aab7-f950144b00a7","system_id":"levelo_inurba_marseille","lat":43.30286,"lon":5.37708,"is_reserved":false,"is_disabled":false,"rental_uris":{"android":"levelo://app?vid=360112d3-ef8c-43c6-aab7-f950144b00a7","ios":"levelo://app?vid=360112d3-ef8c-43c6-aab7-f950144b00a7"},"vehicle_type_id":"4","last_reported":1734775686,"current_range_meters":17600,"station_id":"ce4bguh2rcd13ifvqcj0","pricing_plan_id":"cebpf4jnsgd1na2vs0mg"},{"bike_id":"1337798b-3909-4d2e-9c82-73cad4e2fa59","system_id":"levelo_inurba_marseille","lat":43.29192,"lon":5.3581,"is_reserved":false,"is_disabled":false,"rental_uris":{"android":"levelo://app?vid=1337798b-3909-4d2e-9c82-73cad4e2fa59","ios":"levelo://app?vid=1337798b-3909-4d2e-9c82-73cad4e2fa59"},"vehicle_type_id":"4","last_reported":1734775686,"current_range_meters":9200,"station_id":"ce4bhb12rcd13ifvqel0","pricing_plan_id":"cebpf4jnsgd1na2vs0mg"},{"bike_id":"52a88488-4dd2-4f03-9384-f060d17bb6f5","system_id":"levelo_inurba_marseille","lat":43.25864,"lon":5.39896,"is_reserved":false,"is_disabled":true,"rental_uris":{"android":"levelo://app?vid=52a88488-4dd2-4f03-9384-f060d17bb6f5","ios":"levelo://app?vid=52a88488-4dd2-4f03-9384-f060d17bb6f5"},"vehicle_type_id":"4","last_reported":1734775686,"current_range_meters":0,"station_id":"ce4bhl92rcd13ifvqghg","pricing_plan_id":"cebpf4jnsgd1na2vs0mg"},{"bike_id":"ae0d433e-0a1e-4605-b6d4-7ce034ac0e57","system_id":"levelo_inurba_marseille","lat":43.30148,"lon":5.38086,"is_reserved":false,"is_disabled":false,"rental_uris":{"android":"levelo://app?vid=ae0d433e-0a1e-4605-b6d4-7ce034ac0e57","ios":"levelo://app?vid=ae0d433e-0a1e-4605-b6d4-7ce034ac0e57"},"vehicle_type_id":"4","last_reported":1734775686,"current_range_meters":35200,"station_id":"ce4bgjp2rcd13ifvqbh0","pricing_plan_id":"cebpf4jnsgd1na2vs0mg"},{"bike_id":"a57e9664-8eac-454e-a02a-57c62b6d02a3","system_id":"levelo_inurba_marseille","lat":43.29914,"lon":5.3748,"is_reserved":false,"is_disabled":false,"rental_uris":{"android":"levelo://app?vid=a57e9664-8eac-454e-a02a-57c62b6d02a3","ios":"levelo://app?vid=a57e9664-8eac-454e-a02a-57c62b6d02a3"},"vehicle_type_id":"4","last_reported":1734775686,"current_range_meters":38800,"station_id":"ce4bgjh2rcd13ifvqbg0","pricing_plan_id":"cebpf4jnsgd1na2vs0mg"},{"bike_id":"d12ce70c-b951-4f27-9511-65ef01e62a8c","system_id":"levelo_inurba_marseille","lat":43.31168,"lon":5.38723,"is_reserved":false,"is_disabled":false,"rental_uris":{"android":"levelo://app?vid=d12ce70c-b951-4f27-9511-65ef01e62a8c","ios":"levelo://app?vid=d12ce70c-b951-4f27-9511-65ef01e62a8c"},"vehicle_type_id":"4","last_reported":1734775686,"current_range_meters":39200,"station_id":"ce4bgv12rcd13ifvqcp0","pricing_plan_id":"cebpf4jnsgd1na2vs0mg"},{"bike_id":"782bcbf2-b7de-4b04-bebc-aaa0329dd90c","system_id":"levelo_inurba_marseille","lat":43.23191,"lon":5.35554,"is_reserved":false,"is_disabled":false,"rental_uris":{"android":"levelo://app?vid=782bcbf2-b7de-4b04-bebc-aaa0329dd90c","ios":"levelo://app?vid=782bcbf2-b7de-4b04-bebc-aaa0329dd90c"},"vehicle_type_id":"4","last_reported":1734775686,"current_range_meters":32000,"station_id":"ce4bhu92rcd13ifvqi70","pricing_plan_id":"cebpf4jnsgd1na2vs0mg"},{"bike_id":"85f9e523-0569-4463-8594-9f1d3687305b","system_id":"levelo_inurba_marseille","lat":43.27203,"lon":5.39187,"is_reserved":false,"is_disabled":false,"rental_uris":{"android":"levelo://app?vid=85f9e523-0569-4463-8594-9f1d3687305b","ios":"levelo://app?vid=85f9e523-0569-4463-8594-9f1d3687305b"},"vehicle_type_id":"4","last_reported":1734775686,"current_range_meters":35600,"station_id":"ce4bhhp2rcd13ifvqfm0","pricing_plan_id":"cebpf4jnsgd1na2vs0mg"},{"bike_id":"4a2be021-2f35-4eb8-83ed-9e2dc754db9b","system_id":"levelo_inurba_marseille","lat":43.31722,"lon":5.42403,"is_reserved":false,"is_disabled":false,"rental_uris":{"android":"levelo://app?vid=4a2be021-2f35-4eb8-83ed-9e2dc754db9b","ios":"levelo://app?vid=4a2be021-2f35-4eb8-83ed-9e2dc754db9b"},"vehicle_type_id":"4","last_reported":1734775686,"current_range_meters":38800,"station_id":"ce4bhp92rcd13ifvqhbg","pricing_plan_id":"cebpf4jnsgd1na2vs0mg"},{"bike_id":"c9d9a8ec-c062-49f0-af2d-28741e3b78c5","system_id":"levelo_inurba_marseille","lat":43.29529,"lon":5.3905,"is_reserved":false,"is_disabled":false,"rental_uris":{"android":"levelo://app?vid=c9d9a8ec-c062-49f0-af2d-28741e3b78c5","ios":"levelo://app?vid=c9d9a8ec-c062-49f0-af2d-28741e3b78c5"},"vehicle_type_id":"4","last_reported":1734775686,"current_range_meters":38400,"station_id":"ce4bh3p2rcd13ifvqdp0","pricing_plan_id":"cebpf4jnsgd1na2vs0mg"},{"bike_id":"b187d2c6-1551-40b7-885b-869bd52ace8d","system_id":"levelo_inurba_marseille","lat":43.29524,"lon":5.39042,"is_reserved":false,"is_disabled":false,"rental_uris":{"android":"levelo://app?vid=b187d2c6-1551-40b7-885b-869bd52ace8d","ios":"levelo://app?vid=b187d2c6-1551-40b7-885b-869bd52ace8d"},"vehicle_type_id":"4","last_reported":1734775686,"current_range_meters":17200,"station_id":"ce4bh3p2rcd13ifvqdp0","pricing_plan_id":"cebpf4jnsgd1na2vs0mg"},{"bike_id":"a6ee0e99-06f6-4456-a77c-3b447ebd21d7","system_id":"levelo_inurba_marseille","lat":43.25582,"lon":5.38227,"is_reserved":false,"is_disabled":false,"rental_uris":{"android":"levelo://app?vid=a6ee0e99-06f6-4456-a77c-3b447ebd21d7","ios":"levelo://app?vid=a6ee0e99-06f6-4456-a77c-3b447ebd21d7"},"vehicle_type_id":"4","last_reported":1734775686,"current_range_meters":4000,"station_id":"ce4bhih2rcd13ifvqfs0","pricing_plan_id":"cebpf4jnsgd1na2vs0mg"},{"bike_id":"53de60a2-1dc8-4308-bec8-17d5e67e0e0c","system_id":"levelo_inurba_marseille","lat":43.26683,"lon":5.3827,"is_reserved":false,"is_disabled":false,"rental_uris":{"android":"levelo://app?vid=53de60a2-1dc8-4308-bec8-17d5e67e0e0c","ios":"levelo://app?vid=53de60a2-1dc8-4308-bec8-17d5e67e0e0c"},"vehicle_type_id":"4","last_reported":1734775686,"current_range_meters":31200,"station_id":"ce4bhg92rcd13ifvqf90","pricing_plan_id":"cebpf4jnsgd1na2vs0mg"},{"bike_id":"d532bafb-9e8b-4cf7-90e8-b135eb98500d","system_id":"levelo_inurba_marseille","lat":43.3054,"lon":5.36702,"is_reserved":false,"is_disabled":false,"rental_uris":{"android":"levelo://app?vid=d532bafb-9e8b-4cf7-90e8-b135eb98500d","ios":"levelo://app?vid=d532bafb-9e8b-4cf7-90e8-b135eb98500d"},"vehicle_type_id":"4","last_reported":1734775686,"current_range_meters":35600,"station_id":"ce4bgrp2rcd13ifvqc9g","pricing_plan_id":"cebpf4jnsgd1na2vs0mg"},{"bike_id":"434ce6a0-96c5-4ff8-936b-8a3805d21bda","system_id":"levelo_inurba_marseille","lat":43.26031,"lon":5.37549,"is_reserved":false,"is_disabled":false,"rental_uris":{"android":"levelo://app?vid=434ce6a0-96c5-4ff8-936b-8a3805d21bda","ios":"levelo://app?vid=434ce6a0-96c5-4ff8-936b-8a3805d21bda"},"vehicle_type_id":"4","last_reported":1734775686,"current_range_meters":30800,"station_id":"ce4bhgh2rcd13ifvqfa0","pricing_plan_id":"cebpf4jnsgd1na2vs0mg"},{"bike_id":"0f8573bd-6480-49b4-822d-98c8893c51d9","system_id":"levelo_inurba_marseille","lat":43.30145,"lon":5.38086,"is_reserved":false,"is_disabled":false,"rental_uris":{"android":"levelo://app?vid=0f8573bd-6480-49b4-822d-98c8893c51d9","ios":"levelo://app?vid=0f8573bd-6480-49b4-822d-98c8893c51d9"},"vehicle_type_id":"4","last_reported":1734775686,"current_range_meters":33600,"station_id":"ce4bgjp2rcd13ifvqbh0","pricing_plan_id":"cebpf4jnsgd1na2vs0mg"},{"bike_id":"36e1421a-526a-45b4-9352-d10c15fd9574","system_id":"levelo_inurba_marseille","lat":43.30803,"lon":5.4352,"is_reserved":false,"is_disabled":false,"rental_uris":{"android":"levelo://app?vid=36e1421a-526a-45b4-9352-d10c15fd9574","ios":"levelo://app?vid=36e1421a-526a-45b4-9352-d10c15fd9574"},"vehicle_type_id":"4","last_reported":1734775686,"current_range_meters":20800,"station_id":"ce4bhph2rcd13ifvqheg","pricing_plan_id":"cebpf4jnsgd1na2vs0mg"},{"bike_id":"e1e55b34-0cc8-42c6-b9d9-a442d6ab0cd4","system_id":"levelo_inurba_marseille","lat":43.231843,"lon":5.399971,"is_reserved":false,"is_disabled":false,"rental_uris":{"android":"levelo://app?vid=e1e55b34-0cc8-42c6-b9d9-a442d6ab0cd4","ios":"levelo://app?vid=e1e55b34-0cc8-42c6-b9d9-a442d6ab0cd4"},"vehicle_type_id":"4","last_reported":1734775686,"current_range_meters":26800,"station_id":"ce4bhn12rcd13ifvqgqg","pricing_plan_id":"cebpf4jnsgd1na2vs0mg"},{"bike_id":"7dfe0b4f-686f-4b42-9a2a-a22fb46e027a","system_id":"levelo_inurba_marseille","lat":43.30928,"lon":5.40139,"is_reserved":false,"is_disabled":false,"rental_uris":{"android":"levelo://app?vid=7dfe0b4f-686f-4b42-9a2a-a22fb46e027a","ios":"levelo://app?vid=7dfe0b4f-686f-4b42-9a2a-a22fb46e027a"},"vehicle_type_id":"4","last_reported":1734775686,"current_range_meters":33600,"station_id":"ce4bgvp2rcd13ifvqct0","pricing_plan_id":"cebpf4jnsgd1na2vs0mg"},{"bike_id":"b67e6347-c993-4186-b85c-1f54c9e75564","system_id":"levelo_inurba_marseille","lat":43.275703,"lon":5.384219,"is_reserved":false,"is_disabled":false,"rental_uris":{"android":"levelo://app?vid=b67e6347-c993-4186-b85c-1f54c9e75564","ios":"levelo://app?vid=b67e6347-c993-4186-b85c-1f54c9e75564"},"vehicle_type_id":"4","last_reported":1734775686,"current_range_meters":38800,"station_id":"ce4bhh92rcd13ifvqfi0","pricing_plan_id":"cebpf4jnsgd1na2vs0mg"},{"bike_id":"a5404b43-1f8d-4cf3-a071-fce93c8325c1","system_id":"levelo_inurba_marseille","lat":43.27046,"lon":5.40249,"is_reserved":false,"is_disabled":false,"rental_uris":{"android":"levelo://app?vid=a5404b43-1f8d-4cf3-a071-fce93c8325c1","ios":"levelo://app?vid=a5404b43-1f8d-4cf3-a071-fce93c8325c1"},"vehicle_type_id":"4","last_reported":1734775686,"current_range_meters":28000,"station_id":"ce4bhk92rcd13ifvqgc0","pricing_plan_id":"cebpf4jnsgd1na2vs0mg"},{"bike_id":"0e7ace62-43ff-4b65-b292-1bdd6f5e20e7","system_id":"levelo_inurba_marseille","lat":43.31703,"lon":5.37765,"is_reserved":false,"is_disabled":false,"rental_uris":{"android":"levelo://app?vid=0e7ace62-43ff-4b65-b292-1bdd6f5e20e7","ios":"levelo://app?vid=0e7ace62-43ff-4b65-b292-1bdd6f5e20e7"},"vehicle_type_id":"4","last_reported":1734775686,"current_range_meters":12000,"station_id":"ce4bgth2rcd13ifvqch0","pricing_plan_id":"cebpf4jnsgd1na2vs0mg"},{"bike_id":"44127e4e-8e84-4a38-89f7-8f4efb63f7a5","system_id":"levelo_inurba_marseille","lat":43.31199,"lon":5.36755,"is_reserved":false,"is_disabled":true,"rental_uris":{"android":"levelo://app?vid=44127e4e-8e84-4a38-89f7-8f4efb63f7a5","ios":"levelo://app?vid=44127e4e-8e84-4a38-89f7-8f4efb63f7a5"},"vehicle_type_id":"4","last_reported":1734775686,"current_range_meters":0,"station_id":"","pricing_plan_id":"cebpf4jnsgd1na2vs0mg"},{"bike_id":"0bca7b98-b363-4b68-a0b0-e3166a62e017","system_id":"levelo_inurba_marseille","lat":43.341413,"lon":5.408174,"is_reserved":false,"is_disabled":false,"rental_uris":{"android":"levelo://app?vid=0bca7b98-b363-4b68-a0b0-e3166a62e017","ios":"levelo://app?vid=0bca7b98-b363-4b68-a0b0-e3166a62e017"},"vehicle_type_id":"4","last_reported":1734775686,"current_range_meters":35200,"station_id":"ce4bhqh2rcd13ifvqhlg","pricing_plan_id":"cebpf4jnsgd1na2vs0mg"},{"bike_id":"63efaa31-84be-426a-b462-d03945a54ee5","system_id":"levelo_inurba_marseille","lat":43.30472,"lon":5.37913,"is_reserved":false,"is_disabled":false,"rental_uris":{"android":"levelo://app?vid=63efaa31-84be-426a-b462-d03945a54ee5","ios":"levelo://app?vid=63efaa31-84be-426a-b462-d03945a54ee5"},"vehicle_type_id":"4","last_reported":1734775686,"current_range_meters":35200,"station_id":"ce4bgup2rcd13ifvqcn0","pricing_plan_id":"cebpf4jnsgd1na2vs0mg"},{"bike_id":"a6636e31-39bd-4556-93c3-9961dd32e085","system_id":"levelo_inurba_marseille","lat":43.23058,"lon":5.35491,"is_reserved":false,"is_disabled":false,"rental_uris":{"android":"levelo://app?vid=a6636e31-39bd-4556-93c3-9961dd32e085","ios":"levelo://app?vid=a6636e31-39bd-4556-93c3-9961dd32e085"},"vehicle_type_id":"4","last_reported":1734775686,"current_range_meters":24800,"station_id":"cpo3342slgdg3j2ifvpg","pricing_plan_id":"cebpf4jnsgd1na2vs0mg"},{"bike_id":"75683cae-9ab6-4f6d-9ba3-7c63973fa416","system_id":"levelo_inurba_marseille","lat":43.29965,"lon":5.3719,"is_reserved":false,"is_disabled":false,"rental_uris":{"android":"levelo://app?vid=75683cae-9ab6-4f6d-9ba3-7c63973fa416","ios":"levelo://app?vid=75683cae-9ab6-4f6d-9ba3-7c63973fa416"},"vehicle_type_id":"4","last_reported":1734775686,"current_range_meters":28400,"station_id":"ce4bgr92rcd13ifvqc7g","pricing_plan_id":"cebpf4jnsgd1na2vs0mg"},{"bike_id":"4c1fd80c-e9fb-42bb-9ee8-77cae5913cbe","system_id":"levelo_inurba_marseille","lat":43.28604,"lon":5.37062,"is_reserved":false,"is_disabled":false,"rental_uris":{"android":"levelo://app?vid=4c1fd80c-e9fb-42bb-9ee8-77cae5913cbe","ios":"levelo://app?vid=4c1fd80c-e9fb-42bb-9ee8-77cae5913cbe"},"vehicle_type_id":"4","last_reported":1734775686,"current_range_meters":33200,"station_id":"ce4bht12rcd13ifvqi60","pricing_plan_id":"cebpf4jnsgd1na2vs0mg"},{"bike_id":"a198e248-41c4-4a27-af7b-34f7a7595000","system_id":"levelo_inurba_marseille","lat":43.29911,"lon":5.37471,"is_reserved":false,"is_disabled":false,"rental_uris":{"android":"levelo://app?vid=a198e248-41c4-4a27-af7b-34f7a7595000","ios":"levelo://app?vid=a198e248-41c4-4a27-af7b-34f7a7595000"},"vehicle_type_id":"4","last_reported":1734775686,"current_range_meters":39200,"station_id":"ce4bgjh2rcd13ifvqbg0","pricing_plan_id":"cebpf4jnsgd1na2vs0mg"},{"bike_id":"6886a868-fbba-4a80-aff6-59e649cf7d93","system_id":"levelo_inurba_marseille","lat":43.2919,"lon":5.35804,"is_reserved":false,"is_disabled":false,"rental_uris":{"android":"levelo://app?vid=6886a868-fbba-4a80-aff6-59e649cf7d93","ios":"levelo://app?vid=6886a868-fbba-4a80-aff6-59e649cf7d93"},"vehicle_type_id":"4","last_reported":1734775686,"current_range_meters":36800,"station_id":"ce4bhb12rcd13ifvqel0","pricing_plan_id":"cebpf4jnsgd1na2vs0mg"},{"bike_id":"16badcf5-1ba8-4835-be9f-7e551b7380b5","system_id":"levelo_inurba_marseille","lat":43.31896,"lon":5.40748,"is_reserved":false,"is_disabled":false,"rental_uris":{"android":"levelo://app?vid=16badcf5-1ba8-4835-be9f-7e551b7380b5","ios":"levelo://app?vid=16badcf5-1ba8-4835-be9f-7e551b7380b5"},"vehicle_type_id":"4","last_reported":1734775686,"current_range_meters":27600,"station_id":"ce4bhq12rcd13ifvqhig","pricing_plan_id":"cebpf4jnsgd1na2vs0mg"},{"bike_id":"6d3e152a-52b7-4e48-8ce9-495072b8eb15","system_id":"levelo_inurba_marseille","lat":43.33024,"lon":5.39037,"is_reserved":false,"is_disabled":false,"rental_uris":{"android":"levelo://app?vid=6d3e152a-52b7-4e48-8ce9-495072b8eb15","ios":"levelo://app?vid=6d3e152a-52b7-4e48-8ce9-495072b8eb15"},"vehicle_type_id":"4","last_reported":1734775686,"current_range_meters":38800,"station_id":"ce4bhr92rcd13ifvqhrg","pricing_plan_id":"cebpf4jnsgd1na2vs0mg"},{"bike_id":"68882459-87d9-4887-ad0b-5d7b7c1b0145","system_id":"levelo_inurba_marseille","lat":43.337444,"lon":5.374475,"is_reserved":false,"is_disabled":false,"rental_uris":{"android":"levelo://app?vid=68882459-87d9-4887-ad0b-5d7b7c1b0145","ios":"levelo://app?vid=68882459-87d9-4887-ad0b-5d7b7c1b0145"},"vehicle_type_id":"4","last_reported":1734775686,"current_range_meters":10000,"station_id":"ce4bh192rcd13ifvqdb0","pricing_plan_id":"cebpf4jnsgd1na2vs0mg"},{"bike_id":"0572ca58-9665-4ca3-82ef-188eafc537d9","system_id":"levelo_inurba_marseille","lat":43.296333,"lon":5.40591,"is_reserved":false,"is_disabled":false,"rental_uris":{"android":"levelo://app?vid=0572ca58-9665-4ca3-82ef-188eafc537d9","ios":"levelo://app?vid=0572ca58-9665-4ca3-82ef-188eafc537d9"},"vehicle_type_id":"4","last_reported":1734775686,"current_range_meters":39200,"station_id":"ce4bh0h2rcd13ifvqd60","pricing_plan_id":"cebpf4jnsgd1na2vs0mg"},{"bike_id":"f84ece74-9017-42b8-b6e0-0cb4f8e05864","system_id":"levelo_inurba_marseille","lat":43.30086,"lon":5.39093,"is_reserved":false,"is_disabled":false,"rental_uris":{"android":"levelo://app?vid=f84ece74-9017-42b8-b6e0-0cb4f8e05864","ios":"levelo://app?vid=f84ece74-9017-42b8-b6e0-0cb4f8e05864"},"vehicle_type_id":"4","last_reported":1734775686,"current_range_meters":37600,"station_id":"ce4bh192rcd13ifvqdb0","pricing_plan_id":"cebpf4jnsgd1na2vs0mg"},{"bike_id":"584b817f-1a7d-4e53-8e6b-a260280bc97e","system_id":"levelo_inurba_marseille","lat":43.27812,"lon":5.40703,"is_reserved":false,"is_disabled":false,"rental_uris":{"android":"levelo://app?vid=584b817f-1a7d-4e53-8e6b-a260280bc97e","ios":"levelo://app?vid=584b817f-1a7d-4e53-8e6b-a260280bc97e"},"vehicle_type_id":"4","last_reported":1734775686,"current_range_meters":17200,"station_id":"ce4bhnh2rcd13ifvqgtg","pricing_plan_id":"cebpf4jnsgd1na2vs0mg"},{"bike_id":"b1eea5e3-1791-41d6-9f7c-7d0696bb370f","system_id":"levelo_inurba_marseille","lat":43.31123,"lon":5.377647,"is_reserved":false,"is_disabled":false,"rental_uris":{"android":"levelo://app?vid=b1eea5e3-1791-41d6-9f7c-7d0696bb370f","ios":"levelo://app?vid=b1eea5e3-1791-41d6-9f7c-7d0696bb370f"},"vehicle_type_id":"4","last_reported":1734775686,"current_range_meters":31200,"station_id":"ce4bgt92rcd13ifvqcg0","pricing_plan_id":"cebpf4jnsgd1na2vs0mg"},{"bike_id":"b2c5d99c-ba16-4c1c-b1a8-cfcbc20ed5ba","system_id":"levelo_inurba_marseille","lat":43.297088,"lon":5.366169,"is_reserved":false,"is_disabled":false,"rental_uris":{"android":"levelo://app?vid=b2c5d99c-ba16-4c1c-b1a8-cfcbc20ed5ba","ios":"levelo://app?vid=b2c5d99c-ba16-4c1c-b1a8-cfcbc20ed5ba"},"vehicle_type_id":"4","last_reported":1734775686,"current_range_meters":31200,"station_id":"ce4bgn12rcd13ifvqbt0","pricing_plan_id":"cebpf4jnsgd1na2vs0mg"},{"bike_id":"e21b3740-0042-462a-b7db-bf50c59c5c46","system_id":"levelo_inurba_marseille","lat":43.23181,"lon":5.39991,"is_reserved":false,"is_disabled":false,"rental_uris":{"android":"levelo://app?vid=e21b3740-0042-462a-b7db-bf50c59c5c46","ios":"levelo://app?vid=e21b3740-0042-462a-b7db-bf50c59c5c46"},"vehicle_type_id":"4","last_reported":1734775686,"current_range_meters":38800,"station_id":"ce4bhn12rcd13ifvqgqg","pricing_plan_id":"cebpf4jnsgd1na2vs0mg"},{"bike_id":"4ce5df16-d3d9-4bcd-bd7b-5456cdfb6471","system_id":"levelo_inurba_marseille","lat":43.29621,"lon":5.37166,"is_reserved":false,"is_disabled":false,"rental_uris":{"android":"levelo://app?vid=4ce5df16-d3d9-4bcd-bd7b-5456cdfb6471","ios":"levelo://app?vid=4ce5df16-d3d9-4bcd-bd7b-5456cdfb6471"},"vehicle_type_id":"4","last_reported":1734775686,"current_range_meters":35200,"station_id":"ce4bgnh2rcd13ifvqc0g","pricing_plan_id":"cebpf4jnsgd1na2vs0mg"},{"bike_id":"7f741c04-ab61-42f2-9fb6-371995662022","system_id":"levelo_inurba_marseille","lat":43.29065,"lon":5.37169,"is_reserved":false,"is_disabled":false,"rental_uris":{"android":"levelo://app?vid=7f741c04-ab61-42f2-9fb6-371995662022","ios":"levelo://app?vid=7f741c04-ab61-42f2-9fb6-371995662022"},"vehicle_type_id":"4","last_reported":1734775686,"current_range_meters":12800,"station_id":"ce4bh5p2rcd13ifvqe4g","pricing_plan_id":"cebpf4jnsgd1na2vs0mg"},{"bike_id":"50effb17-c2af-4e65-bca2-38ecd696d830","system_id":"levelo_inurba_marseille","lat":43.30603,"lon":5.39362,"is_reserved":false,"is_disabled":false,"rental_uris":{"android":"levelo://app?vid=50effb17-c2af-4e65-bca2-38ecd696d830","ios":"levelo://app?vid=50effb17-c2af-4e65-bca2-38ecd696d830"},"vehicle_type_id":"4","last_reported":1734775686,"current_range_meters":30000,"station_id":"ce4bh0p2rcd13ifvqd80","pricing_plan_id":"cebpf4jnsgd1na2vs0mg"},{"bike_id":"81c55f70-3f5b-44f5-82c2-dadd04d937b5","system_id":"levelo_inurba_marseille","lat":43.311234,"lon":5.377648,"is_reserved":false,"is_disabled":false,"rental_uris":{"android":"levelo://app?vid=81c55f70-3f5b-44f5-82c2-dadd04d937b5","ios":"levelo://app?vid=81c55f70-3f5b-44f5-82c2-dadd04d937b5"},"vehicle_type_id":"4","last_reported":1734775686,"current_range_meters":11200,"station_id":"ce4bgt92rcd13ifvqcg0","pricing_plan_id":"cebpf4jnsgd1na2vs0mg"},{"bike_id":"b2a7f13a-9614-4595-a264-2c05c7dda9fd","system_id":"levelo_inurba_marseille","lat":43.26483,"lon":5.39561,"is_reserved":false,"is_disabled":false,"rental_uris":{"android":"levelo://app?vid=b2a7f13a-9614-4595-a264-2c05c7dda9fd","ios":"levelo://app?vid=b2a7f13a-9614-4595-a264-2c05c7dda9fd"},"vehicle_type_id":"4","last_reported":1734775686,"current_range_meters":13600,"station_id":"ce4bhi12rcd13ifvqfq0","pricing_plan_id":"cebpf4jnsgd1na2vs0mg"},{"bike_id":"8496a299-65f9-497c-80db-68eb9f89b470","system_id":"levelo_inurba_marseille","lat":43.29277,"lon":5.36845,"is_reserved":false,"is_disabled":false,"rental_uris":{"android":"levelo://app?vid=8496a299-65f9-497c-80db-68eb9f89b470","ios":"levelo://app?vid=8496a299-65f9-497c-80db-68eb9f89b470"},"vehicle_type_id":"4","last_reported":1734775686,"current_range_meters":27200,"station_id":"ce4bhbp2rcd13ifvqesg","pricing_plan_id":"cebpf4jnsgd1na2vs0mg"},{"bike_id":"d38b4862-6926-4189-b4f3-1ec13d572e87","system_id":"levelo_inurba_marseille","lat":43.27216,"lon":5.39179,"is_reserved":false,"is_disabled":false,"rental_uris":{"android":"levelo://app?vid=d38b4862-6926-4189-b4f3-1ec13d572e87","ios":"levelo://app?vid=d38b4862-6926-4189-b4f3-1ec13d572e87"},"vehicle_type_id":"4","last_reported":1734775686,"current_range_meters":9200,"station_id":"ce4bhhp2rcd13ifvqfm0","pricing_plan_id":"cebpf4jnsgd1na2vs0mg"},{"bike_id":"eeb165cd-0850-4135-b307-a7a2de607d7b","system_id":"levelo_inurba_marseille","lat":43.28603,"lon":5.37075,"is_reserved":false,"is_disabled":false,"rental_uris":{"android":"levelo://app?vid=eeb165cd-0850-4135-b307-a7a2de607d7b","ios":"levelo://app?vid=eeb165cd-0850-4135-b307-a7a2de607d7b"},"vehicle_type_id":"4","last_reported":1734775686,"current_range_meters":38800,"station_id":"ce4bht12rcd13ifvqi60","pricing_plan_id":"cebpf4jnsgd1na2vs0mg"},{"bike_id":"b9de43f9-466b-4982-8259-bb64e199cbcf","system_id":"levelo_inurba_marseille","lat":43.26031,"lon":5.37552,"is_reserved":false,"is_disabled":false,"rental_uris":{"android":"levelo://app?vid=b9de43f9-466b-4982-8259-bb64e199cbcf","ios":"levelo://app?vid=b9de43f9-466b-4982-8259-bb64e199cbcf"},"vehicle_type_id":"4","last_reported":1734775686,"current_range_meters":38000,"station_id":"ce4bhgh2rcd13ifvqfa0","pricing_plan_id":"cebpf4jnsgd1na2vs0mg"},{"bike_id":"38077ad9-646c-4713-bce3-fb4f9d47c809","system_id":"levelo_inurba_marseille","lat":43.31707,"lon":5.37752,"is_reserved":false,"is_disabled":false,"rental_uris":{"android":"levelo://app?vid=38077ad9-646c-4713-bce3-fb4f9d47c809","ios":"levelo://app?vid=38077ad9-646c-4713-bce3-fb4f9d47c809"},"vehicle_type_id":"4","last_reported":1734775686,"current_range_meters":27200,"station_id":"ce4bgth2rcd13ifvqch0","pricing_plan_id":"cebpf4jnsgd1na2vs0mg"},{"bike_id":"c6c8b182-0397-4cc8-ad31-743b7c56031b","system_id":"levelo_inurba_marseille","lat":43.27203,"lon":5.39194,"is_reserved":false,"is_disabled":true,"rental_uris":{"android":"levelo://app?vid=c6c8b182-0397-4cc8-ad31-743b7c56031b","ios":"levelo://app?vid=c6c8b182-0397-4cc8-ad31-743b7c56031b"},"vehicle_type_id":"4","last_reported":1734775686,"current_range_meters":37600,"station_id":"ce4bhhp2rcd13ifvqfm0","pricing_plan_id":"cebpf4jnsgd1na2vs0mg"},{"bike_id":"c95fb532-1c38-4bbc-904b-217432cb2f5e","system_id":"levelo_inurba_marseille","lat":43.28994,"lon":5.35609,"is_reserved":false,"is_disabled":false,"rental_uris":{"android":"levelo://app?vid=c95fb532-1c38-4bbc-904b-217432cb2f5e","ios":"levelo://app?vid=c95fb532-1c38-4bbc-904b-217432cb2f5e"},"vehicle_type_id":"4","last_reported":1734775686,"current_range_meters":28800,"station_id":"ce4bhb92rcd13ifvqen0","pricing_plan_id":"cebpf4jnsgd1na2vs0mg"},{"bike_id":"94c1c9d2-6f7a-4c88-89a9-59d19643bcfa","system_id":"levelo_inurba_marseille","lat":43.30084,"lon":5.39096,"is_reserved":false,"is_disabled":false,"rental_uris":{"android":"levelo://app?vid=94c1c9d2-6f7a-4c88-89a9-59d19643bcfa","ios":"levelo://app?vid=94c1c9d2-6f7a-4c88-89a9-59d19643bcfa"},"vehicle_type_id":"4","last_reported":1734775686,"current_range_meters":35200,"station_id":"ce4bh192rcd13ifvqdb0","pricing_plan_id":"cebpf4jnsgd1na2vs0mg"},{"bike_id":"0ccdf620-eaf4-47f7-bf63-410613d0565f","system_id":"levelo_inurba_marseille","lat":43.30545,"lon":5.36533,"is_reserved":false,"is_disabled":false,"rental_uris":{"android":"levelo://app?vid=0ccdf620-eaf4-47f7-bf63-410613d0565f","ios":"levelo://app?vid=0ccdf620-eaf4-47f7-bf63-410613d0565f"},"vehicle_type_id":"4","last_reported":1734775686,"current_range_meters":35200,"station_id":"ce4bgs12rcd13ifvqcag","pricing_plan_id":"cebpf4jnsgd1na2vs0mg"},{"bike_id":"9f50244a-d38a-491a-9f70-c23a46404b46","system_id":"levelo_inurba_marseille","lat":43.28602,"lon":5.37071,"is_reserved":false,"is_disabled":false,"rental_uris":{"android":"levelo://app?vid=9f50244a-d38a-491a-9f70-c23a46404b46","ios":"levelo://app?vid=9f50244a-d38a-491a-9f70-c23a46404b46"},"vehicle_type_id":"4","last_reported":1734775686,"current_range_meters":38800,"station_id":"ce4bht12rcd13ifvqi60","pricing_plan_id":"cebpf4jnsgd1na2vs0mg"},{"bike_id":"d49e9901-0be3-493d-8b2e-09dfce392707","system_id":"levelo_inurba_marseille","lat":43.27365,"lon":5.36253,"is_reserved":false,"is_disabled":false,"rental_uris":{"android":"levelo://app?vid=d49e9901-0be3-493d-8b2e-09dfce392707","ios":"levelo://app?vid=d49e9901-0be3-493d-8b2e-09dfce392707"},"vehicle_type_id":"4","last_reported":1734775686,"current_range_meters":38800,"station_id":"ce4bhbh2rcd13ifvqeo0","pricing_plan_id":"cebpf4jnsgd1na2vs0mg"},{"bike_id":"c88c4b0d-8e58-498c-8a16-c07f5bd1c386","system_id":"levelo_inurba_marseille","lat":43.30155,"lon":5.38091,"is_reserved":false,"is_disabled":false,"rental_uris":{"android":"levelo://app?vid=c88c4b0d-8e58-498c-8a16-c07f5bd1c386","ios":"levelo://app?vid=c88c4b0d-8e58-498c-8a16-c07f5bd1c386"},"vehicle_type_id":"4","last_reported":1734775686,"current_range_meters":38800,"station_id":"ce4bgjp2rcd13ifvqbh0","pricing_plan_id":"cebpf4jnsgd1na2vs0mg"},{"bike_id":"90fbf7b3-3e59-4761-9ba2-48103aa75f60","system_id":"levelo_inurba_marseille","lat":43.29894,"lon":5.43669,"is_reserved":false,"is_disabled":false,"rental_uris":{"android":"levelo://app?vid=90fbf7b3-3e59-4761-9ba2-48103aa75f60","ios":"levelo://app?vid=90fbf7b3-3e59-4761-9ba2-48103aa75f60"},"vehicle_type_id":"4","last_reported":1734775686,"current_range_meters":27600,"station_id":"ce4bhpp2rcd13ifvqhfg","pricing_plan_id":"cebpf4jnsgd1na2vs0mg"},{"bike_id":"1bdef960-d6b2-400c-a30c-bfa3da7cbf2e","system_id":"levelo_inurba_marseille","lat":43.27317,"lon":5.39088,"is_reserved":false,"is_disabled":false,"rental_uris":{"android":"levelo://app?vid=1bdef960-d6b2-400c-a30c-bfa3da7cbf2e","ios":"levelo://app?vid=1bdef960-d6b2-400c-a30c-bfa3da7cbf2e"},"vehicle_type_id":"4","last_reported":1734775686,"current_range_meters":33600,"station_id":"ce4bhgp2rcd13ifvqfe0","pricing_plan_id":"cebpf4jnsgd1na2vs0mg"},{"bike_id":"3e76721f-98e4-431f-969b-21f0e57609ec","system_id":"levelo_inurba_marseille","lat":43.24655,"lon":5.38168,"is_reserved":false,"is_disabled":false,"rental_uris":{"android":"levelo://app?vid=3e76721f-98e4-431f-969b-21f0e57609ec","ios":"levelo://app?vid=3e76721f-98e4-431f-969b-21f0e57609ec"},"vehicle_type_id":"4","last_reported":1734775686,"current_range_meters":38800,"station_id":"ce4bhih2rcd13ifvqfr0","pricing_plan_id":"cebpf4jnsgd1na2vs0mg"},{"bike_id":"73c5d15f-aeaa-4940-a243-ec7cfd0884f8","system_id":"levelo_inurba_marseille","lat":43.26925,"lon":5.38917,"is_reserved":false,"is_disabled":false,"rental_uris":{"android":"levelo://app?vid=73c5d15f-aeaa-4940-a243-ec7cfd0884f8","ios":"levelo://app?vid=73c5d15f-aeaa-4940-a243-ec7cfd0884f8"},"vehicle_type_id":"4","last_reported":1734775686,"current_range_meters":38000,"station_id":"ce4bhhh2rcd13ifvqfl0","pricing_plan_id":"cebpf4jnsgd1na2vs0mg"},{"bike_id":"bc813bc0-0591-4549-9941-f7db470b8dfb","system_id":"levelo_inurba_marseille","lat":43.31074,"lon":5.38352,"is_reserved":false,"is_disabled":true,"rental_uris":{"android":"levelo://app?vid=bc813bc0-0591-4549-9941-f7db470b8dfb","ios":"levelo://app?vid=bc813bc0-0591-4549-9941-f7db470b8dfb"},"vehicle_type_id":"4","last_reported":1734775686,"current_range_meters":26000,"station_id":"ce4bgv92rcd13ifvqcr0","pricing_plan_id":"cebpf4jnsgd1na2vs0mg"},{"bike_id":"51ed7e35-bc89-4ee3-b4d7-f310b9625a8a","system_id":"levelo_inurba_marseille","lat":43.2396,"lon":5.36638,"is_reserved":false,"is_disabled":false,"rental_uris":{"android":"levelo://app?vid=51ed7e35-bc89-4ee3-b4d7-f310b9625a8a","ios":"levelo://app?vid=51ed7e35-bc89-4ee3-b4d7-f310b9625a8a"},"vehicle_type_id":"4","last_reported":1734775686,"current_range_meters":16000,"station_id":"ce4bhi12rcd13ifvqfp0","pricing_plan_id":"cebpf4jnsgd1na2vs0mg"},{"bike_id":"07142e45-4671-4830-82a5-36dc9a7aaa70","system_id":"levelo_inurba_marseille","lat":43.30541,"lon":5.36708,"is_reserved":false,"is_disabled":false,"rental_uris":{"android":"levelo://app?vid=07142e45-4671-4830-82a5-36dc9a7aaa70","ios":"levelo://app?vid=07142e45-4671-4830-82a5-36dc9a7aaa70"},"vehicle_type_id":"4","last_reported":1734775686,"current_range_meters":28400,"station_id":"ce4bgrp2rcd13ifvqc9g","pricing_plan_id":"cebpf4jnsgd1na2vs0mg"},{"bike_id":"8fb1bad3-a121-4eb1-a55f-687f99cf68d1","system_id":"levelo_inurba_marseille","lat":43.25487,"lon":5.37648,"is_reserved":false,"is_disabled":false,"rental_uris":{"android":"levelo://app?vid=8fb1bad3-a121-4eb1-a55f-687f99cf68d1","ios":"levelo://app?vid=8fb1bad3-a121-4eb1-a55f-687f99cf68d1"},"vehicle_type_id":"4","last_reported":1734775686,"current_range_meters":36800,"station_id":"ce4bhh12rcd13ifvqff0","pricing_plan_id":"cebpf4jnsgd1na2vs0mg"},{"bike_id":"253d4698-f20c-46f9-bf88-279a0a2c0063","system_id":"levelo_inurba_marseille","lat":43.2396,"lon":5.36633,"is_reserved":false,"is_disabled":false,"rental_uris":{"android":"levelo://app?vid=253d4698-f20c-46f9-bf88-279a0a2c0063","ios":"levelo://app?vid=253d4698-f20c-46f9-bf88-279a0a2c0063"},"vehicle_type_id":"4","last_reported":1734775686,"current_range_meters":34000,"station_id":"ce4bhi12rcd13ifvqfp0","pricing_plan_id":"cebpf4jnsgd1na2vs0mg"},{"bike_id":"852ed0f0-d0a0-46ea-8da1-988f10f2135a","system_id":"levelo_inurba_marseille","lat":43.30544,"lon":5.36539,"is_reserved":false,"is_disabled":false,"rental_uris":{"android":"levelo://app?vid=852ed0f0-d0a0-46ea-8da1-988f10f2135a","ios":"levelo://app?vid=852ed0f0-d0a0-46ea-8da1-988f10f2135a"},"vehicle_type_id":"4","last_reported":1734775686,"current_range_meters":35600,"station_id":"ce4bgs12rcd13ifvqcag","pricing_plan_id":"cebpf4jnsgd1na2vs0mg"},{"bike_id":"62c4bf08-2663-4d5f-b5a0-40453d217c52","system_id":"levelo_inurba_marseille","lat":43.26201,"lon":5.37924,"is_reserved":false,"is_disabled":false,"rental_uris":{"android":"levelo://app?vid=62c4bf08-2663-4d5f-b5a0-40453d217c52","ios":"levelo://app?vid=62c4bf08-2663-4d5f-b5a0-40453d217c52"},"vehicle_type_id":"4","last_reported":1734775686,"current_range_meters":36800,"station_id":"ce4bhjp2rcd13ifvqg90","pricing_plan_id":"cebpf4jnsgd1na2vs0mg"},{"bike_id":"8f6b1583-aded-4ec7-94b5-fc5432a2645e","system_id":"levelo_inurba_marseille","lat":43.23962,"lon":5.3663,"is_reserved":false,"is_disabled":false,"rental_uris":{"android":"levelo://app?vid=8f6b1583-aded-4ec7-94b5-fc5432a2645e","ios":"levelo://app?vid=8f6b1583-aded-4ec7-94b5-fc5432a2645e"},"vehicle_type_id":"4","last_reported":1734775686,"current_range_meters":12800,"station_id":"ce4bhi12rcd13ifvqfp0","pricing_plan_id":"cebpf4jnsgd1na2vs0mg"},{"bike_id":"108b58f7-795b-4bc3-887e-c514a0a656af","system_id":"levelo_inurba_marseille","lat":43.26928,"lon":5.40262,"is_reserved":false,"is_disabled":false,"rental_uris":{"android":"levelo://app?vid=108b58f7-795b-4bc3-887e-c514a0a656af","ios":"levelo://app?vid=108b58f7-795b-4bc3-887e-c514a0a656af"},"vehicle_type_id":"4","last_reported":1734775686,"current_range_meters":38800,"station_id":"cjm6bp8fraef2m0cb0m0","pricing_plan_id":"cebpf4jnsgd1na2vs0mg"},{"bike_id":"fc4ff347-ef4d-4a4d-ae09-babf618fedb6","system_id":"levelo_inurba_marseille","lat":43.24173,"lon":5.36394,"is_reserved":false,"is_disabled":false,"rental_uris":{"android":"levelo://app?vid=fc4ff347-ef4d-4a4d-ae09-babf618fedb6","ios":"levelo://app?vid=fc4ff347-ef4d-4a4d-ae09-babf618fedb6"},"vehicle_type_id":"4","last_reported":1734775686,"current_range_meters":36000,"station_id":"cpo36qri1sfpv3e86is0","pricing_plan_id":"cebpf4jnsgd1na2vs0mg"},{"bike_id":"4e1c702f-4fec-4a09-a45d-af1848f5ba3b","system_id":"levelo_inurba_marseille","lat":43.255793,"lon":5.382422,"is_reserved":false,"is_disabled":false,"rental_uris":{"android":"levelo://app?vid=4e1c702f-4fec-4a09-a45d-af1848f5ba3b","ios":"levelo://app?vid=4e1c702f-4fec-4a09-a45d-af1848f5ba3b"},"vehicle_type_id":"4","last_reported":1734775686,"current_range_meters":37600,"station_id":"ce4bhih2rcd13ifvqfs0","pricing_plan_id":"cebpf4jnsgd1na2vs0mg"},{"bike_id":"1df99967-56a3-41a2-b63f-5159f35b076c","system_id":"levelo_inurba_marseille","lat":43.29245,"lon":5.38434,"is_reserved":false,"is_disabled":false,"rental_uris":{"android":"levelo://app?vid=1df99967-56a3-41a2-b63f-5159f35b076c","ios":"levelo://app?vid=1df99967-56a3-41a2-b63f-5159f35b076c"},"vehicle_type_id":"4","last_reported":1734775686,"current_range_meters":33600,"station_id":"ce4bh692rcd13ifvqea0","pricing_plan_id":"cebpf4jnsgd1na2vs0mg"},{"bike_id":"f9ba1c1b-d284-4bec-be93-123b84c67712","system_id":"levelo_inurba_marseille","lat":43.29073,"lon":5.38156,"is_reserved":false,"is_disabled":false,"rental_uris":{"android":"levelo://app?vid=f9ba1c1b-d284-4bec-be93-123b84c67712","ios":"levelo://app?vid=f9ba1c1b-d284-4bec-be93-123b84c67712"},"vehicle_type_id":"4","last_reported":1734775686,"current_range_meters":9200,"station_id":"ce4bh512rcd13ifvqe2g","pricing_plan_id":"cebpf4jnsgd1na2vs0mg"},{"bike_id":"0fa7c283-b845-49a6-b0b1-e1a0116c4f73","system_id":"levelo_inurba_marseille","lat":43.26497,"lon":5.39544,"is_reserved":false,"is_disabled":false,"rental_uris":{"android":"levelo://app?vid=0fa7c283-b845-49a6-b0b1-e1a0116c4f73","ios":"levelo://app?vid=0fa7c283-b845-49a6-b0b1-e1a0116c4f73"},"vehicle_type_id":"4","last_reported":1734775686,"current_range_meters":38800,"station_id":"ce4bhi12rcd13ifvqfq0","pricing_plan_id":"cebpf4jnsgd1na2vs0mg"},{"bike_id":"1ee4213f-24d8-43d1-9aa2-82e570b9f575","system_id":"levelo_inurba_marseille","lat":43.29914,"lon":5.3748,"is_reserved":false,"is_disabled":false,"rental_uris":{"android":"levelo://app?vid=1ee4213f-24d8-43d1-9aa2-82e570b9f575","ios":"levelo://app?vid=1ee4213f-24d8-43d1-9aa2-82e570b9f575"},"vehicle_type_id":"4","last_reported":1734775686,"current_range_meters":36400,"station_id":"ce4bgjh2rcd13ifvqbg0","pricing_plan_id":"cebpf4jnsgd1na2vs0mg"},{"bike_id":"3140837c-a9d4-4740-adbf-5d102545d88e","system_id":"levelo_inurba_marseille","lat":43.25716,"lon":5.41111,"is_reserved":false,"is_disabled":false,"rental_uris":{"android":"levelo://app?vid=3140837c-a9d4-4740-adbf-5d102545d88e","ios":"levelo://app?vid=3140837c-a9d4-4740-adbf-5d102545d88e"},"vehicle_type_id":"4","last_reported":1734775686,"current_range_meters":39200,"station_id":"ce4bhkp2rcd13ifvqgd0","pricing_plan_id":"cebpf4jnsgd1na2vs0mg"},{"bike_id":"4695cff2-e8a9-4cfc-a059-a1678fa39cf5","system_id":"levelo_inurba_marseille","lat":43.27809,"lon":5.40711,"is_reserved":false,"is_disabled":false,"rental_uris":{"android":"levelo://app?vid=4695cff2-e8a9-4cfc-a059-a1678fa39cf5","ios":"levelo://app?vid=4695cff2-e8a9-4cfc-a059-a1678fa39cf5"},"vehicle_type_id":"4","last_reported":1734775686,"current_range_meters":28000,"station_id":"ce4bhnh2rcd13ifvqgtg","pricing_plan_id":"cebpf4jnsgd1na2vs0mg"},{"bike_id":"1b0e9d34-71b5-4d2a-8c59-b2701c6566e6","system_id":"levelo_inurba_marseille","lat":43.25482,"lon":5.37676,"is_reserved":false,"is_disabled":false,"rental_uris":{"android":"levelo://app?vid=1b0e9d34-71b5-4d2a-8c59-b2701c6566e6","ios":"levelo://app?vid=1b0e9d34-71b5-4d2a-8c59-b2701c6566e6"},"vehicle_type_id":"4","last_reported":1734775686,"current_range_meters":38800,"station_id":"ce4bhh12rcd13ifvqff0","pricing_plan_id":"cebpf4jnsgd1na2vs0mg"},{"bike_id":"ee10f8bd-9885-4a75-9f57-b780f964c544","system_id":"levelo_inurba_marseille","lat":43.26941,"lon":5.40251,"is_reserved":false,"is_disabled":false,"rental_uris":{"android":"levelo://app?vid=ee10f8bd-9885-4a75-9f57-b780f964c544","ios":"levelo://app?vid=ee10f8bd-9885-4a75-9f57-b780f964c544"},"vehicle_type_id":"4","last_reported":1734775686,"current_range_meters":37600,"station_id":"cjm6bp8fraef2m0cb0m0","pricing_plan_id":"cebpf4jnsgd1na2vs0mg"},{"bike_id":"e138211b-e664-4f77-8ebd-8c839406890b","system_id":"levelo_inurba_marseille","lat":43.24075,"lon":5.37756,"is_reserved":false,"is_disabled":false,"rental_uris":{"android":"levelo://app?vid=e138211b-e664-4f77-8ebd-8c839406890b","ios":"levelo://app?vid=e138211b-e664-4f77-8ebd-8c839406890b"},"vehicle_type_id":"4","last_reported":1734775686,"current_range_meters":38800,"station_id":"ce4bhnp2rcd13ifvqgvg","pricing_plan_id":"cebpf4jnsgd1na2vs0mg"},{"bike_id":"014f65b2-e389-4dc9-bdbc-de77644f1fd3","system_id":"levelo_inurba_marseille","lat":43.24811,"lon":5.37457,"is_reserved":false,"is_disabled":false,"rental_uris":{"android":"levelo://app?vid=014f65b2-e389-4dc9-bdbc-de77644f1fd3","ios":"levelo://app?vid=014f65b2-e389-4dc9-bdbc-de77644f1fd3"},"vehicle_type_id":"4","last_reported":1734775686,"current_range_meters":8800,"station_id":"ce4bhgh2rcd13ifvqfb0","pricing_plan_id":"cebpf4jnsgd1na2vs0mg"},{"bike_id":"58141112-5b99-4aae-beae-25f56c1fe6d3","system_id":"levelo_inurba_marseille","lat":43.29374,"lon":5.37857,"is_reserved":false,"is_disabled":false,"rental_uris":{"android":"levelo://app?vid=58141112-5b99-4aae-beae-25f56c1fe6d3","ios":"levelo://app?vid=58141112-5b99-4aae-beae-25f56c1fe6d3"},"vehicle_type_id":"4","last_reported":1734775686,"current_range_meters":24000,"station_id":"ce4bgjh2rcd13ifvqbf0","pricing_plan_id":"cebpf4jnsgd1na2vs0mg"},{"bike_id":"66bfaf26-e1fc-475c-b75c-ffb29954b6d2","system_id":"levelo_inurba_marseille","lat":43.28996,"lon":5.35624,"is_reserved":false,"is_disabled":false,"rental_uris":{"android":"levelo://app?vid=66bfaf26-e1fc-475c-b75c-ffb29954b6d2","ios":"levelo://app?vid=66bfaf26-e1fc-475c-b75c-ffb29954b6d2"},"vehicle_type_id":"4","last_reported":1734775686,"current_range_meters":25600,"station_id":"ce4bhb92rcd13ifvqen0","pricing_plan_id":"cebpf4jnsgd1na2vs0mg"},{"bike_id":"8e278825-8514-476a-92f0-d6d73f71febe","system_id":"levelo_inurba_marseille","lat":43.2736,"lon":5.36252,"is_reserved":false,"is_disabled":false,"rental_uris":{"android":"levelo://app?vid=8e278825-8514-476a-92f0-d6d73f71febe","ios":"levelo://app?vid=8e278825-8514-476a-92f0-d6d73f71febe"},"vehicle_type_id":"4","last_reported":1734775686,"current_range_meters":27600,"station_id":"ce4bhbh2rcd13ifvqeo0","pricing_plan_id":"cebpf4jnsgd1na2vs0mg"},{"bike_id":"8596446d-9dd3-4f53-b787-dee60f461614","system_id":"levelo_inurba_marseille","lat":43.29708,"lon":5.37698,"is_reserved":false,"is_disabled":false,"rental_uris":{"android":"levelo://app?vid=8596446d-9dd3-4f53-b787-dee60f461614","ios":"levelo://app?vid=8596446d-9dd3-4f53-b787-dee60f461614"},"vehicle_type_id":"4","last_reported":1734775686,"current_range_meters":34000,"station_id":"ce4bgkh2rcd13ifvqbl0","pricing_plan_id":"cebpf4jnsgd1na2vs0mg"},{"bike_id":"bd23a801-7ebe-4d21-b274-7e6fae8da365","system_id":"levelo_inurba_marseille","lat":43.26581,"lon":5.3906,"is_reserved":false,"is_disabled":false,"rental_uris":{"android":"levelo://app?vid=bd23a801-7ebe-4d21-b274-7e6fae8da365","ios":"levelo://app?vid=bd23a801-7ebe-4d21-b274-7e6fae8da365"},"vehicle_type_id":"4","last_reported":1734775686,"current_range_meters":28000,"station_id":"ce4bhe12rcd13ifvqf30","pricing_plan_id":"cebpf4jnsgd1na2vs0mg"},{"bike_id":"0d08bce9-5500-4f9a-bd1e-c3986914d1bf","system_id":"levelo_inurba_marseille","lat":43.29616,"lon":5.3775,"is_reserved":false,"is_disabled":false,"rental_uris":{"android":"levelo://app?vid=0d08bce9-5500-4f9a-bd1e-c3986914d1bf","ios":"levelo://app?vid=0d08bce9-5500-4f9a-bd1e-c3986914d1bf"},"vehicle_type_id":"4","last_reported":1734775686,"current_range_meters":36000,"station_id":"ce4bgi92rcd13ifvqb90","pricing_plan_id":"cebpf4jnsgd1na2vs0mg"},{"bike_id":"99a6d131-5bad-4343-a723-e7fe142328dc","system_id":"levelo_inurba_marseille","lat":43.28707,"lon":5.37396,"is_reserved":false,"is_disabled":true,"rental_uris":{"android":"levelo://app?vid=99a6d131-5bad-4343-a723-e7fe142328dc","ios":"levelo://app?vid=99a6d131-5bad-4343-a723-e7fe142328dc"},"vehicle_type_id":"4","last_reported":1734775686,"current_range_meters":0,"station_id":"ce4bh3p2rcd13ifvqdq0","pricing_plan_id":"cebpf4jnsgd1na2vs0mg"},{"bike_id":"6a858be1-6962-40de-8c38-5c7f90a31857","system_id":"levelo_inurba_marseille","lat":43.24665,"lon":5.38162,"is_reserved":false,"is_disabled":false,"rental_uris":{"android":"levelo://app?vid=6a858be1-6962-40de-8c38-5c7f90a31857","ios":"levelo://app?vid=6a858be1-6962-40de-8c38-5c7f90a31857"},"vehicle_type_id":"4","last_reported":1734775686,"current_range_meters":38800,"station_id":"ce4bhih2rcd13ifvqfr0","pricing_plan_id":"cebpf4jnsgd1na2vs0mg"},{"bike_id":"2a12bde8-ca1e-4ca8-8cbb-8dbf9a638106","system_id":"levelo_inurba_marseille","lat":43.231886,"lon":5.355568,"is_reserved":false,"is_disabled":false,"rental_uris":{"android":"levelo://app?vid=2a12bde8-ca1e-4ca8-8cbb-8dbf9a638106","ios":"levelo://app?vid=2a12bde8-ca1e-4ca8-8cbb-8dbf9a638106"},"vehicle_type_id":"4","last_reported":1734775686,"current_range_meters":22000,"station_id":"ce4bhu92rcd13ifvqi70","pricing_plan_id":"cebpf4jnsgd1na2vs0mg"},{"bike_id":"82b98b08-cf84-40f3-a0a4-1136038c5b5f","system_id":"levelo_inurba_marseille","lat":43.28854,"lon":5.35854,"is_reserved":false,"is_disabled":false,"rental_uris":{"android":"levelo://app?vid=82b98b08-cf84-40f3-a0a4-1136038c5b5f","ios":"levelo://app?vid=82b98b08-cf84-40f3-a0a4-1136038c5b5f"},"vehicle_type_id":"4","last_reported":1734775686,"current_range_meters":30000,"station_id":"ce4bhb12rcd13ifvqem0","pricing_plan_id":"cebpf4jnsgd1na2vs0mg"},{"bike_id":"c4f01ca7-28f1-454d-ba01-b7f6f6e2db1f","system_id":"levelo_inurba_marseille","lat":43.27432,"lon":5.39406,"is_reserved":false,"is_disabled":false,"rental_uris":{"android":"levelo://app?vid=c4f01ca7-28f1-454d-ba01-b7f6f6e2db1f","ios":"levelo://app?vid=c4f01ca7-28f1-454d-ba01-b7f6f6e2db1f"},"vehicle_type_id":"4","last_reported":1734775686,"current_range_meters":38800,"station_id":"ce4bhdp2rcd13ifvqf20","pricing_plan_id":"cebpf4jnsgd1na2vs0mg"},{"bike_id":"3e87962f-c5d0-4b5c-835d-92479f6292b4","system_id":"levelo_inurba_marseille","lat":43.27317,"lon":5.39098,"is_reserved":false,"is_disabled":false,"rental_uris":{"android":"levelo://app?vid=3e87962f-c5d0-4b5c-835d-92479f6292b4","ios":"levelo://app?vid=3e87962f-c5d0-4b5c-835d-92479f6292b4"},"vehicle_type_id":"4","last_reported":1734775686,"current_range_meters":36800,"station_id":"ce4bhgp2rcd13ifvqfe0","pricing_plan_id":"cebpf4jnsgd1na2vs0mg"},{"bike_id":"d9e31e13-d2b9-4926-bcde-e349aeb42a53","system_id":"levelo_inurba_marseille","lat":43.261989,"lon":5.37933,"is_reserved":false,"is_disabled":true,"rental_uris":{"android":"levelo://app?vid=d9e31e13-d2b9-4926-bcde-e349aeb42a53","ios":"levelo://app?vid=d9e31e13-d2b9-4926-bcde-e349aeb42a53"},"vehicle_type_id":"4","last_reported":1734775686,"current_range_meters":0,"station_id":"ce4bhjp2rcd13ifvqg90","pricing_plan_id":"cebpf4jnsgd1na2vs0mg"},{"bike_id":"f0bcbb45-555d-4c5b-8534-084b0fafc4e9","system_id":"levelo_inurba_marseille","lat":43.29176,"lon":5.37144,"is_reserved":false,"is_disabled":true,"rental_uris":{"android":"levelo://app?vid=f0bcbb45-555d-4c5b-8534-084b0fafc4e9","ios":"levelo://app?vid=f0bcbb45-555d-4c5b-8534-084b0fafc4e9"},"vehicle_type_id":"4","last_reported":1734775686,"current_range_meters":38800,"station_id":"ce4bha92rcd13ifvqeh0","pricing_plan_id":"cebpf4jnsgd1na2vs0mg"},{"bike_id":"7f745eaa-0951-4de8-a456-b18f153b05b6","system_id":"levelo_inurba_marseille","lat":43.29774,"lon":5.38134,"is_reserved":false,"is_disabled":false,"rental_uris":{"android":"levelo://app?vid=7f745eaa-0951-4de8-a456-b18f153b05b6","ios":"levelo://app?vid=7f745eaa-0951-4de8-a456-b18f153b05b6"},"vehicle_type_id":"4","last_reported":1734775686,"current_range_meters":28400,"station_id":"ce4bgip2rcd13ifvqbb0","pricing_plan_id":"cebpf4jnsgd1na2vs0mg"},{"bike_id":"0d97fe76-08b3-4fe5-94cd-e3771b17b56e","system_id":"levelo_inurba_marseille","lat":43.25081,"lon":5.3952,"is_reserved":false,"is_disabled":false,"rental_uris":{"android":"levelo://app?vid=0d97fe76-08b3-4fe5-94cd-e3771b17b56e","ios":"levelo://app?vid=0d97fe76-08b3-4fe5-94cd-e3771b17b56e"},"vehicle_type_id":"4","last_reported":1734775686,"current_range_meters":20400,"station_id":"ce4bhm12rcd13ifvqgkg","pricing_plan_id":"cebpf4jnsgd1na2vs0mg"},{"bike_id":"b002d028-e42c-46e2-93ce-a18a7a90546e","system_id":"levelo_inurba_marseille","lat":43.32283,"lon":5.38276,"is_reserved":false,"is_disabled":false,"rental_uris":{"android":"levelo://app?vid=b002d028-e42c-46e2-93ce-a18a7a90546e","ios":"levelo://app?vid=b002d028-e42c-46e2-93ce-a18a7a90546e"},"vehicle_type_id":"4","last_reported":1734775686,"current_range_meters":14000,"station_id":"ce4bhr12rcd13ifvqhqg","pricing_plan_id":"cebpf4jnsgd1na2vs0mg"},{"bike_id":"5076b741-a4b7-47fa-9b72-319a9ce42e52","system_id":"levelo_inurba_marseille","lat":43.30143,"lon":5.39872,"is_reserved":false,"is_disabled":false,"rental_uris":{"android":"levelo://app?vid=5076b741-a4b7-47fa-9b72-319a9ce42e52","ios":"levelo://app?vid=5076b741-a4b7-47fa-9b72-319a9ce42e52"},"vehicle_type_id":"4","last_reported":1734775686,"current_range_meters":38800,"station_id":"ce4bh0h2rcd13ifvqd40","pricing_plan_id":"cebpf4jnsgd1na2vs0mg"},{"bike_id":"ea8be749-1cab-4974-9a55-3873c6dab939","system_id":"levelo_inurba_marseille","lat":43.24072,"lon":5.37767,"is_reserved":false,"is_disabled":false,"rental_uris":{"android":"levelo://app?vid=ea8be749-1cab-4974-9a55-3873c6dab939","ios":"levelo://app?vid=ea8be749-1cab-4974-9a55-3873c6dab939"},"vehicle_type_id":"4","last_reported":1734775686,"current_range_meters":20000,"station_id":"ce4bhnp2rcd13ifvqgvg","pricing_plan_id":"cebpf4jnsgd1na2vs0mg"},{"bike_id":"b954fced-95b7-49e4-a709-38eba735a230","system_id":"levelo_inurba_marseille","lat":43.29712,"lon":5.36629,"is_reserved":false,"is_disabled":false,"rental_uris":{"android":"levelo://app?vid=b954fced-95b7-49e4-a709-38eba735a230","ios":"levelo://app?vid=b954fced-95b7-49e4-a709-38eba735a230"},"vehicle_type_id":"4","last_reported":1734775686,"current_range_meters":36800,"station_id":"ce4bgn12rcd13ifvqbt0","pricing_plan_id":"cebpf4jnsgd1na2vs0mg"},{"bike_id":"4094ac40-fe97-4483-91f4-bc4b6a97b4f3","system_id":"levelo_inurba_marseille","lat":43.25834,"lon":5.39401,"is_reserved":false,"is_disabled":false,"rental_uris":{"android":"levelo://app?vid=4094ac40-fe97-4483-91f4-bc4b6a97b4f3","ios":"levelo://app?vid=4094ac40-fe97-4483-91f4-bc4b6a97b4f3"},"vehicle_type_id":"4","last_reported":1734775686,"current_range_meters":6800,"station_id":"ce4bhip2rcd13ifvqft0","pricing_plan_id":"cebpf4jnsgd1na2vs0mg"},{"bike_id":"b44f9236-c33f-43b3-ab7e-0f32e9951c9e","system_id":"levelo_inurba_marseille","lat":43.23195,"lon":5.35553,"is_reserved":false,"is_disabled":false,"rental_uris":{"android":"levelo://app?vid=b44f9236-c33f-43b3-ab7e-0f32e9951c9e","ios":"levelo://app?vid=b44f9236-c33f-43b3-ab7e-0f32e9951c9e"},"vehicle_type_id":"4","last_reported":1734775686,"current_range_meters":36800,"station_id":"ce4bhu92rcd13ifvqi70","pricing_plan_id":"cebpf4jnsgd1na2vs0mg"},{"bike_id":"83571daf-4df4-4c30-875e-3631c985fa1d","system_id":"levelo_inurba_marseille","lat":43.29833,"lon":5.36265,"is_reserved":false,"is_disabled":false,"rental_uris":{"android":"levelo://app?vid=83571daf-4df4-4c30-875e-3631c985fa1d","ios":"levelo://app?vid=83571daf-4df4-4c30-875e-3631c985fa1d"},"vehicle_type_id":"4","last_reported":1734775686,"current_range_meters":28800,"station_id":"ce4bgpp2rcd13ifvqc3g","pricing_plan_id":"cebpf4jnsgd1na2vs0mg"},{"bike_id":"9becddea-ecbc-4149-89d1-f1de80737443","system_id":"levelo_inurba_marseille","lat":43.2668,"lon":5.38268,"is_reserved":false,"is_disabled":false,"rental_uris":{"android":"levelo://app?vid=9becddea-ecbc-4149-89d1-f1de80737443","ios":"levelo://app?vid=9becddea-ecbc-4149-89d1-f1de80737443"},"vehicle_type_id":"4","last_reported":1734775686,"current_range_meters":36400,"station_id":"ce4bhg92rcd13ifvqf90","pricing_plan_id":"cebpf4jnsgd1na2vs0mg"},{"bike_id":"eaffa15c-2566-4daf-9b62-519df646d0e5","system_id":"levelo_inurba_marseille","lat":43.29797,"lon":5.403971,"is_reserved":false,"is_disabled":false,"rental_uris":{"android":"levelo://app?vid=eaffa15c-2566-4daf-9b62-519df646d0e5","ios":"levelo://app?vid=eaffa15c-2566-4daf-9b62-519df646d0e5"},"vehicle_type_id":"4","last_reported":1734775686,"current_range_meters":27200,"station_id":"ce4bh112rcd13ifvqd90","pricing_plan_id":"cebpf4jnsgd1na2vs0mg"},{"bike_id":"db122134-c31b-4a82-9b05-bda39f6fec31","system_id":"levelo_inurba_marseille","lat":43.24672,"lon":5.38135,"is_reserved":false,"is_disabled":false,"rental_uris":{"android":"levelo://app?vid=db122134-c31b-4a82-9b05-bda39f6fec31","ios":"levelo://app?vid=db122134-c31b-4a82-9b05-bda39f6fec31"},"vehicle_type_id":"4","last_reported":1734775686,"current_range_meters":37600,"station_id":"ce4bhih2rcd13ifvqfr0","pricing_plan_id":"cebpf4jnsgd1na2vs0mg"},{"bike_id":"3798593a-5b27-4be0-a19d-ee53a8d97020","system_id":"levelo_inurba_marseille","lat":43.26569,"lon":5.39008,"is_reserved":false,"is_disabled":false,"rental_uris":{"android":"levelo://app?vid=3798593a-5b27-4be0-a19d-ee53a8d97020","ios":"levelo://app?vid=3798593a-5b27-4be0-a19d-ee53a8d97020"},"vehicle_type_id":"4","last_reported":1734775686,"current_range_meters":18000,"station_id":"ce4bhe12rcd13ifvqf30","pricing_plan_id":"cebpf4jnsgd1na2vs0mg"},{"bike_id":"6b2d33d2-c480-4eff-a39c-ef0138c5be04","system_id":"levelo_inurba_marseille","lat":43.29695,"lon":5.36629,"is_reserved":false,"is_disabled":false,"rental_uris":{"android":"levelo://app?vid=6b2d33d2-c480-4eff-a39c-ef0138c5be04","ios":"levelo://app?vid=6b2d33d2-c480-4eff-a39c-ef0138c5be04"},"vehicle_type_id":"4","last_reported":1734775686,"current_range_meters":38800,"station_id":"ce4bgn12rcd13ifvqbt0","pricing_plan_id":"cebpf4jnsgd1na2vs0mg"},{"bike_id":"17b601cd-a936-4f03-83ec-79f3f5082e84","system_id":"levelo_inurba_marseille","lat":43.33019,"lon":5.39035,"is_reserved":false,"is_disabled":false,"rental_uris":{"android":"levelo://app?vid=17b601cd-a936-4f03-83ec-79f3f5082e84","ios":"levelo://app?vid=17b601cd-a936-4f03-83ec-79f3f5082e84"},"vehicle_type_id":"4","last_reported":1734775686,"current_range_meters":38800,"station_id":"ce4bhr92rcd13ifvqhrg","pricing_plan_id":"cebpf4jnsgd1na2vs0mg"},{"bike_id":"a4cdc68d-9a41-489e-9b1d-3577a4e39cb2","system_id":"levelo_inurba_marseille","lat":43.31726,"lon":5.42396,"is_reserved":false,"is_disabled":false,"rental_uris":{"android":"levelo://app?vid=a4cdc68d-9a41-489e-9b1d-3577a4e39cb2","ios":"levelo://app?vid=a4cdc68d-9a41-489e-9b1d-3577a4e39cb2"},"vehicle_type_id":"4","last_reported":1734775686,"current_range_meters":39200,"station_id":"ce4bhp92rcd13ifvqhbg","pricing_plan_id":"cebpf4jnsgd1na2vs0mg"},{"bike_id":"c7a92880-39e2-4aa8-beb1-d3f7fee63a5e","system_id":"levelo_inurba_marseille","lat":43.298527,"lon":5.362874,"is_reserved":false,"is_disabled":false,"rental_uris":{"android":"levelo://app?vid=c7a92880-39e2-4aa8-beb1-d3f7fee63a5e","ios":"levelo://app?vid=c7a92880-39e2-4aa8-beb1-d3f7fee63a5e"},"vehicle_type_id":"4","last_reported":1734775686,"current_range_meters":36400,"station_id":"ce4bgpp2rcd13ifvqc3g","pricing_plan_id":"cebpf4jnsgd1na2vs0mg"},{"bike_id":"61bd45b4-bece-42b5-80d4-864f70786968","system_id":"levelo_inurba_marseille","lat":43.2862,"lon":5.35101,"is_reserved":false,"is_disabled":false,"rental_uris":{"android":"levelo://app?vid=61bd45b4-bece-42b5-80d4-864f70786968","ios":"levelo://app?vid=61bd45b4-bece-42b5-80d4-864f70786968"},"vehicle_type_id":"4","last_reported":1734775686,"current_range_meters":38400,"station_id":"ce4bhch2rcd13ifvqeug","pricing_plan_id":"cebpf4jnsgd1na2vs0mg"},{"bike_id":"ba623d7f-de4d-43e6-9a39-be19938e75fb","system_id":"levelo_inurba_marseille","lat":43.29372,"lon":5.37861,"is_reserved":false,"is_disabled":true,"rental_uris":{"android":"levelo://app?vid=ba623d7f-de4d-43e6-9a39-be19938e75fb","ios":"levelo://app?vid=ba623d7f-de4d-43e6-9a39-be19938e75fb"},"vehicle_type_id":"4","last_reported":1734775686,"current_range_meters":38000,"station_id":"","pricing_plan_id":"cebpf4jnsgd1na2vs0mg"},{"bike_id":"018f5571-4b34-48d4-958a-35f5a2845ad1","system_id":"levelo_inurba_marseille","lat":43.24387,"lon":5.37057,"is_reserved":false,"is_disabled":false,"rental_uris":{"android":"levelo://app?vid=018f5571-4b34-48d4-958a-35f5a2845ad1","ios":"levelo://app?vid=018f5571-4b34-48d4-958a-35f5a2845ad1"},"vehicle_type_id":"4","last_reported":1734775686,"current_range_meters":38800,"station_id":"ce4bhhh2rcd13ifvqfk0","pricing_plan_id":"cebpf4jnsgd1na2vs0mg"},{"bike_id":"96ba536b-2cb3-4278-bf91-5a965d369b9b","system_id":"levelo_inurba_marseille","lat":43.24375,"lon":5.3706,"is_reserved":false,"is_disabled":false,"rental_uris":{"android":"levelo://app?vid=96ba536b-2cb3-4278-bf91-5a965d369b9b","ios":"levelo://app?vid=96ba536b-2cb3-4278-bf91-5a965d369b9b"},"vehicle_type_id":"4","last_reported":1734775686,"current_range_meters":38800,"station_id":"ce4bhhh2rcd13ifvqfk0","pricing_plan_id":"cebpf4jnsgd1na2vs0mg"},{"bike_id":"8cdcae47-908a-458f-a2fa-1801c24f1aff","system_id":"levelo_inurba_marseille","lat":43.29576,"lon":5.38145,"is_reserved":false,"is_disabled":false,"rental_uris":{"android":"levelo://app?vid=8cdcae47-908a-458f-a2fa-1801c24f1aff","ios":"levelo://app?vid=8cdcae47-908a-458f-a2fa-1801c24f1aff"},"vehicle_type_id":"4","last_reported":1734775686,"current_range_meters":38800,"station_id":"ce4bgl12rcd13ifvqbo0","pricing_plan_id":"cebpf4jnsgd1na2vs0mg"},{"bike_id":"eb66acd5-ad04-42f2-8460-25bae4cd3515","system_id":"levelo_inurba_marseille","lat":43.30283,"lon":5.377,"is_reserved":false,"is_disabled":false,"rental_uris":{"android":"levelo://app?vid=eb66acd5-ad04-42f2-8460-25bae4cd3515","ios":"levelo://app?vid=eb66acd5-ad04-42f2-8460-25bae4cd3515"},"vehicle_type_id":"4","last_reported":1734775686,"current_range_meters":39200,"station_id":"ce4bguh2rcd13ifvqcj0","pricing_plan_id":"cebpf4jnsgd1na2vs0mg"},{"bike_id":"caa28317-677f-4684-8cc6-46932db162b9","system_id":"levelo_inurba_marseille","lat":43.27813,"lon":5.40718,"is_reserved":false,"is_disabled":false,"rental_uris":{"android":"levelo://app?vid=caa28317-677f-4684-8cc6-46932db162b9","ios":"levelo://app?vid=caa28317-677f-4684-8cc6-46932db162b9"},"vehicle_type_id":"4","last_reported":1734775686,"current_range_meters":17600,"station_id":"ce4bhnh2rcd13ifvqgtg","pricing_plan_id":"cebpf4jnsgd1na2vs0mg"},{"bike_id":"d7a9a039-2919-4498-94bc-85df69bbf9b4","system_id":"levelo_inurba_marseille","lat":43.25076,"lon":5.39523,"is_reserved":false,"is_disabled":true,"rental_uris":{"android":"levelo://app?vid=d7a9a039-2919-4498-94bc-85df69bbf9b4","ios":"levelo://app?vid=d7a9a039-2919-4498-94bc-85df69bbf9b4"},"vehicle_type_id":"4","last_reported":1734775686,"current_range_meters":800,"station_id":"ce4bhm12rcd13ifvqgkg","pricing_plan_id":"cebpf4jnsgd1na2vs0mg"},{"bike_id":"f6e00a83-cc1f-4aaf-83bb-77e9d3b9e809","system_id":"levelo_inurba_marseille","lat":43.337444,"lon":5.374475,"is_reserved":false,"is_disabled":false,"rental_uris":{"android":"levelo://app?vid=f6e00a83-cc1f-4aaf-83bb-77e9d3b9e809","ios":"levelo://app?vid=f6e00a83-cc1f-4aaf-83bb-77e9d3b9e809"},"vehicle_type_id":"4","last_reported":1734775686,"current_range_meters":28800,"station_id":"","pricing_plan_id":"cebpf4jnsgd1na2vs0mg"},{"bike_id":"2e0a4273-9b64-4eb1-8d1b-b8e55991eb0a","system_id":"levelo_inurba_marseille","lat":43.27994,"lon":5.39991,"is_reserved":false,"is_disabled":true,"rental_uris":{"android":"levelo://app?vid=2e0a4273-9b64-4eb1-8d1b-b8e55991eb0a","ios":"levelo://app?vid=2e0a4273-9b64-4eb1-8d1b-b8e55991eb0a"},"vehicle_type_id":"4","last_reported":1734775686,"current_range_meters":0,"station_id":"","pricing_plan_id":"cebpf4jnsgd1na2vs0mg"},{"bike_id":"7d1b96ea-46ee-455b-a275-7a36e20b7a8b","system_id":"levelo_inurba_marseille","lat":43.30098,"lon":5.39085,"is_reserved":false,"is_disabled":true,"rental_uris":{"android":"levelo://app?vid=7d1b96ea-46ee-455b-a275-7a36e20b7a8b","ios":"levelo://app?vid=7d1b96ea-46ee-455b-a275-7a36e20b7a8b"},"vehicle_type_id":"4","last_reported":1734775686,"current_range_meters":0,"station_id":"ce4bh192rcd13ifvqdb0","pricing_plan_id":"cebpf4jnsgd1na2vs0mg"},{"bike_id":"cc973fd4-f0ac-4016-a5e2-1bd0637993cd","system_id":"levelo_inurba_marseille","lat":43.30553,"lon":5.38434,"is_reserved":false,"is_disabled":false,"rental_uris":{"android":"levelo://app?vid=cc973fd4-f0ac-4016-a5e2-1bd0637993cd","ios":"levelo://app?vid=cc973fd4-f0ac-4016-a5e2-1bd0637993cd"},"vehicle_type_id":"4","last_reported":1734775686,"current_range_meters":38000,"station_id":"ce4bgg92rcd13ifvqb30","pricing_plan_id":"cebpf4jnsgd1na2vs0mg"},{"bike_id":"f957ffa3-7b76-4b18-bb62-81627d313cf8","system_id":"levelo_inurba_marseille","lat":43.23185,"lon":5.35574,"is_reserved":false,"is_disabled":false,"rental_uris":{"android":"levelo://app?vid=f957ffa3-7b76-4b18-bb62-81627d313cf8","ios":"levelo://app?vid=f957ffa3-7b76-4b18-bb62-81627d313cf8"},"vehicle_type_id":"4","last_reported":1734775686,"current_range_meters":26800,"station_id":"ce4bhu92rcd13ifvqi70","pricing_plan_id":"cebpf4jnsgd1na2vs0mg"},{"bike_id":"e50a7838-679e-4bcc-a6ea-c07f3d5e9bd5","system_id":"levelo_inurba_marseille","lat":43.3054,"lon":5.36561,"is_reserved":false,"is_disabled":false,"rental_uris":{"android":"levelo://app?vid=e50a7838-679e-4bcc-a6ea-c07f3d5e9bd5","ios":"levelo://app?vid=e50a7838-679e-4bcc-a6ea-c07f3d5e9bd5"},"vehicle_type_id":"4","last_reported":1734775686,"current_range_meters":27200,"station_id":"ce4bgs12rcd13ifvqcag","pricing_plan_id":"cebpf4jnsgd1na2vs0mg"},{"bike_id":"c7f9bf9c-ec13-4707-8403-99f25f18e11c","system_id":"levelo_inurba_marseille","lat":43.30155,"lon":5.3809,"is_reserved":false,"is_disabled":false,"rental_uris":{"android":"levelo://app?vid=c7f9bf9c-ec13-4707-8403-99f25f18e11c","ios":"levelo://app?vid=c7f9bf9c-ec13-4707-8403-99f25f18e11c"},"vehicle_type_id":"4","last_reported":1734775686,"current_range_meters":38000,"station_id":"ce4bgjp2rcd13ifvqbh0","pricing_plan_id":"cebpf4jnsgd1na2vs0mg"},{"bike_id":"7a3eed2a-156f-4b63-af42-78de99c01294","system_id":"levelo_inurba_marseille","lat":43.30465,"lon":5.37922,"is_reserved":false,"is_disabled":false,"rental_uris":{"android":"levelo://app?vid=7a3eed2a-156f-4b63-af42-78de99c01294","ios":"levelo://app?vid=7a3eed2a-156f-4b63-af42-78de99c01294"},"vehicle_type_id":"4","last_reported":1734775686,"current_range_meters":20400,"station_id":"ce4bgup2rcd13ifvqcn0","pricing_plan_id":"cebpf4jnsgd1na2vs0mg"},{"bike_id":"8d23ef1c-4d80-41f5-8856-02b6ab55c880","system_id":"levelo_inurba_marseille","lat":43.33729,"lon":5.39184,"is_reserved":false,"is_disabled":false,"rental_uris":{"android":"levelo://app?vid=8d23ef1c-4d80-41f5-8856-02b6ab55c880","ios":"levelo://app?vid=8d23ef1c-4d80-41f5-8856-02b6ab55c880"},"vehicle_type_id":"4","last_reported":1734775686,"current_range_meters":36400,"station_id":"ce4bhr92rcd13ifvqhsg","pricing_plan_id":"cebpf4jnsgd1na2vs0mg"},{"bike_id":"273828d0-ad53-4df1-ab71-8bd58cada311","system_id":"levelo_inurba_marseille","lat":43.23192,"lon":5.39994,"is_reserved":false,"is_disabled":false,"rental_uris":{"android":"levelo://app?vid=273828d0-ad53-4df1-ab71-8bd58cada311","ios":"levelo://app?vid=273828d0-ad53-4df1-ab71-8bd58cada311"},"vehicle_type_id":"4","last_reported":1734775686,"current_range_meters":13600,"station_id":"ce4bhn12rcd13ifvqgqg","pricing_plan_id":"cebpf4jnsgd1na2vs0mg"},{"bike_id":"2256e953-e04c-4a1a-96b7-b03d74e4d2b6","system_id":"levelo_inurba_marseille","lat":43.24799,"lon":5.37468,"is_reserved":false,"is_disabled":false,"rental_uris":{"android":"levelo://app?vid=2256e953-e04c-4a1a-96b7-b03d74e4d2b6","ios":"levelo://app?vid=2256e953-e04c-4a1a-96b7-b03d74e4d2b6"},"vehicle_type_id":"4","last_reported":1734775686,"current_range_meters":38400,"station_id":"ce4bhgh2rcd13ifvqfb0","pricing_plan_id":"cebpf4jnsgd1na2vs0mg"},{"bike_id":"262a779a-beef-44bc-b3db-a8962ed22f5a","system_id":"levelo_inurba_marseille","lat":43.2952,"lon":5.37508,"is_reserved":false,"is_disabled":false,"rental_uris":{"android":"levelo://app?vid=262a779a-beef-44bc-b3db-a8962ed22f5a","ios":"levelo://app?vid=262a779a-beef-44bc-b3db-a8962ed22f5a"},"vehicle_type_id":"4","last_reported":1734775686,"current_range_meters":15200,"station_id":"ce4bgkp2rcd13ifvqbmg","pricing_plan_id":"cebpf4jnsgd1na2vs0mg"},{"bike_id":"d60d8232-4a96-492d-9348-9c3d8bdfda03","system_id":"levelo_inurba_marseille","lat":43.29835,"lon":5.3629,"is_reserved":false,"is_disabled":false,"rental_uris":{"android":"levelo://app?vid=d60d8232-4a96-492d-9348-9c3d8bdfda03","ios":"levelo://app?vid=d60d8232-4a96-492d-9348-9c3d8bdfda03"},"vehicle_type_id":"4","last_reported":1734775686,"current_range_meters":38400,"station_id":"ce4bgpp2rcd13ifvqc3g","pricing_plan_id":"cebpf4jnsgd1na2vs0mg"},{"bike_id":"0365d627-bfc5-459b-8305-c5938b939cbe","system_id":"levelo_inurba_marseille","lat":43.2693,"lon":5.38928,"is_reserved":false,"is_disabled":false,"rental_uris":{"android":"levelo://app?vid=0365d627-bfc5-459b-8305-c5938b939cbe","ios":"levelo://app?vid=0365d627-bfc5-459b-8305-c5938b939cbe"},"vehicle_type_id":"4","last_reported":1734775686,"current_range_meters":28000,"station_id":"ce4bhhh2rcd13ifvqfl0","pricing_plan_id":"cebpf4jnsgd1na2vs0mg"},{"bike_id":"fa9a7d0e-d330-4c4d-8939-d09e0d83f11b","system_id":"levelo_inurba_marseille","lat":43.32542,"lon":5.4143,"is_reserved":false,"is_disabled":false,"rental_uris":{"android":"levelo://app?vid=fa9a7d0e-d330-4c4d-8939-d09e0d83f11b","ios":"levelo://app?vid=fa9a7d0e-d330-4c4d-8939-d09e0d83f11b"},"vehicle_type_id":"4","last_reported":1734775686,"current_range_meters":38800,"station_id":"ce4bhq12rcd13ifvqhhg","pricing_plan_id":"cebpf4jnsgd1na2vs0mg"},{"bike_id":"19f34006-1dba-4c03-b59a-0511830589aa","system_id":"levelo_inurba_marseille","lat":43.248,"lon":5.37463,"is_reserved":false,"is_disabled":false,"rental_uris":{"android":"levelo://app?vid=19f34006-1dba-4c03-b59a-0511830589aa","ios":"levelo://app?vid=19f34006-1dba-4c03-b59a-0511830589aa"},"vehicle_type_id":"4","last_reported":1734775686,"current_range_meters":22400,"station_id":"ce4bhgh2rcd13ifvqfb0","pricing_plan_id":"cebpf4jnsgd1na2vs0mg"},{"bike_id":"22bdccb5-0b76-4a8d-b0d5-6698c69a7ff3","system_id":"levelo_inurba_marseille","lat":43.33777,"lon":5.3744,"is_reserved":false,"is_disabled":false,"rental_uris":{"android":"levelo://app?vid=22bdccb5-0b76-4a8d-b0d5-6698c69a7ff3","ios":"levelo://app?vid=22bdccb5-0b76-4a8d-b0d5-6698c69a7ff3"},"vehicle_type_id":"4","last_reported":1734775686,"current_range_meters":38400,"station_id":"","pricing_plan_id":"cebpf4jnsgd1na2vs0mg"},{"bike_id":"bffdb595-5ef9-4fbb-b316-887b15202198","system_id":"levelo_inurba_marseille","lat":43.28252,"lon":5.35087,"is_reserved":false,"is_disabled":false,"rental_uris":{"android":"levelo://app?vid=bffdb595-5ef9-4fbb-b316-887b15202198","ios":"levelo://app?vid=bffdb595-5ef9-4fbb-b316-887b15202198"},"vehicle_type_id":"4","last_reported":1734775686,"current_range_meters":38800,"station_id":"ce4bhbp2rcd13ifvqerg","pricing_plan_id":"cebpf4jnsgd1na2vs0mg"},{"bike_id":"646232ca-85af-4543-9491-77ec5822ec23","system_id":"levelo_inurba_marseille","lat":43.29833,"lon":5.36223,"is_reserved":false,"is_disabled":false,"rental_uris":{"android":"levelo://app?vid=646232ca-85af-4543-9491-77ec5822ec23","ios":"levelo://app?vid=646232ca-85af-4543-9491-77ec5822ec23"},"vehicle_type_id":"4","last_reported":1734775686,"current_range_meters":30400,"station_id":"ce4bgpp2rcd13ifvqc3g","pricing_plan_id":"cebpf4jnsgd1na2vs0mg"},{"bike_id":"be8555e4-0447-448f-a199-d1ee57117487","system_id":"levelo_inurba_marseille","lat":43.3093,"lon":5.40149,"is_reserved":false,"is_disabled":false,"rental_uris":{"android":"levelo://app?vid=be8555e4-0447-448f-a199-d1ee57117487","ios":"levelo://app?vid=be8555e4-0447-448f-a199-d1ee57117487"},"vehicle_type_id":"4","last_reported":1734775686,"current_range_meters":24800,"station_id":"ce4bgvp2rcd13ifvqct0","pricing_plan_id":"cebpf4jnsgd1na2vs0mg"},{"bike_id":"723b635c-d72a-47a0-a994-f42fb93169c7","system_id":"levelo_inurba_marseille","lat":43.29733,"lon":5.37698,"is_reserved":false,"is_disabled":false,"rental_uris":{"android":"levelo://app?vid=723b635c-d72a-47a0-a994-f42fb93169c7","ios":"levelo://app?vid=723b635c-d72a-47a0-a994-f42fb93169c7"},"vehicle_type_id":"4","last_reported":1734775686,"current_range_meters":38400,"station_id":"ce4bgkh2rcd13ifvqbl0","pricing_plan_id":"cebpf4jnsgd1na2vs0mg"},{"bike_id":"70ecbe0e-a770-4e0e-b7c1-b40d9dc6c110","system_id":"levelo_inurba_marseille","lat":43.30159,"lon":5.38089,"is_reserved":false,"is_disabled":false,"rental_uris":{"android":"levelo://app?vid=70ecbe0e-a770-4e0e-b7c1-b40d9dc6c110","ios":"levelo://app?vid=70ecbe0e-a770-4e0e-b7c1-b40d9dc6c110"},"vehicle_type_id":"4","last_reported":1734775686,"current_range_meters":35600,"station_id":"ce4bgjp2rcd13ifvqbh0","pricing_plan_id":"cebpf4jnsgd1na2vs0mg"},{"bike_id":"bbe27add-01ae-4f81-bec0-02d8246bfe5a","system_id":"levelo_inurba_marseille","lat":43.25886,"lon":5.39887,"is_reserved":false,"is_disabled":false,"rental_uris":{"android":"levelo://app?vid=bbe27add-01ae-4f81-bec0-02d8246bfe5a","ios":"levelo://app?vid=bbe27add-01ae-4f81-bec0-02d8246bfe5a"},"vehicle_type_id":"4","last_reported":1734775686,"current_range_meters":37600,"station_id":"ce4bhl92rcd13ifvqghg","pricing_plan_id":"cebpf4jnsgd1na2vs0mg"},{"bike_id":"1f23b2e2-48cd-4c25-967d-4145bfcfa354","system_id":"levelo_inurba_marseille","lat":43.2794,"lon":5.41039,"is_reserved":false,"is_disabled":false,"rental_uris":{"android":"levelo://app?vid=1f23b2e2-48cd-4c25-967d-4145bfcfa354","ios":"levelo://app?vid=1f23b2e2-48cd-4c25-967d-4145bfcfa354"},"vehicle_type_id":"4","last_reported":1734775686,"current_range_meters":26800,"station_id":"ce4bhnp2rcd13ifvqh0g","pricing_plan_id":"cebpf4jnsgd1na2vs0mg"},{"bike_id":"b49fffa8-49b5-425f-a464-ad2030a4be86","system_id":"levelo_inurba_marseille","lat":43.29799,"lon":5.371,"is_reserved":false,"is_disabled":false,"rental_uris":{"android":"levelo://app?vid=b49fffa8-49b5-425f-a464-ad2030a4be86","ios":"levelo://app?vid=b49fffa8-49b5-425f-a464-ad2030a4be86"},"vehicle_type_id":"4","last_reported":1734775686,"current_range_meters":39200,"station_id":"ce4bgop2rcd13ifvqc1g","pricing_plan_id":"cebpf4jnsgd1na2vs0mg"},{"bike_id":"e353d62c-c5ff-4f13-94a9-2d54b9fdbe08","system_id":"levelo_inurba_marseille","lat":43.288463,"lon":5.358413,"is_reserved":false,"is_disabled":true,"rental_uris":{"android":"levelo://app?vid=e353d62c-c5ff-4f13-94a9-2d54b9fdbe08","ios":"levelo://app?vid=e353d62c-c5ff-4f13-94a9-2d54b9fdbe08"},"vehicle_type_id":"4","last_reported":1734775686,"current_range_meters":0,"station_id":"ce4bhb12rcd13ifvqem0","pricing_plan_id":"cebpf4jnsgd1na2vs0mg"},{"bike_id":"fc8374d6-82e9-4a15-b845-733036c4a6d7","system_id":"levelo_inurba_marseille","lat":43.29089,"lon":5.38154,"is_reserved":false,"is_disabled":false,"rental_uris":{"android":"levelo://app?vid=fc8374d6-82e9-4a15-b845-733036c4a6d7","ios":"levelo://app?vid=fc8374d6-82e9-4a15-b845-733036c4a6d7"},"vehicle_type_id":"4","last_reported":1734775686,"current_range_meters":38800,"station_id":"ce4bh512rcd13ifvqe2g","pricing_plan_id":"cebpf4jnsgd1na2vs0mg"},{"bike_id":"dfd60306-6842-4fae-aacb-4c30d2d5cfbb","system_id":"levelo_inurba_marseille","lat":43.27375,"lon":5.36251,"is_reserved":false,"is_disabled":false,"rental_uris":{"android":"levelo://app?vid=dfd60306-6842-4fae-aacb-4c30d2d5cfbb","ios":"levelo://app?vid=dfd60306-6842-4fae-aacb-4c30d2d5cfbb"},"vehicle_type_id":"4","last_reported":1734775686,"current_range_meters":25200,"station_id":"ce4bhbh2rcd13ifvqeo0","pricing_plan_id":"cebpf4jnsgd1na2vs0mg"},{"bike_id":"9cd48470-b556-4ffc-840d-b0fb8a93d01d","system_id":"levelo_inurba_marseille","lat":43.269327,"lon":5.389066,"is_reserved":false,"is_disabled":false,"rental_uris":{"android":"levelo://app?vid=9cd48470-b556-4ffc-840d-b0fb8a93d01d","ios":"levelo://app?vid=9cd48470-b556-4ffc-840d-b0fb8a93d01d"},"vehicle_type_id":"4","last_reported":1734775686,"current_range_meters":38800,"station_id":"ce4bhhh2rcd13ifvqfl0","pricing_plan_id":"cebpf4jnsgd1na2vs0mg"},{"bike_id":"435a483f-4ebb-4a13-8a63-4ec77b767870","system_id":"levelo_inurba_marseille","lat":43.29938,"lon":5.36566,"is_reserved":false,"is_disabled":false,"rental_uris":{"android":"levelo://app?vid=435a483f-4ebb-4a13-8a63-4ec77b767870","ios":"levelo://app?vid=435a483f-4ebb-4a13-8a63-4ec77b767870"},"vehicle_type_id":"4","last_reported":1734775686,"current_range_meters":32000,"station_id":"ce4bgm92rcd13ifvqbr0","pricing_plan_id":"cebpf4jnsgd1na2vs0mg"},{"bike_id":"494c8398-822e-42ee-a7f1-dfd664d1fba7","system_id":"levelo_inurba_marseille","lat":43.23205,"lon":5.3556,"is_reserved":false,"is_disabled":false,"rental_uris":{"android":"levelo://app?vid=494c8398-822e-42ee-a7f1-dfd664d1fba7","ios":"levelo://app?vid=494c8398-822e-42ee-a7f1-dfd664d1fba7"},"vehicle_type_id":"4","last_reported":1734775686,"current_range_meters":31200,"station_id":"ce4bhu92rcd13ifvqi70","pricing_plan_id":"cebpf4jnsgd1na2vs0mg"},{"bike_id":"724b6d1d-1b77-4a84-b175-490e1e136446","system_id":"levelo_inurba_marseille","lat":43.29527,"lon":5.39048,"is_reserved":false,"is_disabled":false,"rental_uris":{"android":"levelo://app?vid=724b6d1d-1b77-4a84-b175-490e1e136446","ios":"levelo://app?vid=724b6d1d-1b77-4a84-b175-490e1e136446"},"vehicle_type_id":"4","last_reported":1734775686,"current_range_meters":32400,"station_id":"ce4bh3p2rcd13ifvqdp0","pricing_plan_id":"cebpf4jnsgd1na2vs0mg"},{"bike_id":"fbdf6156-8014-4f46-9b80-f7f54ff1d0c7","system_id":"levelo_inurba_marseille","lat":43.29007,"lon":5.35606,"is_reserved":false,"is_disabled":false,"rental_uris":{"android":"levelo://app?vid=fbdf6156-8014-4f46-9b80-f7f54ff1d0c7","ios":"levelo://app?vid=fbdf6156-8014-4f46-9b80-f7f54ff1d0c7"},"vehicle_type_id":"4","last_reported":1734775686,"current_range_meters":38800,"station_id":"ce4bhb92rcd13ifvqen0","pricing_plan_id":"cebpf4jnsgd1na2vs0mg"},{"bike_id":"c782be4b-818b-4cb4-830c-89e6e8de2966","system_id":"levelo_inurba_marseille","lat":43.27821,"lon":5.40757,"is_reserved":false,"is_disabled":false,"rental_uris":{"android":"levelo://app?vid=c782be4b-818b-4cb4-830c-89e6e8de2966","ios":"levelo://app?vid=c782be4b-818b-4cb4-830c-89e6e8de2966"},"vehicle_type_id":"4","last_reported":1734775686,"current_range_meters":28800,"station_id":"ce4bhnh2rcd13ifvqgtg","pricing_plan_id":"cebpf4jnsgd1na2vs0mg"},{"bike_id":"714aa917-666e-44ad-87e7-7e5422dc5135","system_id":"levelo_inurba_marseille","lat":43.28619,"lon":5.35109,"is_reserved":false,"is_disabled":false,"rental_uris":{"android":"levelo://app?vid=714aa917-666e-44ad-87e7-7e5422dc5135","ios":"levelo://app?vid=714aa917-666e-44ad-87e7-7e5422dc5135"},"vehicle_type_id":"4","last_reported":1734775686,"current_range_meters":26800,"station_id":"ce4bhch2rcd13ifvqeug","pricing_plan_id":"cebpf4jnsgd1na2vs0mg"},{"bike_id":"28195630-2c39-4c93-bf30-6590e0ccf6df","system_id":"levelo_inurba_marseille","lat":43.27056,"lon":5.40264,"is_reserved":false,"is_disabled":false,"rental_uris":{"android":"levelo://app?vid=28195630-2c39-4c93-bf30-6590e0ccf6df","ios":"levelo://app?vid=28195630-2c39-4c93-bf30-6590e0ccf6df"},"vehicle_type_id":"4","last_reported":1734775686,"current_range_meters":14000,"station_id":"ce4bhk92rcd13ifvqgc0","pricing_plan_id":"cebpf4jnsgd1na2vs0mg"},{"bike_id":"8a56a36e-eecf-4a92-a28a-3314a0538bbf","system_id":"levelo_inurba_marseille","lat":43.29193,"lon":5.39317,"is_reserved":false,"is_disabled":true,"rental_uris":{"android":"levelo://app?vid=8a56a36e-eecf-4a92-a28a-3314a0538bbf","ios":"levelo://app?vid=8a56a36e-eecf-4a92-a28a-3314a0538bbf"},"vehicle_type_id":"4","last_reported":1734775686,"current_range_meters":35200,"station_id":"ce4bh192rcd13ifvqdd0","pricing_plan_id":"cebpf4jnsgd1na2vs0mg"},{"bike_id":"47cc93a7-70b5-45bf-991b-f441a77935aa","system_id":"levelo_inurba_marseille","lat":43.27327,"lon":5.39081,"is_reserved":false,"is_disabled":true,"rental_uris":{"android":"levelo://app?vid=47cc93a7-70b5-45bf-991b-f441a77935aa","ios":"levelo://app?vid=47cc93a7-70b5-45bf-991b-f441a77935aa"},"vehicle_type_id":"4","last_reported":1734775686,"current_range_meters":37600,"station_id":"ce4bhgp2rcd13ifvqfe0","pricing_plan_id":"cebpf4jnsgd1na2vs0mg"},{"bike_id":"76f7298d-23db-43ba-97cb-ee0a1bca30fa","system_id":"levelo_inurba_marseille","lat":43.26937,"lon":5.40244,"is_reserved":false,"is_disabled":false,"rental_uris":{"android":"levelo://app?vid=76f7298d-23db-43ba-97cb-ee0a1bca30fa","ios":"levelo://app?vid=76f7298d-23db-43ba-97cb-ee0a1bca30fa"},"vehicle_type_id":"4","last_reported":1734775686,"current_range_meters":38800,"station_id":"cjm6bp8fraef2m0cb0m0","pricing_plan_id":"cebpf4jnsgd1na2vs0mg"},{"bike_id":"39cb86bd-d333-444c-a321-d07277f74a29","system_id":"levelo_inurba_marseille","lat":43.265573,"lon":5.372965,"is_reserved":false,"is_disabled":false,"rental_uris":{"android":"levelo://app?vid=39cb86bd-d333-444c-a321-d07277f74a29","ios":"levelo://app?vid=39cb86bd-d333-444c-a321-d07277f74a29"},"vehicle_type_id":"4","last_reported":1734775686,"current_range_meters":33600,"station_id":"ce4bhg12rcd13ifvqf70","pricing_plan_id":"cebpf4jnsgd1na2vs0mg"},{"bike_id":"a2eba22b-b0ee-4005-9bf3-576bb458d391","system_id":"levelo_inurba_marseille","lat":43.279651,"lon":5.387544,"is_reserved":false,"is_disabled":true,"rental_uris":{"android":"levelo://app?vid=a2eba22b-b0ee-4005-9bf3-576bb458d391","ios":"levelo://app?vid=a2eba22b-b0ee-4005-9bf3-576bb458d391"},"vehicle_type_id":"4","last_reported":1734775686,"current_range_meters":0,"station_id":"","pricing_plan_id":"cebpf4jnsgd1na2vs0mg"},{"bike_id":"2df75b14-e01b-4bb6-957a-a6913d7552be","system_id":"levelo_inurba_marseille","lat":43.29163,"lon":5.3716,"is_reserved":false,"is_disabled":false,"rental_uris":{"android":"levelo://app?vid=2df75b14-e01b-4bb6-957a-a6913d7552be","ios":"levelo://app?vid=2df75b14-e01b-4bb6-957a-a6913d7552be"},"vehicle_type_id":"4","last_reported":1734775686,"current_range_meters":39200,"station_id":"ce4bha92rcd13ifvqeh0","pricing_plan_id":"cebpf4jnsgd1na2vs0mg"},