{"last_updated":1682442374,"ttl":30,"version":"2.2","data":{"bikes":[{"bike_id":"3230f115-a64b-4c9b-8c4f-5b4f8558cd4a","system_id":"levelo_inurba_marseille","lat":43.31493,"lon":5.37299,"is_reserved":false,"is_disabled":false,"rental_uris":{"android":"levelo://app?vid=3230f115-a64b-4c9b-8c4f-5b4f8558cd4a","ios":"levelo://app?vid=3230f115-a64b-4c9b-8c4f-5b4f8558cd4a"},"vehicle_type_id":"4","last_reported":1682442374,"current_range_meters":30000,"station_id":"ce4bgt12rcd13ifvqcd0","pricing_plan_id":"free"},{"bike_id":"ed09d7e9-a107-43eb-a60b-268d3049d876","system_id":"levelo_inurba_marseille","lat":43.314811,"lon":5.373103,"is_reserved":false,"is_disabled":false,"rental_uris":{"android":"levelo://app?vid=ed09d7e9-a107-43eb-a60b-268d3049d876","ios":"levelo://app?vid=ed09d7e9-a107-43eb-a60b-268d3049d876"},"vehicle_type_id":"4","last_reported":1682442374,"current_range_meters":18000,"station_id":"ce4bgt12rcd13ifvqcd0","pricing_plan_id":"free"},{"bike_id":"5700d577-d577-48e2-96f7-0f96f9458b94","system_id":"levelo_inurba_marseille","lat":43.314811,"lon":5.373104,"is_reserved":false,"is_disabled":false,"rental_uris":{"android":"levelo://app?vid=5700d577-d577-48e2-96f7-0f96f9458b94","ios":"levelo://app?vid=5700d577-d577-48e2-96f7-0f96f9458b94"},"vehicle_type_id":"4","last_reported":1682442374,"current_range_meters":31200,"station_id":"ce4bgt12rcd13ifvqcd0","pricing_plan_id":"free"},{"bike_id":"7a3f5de7-c1e5-401e-857b-594ade39c15c","system_id":"levelo_inurba_marseille","lat":43.31489,"lon":5.37307,"is_reserved":false,"is_disabled":false,"rental_uris":{"android":"levelo://app?vid=7a3f5de7-c1e5-401e-857b-594ade39c15c","ios":"levelo://app?vid=7a3f5de7-c1e5-401e-857b-594ade39c15c"},"vehicle_type_id":"4","last_reported":1682442374,"current_range_meters":29600,"station_id":"ce4bgt12rcd13ifvqcd0","pricing_plan_id":"free"},{"bike_id":"9ab05350-5777-48db-96ba-dd310746fd05","system_id":"levelo_inurba_marseille","lat":43.314811,"lon":5.373103,"is_reserved":false,"is_disabled":false,"rental_uris":{"android":"levelo://app?vid=9ab05350-5777-48db-96ba-dd310746fd05","ios":"levelo://app?vid=9ab05350-5777-48db-96ba-dd310746fd05"},"vehicle_type_id":"4","last_reported":1682442374,"current_range_meters":14400,"station_id":"ce4bgt12rcd13ifvqcd0","pricing_plan_id":"free"},{"bike_id":"a22e3575-d738-42e8-a143-5cea4dadfaf5","system_id":"levelo_inurba_marseille","lat":43.305989,"lon":5.37225,"is_reserved":false,"is_disabled":false,"rental_uris":{"android":"levelo://app?vid=a22e3575-d738-42e8-a143-5cea4dadfaf5","ios":"levelo://app?vid=a22e3575-d738-42e8-a143-5cea4dadfaf5"},"vehicle_type_id":"4","last_reported":1682442374,"current_range_meters":22800,"station_id":"ce4bgqh2rcd13ifvqc4g","pricing_plan_id":"free"},{"bike_id":"6fa1dc01-5792-4b43-9e20-11175ef565da","system_id":"levelo_inurba_marseille","lat":43.305989,"lon":5.37225,"is_reserved":false,"is_disabled":false,"rental_uris":{"android":"levelo://app?vid=6fa1dc01-5792-4b43-9e20-11175ef565da","ios":"levelo://app?vid=6fa1dc01-5792-4b43-9e20-11175ef565da"},"vehicle_type_id":"4","last_reported":1682442374,"current_range_meters":27200,"station_id":"ce4bgqh2rcd13ifvqc4g","pricing_plan_id":"free"},{"bike_id":"48a22460-26b9-4ccc-82ff-df252f8f0f18","system_id":"levelo_inurba_marseille","lat":43.305989,"lon":5.37225,"is_reserved":false,"is_disabled":false,"rental_uris":{"android":"levelo://app?vid=48a22460-26b9-4ccc-82ff-df252f8f0f18","ios":"levelo://app?vid=48a22460-26b9-4ccc-82ff-df252f8f0f18"},"vehicle_type_id":"4","last_reported":1682442374,"current_range_meters":20000,"station_id":"ce4bgqh2rcd13ifvqc4g","pricing_plan_id":"free"},{"bike_id":"81839749-5475-435b-8ade-d7d7b2de2307","system_id":"levelo_inurba_marseille","lat":43.311125,"lon":5.377624,"is_reserved":false,"is_disabled":false,"rental_uris":{"android":"levelo://app?vid=81839749-5475-435b-8ade-d7d7b2de2307","ios":"levelo://app?vid=81839749-5475-435b-8ade-d7d7b2de2307"},"vehicle_type_id":"4","last_reported":1682442374,"current_range_meters":7200,"station_id":"ce4bgt92rcd13ifvqcg0","pricing_plan_id":"free"},{"bike_id":"44e6fac2-5947-423c-9312-7355417798d6","system_id":"levelo_inurba_marseille","lat":43.311125,"lon":5.377624,"is_reserved":false,"is_disabled":false,"rental_uris":{"android":"levelo://app?vid=44e6fac2-5947-423c-9312-7355417798d6","ios":"levelo://app?vid=44e6fac2-5947-423c-9312-7355417798d6"},"vehicle_type_id":"4","last_reported":1682442374,"current_range_meters":6800,"station_id":"ce4bgt92rcd13ifvqcg0","pricing_plan_id":"free"},{"bike_id":"35fa93d3-28c0-4bc4-94c4-ad5b8f351d5c","system_id":"levelo_inurba_marseille","lat":43.311125,"lon":5.377624,"is_reserved":false,"is_disabled":false,"rental_uris":{"android":"levelo://app?vid=35fa93d3-28c0-4bc4-94c4-ad5b8f351d5c","ios":"levelo://app?vid=35fa93d3-28c0-4bc4-94c4-ad5b8f351d5c"},"vehicle_type_id":"4","last_reported":1682442374,"current_range_meters":12000,"station_id":"ce4bgt92rcd13ifvqcg0","pricing_plan_id":"free"},{"bike_id":"f13357d9-4a38-4c8e-9e12-441447fb8f6c","system_id":"levelo_inurba_marseille","lat":43.311125,"lon":5.377624,"is_reserved":false,"is_disabled":false,"rental_uris":{"android":"levelo://app?vid=f13357d9-4a38-4c8e-9e12-441447fb8f6c","ios":"levelo://app?vid=f13357d9-4a38-4c8e-9e12-441447fb8f6c"},"vehicle_type_id":"4","last_reported":1682442374,"current_range_meters":20400,"station_id":"ce4bgt92rcd13ifvqcg0","pricing_plan_id":"free"},{"bike_id":"dd461d54-d39e-4bc6-ba7a-783f8d364975","system_id":"levelo_inurba_marseille","lat":43.317075,"lon":5.377367,"is_reserved":false,"is_disabled":false,"rental_uris":{"android":"levelo://app?vid=dd461d54-d39e-4bc6-ba7a-783f8d364975","ios":"levelo://app?vid=dd461d54-d39e-4bc6-ba7a-783f8d364975"},"vehicle_type_id":"4","last_reported":1682442374,"current_range_meters":10400,"station_id":"ce4bgth2rcd13ifvqch0","pricing_plan_id":"free"},{"bike_id":"86849db0-2d11-41bc-8e3f-213a7e4b74c0","system_id":"levelo_inurba_marseille","lat":43.31711,"lon":5.37749,"is_reserved":false,"is_disabled":false,"rental_uris":{"android":"levelo://app?vid=86849db0-2d11-41bc-8e3f-213a7e4b74c0","ios":"levelo://app?vid=86849db0-2d11-41bc-8e3f-213a7e4b74c0"},"vehicle_type_id":"4","last_reported":1682442374,"current_range_meters":27200,"station_id":"ce4bgth2rcd13ifvqch0","pricing_plan_id":"free"},{"bike_id":"f1fc5070-e262-4001-8af3-02f5be77eb3f","system_id":"levelo_inurba_marseille","lat":43.31714,"lon":5.37747,"is_reserved":false,"is_disabled":false,"rental_uris":{"android":"levelo://app?vid=f1fc5070-e262-4001-8af3-02f5be77eb3f","ios":"levelo://app?vid=f1fc5070-e262-4001-8af3-02f5be77eb3f"},"vehicle_type_id":"4","last_reported":1682442374,"current_range_meters":28000,"station_id":"ce4bgth2rcd13ifvqch0","pricing_plan_id":"free"},{"bike_id":"3c4e6c8c-df65-4deb-8995-f8befa733260","system_id":"levelo_inurba_marseille","lat":43.31534,"lon":5.37884,"is_reserved":false,"is_disabled":false,"rental_uris":{"android":"levelo://app?vid=3c4e6c8c-df65-4deb-8995-f8befa733260","ios":"levelo://app?vid=3c4e6c8c-df65-4deb-8995-f8befa733260"},"vehicle_type_id":"4","last_reported":1682442374,"current_range_meters":0,"station_id":"","pricing_plan_id":"free"},{"bike_id":"44b30e44-f780-471a-93ef-201229856ed8","system_id":"levelo_inurba_marseille","lat":43.315293,"lon":5.380349,"is_reserved":false,"is_disabled":false,"rental_uris":{"android":"levelo://app?vid=44b30e44-f780-471a-93ef-201229856ed8","ios":"levelo://app?vid=44b30e44-f780-471a-93ef-201229856ed8"},"vehicle_type_id":"4","last_reported":1682442374,"current_range_meters":29200,"station_id":"ce4bhsp2rcd13ifvqi50","pricing_plan_id":"free"},{"bike_id":"7e9e8839-45fe-4fad-9be6-eeb07fd1eb61","system_id":"levelo_inurba_marseille","lat":43.315289,"lon":5.380349,"is_reserved":false,"is_disabled":false,"rental_uris":{"android":"levelo://app?vid=7e9e8839-45fe-4fad-9be6-eeb07fd1eb61","ios":"levelo://app?vid=7e9e8839-45fe-4fad-9be6-eeb07fd1eb61"},"vehicle_type_id":"4","last_reported":1682442374,"current_range_meters":16400,"station_id":"ce4bhsp2rcd13ifvqi50","pricing_plan_id":"free"},{"bike_id":"45cc80f7-9187-48e2-b5ce-0232127d891b","system_id":"levelo_inurba_marseille","lat":43.315289,"lon":5.380349,"is_reserved":false,"is_disabled":false,"rental_uris":{"android":"levelo://app?vid=45cc80f7-9187-48e2-b5ce-0232127d891b","ios":"levelo://app?vid=45cc80f7-9187-48e2-b5ce-0232127d891b"},"vehicle_type_id":"4","last_reported":1682442374,"current_range_meters":30400,"station_id":"ce4bhsp2rcd13ifvqi50","pricing_plan_id":"free"},{"bike_id":"6b1b1ab2-c2db-45e8-8bd7-a6574ebd0b0b","system_id":"levelo_inurba_marseille","lat":43.308012,"lon":5.381511,"is_reserved":false,"is_disabled":false,"rental_uris":{"android":"levelo://app?vid=6b1b1ab2-c2db-45e8-8bd7-a6574ebd0b0b","ios":"levelo://app?vid=6b1b1ab2-c2db-45e8-8bd7-a6574ebd0b0b"},"vehicle_type_id":"4","last_reported":1682442374,"current_range_meters":30800,"station_id":"ce4bgt12rcd13ifvqce0","pricing_plan_id":"free"},{"bike_id":"027acb9b-6c26-4076-9457-6e7ba64880c1","system_id":"levelo_inurba_marseille","lat":43.308012,"lon":5.381511,"is_reserved":false,"is_disabled":false,"rental_uris":{"android":"levelo://app?vid=027acb9b-6c26-4076-9457-6e7ba64880c1","ios":"levelo://app?vid=027acb9b-6c26-4076-9457-6e7ba64880c1"},"vehicle_type_id":"4","last_reported":1682442374,"current_range_meters":31200,"station_id":"ce4bgt12rcd13ifvqce0","pricing_plan_id":"free"},{"bike_id":"f0c433e3-6f31-4324-9ea7-c6dd5254788a","system_id":"levelo_inurba_marseille","lat":43.308012,"lon":5.381511,"is_reserved":false,"is_disabled":false,"rental_uris":{"android":"levelo://app?vid=f0c433e3-6f31-4324-9ea7-c6dd5254788a","ios":"levelo://app?vid=f0c433e3-6f31-4324-9ea7-c6dd5254788a"},"vehicle_type_id":"4","last_reported":1682442374,"current_range_meters":24000,"station_id":"ce4bgt12rcd13ifvqce0","pricing_plan_id":"free"},{"bike_id":"87728d94-4c2f-45da-afb3-e4b66917f5ae","system_id":"levelo_inurba_marseille","lat":43.30795,"lon":5.38154,"is_reserved":false,"is_disabled":false,"rental_uris":{"android":"levelo://app?vid=87728d94-4c2f-45da-afb3-e4b66917f5ae","ios":"levelo://app?vid=87728d94-4c2f-45da-afb3-e4b66917f5ae"},"vehicle_type_id":"4","last_reported":1682442374,"current_range_meters":4800,"station_id":"ce4bgt12rcd13ifvqce0","pricing_plan_id":"free"},{"bike_id":"a3aafd00-90f5-47fc-b2c8-673058c48e1a","system_id":"levelo_inurba_marseille","lat":43.304606,"lon":5.379026,"is_reserved":false,"is_disabled":false,"rental_uris":{"android":"levelo://app?vid=a3aafd00-90f5-47fc-b2c8-673058c48e1a","ios":"levelo://app?vid=a3aafd00-90f5-47fc-b2c8-673058c48e1a"},"vehicle_type_id":"4","last_reported":1682442374,"current_range_meters":16400,"station_id":"ce4bgup2rcd13ifvqcn0","pricing_plan_id":"free"},{"bike_id":"9ce57a88-5b67-42ed-96be-6e7f738f11c3","system_id":"levelo_inurba_marseille","lat":43.304606,"lon":5.379026,"is_reserved":false,"is_disabled":false,"rental_uris":{"android":"levelo://app?vid=9ce57a88-5b67-42ed-96be-6e7f738f11c3","ios":"levelo://app?vid=9ce57a88-5b67-42ed-96be-6e7f738f11c3"},"vehicle_type_id":"4","last_reported":1682442374,"current_range_meters":6800,"station_id":"ce4bgup2rcd13ifvqcn0","pricing_plan_id":"free"},{"bike_id":"5dd1f52c-34ac-4477-97d1-72c8eb220dff","system_id":"levelo_inurba_marseille","lat":43.30143,"lon":5.37413,"is_reserved":false,"is_disabled":false,"rental_uris":{"android":"levelo://app?vid=5dd1f52c-34ac-4477-97d1-72c8eb220dff","ios":"levelo://app?vid=5dd1f52c-34ac-4477-97d1-72c8eb220dff"},"vehicle_type_id":"4","last_reported":1682442374,"current_range_meters":10000,"station_id":"ce4bgs92rcd13ifvqcc0","pricing_plan_id":"free"},{"bike_id":"a8ad6bcd-ebe1-46aa-9dd6-d03acd10f602","system_id":"levelo_inurba_marseille","lat":43.30143,"lon":5.37413,"is_reserved":false,"is_disabled":false,"rental_uris":{"android":"levelo://app?vid=a8ad6bcd-ebe1-46aa-9dd6-d03acd10f602","ios":"levelo://app?vid=a8ad6bcd-ebe1-46aa-9dd6-d03acd10f602"},"vehicle_type_id":"4","last_reported":1682442374,"current_range_meters":0,"station_id":"ce4bgs92rcd13ifvqcc0","pricing_plan_id":"free"},{"bike_id":"ca1bfa81-3bfa-4952-8733-b87c13091568","system_id":"levelo_inurba_marseille","lat":43.30143,"lon":5.37413,"is_reserved":false,"is_disabled":false,"rental_uris":{"android":"levelo://app?vid=ca1bfa81-3bfa-4952-8733-b87c13091568","ios":"levelo://app?vid=ca1bfa81-3bfa-4952-8733-b87c13091568"},"vehicle_type_id":"4","last_reported":1682442374,"current_range_meters":16000,"station_id":"ce4bgs92rcd13ifvqcc0","pricing_plan_id":"free"},{"bike_id":"0794ebcf-31e8-43cb-8b9a-a9d0c181bedd","system_id":"levelo_inurba_marseille","lat":43.301435,"lon":5.374197,"is_reserved":false,"is_disabled":false,"rental_uris":{"android":"levelo://app?vid=0794ebcf-31e8-43cb-8b9a-a9d0c181bedd","ios":"levelo://app?vid=0794ebcf-31e8-43cb-8b9a-a9d0c181bedd"},"vehicle_type_id":"4","last_reported":1682442374,"current_range_meters":0,"station_id":"","pricing_plan_id":"free"},{"bike_id":"51ac4021-c45d-4411-abb2-58c3020c551e","system_id":"levelo_inurba_marseille","lat":43.313571,"lon":5.384829,"is_reserved":false,"is_disabled":false,"rental_uris":{"android":"levelo://app?vid=51ac4021-c45d-4411-abb2-58c3020c551e","ios":"levelo://app?vid=51ac4021-c45d-4411-abb2-58c3020c551e"},"vehicle_type_id":"4","last_reported":1682442374,"current_range_meters":25200,"station_id":"ce4bgt92rcd13ifvqcf0","pricing_plan_id":"free"},{"bike_id":"881c6693-09b2-4759-a8d4-b57954f1ea59","system_id":"levelo_inurba_marseille","lat":43.2994,"lon":5.36552,"is_reserved":false,"is_disabled":false,"rental_uris":{"android":"levelo://app?vid=881c6693-09b2-4759-a8d4-b57954f1ea59","ios":"levelo://app?vid=881c6693-09b2-4759-a8d4-b57954f1ea59"},"vehicle_type_id":"4","last_reported":1682442374,"current_range_meters":0,"station_id":"ce4bgm92rcd13ifvqbr0","pricing_plan_id":"free"},{"bike_id":"75cc00d2-6e72-456d-8ce8-9d0985786d6b","system_id":"levelo_inurba_marseille","lat":43.31883,"lon":5.38388,"is_reserved":false,"is_disabled":false,"rental_uris":{"android":"levelo://app?vid=75cc00d2-6e72-456d-8ce8-9d0985786d6b","ios":"levelo://app?vid=75cc00d2-6e72-456d-8ce8-9d0985786d6b"},"vehicle_type_id":"4","last_reported":1682442374,"current_range_meters":27200,"station_id":"","pricing_plan_id":"free"},{"bike_id":"7e3405fa-bf4d-41fb-95af-33cf6ac5f429","system_id":"levelo_inurba_marseille","lat":43.305364,"lon":5.384119,"is_reserved":false,"is_disabled":false,"rental_uris":{"android":"levelo://app?vid=7e3405fa-bf4d-41fb-95af-33cf6ac5f429","ios":"levelo://app?vid=7e3405fa-bf4d-41fb-95af-33cf6ac5f429"},"vehicle_type_id":"4","last_reported":1682442374,"current_range_meters":17600,"station_id":"ce4bgg92rcd13ifvqb30","pricing_plan_id":"free"},{"bike_id":"f4416127-8d12-46cc-90ce-85328d8cafcc","system_id":"levelo_inurba_marseille","lat":43.2985,"lon":5.3627,"is_reserved":false,"is_disabled":false,"rental_uris":{"android":"levelo://app?vid=f4416127-8d12-46cc-90ce-85328d8cafcc","ios":"levelo://app?vid=f4416127-8d12-46cc-90ce-85328d8cafcc"},"vehicle_type_id":"4","last_reported":1682442374,"current_range_meters":31200,"station_id":"ce4bgpp2rcd13ifvqc3g","pricing_plan_id":"free"},{"bike_id":"1881e9d2-5405-4f6e-b62c-674e717b84cb","system_id":"levelo_inurba_marseille","lat":43.29848,"lon":5.36273,"is_reserved":false,"is_disabled":false,"rental_uris":{"android":"levelo://app?vid=1881e9d2-5405-4f6e-b62c-674e717b84cb","ios":"levelo://app?vid=1881e9d2-5405-4f6e-b62c-674e717b84cb"},"vehicle_type_id":"4","last_reported":1682442374,"current_range_meters":31200,"station_id":"ce4bgpp2rcd13ifvqc3g","pricing_plan_id":"free"},{"bike_id":"44b4ddfc-bf93-4604-b7d1-5a801c514dd9","system_id":"levelo_inurba_marseille","lat":43.29846,"lon":5.36276,"is_reserved":false,"is_disabled":false,"rental_uris":{"android":"levelo://app?vid=44b4ddfc-bf93-4604-b7d1-5a801c514dd9","ios":"levelo://app?vid=44b4ddfc-bf93-4604-b7d1-5a801c514dd9"},"vehicle_type_id":"4","last_reported":1682442374,"current_range_meters":26800,"station_id":"ce4bgpp2rcd13ifvqc3g","pricing_plan_id":"free"},{"bike_id":"36a7741c-8002-4d5c-b104-8bff388dfe5e","system_id":"levelo_inurba_marseille","lat":43.29846,"lon":5.36275,"is_reserved":false,"is_disabled":false,"rental_uris":{"android":"levelo://app?vid=36a7741c-8002-4d5c-b104-8bff388dfe5e","ios":"levelo://app?vid=36a7741c-8002-4d5c-b104-8bff388dfe5e"},"vehicle_type_id":"4","last_reported":1682442374,"current_range_meters":22400,"station_id":"ce4bgpp2rcd13ifvqc3g","pricing_plan_id":"free"},{"bike_id":"62d4f6cf-cab7-4f2f-843e-f9e545a1aad5","system_id":"levelo_inurba_marseille","lat":43.29845,"lon":5.36276,"is_reserved":false,"is_disabled":false,"rental_uris":{"android":"levelo://app?vid=62d4f6cf-cab7-4f2f-843e-f9e545a1aad5","ios":"levelo://app?vid=62d4f6cf-cab7-4f2f-843e-f9e545a1aad5"},"vehicle_type_id":"4","last_reported":1682442374,"current_range_meters":27600,"station_id":"ce4bgpp2rcd13ifvqc3g","pricing_plan_id":"free"},{"bike_id":"0690bc0c-1741-40da-b06f-1de58dc70c8f","system_id":"levelo_inurba_marseille","lat":43.29845,"lon":5.36274,"is_reserved":false,"is_disabled":false,"rental_uris":{"android":"levelo://app?vid=0690bc0c-1741-40da-b06f-1de58dc70c8f","ios":"levelo://app?vid=0690bc0c-1741-40da-b06f-1de58dc70c8f"},"vehicle_type_id":"4","last_reported":1682442374,"current_range_meters":24800,"station_id":"ce4bgpp2rcd13ifvqc3g","pricing_plan_id":"free"},{"bike_id":"91047466-d374-4e4d-afc8-eda888f5def5","system_id":"levelo_inurba_marseille","lat":43.298433,"lon":5.362774,"is_reserved":false,"is_disabled":false,"rental_uris":{"android":"levelo://app?vid=91047466-d374-4e4d-afc8-eda888f5def5","ios":"levelo://app?vid=91047466-d374-4e4d-afc8-eda888f5def5"},"vehicle_type_id":"4","last_reported":1682442374,"current_range_meters":31200,"station_id":"ce4bgpp2rcd13ifvqc3g","pricing_plan_id":"free"},{"bike_id":"be3ceaf0-c428-4891-90d9-023175501e70","system_id":"levelo_inurba_marseille","lat":43.298433,"lon":5.362774,"is_reserved":false,"is_disabled":false,"rental_uris":{"android":"levelo://app?vid=be3ceaf0-c428-4891-90d9-023175501e70","ios":"levelo://app?vid=be3ceaf0-c428-4891-90d9-023175501e70"},"vehicle_type_id":"4","last_reported":1682442374,"current_range_meters":31200,"station_id":"ce4bgpp2rcd13ifvqc3g","pricing_plan_id":"free"},{"bike_id":"db0d223b-060a-463d-b631-74479873bbac","system_id":"levelo_inurba_marseille","lat":43.29844,"lon":5.36272,"is_reserved":false,"is_disabled":false,"rental_uris":{"android":"levelo://app?vid=db0d223b-060a-463d-b631-74479873bbac","ios":"levelo://app?vid=db0d223b-060a-463d-b631-74479873bbac"},"vehicle_type_id":"4","last_reported":1682442374,"current_range_meters":15600,"station_id":"ce4bgpp2rcd13ifvqc3g","pricing_plan_id":"free"},{"bike_id":"56498e1c-fb6c-4415-ae5c-6bb0f0b3312c","system_id":"levelo_inurba_marseille","lat":43.299243,"lon":5.374807,"is_reserved":false,"is_disabled":false,"rental_uris":{"android":"levelo://app?vid=56498e1c-fb6c-4415-ae5c-6bb0f0b3312c","ios":"levelo://app?vid=56498e1c-fb6c-4415-ae5c-6bb0f0b3312c"},"vehicle_type_id":"4","last_reported":1682442374,"current_range_meters":28800,"station_id":"ce4bgjh2rcd13ifvqbg0","pricing_plan_id":"free"},{"bike_id":"5d20d2f1-d086-46bd-aced-a34b8e57deee","system_id":"levelo_inurba_marseille","lat":43.298433,"lon":5.362774,"is_reserved":false,"is_disabled":false,"rental_uris":{"android":"levelo://app?vid=5d20d2f1-d086-46bd-aced-a34b8e57deee","ios":"levelo://app?vid=5d20d2f1-d086-46bd-aced-a34b8e57deee"},"vehicle_type_id":"4","last_reported":1682442374,"current_range_meters":31200,"station_id":"ce4bgpp2rcd13ifvqc3g","pricing_plan_id":"free"},{"bike_id":"f4c18202-5f8e-44e1-851a-1167df9a14c3","system_id":"levelo_inurba_marseille","lat":43.29842,"lon":5.36272,"is_reserved":false,"is_disabled":false,"rental_uris":{"android":"levelo://app?vid=f4c18202-5f8e-44e1-851a-1167df9a14c3","ios":"levelo://app?vid=f4c18202-5f8e-44e1-851a-1167df9a14c3"},"vehicle_type_id":"4","last_reported":1682442374,"current_range_meters":24400,"station_id":"ce4bgpp2rcd13ifvqc3g","pricing_plan_id":"free"},{"bike_id":"35454af8-42ee-436e-933c-99f4739b848b","system_id":"levelo_inurba_marseille","lat":43.298433,"lon":5.362774,"is_reserved":false,"is_disabled":false,"rental_uris":{"android":"levelo://app?vid=35454af8-42ee-436e-933c-99f4739b848b","ios":"levelo://app?vid=35454af8-42ee-436e-933c-99f4739b848b"},"vehicle_type_id":"4","last_reported":1682442374,"current_range_meters":31200,"station_id":"ce4bgpp2rcd13ifvqc3g","pricing_plan_id":"free"},{"bike_id":"bacc0b25-d638-4bfe-9a82-f8fba76215f1","system_id":"levelo_inurba_marseille","lat":43.298433,"lon":5.362774,"is_reserved":false,"is_disabled":false,"rental_uris":{"android":"levelo://app?vid=bacc0b25-d638-4bfe-9a82-f8fba76215f1","ios":"levelo://app?vid=bacc0b25-d638-4bfe-9a82-f8fba76215f1"},"vehicle_type_id":"4","last_reported":1682442374,"current_range_meters":31200,"station_id":"ce4bgpp2rcd13ifvqc3g","pricing_plan_id":"free"},{"bike_id":"7d52ea8c-1d4a-453a-b227-eaa7d7da1991","system_id":"levelo_inurba_marseille","lat":43.298433,"lon":5.362774,"is_reserved":false,"is_disabled":false,"rental_uris":{"android":"levelo://app?vid=7d52ea8c-1d4a-453a-b227-eaa7d7da1991","ios":"levelo://app?vid=7d52ea8c-1d4a-453a-b227-eaa7d7da1991"},"vehicle_type_id":"4","last_reported":1682442374,"current_range_meters":31200,"station_id":"ce4bgpp2rcd13ifvqc3g","pricing_plan_id":"free"},{"bike_id":"9055fc63-777d-491b-9b01-55eedf015a40","system_id":"levelo_inurba_marseille","lat":43.298433,"lon":5.362774,"is_reserved":false,"is_disabled":false,"rental_uris":{"android":"levelo://app?vid=9055fc63-777d-491b-9b01-55eedf015a40","ios":"levelo://app?vid=9055fc63-777d-491b-9b01-55eedf015a40"},"vehicle_type_id":"4","last_reported":1682442374,"current_range_meters":31200,"station_id":"ce4bgpp2rcd13ifvqc3g","pricing_plan_id":"free"},{"bike_id":"7d6d7a51-d7b6-4379-bb2a-a98e2bea82fa","system_id":"levelo_inurba_marseille","lat":43.311722,"lon":5.387247,"is_reserved":false,"is_disabled":false,"rental_uris":{"android":"levelo://app?vid=7d6d7a51-d7b6-4379-bb2a-a98e2bea82fa","ios":"levelo://app?vid=7d6d7a51-d7b6-4379-bb2a-a98e2bea82fa"},"vehicle_type_id":"4","last_reported":1682442374,"current_range_meters":29600,"station_id":"ce4bgv12rcd13ifvqcp0","pricing_plan_id":"free"},{"bike_id":"ad951816-8243-4d00-9f53-b45cf08758cb","system_id":"levelo_inurba_marseille","lat":43.311722,"lon":5.387247,"is_reserved":false,"is_disabled":false,"rental_uris":{"android":"levelo://app?vid=ad951816-8243-4d00-9f53-b45cf08758cb","ios":"levelo://app?vid=ad951816-8243-4d00-9f53-b45cf08758cb"},"vehicle_type_id":"4","last_reported":1682442374,"current_range_meters":16000,"station_id":"ce4bgv12rcd13ifvqcp0","pricing_plan_id":"free"},{"bike_id":"a413fde6-ab56-4b53-9116-b5a0be843ea9","system_id":"levelo_inurba_marseille","lat":43.297794,"lon":5.370888,"is_reserved":false,"is_disabled":false,"rental_uris":{"android":"levelo://app?vid=a413fde6-ab56-4b53-9116-b5a0be843ea9","ios":"levelo://app?vid=a413fde6-ab56-4b53-9116-b5a0be843ea9"},"vehicle_type_id":"4","last_reported":1682442374,"current_range_meters":31200,"station_id":"ce4bgop2rcd13ifvqc1g","pricing_plan_id":"free"},{"bike_id":"f3c295e8-bae1-409d-bf6e-d964eb8927c3","system_id":"levelo_inurba_marseille","lat":43.32799,"lon":5.36693,"is_reserved":false,"is_disabled":false,"rental_uris":{"android":"levelo://app?vid=f3c295e8-bae1-409d-bf6e-d964eb8927c3","ios":"levelo://app?vid=f3c295e8-bae1-409d-bf6e-d964eb8927c3"},"vehicle_type_id":"4","last_reported":1682442374,"current_range_meters":21600,"station_id":"","pricing_plan_id":"free"},{"bike_id":"77a15084-c151-4d9e-8db8-4eb1a02ee92f","system_id":"levelo_inurba_marseille","lat":43.32807,"lon":5.36692,"is_reserved":false,"is_disabled":false,"rental_uris":{"android":"levelo://app?vid=77a15084-c151-4d9e-8db8-4eb1a02ee92f","ios":"levelo://app?vid=77a15084-c151-4d9e-8db8-4eb1a02ee92f"},"vehicle_type_id":"4","last_reported":1682442374,"current_range_meters":15200,"station_id":"","pricing_plan_id":"free"},{"bike_id":"4c52b8ae-ac32-46e1-8ea6-b30c4fd5ce91","system_id":"levelo_inurba_marseille","lat":43.32825,"lon":5.36686,"is_reserved":false,"is_disabled":false,"rental_uris":{"android":"levelo://app?vid=4c52b8ae-ac32-46e1-8ea6-b30c4fd5ce91","ios":"levelo://app?vid=4c52b8ae-ac32-46e1-8ea6-b30c4fd5ce91"},"vehicle_type_id":"4","last_reported":1682442374,"current_range_meters":17200,"station_id":"ce4bhs92rcd13ifvqi0g","pricing_plan_id":"free"},{"bike_id":"bb095569-7c3f-435a-af11-3d18055547f4","system_id":"levelo_inurba_marseille","lat":43.328371,"lon":5.366912,"is_reserved":false,"is_disabled":false,"rental_uris":{"android":"levelo://app?vid=bb095569-7c3f-435a-af11-3d18055547f4","ios":"levelo://app?vid=bb095569-7c3f-435a-af11-3d18055547f4"},"vehicle_type_id":"4","last_reported":1682442374,"current_range_meters":18400,"station_id":"ce4bhs92rcd13ifvqi0g","pricing_plan_id":"free"},{"bike_id":"e6eb28d4-8f9f-49c3-ad12-5b297fc34b1f","system_id":"levelo_inurba_marseille","lat":43.328371,"lon":5.366912,"is_reserved":false,"is_disabled":false,"rental_uris":{"android":"levelo://app?vid=e6eb28d4-8f9f-49c3-ad12-5b297fc34b1f","ios":"levelo://app?vid=e6eb28d4-8f9f-49c3-ad12-5b297fc34b1f"},"vehicle_type_id":"4","last_reported":1682442374,"current_range_meters":14800,"station_id":"ce4bhs92rcd13ifvqi0g","pricing_plan_id":"free"},{"bike_id":"a07b6f04-6ed4-41f2-b90a-863cc4ca5121","system_id":"levelo_inurba_marseille","lat":43.328371,"lon":5.366912,"is_reserved":false,"is_disabled":false,"rental_uris":{"android":"levelo://app?vid=a07b6f04-6ed4-41f2-b90a-863cc4ca5121","ios":"levelo://app?vid=a07b6f04-6ed4-41f2-b90a-863cc4ca5121"},"vehicle_type_id":"4","last_reported":1682442374,"current_range_meters":20400,"station_id":"ce4bhs92rcd13ifvqi0g","pricing_plan_id":"free"},{"bike_id":"728767a1-1bcb-4842-9e96-e6fd06944a83","system_id":"levelo_inurba_marseille","lat":43.29573,"lon":5.367355,"is_reserved":false,"is_disabled":false,"rental_uris":{"android":"levelo://app?vid=728767a1-1bcb-4842-9e96-e6fd06944a83","ios":"levelo://app?vid=728767a1-1bcb-4842-9e96-e6fd06944a83"},"vehicle_type_id":"4","last_reported":1682442374,"current_range_meters":0,"station_id":"ce4bgph2rcd13ifvqc2g","pricing_plan_id":"free"},{"bike_id":"72fd1788-47ed-4174-8924-b0fd700258f3","system_id":"levelo_inurba_marseille","lat":43.297068,"lon":5.376864,"is_reserved":false,"is_disabled":false,"rental_uris":{"android":"levelo://app?vid=72fd1788-47ed-4174-8924-b0fd700258f3","ios":"levelo://app?vid=72fd1788-47ed-4174-8924-b0fd700258f3"},"vehicle_type_id":"4","last_reported":1682442374,"current_range_meters":24400,"station_id":"","pricing_plan_id":"free"},{"bike_id":"110cb056-c4f6-460a-a270-6e2b2815d183","system_id":"levelo_inurba_marseille","lat":43.309589,"lon":5.390258,"is_reserved":false,"is_disabled":false,"rental_uris":{"android":"levelo://app?vid=110cb056-c4f6-460a-a270-6e2b2815d183","ios":"levelo://app?vid=110cb056-c4f6-460a-a270-6e2b2815d183"},"vehicle_type_id":"4","last_reported":1682442374,"current_range_meters":29200,"station_id":"ce4bgup2rcd13ifvqco0","pricing_plan_id":"free"},{"bike_id":"b726f84f-43ec-46b7-8c70-3a209dc0b503","system_id":"levelo_inurba_marseille","lat":43.299028,"lon":5.381509,"is_reserved":false,"is_disabled":false,"rental_uris":{"android":"levelo://app?vid=b726f84f-43ec-46b7-8c70-3a209dc0b503","ios":"levelo://app?vid=b726f84f-43ec-46b7-8c70-3a209dc0b503"},"vehicle_type_id":"4","last_reported":1682442374,"current_range_meters":4000,"station_id":"ce4bgj12rcd13ifvqbc0","pricing_plan_id":"free"},{"bike_id":"431c54fc-dd87-4aac-aad6-cfe20b8f194f","system_id":"levelo_inurba_marseille","lat":43.317557,"lon":5.390173,"is_reserved":false,"is_disabled":false,"rental_uris":{"android":"levelo://app?vid=431c54fc-dd87-4aac-aad6-cfe20b8f194f","ios":"levelo://app?vid=431c54fc-dd87-4aac-aad6-cfe20b8f194f"},"vehicle_type_id":"4","last_reported":1682442374,"current_range_meters":22800,"station_id":"ce4bhqp2rcd13ifvqhng","pricing_plan_id":"free"},{"bike_id":"31bd55dc-b51b-41fe-b26b-e2a1461b1a61","system_id":"levelo_inurba_marseille","lat":43.317557,"lon":5.390173,"is_reserved":false,"is_disabled":false,"rental_uris":{"android":"levelo://app?vid=31bd55dc-b51b-41fe-b26b-e2a1461b1a61","ios":"levelo://app?vid=31bd55dc-b51b-41fe-b26b-e2a1461b1a61"},"vehicle_type_id":"4","last_reported":1682442374,"current_range_meters":16400,"station_id":"ce4bhqp2rcd13ifvqhng","pricing_plan_id":"free"},{"bike_id":"fdf84ca3-8be5-4ebb-9de3-b552de5e511c","system_id":"levelo_inurba_marseille","lat":43.317557,"lon":5.390173,"is_reserved":false,"is_disabled":false,"rental_uris":{"android":"levelo://app?vid=fdf84ca3-8be5-4ebb-9de3-b552de5e511c","ios":"levelo://app?vid=fdf84ca3-8be5-4ebb-9de3-b552de5e511c"},"vehicle_type_id":"4","last_reported":1682442374,"current_range_meters":30800,"station_id":"ce4bhqp2rcd13ifvqhng","pricing_plan_id":"free"},{"bike_id":"bba2a2e4-50b1-4cb8-b3cf-7668c9d8f8b9","system_id":"levelo_inurba_marseille","lat":43.30437,"lon":5.38888,"is_reserved":false,"is_disabled":false,"rental_uris":{"android":"levelo://app?vid=bba2a2e4-50b1-4cb8-b3cf-7668c9d8f8b9","ios":"levelo://app?vid=bba2a2e4-50b1-4cb8-b3cf-7668c9d8f8b9"},"vehicle_type_id":"4","last_reported":1682442374,"current_range_meters":12800,"station_id":"ce4bgk12rcd13ifvqbi0","pricing_plan_id":"free"},{"bike_id":"67d7c94a-f368-4c9d-b5b9-f2f9d8f5aff5","system_id":"levelo_inurba_marseille","lat":43.30436,"lon":5.38889,"is_reserved":false,"is_disabled":false,"rental_uris":{"android":"levelo://app?vid=67d7c94a-f368-4c9d-b5b9-f2f9d8f5aff5","ios":"levelo://app?vid=67d7c94a-f368-4c9d-b5b9-f2f9d8f5aff5"},"vehicle_type_id":"4","last_reported":1682442374,"current_range_meters":12000,"station_id":"ce4bgk12rcd13ifvqbi0","pricing_plan_id":"free"},{"bike_id":"d2ef0eb4-6df0-435e-893d-0f3f888b21bc","system_id":"levelo_inurba_marseille","lat":43.298037,"lon":5.381066,"is_reserved":false,"is_disabled":false,"rental_uris":{"android":"levelo://app?vid=d2ef0eb4-6df0-435e-893d-0f3f888b21bc","ios":"levelo://app?vid=d2ef0eb4-6df0-435e-893d-0f3f888b21bc"},"vehicle_type_id":"4","last_reported":1682442374,"current_range_meters":0,"station_id":"ce4bgip2rcd13ifvqbb0","pricing_plan_id":"free"},{"bike_id":"7f39f565-e0d2-4968-b8f0-9d44fb9b3180","system_id":"levelo_inurba_marseille","lat":43.295748,"lon":5.37522,"is_reserved":false,"is_disabled":false,"rental_uris":{"android":"levelo://app?vid=7f39f565-e0d2-4968-b8f0-9d44fb9b3180","ios":"levelo://app?vid=7f39f565-e0d2-4968-b8f0-9d44fb9b3180"},"vehicle_type_id":"4","last_reported":1682442374,"current_range_meters":12400,"station_id":"ce4bgh92rcd13ifvqb50","pricing_plan_id":"free"},{"bike_id":"4bc7ca82-3aeb-4edb-bd97-4457aec92b4b","system_id":"levelo_inurba_marseille","lat":43.29792,"lon":5.38118,"is_reserved":false,"is_disabled":false,"rental_uris":{"android":"levelo://app?vid=4bc7ca82-3aeb-4edb-bd97-4457aec92b4b","ios":"levelo://app?vid=4bc7ca82-3aeb-4edb-bd97-4457aec92b4b"},"vehicle_type_id":"4","last_reported":1682442374,"current_range_meters":8400,"station_id":"","pricing_plan_id":"free"},{"bike_id":"cd81821c-81fd-4441-a133-26d668b17fa2","system_id":"levelo_inurba_marseille","lat":43.304278,"lon":5.388868,"is_reserved":false,"is_disabled":false,"rental_uris":{"android":"levelo://app?vid=cd81821c-81fd-4441-a133-26d668b17fa2","ios":"levelo://app?vid=cd81821c-81fd-4441-a133-26d668b17fa2"},"vehicle_type_id":"4","last_reported":1682442374,"current_range_meters":15200,"station_id":"ce4bgk12rcd13ifvqbi0","pricing_plan_id":"free"},{"bike_id":"db55d720-8256-4728-a38e-b441519eb479","system_id":"levelo_inurba_marseille","lat":43.30441,"lon":5.38911,"is_reserved":false,"is_disabled":false,"rental_uris":{"android":"levelo://app?vid=db55d720-8256-4728-a38e-b441519eb479","ios":"levelo://app?vid=db55d720-8256-4728-a38e-b441519eb479"},"vehicle_type_id":"4","last_reported":1682442374,"current_range_meters":8800,"station_id":"ce4bgk12rcd13ifvqbi0","pricing_plan_id":"free"},{"bike_id":"c5665fac-edf4-484a-8abb-ecbeeb29caf4","system_id":"levelo_inurba_marseille","lat":43.29739,"lon":5.3806,"is_reserved":false,"is_disabled":false,"rental_uris":{"android":"levelo://app?vid=c5665fac-edf4-484a-8abb-ecbeeb29caf4","ios":"levelo://app?vid=c5665fac-edf4-484a-8abb-ecbeeb29caf4"},"vehicle_type_id":"4","last_reported":1682442374,"current_range_meters":17600,"station_id":"","pricing_plan_id":"free"},{"bike_id":"9dd51188-ff77-4475-8d85-778ca3379a05","system_id":"levelo_inurba_marseille","lat":43.299724,"lon":5.384848,"is_reserved":false,"is_disabled":false,"rental_uris":{"android":"levelo://app?vid=9dd51188-ff77-4475-8d85-778ca3379a05","ios":"levelo://app?vid=9dd51188-ff77-4475-8d85-778ca3379a05"},"vehicle_type_id":"4","last_reported":1682442374,"current_range_meters":3600,"station_id":"ce4bgj92rcd13ifvqbd0","pricing_plan_id":"free"},{"bike_id":"74849f6c-20c4-42e9-b89a-3081fd1e7cb3","system_id":"levelo_inurba_marseille","lat":43.299717,"lon":5.384845,"is_reserved":false,"is_disabled":false,"rental_uris":{"android":"levelo://app?vid=74849f6c-20c4-42e9-b89a-3081fd1e7cb3","ios":"levelo://app?vid=74849f6c-20c4-42e9-b89a-3081fd1e7cb3"},"vehicle_type_id":"4","last_reported":1682442374,"current_range_meters":6400,"station_id":"ce4bgj92rcd13ifvqbd0","pricing_plan_id":"free"},{"bike_id":"d3b6add9-4a2b-4735-832e-8228a86d9a80","system_id":"levelo_inurba_marseille","lat":43.299717,"lon":5.384845,"is_reserved":false,"is_disabled":false,"rental_uris":{"android":"levelo://app?vid=d3b6add9-4a2b-4735-832e-8228a86d9a80","ios":"levelo://app?vid=d3b6add9-4a2b-4735-832e-8228a86d9a80"},"vehicle_type_id":"4","last_reported":1682442374,"current_range_meters":1200,"station_id":"ce4bgj92rcd13ifvqbd0","pricing_plan_id":"free"},{"bike_id":"a68f74ca-8809-453e-bdca-ee1f8c770676","system_id":"levelo_inurba_marseille","lat":43.29963,"lon":5.38499,"is_reserved":false,"is_disabled":false,"rental_uris":{"android":"levelo://app?vid=a68f74ca-8809-453e-bdca-ee1f8c770676","ios":"levelo://app?vid=a68f74ca-8809-453e-bdca-ee1f8c770676"},"vehicle_type_id":"4","last_reported":1682442374,"current_range_meters":0,"station_id":"ce4bgj92rcd13ifvqbd0","pricing_plan_id":"free"},{"bike_id":"98b493ec-fefd-4a95-b6de-59bbb6b76911","system_id":"levelo_inurba_marseille","lat":43.298037,"lon":5.381066,"is_reserved":false,"is_disabled":false,"rental_uris":{"android":"levelo://app?vid=98b493ec-fefd-4a95-b6de-59bbb6b76911","ios":"levelo://app?vid=98b493ec-fefd-4a95-b6de-59bbb6b76911"},"vehicle_type_id":"4","last_reported":1682442374,"current_range_meters":8400,"station_id":"ce4bgip2rcd13ifvqbb0","pricing_plan_id":"free"},{"bike_id":"5d67452c-d50e-4bf0-b1f5-d4e893946230","system_id":"levelo_inurba_marseille","lat":43.304173,"lon":5.389865,"is_reserved":false,"is_disabled":false,"rental_uris":{"android":"levelo://app?vid=5d67452c-d50e-4bf0-b1f5-d4e893946230","ios":"levelo://app?vid=5d67452c-d50e-4bf0-b1f5-d4e893946230"},"vehicle_type_id":"4","last_reported":1682442374,"current_range_meters":0,"station_id":"ce4bgk12rcd13ifvqbi0","pricing_plan_id":"free"},{"bike_id":"70d494b8-16d2-4c6c-b20c-9df06b21b412","system_id":"levelo_inurba_marseille","lat":43.32371,"lon":5.38885,"is_reserved":false,"is_disabled":false,"rental_uris":{"android":"levelo://app?vid=70d494b8-16d2-4c6c-b20c-9df06b21b412","ios":"levelo://app?vid=70d494b8-16d2-4c6c-b20c-9df06b21b412"},"vehicle_type_id":"4","last_reported":1682442374,"current_range_meters":24800,"station_id":"ce4bhqp2rcd13ifvqhog","pricing_plan_id":"free"},{"bike_id":"1a9bc026-6368-4ef2-a3db-3ae53677a2dd","system_id":"levelo_inurba_marseille","lat":43.293249,"lon":5.371578,"is_reserved":false,"is_disabled":false,"rental_uris":{"android":"levelo://app?vid=1a9bc026-6368-4ef2-a3db-3ae53677a2dd","ios":"levelo://app?vid=1a9bc026-6368-4ef2-a3db-3ae53677a2dd"},"vehicle_type_id":"4","last_reported":1682442374,"current_range_meters":10800,"station_id":"ce4bgh92rcd13ifvqb40","pricing_plan_id":"free"},{"bike_id":"0cdee945-3f9f-4d64-ba65-ebfca32af67d","system_id":"levelo_inurba_marseille","lat":43.293249,"lon":5.371578,"is_reserved":false,"is_disabled":false,"rental_uris":{"android":"levelo://app?vid=0cdee945-3f9f-4d64-ba65-ebfca32af67d","ios":"levelo://app?vid=0cdee945-3f9f-4d64-ba65-ebfca32af67d"},"vehicle_type_id":"4","last_reported":1682442374,"current_range_meters":24800,"station_id":"ce4bgh92rcd13ifvqb40","pricing_plan_id":"free"},{"bike_id":"9268fb9a-803f-4c8d-a8db-6577ba9e8362","system_id":"levelo_inurba_marseille","lat":43.293249,"lon":5.371578,"is_reserved":false,"is_disabled":false,"rental_uris":{"android":"levelo://app?vid=9268fb9a-803f-4c8d-a8db-6577ba9e8362","ios":"levelo://app?vid=9268fb9a-803f-4c8d-a8db-6577ba9e8362"},"vehicle_type_id":"4","last_reported":1682442374,"current_range_meters":18000,"station_id":"ce4bgh92rcd13ifvqb40","pricing_plan_id":"free"},{"bike_id":"757eee25-14a6-471b-aa76-a540a5d2ffea","system_id":"levelo_inurba_marseille","lat":43.324981,"lon":5.38965,"is_reserved":false,"is_disabled":false,"rental_uris":{"android":"levelo://app?vid=757eee25-14a6-471b-aa76-a540a5d2ffea","ios":"levelo://app?vid=757eee25-14a6-471b-aa76-a540a5d2ffea"},"vehicle_type_id":"4","last_reported":1682442374,"current_range_meters":0,"station_id":"","pricing_plan_id":"free"},{"bike_id":"efbfcf1c-c566-4684-9fad-c6002908d488","system_id":"levelo_inurba_marseille","lat":43.29272,"lon":5.35969,"is_reserved":false,"is_disabled":false,"rental_uris":{"android":"levelo://app?vid=efbfcf1c-c566-4684-9fad-c6002908d488","ios":"levelo://app?vid=efbfcf1c-c566-4684-9fad-c6002908d488"},"vehicle_type_id":"4","last_reported":1682442374,"current_range_meters":15200,"station_id":"","pricing_plan_id":"free"},{"bike_id":"cab655e7-cebe-49ee-b810-3c170e414f01","system_id":"levelo_inurba_marseille","lat":43.2936,"lon":5.37835,"is_reserved":false,"is_disabled":false,"rental_uris":{"android":"levelo://app?vid=cab655e7-cebe-49ee-b810-3c170e414f01","ios":"levelo://app?vid=cab655e7-cebe-49ee-b810-3c170e414f01"},"vehicle_type_id":"4","last_reported":1682442374,"current_range_meters":13200,"station_id":"ce4bgjh2rcd13ifvqbf0","pricing_plan_id":"free"},{"bike_id":"8f683ed2-5cac-4f23-8168-271f534c3754","system_id":"levelo_inurba_marseille","lat":43.2936,"lon":5.37835,"is_reserved":false,"is_disabled":false,"rental_uris":{"android":"levelo://app?vid=8f683ed2-5cac-4f23-8168-271f534c3754","ios":"levelo://app?vid=8f683ed2-5cac-4f23-8168-271f534c3754"},"vehicle_type_id":"4","last_reported":1682442374,"current_range_meters":29600,"station_id":"ce4bgjh2rcd13ifvqbf0","pricing_plan_id":"free"},{"bike_id":"f14c602e-d196-4f10-bc64-6c39a0273653","system_id":"levelo_inurba_marseille","lat":43.29231,"lon":5.36062,"is_reserved":false,"is_disabled":false,"rental_uris":{"android":"levelo://app?vid=f14c602e-d196-4f10-bc64-6c39a0273653","ios":"levelo://app?vid=f14c602e-d196-4f10-bc64-6c39a0273653"},"vehicle_type_id":"4","last_reported":1682442374,"current_range_meters":17200,"station_id":"ce4bhbh2rcd13ifvqeqg","pricing_plan_id":"free"},{"bike_id":"24143d92-286b-439d-b93d-70e1b072daad","system_id":"levelo_inurba_marseille","lat":43.298764,"lon":5.388973,"is_reserved":false,"is_disabled":false,"rental_uris":{"android":"levelo://app?vid=24143d92-286b-439d-b93d-70e1b072daad","ios":"levelo://app?vid=24143d92-286b-439d-b93d-70e1b072daad"},"vehicle_type_id":"4","last_reported":1682442374,"current_range_meters":1200,"station_id":"ce4bh392rcd13ifvqdl0","pricing_plan_id":"free"},{"bike_id":"8a702113-bc70-4a27-83ea-7f3c3f6c48cc","system_id":"levelo_inurba_marseille","lat":43.31329,"lon":5.39681,"is_reserved":false,"is_disabled":false,"rental_uris":{"android":"levelo://app?vid=8a702113-bc70-4a27-83ea-7f3c3f6c48cc","ios":"levelo://app?vid=8a702113-bc70-4a27-83ea-7f3c3f6c48cc"},"vehicle_type_id":"4","last_reported":1682442374,"current_range_meters":4800,"station_id":"ce4bgvp2rcd13ifvqcu0","pricing_plan_id":"free"},{"bike_id":"65d0bba7-7281-4f84-8b3e-140de72036d1","system_id":"levelo_inurba_marseille","lat":43.309038,"lon":5.396546,"is_reserved":false,"is_disabled":false,"rental_uris":{"android":"levelo://app?vid=65d0bba7-7281-4f84-8b3e-140de72036d1","ios":"levelo://app?vid=65d0bba7-7281-4f84-8b3e-140de72036d1"},"vehicle_type_id":"4","last_reported":1682442374,"current_range_meters":19200,"station_id":"ce4bh012rcd13ifvqcv0","pricing_plan_id":"free"},{"bike_id":"7c221b34-96eb-45a6-98cb-88af710a26f0","system_id":"levelo_inurba_marseille","lat":43.313291,"lon":5.396838,"is_reserved":false,"is_disabled":false,"rental_uris":{"android":"levelo://app?vid=7c221b34-96eb-45a6-98cb-88af710a26f0","ios":"levelo://app?vid=7c221b34-96eb-45a6-98cb-88af710a26f0"},"vehicle_type_id":"4","last_reported":1682442374,"current_range_meters":23200,"station_id":"ce4bgvp2rcd13ifvqcu0","pricing_plan_id":"free"},{"bike_id":"d40b5def-5808-4d7a-8b53-82f768346f75","system_id":"levelo_inurba_marseille","lat":43.29529,"lon":5.385581,"is_reserved":false,"is_disabled":false,"rental_uris":{"android":"levelo://app?vid=d40b5def-5808-4d7a-8b53-82f768346f75","ios":"levelo://app?vid=d40b5def-5808-4d7a-8b53-82f768346f75"},"vehicle_type_id":"4","last_reported":1682442374,"current_range_meters":1600,"station_id":"ce4bgih2rcd13ifvqba0","pricing_plan_id":"free"},{"bike_id":"ee243272-5f44-43d2-bad9-8776ab947ef7","system_id":"levelo_inurba_marseille","lat":43.29529,"lon":5.385581,"is_reserved":false,"is_disabled":false,"rental_uris":{"android":"levelo://app?vid=ee243272-5f44-43d2-bad9-8776ab947ef7","ios":"levelo://app?vid=ee243272-5f44-43d2-bad9-8776ab947ef7"},"vehicle_type_id":"4","last_reported":1682442374,"current_range_meters":25600,"station_id":"ce4bgih2rcd13ifvqba0","pricing_plan_id":"free"},{"bike_id":"51b51ac5-6cea-4778-9048-6fb0fa7e3aff","system_id":"levelo_inurba_marseille","lat":43.29529,"lon":5.385581,"is_reserved":false,"is_disabled":false,"rental_uris":{"android":"levelo://app?vid=51b51ac5-6cea-4778-9048-6fb0fa7e3aff","ios":"levelo://app?vid=51b51ac5-6cea-4778-9048-6fb0fa7e3aff"},"vehicle_type_id":"4","last_reported":1682442374,"current_range_meters":13200,"station_id":"ce4bgih2rcd13ifvqba0","pricing_plan_id":"free"},{"bike_id":"78254b0a-193f-4836-b117-47c50937bc29","system_id":"levelo_inurba_marseille","lat":43.29529,"lon":5.385581,"is_reserved":false,"is_disabled":false,"rental_uris":{"android":"levelo://app?vid=78254b0a-193f-4836-b117-47c50937bc29","ios":"levelo://app?vid=78254b0a-193f-4836-b117-47c50937bc29"},"vehicle_type_id":"4","last_reported":1682442374,"current_range_meters":12400,"station_id":"ce4bgih2rcd13ifvqba0","pricing_plan_id":"free"},{"bike_id":"dddeb8f6-41e8-4700-b7a4-1b19e5ef5969","system_id":"levelo_inurba_marseille","lat":43.29529,"lon":5.385581,"is_reserved":false,"is_disabled":false,"rental_uris":{"android":"levelo://app?vid=dddeb8f6-41e8-4700-b7a4-1b19e5ef5969","ios":"levelo://app?vid=dddeb8f6-41e8-4700-b7a4-1b19e5ef5969"},"vehicle_type_id":"4","last_reported":1682442374,"current_range_meters":26400,"station_id":"ce4bgih2rcd13ifvqba0","pricing_plan_id":"free"},{"bike_id":"f0b66838-b233-4764-9524-7b9aeff3d3c6","system_id":"levelo_inurba_marseille","lat":43.29529,"lon":5.385581,"is_reserved":false,"is_disabled":false,"rental_uris":{"android":"levelo://app?vid=f0b66838-b233-4764-9524-7b9aeff3d3c6","ios":"levelo://app?vid=f0b66838-b233-4764-9524-7b9aeff3d3c6"},"vehicle_type_id":"4","last_reported":1682442374,"current_range_meters":6800,"station_id":"ce4bgih2rcd13ifvqba0","pricing_plan_id":"free"},{"bike_id":"02e9fa80-f129-442b-b406-93b05c0cadaf","system_id":"levelo_inurba_marseille","lat":43.29529,"lon":5.385581,"is_reserved":false,"is_disabled":false,"rental_uris":{"android":"levelo://app?vid=02e9fa80-f129-442b-b406-93b05c0cadaf","ios":"levelo://app?vid=02e9fa80-f129-442b-b406-93b05c0cadaf"},"vehicle_type_id":"4","last_reported":1682442374,"current_range_meters":18400,"station_id":"ce4bgih2rcd13ifvqba0","pricing_plan_id":"free"},{"bike_id":"f78a4a88-6cbb-44c6-8bef-3de99829aa47","system_id":"levelo_inurba_marseille","lat":43.29529,"lon":5.385581,"is_reserved":false,"is_disabled":false,"rental_uris":{"android":"levelo://app?vid=f78a4a88-6cbb-44c6-8bef-3de99829aa47","ios":"levelo://app?vid=f78a4a88-6cbb-44c6-8bef-3de99829aa47"},"vehicle_type_id":"4","last_reported":1682442374,"current_range_meters":15600,"station_id":"ce4bgih2rcd13ifvqba0","pricing_plan_id":"free"},{"bike_id":"f6476ffd-9e71-43d8-b192-7e175b9a7f1f","system_id":"levelo_inurba_marseille","lat":43.29529,"lon":5.385581,"is_reserved":false,"is_disabled":false,"rental_uris":{"android":"levelo://app?vid=f6476ffd-9e71-43d8-b192-7e175b9a7f1f","ios":"levelo://app?vid=f6476ffd-9e71-43d8-b192-7e175b9a7f1f"},"vehicle_type_id":"4","last_reported":1682442374,"current_range_meters":3200,"station_id":"ce4bgih2rcd13ifvqba0","pricing_plan_id":"free"},{"bike_id":"a8691a81-e5e4-4de0-9b3d-0f5f96c1c775","system_id":"levelo_inurba_marseille","lat":43.29529,"lon":5.385581,"is_reserved":false,"is_disabled":false,"rental_uris":{"android":"levelo://app?vid=a8691a81-e5e4-4de0-9b3d-0f5f96c1c775","ios":"levelo://app?vid=a8691a81-e5e4-4de0-9b3d-0f5f96c1c775"},"vehicle_type_id":"4","last_reported":1682442374,"current_range_meters":21200,"station_id":"ce4bgih2rcd13ifvqba0","pricing_plan_id":"free"},{"bike_id":"a6084a11-e676-492c-9fe4-7f4397b76854","system_id":"levelo_inurba_marseille","lat":43.3156,"lon":5.39719,"is_reserved":false,"is_disabled":false,"rental_uris":{"android":"levelo://app?vid=a6084a11-e676-492c-9fe4-7f4397b76854","ios":"levelo://app?vid=a6084a11-e676-492c-9fe4-7f4397b76854"},"vehicle_type_id":"4","last_reported":1682442374,"current_range_meters":20400,"station_id":"","pricing_plan_id":"free"},{"bike_id":"d92fa018-7b65-46a3-a745-1f4f8da28f53","system_id":"levelo_inurba_marseille","lat":43.290624,"lon":5.359245,"is_reserved":false,"is_disabled":false,"rental_uris":{"android":"levelo://app?vid=d92fa018-7b65-46a3-a745-1f4f8da28f53","ios":"levelo://app?vid=d92fa018-7b65-46a3-a745-1f4f8da28f53"},"vehicle_type_id":"4","last_reported":1682442374,"current_range_meters":22000,"station_id":"ce4bha92rcd13ifvqeg0","pricing_plan_id":"free"},{"bike_id":"4c20a965-e452-4220-aef1-57a1dd8f59cc","system_id":"levelo_inurba_marseille","lat":43.290624,"lon":5.359245,"is_reserved":false,"is_disabled":false,"rental_uris":{"android":"levelo://app?vid=4c20a965-e452-4220-aef1-57a1dd8f59cc","ios":"levelo://app?vid=4c20a965-e452-4220-aef1-57a1dd8f59cc"},"vehicle_type_id":"4","last_reported":1682442374,"current_range_meters":5200,"station_id":"ce4bha92rcd13ifvqeg0","pricing_plan_id":"free"},{"bike_id":"eb9b2b6f-6951-4072-8e1b-8ad5e6f20f6e","system_id":"levelo_inurba_marseille","lat":43.290624,"lon":5.359245,"is_reserved":false,"is_disabled":false,"rental_uris":{"android":"levelo://app?vid=eb9b2b6f-6951-4072-8e1b-8ad5e6f20f6e","ios":"levelo://app?vid=eb9b2b6f-6951-4072-8e1b-8ad5e6f20f6e"},"vehicle_type_id":"4","last_reported":1682442374,"current_range_meters":17600,"station_id":"ce4bha92rcd13ifvqeg0","pricing_plan_id":"free"},{"bike_id":"9e0dc87c-797e-4e31-afb1-ce8fb675d52a","system_id":"levelo_inurba_marseille","lat":43.290624,"lon":5.359245,"is_reserved":false,"is_disabled":false,"rental_uris":{"android":"levelo://app?vid=9e0dc87c-797e-4e31-afb1-ce8fb675d52a","ios":"levelo://app?vid=9e0dc87c-797e-4e31-afb1-ce8fb675d52a"},"vehicle_type_id":"4","last_reported":1682442374,"current_range_meters":13600,"station_id":"ce4bha92rcd13ifvqeg0","pricing_plan_id":"free"},{"bike_id":"9aaee8fe-36ce-46b6-9cc6-8c4967be2bb0","system_id":"levelo_inurba_marseille","lat":43.290327,"lon":5.375711,"is_reserved":false,"is_disabled":false,"rental_uris":{"android":"levelo://app?vid=9aaee8fe-36ce-46b6-9cc6-8c4967be2bb0","ios":"levelo://app?vid=9aaee8fe-36ce-46b6-9cc6-8c4967be2bb0"},"vehicle_type_id":"4","last_reported":1682442374,"current_range_meters":21600,"station_id":"ce4bh692rcd13ifvqe90","pricing_plan_id":"free"},{"bike_id":"203c24eb-76d3-440f-b972-41413a82cf1e","system_id":"levelo_inurba_marseille","lat":43.29426,"lon":5.38622,"is_reserved":false,"is_disabled":false,"rental_uris":{"android":"levelo://app?vid=203c24eb-76d3-440f-b972-41413a82cf1e","ios":"levelo://app?vid=203c24eb-76d3-440f-b972-41413a82cf1e"},"vehicle_type_id":"4","last_reported":1682442374,"current_range_meters":24000,"station_id":"ce4bh2h2rcd13ifvqdh0","pricing_plan_id":"free"},{"bike_id":"1b0d50fb-6a5b-4f11-8573-d90d9e1abf8c","system_id":"levelo_inurba_marseille","lat":43.29421,"lon":5.38618,"is_reserved":false,"is_disabled":false,"rental_uris":{"android":"levelo://app?vid=1b0d50fb-6a5b-4f11-8573-d90d9e1abf8c","ios":"levelo://app?vid=1b0d50fb-6a5b-4f11-8573-d90d9e1abf8c"},"vehicle_type_id":"4","last_reported":1682442374,"current_range_meters":13600,"station_id":"ce4bh2h2rcd13ifvqdh0","pricing_plan_id":"free"},{"bike_id":"94c66d8e-bbc4-4966-add8-cec4084396e0","system_id":"levelo_inurba_marseille","lat":43.290327,"lon":5.375711,"is_reserved":false,"is_disabled":false,"rental_uris":{"android":"levelo://app?vid=94c66d8e-bbc4-4966-add8-cec4084396e0","ios":"levelo://app?vid=94c66d8e-bbc4-4966-add8-cec4084396e0"},"vehicle_type_id":"4","last_reported":1682442374,"current_range_meters":9200,"station_id":"ce4bh692rcd13ifvqe90","pricing_plan_id":"free"},{"bike_id":"ee5e16ef-22eb-4460-9f06-ae0ab9b07488","system_id":"levelo_inurba_marseille","lat":43.294153,"lon":5.386305,"is_reserved":false,"is_disabled":false,"rental_uris":{"android":"levelo://app?vid=ee5e16ef-22eb-4460-9f06-ae0ab9b07488","ios":"levelo://app?vid=ee5e16ef-22eb-4460-9f06-ae0ab9b07488"},"vehicle_type_id":"4","last_reported":1682442374,"current_range_meters":26800,"station_id":"ce4bh2h2rcd13ifvqdh0","pricing_plan_id":"free"},{"bike_id":"5c4d1ca1-a87b-4118-bf17-09242976e694","system_id":"levelo_inurba_marseille","lat":43.29419,"lon":5.38617,"is_reserved":false,"is_disabled":false,"rental_uris":{"android":"levelo://app?vid=5c4d1ca1-a87b-4118-bf17-09242976e694","ios":"levelo://app?vid=5c4d1ca1-a87b-4118-bf17-09242976e694"},"vehicle_type_id":"4","last_reported":1682442374,"current_range_meters":11600,"station_id":"ce4bh2h2rcd13ifvqdh0","pricing_plan_id":"free"},{"bike_id":"e10e1f14-ac2d-49fd-8f8b-d4e28ac497c3","system_id":"levelo_inurba_marseille","lat":43.2942,"lon":5.38621,"is_reserved":false,"is_disabled":false,"rental_uris":{"android":"levelo://app?vid=e10e1f14-ac2d-49fd-8f8b-d4e28ac497c3","ios":"levelo://app?vid=e10e1f14-ac2d-49fd-8f8b-d4e28ac497c3"},"vehicle_type_id":"4","last_reported":1682442374,"current_range_meters":28000,"station_id":"ce4bh2h2rcd13ifvqdh0","pricing_plan_id":"free"},{"bike_id":"61e57b24-8d12-43e9-b571-93ea1852b7b1","system_id":"levelo_inurba_marseille","lat":43.294153,"lon":5.386305,"is_reserved":false,"is_disabled":false,"rental_uris":{"android":"levelo://app?vid=61e57b24-8d12-43e9-b571-93ea1852b7b1","ios":"levelo://app?vid=61e57b24-8d12-43e9-b571-93ea1852b7b1"},"vehicle_type_id":"4","last_reported":1682442374,"current_range_meters":9600,"station_id":"ce4bh2h2rcd13ifvqdh0","pricing_plan_id":"free"},{"bike_id":"f27265cc-4bca-4ad9-b228-99e1bba975ba","system_id":"levelo_inurba_marseille","lat":43.2942,"lon":5.38628,"is_reserved":false,"is_disabled":false,"rental_uris":{"android":"levelo://app?vid=f27265cc-4bca-4ad9-b228-99e1bba975ba","ios":"levelo://app?vid=f27265cc-4bca-4ad9-b228-99e1bba975ba"},"vehicle_type_id":"4","last_reported":1682442374,"current_range_meters":22000,"station_id":"ce4bh2h2rcd13ifvqdh0","pricing_plan_id":"free"},{"bike_id":"51746b5a-4f86-43d5-8541-cf80104598d2","system_id":"levelo_inurba_marseille","lat":43.290319,"lon":5.375732,"is_reserved":false,"is_disabled":false,"rental_uris":{"android":"levelo://app?vid=51746b5a-4f86-43d5-8541-cf80104598d2","ios":"levelo://app?vid=51746b5a-4f86-43d5-8541-cf80104598d2"},"vehicle_type_id":"4","last_reported":1682442374,"current_range_meters":0,"station_id":"ce4bh692rcd13ifvqe90","pricing_plan_id":"free"},{"bike_id":"b5ac0548-9b63-431d-990c-0de398d7caf2","system_id":"levelo_inurba_marseille","lat":43.29419,"lon":5.38627,"is_reserved":false,"is_disabled":false,"rental_uris":{"android":"levelo://app?vid=b5ac0548-9b63-431d-990c-0de398d7caf2","ios":"levelo://app?vid=b5ac0548-9b63-431d-990c-0de398d7caf2"},"vehicle_type_id":"4","last_reported":1682442374,"current_range_meters":23200,"station_id":"ce4bh2h2rcd13ifvqdh0","pricing_plan_id":"free"},{"bike_id":"1ef07c69-4e64-4330-9420-285bf746d2cb","system_id":"levelo_inurba_marseille","lat":43.29415,"lon":5.3862,"is_reserved":false,"is_disabled":false,"rental_uris":{"android":"levelo://app?vid=1ef07c69-4e64-4330-9420-285bf746d2cb","ios":"levelo://app?vid=1ef07c69-4e64-4330-9420-285bf746d2cb"},"vehicle_type_id":"4","last_reported":1682442374,"current_range_meters":16400,"station_id":"ce4bh2h2rcd13ifvqdh0","pricing_plan_id":"free"},{"bike_id":"aa27a214-c949-4ae3-9620-4767abe1b3d7","system_id":"levelo_inurba_marseille","lat":43.2942,"lon":5.3863,"is_reserved":false,"is_disabled":false,"rental_uris":{"android":"levelo://app?vid=aa27a214-c949-4ae3-9620-4767abe1b3d7","ios":"levelo://app?vid=aa27a214-c949-4ae3-9620-4767abe1b3d7"},"vehicle_type_id":"4","last_reported":1682442374,"current_range_meters":23200,"station_id":"ce4bh2h2rcd13ifvqdh0","pricing_plan_id":"free"},{"bike_id":"349aedff-0fac-4124-a8a8-24a9bd1bce88","system_id":"levelo_inurba_marseille","lat":43.29419,"lon":5.38629,"is_reserved":false,"is_disabled":false,"rental_uris":{"android":"levelo://app?vid=349aedff-0fac-4124-a8a8-24a9bd1bce88","ios":"levelo://app?vid=349aedff-0fac-4124-a8a8-24a9bd1bce88"},"vehicle_type_id":"4","last_reported":1682442374,"current_range_meters":11600,"station_id":"ce4bh2h2rcd13ifvqdh0","pricing_plan_id":"free"},{"bike_id":"594d8d66-8ba9-4119-b62e-12fefa4e51bd","system_id":"levelo_inurba_marseille","lat":43.289468,"lon":5.363719,"is_reserved":false,"is_disabled":false,"rental_uris":{"android":"levelo://app?vid=594d8d66-8ba9-4119-b62e-12fefa4e51bd","ios":"levelo://app?vid=594d8d66-8ba9-4119-b62e-12fefa4e51bd"},"vehicle_type_id":"4","last_reported":1682442374,"current_range_meters":7600,"station_id":"ce4bhc92rcd13ifvqetg","pricing_plan_id":"free"},{"bike_id":"0a64d8e9-f2bc-4990-8175-600b53671877","system_id":"levelo_inurba_marseille","lat":43.289184,"lon":5.366408,"is_reserved":false,"is_disabled":false,"rental_uris":{"android":"levelo://app?vid=0a64d8e9-f2bc-4990-8175-600b53671877","ios":"levelo://app?vid=0a64d8e9-f2bc-4990-8175-600b53671877"},"vehicle_type_id":"4","last_reported":1682442374,"current_range_meters":12000,"station_id":"ce4bhap2rcd13ifvqek0","pricing_plan_id":"free"},{"bike_id":"2b46042d-e25b-40c0-b5b4-79b786f79941","system_id":"levelo_inurba_marseille","lat":43.289184,"lon":5.366408,"is_reserved":false,"is_disabled":false,"rental_uris":{"android":"levelo://app?vid=2b46042d-e25b-40c0-b5b4-79b786f79941","ios":"levelo://app?vid=2b46042d-e25b-40c0-b5b4-79b786f79941"},"vehicle_type_id":"4","last_reported":1682442374,"current_range_meters":30000,"station_id":"ce4bhap2rcd13ifvqek0","pricing_plan_id":"free"},{"bike_id":"cf2410db-9c1b-4740-a60f-b09d642fd305","system_id":"levelo_inurba_marseille","lat":43.29413,"lon":5.38629,"is_reserved":false,"is_disabled":false,"rental_uris":{"android":"levelo://app?vid=cf2410db-9c1b-4740-a60f-b09d642fd305","ios":"levelo://app?vid=cf2410db-9c1b-4740-a60f-b09d642fd305"},"vehicle_type_id":"4","last_reported":1682442374,"current_range_meters":17600,"station_id":"ce4bh2h2rcd13ifvqdh0","pricing_plan_id":"free"},{"bike_id":"c7cdb6a2-8c38-4b4a-907f-602442c7bff3","system_id":"levelo_inurba_marseille","lat":43.29415,"lon":5.38633,"is_reserved":false,"is_disabled":false,"rental_uris":{"android":"levelo://app?vid=c7cdb6a2-8c38-4b4a-907f-602442c7bff3","ios":"levelo://app?vid=c7cdb6a2-8c38-4b4a-907f-602442c7bff3"},"vehicle_type_id":"4","last_reported":1682442374,"current_range_meters":21200,"station_id":"ce4bh2h2rcd13ifvqdh0","pricing_plan_id":"free"},{"bike_id":"09e8cc11-c560-445a-b617-f687185ffa35","system_id":"levelo_inurba_marseille","lat":43.289184,"lon":5.366408,"is_reserved":false,"is_disabled":false,"rental_uris":{"android":"levelo://app?vid=09e8cc11-c560-445a-b617-f687185ffa35","ios":"levelo://app?vid=09e8cc11-c560-445a-b617-f687185ffa35"},"vehicle_type_id":"4","last_reported":1682442374,"current_range_meters":18000,"station_id":"ce4bhap2rcd13ifvqek0","pricing_plan_id":"free"},{"bike_id":"2b5e0a94-35d4-44cb-99c9-74d64f37b05d","system_id":"levelo_inurba_marseille","lat":43.28939,"lon":5.36639,"is_reserved":false,"is_disabled":false,"rental_uris":{"android":"levelo://app?vid=2b5e0a94-35d4-44cb-99c9-74d64f37b05d","ios":"levelo://app?vid=2b5e0a94-35d4-44cb-99c9-74d64f37b05d"},"vehicle_type_id":"4","last_reported":1682442374,"current_range_meters":20400,"station_id":"ce4bhap2rcd13ifvqek0","pricing_plan_id":"free"},{"bike_id":"be7dfd9a-5fe2-46a7-8be7-35e11fb620ae","system_id":"levelo_inurba_marseille","lat":43.289184,"lon":5.366408,"is_reserved":false,"is_disabled":false,"rental_uris":{"android":"levelo://app?vid=be7dfd9a-5fe2-46a7-8be7-35e11fb620ae","ios":"levelo://app?vid=be7dfd9a-5fe2-46a7-8be7-35e11fb620ae"},"vehicle_type_id":"4","last_reported":1682442374,"current_range_meters":16400,"station_id":"ce4bhap2rcd13ifvqek0","pricing_plan_id":"free"},{"bike_id":"cf02947e-72e6-4d9b-94b3-7a2e9ffaafd9","system_id":"levelo_inurba_marseille","lat":43.28937,"lon":5.3664,"is_reserved":false,"is_disabled":false,"rental_uris":{"android":"levelo://app?vid=cf02947e-72e6-4d9b-94b3-7a2e9ffaafd9","ios":"levelo://app?vid=cf02947e-72e6-4d9b-94b3-7a2e9ffaafd9"},"vehicle_type_id":"4","last_reported":1682442374,"current_range_meters":11600,"station_id":"ce4bhap2rcd13ifvqek0","pricing_plan_id":"free"},{"bike_id":"3b813227-bbbf-4a0e-8f6c-377308d5694f","system_id":"levelo_inurba_marseille","lat":43.29409,"lon":5.38631,"is_reserved":false,"is_disabled":false,"rental_uris":{"android":"levelo://app?vid=3b813227-bbbf-4a0e-8f6c-377308d5694f","ios":"levelo://app?vid=3b813227-bbbf-4a0e-8f6c-377308d5694f"},"vehicle_type_id":"4","last_reported":1682442374,"current_range_meters":26000,"station_id":"ce4bh2h2rcd13ifvqdh0","pricing_plan_id":"free"},{"bike_id":"cbeeb3f2-d109-4f0c-8a4f-6ced3f569858","system_id":"levelo_inurba_marseille","lat":43.294057,"lon":5.38626,"is_reserved":false,"is_disabled":false,"rental_uris":{"android":"levelo://app?vid=cbeeb3f2-d109-4f0c-8a4f-6ced3f569858","ios":"levelo://app?vid=cbeeb3f2-d109-4f0c-8a4f-6ced3f569858"},"vehicle_type_id":"4","last_reported":1682442374,"current_range_meters":4000,"station_id":"ce4bh2h2rcd13ifvqdh0","pricing_plan_id":"free"},{"bike_id":"6a984957-6d86-4403-b1d6-5d0aa0ccd093","system_id":"levelo_inurba_marseille","lat":43.289184,"lon":5.366408,"is_reserved":false,"is_disabled":false,"rental_uris":{"android":"levelo://app?vid=6a984957-6d86-4403-b1d6-5d0aa0ccd093","ios":"levelo://app?vid=6a984957-6d86-4403-b1d6-5d0aa0ccd093"},"vehicle_type_id":"4","last_reported":1682442374,"current_range_meters":16400,"station_id":"ce4bhap2rcd13ifvqek0","pricing_plan_id":"free"},{"bike_id":"bebcf26f-47eb-4668-a58b-22884ce50838","system_id":"levelo_inurba_marseille","lat":43.28933,"lon":5.36638,"is_reserved":false,"is_disabled":false,"rental_uris":{"android":"levelo://app?vid=bebcf26f-47eb-4668-a58b-22884ce50838","ios":"levelo://app?vid=bebcf26f-47eb-4668-a58b-22884ce50838"},"vehicle_type_id":"4","last_reported":1682442374,"current_range_meters":29200,"station_id":"ce4bhap2rcd13ifvqek0","pricing_plan_id":"free"},{"bike_id":"9ebcde91-66dc-4b93-a362-00c9efff0f87","system_id":"levelo_inurba_marseille","lat":43.289468,"lon":5.363719,"is_reserved":false,"is_disabled":false,"rental_uris":{"android":"levelo://app?vid=9ebcde91-66dc-4b93-a362-00c9efff0f87","ios":"levelo://app?vid=9ebcde91-66dc-4b93-a362-00c9efff0f87"},"vehicle_type_id":"4","last_reported":1682442374,"current_range_meters":800,"station_id":"ce4bhc92rcd13ifvqetg","pricing_plan_id":"free"},{"bike_id":"91a8c62f-fc7e-420d-aa38-6f5295acb4a9","system_id":"levelo_inurba_marseille","lat":43.28938,"lon":5.363821,"is_reserved":false,"is_disabled":false,"rental_uris":{"android":"levelo://app?vid=91a8c62f-fc7e-420d-aa38-6f5295acb4a9","ios":"levelo://app?vid=91a8c62f-fc7e-420d-aa38-6f5295acb4a9"},"vehicle_type_id":"4","last_reported":1682442374,"current_range_meters":11200,"station_id":"ce4bhc92rcd13ifvqetg","pricing_plan_id":"free"},{"bike_id":"4d2c66e7-6909-4692-87bf-b6a9d5a2643c","system_id":"levelo_inurba_marseille","lat":43.28938,"lon":5.36381,"is_reserved":false,"is_disabled":false,"rental_uris":{"android":"levelo://app?vid=4d2c66e7-6909-4692-87bf-b6a9d5a2643c","ios":"levelo://app?vid=4d2c66e7-6909-4692-87bf-b6a9d5a2643c"},"vehicle_type_id":"4","last_reported":1682442374,"current_range_meters":14800,"station_id":"ce4bhc92rcd13ifvqetg","pricing_plan_id":"free"},{"bike_id":"a4cb4741-50cf-46b1-8473-d73062689588","system_id":"levelo_inurba_marseille","lat":43.289468,"lon":5.363719,"is_reserved":false,"is_disabled":false,"rental_uris":{"android":"levelo://app?vid=a4cb4741-50cf-46b1-8473-d73062689588","ios":"levelo://app?vid=a4cb4741-50cf-46b1-8473-d73062689588"},"vehicle_type_id":"4","last_reported":1682442374,"current_range_meters":2800,"station_id":"ce4bhc92rcd13ifvqetg","pricing_plan_id":"free"},{"bike_id":"61be44fe-c7ae-4d24-9e3a-ea4cb7af7126","system_id":"levelo_inurba_marseille","lat":43.28933,"lon":5.36374,"is_reserved":false,"is_disabled":false,"rental_uris":{"android":"levelo://app?vid=61be44fe-c7ae-4d24-9e3a-ea4cb7af7126","ios":"levelo://app?vid=61be44fe-c7ae-4d24-9e3a-ea4cb7af7126"},"vehicle_type_id":"4","last_reported":1682442374,"current_range_meters":31200,"station_id":"ce4bhc92rcd13ifvqetg","pricing_plan_id":"free"},{"bike_id":"dd69ac79-b45c-4472-9e99-ef29c27f4106","system_id":"levelo_inurba_marseille","lat":43.28931,"lon":5.3637,"is_reserved":false,"is_disabled":false,"rental_uris":{"android":"levelo://app?vid=dd69ac79-b45c-4472-9e99-ef29c27f4106","ios":"levelo://app?vid=dd69ac79-b45c-4472-9e99-ef29c27f4106"},"vehicle_type_id":"4","last_reported":1682442374,"current_range_meters":31200,"station_id":"ce4bhc92rcd13ifvqetg","pricing_plan_id":"free"},{"bike_id":"646900e7-90c9-4140-b901-6a849af9480b","system_id":"levelo_inurba_marseille","lat":43.304311,"lon":5.397404,"is_reserved":false,"is_disabled":false,"rental_uris":{"android":"levelo://app?vid=646900e7-90c9-4140-b901-6a849af9480b","ios":"levelo://app?vid=646900e7-90c9-4140-b901-6a849af9480b"},"vehicle_type_id":"4","last_reported":1682442374,"current_range_meters":30400,"station_id":"ce4bh092rcd13ifvqd20","pricing_plan_id":"free"},{"bike_id":"cb10b295-110f-4353-96ec-63a84d03440c","system_id":"levelo_inurba_marseille","lat":43.29261,"lon":5.38436,"is_reserved":false,"is_disabled":false,"rental_uris":{"android":"levelo://app?vid=cb10b295-110f-4353-96ec-63a84d03440c","ios":"levelo://app?vid=cb10b295-110f-4353-96ec-63a84d03440c"},"vehicle_type_id":"4","last_reported":1682442374,"current_range_meters":14800,"station_id":"ce4bh692rcd13ifvqea0","pricing_plan_id":"free"},{"bike_id":"4371567c-11b4-4631-ad7c-9f9b6691ddca","system_id":"levelo_inurba_marseille","lat":43.292644,"lon":5.384257,"is_reserved":false,"is_disabled":false,"rental_uris":{"android":"levelo://app?vid=4371567c-11b4-4631-ad7c-9f9b6691ddca","ios":"levelo://app?vid=4371567c-11b4-4631-ad7c-9f9b6691ddca"},"vehicle_type_id":"4","last_reported":1682442374,"current_range_meters":10400,"station_id":"ce4bh692rcd13ifvqea0","pricing_plan_id":"free"},{"bike_id":"3d636154-998b-4416-bb75-c16c9d9c795f","system_id":"levelo_inurba_marseille","lat":43.29259,"lon":5.38439,"is_reserved":false,"is_disabled":false,"rental_uris":{"android":"levelo://app?vid=3d636154-998b-4416-bb75-c16c9d9c795f","ios":"levelo://app?vid=3d636154-998b-4416-bb75-c16c9d9c795f"},"vehicle_type_id":"4","last_reported":1682442374,"current_range_meters":23200,"station_id":"ce4bh692rcd13ifvqea0","pricing_plan_id":"free"},{"bike_id":"d36f0a8f-8637-4d30-a9f2-0965aa526d9e","system_id":"levelo_inurba_marseille","lat":43.29301,"lon":5.38543,"is_reserved":false,"is_disabled":false,"rental_uris":{"android":"levelo://app?vid=d36f0a8f-8637-4d30-a9f2-0965aa526d9e","ios":"levelo://app?vid=d36f0a8f-8637-4d30-a9f2-0965aa526d9e"},"vehicle_type_id":"4","last_reported":1682442374,"current_range_meters":7200,"station_id":"ce4bh2h2rcd13ifvqdh0","pricing_plan_id":"free"},{"bike_id":"bc6de142-8c07-4bbc-a37d-72437afc0a47","system_id":"levelo_inurba_marseille","lat":43.33044,"lon":5.389119,"is_reserved":false,"is_disabled":false,"rental_uris":{"android":"levelo://app?vid=bc6de142-8c07-4bbc-a37d-72437afc0a47","ios":"levelo://app?vid=bc6de142-8c07-4bbc-a37d-72437afc0a47"},"vehicle_type_id":"4","last_reported":1682442374,"current_range_meters":20400,"station_id":"ce4bhr92rcd13ifvqhrg","pricing_plan_id":"free"},{"bike_id":"a3181926-b219-42cc-9d8d-675c59eeb13a","system_id":"levelo_inurba_marseille","lat":43.330422,"lon":5.389165,"is_reserved":false,"is_disabled":false,"rental_uris":{"android":"levelo://app?vid=a3181926-b219-42cc-9d8d-675c59eeb13a","ios":"levelo://app?vid=a3181926-b219-42cc-9d8d-675c59eeb13a"},"vehicle_type_id":"4","last_reported":1682442374,"current_range_meters":24400,"station_id":"ce4bhr92rcd13ifvqhrg","pricing_plan_id":"free"},{"bike_id":"401babb9-d704-4401-9cb3-46c96cbb7da4","system_id":"levelo_inurba_marseille","lat":43.33042,"lon":5.38917,"is_reserved":false,"is_disabled":false,"rental_uris":{"android":"levelo://app?vid=401babb9-d704-4401-9cb3-46c96cbb7da4","ios":"levelo://app?vid=401babb9-d704-4401-9cb3-46c96cbb7da4"},"vehicle_type_id":"4","last_reported":1682442374,"current_range_meters":29200,"station_id":"ce4bhr92rcd13ifvqhrg","pricing_plan_id":"free"},{"bike_id":"21e4a3ca-8f0d-4ba4-97f1-2aeb6db4698c","system_id":"levelo_inurba_marseille","lat":43.33046,"lon":5.389139,"is_reserved":false,"is_disabled":false,"rental_uris":{"android":"levelo://app?vid=21e4a3ca-8f0d-4ba4-97f1-2aeb6db4698c","ios":"levelo://app?vid=21e4a3ca-8f0d-4ba4-97f1-2aeb6db4698c"},"vehicle_type_id":"4","last_reported":1682442374,"current_range_meters":28400,"station_id":"ce4bhr92rcd13ifvqhrg","pricing_plan_id":"free"},{"bike_id":"a1a218a3-67a1-4c51-9cc9-3e2af3096307","system_id":"levelo_inurba_marseille","lat":43.330457,"lon":5.389144,"is_reserved":false,"is_disabled":false,"rental_uris":{"android":"levelo://app?vid=a1a218a3-67a1-4c51-9cc9-3e2af3096307","ios":"levelo://app?vid=a1a218a3-67a1-4c51-9cc9-3e2af3096307"},"vehicle_type_id":"4","last_reported":1682442374,"current_range_meters":19600,"station_id":"ce4bhr92rcd13ifvqhrg","pricing_plan_id":"free"},{"bike_id":"60da44f6-b524-4cd4-a776-e4dbb38248f8","system_id":"levelo_inurba_marseille","lat":43.330441,"lon":5.389174,"is_reserved":false,"is_disabled":false,"rental_uris":{"android":"levelo://app?vid=60da44f6-b524-4cd4-a776-e4dbb38248f8","ios":"levelo://app?vid=60da44f6-b524-4cd4-a776-e4dbb38248f8"},"vehicle_type_id":"4","last_reported":1682442374,"current_range_meters":29600,"station_id":"ce4bhr92rcd13ifvqhrg","pricing_plan_id":"free"},{"bike_id":"e9366c90-dd9a-4814-84be-ec46dc025363","system_id":"levelo_inurba_marseille","lat":43.330462,"lon":5.389147,"is_reserved":false,"is_disabled":false,"rental_uris":{"android":"levelo://app?vid=e9366c90-dd9a-4814-84be-ec46dc025363","ios":"levelo://app?vid=e9366c90-dd9a-4814-84be-ec46dc025363"},"vehicle_type_id":"4","last_reported":1682442374,"current_range_meters":29200,"station_id":"ce4bhr92rcd13ifvqhrg","pricing_plan_id":"free"},{"bike_id":"5837360d-9675-4fdb-87b0-03f201cfdf3c","system_id":"levelo_inurba_marseille","lat":43.29009,"lon":5.35607,"is_reserved":false,"is_disabled":false,"rental_uris":{"android":"levelo://app?vid=5837360d-9675-4fdb-87b0-03f201cfdf3c","ios":"levelo://app?vid=5837360d-9675-4fdb-87b0-03f201cfdf3c"},"vehicle_type_id":"4","last_reported":1682442374,"current_range_meters":2800,"station_id":"ce4bhb92rcd13ifvqen0","pricing_plan_id":"free"},{"bike_id":"4099b1e7-9964-41b0-8476-034c422a98fe","system_id":"levelo_inurba_marseille","lat":43.330458,"lon":5.389158,"is_reserved":false,"is_disabled":false,"rental_uris":{"android":"levelo://app?vid=4099b1e7-9964-41b0-8476-034c422a98fe","ios":"levelo://app?vid=4099b1e7-9964-41b0-8476-034c422a98fe"},"vehicle_type_id":"4","last_reported":1682442374,"current_range_meters":18800,"station_id":"ce4bhr92rcd13ifvqhrg","pricing_plan_id":"free"},{"bike_id":"13337b9a-286d-40ab-ad5c-6640cb331620","system_id":"levelo_inurba_marseille","lat":43.33045,"lon":5.38917,"is_reserved":false,"is_disabled":false,"rental_uris":{"android":"levelo://app?vid=13337b9a-286d-40ab-ad5c-6640cb331620","ios":"levelo://app?vid=13337b9a-286d-40ab-ad5c-6640cb331620"},"vehicle_type_id":"4","last_reported":1682442374,"current_range_meters":27200,"station_id":"ce4bhr92rcd13ifvqhrg","pricing_plan_id":"free"},{"bike_id":"23499df0-9106-4d62-bb23-79bf4ca1862c","system_id":"levelo_inurba_marseille","lat":43.290104,"lon":5.356111,"is_reserved":false,"is_disabled":false,"rental_uris":{"android":"levelo://app?vid=23499df0-9106-4d62-bb23-79bf4ca1862c","ios":"levelo://app?vid=23499df0-9106-4d62-bb23-79bf4ca1862c"},"vehicle_type_id":"4","last_reported":1682442374,"current_range_meters":12000,"station_id":"ce4bhb92rcd13ifvqen0","pricing_plan_id":"free"},{"bike_id":"28400f69-1084-40ac-aaea-af2f57adda1f","system_id":"levelo_inurba_marseille","lat":43.290104,"lon":5.356111,"is_reserved":false,"is_disabled":false,"rental_uris":{"android":"levelo://app?vid=28400f69-1084-40ac-aaea-af2f57adda1f","ios":"levelo://app?vid=28400f69-1084-40ac-aaea-af2f57adda1f"},"vehicle_type_id":"4","last_reported":1682442374,"current_range_meters":17200,"station_id":"ce4bhb92rcd13ifvqen0","pricing_plan_id":"free"},{"bike_id":"4d2fb4ad-736b-40ff-a5d0-e8973f1b7624","system_id":"levelo_inurba_marseille","lat":43.33045,"lon":5.38919,"is_reserved":false,"is_disabled":false,"rental_uris":{"android":"levelo://app?vid=4d2fb4ad-736b-40ff-a5d0-e8973f1b7624","ios":"levelo://app?vid=4d2fb4ad-736b-40ff-a5d0-e8973f1b7624"},"vehicle_type_id":"4","last_reported":1682442374,"current_range_meters":20000,"station_id":"ce4bhr92rcd13ifvqhrg","pricing_plan_id":"free"},{"bike_id":"6811cce6-010b-46f0-9d8a-047b38f1e65b","system_id":"levelo_inurba_marseille","lat":43.29006,"lon":5.35613,"is_reserved":false,"is_disabled":false,"rental_uris":{"android":"levelo://app?vid=6811cce6-010b-46f0-9d8a-047b38f1e65b","ios":"levelo://app?vid=6811cce6-010b-46f0-9d8a-047b38f1e65b"},"vehicle_type_id":"4","last_reported":1682442374,"current_range_meters":7600,"station_id":"ce4bhb92rcd13ifvqen0","pricing_plan_id":"free"},{"bike_id":"8fa6d117-0879-4b04-b4d8-42429bc4b838","system_id":"levelo_inurba_marseille","lat":43.29006,"lon":5.35612,"is_reserved":false,"is_disabled":false,"rental_uris":{"android":"levelo://app?vid=8fa6d117-0879-4b04-b4d8-42429bc4b838","ios":"levelo://app?vid=8fa6d117-0879-4b04-b4d8-42429bc4b838"},"vehicle_type_id":"4","last_reported":1682442374,"current_range_meters":15200,"station_id":"ce4bhb92rcd13ifvqen0","pricing_plan_id":"free"},{"bike_id":"dba95949-a520-4c91-b079-a74b0932e841","system_id":"levelo_inurba_marseille","lat":43.290103,"lon":5.356114,"is_reserved":false,"is_disabled":false,"rental_uris":{"android":"levelo://app?vid=dba95949-a520-4c91-b079-a74b0932e841","ios":"levelo://app?vid=dba95949-a520-4c91-b079-a74b0932e841"},"vehicle_type_id":"4","last_reported":1682442374,"current_range_meters":11200,"station_id":"ce4bhb92rcd13ifvqen0","pricing_plan_id":"free"},{"bike_id":"92de100f-b9ca-4a2b-9adb-087ab48fb6e6","system_id":"levelo_inurba_marseille","lat":43.290103,"lon":5.356114,"is_reserved":false,"is_disabled":false,"rental_uris":{"android":"levelo://app?vid=92de100f-b9ca-4a2b-9adb-087ab48fb6e6","ios":"levelo://app?vid=92de100f-b9ca-4a2b-9adb-087ab48fb6e6"},"vehicle_type_id":"4","last_reported":1682442374,"current_range_meters":29200,"station_id":"ce4bhb92rcd13ifvqen0","pricing_plan_id":"free"},{"bike_id":"60d9736d-6aae-4f5b-97f0-51c16003a5b5","system_id":"levelo_inurba_marseille","lat":43.290104,"lon":5.356111,"is_reserved":false,"is_disabled":false,"rental_uris":{"android":"levelo://app?vid=60d9736d-6aae-4f5b-97f0-51c16003a5b5","ios":"levelo://app?vid=60d9736d-6aae-4f5b-97f0-51c16003a5b5"},"vehicle_type_id":"4","last_reported":1682442374,"current_range_meters":21600,"station_id":"ce4bhb92rcd13ifvqen0","pricing_plan_id":"free"},{"bike_id":"4fac8c84-53a7-4259-aae8-6f40e9c06a9a","system_id":"levelo_inurba_marseille","lat":43.29006,"lon":5.35603,"is_reserved":false,"is_disabled":false,"rental_uris":{"android":"levelo://app?vid=4fac8c84-53a7-4259-aae8-6f40e9c06a9a","ios":"levelo://app?vid=4fac8c84-53a7-4259-aae8-6f40e9c06a9a"},"vehicle_type_id":"4","last_reported":1682442374,"current_range_meters":20400,"station_id":"ce4bhb92rcd13ifvqen0","pricing_plan_id":"free"},{"bike_id":"4f0eb281-de33-48ae-9634-c6fcb8d8fc6d","system_id":"levelo_inurba_marseille","lat":43.29003,"lon":5.3561,"is_reserved":false,"is_disabled":false,"rental_uris":{"android":"levelo://app?vid=4f0eb281-de33-48ae-9634-c6fcb8d8fc6d","ios":"levelo://app?vid=4f0eb281-de33-48ae-9634-c6fcb8d8fc6d"},"vehicle_type_id":"4","last_reported":1682442374,"current_range_meters":20800,"station_id":"ce4bhb92rcd13ifvqen0","pricing_plan_id":"free"},{"bike_id":"f88970f5-f142-4bc7-baee-58b705e84f40","system_id":"levelo_inurba_marseille","lat":43.290104,"lon":5.356111,"is_reserved":false,"is_disabled":false,"rental_uris":{"android":"levelo://app?vid=f88970f5-f142-4bc7-baee-58b705e84f40","ios":"levelo://app?vid=f88970f5-f142-4bc7-baee-58b705e84f40"},"vehicle_type_id":"4","last_reported":1682442374,"current_range_meters":27200,"station_id":"ce4bhb92rcd13ifvqen0","pricing_plan_id":"free"},{"bike_id":"a1403d9d-29be-4e0b-9815-d8948d31f9b3","system_id":"levelo_inurba_marseille","lat":43.29005,"lon":5.356,"is_reserved":false,"is_disabled":false,"rental_uris":{"android":"levelo://app?vid=a1403d9d-29be-4e0b-9815-d8948d31f9b3","ios":"levelo://app?vid=a1403d9d-29be-4e0b-9815-d8948d31f9b3"},"vehicle_type_id":"4","last_reported":1682442374,"current_range_meters":22000,"station_id":"ce4bhb92rcd13ifvqen0","pricing_plan_id":"free"},{"bike_id":"f42f067b-0fb9-4977-9d49-a8f48670e208","system_id":"levelo_inurba_marseille","lat":43.290995,"lon":5.381361,"is_reserved":false,"is_disabled":false,"rental_uris":{"android":"levelo://app?vid=f42f067b-0fb9-4977-9d49-a8f48670e208","ios":"levelo://app?vid=f42f067b-0fb9-4977-9d49-a8f48670e208"},"vehicle_type_id":"4","last_reported":1682442374,"current_range_meters":22400,"station_id":"ce4bh512rcd13ifvqe2g","pricing_plan_id":"free"},{"bike_id":"1a11e1b8-c9fd-4cb5-bfb0-e7dc9016815b","system_id":"levelo_inurba_marseille","lat":43.28856,"lon":5.358371,"is_reserved":false,"is_disabled":false,"rental_uris":{"android":"levelo://app?vid=1a11e1b8-c9fd-4cb5-bfb0-e7dc9016815b","ios":"levelo://app?vid=1a11e1b8-c9fd-4cb5-bfb0-e7dc9016815b"},"vehicle_type_id":"4","last_reported":1682442374,"current_range_meters":1600,"station_id":"ce4bhb12rcd13ifvqem0","pricing_plan_id":"free"},{"bike_id":"6e1cb2c7-73a0-483c-852f-c2fd85b6d138","system_id":"levelo_inurba_marseille","lat":43.290995,"lon":5.381361,"is_reserved":false,"is_disabled":false,"rental_uris":{"android":"levelo://app?vid=6e1cb2c7-73a0-483c-852f-c2fd85b6d138","ios":"levelo://app?vid=6e1cb2c7-73a0-483c-852f-c2fd85b6d138"},"vehicle_type_id":"4","last_reported":1682442374,"current_range_meters":6800,"station_id":"ce4bh512rcd13ifvqe2g","pricing_plan_id":"free"},{"bike_id":"1631d96f-f862-4e9f-91fc-e6ae423b6e98","system_id":"levelo_inurba_marseille","lat":43.289743,"lon":5.378304,"is_reserved":false,"is_disabled":false,"rental_uris":{"android":"levelo://app?vid=1631d96f-f862-4e9f-91fc-e6ae423b6e98","ios":"levelo://app?vid=1631d96f-f862-4e9f-91fc-e6ae423b6e98"},"vehicle_type_id":"4","last_reported":1682442374,"current_range_meters":18800,"station_id":"ce4bh9p2rcd13ifvqed0","pricing_plan_id":"free"},{"bike_id":"e6db6932-ceb4-4cf4-afcf-1e0f648db1f7","system_id":"levelo_inurba_marseille","lat":43.295169,"lon":5.390426,"is_reserved":false,"is_disabled":false,"rental_uris":{"android":"levelo://app?vid=e6db6932-ceb4-4cf4-afcf-1e0f648db1f7","ios":"levelo://app?vid=e6db6932-ceb4-4cf4-afcf-1e0f648db1f7"},"vehicle_type_id":"4","last_reported":1682442374,"current_range_meters":2000,"station_id":"ce4bh3p2rcd13ifvqdp0","pricing_plan_id":"free"},{"bike_id":"eadabfc4-a6f1-4edf-82ff-4e80de1671b7","system_id":"levelo_inurba_marseille","lat":43.295169,"lon":5.390426,"is_reserved":false,"is_disabled":false,"rental_uris":{"android":"levelo://app?vid=eadabfc4-a6f1-4edf-82ff-4e80de1671b7","ios":"levelo://app?vid=eadabfc4-a6f1-4edf-82ff-4e80de1671b7"},"vehicle_type_id":"4","last_reported":1682442374,"current_range_meters":16400,"station_id":"ce4bh3p2rcd13ifvqdp0","pricing_plan_id":"free"},{"bike_id":"fbf373f5-8679-43d9-a8cd-8b193cef9a06","system_id":"levelo_inurba_marseille","lat":43.29493,"lon":5.39025,"is_reserved":false,"is_disabled":false,"rental_uris":{"android":"levelo://app?vid=fbf373f5-8679-43d9-a8cd-8b193cef9a06","ios":"levelo://app?vid=fbf373f5-8679-43d9-a8cd-8b193cef9a06"},"vehicle_type_id":"4","last_reported":1682442374,"current_range_meters":25600,"station_id":"ce4bh3p2rcd13ifvqdp0","pricing_plan_id":"free"},{"bike_id":"2c90d4cb-9714-4b14-949d-16aa7e6aa7b3","system_id":"levelo_inurba_marseille","lat":43.28856,"lon":5.358371,"is_reserved":false,"is_disabled":false,"rental_uris":{"android":"levelo://app?vid=2c90d4cb-9714-4b14-949d-16aa7e6aa7b3","ios":"levelo://app?vid=2c90d4cb-9714-4b14-949d-16aa7e6aa7b3"},"vehicle_type_id":"4","last_reported":1682442374,"current_range_meters":31200,"station_id":"ce4bhb12rcd13ifvqem0","pricing_plan_id":"free"},{"bike_id":"9f4a5a4a-9e94-44c0-aeb3-bd281e9b75a8","system_id":"levelo_inurba_marseille","lat":43.28856,"lon":5.358371,"is_reserved":false,"is_disabled":false,"rental_uris":{"android":"levelo://app?vid=9f4a5a4a-9e94-44c0-aeb3-bd281e9b75a8","ios":"levelo://app?vid=9f4a5a4a-9e94-44c0-aeb3-bd281e9b75a8"},"vehicle_type_id":"4","last_reported":1682442374,"current_range_meters":28800,"station_id":"ce4bhb12rcd13ifvqem0","pricing_plan_id":"free"},{"bike_id":"90f51649-0d58-4dcd-93ea-51cc1cda8ed0","system_id":"levelo_inurba_marseille","lat":43.28856,"lon":5.358371,"is_reserved":false,"is_disabled":false,"rental_uris":{"android":"levelo://app?vid=90f51649-0d58-4dcd-93ea-51cc1cda8ed0","ios":"levelo://app?vid=90f51649-0d58-4dcd-93ea-51cc1cda8ed0"},"vehicle_type_id":"4","last_reported":1682442374,"current_range_meters":25600,"station_id":"ce4bhb12rcd13ifvqem0","pricing_plan_id":"free"},{"bike_id":"190eddb7-1444-45e4-8edc-e542ca682654","system_id":"levelo_inurba_marseille","lat":43.28856,"lon":5.358371,"is_reserved":false,"is_disabled":false,"rental_uris":{"android":"levelo://app?vid=190eddb7-1444-45e4-8edc-e542ca682654","ios":"levelo://app?vid=190eddb7-1444-45e4-8edc-e542ca682654"},"vehicle_type_id":"4","last_reported":1682442374,"current_range_meters":31200,"station_id":"ce4bhb12rcd13ifvqem0","pricing_plan_id":"free"},{"bike_id":"7c8a3453-30d6-4180-89a9-2a0476045dd0","system_id":"levelo_inurba_marseille","lat":43.28856,"lon":5.358371,"is_reserved":false,"is_disabled":false,"rental_uris":{"android":"levelo://app?vid=7c8a3453-30d6-4180-89a9-2a0476045dd0","ios":"levelo://app?vid=7c8a3453-30d6-4180-89a9-2a0476045dd0"},"vehicle_type_id":"4","last_reported":1682442374,"current_range_meters":30400,"station_id":"ce4bhb12rcd13ifvqem0","pricing_plan_id":"free"},{"bike_id":"9bb40cbd-3915-433c-a672-abc57139d0e5","system_id":"levelo_inurba_marseille","lat":43.28856,"lon":5.358371,"is_reserved":false,"is_disabled":false,"rental_uris":{"android":"levelo://app?vid=9bb40cbd-3915-433c-a672-abc57139d0e5","ios":"levelo://app?vid=9bb40cbd-3915-433c-a672-abc57139d0e5"},"vehicle_type_id":"4","last_reported":1682442374,"current_range_meters":25600,"station_id":"ce4bhb12rcd13ifvqem0","pricing_plan_id":"free"},{"bike_id":"2fe5ed8d-1382-4e8d-8a2f-b71c6cc855f9","system_id":"levelo_inurba_marseille","lat":43.28856,"lon":5.358371,"is_reserved":false,"is_disabled":false,"rental_uris":{"android":"levelo://app?vid=2fe5ed8d-1382-4e8d-8a2f-b71c6cc855f9","ios":"levelo://app?vid=2fe5ed8d-1382-4e8d-8a2f-b71c6cc855f9"},"vehicle_type_id":"4","last_reported":1682442374,"current_range_meters":13600,"station_id":"ce4bhb12rcd13ifvqem0","pricing_plan_id":"free"},{"bike_id":"76981a63-756d-4914-8a82-574458361c4f","system_id":"levelo_inurba_marseille","lat":43.28856,"lon":5.358371,"is_reserved":false,"is_disabled":false,"rental_uris":{"android":"levelo://app?vid=76981a63-756d-4914-8a82-574458361c4f","ios":"levelo://app?vid=76981a63-756d-4914-8a82-574458361c4f"},"vehicle_type_id":"4","last_reported":1682442374,"current_range_meters":1600,"station_id":"ce4bhb12rcd13ifvqem0","pricing_plan_id":"free"},{"bike_id":"b408a909-1bac-4047-82cc-ea4d4be43e14","system_id":"levelo_inurba_marseille","lat":43.28856,"lon":5.358371,"is_reserved":false,"is_disabled":false,"rental_uris":{"android":"levelo://app?vid=b408a909-1bac-4047-82cc-ea4d4be43e14","ios":"levelo://app?vid=b408a909-1bac-4047-82cc-ea4d4be43e14"},"vehicle_type_id":"4","last_reported":1682442374,"current_range_meters":17600,"station_id":"ce4bhb12rcd13ifvqem0","pricing_plan_id":"free"},{"bike_id":"c38470a7-25e3-4482-bafd-18edef6352df","system_id":"levelo_inurba_marseille","lat":43.28856,"lon":5.358371,"is_reserved":false,"is_disabled":false,"rental_uris":{"android":"levelo://app?vid=c38470a7-25e3-4482-bafd-18edef6352df","ios":"levelo://app?vid=c38470a7-25e3-4482-bafd-18edef6352df"},"vehicle_type_id":"4","last_reported":1682442374,"current_range_meters":31200,"station_id":"ce4bhb12rcd13ifvqem0","pricing_plan_id":"free"},{"bike_id":"dabb8d3d-6869-4358-86b5-78c8ffd9fb2c","system_id":"levelo_inurba_marseille","lat":43.28856,"lon":5.358371,"is_reserved":false,"is_disabled":false,"rental_uris":{"android":"levelo://app?vid=dabb8d3d-6869-4358-86b5-78c8ffd9fb2c","ios":"levelo://app?vid=dabb8d3d-6869-4358-86b5-78c8ffd9fb2c"},"vehicle_type_id":"4","last_reported":1682442374,"current_range_meters":31200,"station_id":"ce4bhb12rcd13ifvqem0","pricing_plan_id":"free"},{"bike_id":"7dc0f8b4-50d2-4f30-8651-30f4d7b1ff9a","system_id":"levelo_inurba_marseille","lat":43.28856,"lon":5.358371,"is_reserved":false,"is_disabled":false,"rental_uris":{"android":"levelo://app?vid=7dc0f8b4-50d2-4f30-8651-30f4d7b1ff9a","ios":"levelo://app?vid=7dc0f8b4-50d2-4f30-8651-30f4d7b1ff9a"},"vehicle_type_id":"4","last_reported":1682442374,"current_range_meters":31200,"station_id":"ce4bhb12rcd13ifvqem0","pricing_plan_id":"free"},{"bike_id":"a0a225c0-e3a1-4298-a064-082b146617ff","system_id":"levelo_inurba_marseille","lat":43.30973,"lon":5.40134,"is_reserved":false,"is_disabled":false,"rental_uris":{"android":"levelo://app?vid=a0a225c0-e3a1-4298-a064-082b146617ff","ios":"levelo://app?vid=a0a225c0-e3a1-4298-a064-082b146617ff"},"vehicle_type_id":"4","last_reported":1682442374,"current_range_meters":0,"station_id":"","pricing_plan_id":"free"},{"bike_id":"ec3f508a-1481-43c7-b76a-24cb33a430c0","system_id":"levelo_inurba_marseille","lat":43.30642,"lon":5.401031,"is_reserved":false,"is_disabled":false,"rental_uris":{"android":"levelo://app?vid=ec3f508a-1481-43c7-b76a-24cb33a430c0","ios":"levelo://app?vid=ec3f508a-1481-43c7-b76a-24cb33a430c0"},"vehicle_type_id":"4","last_reported":1682442374,"current_range_meters":20000,"station_id":"ce4bh112rcd13ifvqda0","pricing_plan_id":"free"},{"bike_id":"7255abb5-4741-43bb-a688-a699bcf23d2b","system_id":"levelo_inurba_marseille","lat":43.337531,"lon":5.374495,"is_reserved":false,"is_disabled":false,"rental_uris":{"android":"levelo://app?vid=7255abb5-4741-43bb-a688-a699bcf23d2b","ios":"levelo://app?vid=7255abb5-4741-43bb-a688-a699bcf23d2b"},"vehicle_type_id":"4","last_reported":1682442374,"current_range_meters":26800,"station_id":"","pricing_plan_id":"free"},{"bike_id":"1550dd83-7bfe-48a2-9e7d-eb78bb015a1a","system_id":"levelo_inurba_marseille","lat":43.33765,"lon":5.3743,"is_reserved":false,"is_disabled":false,"rental_uris":{"android":"levelo://app?vid=1550dd83-7bfe-48a2-9e7d-eb78bb015a1a","ios":"levelo://app?vid=1550dd83-7bfe-48a2-9e7d-eb78bb015a1a"},"vehicle_type_id":"4","last_reported":1682442374,"current_range_meters":31200,"station_id":"ce4rr2p2rcd13i802rgg","pricing_plan_id":"free"},{"bike_id":"12a3ec4b-d47a-43be-ae54-23d45499bff3","system_id":"levelo_inurba_marseille","lat":43.30642,"lon":5.401031,"is_reserved":false,"is_disabled":false,"rental_uris":{"android":"levelo://app?vid=12a3ec4b-d47a-43be-ae54-23d45499bff3","ios":"levelo://app?vid=12a3ec4b-d47a-43be-ae54-23d45499bff3"},"vehicle_type_id":"4","last_reported":1682442374,"current_range_meters":14000,"station_id":"ce4bh112rcd13ifvqda0","pricing_plan_id":"free"},{"bike_id":"d93fb958-5aaa-48a5-838b-713d8c296714","system_id":"levelo_inurba_marseille","lat":43.30131,"lon":5.39848,"is_reserved":false,"is_disabled":false,"rental_uris":{"android":"levelo://app?vid=d93fb958-5aaa-48a5-838b-713d8c296714","ios":"levelo://app?vid=d93fb958-5aaa-48a5-838b-713d8c296714"},"vehicle_type_id":"4","last_reported":1682442374,"current_range_meters":6800,"station_id":"","pricing_plan_id":"free"},{"bike_id":"27466b9e-ec97-4b83-a049-83124d9b4a16","system_id":"levelo_inurba_marseille","lat":43.301117,"lon":5.398795,"is_reserved":false,"is_disabled":false,"rental_uris":{"android":"levelo://app?vid=27466b9e-ec97-4b83-a049-83124d9b4a16","ios":"levelo://app?vid=27466b9e-ec97-4b83-a049-83124d9b4a16"},"vehicle_type_id":"4","last_reported":1682442374,"current_range_meters":31200,"station_id":"ce4bh0h2rcd13ifvqd40","pricing_plan_id":"free"},{"bike_id":"8fcbd49f-84c3-4018-a07b-de0c9a2b61b9","system_id":"levelo_inurba_marseille","lat":43.31164,"lon":5.40242,"is_reserved":false,"is_disabled":false,"rental_uris":{"android":"levelo://app?vid=8fcbd49f-84c3-4018-a07b-de0c9a2b61b9","ios":"levelo://app?vid=8fcbd49f-84c3-4018-a07b-de0c9a2b61b9"},"vehicle_type_id":"4","last_reported":1682442374,"current_range_meters":28000,"station_id":"","pricing_plan_id":"free"},{"bike_id":"1623a17c-24f4-4747-ae9c-5ca26182fb47","system_id":"levelo_inurba_marseille","lat":43.286591,"lon":5.363346,"is_reserved":false,"is_disabled":false,"rental_uris":{"android":"levelo://app?vid=1623a17c-24f4-4747-ae9c-5ca26182fb47","ios":"levelo://app?vid=1623a17c-24f4-4747-ae9c-5ca26182fb47"},"vehicle_type_id":"4","last_reported":1682442374,"current_range_meters":31200,"station_id":"ce4bhah2rcd13ifvqej0","pricing_plan_id":"free"},{"bike_id":"25c70192-1979-4b5f-91c0-4b8fd708c779","system_id":"levelo_inurba_marseille","lat":43.286591,"lon":5.363346,"is_reserved":false,"is_disabled":false,"rental_uris":{"android":"levelo://app?vid=25c70192-1979-4b5f-91c0-4b8fd708c779","ios":"levelo://app?vid=25c70192-1979-4b5f-91c0-4b8fd708c779"},"vehicle_type_id":"4","last_reported":1682442374,"current_range_meters":31200,"station_id":"ce4bhah2rcd13ifvqej0","pricing_plan_id":"free"},{"bike_id":"2e31e416-b674-4ac4-8011-989e3acddd65","system_id":"levelo_inurba_marseille","lat":43.298681,"lon":5.397225,"is_reserved":false,"is_disabled":false,"rental_uris":{"android":"levelo://app?vid=2e31e416-b674-4ac4-8011-989e3acddd65","ios":"levelo://app?vid=2e31e416-b674-4ac4-8011-989e3acddd65"},"vehicle_type_id":"4","last_reported":1682442374,"current_range_meters":4000,"station_id":"ce4bh0h2rcd13ifvqd50","pricing_plan_id":"free"},{"bike_id":"0f85d3e1-eb83-4a59-b8d9-c69463a42d23","system_id":"levelo_inurba_marseille","lat":43.286591,"lon":5.363346,"is_reserved":false,"is_disabled":false,"rental_uris":{"android":"levelo://app?vid=0f85d3e1-eb83-4a59-b8d9-c69463a42d23","ios":"levelo://app?vid=0f85d3e1-eb83-4a59-b8d9-c69463a42d23"},"vehicle_type_id":"4","last_reported":1682442374,"current_range_meters":31200,"station_id":"ce4bhah2rcd13ifvqej0","pricing_plan_id":"free"},{"bike_id":"52cfe915-7b00-4331-a110-a02aab67d794","system_id":"levelo_inurba_marseille","lat":43.286591,"lon":5.363346,"is_reserved":false,"is_disabled":false,"rental_uris":{"android":"levelo://app?vid=52cfe915-7b00-4331-a110-a02aab67d794","ios":"levelo://app?vid=52cfe915-7b00-4331-a110-a02aab67d794"},"vehicle_type_id":"4","last_reported":1682442374,"current_range_meters":31200,"station_id":"ce4bhah2rcd13ifvqej0","pricing_plan_id":"free"},{"bike_id":"4a0cf3d2-94bb-410e-98de-ca2390c77e22","system_id":"levelo_inurba_marseille","lat":43.28672,"lon":5.36347,"is_reserved":false,"is_disabled":false,"rental_uris":{"android":"levelo://app?vid=4a0cf3d2-94bb-410e-98de-ca2390c77e22","ios":"levelo://app?vid=4a0cf3d2-94bb-410e-98de-ca2390c77e22"},"vehicle_type_id":"4","last_reported":1682442374,"current_range_meters":12800,"station_id":"ce4bhah2rcd13ifvqej0","pricing_plan_id":"free"},{"bike_id":"2615f8c2-b86e-48f6-9604-01c3b009a390","system_id":"levelo_inurba_marseille","lat":43.286591,"lon":5.363346,"is_reserved":false,"is_disabled":false,"rental_uris":{"android":"levelo://app?vid=2615f8c2-b86e-48f6-9604-01c3b009a390","ios":"levelo://app?vid=2615f8c2-b86e-48f6-9604-01c3b009a390"},"vehicle_type_id":"4","last_reported":1682442374,"current_range_meters":31200,"station_id":"ce4bhah2rcd13ifvqej0","pricing_plan_id":"free"},{"bike_id":"ed0de0d1-3e07-443f-a8f5-766f5f44a548","system_id":"levelo_inurba_marseille","lat":43.286591,"lon":5.363346,"is_reserved":false,"is_disabled":false,"rental_uris":{"android":"levelo://app?vid=ed0de0d1-3e07-443f-a8f5-766f5f44a548","ios":"levelo://app?vid=ed0de0d1-3e07-443f-a8f5-766f5f44a548"},"vehicle_type_id":"4","last_reported":1682442374,"current_range_meters":31200,"station_id":"ce4bhah2rcd13ifvqej0","pricing_plan_id":"free"},{"bike_id":"f9ecc475-e68c-4d25-8c6a-c8a8cb2e6533","system_id":"levelo_inurba_marseille","lat":43.2867,"lon":5.36345,"is_reserved":false,"is_disabled":false,"rental_uris":{"android":"levelo://app?vid=f9ecc475-e68c-4d25-8c6a-c8a8cb2e6533","ios":"levelo://app?vid=f9ecc475-e68c-4d25-8c6a-c8a8cb2e6533"},"vehicle_type_id":"4","last_reported":1682442374,"current_range_meters":24400,"station_id":"ce4bhah2rcd13ifvqej0","pricing_plan_id":"free"},{"bike_id":"8aadd329-4edd-4f82-8c50-4ebe744c008a","system_id":"levelo_inurba_marseille","lat":43.298681,"lon":5.397225,"is_reserved":false,"is_disabled":false,"rental_uris":{"android":"levelo://app?vid=8aadd329-4edd-4f82-8c50-4ebe744c008a","ios":"levelo://app?vid=8aadd329-4edd-4f82-8c50-4ebe744c008a"},"vehicle_type_id":"4","last_reported":1682442374,"current_range_meters":16400,"station_id":"ce4bh0h2rcd13ifvqd50","pricing_plan_id":"free"},{"bike_id":"1b00bbd1-2dc4-4901-83e9-6cf95adece6b","system_id":"levelo_inurba_marseille","lat":43.286591,"lon":5.363346,"is_reserved":false,"is_disabled":false,"rental_uris":{"android":"levelo://app?vid=1b00bbd1-2dc4-4901-83e9-6cf95adece6b","ios":"levelo://app?vid=1b00bbd1-2dc4-4901-83e9-6cf95adece6b"},"vehicle_type_id":"4","last_reported":1682442374,"current_range_meters":27600,"station_id":"ce4bhah2rcd13ifvqej0","pricing_plan_id":"free"},{"bike_id":"12bacf91-7579-4929-ad77-786ff448e24d","system_id":"levelo_inurba_marseille","lat":43.298681,"lon":5.397225,"is_reserved":false,"is_disabled":false,"rental_uris":{"android":"levelo://app?vid=12bacf91-7579-4929-ad77-786ff448e24d","ios":"levelo://app?vid=12bacf91-7579-4929-ad77-786ff448e24d"},"vehicle_type_id":"4","last_reported":1682442374,"current_range_meters":3200,"station_id":"ce4bh0h2rcd13ifvqd50","pricing_plan_id":"free"},{"bike_id":"1a5d9927-ce0e-43a4-a817-5402d0bbf920","system_id":"levelo_inurba_marseille","lat":43.298681,"lon":5.397225,"is_reserved":false,"is_disabled":false,"rental_uris":{"android":"levelo://app?vid=1a5d9927-ce0e-43a4-a817-5402d0bbf920","ios":"levelo://app?vid=1a5d9927-ce0e-43a4-a817-5402d0bbf920"},"vehicle_type_id":"4","last_reported":1682442374,"current_range_meters":29200,"station_id":"ce4bh0h2rcd13ifvqd50","pricing_plan_id":"free"},{"bike_id":"77179306-d216-4bdf-b9e6-91060c2d3a33","system_id":"levelo_inurba_marseille","lat":43.298681,"lon":5.397225,"is_reserved":false,"is_disabled":false,"rental_uris":{"android":"levelo://app?vid=77179306-d216-4bdf-b9e6-91060c2d3a33","ios":"levelo://app?vid=77179306-d216-4bdf-b9e6-91060c2d3a33"},"vehicle_type_id":"4","last_reported":1682442374,"current_range_meters":19200,"station_id":"ce4bh0h2rcd13ifvqd50","pricing_plan_id":"free"},{"bike_id":"cba86de6-c882-4f18-91c4-8f3ad1f503c4","system_id":"levelo_inurba_marseille","lat":43.298681,"lon":5.397225,"is_reserved":false,"is_disabled":false,"rental_uris":{"android":"levelo://app?vid=cba86de6-c882-4f18-91c4-8f3ad1f503c4","ios":"levelo://app?vid=cba86de6-c882-4f18-91c4-8f3ad1f503c4"},"vehicle_type_id":"4","last_reported":1682442374,"current_range_meters":12800,"station_id":"ce4bh0h2rcd13ifvqd50","pricing_plan_id":"free"},{"bike_id":"2905ce4f-b1be-477c-b6e2-e451cca0dbc3","system_id":"levelo_inurba_marseille","lat":43.286591,"lon":5.363346,"is_reserved":false,"is_disabled":false,"rental_uris":{"android":"levelo://app?vid=2905ce4f-b1be-477c-b6e2-e451cca0dbc3","ios":"levelo://app?vid=2905ce4f-b1be-477c-b6e2-e451cca0dbc3"},"vehicle_type_id":"4","last_reported":1682442374,"current_range_meters":31200,"station_id":"ce4bhah2rcd13ifvqej0","pricing_plan_id":"free"},{"bike_id":"b9d251a0-13e2-48ba-a0e1-dc79e76e522a","system_id":"levelo_inurba_marseille","lat":43.28666,"lon":5.36346,"is_reserved":false,"is_disabled":false,"rental_uris":{"android":"levelo://app?vid=b9d251a0-13e2-48ba-a0e1-dc79e76e522a","ios":"levelo://app?vid=b9d251a0-13e2-48ba-a0e1-dc79e76e522a"},"vehicle_type_id":"4","last_reported":1682442374,"current_range_meters":12400,"station_id":"ce4bhah2rcd13ifvqej0","pricing_plan_id":"free"},{"bike_id":"d8d27da9-fd06-4edd-b8e9-8c55ae5983c4","system_id":"levelo_inurba_marseille","lat":43.295194,"lon":5.39397,"is_reserved":false,"is_disabled":false,"rental_uris":{"android":"levelo://app?vid=d8d27da9-fd06-4edd-b8e9-8c55ae5983c4","ios":"levelo://app?vid=d8d27da9-fd06-4edd-b8e9-8c55ae5983c4"},"vehicle_type_id":"4","last_reported":1682442374,"current_range_meters":19600,"station_id":"ce4bh292rcd13ifvqdf0","pricing_plan_id":"free"},{"bike_id":"1aa2d7fa-c793-4e46-988b-c26ff3162dbe","system_id":"levelo_inurba_marseille","lat":43.298681,"lon":5.397225,"is_reserved":false,"is_disabled":false,"rental_uris":{"android":"levelo://app?vid=1aa2d7fa-c793-4e46-988b-c26ff3162dbe","ios":"levelo://app?vid=1aa2d7fa-c793-4e46-988b-c26ff3162dbe"},"vehicle_type_id":"4","last_reported":1682442374,"current_range_meters":9200,"station_id":"ce4bh0h2rcd13ifvqd50","pricing_plan_id":"free"},{"bike_id":"552cf24a-4525-4c64-a630-5f5d7b24e498","system_id":"levelo_inurba_marseille","lat":43.286591,"lon":5.363346,"is_reserved":false,"is_disabled":false,"rental_uris":{"android":"levelo://app?vid=552cf24a-4525-4c64-a630-5f5d7b24e498","ios":"levelo://app?vid=552cf24a-4525-4c64-a630-5f5d7b24e498"},"vehicle_type_id":"4","last_reported":1682442374,"current_range_meters":29600,"station_id":"ce4bhah2rcd13ifvqej0","pricing_plan_id":"free"},{"bike_id":"251d60c5-aa89-4725-99df-99dc022a1b30","system_id":"levelo_inurba_marseille","lat":43.295196,"lon":5.39397,"is_reserved":false,"is_disabled":false,"rental_uris":{"android":"levelo://app?vid=251d60c5-aa89-4725-99df-99dc022a1b30","ios":"levelo://app?vid=251d60c5-aa89-4725-99df-99dc022a1b30"},"vehicle_type_id":"4","last_reported":1682442374,"current_range_meters":18400,"station_id":"ce4bh292rcd13ifvqdf0","pricing_plan_id":"free"},{"bike_id":"0f4f3c39-6620-4591-bbbb-33d6ddb4cbff","system_id":"levelo_inurba_marseille","lat":43.295194,"lon":5.39397,"is_reserved":false,"is_disabled":false,"rental_uris":{"android":"levelo://app?vid=0f4f3c39-6620-4591-bbbb-33d6ddb4cbff","ios":"levelo://app?vid=0f4f3c39-6620-4591-bbbb-33d6ddb4cbff"},"vehicle_type_id":"4","last_reported":1682442374,"current_range_meters":15600,"station_id":"ce4bh292rcd13ifvqdf0","pricing_plan_id":"free"},{"bike_id":"dee88f59-4a16-4a9a-a2c8-a4965727ecda","system_id":"levelo_inurba_marseille","lat":43.295196,"lon":5.39397,"is_reserved":false,"is_disabled":false,"rental_uris":{"android":"levelo://app?vid=dee88f59-4a16-4a9a-a2c8-a4965727ecda","ios":"levelo://app?vid=dee88f59-4a16-4a9a-a2c8-a4965727ecda"},"vehicle_type_id":"4","last_reported":1682442374,"current_range_meters":0,"station_id":"ce4bh292rcd13ifvqdf0","pricing_plan_id":"free"},{"bike_id":"ae7e6a61-7ec0-4f1f-ac1e-4a410c00e5c5","system_id":"levelo_inurba_marseille","lat":43.295196,"lon":5.39397,"is_reserved":false,"is_disabled":false,"rental_uris":{"android":"levelo://app?vid=ae7e6a61-7ec0-4f1f-ac1e-4a410c00e5c5","ios":"levelo://app?vid=ae7e6a61-7ec0-4f1f-ac1e-4a410c00e5c5"},"vehicle_type_id":"4","last_reported":1682442374,"current_range_meters":26800,"station_id":"ce4bh292rcd13ifvqdf0","pricing_plan_id":"free"},{"bike_id":"04d14be8-8ed3-406a-be9a-dd88ec807f1a","system_id":"levelo_inurba_marseille","lat":43.295196,"lon":5.39397,"is_reserved":false,"is_disabled":false,"rental_uris":{"android":"levelo://app?vid=04d14be8-8ed3-406a-be9a-dd88ec807f1a","ios":"levelo://app?vid=04d14be8-8ed3-406a-be9a-dd88ec807f1a"},"vehicle_type_id":"4","last_reported":1682442374,"current_range_meters":20800,"station_id":"ce4bh292rcd13ifvqdf0","pricing_plan_id":"free"},{"bike_id":"8eac3df9-b22b-4b9f-a356-989ae7cb3aa0","system_id":"levelo_inurba_marseille","lat":43.295196,"lon":5.39397,"is_reserved":false,"is_disabled":false,"rental_uris":{"android":"levelo://app?vid=8eac3df9-b22b-4b9f-a356-989ae7cb3aa0","ios":"levelo://app?vid=8eac3df9-b22b-4b9f-a356-989ae7cb3aa0"},"vehicle_type_id":"4","last_reported":1682442374,"current_range_meters":30000,"station_id":"ce4bh292rcd13ifvqdf0","pricing_plan_id":"free"},{"bike_id":"59ad49eb-9b3f-400f-8c81-8e1132d7fffa","system_id":"levelo_inurba_marseille","lat":43.290345,"lon":5.38646,"is_reserved":false,"is_disabled":false,"rental_uris":{"android":"levelo://app?vid=59ad49eb-9b3f-400f-8c81-8e1132d7fffa","ios":"levelo://app?vid=59ad49eb-9b3f-400f-8c81-8e1132d7fffa"},"vehicle_type_id":"4","last_reported":1682442374,"current_range_meters":16000,"station_id":"ce4bh4p2rcd13ifvqe0g","pricing_plan_id":"free"},{"bike_id":"24c2e9aa-bc86-4350-a082-9bcd5a90d5cd","system_id":"levelo_inurba_marseille","lat":43.290345,"lon":5.38646,"is_reserved":false,"is_disabled":false,"rental_uris":{"android":"levelo://app?vid=24c2e9aa-bc86-4350-a082-9bcd5a90d5cd","ios":"levelo://app?vid=24c2e9aa-bc86-4350-a082-9bcd5a90d5cd"},"vehicle_type_id":"4","last_reported":1682442374,"current_range_meters":4400,"station_id":"ce4bh4p2rcd13ifvqe0g","pricing_plan_id":"free"},{"bike_id":"74aef800-ab46-4f88-bb7f-0d74e2da1175","system_id":"levelo_inurba_marseille","lat":43.29027,"lon":5.38643,"is_reserved":false,"is_disabled":false,"rental_uris":{"android":"levelo://app?vid=74aef800-ab46-4f88-bb7f-0d74e2da1175","ios":"levelo://app?vid=74aef800-ab46-4f88-bb7f-0d74e2da1175"},"vehicle_type_id":"4","last_reported":1682442374,"current_range_meters":0,"station_id":"ce4bh4p2rcd13ifvqe0g","pricing_plan_id":"free"},{"bike_id":"b2897b32-06ec-4535-9f75-6d9a227f2c4c","system_id":"levelo_inurba_marseille","lat":43.286039,"lon":5.370679,"is_reserved":false,"is_disabled":false,"rental_uris":{"android":"levelo://app?vid=b2897b32-06ec-4535-9f75-6d9a227f2c4c","ios":"levelo://app?vid=b2897b32-06ec-4535-9f75-6d9a227f2c4c"},"vehicle_type_id":"4","last_reported":1682442374,"current_range_meters":23200,"station_id":"ce4bht12rcd13ifvqi60","pricing_plan_id":"free"},{"bike_id":"e9841f19-f562-4606-8602-1eb24705b865","system_id":"levelo_inurba_marseille","lat":43.286039,"lon":5.370679,"is_reserved":false,"is_disabled":false,"rental_uris":{"android":"levelo://app?vid=e9841f19-f562-4606-8602-1eb24705b865","ios":"levelo://app?vid=e9841f19-f562-4606-8602-1eb24705b865"},"vehicle_type_id":"4","last_reported":1682442374,"current_range_meters":31200,"station_id":"ce4bht12rcd13ifvqi60","pricing_plan_id":"free"},{"bike_id":"13cf954f-cb39-4eac-8b59-652b84627129","system_id":"levelo_inurba_marseille","lat":43.286121,"lon":5.370647,"is_reserved":false,"is_disabled":false,"rental_uris":{"android":"levelo://app?vid=13cf954f-cb39-4eac-8b59-652b84627129","ios":"levelo://app?vid=13cf954f-cb39-4eac-8b59-652b84627129"},"vehicle_type_id":"4","last_reported":1682442374,"current_range_meters":28000,"station_id":"ce4bht12rcd13ifvqi60","pricing_plan_id":"free"},{"bike_id":"99c34c47-c224-4ab4-8c10-b12f25b47c43","system_id":"levelo_inurba_marseille","lat":43.286039,"lon":5.370681,"is_reserved":false,"is_disabled":false,"rental_uris":{"android":"levelo://app?vid=99c34c47-c224-4ab4-8c10-b12f25b47c43","ios":"levelo://app?vid=99c34c47-c224-4ab4-8c10-b12f25b47c43"},