{"last_updated":1700806185,"ttl":30,"version":"2.2","data":{"bikes":[{"bike_id":"31a21770-c78e-476f-a5a8-c62094457072","system_id":"levelo_inurba_marseille","lat":43.313391,"lon":5.36706,"is_reserved":false,"is_disabled":false,"rental_uris":{"android":"levelo://app?vid=31a21770-c78e-476f-a5a8-c62094457072","ios":"levelo://app?vid=31a21770-c78e-476f-a5a8-c62094457072"},"vehicle_type_id":"4","last_reported":1700806185,"current_range_meters":30000,"station_id":"ce4bgr92rcd13ifvqc6g","pricing_plan_id":"free"},{"bike_id":"70fae602-bdb7-425f-ae68-e7c427314b62","system_id":"levelo_inurba_marseille","lat":43.312239,"lon":5.368562,"is_reserved":false,"is_disabled":false,"rental_uris":{"android":"levelo://app?vid=70fae602-bdb7-425f-ae68-e7c427314b62","ios":"levelo://app?vid=70fae602-bdb7-425f-ae68-e7c427314b62"},"vehicle_type_id":"4","last_reported":1700806185,"current_range_meters":30000,"station_id":"ce4bgl92rcd13ifvqbq0","pricing_plan_id":"free"},{"bike_id":"ccde21a2-5de0-4621-8449-dae4a772fc95","system_id":"levelo_inurba_marseille","lat":43.312239,"lon":5.368562,"is_reserved":false,"is_disabled":false,"rental_uris":{"android":"levelo://app?vid=ccde21a2-5de0-4621-8449-dae4a772fc95","ios":"levelo://app?vid=ccde21a2-5de0-4621-8449-dae4a772fc95"},"vehicle_type_id":"4","last_reported":1700806185,"current_range_meters":21600,"station_id":"ce4bgl92rcd13ifvqbq0","pricing_plan_id":"free"},{"bike_id":"1c8c3828-b68a-493e-a9d9-87b4bb81e704","system_id":"levelo_inurba_marseille","lat":43.314811,"lon":5.373103,"is_reserved":false,"is_disabled":false,"rental_uris":{"android":"levelo://app?vid=1c8c3828-b68a-493e-a9d9-87b4bb81e704","ios":"levelo://app?vid=1c8c3828-b68a-493e-a9d9-87b4bb81e704"},"vehicle_type_id":"4","last_reported":1700806185,"current_range_meters":30800,"station_id":"ce4bgt12rcd13ifvqcd0","pricing_plan_id":"free"},{"bike_id":"9837f166-8d51-4e12-ac8d-9fc69593bea5","system_id":"levelo_inurba_marseille","lat":43.314811,"lon":5.373103,"is_reserved":false,"is_disabled":false,"rental_uris":{"android":"levelo://app?vid=9837f166-8d51-4e12-ac8d-9fc69593bea5","ios":"levelo://app?vid=9837f166-8d51-4e12-ac8d-9fc69593bea5"},"vehicle_type_id":"4","last_reported":1700806185,"current_range_meters":29600,"station_id":"ce4bgt12rcd13ifvqcd0","pricing_plan_id":"free"},{"bike_id":"132a8c32-b43d-4284-b7ad-03b5d012dd34","system_id":"levelo_inurba_marseille","lat":43.314811,"lon":5.373103,"is_reserved":false,"is_disabled":false,"rental_uris":{"android":"levelo://app?vid=132a8c32-b43d-4284-b7ad-03b5d012dd34","ios":"levelo://app?vid=132a8c32-b43d-4284-b7ad-03b5d012dd34"},"vehicle_type_id":"4","last_reported":1700806185,"current_range_meters":28000,"station_id":"ce4bgt12rcd13ifvqcd0","pricing_plan_id":"free"},{"bike_id":"b48fd565-f124-412b-b2fd-d83cf97644a9","system_id":"levelo_inurba_marseille","lat":43.31502,"lon":5.37297,"is_reserved":false,"is_disabled":false,"rental_uris":{"android":"levelo://app?vid=b48fd565-f124-412b-b2fd-d83cf97644a9","ios":"levelo://app?vid=b48fd565-f124-412b-b2fd-d83cf97644a9"},"vehicle_type_id":"4","last_reported":1700806185,"current_range_meters":24000,"station_id":"ce4bgt12rcd13ifvqcd0","pricing_plan_id":"free"},{"bike_id":"b3d99ccc-0105-4e40-98ab-1987e8dacffc","system_id":"levelo_inurba_marseille","lat":43.308958,"lon":5.371996,"is_reserved":false,"is_disabled":false,"rental_uris":{"android":"levelo://app?vid=b3d99ccc-0105-4e40-98ab-1987e8dacffc","ios":"levelo://app?vid=b3d99ccc-0105-4e40-98ab-1987e8dacffc"},"vehicle_type_id":"4","last_reported":1700806185,"current_range_meters":19600,"station_id":"ce4bguh2rcd13ifvqckg","pricing_plan_id":"free"},{"bike_id":"e6479f63-bc17-41f3-a702-158c46283e7d","system_id":"levelo_inurba_marseille","lat":43.309039,"lon":5.371797,"is_reserved":false,"is_disabled":false,"rental_uris":{"android":"levelo://app?vid=e6479f63-bc17-41f3-a702-158c46283e7d","ios":"levelo://app?vid=e6479f63-bc17-41f3-a702-158c46283e7d"},"vehicle_type_id":"4","last_reported":1700806185,"current_range_meters":27600,"station_id":"ce4bguh2rcd13ifvqckg","pricing_plan_id":"free"},{"bike_id":"c78ac807-9d14-4124-92d9-eb3ff7042f29","system_id":"levelo_inurba_marseille","lat":43.305714,"lon":5.365633,"is_reserved":false,"is_disabled":false,"rental_uris":{"android":"levelo://app?vid=c78ac807-9d14-4124-92d9-eb3ff7042f29","ios":"levelo://app?vid=c78ac807-9d14-4124-92d9-eb3ff7042f29"},"vehicle_type_id":"4","last_reported":1700806185,"current_range_meters":21600,"station_id":"ce4bgs12rcd13ifvqcag","pricing_plan_id":"free"},{"bike_id":"e72d5dbe-d923-4a6c-96ab-dbe9156e538f","system_id":"levelo_inurba_marseille","lat":43.305706,"lon":5.365654,"is_reserved":false,"is_disabled":false,"rental_uris":{"android":"levelo://app?vid=e72d5dbe-d923-4a6c-96ab-dbe9156e538f","ios":"levelo://app?vid=e72d5dbe-d923-4a6c-96ab-dbe9156e538f"},"vehicle_type_id":"4","last_reported":1700806185,"current_range_meters":27600,"station_id":"ce4bgs12rcd13ifvqcag","pricing_plan_id":"free"},{"bike_id":"43bf5cf6-ac0a-4035-9884-61a3aec3d997","system_id":"levelo_inurba_marseille","lat":43.305706,"lon":5.365654,"is_reserved":false,"is_disabled":false,"rental_uris":{"android":"levelo://app?vid=43bf5cf6-ac0a-4035-9884-61a3aec3d997","ios":"levelo://app?vid=43bf5cf6-ac0a-4035-9884-61a3aec3d997"},"vehicle_type_id":"4","last_reported":1700806185,"current_range_meters":25600,"station_id":"ce4bgs12rcd13ifvqcag","pricing_plan_id":"free"},{"bike_id":"13fb2fc7-096f-498d-8543-85c9f78bd644","system_id":"levelo_inurba_marseille","lat":43.311131,"lon":5.377651,"is_reserved":false,"is_disabled":false,"rental_uris":{"android":"levelo://app?vid=13fb2fc7-096f-498d-8543-85c9f78bd644","ios":"levelo://app?vid=13fb2fc7-096f-498d-8543-85c9f78bd644"},"vehicle_type_id":"4","last_reported":1700806185,"current_range_meters":0,"station_id":"ce4bgt92rcd13ifvqcg0","pricing_plan_id":"free"},{"bike_id":"118c4cc8-358d-4279-b236-14158712454a","system_id":"levelo_inurba_marseille","lat":43.311125,"lon":5.377624,"is_reserved":false,"is_disabled":false,"rental_uris":{"android":"levelo://app?vid=118c4cc8-358d-4279-b236-14158712454a","ios":"levelo://app?vid=118c4cc8-358d-4279-b236-14158712454a"},"vehicle_type_id":"4","last_reported":1700806185,"current_range_meters":26000,"station_id":"ce4bgt92rcd13ifvqcg0","pricing_plan_id":"free"},{"bike_id":"acf2e61c-da7a-4535-afce-6dae5cd5d176","system_id":"levelo_inurba_marseille","lat":43.308175,"lon":5.376568,"is_reserved":false,"is_disabled":false,"rental_uris":{"android":"levelo://app?vid=acf2e61c-da7a-4535-afce-6dae5cd5d176","ios":"levelo://app?vid=acf2e61c-da7a-4535-afce-6dae5cd5d176"},"vehicle_type_id":"4","last_reported":1700806185,"current_range_meters":4400,"station_id":"ce4bgv92rcd13ifvqcq0","pricing_plan_id":"free"},{"bike_id":"58490dd7-2976-4b13-bdb4-051cf0bde315","system_id":"levelo_inurba_marseille","lat":43.307945,"lon":5.376487,"is_reserved":false,"is_disabled":false,"rental_uris":{"android":"levelo://app?vid=58490dd7-2976-4b13-bdb4-051cf0bde315","ios":"levelo://app?vid=58490dd7-2976-4b13-bdb4-051cf0bde315"},"vehicle_type_id":"4","last_reported":1700806185,"current_range_meters":29200,"station_id":"ce4bgv92rcd13ifvqcq0","pricing_plan_id":"free"},{"bike_id":"d8b67b59-983c-4f7e-b00e-95d254b0ce7a","system_id":"levelo_inurba_marseille","lat":43.307945,"lon":5.376487,"is_reserved":false,"is_disabled":false,"rental_uris":{"android":"levelo://app?vid=d8b67b59-983c-4f7e-b00e-95d254b0ce7a","ios":"levelo://app?vid=d8b67b59-983c-4f7e-b00e-95d254b0ce7a"},"vehicle_type_id":"4","last_reported":1700806185,"current_range_meters":31200,"station_id":"ce4bgv92rcd13ifvqcq0","pricing_plan_id":"free"},{"bike_id":"e63b7326-70a2-469d-98a5-e2759a710c41","system_id":"levelo_inurba_marseille","lat":43.307945,"lon":5.376487,"is_reserved":false,"is_disabled":false,"rental_uris":{"android":"levelo://app?vid=e63b7326-70a2-469d-98a5-e2759a710c41","ios":"levelo://app?vid=e63b7326-70a2-469d-98a5-e2759a710c41"},"vehicle_type_id":"4","last_reported":1700806185,"current_range_meters":23600,"station_id":"ce4bgv92rcd13ifvqcq0","pricing_plan_id":"free"},{"bike_id":"7d7495a5-7cd3-43f4-a443-8775319012c8","system_id":"levelo_inurba_marseille","lat":43.307945,"lon":5.376487,"is_reserved":false,"is_disabled":false,"rental_uris":{"android":"levelo://app?vid=7d7495a5-7cd3-43f4-a443-8775319012c8","ios":"levelo://app?vid=7d7495a5-7cd3-43f4-a443-8775319012c8"},"vehicle_type_id":"4","last_reported":1700806185,"current_range_meters":25600,"station_id":"ce4bgv92rcd13ifvqcq0","pricing_plan_id":"free"},{"bike_id":"2622c437-5af6-4f35-8f47-ed3953349ef2","system_id":"levelo_inurba_marseille","lat":43.317075,"lon":5.377367,"is_reserved":false,"is_disabled":false,"rental_uris":{"android":"levelo://app?vid=2622c437-5af6-4f35-8f47-ed3953349ef2","ios":"levelo://app?vid=2622c437-5af6-4f35-8f47-ed3953349ef2"},"vehicle_type_id":"4","last_reported":1700806185,"current_range_meters":22000,"station_id":"ce4bgth2rcd13ifvqch0","pricing_plan_id":"free"},{"bike_id":"5432ebe5-659a-45a0-a8e1-89d3238e7a59","system_id":"levelo_inurba_marseille","lat":43.30313,"lon":5.36902,"is_reserved":false,"is_disabled":false,"rental_uris":{"android":"levelo://app?vid=5432ebe5-659a-45a0-a8e1-89d3238e7a59","ios":"levelo://app?vid=5432ebe5-659a-45a0-a8e1-89d3238e7a59"},"vehicle_type_id":"4","last_reported":1700806185,"current_range_meters":14000,"station_id":"ce4bgqh2rcd13ifvqc5g","pricing_plan_id":"free"},{"bike_id":"f643db10-ee33-4d98-85d7-c408eb1a80ce","system_id":"levelo_inurba_marseille","lat":43.315293,"lon":5.380349,"is_reserved":false,"is_disabled":false,"rental_uris":{"android":"levelo://app?vid=f643db10-ee33-4d98-85d7-c408eb1a80ce","ios":"levelo://app?vid=f643db10-ee33-4d98-85d7-c408eb1a80ce"},"vehicle_type_id":"4","last_reported":1700806185,"current_range_meters":0,"station_id":"ce4bhsp2rcd13ifvqi50","pricing_plan_id":"free"},{"bike_id":"6cb6720b-1663-42e6-9b87-0a49ec9d6158","system_id":"levelo_inurba_marseille","lat":43.31536,"lon":5.38033,"is_reserved":false,"is_disabled":false,"rental_uris":{"android":"levelo://app?vid=6cb6720b-1663-42e6-9b87-0a49ec9d6158","ios":"levelo://app?vid=6cb6720b-1663-42e6-9b87-0a49ec9d6158"},"vehicle_type_id":"4","last_reported":1700806185,"current_range_meters":21200,"station_id":"ce4bhsp2rcd13ifvqi50","pricing_plan_id":"free"},{"bike_id":"7ae418fb-107c-4d89-901b-ed3951d02ab9","system_id":"levelo_inurba_marseille","lat":43.30187,"lon":5.36625,"is_reserved":false,"is_disabled":false,"rental_uris":{"android":"levelo://app?vid=7ae418fb-107c-4d89-901b-ed3951d02ab9","ios":"levelo://app?vid=7ae418fb-107c-4d89-901b-ed3951d02ab9"},"vehicle_type_id":"4","last_reported":1700806185,"current_range_meters":4800,"station_id":"ce4bgrh2rcd13ifvqc8g","pricing_plan_id":"free"},{"bike_id":"3e600ce8-8d95-423d-8d82-8930bd9bef28","system_id":"levelo_inurba_marseille","lat":43.304606,"lon":5.379026,"is_reserved":false,"is_disabled":false,"rental_uris":{"android":"levelo://app?vid=3e600ce8-8d95-423d-8d82-8930bd9bef28","ios":"levelo://app?vid=3e600ce8-8d95-423d-8d82-8930bd9bef28"},"vehicle_type_id":"4","last_reported":1700806185,"current_range_meters":20400,"station_id":"ce4bgup2rcd13ifvqcn0","pricing_plan_id":"free"},{"bike_id":"06b36272-b7fb-460c-a01f-dae90a8c679e","system_id":"levelo_inurba_marseille","lat":43.304606,"lon":5.379026,"is_reserved":false,"is_disabled":false,"rental_uris":{"android":"levelo://app?vid=06b36272-b7fb-460c-a01f-dae90a8c679e","ios":"levelo://app?vid=06b36272-b7fb-460c-a01f-dae90a8c679e"},"vehicle_type_id":"4","last_reported":1700806185,"current_range_meters":23600,"station_id":"ce4bgup2rcd13ifvqcn0","pricing_plan_id":"free"},{"bike_id":"3307afe3-6a38-4ca8-bc5e-f90d2d60e019","system_id":"levelo_inurba_marseille","lat":43.304606,"lon":5.379026,"is_reserved":false,"is_disabled":false,"rental_uris":{"android":"levelo://app?vid=3307afe3-6a38-4ca8-bc5e-f90d2d60e019","ios":"levelo://app?vid=3307afe3-6a38-4ca8-bc5e-f90d2d60e019"},"vehicle_type_id":"4","last_reported":1700806185,"current_range_meters":20800,"station_id":"ce4bgup2rcd13ifvqcn0","pricing_plan_id":"free"},{"bike_id":"e8cc6fcf-f363-4bba-b0e2-bb9aaed0d1a2","system_id":"levelo_inurba_marseille","lat":43.304606,"lon":5.379026,"is_reserved":false,"is_disabled":false,"rental_uris":{"android":"levelo://app?vid=e8cc6fcf-f363-4bba-b0e2-bb9aaed0d1a2","ios":"levelo://app?vid=e8cc6fcf-f363-4bba-b0e2-bb9aaed0d1a2"},"vehicle_type_id":"4","last_reported":1700806185,"current_range_meters":25200,"station_id":"ce4bgup2rcd13ifvqcn0","pricing_plan_id":"free"},{"bike_id":"63711502-f6e6-434b-bd8b-303079f96497","system_id":"levelo_inurba_marseille","lat":43.304606,"lon":5.379026,"is_reserved":false,"is_disabled":false,"rental_uris":{"android":"levelo://app?vid=63711502-f6e6-434b-bd8b-303079f96497","ios":"levelo://app?vid=63711502-f6e6-434b-bd8b-303079f96497"},"vehicle_type_id":"4","last_reported":1700806185,"current_range_meters":19200,"station_id":"ce4bgup2rcd13ifvqcn0","pricing_plan_id":"free"},{"bike_id":"88f9885d-2aba-4ffd-98e6-b3afeb25071d","system_id":"levelo_inurba_marseille","lat":43.304606,"lon":5.379026,"is_reserved":false,"is_disabled":false,"rental_uris":{"android":"levelo://app?vid=88f9885d-2aba-4ffd-98e6-b3afeb25071d","ios":"levelo://app?vid=88f9885d-2aba-4ffd-98e6-b3afeb25071d"},"vehicle_type_id":"4","last_reported":1700806185,"current_range_meters":31200,"station_id":"ce4bgup2rcd13ifvqcn0","pricing_plan_id":"free"},{"bike_id":"862214a4-7326-4a50-91ff-3be83d332b2b","system_id":"levelo_inurba_marseille","lat":43.304606,"lon":5.379026,"is_reserved":false,"is_disabled":false,"rental_uris":{"android":"levelo://app?vid=862214a4-7326-4a50-91ff-3be83d332b2b","ios":"levelo://app?vid=862214a4-7326-4a50-91ff-3be83d332b2b"},"vehicle_type_id":"4","last_reported":1700806185,"current_range_meters":29200,"station_id":"ce4bgup2rcd13ifvqcn0","pricing_plan_id":"free"},{"bike_id":"0a0ea16b-9cb2-4ca6-af29-0042edb6317c","system_id":"levelo_inurba_marseille","lat":43.304606,"lon":5.379026,"is_reserved":false,"is_disabled":false,"rental_uris":{"android":"levelo://app?vid=0a0ea16b-9cb2-4ca6-af29-0042edb6317c","ios":"levelo://app?vid=0a0ea16b-9cb2-4ca6-af29-0042edb6317c"},"vehicle_type_id":"4","last_reported":1700806185,"current_range_meters":7200,"station_id":"ce4bgup2rcd13ifvqcn0","pricing_plan_id":"free"},{"bike_id":"3fdaf185-14e8-47e2-8571-6985ac864516","system_id":"levelo_inurba_marseille","lat":43.304606,"lon":5.379026,"is_reserved":false,"is_disabled":false,"rental_uris":{"android":"levelo://app?vid=3fdaf185-14e8-47e2-8571-6985ac864516","ios":"levelo://app?vid=3fdaf185-14e8-47e2-8571-6985ac864516"},"vehicle_type_id":"4","last_reported":1700806185,"current_range_meters":23200,"station_id":"ce4bgup2rcd13ifvqcn0","pricing_plan_id":"free"},{"bike_id":"1f62dc47-a107-4457-bcf5-eb1313d926fa","system_id":"levelo_inurba_marseille","lat":43.304606,"lon":5.379026,"is_reserved":false,"is_disabled":false,"rental_uris":{"android":"levelo://app?vid=1f62dc47-a107-4457-bcf5-eb1313d926fa","ios":"levelo://app?vid=1f62dc47-a107-4457-bcf5-eb1313d926fa"},"vehicle_type_id":"4","last_reported":1700806185,"current_range_meters":17200,"station_id":"ce4bgup2rcd13ifvqcn0","pricing_plan_id":"free"},{"bike_id":"7a302b99-78fb-4b44-a678-797e4ef58861","system_id":"levelo_inurba_marseille","lat":43.304606,"lon":5.379026,"is_reserved":false,"is_disabled":false,"rental_uris":{"android":"levelo://app?vid=7a302b99-78fb-4b44-a678-797e4ef58861","ios":"levelo://app?vid=7a302b99-78fb-4b44-a678-797e4ef58861"},"vehicle_type_id":"4","last_reported":1700806185,"current_range_meters":23600,"station_id":"ce4bgup2rcd13ifvqcn0","pricing_plan_id":"free"},{"bike_id":"8f601231-3856-411f-ab25-71f77a1a141a","system_id":"levelo_inurba_marseille","lat":43.304606,"lon":5.379026,"is_reserved":false,"is_disabled":false,"rental_uris":{"android":"levelo://app?vid=8f601231-3856-411f-ab25-71f77a1a141a","ios":"levelo://app?vid=8f601231-3856-411f-ab25-71f77a1a141a"},"vehicle_type_id":"4","last_reported":1700806185,"current_range_meters":25200,"station_id":"ce4bgup2rcd13ifvqcn0","pricing_plan_id":"free"},{"bike_id":"cb6473fa-4d3d-428d-876e-2a8d89dc00e1","system_id":"levelo_inurba_marseille","lat":43.304606,"lon":5.379026,"is_reserved":false,"is_disabled":false,"rental_uris":{"android":"levelo://app?vid=cb6473fa-4d3d-428d-876e-2a8d89dc00e1","ios":"levelo://app?vid=cb6473fa-4d3d-428d-876e-2a8d89dc00e1"},"vehicle_type_id":"4","last_reported":1700806185,"current_range_meters":19600,"station_id":"ce4bgup2rcd13ifvqcn0","pricing_plan_id":"free"},{"bike_id":"cb5b7e12-de3c-4cff-89bf-c7cdcfba8bed","system_id":"levelo_inurba_marseille","lat":43.304606,"lon":5.379026,"is_reserved":false,"is_disabled":false,"rental_uris":{"android":"levelo://app?vid=cb5b7e12-de3c-4cff-89bf-c7cdcfba8bed","ios":"levelo://app?vid=cb5b7e12-de3c-4cff-89bf-c7cdcfba8bed"},"vehicle_type_id":"4","last_reported":1700806185,"current_range_meters":27200,"station_id":"ce4bgup2rcd13ifvqcn0","pricing_plan_id":"free"},{"bike_id":"45d93b2b-e763-4ae3-b99f-d5ea218f5eac","system_id":"levelo_inurba_marseille","lat":43.304606,"lon":5.379026,"is_reserved":false,"is_disabled":false,"rental_uris":{"android":"levelo://app?vid=45d93b2b-e763-4ae3-b99f-d5ea218f5eac","ios":"levelo://app?vid=45d93b2b-e763-4ae3-b99f-d5ea218f5eac"},"vehicle_type_id":"4","last_reported":1700806185,"current_range_meters":28400,"station_id":"ce4bgup2rcd13ifvqcn0","pricing_plan_id":"free"},{"bike_id":"ca2ad060-9ff3-491f-8b90-837f5ab0dc21","system_id":"levelo_inurba_marseille","lat":43.30458,"lon":5.379155,"is_reserved":false,"is_disabled":false,"rental_uris":{"android":"levelo://app?vid=ca2ad060-9ff3-491f-8b90-837f5ab0dc21","ios":"levelo://app?vid=ca2ad060-9ff3-491f-8b90-837f5ab0dc21"},"vehicle_type_id":"4","last_reported":1700806185,"current_range_meters":2000,"station_id":"","pricing_plan_id":"free"},{"bike_id":"b3a8c1d7-5920-48a8-a230-db64da99892d","system_id":"levelo_inurba_marseille","lat":43.302822,"lon":5.376884,"is_reserved":false,"is_disabled":false,"rental_uris":{"android":"levelo://app?vid=b3a8c1d7-5920-48a8-a230-db64da99892d","ios":"levelo://app?vid=b3a8c1d7-5920-48a8-a230-db64da99892d"},"vehicle_type_id":"4","last_reported":1700806185,"current_range_meters":19200,"station_id":"ce4bguh2rcd13ifvqcj0","pricing_plan_id":"free"},{"bike_id":"045fb978-106d-4f92-a3eb-eb2742ad314e","system_id":"levelo_inurba_marseille","lat":43.302818,"lon":5.376928,"is_reserved":false,"is_disabled":false,"rental_uris":{"android":"levelo://app?vid=045fb978-106d-4f92-a3eb-eb2742ad314e","ios":"levelo://app?vid=045fb978-106d-4f92-a3eb-eb2742ad314e"},"vehicle_type_id":"4","last_reported":1700806185,"current_range_meters":29600,"station_id":"ce4bguh2rcd13ifvqcj0","pricing_plan_id":"free"},{"bike_id":"2bf366e8-5828-4626-a5f2-8fdcd9e9b6d3","system_id":"levelo_inurba_marseille","lat":43.302784,"lon":5.377158,"is_reserved":false,"is_disabled":false,"rental_uris":{"android":"levelo://app?vid=2bf366e8-5828-4626-a5f2-8fdcd9e9b6d3","ios":"levelo://app?vid=2bf366e8-5828-4626-a5f2-8fdcd9e9b6d3"},"vehicle_type_id":"4","last_reported":1700806185,"current_range_meters":22400,"station_id":"ce4bguh2rcd13ifvqcj0","pricing_plan_id":"free"},{"bike_id":"83bc3881-4fe7-4e4c-8770-9e8a6c9c8bde","system_id":"levelo_inurba_marseille","lat":43.302784,"lon":5.377158,"is_reserved":false,"is_disabled":false,"rental_uris":{"android":"levelo://app?vid=83bc3881-4fe7-4e4c-8770-9e8a6c9c8bde","ios":"levelo://app?vid=83bc3881-4fe7-4e4c-8770-9e8a6c9c8bde"},"vehicle_type_id":"4","last_reported":1700806185,"current_range_meters":23200,"station_id":"ce4bguh2rcd13ifvqcj0","pricing_plan_id":"free"},{"bike_id":"d37bc3cd-2110-4b66-9a06-091b8ba4a451","system_id":"levelo_inurba_marseille","lat":43.302784,"lon":5.377158,"is_reserved":false,"is_disabled":false,"rental_uris":{"android":"levelo://app?vid=d37bc3cd-2110-4b66-9a06-091b8ba4a451","ios":"levelo://app?vid=d37bc3cd-2110-4b66-9a06-091b8ba4a451"},"vehicle_type_id":"4","last_reported":1700806185,"current_range_meters":31600,"station_id":"ce4bguh2rcd13ifvqcj0","pricing_plan_id":"free"},{"bike_id":"4a9c6fa3-235e-483e-9e8f-e82d12d74620","system_id":"levelo_inurba_marseille","lat":43.302784,"lon":5.377158,"is_reserved":false,"is_disabled":false,"rental_uris":{"android":"levelo://app?vid=4a9c6fa3-235e-483e-9e8f-e82d12d74620","ios":"levelo://app?vid=4a9c6fa3-235e-483e-9e8f-e82d12d74620"},"vehicle_type_id":"4","last_reported":1700806185,"current_range_meters":30000,"station_id":"ce4bguh2rcd13ifvqcj0","pricing_plan_id":"free"},{"bike_id":"c9e6d488-b598-4d86-8431-7b89545bfa15","system_id":"levelo_inurba_marseille","lat":43.302784,"lon":5.377158,"is_reserved":false,"is_disabled":false,"rental_uris":{"android":"levelo://app?vid=c9e6d488-b598-4d86-8431-7b89545bfa15","ios":"levelo://app?vid=c9e6d488-b598-4d86-8431-7b89545bfa15"},"vehicle_type_id":"4","last_reported":1700806185,"current_range_meters":24000,"station_id":"ce4bguh2rcd13ifvqcj0","pricing_plan_id":"free"},{"bike_id":"ddcd8fb5-e6f9-4509-b663-a5f016a9be0b","system_id":"levelo_inurba_marseille","lat":43.32001,"lon":5.38148,"is_reserved":false,"is_disabled":false,"rental_uris":{"android":"levelo://app?vid=ddcd8fb5-e6f9-4509-b663-a5f016a9be0b","ios":"levelo://app?vid=ddcd8fb5-e6f9-4509-b663-a5f016a9be0b"},"vehicle_type_id":"4","last_reported":1700806185,"current_range_meters":4800,"station_id":"ce4bhr12rcd13ifvqhpg","pricing_plan_id":"free"},{"bike_id":"34f9a286-d862-4fb3-aed2-072ff6d8c5d0","system_id":"levelo_inurba_marseille","lat":43.29944,"lon":5.365375,"is_reserved":false,"is_disabled":false,"rental_uris":{"android":"levelo://app?vid=34f9a286-d862-4fb3-aed2-072ff6d8c5d0","ios":"levelo://app?vid=34f9a286-d862-4fb3-aed2-072ff6d8c5d0"},"vehicle_type_id":"4","last_reported":1700806185,"current_range_meters":7200,"station_id":"ce4bgm92rcd13ifvqbr0","pricing_plan_id":"free"},{"bike_id":"d2b50087-9fcb-4fd7-95a2-4e13dc0aec73","system_id":"levelo_inurba_marseille","lat":43.29983,"lon":5.37184,"is_reserved":false,"is_disabled":false,"rental_uris":{"android":"levelo://app?vid=d2b50087-9fcb-4fd7-95a2-4e13dc0aec73","ios":"levelo://app?vid=d2b50087-9fcb-4fd7-95a2-4e13dc0aec73"},"vehicle_type_id":"4","last_reported":1700806185,"current_range_meters":25600,"station_id":"ce4bgr92rcd13ifvqc7g","pricing_plan_id":"free"},{"bike_id":"40388ece-9b2c-4fc6-9f55-3cafeb576410","system_id":"levelo_inurba_marseille","lat":43.299222,"lon":5.365554,"is_reserved":false,"is_disabled":false,"rental_uris":{"android":"levelo://app?vid=40388ece-9b2c-4fc6-9f55-3cafeb576410","ios":"levelo://app?vid=40388ece-9b2c-4fc6-9f55-3cafeb576410"},"vehicle_type_id":"4","last_reported":1700806185,"current_range_meters":14400,"station_id":"ce4bgm92rcd13ifvqbr0","pricing_plan_id":"free"},{"bike_id":"b35d98a3-9c0d-4bc9-b7aa-dab5b52650cb","system_id":"levelo_inurba_marseille","lat":43.30241,"lon":5.38077,"is_reserved":false,"is_disabled":false,"rental_uris":{"android":"levelo://app?vid=b35d98a3-9c0d-4bc9-b7aa-dab5b52650cb","ios":"levelo://app?vid=b35d98a3-9c0d-4bc9-b7aa-dab5b52650cb"},"vehicle_type_id":"4","last_reported":1700806185,"current_range_meters":13600,"station_id":"","pricing_plan_id":"free"},{"bike_id":"0046eecc-ff7c-4287-8e67-69c8f009b134","system_id":"levelo_inurba_marseille","lat":43.298433,"lon":5.362774,"is_reserved":false,"is_disabled":false,"rental_uris":{"android":"levelo://app?vid=0046eecc-ff7c-4287-8e67-69c8f009b134","ios":"levelo://app?vid=0046eecc-ff7c-4287-8e67-69c8f009b134"},"vehicle_type_id":"4","last_reported":1700806185,"current_range_meters":26800,"station_id":"ce4bgpp2rcd13ifvqc3g","pricing_plan_id":"free"},{"bike_id":"4495249a-646c-4837-ad9e-15d56f1429f5","system_id":"levelo_inurba_marseille","lat":43.305364,"lon":5.384119,"is_reserved":false,"is_disabled":false,"rental_uris":{"android":"levelo://app?vid=4495249a-646c-4837-ad9e-15d56f1429f5","ios":"levelo://app?vid=4495249a-646c-4837-ad9e-15d56f1429f5"},"vehicle_type_id":"4","last_reported":1700806185,"current_range_meters":25200,"station_id":"ce4bgg92rcd13ifvqb30","pricing_plan_id":"free"},{"bike_id":"d23c5e71-8636-43a7-9f0a-01564c692efa","system_id":"levelo_inurba_marseille","lat":43.305364,"lon":5.384119,"is_reserved":false,"is_disabled":false,"rental_uris":{"android":"levelo://app?vid=d23c5e71-8636-43a7-9f0a-01564c692efa","ios":"levelo://app?vid=d23c5e71-8636-43a7-9f0a-01564c692efa"},"vehicle_type_id":"4","last_reported":1700806185,"current_range_meters":26400,"station_id":"ce4bgg92rcd13ifvqb30","pricing_plan_id":"free"},{"bike_id":"246739ee-f94a-403a-9963-e162ccb16214","system_id":"levelo_inurba_marseille","lat":43.305364,"lon":5.384119,"is_reserved":false,"is_disabled":false,"rental_uris":{"android":"levelo://app?vid=246739ee-f94a-403a-9963-e162ccb16214","ios":"levelo://app?vid=246739ee-f94a-403a-9963-e162ccb16214"},"vehicle_type_id":"4","last_reported":1700806185,"current_range_meters":18400,"station_id":"ce4bgg92rcd13ifvqb30","pricing_plan_id":"free"},{"bike_id":"d9b9292b-4087-42e0-9b49-8fbf800bf6cf","system_id":"levelo_inurba_marseille","lat":43.305364,"lon":5.384119,"is_reserved":false,"is_disabled":false,"rental_uris":{"android":"levelo://app?vid=d9b9292b-4087-42e0-9b49-8fbf800bf6cf","ios":"levelo://app?vid=d9b9292b-4087-42e0-9b49-8fbf800bf6cf"},"vehicle_type_id":"4","last_reported":1700806185,"current_range_meters":28800,"station_id":"ce4bgg92rcd13ifvqb30","pricing_plan_id":"free"},{"bike_id":"3c226ab1-ba30-47cf-8888-2e809819569a","system_id":"levelo_inurba_marseille","lat":43.311722,"lon":5.387247,"is_reserved":false,"is_disabled":false,"rental_uris":{"android":"levelo://app?vid=3c226ab1-ba30-47cf-8888-2e809819569a","ios":"levelo://app?vid=3c226ab1-ba30-47cf-8888-2e809819569a"},"vehicle_type_id":"4","last_reported":1700806185,"current_range_meters":31600,"station_id":"ce4bgv12rcd13ifvqcp0","pricing_plan_id":"free"},{"bike_id":"3d3b24e3-f0ce-4377-b136-04ebacc0aa74","system_id":"levelo_inurba_marseille","lat":43.299243,"lon":5.37481,"is_reserved":false,"is_disabled":false,"rental_uris":{"android":"levelo://app?vid=3d3b24e3-f0ce-4377-b136-04ebacc0aa74","ios":"levelo://app?vid=3d3b24e3-f0ce-4377-b136-04ebacc0aa74"},"vehicle_type_id":"4","last_reported":1700806185,"current_range_meters":1200,"station_id":"ce4bgjh2rcd13ifvqbg0","pricing_plan_id":"free"},{"bike_id":"7263550a-732f-4c74-8c8a-3ec225b5f907","system_id":"levelo_inurba_marseille","lat":43.299243,"lon":5.37481,"is_reserved":false,"is_disabled":false,"rental_uris":{"android":"levelo://app?vid=7263550a-732f-4c74-8c8a-3ec225b5f907","ios":"levelo://app?vid=7263550a-732f-4c74-8c8a-3ec225b5f907"},"vehicle_type_id":"4","last_reported":1700806185,"current_range_meters":29600,"station_id":"ce4bgjh2rcd13ifvqbg0","pricing_plan_id":"free"},{"bike_id":"cda141d7-f551-4a7b-ab95-ee2b0da88c55","system_id":"levelo_inurba_marseille","lat":43.311722,"lon":5.387247,"is_reserved":false,"is_disabled":false,"rental_uris":{"android":"levelo://app?vid=cda141d7-f551-4a7b-ab95-ee2b0da88c55","ios":"levelo://app?vid=cda141d7-f551-4a7b-ab95-ee2b0da88c55"},"vehicle_type_id":"4","last_reported":1700806185,"current_range_meters":18000,"station_id":"ce4bgv12rcd13ifvqcp0","pricing_plan_id":"free"},{"bike_id":"daeb90ed-1744-4d8b-b9bb-00f0736cbe10","system_id":"levelo_inurba_marseille","lat":43.311722,"lon":5.387247,"is_reserved":false,"is_disabled":false,"rental_uris":{"android":"levelo://app?vid=daeb90ed-1744-4d8b-b9bb-00f0736cbe10","ios":"levelo://app?vid=daeb90ed-1744-4d8b-b9bb-00f0736cbe10"},"vehicle_type_id":"4","last_reported":1700806185,"current_range_meters":31600,"station_id":"ce4bgv12rcd13ifvqcp0","pricing_plan_id":"free"},{"bike_id":"72628ee5-6dff-4a8e-9c6f-cbb02f0dd96b","system_id":"levelo_inurba_marseille","lat":43.311722,"lon":5.387247,"is_reserved":false,"is_disabled":false,"rental_uris":{"android":"levelo://app?vid=72628ee5-6dff-4a8e-9c6f-cbb02f0dd96b","ios":"levelo://app?vid=72628ee5-6dff-4a8e-9c6f-cbb02f0dd96b"},"vehicle_type_id":"4","last_reported":1700806185,"current_range_meters":31600,"station_id":"ce4bgv12rcd13ifvqcp0","pricing_plan_id":"free"},{"bike_id":"c34f1d2e-ada0-4586-9443-3bd664080e3f","system_id":"levelo_inurba_marseille","lat":43.297794,"lon":5.370888,"is_reserved":false,"is_disabled":false,"rental_uris":{"android":"levelo://app?vid=c34f1d2e-ada0-4586-9443-3bd664080e3f","ios":"levelo://app?vid=c34f1d2e-ada0-4586-9443-3bd664080e3f"},"vehicle_type_id":"4","last_reported":1700806185,"current_range_meters":30000,"station_id":"ce4bgop2rcd13ifvqc1g","pricing_plan_id":"free"},{"bike_id":"57f07daa-f979-41b2-bf81-49ff7a829b2a","system_id":"levelo_inurba_marseille","lat":43.32284,"lon":5.38265,"is_reserved":false,"is_disabled":false,"rental_uris":{"android":"levelo://app?vid=57f07daa-f979-41b2-bf81-49ff7a829b2a","ios":"levelo://app?vid=57f07daa-f979-41b2-bf81-49ff7a829b2a"},"vehicle_type_id":"4","last_reported":1700806185,"current_range_meters":8000,"station_id":"ce4bhr12rcd13ifvqhqg","pricing_plan_id":"free"},{"bike_id":"e20278c6-b58d-4286-b77b-9f26462eade6","system_id":"levelo_inurba_marseille","lat":43.322872,"lon":5.382756,"is_reserved":false,"is_disabled":false,"rental_uris":{"android":"levelo://app?vid=e20278c6-b58d-4286-b77b-9f26462eade6","ios":"levelo://app?vid=e20278c6-b58d-4286-b77b-9f26462eade6"},"vehicle_type_id":"4","last_reported":1700806185,"current_range_meters":30400,"station_id":"ce4bhr12rcd13ifvqhqg","pricing_plan_id":"free"},{"bike_id":"5a877054-2cf2-41cb-b572-968f14afeb92","system_id":"levelo_inurba_marseille","lat":43.322872,"lon":5.382756,"is_reserved":false,"is_disabled":false,"rental_uris":{"android":"levelo://app?vid=5a877054-2cf2-41cb-b572-968f14afeb92","ios":"levelo://app?vid=5a877054-2cf2-41cb-b572-968f14afeb92"},"vehicle_type_id":"4","last_reported":1700806185,"current_range_meters":27200,"station_id":"ce4bhr12rcd13ifvqhqg","pricing_plan_id":"free"},{"bike_id":"ddd3fff7-fc57-48f9-825f-f47d18d1dbee","system_id":"levelo_inurba_marseille","lat":43.32816,"lon":5.3669,"is_reserved":false,"is_disabled":false,"rental_uris":{"android":"levelo://app?vid=ddd3fff7-fc57-48f9-825f-f47d18d1dbee","ios":"levelo://app?vid=ddd3fff7-fc57-48f9-825f-f47d18d1dbee"},"vehicle_type_id":"4","last_reported":1700806185,"current_range_meters":1200,"station_id":"ce4bhs92rcd13ifvqi0g","pricing_plan_id":"free"},{"bike_id":"4d7509f5-9559-42ca-a60d-bef9e80f0981","system_id":"levelo_inurba_marseille","lat":43.299579,"lon":5.379146,"is_reserved":false,"is_disabled":false,"rental_uris":{"android":"levelo://app?vid=4d7509f5-9559-42ca-a60d-bef9e80f0981","ios":"levelo://app?vid=4d7509f5-9559-42ca-a60d-bef9e80f0981"},"vehicle_type_id":"4","last_reported":1700806185,"current_range_meters":0,"station_id":"","pricing_plan_id":"free"},{"bike_id":"005fef89-5f6d-4b2f-b897-d01a5c40a45b","system_id":"levelo_inurba_marseille","lat":43.30286,"lon":5.38443,"is_reserved":false,"is_disabled":false,"rental_uris":{"android":"levelo://app?vid=005fef89-5f6d-4b2f-b897-d01a5c40a45b","ios":"levelo://app?vid=005fef89-5f6d-4b2f-b897-d01a5c40a45b"},"vehicle_type_id":"4","last_reported":1700806185,"current_range_meters":28000,"station_id":"","pricing_plan_id":"free"},{"bike_id":"8d6f7e85-40ba-4b13-9f5d-f73a2b06b67b","system_id":"levelo_inurba_marseille","lat":43.296131,"lon":5.370791,"is_reserved":false,"is_disabled":false,"rental_uris":{"android":"levelo://app?vid=8d6f7e85-40ba-4b13-9f5d-f73a2b06b67b","ios":"levelo://app?vid=8d6f7e85-40ba-4b13-9f5d-f73a2b06b67b"},"vehicle_type_id":"4","last_reported":1700806185,"current_range_meters":28400,"station_id":"ce4bgnh2rcd13ifvqc0g","pricing_plan_id":"free"},{"bike_id":"6d8e3cd9-aaff-4420-9616-b926d46af83e","system_id":"levelo_inurba_marseille","lat":43.30951,"lon":5.39029,"is_reserved":false,"is_disabled":false,"rental_uris":{"android":"levelo://app?vid=6d8e3cd9-aaff-4420-9616-b926d46af83e","ios":"levelo://app?vid=6d8e3cd9-aaff-4420-9616-b926d46af83e"},"vehicle_type_id":"4","last_reported":1700806185,"current_range_meters":24800,"station_id":"ce4bgup2rcd13ifvqco0","pricing_plan_id":"free"},{"bike_id":"6772f716-1e72-4489-b849-cd7ab103bd20","system_id":"levelo_inurba_marseille","lat":43.299028,"lon":5.381509,"is_reserved":false,"is_disabled":false,"rental_uris":{"android":"levelo://app?vid=6772f716-1e72-4489-b849-cd7ab103bd20","ios":"levelo://app?vid=6772f716-1e72-4489-b849-cd7ab103bd20"},"vehicle_type_id":"4","last_reported":1700806185,"current_range_meters":29600,"station_id":"ce4bgj12rcd13ifvqbc0","pricing_plan_id":"free"},{"bike_id":"4aec5cef-968e-4db2-bc1e-d0eb0f521b22","system_id":"levelo_inurba_marseille","lat":43.296921,"lon":5.376579,"is_reserved":false,"is_disabled":false,"rental_uris":{"android":"levelo://app?vid=4aec5cef-968e-4db2-bc1e-d0eb0f521b22","ios":"levelo://app?vid=4aec5cef-968e-4db2-bc1e-d0eb0f521b22"},"vehicle_type_id":"4","last_reported":1700806185,"current_range_meters":28400,"station_id":"ce4bgkh2rcd13ifvqbl0","pricing_plan_id":"free"},{"bike_id":"c915f272-1145-4e9d-b7c8-a32b5ded15dc","system_id":"levelo_inurba_marseille","lat":43.30956,"lon":5.39038,"is_reserved":false,"is_disabled":false,"rental_uris":{"android":"levelo://app?vid=c915f272-1145-4e9d-b7c8-a32b5ded15dc","ios":"levelo://app?vid=c915f272-1145-4e9d-b7c8-a32b5ded15dc"},"vehicle_type_id":"4","last_reported":1700806185,"current_range_meters":21200,"station_id":"ce4bgup2rcd13ifvqco0","pricing_plan_id":"free"},{"bike_id":"ce134bc8-1078-4a15-b28e-d94d66dd997f","system_id":"levelo_inurba_marseille","lat":43.309589,"lon":5.390258,"is_reserved":false,"is_disabled":false,"rental_uris":{"android":"levelo://app?vid=ce134bc8-1078-4a15-b28e-d94d66dd997f","ios":"levelo://app?vid=ce134bc8-1078-4a15-b28e-d94d66dd997f"},"vehicle_type_id":"4","last_reported":1700806185,"current_range_meters":8800,"station_id":"ce4bgup2rcd13ifvqco0","pricing_plan_id":"free"},{"bike_id":"77b20085-64aa-42a2-9011-25d377da02d5","system_id":"levelo_inurba_marseille","lat":43.317557,"lon":5.390173,"is_reserved":false,"is_disabled":false,"rental_uris":{"android":"levelo://app?vid=77b20085-64aa-42a2-9011-25d377da02d5","ios":"levelo://app?vid=77b20085-64aa-42a2-9011-25d377da02d5"},"vehicle_type_id":"4","last_reported":1700806185,"current_range_meters":30800,"station_id":"ce4bhqp2rcd13ifvqhng","pricing_plan_id":"free"},{"bike_id":"e870a805-2fbd-40ae-aeb8-108dc772ed5d","system_id":"levelo_inurba_marseille","lat":43.317591,"lon":5.390258,"is_reserved":false,"is_disabled":false,"rental_uris":{"android":"levelo://app?vid=e870a805-2fbd-40ae-aeb8-108dc772ed5d","ios":"levelo://app?vid=e870a805-2fbd-40ae-aeb8-108dc772ed5d"},"vehicle_type_id":"4","last_reported":1700806185,"current_range_meters":0,"station_id":"ce4bhqp2rcd13ifvqhng","pricing_plan_id":"free"},{"bike_id":"414f0c60-0661-4fc3-87da-9fe51e3cbdf9","system_id":"levelo_inurba_marseille","lat":43.298037,"lon":5.381066,"is_reserved":false,"is_disabled":false,"rental_uris":{"android":"levelo://app?vid=414f0c60-0661-4fc3-87da-9fe51e3cbdf9","ios":"levelo://app?vid=414f0c60-0661-4fc3-87da-9fe51e3cbdf9"},"vehicle_type_id":"4","last_reported":1700806185,"current_range_meters":30000,"station_id":"ce4bgip2rcd13ifvqbb0","pricing_plan_id":"free"},{"bike_id":"1898db17-7b23-44b9-8b35-bbb8ed38da91","system_id":"levelo_inurba_marseille","lat":43.295748,"lon":5.37522,"is_reserved":false,"is_disabled":false,"rental_uris":{"android":"levelo://app?vid=1898db17-7b23-44b9-8b35-bbb8ed38da91","ios":"levelo://app?vid=1898db17-7b23-44b9-8b35-bbb8ed38da91"},"vehicle_type_id":"4","last_reported":1700806185,"current_range_meters":400,"station_id":"ce4bgh92rcd13ifvqb50","pricing_plan_id":"free"},{"bike_id":"51a2d968-7261-49fe-94b9-838f3bc8ddc6","system_id":"levelo_inurba_marseille","lat":43.298037,"lon":5.381066,"is_reserved":false,"is_disabled":false,"rental_uris":{"android":"levelo://app?vid=51a2d968-7261-49fe-94b9-838f3bc8ddc6","ios":"levelo://app?vid=51a2d968-7261-49fe-94b9-838f3bc8ddc6"},"vehicle_type_id":"4","last_reported":1700806185,"current_range_meters":27200,"station_id":"ce4bgip2rcd13ifvqbb0","pricing_plan_id":"free"},{"bike_id":"29624fa5-e785-4b81-b40c-12bd2ab2f550","system_id":"levelo_inurba_marseille","lat":43.29789,"lon":5.38112,"is_reserved":false,"is_disabled":false,"rental_uris":{"android":"levelo://app?vid=29624fa5-e785-4b81-b40c-12bd2ab2f550","ios":"levelo://app?vid=29624fa5-e785-4b81-b40c-12bd2ab2f550"},"vehicle_type_id":"4","last_reported":1700806185,"current_range_meters":30000,"station_id":"ce4bgip2rcd13ifvqbb0","pricing_plan_id":"free"},{"bike_id":"6c82c6f7-63fc-4fc6-80ca-ad5882d61d60","system_id":"levelo_inurba_marseille","lat":43.29786,"lon":5.38117,"is_reserved":false,"is_disabled":false,"rental_uris":{"android":"levelo://app?vid=6c82c6f7-63fc-4fc6-80ca-ad5882d61d60","ios":"levelo://app?vid=6c82c6f7-63fc-4fc6-80ca-ad5882d61d60"},"vehicle_type_id":"4","last_reported":1700806185,"current_range_meters":23200,"station_id":"ce4bgip2rcd13ifvqbb0","pricing_plan_id":"free"},{"bike_id":"57798694-572d-4005-85a7-356e3919e2a1","system_id":"levelo_inurba_marseille","lat":43.29608,"lon":5.377135,"is_reserved":false,"is_disabled":false,"rental_uris":{"android":"levelo://app?vid=57798694-572d-4005-85a7-356e3919e2a1","ios":"levelo://app?vid=57798694-572d-4005-85a7-356e3919e2a1"},"vehicle_type_id":"4","last_reported":1700806185,"current_range_meters":13200,"station_id":"ce4bgi92rcd13ifvqb90","pricing_plan_id":"free"},{"bike_id":"d5825029-25b2-4f65-bca8-ded4560501ba","system_id":"levelo_inurba_marseille","lat":43.296263,"lon":5.377094,"is_reserved":false,"is_disabled":false,"rental_uris":{"android":"levelo://app?vid=d5825029-25b2-4f65-bca8-ded4560501ba","ios":"levelo://app?vid=d5825029-25b2-4f65-bca8-ded4560501ba"},"vehicle_type_id":"4","last_reported":1700806185,"current_range_meters":9600,"station_id":"ce4bgi92rcd13ifvqb90","pricing_plan_id":"free"},{"bike_id":"8c07db8d-ea5f-4418-a096-b25374760f9a","system_id":"levelo_inurba_marseille","lat":43.29967,"lon":5.38491,"is_reserved":false,"is_disabled":false,"rental_uris":{"android":"levelo://app?vid=8c07db8d-ea5f-4418-a096-b25374760f9a","ios":"levelo://app?vid=8c07db8d-ea5f-4418-a096-b25374760f9a"},"vehicle_type_id":"4","last_reported":1700806185,"current_range_meters":14800,"station_id":"ce4bgj92rcd13ifvqbd0","pricing_plan_id":"free"},{"bike_id":"2cbbf364-b816-450b-973a-0cce1545f6e0","system_id":"levelo_inurba_marseille","lat":43.29969,"lon":5.38496,"is_reserved":false,"is_disabled":false,"rental_uris":{"android":"levelo://app?vid=2cbbf364-b816-450b-973a-0cce1545f6e0","ios":"levelo://app?vid=2cbbf364-b816-450b-973a-0cce1545f6e0"},"vehicle_type_id":"4","last_reported":1700806185,"current_range_meters":7600,"station_id":"ce4bgj92rcd13ifvqbd0","pricing_plan_id":"free"},{"bike_id":"c7404532-9796-4173-b2e6-2235b9ede2b1","system_id":"levelo_inurba_marseille","lat":43.300959,"lon":5.386931,"is_reserved":false,"is_disabled":false,"rental_uris":{"android":"levelo://app?vid=c7404532-9796-4173-b2e6-2235b9ede2b1","ios":"levelo://app?vid=c7404532-9796-4173-b2e6-2235b9ede2b1"},"vehicle_type_id":"4","last_reported":1700806185,"current_range_meters":0,"station_id":"","pricing_plan_id":"free"},{"bike_id":"6b621983-5e9e-42f7-990d-ad5a093820d2","system_id":"levelo_inurba_marseille","lat":43.293801,"lon":5.363066,"is_reserved":false,"is_disabled":false,"rental_uris":{"android":"levelo://app?vid=6b621983-5e9e-42f7-990d-ad5a093820d2","ios":"levelo://app?vid=6b621983-5e9e-42f7-990d-ad5a093820d2"},"vehicle_type_id":"4","last_reported":1700806185,"current_range_meters":5600,"station_id":"","pricing_plan_id":"free"},{"bike_id":"3b5ce91f-4509-4d53-8414-319f702fbfed","system_id":"levelo_inurba_marseille","lat":43.32367,"lon":5.388836,"is_reserved":false,"is_disabled":false,"rental_uris":{"android":"levelo://app?vid=3b5ce91f-4509-4d53-8414-319f702fbfed","ios":"levelo://app?vid=3b5ce91f-4509-4d53-8414-319f702fbfed"},"vehicle_type_id":"4","last_reported":1700806185,"current_range_meters":5200,"station_id":"ce4bhqp2rcd13ifvqhog","pricing_plan_id":"free"},{"bike_id":"a640284d-db0b-45ce-9ba1-7671109f89d2","system_id":"levelo_inurba_marseille","lat":43.32367,"lon":5.388836,"is_reserved":false,"is_disabled":false,"rental_uris":{"android":"levelo://app?vid=a640284d-db0b-45ce-9ba1-7671109f89d2","ios":"levelo://app?vid=a640284d-db0b-45ce-9ba1-7671109f89d2"},"vehicle_type_id":"4","last_reported":1700806185,"current_range_meters":4000,"station_id":"ce4bhqp2rcd13ifvqhog","pricing_plan_id":"free"},{"bike_id":"59398d6a-1eaf-4e92-b0ad-03db71680ea9","system_id":"levelo_inurba_marseille","lat":43.32367,"lon":5.388836,"is_reserved":false,"is_disabled":false,"rental_uris":{"android":"levelo://app?vid=59398d6a-1eaf-4e92-b0ad-03db71680ea9","ios":"levelo://app?vid=59398d6a-1eaf-4e92-b0ad-03db71680ea9"},"vehicle_type_id":"4","last_reported":1700806185,"current_range_meters":2000,"station_id":"ce4bhqp2rcd13ifvqhog","pricing_plan_id":"free"},{"bike_id":"ce2412ea-5a00-4357-9512-19213e082c67","system_id":"levelo_inurba_marseille","lat":43.29602,"lon":5.381084,"is_reserved":false,"is_disabled":false,"rental_uris":{"android":"levelo://app?vid=ce2412ea-5a00-4357-9512-19213e082c67","ios":"levelo://app?vid=ce2412ea-5a00-4357-9512-19213e082c67"},"vehicle_type_id":"4","last_reported":1700806185,"current_range_meters":28800,"station_id":"ce4bgl12rcd13ifvqbo0","pricing_plan_id":"free"},{"bike_id":"9b52f747-0491-4722-bbd3-88b8ef0d06e1","system_id":"levelo_inurba_marseille","lat":43.29589,"lon":5.38101,"is_reserved":false,"is_disabled":false,"rental_uris":{"android":"levelo://app?vid=9b52f747-0491-4722-bbd3-88b8ef0d06e1","ios":"levelo://app?vid=9b52f747-0491-4722-bbd3-88b8ef0d06e1"},"vehicle_type_id":"4","last_reported":1700806185,"current_range_meters":16000,"station_id":"ce4bgl12rcd13ifvqbo0","pricing_plan_id":"free"},{"bike_id":"4cbf4ad3-9228-42cf-a8e8-d8441299a33a","system_id":"levelo_inurba_marseille","lat":43.29309,"lon":5.37167,"is_reserved":false,"is_disabled":false,"rental_uris":{"android":"levelo://app?vid=4cbf4ad3-9228-42cf-a8e8-d8441299a33a","ios":"levelo://app?vid=4cbf4ad3-9228-42cf-a8e8-d8441299a33a"},"vehicle_type_id":"4","last_reported":1700806185,"current_range_meters":23600,"station_id":"ce4bgh92rcd13ifvqb40","pricing_plan_id":"free"},{"bike_id":"093f5d5a-d597-4d8c-8c72-a558f1638945","system_id":"levelo_inurba_marseille","lat":43.293057,"lon":5.371691,"is_reserved":false,"is_disabled":false,"rental_uris":{"android":"levelo://app?vid=093f5d5a-d597-4d8c-8c72-a558f1638945","ios":"levelo://app?vid=093f5d5a-d597-4d8c-8c72-a558f1638945"},"vehicle_type_id":"4","last_reported":1700806185,"current_range_meters":27200,"station_id":"ce4bgh92rcd13ifvqb40","pricing_plan_id":"free"},{"bike_id":"03e2a5f3-2e3a-4754-ad15-00da59d71d39","system_id":"levelo_inurba_marseille","lat":43.293054,"lon":5.371693,"is_reserved":false,"is_disabled":false,"rental_uris":{"android":"levelo://app?vid=03e2a5f3-2e3a-4754-ad15-00da59d71d39","ios":"levelo://app?vid=03e2a5f3-2e3a-4754-ad15-00da59d71d39"},"vehicle_type_id":"4","last_reported":1700806185,"current_range_meters":31200,"station_id":"ce4bgh92rcd13ifvqb40","pricing_plan_id":"free"},{"bike_id":"0eac0231-d167-4954-a886-ebe05f98ceca","system_id":"levelo_inurba_marseille","lat":43.29277,"lon":5.36838,"is_reserved":false,"is_disabled":false,"rental_uris":{"android":"levelo://app?vid=0eac0231-d167-4954-a886-ebe05f98ceca","ios":"levelo://app?vid=0eac0231-d167-4954-a886-ebe05f98ceca"},"vehicle_type_id":"4","last_reported":1700806185,"current_range_meters":11200,"station_id":"ce4bhbp2rcd13ifvqesg","pricing_plan_id":"free"},{"bike_id":"100f76ef-7e63-4504-990d-940e3134d4cc","system_id":"levelo_inurba_marseille","lat":43.293032,"lon":5.371596,"is_reserved":false,"is_disabled":false,"rental_uris":{"android":"levelo://app?vid=100f76ef-7e63-4504-990d-940e3134d4cc","ios":"levelo://app?vid=100f76ef-7e63-4504-990d-940e3134d4cc"},"vehicle_type_id":"4","last_reported":1700806185,"current_range_meters":11600,"station_id":"ce4bgh92rcd13ifvqb40","pricing_plan_id":"free"},{"bike_id":"bd1165fd-35cc-4c79-9c47-aa39be1318f9","system_id":"levelo_inurba_marseille","lat":43.293041,"lon":5.371785,"is_reserved":false,"is_disabled":false,"rental_uris":{"android":"levelo://app?vid=bd1165fd-35cc-4c79-9c47-aa39be1318f9","ios":"levelo://app?vid=bd1165fd-35cc-4c79-9c47-aa39be1318f9"},"vehicle_type_id":"4","last_reported":1700806185,"current_range_meters":16400,"station_id":"ce4bgh92rcd13ifvqb40","pricing_plan_id":"free"},{"bike_id":"b9df34c8-d408-49b9-a672-52adfabfff31","system_id":"levelo_inurba_marseille","lat":43.29303,"lon":5.37174,"is_reserved":false,"is_disabled":false,"rental_uris":{"android":"levelo://app?vid=b9df34c8-d408-49b9-a672-52adfabfff31","ios":"levelo://app?vid=b9df34c8-d408-49b9-a672-52adfabfff31"},"vehicle_type_id":"4","last_reported":1700806185,"current_range_meters":16000,"station_id":"ce4bgh92rcd13ifvqb40","pricing_plan_id":"free"},{"bike_id":"aed20ab0-7eb7-4ea2-959c-4ad2337fb934","system_id":"levelo_inurba_marseille","lat":43.293036,"lon":5.371808,"is_reserved":false,"is_disabled":false,"rental_uris":{"android":"levelo://app?vid=aed20ab0-7eb7-4ea2-959c-4ad2337fb934","ios":"levelo://app?vid=aed20ab0-7eb7-4ea2-959c-4ad2337fb934"},"vehicle_type_id":"4","last_reported":1700806185,"current_range_meters":28400,"station_id":"ce4bgh92rcd13ifvqb40","pricing_plan_id":"free"},{"bike_id":"f8261468-d437-44ca-bc62-b7ed757e2eb9","system_id":"levelo_inurba_marseille","lat":43.293009,"lon":5.374584,"is_reserved":false,"is_disabled":false,"rental_uris":{"android":"levelo://app?vid=f8261468-d437-44ca-bc62-b7ed757e2eb9","ios":"levelo://app?vid=f8261468-d437-44ca-bc62-b7ed757e2eb9"},"vehicle_type_id":"4","last_reported":1700806185,"current_range_meters":25600,"station_id":"ce4bgi12rcd13ifvqb70","pricing_plan_id":"free"},{"bike_id":"91ce2159-75a3-40d3-b283-5854119b58e8","system_id":"levelo_inurba_marseille","lat":43.293009,"lon":5.374584,"is_reserved":false,"is_disabled":false,"rental_uris":{"android":"levelo://app?vid=91ce2159-75a3-40d3-b283-5854119b58e8","ios":"levelo://app?vid=91ce2159-75a3-40d3-b283-5854119b58e8"},"vehicle_type_id":"4","last_reported":1700806185,"current_range_meters":26400,"station_id":"ce4bgi12rcd13ifvqb70","pricing_plan_id":"free"},{"bike_id":"f5e6ee77-f77b-4e07-8a55-2c939ba27144","system_id":"levelo_inurba_marseille","lat":43.2936,"lon":5.37835,"is_reserved":false,"is_disabled":false,"rental_uris":{"android":"levelo://app?vid=f5e6ee77-f77b-4e07-8a55-2c939ba27144","ios":"levelo://app?vid=f5e6ee77-f77b-4e07-8a55-2c939ba27144"},"vehicle_type_id":"4","last_reported":1700806185,"current_range_meters":26000,"station_id":"ce4bgjh2rcd13ifvqbf0","pricing_plan_id":"free"},{"bike_id":"4c91eaa0-b75e-4591-aaaf-ef6d9f530c7f","system_id":"levelo_inurba_marseille","lat":43.30085,"lon":5.390856,"is_reserved":false,"is_disabled":false,"rental_uris":{"android":"levelo://app?vid=4c91eaa0-b75e-4591-aaaf-ef6d9f530c7f","ios":"levelo://app?vid=4c91eaa0-b75e-4591-aaaf-ef6d9f530c7f"},"vehicle_type_id":"4","last_reported":1700806185,"current_range_meters":27200,"station_id":"ce4bh192rcd13ifvqdb0","pricing_plan_id":"free"},{"bike_id":"0fbed19e-da91-4c89-b586-e2ce745cc25e","system_id":"levelo_inurba_marseille","lat":43.29271,"lon":5.37627,"is_reserved":false,"is_disabled":false,"rental_uris":{"android":"levelo://app?vid=0fbed19e-da91-4c89-b586-e2ce745cc25e","ios":"levelo://app?vid=0fbed19e-da91-4c89-b586-e2ce745cc25e"},"vehicle_type_id":"4","last_reported":1700806185,"current_range_meters":24800,"station_id":"ce4bgi12rcd13ifvqb80","pricing_plan_id":"free"},{"bike_id":"a5f6ec02-a03b-41c1-818c-18de17d5d6c2","system_id":"levelo_inurba_marseille","lat":43.292645,"lon":5.376205,"is_reserved":false,"is_disabled":false,"rental_uris":{"android":"levelo://app?vid=a5f6ec02-a03b-41c1-818c-18de17d5d6c2","ios":"levelo://app?vid=a5f6ec02-a03b-41c1-818c-18de17d5d6c2"},"vehicle_type_id":"4","last_reported":1700806185,"current_range_meters":23600,"station_id":"ce4bgi12rcd13ifvqb80","pricing_plan_id":"free"},{"bike_id":"ffeb7563-29ca-4914-aa55-48dde226176a","system_id":"levelo_inurba_marseille","lat":43.291671,"lon":5.371575,"is_reserved":false,"is_disabled":false,"rental_uris":{"android":"levelo://app?vid=ffeb7563-29ca-4914-aa55-48dde226176a","ios":"levelo://app?vid=ffeb7563-29ca-4914-aa55-48dde226176a"},"vehicle_type_id":"4","last_reported":1700806185,"current_range_meters":28800,"station_id":"ce4bha92rcd13ifvqeh0","pricing_plan_id":"free"},{"bike_id":"de60053e-fa4a-4520-b5bc-2d5014afeb78","system_id":"levelo_inurba_marseille","lat":43.291675,"lon":5.371583,"is_reserved":false,"is_disabled":false,"rental_uris":{"android":"levelo://app?vid=de60053e-fa4a-4520-b5bc-2d5014afeb78","ios":"levelo://app?vid=de60053e-fa4a-4520-b5bc-2d5014afeb78"},"vehicle_type_id":"4","last_reported":1700806185,"current_range_meters":25200,"station_id":"ce4bha92rcd13ifvqeh0","pricing_plan_id":"free"},{"bike_id":"20b592ad-d549-4f87-b7e5-267eaf3ca54c","system_id":"levelo_inurba_marseille","lat":43.313291,"lon":5.396838,"is_reserved":false,"is_disabled":false,"rental_uris":{"android":"levelo://app?vid=20b592ad-d549-4f87-b7e5-267eaf3ca54c","ios":"levelo://app?vid=20b592ad-d549-4f87-b7e5-267eaf3ca54c"},"vehicle_type_id":"4","last_reported":1700806185,"current_range_meters":24800,"station_id":"ce4bgvp2rcd13ifvqcu0","pricing_plan_id":"free"},{"bike_id":"3dbd490d-fb2c-448b-9153-2dc8f2fa5522","system_id":"levelo_inurba_marseille","lat":43.313225,"lon":5.396916,"is_reserved":false,"is_disabled":false,"rental_uris":{"android":"levelo://app?vid=3dbd490d-fb2c-448b-9153-2dc8f2fa5522","ios":"levelo://app?vid=3dbd490d-fb2c-448b-9153-2dc8f2fa5522"},"vehicle_type_id":"4","last_reported":1700806185,"current_range_meters":29600,"station_id":"ce4bgvp2rcd13ifvqcu0","pricing_plan_id":"free"},{"bike_id":"660350c2-d11f-463b-9816-8ecb0b0dbd96","system_id":"levelo_inurba_marseille","lat":43.313291,"lon":5.396838,"is_reserved":false,"is_disabled":false,"rental_uris":{"android":"levelo://app?vid=660350c2-d11f-463b-9816-8ecb0b0dbd96","ios":"levelo://app?vid=660350c2-d11f-463b-9816-8ecb0b0dbd96"},"vehicle_type_id":"4","last_reported":1700806185,"current_range_meters":21600,"station_id":"ce4bgvp2rcd13ifvqcu0","pricing_plan_id":"free"},{"bike_id":"1d10a1b1-d55f-4279-928a-9c6858f32ca9","system_id":"levelo_inurba_marseille","lat":43.33211,"lon":5.38112,"is_reserved":false,"is_disabled":false,"rental_uris":{"android":"levelo://app?vid=1d10a1b1-d55f-4279-928a-9c6858f32ca9","ios":"levelo://app?vid=1d10a1b1-d55f-4279-928a-9c6858f32ca9"},"vehicle_type_id":"4","last_reported":1700806185,"current_range_meters":0,"station_id":"","pricing_plan_id":"free"},{"bike_id":"14e0fb71-0f38-47eb-8bfa-2dd36cacf9c5","system_id":"levelo_inurba_marseille","lat":43.290779,"lon":5.371482,"is_reserved":false,"is_disabled":false,"rental_uris":{"android":"levelo://app?vid=14e0fb71-0f38-47eb-8bfa-2dd36cacf9c5","ios":"levelo://app?vid=14e0fb71-0f38-47eb-8bfa-2dd36cacf9c5"},"vehicle_type_id":"4","last_reported":1700806185,"current_range_meters":29200,"station_id":"ce4bh5p2rcd13ifvqe4g","pricing_plan_id":"free"},{"bike_id":"f1b661bf-3eb8-402d-a0de-cd8ccd5f7ad4","system_id":"levelo_inurba_marseille","lat":43.290779,"lon":5.371482,"is_reserved":false,"is_disabled":false,"rental_uris":{"android":"levelo://app?vid=f1b661bf-3eb8-402d-a0de-cd8ccd5f7ad4","ios":"levelo://app?vid=f1b661bf-3eb8-402d-a0de-cd8ccd5f7ad4"},"vehicle_type_id":"4","last_reported":1700806185,"current_range_meters":27600,"station_id":"ce4bh5p2rcd13ifvqe4g","pricing_plan_id":"free"},{"bike_id":"dd6ce732-0bbb-4fcd-87b7-5bcfadde39aa","system_id":"levelo_inurba_marseille","lat":43.290779,"lon":5.371482,"is_reserved":false,"is_disabled":false,"rental_uris":{"android":"levelo://app?vid=dd6ce732-0bbb-4fcd-87b7-5bcfadde39aa","ios":"levelo://app?vid=dd6ce732-0bbb-4fcd-87b7-5bcfadde39aa"},"vehicle_type_id":"4","last_reported":1700806185,"current_range_meters":17200,"station_id":"ce4bh5p2rcd13ifvqe4g","pricing_plan_id":"free"},{"bike_id":"9229bbdd-b0b0-49ba-9f0f-7a83e2209330","system_id":"levelo_inurba_marseille","lat":43.290779,"lon":5.371482,"is_reserved":false,"is_disabled":false,"rental_uris":{"android":"levelo://app?vid=9229bbdd-b0b0-49ba-9f0f-7a83e2209330","ios":"levelo://app?vid=9229bbdd-b0b0-49ba-9f0f-7a83e2209330"},"vehicle_type_id":"4","last_reported":1700806185,"current_range_meters":29200,"station_id":"ce4bh5p2rcd13ifvqe4g","pricing_plan_id":"free"},{"bike_id":"d0f6724a-e574-424f-b3ba-b07c1f18b3fa","system_id":"levelo_inurba_marseille","lat":43.29067,"lon":5.371599,"is_reserved":false,"is_disabled":false,"rental_uris":{"android":"levelo://app?vid=d0f6724a-e574-424f-b3ba-b07c1f18b3fa","ios":"levelo://app?vid=d0f6724a-e574-424f-b3ba-b07c1f18b3fa"},"vehicle_type_id":"4","last_reported":1700806185,"current_range_meters":29200,"station_id":"ce4bh5p2rcd13ifvqe4g","pricing_plan_id":"free"},{"bike_id":"13936310-922d-44c2-bda3-968385252e1b","system_id":"levelo_inurba_marseille","lat":43.290779,"lon":5.371482,"is_reserved":false,"is_disabled":false,"rental_uris":{"android":"levelo://app?vid=13936310-922d-44c2-bda3-968385252e1b","ios":"levelo://app?vid=13936310-922d-44c2-bda3-968385252e1b"},"vehicle_type_id":"4","last_reported":1700806185,"current_range_meters":31200,"station_id":"ce4bh5p2rcd13ifvqe4g","pricing_plan_id":"free"},{"bike_id":"03c1c5f9-500f-4057-9929-5bc84d4e1004","system_id":"levelo_inurba_marseille","lat":43.3021,"lon":5.394662,"is_reserved":false,"is_disabled":false,"rental_uris":{"android":"levelo://app?vid=03c1c5f9-500f-4057-9929-5bc84d4e1004","ios":"levelo://app?vid=03c1c5f9-500f-4057-9929-5bc84d4e1004"},"vehicle_type_id":"4","last_reported":1700806185,"current_range_meters":0,"station_id":"ce4bh0p2rcd13ifvqd70","pricing_plan_id":"free"},{"bike_id":"31c1e1c2-82b6-4c90-8694-42a6a6b7d7b6","system_id":"levelo_inurba_marseille","lat":43.290631,"lon":5.359244,"is_reserved":false,"is_disabled":false,"rental_uris":{"android":"levelo://app?vid=31c1e1c2-82b6-4c90-8694-42a6a6b7d7b6","ios":"levelo://app?vid=31c1e1c2-82b6-4c90-8694-42a6a6b7d7b6"},"vehicle_type_id":"4","last_reported":1700806185,"current_range_meters":31200,"station_id":"ce4bha92rcd13ifvqeg0","pricing_plan_id":"free"},{"bike_id":"a538ab40-5009-4930-ac8e-7567cd6125a0","system_id":"levelo_inurba_marseille","lat":43.290631,"lon":5.359244,"is_reserved":false,"is_disabled":false,"rental_uris":{"android":"levelo://app?vid=a538ab40-5009-4930-ac8e-7567cd6125a0","ios":"levelo://app?vid=a538ab40-5009-4930-ac8e-7567cd6125a0"},"vehicle_type_id":"4","last_reported":1700806185,"current_range_meters":15600,"station_id":"ce4bha92rcd13ifvqeg0","pricing_plan_id":"free"},{"bike_id":"353cfd9e-5057-4b08-bdfb-e420a95bfb56","system_id":"levelo_inurba_marseille","lat":43.290631,"lon":5.359244,"is_reserved":false,"is_disabled":false,"rental_uris":{"android":"levelo://app?vid=353cfd9e-5057-4b08-bdfb-e420a95bfb56","ios":"levelo://app?vid=353cfd9e-5057-4b08-bdfb-e420a95bfb56"},"vehicle_type_id":"4","last_reported":1700806185,"current_range_meters":28000,"station_id":"ce4bha92rcd13ifvqeg0","pricing_plan_id":"free"},{"bike_id":"19ad6cb7-0c19-48fd-aac5-40f35ae87458","system_id":"levelo_inurba_marseille","lat":43.29028,"lon":5.37561,"is_reserved":false,"is_disabled":false,"rental_uris":{"android":"levelo://app?vid=19ad6cb7-0c19-48fd-aac5-40f35ae87458","ios":"levelo://app?vid=19ad6cb7-0c19-48fd-aac5-40f35ae87458"},"vehicle_type_id":"4","last_reported":1700806185,"current_range_meters":31200,"station_id":"ce4bh692rcd13ifvqe90","pricing_plan_id":"free"},{"bike_id":"d9747134-ab96-43d7-bf5a-8bcfa948dd93","system_id":"levelo_inurba_marseille","lat":43.28933,"lon":5.36633,"is_reserved":false,"is_disabled":false,"rental_uris":{"android":"levelo://app?vid=d9747134-ab96-43d7-bf5a-8bcfa948dd93","ios":"levelo://app?vid=d9747134-ab96-43d7-bf5a-8bcfa948dd93"},"vehicle_type_id":"4","last_reported":1700806185,"current_range_meters":30800,"station_id":"ce4bhap2rcd13ifvqek0","pricing_plan_id":"free"},{"bike_id":"c52fec84-ac80-4310-9828-e5df8ec6c70b","system_id":"levelo_inurba_marseille","lat":43.289391,"lon":5.363786,"is_reserved":false,"is_disabled":false,"rental_uris":{"android":"levelo://app?vid=c52fec84-ac80-4310-9828-e5df8ec6c70b","ios":"levelo://app?vid=c52fec84-ac80-4310-9828-e5df8ec6c70b"},"vehicle_type_id":"4","last_reported":1700806185,"current_range_meters":29600,"station_id":"ce4bhc92rcd13ifvqetg","pricing_plan_id":"free"},{"bike_id":"fa3a9792-9942-4a92-bb4e-6cc3f22c649c","system_id":"levelo_inurba_marseille","lat":43.289355,"lon":5.36404,"is_reserved":false,"is_disabled":false,"rental_uris":{"android":"levelo://app?vid=fa3a9792-9942-4a92-bb4e-6cc3f22c649c","ios":"levelo://app?vid=fa3a9792-9942-4a92-bb4e-6cc3f22c649c"},"vehicle_type_id":"4","last_reported":1700806185,"current_range_meters":20800,"station_id":"ce4bhc92rcd13ifvqetg","pricing_plan_id":"free"},{"bike_id":"62d626b9-9b74-4c67-b1bc-a3b947352e62","system_id":"levelo_inurba_marseille","lat":43.292644,"lon":5.384257,"is_reserved":false,"is_disabled":false,"rental_uris":{"android":"levelo://app?vid=62d626b9-9b74-4c67-b1bc-a3b947352e62","ios":"levelo://app?vid=62d626b9-9b74-4c67-b1bc-a3b947352e62"},"vehicle_type_id":"4","last_reported":1700806185,"current_range_meters":22000,"station_id":"ce4bh692rcd13ifvqea0","pricing_plan_id":"free"},{"bike_id":"c846c7e9-99ee-4137-8ba3-55eb1a3af3d1","system_id":"levelo_inurba_marseille","lat":43.29265,"lon":5.38449,"is_reserved":false,"is_disabled":false,"rental_uris":{"android":"levelo://app?vid=c846c7e9-99ee-4137-8ba3-55eb1a3af3d1","ios":"levelo://app?vid=c846c7e9-99ee-4137-8ba3-55eb1a3af3d1"},"vehicle_type_id":"4","last_reported":1700806185,"current_range_meters":29200,"station_id":"ce4bh692rcd13ifvqea0","pricing_plan_id":"free"},{"bike_id":"0e65eb6a-bd1b-4126-bdae-e42b05b9fe43","system_id":"levelo_inurba_marseille","lat":43.30418,"lon":5.39747,"is_reserved":false,"is_disabled":false,"rental_uris":{"android":"levelo://app?vid=0e65eb6a-bd1b-4126-bdae-e42b05b9fe43","ios":"levelo://app?vid=0e65eb6a-bd1b-4126-bdae-e42b05b9fe43"},"vehicle_type_id":"4","last_reported":1700806185,"current_range_meters":25200,"station_id":"ce4bh092rcd13ifvqd20","pricing_plan_id":"free"},{"bike_id":"91d4ed13-930d-4912-a611-1edaba682843","system_id":"levelo_inurba_marseille","lat":43.2926,"lon":5.38447,"is_reserved":false,"is_disabled":false,"rental_uris":{"android":"levelo://app?vid=91d4ed13-930d-4912-a611-1edaba682843","ios":"levelo://app?vid=91d4ed13-930d-4912-a611-1edaba682843"},"vehicle_type_id":"4","last_reported":1700806185,"current_range_meters":14400,"station_id":"ce4bh692rcd13ifvqea0","pricing_plan_id":"free"},{"bike_id":"6904b484-132c-42a8-a3c7-a1f453b205cd","system_id":"levelo_inurba_marseille","lat":43.3304,"lon":5.38919,"is_reserved":false,"is_disabled":false,"rental_uris":{"android":"levelo://app?vid=6904b484-132c-42a8-a3c7-a1f453b205cd","ios":"levelo://app?vid=6904b484-132c-42a8-a3c7-a1f453b205cd"},"vehicle_type_id":"4","last_reported":1700806185,"current_range_meters":19200,"station_id":"ce4bhr92rcd13ifvqhrg","pricing_plan_id":"free"},{"bike_id":"55466b2d-38b9-49ee-bda8-84fa58cf75ed","system_id":"levelo_inurba_marseille","lat":43.330442,"lon":5.389148,"is_reserved":false,"is_disabled":false,"rental_uris":{"android":"levelo://app?vid=55466b2d-38b9-49ee-bda8-84fa58cf75ed","ios":"levelo://app?vid=55466b2d-38b9-49ee-bda8-84fa58cf75ed"},"vehicle_type_id":"4","last_reported":1700806185,"current_range_meters":0,"station_id":"ce4bhr92rcd13ifvqhrg","pricing_plan_id":"free"},{"bike_id":"0283e4dd-84b6-4b69-8368-68745cd16aac","system_id":"levelo_inurba_marseille","lat":43.330433,"lon":5.389157,"is_reserved":false,"is_disabled":false,"rental_uris":{"android":"levelo://app?vid=0283e4dd-84b6-4b69-8368-68745cd16aac","ios":"levelo://app?vid=0283e4dd-84b6-4b69-8368-68745cd16aac"},"vehicle_type_id":"4","last_reported":1700806185,"current_range_meters":27600,"station_id":"ce4bhr92rcd13ifvqhrg","pricing_plan_id":"free"},{"bike_id":"347f5bff-e9b3-48f4-a013-d8f27a4069c1","system_id":"levelo_inurba_marseille","lat":43.290104,"lon":5.356111,"is_reserved":false,"is_disabled":false,"rental_uris":{"android":"levelo://app?vid=347f5bff-e9b3-48f4-a013-d8f27a4069c1","ios":"levelo://app?vid=347f5bff-e9b3-48f4-a013-d8f27a4069c1"},"vehicle_type_id":"4","last_reported":1700806185,"current_range_meters":30000,"station_id":"ce4bhb92rcd13ifvqen0","pricing_plan_id":"free"},{"bike_id":"701670d6-fc97-4b89-9c5e-0bd96ccc65c6","system_id":"levelo_inurba_marseille","lat":43.290103,"lon":5.356114,"is_reserved":false,"is_disabled":false,"rental_uris":{"android":"levelo://app?vid=701670d6-fc97-4b89-9c5e-0bd96ccc65c6","ios":"levelo://app?vid=701670d6-fc97-4b89-9c5e-0bd96ccc65c6"},"vehicle_type_id":"4","last_reported":1700806185,"current_range_meters":27600,"station_id":"ce4bhb92rcd13ifvqen0","pricing_plan_id":"free"},{"bike_id":"92670ea5-f50a-4514-abf5-d809a63f03b9","system_id":"levelo_inurba_marseille","lat":43.290103,"lon":5.356114,"is_reserved":false,"is_disabled":false,"rental_uris":{"android":"levelo://app?vid=92670ea5-f50a-4514-abf5-d809a63f03b9","ios":"levelo://app?vid=92670ea5-f50a-4514-abf5-d809a63f03b9"},"vehicle_type_id":"4","last_reported":1700806185,"current_range_meters":28400,"station_id":"ce4bhb92rcd13ifvqen0","pricing_plan_id":"free"},{"bike_id":"6f3025cb-c573-4789-96b8-81d060d89467","system_id":"levelo_inurba_marseille","lat":43.290995,"lon":5.381361,"is_reserved":false,"is_disabled":false,"rental_uris":{"android":"levelo://app?vid=6f3025cb-c573-4789-96b8-81d060d89467","ios":"levelo://app?vid=6f3025cb-c573-4789-96b8-81d060d89467"},"vehicle_type_id":"4","last_reported":1700806185,"current_range_meters":30400,"station_id":"ce4bh512rcd13ifvqe2g","pricing_plan_id":"free"},{"bike_id":"13ac881c-a897-416a-ba62-88e5c3a6682f","system_id":"levelo_inurba_marseille","lat":43.290995,"lon":5.381361,"is_reserved":false,"is_disabled":false,"rental_uris":{"android":"levelo://app?vid=13ac881c-a897-416a-ba62-88e5c3a6682f","ios":"levelo://app?vid=13ac881c-a897-416a-ba62-88e5c3a6682f"},"vehicle_type_id":"4","last_reported":1700806185,"current_range_meters":26800,"station_id":"ce4bh512rcd13ifvqe2g","pricing_plan_id":"free"},{"bike_id":"7ceced4d-c51f-4993-83ab-089f0ee8b3c9","system_id":"levelo_inurba_marseille","lat":43.290995,"lon":5.381361,"is_reserved":false,"is_disabled":false,"rental_uris":{"android":"levelo://app?vid=7ceced4d-c51f-4993-83ab-089f0ee8b3c9","ios":"levelo://app?vid=7ceced4d-c51f-4993-83ab-089f0ee8b3c9"},"vehicle_type_id":"4","last_reported":1700806185,"current_range_meters":27200,"station_id":"ce4bh512rcd13ifvqe2g","pricing_plan_id":"free"},{"bike_id":"24a24372-5b8f-4a4a-b514-6aae93fd3c96","system_id":"levelo_inurba_marseille","lat":43.29787,"lon":5.39348,"is_reserved":false,"is_disabled":false,"rental_uris":{"android":"levelo://app?vid=24a24372-5b8f-4a4a-b514-6aae93fd3c96","ios":"levelo://app?vid=24a24372-5b8f-4a4a-b514-6aae93fd3c96"},"vehicle_type_id":"4","last_reported":1700806185,"current_range_meters":800,"station_id":"chh1huq6cuj3fo74tm60","pricing_plan_id":"free"},{"bike_id":"1dd3ab90-e36e-4307-88fd-dfab51efe060","system_id":"levelo_inurba_marseille","lat":43.289743,"lon":5.378304,"is_reserved":false,"is_disabled":false,"rental_uris":{"android":"levelo://app?vid=1dd3ab90-e36e-4307-88fd-dfab51efe060","ios":"levelo://app?vid=1dd3ab90-e36e-4307-88fd-dfab51efe060"},"vehicle_type_id":"4","last_reported":1700806185,"current_range_meters":12800,"station_id":"ce4bh9p2rcd13ifvqed0","pricing_plan_id":"free"},{"bike_id":"82388919-49c2-4ada-876c-b10bf1534389","system_id":"levelo_inurba_marseille","lat":43.289705,"lon":5.378385,"is_reserved":false,"is_disabled":false,"rental_uris":{"android":"levelo://app?vid=82388919-49c2-4ada-876c-b10bf1534389","ios":"levelo://app?vid=82388919-49c2-4ada-876c-b10bf1534389"},"vehicle_type_id":"4","last_reported":1700806185,"current_range_meters":18400,"station_id":"ce4bh9p2rcd13ifvqed0","pricing_plan_id":"free"},{"bike_id":"2a97c825-5a1b-4663-890e-a070ee2e3011","system_id":"levelo_inurba_marseille","lat":43.290205,"lon":5.38119,"is_reserved":false,"is_disabled":false,"rental_uris":{"android":"levelo://app?vid=2a97c825-5a1b-4663-890e-a070ee2e3011","ios":"levelo://app?vid=2a97c825-5a1b-4663-890e-a070ee2e3011"},"vehicle_type_id":"4","last_reported":1700806185,"current_range_meters":22000,"station_id":"ce4bh4p2rcd13ifvqe1g","pricing_plan_id":"free"},{"bike_id":"4228e964-5244-4776-818e-0721d0827846","system_id":"levelo_inurba_marseille","lat":43.29022,"lon":5.38138,"is_reserved":false,"is_disabled":false,"rental_uris":{"android":"levelo://app?vid=4228e964-5244-4776-818e-0721d0827846","ios":"levelo://app?vid=4228e964-5244-4776-818e-0721d0827846"},"vehicle_type_id":"4","last_reported":1700806185,"current_range_meters":7600,"station_id":"ce4bh4p2rcd13ifvqe1g","pricing_plan_id":"free"},{"bike_id":"f5593e47-2a04-4df6-8f74-6e7fd26c90fb","system_id":"levelo_inurba_marseille","lat":43.28856,"lon":5.358371,"is_reserved":false,"is_disabled":false,"rental_uris":{"android":"levelo://app?vid=f5593e47-2a04-4df6-8f74-6e7fd26c90fb","ios":"levelo://app?vid=f5593e47-2a04-4df6-8f74-6e7fd26c90fb"},"vehicle_type_id":"4","last_reported":1700806185,"current_range_meters":29600,"station_id":"ce4bhb12rcd13ifvqem0","pricing_plan_id":"free"},{"bike_id":"87838459-1a00-45bf-9c23-811f5f4129e7","system_id":"levelo_inurba_marseille","lat":43.28856,"lon":5.358371,"is_reserved":false,"is_disabled":false,"rental_uris":{"android":"levelo://app?vid=87838459-1a00-45bf-9c23-811f5f4129e7","ios":"levelo://app?vid=87838459-1a00-45bf-9c23-811f5f4129e7"},"vehicle_type_id":"4","last_reported":1700806185,"current_range_meters":31200,"station_id":"ce4bhb12rcd13ifvqem0","pricing_plan_id":"free"},{"bike_id":"e2091aad-f6be-4f4b-aba2-4c41fcd0905f","system_id":"levelo_inurba_marseille","lat":43.31284,"lon":5.40171,"is_reserved":false,"is_disabled":false,"rental_uris":{"android":"levelo://app?vid=e2091aad-f6be-4f4b-aba2-4c41fcd0905f","ios":"levelo://app?vid=e2091aad-f6be-4f4b-aba2-4c41fcd0905f"},"vehicle_type_id":"4","last_reported":1700806185,"current_range_meters":28000,"station_id":"ce4bh092rcd13ifvqd30","pricing_plan_id":"free"},{"bike_id":"9bb01d71-293b-46bc-981c-9337defc9603","system_id":"levelo_inurba_marseille","lat":43.309287,"lon":5.401429,"is_reserved":false,"is_disabled":false,"rental_uris":{"android":"levelo://app?vid=9bb01d71-293b-46bc-981c-9337defc9603","ios":"levelo://app?vid=9bb01d71-293b-46bc-981c-9337defc9603"},"vehicle_type_id":"4","last_reported":1700806185,"current_range_meters":0,"station_id":"ce4bgvp2rcd13ifvqct0","pricing_plan_id":"free"},{"bike_id":"15f89f6e-1744-4991-9f3f-5b0aedc727db","system_id":"levelo_inurba_marseille","lat":43.30642,"lon":5.401031,"is_reserved":false,"is_disabled":false,"rental_uris":{"android":"levelo://app?vid=15f89f6e-1744-4991-9f3f-5b0aedc727db","ios":"levelo://app?vid=15f89f6e-1744-4991-9f3f-5b0aedc727db"},"vehicle_type_id":"4","last_reported":1700806185,"current_range_meters":7200,"station_id":"ce4bh112rcd13ifvqda0","pricing_plan_id":"free"},{"bike_id":"b4a19056-8d22-426b-8049-f7ef026c14d6","system_id":"levelo_inurba_marseille","lat":43.30649,"lon":5.40086,"is_reserved":false,"is_disabled":false,"rental_uris":{"android":"levelo://app?vid=b4a19056-8d22-426b-8049-f7ef026c14d6","ios":"levelo://app?vid=b4a19056-8d22-426b-8049-f7ef026c14d6"},"vehicle_type_id":"4","last_reported":1700806185,"current_range_meters":6400,"station_id":"ce4bh112rcd13ifvqda0","pricing_plan_id":"free"},{"bike_id":"13821f61-09cf-4be6-a2ad-6af8b937add6","system_id":"levelo_inurba_marseille","lat":43.30642,"lon":5.401031,"is_reserved":false,"is_disabled":false,"rental_uris":{"android":"levelo://app?vid=13821f61-09cf-4be6-a2ad-6af8b937add6","ios":"levelo://app?vid=13821f61-09cf-4be6-a2ad-6af8b937add6"},"vehicle_type_id":"4","last_reported":1700806185,"current_range_meters":28800,"station_id":"ce4bh112rcd13ifvqda0","pricing_plan_id":"free"},{"bike_id":"f3e9bb17-7362-4bd7-b3a3-86e87bc2da85","system_id":"levelo_inurba_marseille","lat":43.30139,"lon":5.39886,"is_reserved":false,"is_disabled":false,"rental_uris":{"android":"levelo://app?vid=f3e9bb17-7362-4bd7-b3a3-86e87bc2da85","ios":"levelo://app?vid=f3e9bb17-7362-4bd7-b3a3-86e87bc2da85"},"vehicle_type_id":"4","last_reported":1700806185,"current_range_meters":23200,"station_id":"ce4bh0h2rcd13ifvqd40","pricing_plan_id":"free"},{"bike_id":"789f245e-0d24-4423-98a2-c122eabc0774","system_id":"levelo_inurba_marseille","lat":43.298681,"lon":5.397225,"is_reserved":false,"is_disabled":false,"rental_uris":{"android":"levelo://app?vid=789f245e-0d24-4423-98a2-c122eabc0774","ios":"levelo://app?vid=789f245e-0d24-4423-98a2-c122eabc0774"},"vehicle_type_id":"4","last_reported":1700806185,"current_range_meters":28800,"station_id":"ce4bh0h2rcd13ifvqd50","pricing_plan_id":"free"},{"bike_id":"51d9ff42-8d49-4e7e-82f4-832a7e2ba2e6","system_id":"levelo_inurba_marseille","lat":43.298681,"lon":5.397225,"is_reserved":false,"is_disabled":false,"rental_uris":{"android":"levelo://app?vid=51d9ff42-8d49-4e7e-82f4-832a7e2ba2e6","ios":"levelo://app?vid=51d9ff42-8d49-4e7e-82f4-832a7e2ba2e6"},"vehicle_type_id":"4","last_reported":1700806185,"current_range_meters":24800,"station_id":"ce4bh0h2rcd13ifvqd50","pricing_plan_id":"free"},{"bike_id":"0d495432-f149-4bfe-bd01-4350b4c6c3c4","system_id":"levelo_inurba_marseille","lat":43.298681,"lon":5.397225,"is_reserved":false,"is_disabled":false,"rental_uris":{"android":"levelo://app?vid=0d495432-f149-4bfe-bd01-4350b4c6c3c4","ios":"levelo://app?vid=0d495432-f149-4bfe-bd01-4350b4c6c3c4"},"vehicle_type_id":"4","last_reported":1700806185,"current_range_meters":16400,"station_id":"ce4bh0h2rcd13ifvqd50","pricing_plan_id":"free"},{"bike_id":"72d7d503-d45b-4049-bca9-999c55c09ada","system_id":"levelo_inurba_marseille","lat":43.298681,"lon":5.397225,"is_reserved":false,"is_disabled":false,"rental_uris":{"android":"levelo://app?vid=72d7d503-d45b-4049-bca9-999c55c09ada","ios":"levelo://app?vid=72d7d503-d45b-4049-bca9-999c55c09ada"},"vehicle_type_id":"4","last_reported":1700806185,"current_range_meters":30000,"station_id":"ce4bh0h2rcd13ifvqd50","pricing_plan_id":"free"},{"bike_id":"7897046b-410f-4683-a774-825ec5cf3f5a","system_id":"levelo_inurba_marseille","lat":43.298681,"lon":5.397225,"is_reserved":false,"is_disabled":false,"rental_uris":{"android":"levelo://app?vid=7897046b-410f-4683-a774-825ec5cf3f5a","ios":"levelo://app?vid=7897046b-410f-4683-a774-825ec5cf3f5a"},"vehicle_type_id":"4","last_reported":1700806185,"current_range_meters":31200,"station_id":"ce4bh0h2rcd13ifvqd50","pricing_plan_id":"free"},{"bike_id":"4870bc7e-0830-46f4-b613-008b2254213a","system_id":"levelo_inurba_marseille","lat":43.286955,"lon":5.373895,"is_reserved":false,"is_disabled":false,"rental_uris":{"android":"levelo://app?vid=4870bc7e-0830-46f4-b613-008b2254213a","ios":"levelo://app?vid=4870bc7e-0830-46f4-b613-008b2254213a"},"vehicle_type_id":"4","last_reported":1700806185,"current_range_meters":27200,"station_id":"ce4bh3p2rcd13ifvqdq0","pricing_plan_id":"free"},{"bike_id":"9b2a59e9-5411-4138-81d4-23f7f57b469e","system_id":"levelo_inurba_marseille","lat":43.298681,"lon":5.397225,"is_reserved":false,"is_disabled":false,"rental_uris":{"android":"levelo://app?vid=9b2a59e9-5411-4138-81d4-23f7f57b469e","ios":"levelo://app?vid=9b2a59e9-5411-4138-81d4-23f7f57b469e"},"vehicle_type_id":"4","last_reported":1700806185,"current_range_meters":27600,"station_id":"ce4bh0h2rcd13ifvqd50","pricing_plan_id":"free"},{"bike_id":"ce0f1727-baab-41a6-81a0-5bfeb614bf67","system_id":"levelo_inurba_marseille","lat":43.295194,"lon":5.39397,"is_reserved":false,"is_disabled":false,"rental_uris":{"android":"levelo://app?vid=ce0f1727-baab-41a6-81a0-5bfeb614bf67","ios":"levelo://app?vid=ce0f1727-baab-41a6-81a0-5bfeb614bf67"},"vehicle_type_id":"4","last_reported":1700806185,"current_range_meters":23600,"station_id":"ce4bh292rcd13ifvqdf0","pricing_plan_id":"free"},{"bike_id":"37aaf29f-3e13-4e93-9dd5-e900787c93d6","system_id":"levelo_inurba_marseille","lat":43.290338,"lon":5.386416,"is_reserved":false,"is_disabled":false,"rental_uris":{"android":"levelo://app?vid=37aaf29f-3e13-4e93-9dd5-e900787c93d6","ios":"levelo://app?vid=37aaf29f-3e13-4e93-9dd5-e900787c93d6"},"vehicle_type_id":"4","last_reported":1700806185,"current_range_meters":30000,"station_id":"ce4bh4p2rcd13ifvqe0g","pricing_plan_id":"free"},{"bike_id":"6c119f97-0bc4-4465-a95b-a1a269939fd0","system_id":"levelo_inurba_marseille","lat":43.30242,"lon":5.40052,"is_reserved":false,"is_disabled":false,"rental_uris":{"android":"levelo://app?vid=6c119f97-0bc4-4465-a95b-a1a269939fd0","ios":"levelo://app?vid=6c119f97-0bc4-4465-a95b-a1a269939fd0"},"vehicle_type_id":"4","last_reported":1700806185,"current_range_meters":16400,"station_id":"ce4bgvh2rcd13ifvqcs0","pricing_plan_id":"free"},{"bike_id":"7a363a39-a638-4309-bcbc-a334706df507","system_id":"levelo_inurba_marseille","lat":43.289307,"lon":5.38406,"is_reserved":false,"is_disabled":false,"rental_uris":{"android":"levelo://app?vid=7a363a39-a638-4309-bcbc-a334706df507","ios":"levelo://app?vid=7a363a39-a638-4309-bcbc-a334706df507"},"vehicle_type_id":"4","last_reported":1700806185,"current_range_meters":30000,"station_id":"ce4bh612rcd13ifvqe6g","pricing_plan_id":"free"},{"bike_id":"753ff696-6099-4a3f-85f2-61bca87c2afd","system_id":"levelo_inurba_marseille","lat":43.29033,"lon":5.38654,"is_reserved":false,"is_disabled":false,"rental_uris":{"android":"levelo://app?vid=753ff696-6099-4a3f-85f2-61bca87c2afd","ios":"levelo://app?vid=753ff696-6099-4a3f-85f2-61bca87c2afd"},"vehicle_type_id":"4","last_reported":1700806185,"current_range_meters":26400,"station_id":"ce4bh4p2rcd13ifvqe0g","pricing_plan_id":"free"},{"bike_id":"886a023c-36b1-4762-8cb5-fadb89beae90","system_id":"levelo_inurba_marseille","lat":43.2903,"lon":5.38652,"is_reserved":false,"is_disabled":false,"rental_uris":{"android":"levelo://app?vid=886a023c-36b1-4762-8cb5-fadb89beae90","ios":"levelo://app?vid=886a023c-36b1-4762-8cb5-fadb89beae90"},"vehicle_type_id":"4","last_reported":1700806185,"current_range_meters":15200,"station_id":"ce4bh4p2rcd13ifvqe0g","pricing_plan_id":"free"},{"bike_id":"1ae693de-018b-4f4c-a7a3-61c676cff68d","system_id":"levelo_inurba_marseille","lat":43.28607,"lon":5.37065,"is_reserved":false,"is_disabled":false,"rental_uris":{"android":"levelo://app?vid=1ae693de-018b-4f4c-a7a3-61c676cff68d","ios":"levelo://app?vid=1ae693de-018b-4f4c-a7a3-61c676cff68d"},"vehicle_type_id":"4","last_reported":1700806185,"current_range_meters":22400,"station_id":"ce4bht12rcd13ifvqi60","pricing_plan_id":"free"},{"bike_id":"1daa2c24-a822-4542-8826-c3e6f457a7a5","system_id":"levelo_inurba_marseille","lat":43.287185,"lon":5.379373,"is_reserved":false,"is_disabled":false,"rental_uris":{"android":"levelo://app?vid=1daa2c24-a822-4542-8826-c3e6f457a7a5","ios":"levelo://app?vid=1daa2c24-a822-4542-8826-c3e6f457a7a5"},"vehicle_type_id":"4","last_reported":1700806185,"current_range_meters":26800,"station_id":"ce4bh9p2rcd13ifvqec0","pricing_plan_id":"free"},{"bike_id":"bf4836a6-7745-4456-81ae-cb16b275d90a","system_id":"levelo_inurba_marseille","lat":43.287185,"lon":5.379373,"is_reserved":false,"is_disabled":false,"rental_uris":{"android":"levelo://app?vid=bf4836a6-7745-4456-81ae-cb16b275d90a","ios":"levelo://app?vid=bf4836a6-7745-4456-81ae-cb16b275d90a"},"vehicle_type_id":"4","last_reported":1700806185,"current_range_meters":28800,"station_id":"ce4bh9p2rcd13ifvqec0","pricing_plan_id":"free"},{"bike_id":"fec28779-1b6a-4b78-b9e5-bffa9fe82365","system_id":"levelo_inurba_marseille","lat":43.28716,"lon":5.3795,"is_reserved":false,"is_disabled":false,"rental_uris":{"android":"levelo://app?vid=fec28779-1b6a-4b78-b9e5-bffa9fe82365","ios":"levelo://app?vid=fec28779-1b6a-4b78-b9e5-bffa9fe82365"},"vehicle_type_id":"4","last_reported":1700806185,"current_range_meters":4800,"station_id":"ce4bh9p2rcd13ifvqec0","pricing_plan_id":"free"},{"bike_id":"4df11736-64a4-4c6c-b40d-1dcdc4c117d5","system_id":"levelo_inurba_marseille","lat":43.291994,"lon":5.392907,"is_reserved":false,"is_disabled":false,"rental_uris":{"android":"levelo://app?vid=4df11736-64a4-4c6c-b40d-1dcdc4c117d5","ios":"levelo://app?vid=4df11736-64a4-4c6c-b40d-1dcdc4c117d5"},"vehicle_type_id":"4","last_reported":1700806185,"current_range_meters":30000,"station_id":"ce4bh192rcd13ifvqdd0","pricing_plan_id":"free"},{"bike_id":"7bf3f37a-4347-4794-9111-51e649920683","system_id":"levelo_inurba_marseille","lat":43.29195,"lon":5.39321,"is_reserved":false,"is_disabled":false,"rental_uris":{"android":"levelo://app?vid=7bf3f37a-4347-4794-9111-51e649920683","ios":"levelo://app?vid=7bf3f37a-4347-4794-9111-51e649920683"},"vehicle_type_id":"4","last_reported":1700806185,"current_range_meters":31200,"station_id":"ce4bh192rcd13ifvqdd0","pricing_plan_id":"free"},{"bike_id":"104df853-2b11-4df3-9681-46c80ee6586a","system_id":"levelo_inurba_marseille","lat":43.291994,"lon":5.392907,"is_reserved":false,"is_disabled":false,"rental_uris":{"android":"levelo://app?vid=104df853-2b11-4df3-9681-46c80ee6586a","ios":"levelo://app?vid=104df853-2b11-4df3-9681-46c80ee6586a"},"vehicle_type_id":"4","last_reported":1700806185,"current_range_meters":26800,"station_id":"ce4bh192rcd13ifvqdd0","pricing_plan_id":"free"},{"bike_id":"d2c85743-2fa0-4c54-ae08-3f589d20a7d1","system_id":"levelo_inurba_marseille","lat":43.291994,"lon":5.392907,"is_reserved":false,"is_disabled":false,"rental_uris":{"android":"levelo://app?vid=d2c85743-2fa0-4c54-ae08-3f589d20a7d1","ios":"levelo://app?vid=d2c85743-2fa0-4c54-ae08-3f589d20a7d1"},"vehicle_type_id":"4","last_reported":1700806185,"current_range_meters":30400,"station_id":"ce4bh192rcd13ifvqdd0","pricing_plan_id":"free"},{"bike_id":"65536051-c83d-4e02-b4dd-4f1f369445db","system_id":"levelo_inurba_marseille","lat":43.284538,"lon":5.358657,"is_reserved":false,"is_disabled":false,"rental_uris":{"android":"levelo://app?vid=65536051-c83d-4e02-b4dd-4f1f369445db","ios":"levelo://app?vid=65536051-c83d-4e02-b4dd-4f1f369445db"},"vehicle_type_id":"4","last_reported":1700806185,"current_range_meters":27200,"station_id":"ce4bhah2rcd13ifvqei0","pricing_plan_id":"free"},{"bike_id":"34229c22-6060-49b5-82ec-c616f1f6c96f","system_id":"levelo_inurba_marseille","lat":43.284619,"lon":5.358901,"is_reserved":false,"is_disabled":false,"rental_uris":{"android":"levelo://app?vid=34229c22-6060-49b5-82ec-c616f1f6c96f","ios":"levelo://app?vid=34229c22-6060-49b5-82ec-c616f1f6c96f"},"vehicle_type_id":"4","last_reported":1700806185,"current_range_meters":31200,"station_id":"ce4bhah2rcd13ifvqei0","pricing_plan_id":"free"},{"bike_id":"4a39321a-10e3-4a8b-a83a-7fd75c06c1b9","system_id":"levelo_inurba_marseille","lat":43.284585,"lon":5.358918,"is_reserved":false,"is_disabled":false,"rental_uris":{"android":"levelo://app?vid=4a39321a-10e3-4a8b-a83a-7fd75c06c1b9","ios":"levelo://app?vid=4a39321a-10e3-4a8b-a83a-7fd75c06c1b9"},"vehicle_type_id":"4","last_reported":1700806185,"current_range_meters":25600,"station_id":"ce4bhah2rcd13ifvqei0","pricing_plan_id":"free"},{"bike_id":"a743f456-5a41-43d8-9e15-7dda4b853e2e","system_id":"levelo_inurba_marseille","lat":43.284589,"lon":5.358868,"is_reserved":false,"is_disabled":false,"rental_uris":{"android":"levelo://app?vid=a743f456-5a41-43d8-9e15-7dda4b853e2e","ios":"levelo://app?vid=a743f456-5a41-43d8-9e15-7dda4b853e2e"},"vehicle_type_id":"4","last_reported":1700806185,"current_range_meters":5600,"station_id":"ce4bhah2rcd13ifvqei0","pricing_plan_id":"free"},{"bike_id":"5adad94a-a6bc-4944-a8aa-264ec23de7ca","system_id":"levelo_inurba_marseille","lat":43.284585,"lon":5.35889,"is_reserved":false,"is_disabled":false,"rental_uris":{"android":"levelo://app?vid=5adad94a-a6bc-4944-a8aa-264ec23de7ca","ios":"levelo://app?vid=5adad94a-a6bc-4944-a8aa-264ec23de7ca"},"vehicle_type_id":"4","last_reported":1700806185,"current_range_meters":30000,"station_id":"ce4bhah2rcd13ifvqei0","pricing_plan_id":"free"},{"bike_id":"784358dc-49f6-42c1-afba-f0f5845464c8","system_id":"levelo_inurba_marseille","lat":43.284574,"lon":5.358939,"is_reserved":false,"is_disabled":false,"rental_uris":{"android":"levelo://app?vid=784358dc-49f6-42c1-afba-f0f5845464c8","ios":"levelo://app?vid=784358dc-49f6-42c1-afba-f0f5845464c8"},"vehicle_type_id":"4","last_reported":1700806185,"current_range_meters":11600,"station_id":"ce4bhah2rcd13ifvqei0","pricing_plan_id":"free"},{"bike_id":"3a6fe209-cb39-4ae8-8e68-8efb8756b9e2","system_id":"levelo_inurba_marseille","lat":43.284534,"lon":5.358662,"is_reserved":false,"is_disabled":false,"rental_uris":{"android":"levelo://app?vid=3a6fe209-cb39-4ae8-8e68-8efb8756b9e2","ios":"levelo://app?vid=3a6fe209-cb39-4ae8-8e68-8efb8756b9e2"},"vehicle_type_id":"4","last_reported":1700806185,"current_range_meters":28800,"station_id":"ce4bhah2rcd13ifvqei0","pricing_plan_id":"free"},{"bike_id":"740f9c17-1e68-41cb-8a69-ab31f3921aad","system_id":"levelo_inurba_marseille","lat":43.284534,"lon":5.358662,"is_reserved":false,"is_disabled":false,"rental_uris":{"android":"levelo://app?vid=740f9c17-1e68-41cb-8a69-ab31f3921aad","ios":"levelo://app?vid=740f9c17-1e68-41cb-8a69-ab31f3921aad"},"vehicle_type_id":"4","last_reported":1700806185,"current_range_meters":31600,"station_id":"ce4bhah2rcd13ifvqei0","pricing_plan_id":"free"},{"bike_id":"bb23c365-8d4d-456e-b94a-f09375cb591e","system_id":"levelo_inurba_marseille","lat":43.284534,"lon":5.358662,"is_reserved":false,"is_disabled":false,"rental_uris":{"android":"levelo://app?vid=bb23c365-8d4d-456e-b94a-f09375cb591e","ios":"levelo://app?vid=bb23c365-8d4d-456e-b94a-f09375cb591e"},"vehicle_type_id":"4","last_reported":1700806185,"current_range_meters":29200,"station_id":"ce4bhah2rcd13ifvqei0","pricing_plan_id":"free"},{"bike_id":"dd4d0354-701d-45d1-a939-7c544586742c","system_id":"levelo_inurba_marseille","lat":43.28456,"lon":5.35886,"is_reserved":false,"is_disabled":false,"rental_uris":{"android":"levelo://app?vid=dd4d0354-701d-45d1-a939-7c544586742c","ios":"levelo://app?vid=dd4d0354-701d-45d1-a939-7c544586742c"},"vehicle_type_id":"4","last_reported":1700806185,"current_range_meters":10800,"station_id":"ce4bhah2rcd13ifvqei0","pricing_plan_id":"free"},{"bike_id":"6d8ad3e9-27de-45c0-a3bc-e1ae0e08cf38","system_id":"levelo_inurba_marseille","lat":43.3189,"lon":5.40744,"is_reserved":false,"is_disabled":false,"rental_uris":{"android":"levelo://app?vid=6d8ad3e9-27de-45c0-a3bc-e1ae0e08cf38","ios":"levelo://app?vid=6d8ad3e9-27de-45c0-a3bc-e1ae0e08cf38"},"vehicle_type_id":"4","last_reported":1700806185,"current_range_meters":11600,"station_id":"ce4bhq12rcd13ifvqhig","pricing_plan_id":"free"},{"bike_id":"eb1529ca-da88-4ad1-8623-8a2076d8e5f7","system_id":"levelo_inurba_marseille","lat":43.323464,"lon":5.406297,"is_reserved":false,"is_disabled":false,"rental_uris":{"android":"levelo://app?vid=eb1529ca-da88-4ad1-8623-8a2076d8e5f7","ios":"levelo://app?vid=eb1529ca-da88-4ad1-8623-8a2076d8e5f7"},"vehicle_type_id":"4","last_reported":1700806185,"current_range_meters":30400,"station_id":"ce4bhq92rcd13ifvqhjg","pricing_plan_id":"free"},{"bike_id":"d9785b0c-0523-4b8b-9f28-f29210b1a5eb","system_id":"levelo_inurba_marseille","lat":43.32343,"lon":5.40621,"is_reserved":false,"is_disabled":false,"rental_uris":{"android":"levelo://app?vid=d9785b0c-0523-4b8b-9f28-f29210b1a5eb","ios":"levelo://app?vid=d9785b0c-0523-4b8b-9f28-f29210b1a5eb"},"vehicle_type_id":"4","last_reported":1700806185,"current_range_meters":27600,"station_id":"ce4bhq92rcd13ifvqhjg","pricing_plan_id":"free"},{"bike_id":"63dbf774-5c80-4a84-a346-941d58ca3143","system_id":"levelo_inurba_marseille","lat":43.28483,"lon":5.38426,"is_reserved":false,"is_disabled":false,"rental_uris":{"android":"levelo://app?vid=63dbf774-5c80-4a84-a346-941d58ca3143","ios":"levelo://app?vid=63dbf774-5c80-4a84-a346-941d58ca3143"},"vehicle_type_id":"4","last_reported":1700806185,"current_range_meters":28800,"station_id":"ce4bh512rcd13ifvqe3g","pricing_plan_id":"free"},{"bike_id":"78421027-129e-40ac-918b-e0ba1e667879","system_id":"levelo_inurba_marseille","lat":43.2847,"lon":5.38412,"is_reserved":false,"is_disabled":false,"rental_uris":{"android":"levelo://app?vid=78421027-129e-40ac-918b-e0ba1e667879","ios":"levelo://app?vid=78421027-129e-40ac-918b-e0ba1e667879"},"vehicle_type_id":"4","last_reported":1700806185,"current_range_meters":20800,"station_id":"ce4bh512rcd13ifvqe3g","pricing_plan_id":"free"},{"bike_id":"2070acb7-bcbb-4403-ba6a-18ccd4033915","system_id":"levelo_inurba_marseille","lat":43.29795,"lon":5.404086,"is_reserved":false,"is_disabled":false,"rental_uris":{"android":"levelo://app?vid=2070acb7-bcbb-4403-ba6a-18ccd4033915","ios":"levelo://app?vid=2070acb7-bcbb-4403-ba6a-18ccd4033915"},"vehicle_type_id":"4","last_reported":1700806185,"current_range_meters":30400,"station_id":"ce4bh112rcd13ifvqd90","pricing_plan_id":"free"},{"bike_id":"2e91d885-fe11-4995-b6eb-f767ea4dc383","system_id":"levelo_inurba_marseille","lat":43.29795,"lon":5.404086,"is_reserved":false,"is_disabled":false,"rental_uris":{"android":"levelo://app?vid=2e91d885-fe11-4995-b6eb-f767ea4dc383","ios":"levelo://app?vid=2e91d885-fe11-4995-b6eb-f767ea4dc383"},"vehicle_type_id":"4","last_reported":1700806185,"current_range_meters":22000,"station_id":"ce4bh112rcd13ifvqd90","pricing_plan_id":"free"},{"bike_id":"7aa5e2ac-a765-47ab-a9c5-33ab7c387a75","system_id":"levelo_inurba_marseille","lat":43.283494,"lon":5.380945,"is_reserved":false,"is_disabled":false,"rental_uris":{"android":"levelo://app?vid=7aa5e2ac-a765-47ab-a9c5-33ab7c387a75","ios":"levelo://app?vid=7aa5e2ac-a765-47ab-a9c5-33ab7c387a75"},"vehicle_type_id":"4","last_reported":1700806185,"current_range_meters":29600,"station_id":"ce4bh412rcd13ifvqdr0","pricing_plan_id":"free"},{"bike_id":"fc231c5f-d015-44c9-bf62-cb4400e16e74","system_id":"levelo_inurba_marseille","lat":43.28861,"lon":5.39372,"is_reserved":false,"is_disabled":false,"rental_uris":{"android":"levelo://app?vid=fc231c5f-d015-44c9-bf62-cb4400e16e74","ios":"levelo://app?vid=fc231c5f-d015-44c9-bf62-cb4400e16e74"},"vehicle_type_id":"4","last_reported":1700806185,"current_range_meters":13200,"station_id":"","pricing_plan_id":"free"},{"bike_id":"e2284003-4e46-4e0a-93e7-73d05c3666d9","system_id":"levelo_inurba_marseille","lat":43.33479,"lon":5.39788,"is_reserved":false,"is_disabled":false,"rental_uris":{"android":"levelo://app?vid=e2284003-4e46-4e0a-93e7-73d05c3666d9","ios":"levelo://app?vid=e2284003-4e46-4e0a-93e7-73d05c3666d9"},"vehicle_type_id":"4","last_reported":1700806185,"current_range_meters":25600,"station_id":"","pricing_plan_id":"free"},{"bike_id":"7f16c57a-82f5-472a-ab12-21a6703717ca","system_id":"levelo_inurba_marseille","lat":43.289363,"lon":5.396322,"is_reserved":false,"is_disabled":false,"rental_uris":{"android":"levelo://app?vid=7f16c57a-82f5-472a-ab12-21a6703717ca","ios":"levelo://app?vid=7f16c57a-82f5-472a-ab12-21a6703717ca"},"vehicle_type_id":"4","last_reported":1700806185,"current_range_meters":28000,"station_id":"ce4bh3h2rcd13ifvqdn0","pricing_plan_id":"free"},{"bike_id":"b4bc6c19-20e6-4b1e-b989-40d4ba171e93","system_id":"levelo_inurba_marseille","lat":43.33527,"lon":5.397558,"is_reserved":false,"is_disabled":false,"rental_uris":{"android":"levelo://app?vid=b4bc6c19-20e6-4b1e-b989-40d4ba171e93","ios":"levelo://app?vid=b4bc6c19-20e6-4b1e-b989-40d4ba171e93"},"vehicle_type_id":"4","last_reported":1700806185,"current_range_meters":6800,"station_id":"","pricing_plan_id":"free"},{"bike_id":"c7138fcb-a62c-4520-b5a2-dce76e526cc1","system_id":"levelo_inurba_marseille","lat":43.292685,"lon":5.40126,"is_reserved":false,"is_disabled":false,"rental_uris":{"android":"levelo://app?vid=c7138fcb-a62c-4520-b5a2-dce76e526cc1","ios":"levelo://app?vid=c7138fcb-a62c-4520-b5a2-dce76e526cc1"},"vehicle_type_id":"4","last_reported":1700806185,"current_range_meters":27600,"station_id":"ce4bh312rcd13ifvqdk0","pricing_plan_id":"free"},{"bike_id":"e5bbb8fe-81fb-484e-8e21-9ee50ab8036f","system_id":"levelo_inurba_marseille","lat":43.282675,"lon":5.350755,"is_reserved":false,"is_disabled":false,"rental_uris":{"android":"levelo://app?vid=e5bbb8fe-81fb-484e-8e21-9ee50ab8036f","ios":"levelo://app?vid=e5bbb8fe-81fb-484e-8e21-9ee50ab8036f"},"vehicle_type_id":"4","last_reported":1700806185,"current_range_meters":27600,"station_id":"ce4bhbp2rcd13ifvqerg","pricing_plan_id":"free"},{"bike_id":"5bd64c01-7024-4992-89f7-444df0fb7af5","system_id":"levelo_inurba_marseille","lat":43.282754,"lon":5.350519,"is_reserved":false,"is_disabled":false,"rental_uris":{"android":"levelo://app?vid=5bd64c01-7024-4992-89f7-444df0fb7af5","ios":"levelo://app?vid=5bd64c01-7024-4992-89f7-444df0fb7af5"},"vehicle_type_id":"4","last_reported":1700806185,"current_range_meters":31200,"station_id":"ce4bhbp2rcd13ifvqerg","pricing_plan_id":"free"},{"bike_id":"cc85afd8-23f2-4489-be9e-43dde56b8c74","system_id":"levelo_inurba_marseille","lat":43.282754,"lon":5.350519,"is_reserved":false,"is_disabled":false,"rental_uris":{"android":"levelo://app?vid=cc85afd8-23f2-4489-be9e-43dde56b8c74","ios":"levelo://app?vid=cc85afd8-23f2-4489-be9e-43dde56b8c74"},"vehicle_type_id":"4","last_reported":1700806185,"current_range_meters":25200,"station_id":"ce4bhbp2rcd13ifvqerg","pricing_plan_id":"free"},{"bike_id":"db927534-230a-4c4e-ba4b-6e34d5468c87","system_id":"levelo_inurba_marseille","lat":43.282754,"lon":5.350519,"is_reserved":false,"is_disabled":false,"rental_uris":{"android":"levelo://app?vid=db927534-230a-4c4e-ba4b-6e34d5468c87","ios":"levelo://app?vid=db927534-230a-4c4e-ba4b-6e34d5468c87"},"vehicle_type_id":"4","last_reported":1700806185,"current_range_meters":6400,"station_id":"ce4bhbp2rcd13ifvqerg","pricing_plan_id":"free"},{"bike_id":"20f5d6c2-8e8d-4ab2-91eb-d6d4f0485cbe","system_id":"levelo_inurba_marseille","lat":43.282744,"lon":5.350533,"is_reserved":false,"is_disabled":false,"rental_uris":{"android":"levelo://app?vid=20f5d6c2-8e8d-4ab2-91eb-d6d4f0485cbe","ios":"levelo://app?vid=20f5d6c2-8e8d-4ab2-91eb-d6d4f0485cbe"},"vehicle_type_id":"4","last_reported":1700806185,"current_range_meters":28800,"station_id":"ce4bhbp2rcd13ifvqerg","pricing_plan_id":"free"},{"bike_id":"09a59dfd-c6f5-490b-9384-63a9168cc523","system_id":"levelo_inurba_marseille","lat":43.283502,"lon":5.386471,"is_reserved":false,"is_disabled":false,"rental_uris":{"android":"levelo://app?vid=09a59dfd-c6f5-490b-9384-63a9168cc523","ios":"levelo://app?vid=09a59dfd-c6f5-490b-9384-63a9168cc523"},"vehicle_type_id":"4","last_reported":1700806185,"current_range_meters":23200,"station_id":"ce4bh492rcd13ifvqdvg","pricing_plan_id":"free"},{"bike_id":"d3563ad8-da2c-464a-83a9-df1757509cf7","system_id":"levelo_inurba_marseille","lat":43.280382,"lon":5.369291,"is_reserved":false,"is_disabled":false,"rental_uris":{"android":"levelo://app?vid=d3563ad8-da2c-464a-83a9-df1757509cf7","ios":"levelo://app?vid=d3563ad8-da2c-464a-83a9-df1757509cf7"},"vehicle_type_id":"4","last_reported":1700806185,"current_range_meters":28000,"station_id":"ce4bha12rcd13ifvqef0","pricing_plan_id":"free"},{"bike_id":"857c10bc-5c00-4848-aed1-ce3268427462","system_id":"levelo_inurba_marseille","lat":43.28039,"lon":5.369297,"is_reserved":false,"is_disabled":false,"rental_uris":{"android":"levelo://app?vid=857c10bc-5c00-4848-aed1-ce3268427462","ios":"levelo://app?vid=857c10bc-5c00-4848-aed1-ce3268427462"},"vehicle_type_id":"4","last_reported":1700806185,"current_range_meters":30800,"station_id":"ce4bha12rcd13ifvqef0","pricing_plan_id":"free"},{"bike_id":"9944a477-c69b-40a2-8e67-0658fc75a8a1","system_id":"levelo_inurba_marseille","lat":43.281044,"lon":5.378308,"is_reserved":false,"is_disabled":false,"rental_uris":{"android":"levelo://app?vid=9944a477-c69b-40a2-8e67-0658fc75a8a1","ios":"levelo://app?vid=9944a477-c69b-40a2-8e67-0658fc75a8a1"},"vehicle_type_id":"4","last_reported":1700806185,"current_range_meters":31200,"station_id":"ce4bha12rcd13ifvqee0","pricing_plan_id":"free"},{"bike_id":"099b481f-e727-4d08-a69d-626f0208bde7","system_id":"levelo_inurba_marseille","lat":43.281044,"lon":5.378308,"is_reserved":false,"is_disabled":false,"rental_uris":{"android":"levelo://app?vid=099b481f-e727-4d08-a69d-626f0208bde7","ios":"levelo://app?vid=099b481f-e727-4d08-a69d-626f0208bde7"},"vehicle_type_id":"4","last_reported":1700806185,"current_range_meters":31200,"station_id":"ce4bha12rcd13ifvqee0","pricing_plan_id":"free"},{"bike_id":"9ff350e0-938d-4ef8-81e3-2e41785c57d3","system_id":"levelo_inurba_marseille","lat":43.281044,"lon":5.378308,"is_reserved":false,"is_disabled":false,"rental_uris":{"android":"levelo://app?vid=9ff350e0-938d-4ef8-81e3-2e41785c57d3","ios":"levelo://app?vid=9ff350e0-938d-4ef8-81e3-2e41785c57d3"},"vehicle_type_id":"4","last_reported":1700806185,"current_range_meters":31200,"station_id":"ce4bha12rcd13ifvqee0","pricing_plan_id":"free"},{"bike_id":"cf5d30b1-9794-410f-bdb2-a059130d5411","system_id":"levelo_inurba_marseille","lat":43.29632,"lon":5.40603,"is_reserved":false,"is_disabled":false,"rental_uris":{"android":"levelo://app?vid=cf5d30b1-9794-410f-bdb2-a059130d5411","ios":"levelo://app?vid=cf5d30b1-9794-410f-bdb2-a059130d5411"},"vehicle_type_id":"4","last_reported":1700806185,"current_range_meters":18800,"station_id":"ce4bh0h2rcd13ifvqd60","pricing_plan_id":"free"},{"bike_id":"fc280352-c151-4eae-b2d4-6507b730bd68","system_id":"levelo_inurba_marseille","lat":43.281044,"lon":5.378308,"is_reserved":false,"is_disabled":false,"rental_uris":{"android":"levelo://app?vid=fc280352-c151-4eae-b2d4-6507b730bd68","ios":"levelo://app?vid=fc280352-c151-4eae-b2d4-6507b730bd68"},"vehicle_type_id":"4","last_reported":1700806185,"current_range_meters":30400,"station_id":"ce4bha12rcd13ifvqee0","pricing_plan_id":"free"},{"bike_id":"798da89f-d49c-40a4-91c1-9dbb1c2ca304","system_id":"levelo_inurba_marseille","lat":43.284435,"lon":5.39181,"is_reserved":false,"is_disabled":false,"rental_uris":{"android":"levelo://app?vid=798da89f-d49c-40a4-91c1-9dbb1c2ca304","ios":"levelo://app?vid=798da89f-d49c-40a4-91c1-9dbb1c2ca304"},"vehicle_type_id":"4","last_reported":1700806185,"current_range_meters":12400,"station_id":"ce4bhoh2rcd13ifvqh5g","pricing_plan_id":"free"},{"bike_id":"983911b0-09e9-4271-9035-1e4fe3da8518","system_id":"levelo_inurba_marseille","lat":43.28443,"lon":5.39181,"is_reserved":false,"is_disabled":false,"rental_uris":{"android":"levelo://app?vid=983911b0-09e9-4271-9035-1e4fe3da8518","ios":"levelo://app?vid=983911b0-09e9-4271-9035-1e4fe3da8518"},"vehicle_type_id":"4","last_reported":1700806185,"current_range_meters":23600,"station_id":"ce4bhoh2rcd13ifvqh5g","pricing_plan_id":"free"},{"bike_id":"42d0a86a-269a-433c-901f-35b3cdabe607","system_id":"levelo_inurba_marseille","lat":43.284462,"lon":5.392121,"is_reserved":false,"is_disabled":false,"rental_uris":{"android":"levelo://app?vid=42d0a86a-269a-433c-901f-35b3cdabe607","ios":"levelo://app?vid=42d0a86a-269a-433c-901f-35b3cdabe607"},"vehicle_type_id":"4","last_reported":1700806185,"current_range_meters":24800,"station_id":"ce4bhoh2rcd13ifvqh5g","pricing_plan_id":"free"},{"bike_id":"737a4ea0-424f-4df7-9ce9-e816cf874adc","system_id":"levelo_inurba_marseille","lat":43.284462,"lon":5.392121,"is_reserved":false,"is_disabled":false,"rental_uris":{"android":"levelo://app?vid=737a4ea0-424f-4df7-9ce9-e816cf874adc","ios":"levelo://app?vid=737a4ea0-424f-4df7-9ce9-e816cf874adc"},"vehicle_type_id":"4","last_reported":1700806185,"current_range_meters":28000,"station_id":"ce4bhoh2rcd13ifvqh5g","pricing_plan_id":"free"},{"bike_id":"db563756-c108-4bef-a217-b096ebb2383a","system_id":"levelo_inurba_marseille","lat":43.285742,"lon":5.395004,"is_reserved":false,"is_disabled":false,"rental_uris":{"android":"levelo://app?vid=db563756-c108-4bef-a217-b096ebb2383a","ios":"levelo://app?vid=db563756-c108-4bef-a217-b096ebb2383a"},"vehicle_type_id":"4","last_reported":1700806185,"current_range_meters":24400,"station_id":"ce4bh292rcd13ifvqdg0","pricing_plan_id":"free"},{"bike_id":"63b71efd-2ca9-4d7c-92cb-eb0a53b9baf8","system_id":"levelo_inurba_marseille","lat":43.28573,"lon":5.394992,"is_reserved":false,"is_disabled":false,"rental_uris":{"android":"levelo://app?vid=63b71efd-2ca9-4d7c-92cb-eb0a53b9baf8","ios":"levelo://app?vid=63b71efd-2ca9-4d7c-92cb-eb0a53b9baf8"},"vehicle_type_id":"4","last_reported":1700806185,"current_range_meters":30000,"station_id":"ce4bh292rcd13ifvqdg0","pricing_plan_id":"free"},{"bike_id":"4d2c4986-a797-4c4a-b1ef-86d4126b90fd","system_id":"levelo_inurba_marseille","lat":43.285742,"lon":5.395004,"is_reserved":false,"is_disabled":false,"rental_uris":{"android":"levelo://app?vid=4d2c4986-a797-4c4a-b1ef-86d4126b90fd","ios":"levelo://app?vid=4d2c4986-a797-4c4a-b1ef-86d4126b90fd"},"vehicle_type_id":"4","last_reported":1700806185,"current_range_meters":29600,"station_id":"ce4bh292rcd13ifvqdg0","pricing_plan_id":"free"},{"bike_id":"3a26fe18-494c-4d34-8460-bc835cfd3ea9","system_id":"levelo_inurba_marseille","lat":43.28573,"lon":5.394992,"is_reserved":false,"is_disabled":false,"rental_uris":{"android":"levelo://app?vid=3a26fe18-494c-4d34-8460-bc835cfd3ea9","ios":"levelo://app?vid=3a26fe18-494c-4d34-8460-bc835cfd3ea9"},"vehicle_type_id":"4","last_reported":1700806185,"current_range_meters":31200,"station_id":"ce4bh292rcd13ifvqdg0","pricing_plan_id":"free"},{"bike_id":"3812ce09-b520-4e72-9c2f-a19ad2e1a23c","system_id":"levelo_inurba_marseille","lat":43.28573,"lon":5.394992,"is_reserved":false,"is_disabled":false,"rental_uris":{"android":"levelo://app?vid=3812ce09-b520-4e72-9c2f-a19ad2e1a23c","ios":"levelo://app?vid=3812ce09-b520-4e72-9c2f-a19ad2e1a23c"},"vehicle_type_id":"4","last_reported":1700806185,"current_range_meters":31200,"station_id":"ce4bh292rcd13ifvqdg0","pricing_plan_id":"free"},{"bike_id":"26d9dd0f-4680-4cf6-aa48-b25849077d5e","system_id":"levelo_inurba_marseille","lat":43.326571,"lon":5.409947,"is_reserved":false,"is_disabled":false,"rental_uris":{"android":"levelo://app?vid=26d9dd0f-4680-4cf6-aa48-b25849077d5e","ios":"levelo://app?vid=26d9dd0f-4680-4cf6-aa48-b25849077d5e"},"vehicle_type_id":"4","last_reported":1700806185,"current_range_meters":16400,"station_id":"ce4bhpp2rcd13ifvqhgg","pricing_plan_id":"free"},{"bike_id":"e8997d84-e9e0-4aaa-a76a-c6d2af7271c7","system_id":"levelo_inurba_marseille","lat":43.298803,"lon":5.410237,"is_reserved":false,"is_disabled":false,"rental_uris":{"android":"levelo://app?vid=e8997d84-e9e0-4aaa-a76a-c6d2af7271c7","ios":"levelo://app?vid=e8997d84-e9e0-4aaa-a76a-c6d2af7271c7"},"vehicle_type_id":"4","last_reported":1700806185,"current_range_meters":1200,"station_id":"","pricing_plan_id":"free"},{"bike_id":"4989a061-819e-4989-812f-08946c6f6655","system_id":"levelo_inurba_marseille","lat":43.279087,"lon":5.380114,"is_reserved":false,"is_disabled":false,"rental_uris":{"android":"levelo://app?vid=4989a061-819e-4989-812f-08946c6f6655","ios":"levelo://app?vid=4989a061-819e-4989-812f-08946c6f6655"},"vehicle_type_id":"4","last_reported":1700806185,"current_range_meters":28800,"station_id":"ce4bhf92rcd13ifvqf50","pricing_plan_id":"free"},{"bike_id":"c7b3263e-61f2-4650-bad5-7e4d29330e3e","system_id":"levelo_inurba_marseille","lat":43.28713,"lon":5.39992,"is_reserved":false,"is_disabled":false,"rental_uris":{"android":"levelo://app?vid=c7b3263e-61f2-4650-bad5-7e4d29330e3e","ios":"levelo://app?vid=c7b3263e-61f2-4650-bad5-7e4d29330e3e"},"vehicle_type_id":"4","last_reported":1700806185,"current_range_meters":6400,"station_id":"ce4bho92rcd13ifvqh3g","pricing_plan_id":"free"},{"bike_id":"13739a16-b1dd-40fc-8f77-ce9a93683199","system_id":"levelo_inurba_marseille","lat":43.287154,"lon":5.399979,"is_reserved":false,"is_disabled":false,"rental_uris":{"android":"levelo://app?vid=13739a16-b1dd-40fc-8f77-ce9a93683199","ios":"levelo://app?vid=13739a16-b1dd-40fc-8f77-ce9a93683199"},"vehicle_type_id":"4","last_reported":1700806185,"current_range_meters":23200,"station_id":"ce4bho92rcd13ifvqh3g","pricing_plan_id":"free"},{"bike_id":"a8e2b52b-9ba9-4b70-bcb4-1e1ad46ab6fe","system_id":"levelo_inurba_marseille","lat":43.299393,"lon":5.413208,"is_reserved":false,"is_disabled":false,"rental_uris":{"android":"levelo://app?vid=a8e2b52b-9ba9-4b70-bcb4-1e1ad46ab6fe","ios":"levelo://app?vid=a8e2b52b-9ba9-4b70-bcb4-1e1ad46ab6fe"},"vehicle_type_id":"4","last_reported":1700806185,"current_range_meters":28400,"station_id":"ce4bhp12rcd13ifvqh9g","pricing_plan_id":"free"},