{"last_updated":1686855948,"ttl":30,"version":"2.2","data":{"bikes":[{"bike_id":"a142fcc1-dd44-4e45-a4d3-f750f9811ffe","system_id":"levelo_inurba_marseille","lat":43.31223,"lon":5.36804,"is_reserved":false,"is_disabled":false,"rental_uris":{"android":"levelo://app?vid=a142fcc1-dd44-4e45-a4d3-f750f9811ffe","ios":"levelo://app?vid=a142fcc1-dd44-4e45-a4d3-f750f9811ffe"},"vehicle_type_id":"4","last_reported":1686855949,"current_range_meters":1600,"station_id":"","pricing_plan_id":"free"},{"bike_id":"8027d231-ec6b-48b1-94b7-69925bb6e95a","system_id":"levelo_inurba_marseille","lat":43.312239,"lon":5.368562,"is_reserved":false,"is_disabled":false,"rental_uris":{"android":"levelo://app?vid=8027d231-ec6b-48b1-94b7-69925bb6e95a","ios":"levelo://app?vid=8027d231-ec6b-48b1-94b7-69925bb6e95a"},"vehicle_type_id":"4","last_reported":1686855949,"current_range_meters":24000,"station_id":"ce4bgl92rcd13ifvqbq0","pricing_plan_id":"free"},{"bike_id":"29df71a8-8cc3-4146-8eeb-3010f117f612","system_id":"levelo_inurba_marseille","lat":43.312239,"lon":5.368562,"is_reserved":false,"is_disabled":false,"rental_uris":{"android":"levelo://app?vid=29df71a8-8cc3-4146-8eeb-3010f117f612","ios":"levelo://app?vid=29df71a8-8cc3-4146-8eeb-3010f117f612"},"vehicle_type_id":"4","last_reported":1686855949,"current_range_meters":9200,"station_id":"ce4bgl92rcd13ifvqbq0","pricing_plan_id":"free"},{"bike_id":"92658df3-8580-4350-afb6-208f4ebe206b","system_id":"levelo_inurba_marseille","lat":43.312239,"lon":5.368562,"is_reserved":false,"is_disabled":false,"rental_uris":{"android":"levelo://app?vid=92658df3-8580-4350-afb6-208f4ebe206b","ios":"levelo://app?vid=92658df3-8580-4350-afb6-208f4ebe206b"},"vehicle_type_id":"4","last_reported":1686855949,"current_range_meters":24400,"station_id":"ce4bgl92rcd13ifvqbq0","pricing_plan_id":"free"},{"bike_id":"3a12f2f1-d422-423c-8b91-8fef76650935","system_id":"levelo_inurba_marseille","lat":43.312239,"lon":5.368562,"is_reserved":false,"is_disabled":false,"rental_uris":{"android":"levelo://app?vid=3a12f2f1-d422-423c-8b91-8fef76650935","ios":"levelo://app?vid=3a12f2f1-d422-423c-8b91-8fef76650935"},"vehicle_type_id":"4","last_reported":1686855949,"current_range_meters":14400,"station_id":"ce4bgl92rcd13ifvqbq0","pricing_plan_id":"free"},{"bike_id":"13e0c0e9-cb51-466f-b37c-0e7fcb0ba298","system_id":"levelo_inurba_marseille","lat":43.314811,"lon":5.373103,"is_reserved":false,"is_disabled":false,"rental_uris":{"android":"levelo://app?vid=13e0c0e9-cb51-466f-b37c-0e7fcb0ba298","ios":"levelo://app?vid=13e0c0e9-cb51-466f-b37c-0e7fcb0ba298"},"vehicle_type_id":"4","last_reported":1686855949,"current_range_meters":27600,"station_id":"ce4bgt12rcd13ifvqcd0","pricing_plan_id":"free"},{"bike_id":"ffa243d7-5d5a-4393-b530-320522627e2a","system_id":"levelo_inurba_marseille","lat":43.31044,"lon":5.37306,"is_reserved":false,"is_disabled":false,"rental_uris":{"android":"levelo://app?vid=ffa243d7-5d5a-4393-b530-320522627e2a","ios":"levelo://app?vid=ffa243d7-5d5a-4393-b530-320522627e2a"},"vehicle_type_id":"4","last_reported":1686855949,"current_range_meters":8000,"station_id":"ce4bhs92rcd13ifvqi0g","pricing_plan_id":"free"},{"bike_id":"8aff7ee8-4982-47ce-ba68-8a9c85e318b5","system_id":"levelo_inurba_marseille","lat":43.308606,"lon":5.372099,"is_reserved":false,"is_disabled":false,"rental_uris":{"android":"levelo://app?vid=8aff7ee8-4982-47ce-ba68-8a9c85e318b5","ios":"levelo://app?vid=8aff7ee8-4982-47ce-ba68-8a9c85e318b5"},"vehicle_type_id":"4","last_reported":1686855949,"current_range_meters":19200,"station_id":"ce4bguh2rcd13ifvqckg","pricing_plan_id":"free"},{"bike_id":"62a16ded-80f4-4bd3-bd5b-2d4d4594bc61","system_id":"levelo_inurba_marseille","lat":43.305989,"lon":5.37225,"is_reserved":false,"is_disabled":false,"rental_uris":{"android":"levelo://app?vid=62a16ded-80f4-4bd3-bd5b-2d4d4594bc61","ios":"levelo://app?vid=62a16ded-80f4-4bd3-bd5b-2d4d4594bc61"},"vehicle_type_id":"4","last_reported":1686855949,"current_range_meters":1600,"station_id":"ce4bgqh2rcd13ifvqc4g","pricing_plan_id":"free"},{"bike_id":"d56b9062-64cf-49a5-a51e-675078ee61ba","system_id":"levelo_inurba_marseille","lat":43.31707,"lon":5.37748,"is_reserved":false,"is_disabled":false,"rental_uris":{"android":"levelo://app?vid=d56b9062-64cf-49a5-a51e-675078ee61ba","ios":"levelo://app?vid=d56b9062-64cf-49a5-a51e-675078ee61ba"},"vehicle_type_id":"4","last_reported":1686855949,"current_range_meters":24400,"station_id":"ce4bgth2rcd13ifvqch0","pricing_plan_id":"free"},{"bike_id":"ef015a1a-dd6b-46b7-95b3-df8348895855","system_id":"levelo_inurba_marseille","lat":43.317075,"lon":5.377367,"is_reserved":false,"is_disabled":false,"rental_uris":{"android":"levelo://app?vid=ef015a1a-dd6b-46b7-95b3-df8348895855","ios":"levelo://app?vid=ef015a1a-dd6b-46b7-95b3-df8348895855"},"vehicle_type_id":"4","last_reported":1686855949,"current_range_meters":30400,"station_id":"ce4bgth2rcd13ifvqch0","pricing_plan_id":"free"},{"bike_id":"cc686847-e88b-4777-bd3a-872156daf017","system_id":"levelo_inurba_marseille","lat":43.317075,"lon":5.377367,"is_reserved":false,"is_disabled":false,"rental_uris":{"android":"levelo://app?vid=cc686847-e88b-4777-bd3a-872156daf017","ios":"levelo://app?vid=cc686847-e88b-4777-bd3a-872156daf017"},"vehicle_type_id":"4","last_reported":1686855949,"current_range_meters":31200,"station_id":"ce4bgth2rcd13ifvqch0","pricing_plan_id":"free"},{"bike_id":"2424216c-0462-4ad0-b127-d0366c91b61c","system_id":"levelo_inurba_marseille","lat":43.317075,"lon":5.377367,"is_reserved":false,"is_disabled":false,"rental_uris":{"android":"levelo://app?vid=2424216c-0462-4ad0-b127-d0366c91b61c","ios":"levelo://app?vid=2424216c-0462-4ad0-b127-d0366c91b61c"},"vehicle_type_id":"4","last_reported":1686855949,"current_range_meters":31200,"station_id":"ce4bgth2rcd13ifvqch0","pricing_plan_id":"free"},{"bike_id":"cd8b6958-c31a-4a9d-8c48-cf838953f3b1","system_id":"levelo_inurba_marseille","lat":43.315289,"lon":5.380349,"is_reserved":false,"is_disabled":false,"rental_uris":{"android":"levelo://app?vid=cd8b6958-c31a-4a9d-8c48-cf838953f3b1","ios":"levelo://app?vid=cd8b6958-c31a-4a9d-8c48-cf838953f3b1"},"vehicle_type_id":"4","last_reported":1686855949,"current_range_meters":30800,"station_id":"ce4bhsp2rcd13ifvqi50","pricing_plan_id":"free"},{"bike_id":"28457e2b-eb0e-4233-93af-fa4a65be50af","system_id":"levelo_inurba_marseille","lat":43.315289,"lon":5.380349,"is_reserved":false,"is_disabled":false,"rental_uris":{"android":"levelo://app?vid=28457e2b-eb0e-4233-93af-fa4a65be50af","ios":"levelo://app?vid=28457e2b-eb0e-4233-93af-fa4a65be50af"},"vehicle_type_id":"4","last_reported":1686855949,"current_range_meters":27200,"station_id":"ce4bhsp2rcd13ifvqi50","pricing_plan_id":"free"},{"bike_id":"d615bec8-d16a-4c36-8850-371d4102df2f","system_id":"levelo_inurba_marseille","lat":43.315289,"lon":5.380349,"is_reserved":false,"is_disabled":false,"rental_uris":{"android":"levelo://app?vid=d615bec8-d16a-4c36-8850-371d4102df2f","ios":"levelo://app?vid=d615bec8-d16a-4c36-8850-371d4102df2f"},"vehicle_type_id":"4","last_reported":1686855949,"current_range_meters":31200,"station_id":"ce4bhsp2rcd13ifvqi50","pricing_plan_id":"free"},{"bike_id":"08c6bf2b-1bae-4eda-bb6d-4e1c7c48bc45","system_id":"levelo_inurba_marseille","lat":43.315293,"lon":5.380349,"is_reserved":false,"is_disabled":false,"rental_uris":{"android":"levelo://app?vid=08c6bf2b-1bae-4eda-bb6d-4e1c7c48bc45","ios":"levelo://app?vid=08c6bf2b-1bae-4eda-bb6d-4e1c7c48bc45"},"vehicle_type_id":"4","last_reported":1686855949,"current_range_meters":18800,"station_id":"ce4bhsp2rcd13ifvqi50","pricing_plan_id":"free"},{"bike_id":"1eb52fea-2009-4bfb-8531-2ab1e6a8ac72","system_id":"levelo_inurba_marseille","lat":43.31534,"lon":5.3804,"is_reserved":false,"is_disabled":false,"rental_uris":{"android":"levelo://app?vid=1eb52fea-2009-4bfb-8531-2ab1e6a8ac72","ios":"levelo://app?vid=1eb52fea-2009-4bfb-8531-2ab1e6a8ac72"},"vehicle_type_id":"4","last_reported":1686855949,"current_range_meters":30400,"station_id":"","pricing_plan_id":"free"},{"bike_id":"538fb750-52f6-44dd-a561-c29d0c33b01f","system_id":"levelo_inurba_marseille","lat":43.301939,"lon":5.366286,"is_reserved":false,"is_disabled":false,"rental_uris":{"android":"levelo://app?vid=538fb750-52f6-44dd-a561-c29d0c33b01f","ios":"levelo://app?vid=538fb750-52f6-44dd-a561-c29d0c33b01f"},"vehicle_type_id":"4","last_reported":1686855949,"current_range_meters":19200,"station_id":"ce4bgrh2rcd13ifvqc8g","pricing_plan_id":"free"},{"bike_id":"59bbb2a5-7253-4740-8cf7-9ea05abbf84f","system_id":"levelo_inurba_marseille","lat":43.30833,"lon":5.38115,"is_reserved":false,"is_disabled":false,"rental_uris":{"android":"levelo://app?vid=59bbb2a5-7253-4740-8cf7-9ea05abbf84f","ios":"levelo://app?vid=59bbb2a5-7253-4740-8cf7-9ea05abbf84f"},"vehicle_type_id":"4","last_reported":1686855949,"current_range_meters":24400,"station_id":"","pricing_plan_id":"free"},{"bike_id":"ae33307b-fcd5-479b-9ae1-9002ed226c6e","system_id":"levelo_inurba_marseille","lat":43.308012,"lon":5.381511,"is_reserved":false,"is_disabled":false,"rental_uris":{"android":"levelo://app?vid=ae33307b-fcd5-479b-9ae1-9002ed226c6e","ios":"levelo://app?vid=ae33307b-fcd5-479b-9ae1-9002ed226c6e"},"vehicle_type_id":"4","last_reported":1686855949,"current_range_meters":18400,"station_id":"ce4bgt12rcd13ifvqce0","pricing_plan_id":"free"},{"bike_id":"fc4a69da-5dee-4c68-8631-20ee11bc487b","system_id":"levelo_inurba_marseille","lat":43.304606,"lon":5.379026,"is_reserved":false,"is_disabled":false,"rental_uris":{"android":"levelo://app?vid=fc4a69da-5dee-4c68-8631-20ee11bc487b","ios":"levelo://app?vid=fc4a69da-5dee-4c68-8631-20ee11bc487b"},"vehicle_type_id":"4","last_reported":1686855949,"current_range_meters":28400,"station_id":"ce4bgup2rcd13ifvqcn0","pricing_plan_id":"free"},{"bike_id":"32827146-2d6b-4fb1-b00e-6b2f535ca544","system_id":"levelo_inurba_marseille","lat":43.304606,"lon":5.379026,"is_reserved":false,"is_disabled":false,"rental_uris":{"android":"levelo://app?vid=32827146-2d6b-4fb1-b00e-6b2f535ca544","ios":"levelo://app?vid=32827146-2d6b-4fb1-b00e-6b2f535ca544"},"vehicle_type_id":"4","last_reported":1686855949,"current_range_meters":30800,"station_id":"ce4bgup2rcd13ifvqcn0","pricing_plan_id":"free"},{"bike_id":"14a08899-349d-4c49-bd20-7204a0b2cd69","system_id":"levelo_inurba_marseille","lat":43.31992,"lon":5.38146,"is_reserved":false,"is_disabled":false,"rental_uris":{"android":"levelo://app?vid=14a08899-349d-4c49-bd20-7204a0b2cd69","ios":"levelo://app?vid=14a08899-349d-4c49-bd20-7204a0b2cd69"},"vehicle_type_id":"4","last_reported":1686855949,"current_range_meters":8000,"station_id":"ce4bhr12rcd13ifvqhpg","pricing_plan_id":"free"},{"bike_id":"9f66c586-36b8-410b-a384-4314decc6f7e","system_id":"levelo_inurba_marseille","lat":43.32002,"lon":5.38151,"is_reserved":false,"is_disabled":false,"rental_uris":{"android":"levelo://app?vid=9f66c586-36b8-410b-a384-4314decc6f7e","ios":"levelo://app?vid=9f66c586-36b8-410b-a384-4314decc6f7e"},"vehicle_type_id":"4","last_reported":1686855949,"current_range_meters":0,"station_id":"ce4bhr12rcd13ifvqhpg","pricing_plan_id":"free"},{"bike_id":"c362f0e8-0431-494c-8f4e-329091583422","system_id":"levelo_inurba_marseille","lat":43.319935,"lon":5.381699,"is_reserved":false,"is_disabled":false,"rental_uris":{"android":"levelo://app?vid=c362f0e8-0431-494c-8f4e-329091583422","ios":"levelo://app?vid=c362f0e8-0431-494c-8f4e-329091583422"},"vehicle_type_id":"4","last_reported":1686855949,"current_range_meters":28000,"station_id":"ce4bhr12rcd13ifvqhpg","pricing_plan_id":"free"},{"bike_id":"973279cd-48b3-4da5-b019-6bde256ffa58","system_id":"levelo_inurba_marseille","lat":43.32002,"lon":5.3816,"is_reserved":false,"is_disabled":false,"rental_uris":{"android":"levelo://app?vid=973279cd-48b3-4da5-b019-6bde256ffa58","ios":"levelo://app?vid=973279cd-48b3-4da5-b019-6bde256ffa58"},"vehicle_type_id":"4","last_reported":1686855949,"current_range_meters":8800,"station_id":"ce4bhr12rcd13ifvqhpg","pricing_plan_id":"free"},{"bike_id":"f45e7591-0537-4939-a6e2-f64893ddb0b6","system_id":"levelo_inurba_marseille","lat":43.30142,"lon":5.37688,"is_reserved":false,"is_disabled":false,"rental_uris":{"android":"levelo://app?vid=f45e7591-0537-4939-a6e2-f64893ddb0b6","ios":"levelo://app?vid=f45e7591-0537-4939-a6e2-f64893ddb0b6"},"vehicle_type_id":"4","last_reported":1686855949,"current_range_meters":8000,"station_id":"","pricing_plan_id":"free"},{"bike_id":"b1a84b04-518e-4afc-917b-44bd3f67587c","system_id":"levelo_inurba_marseille","lat":43.299222,"lon":5.365554,"is_reserved":false,"is_disabled":false,"rental_uris":{"android":"levelo://app?vid=b1a84b04-518e-4afc-917b-44bd3f67587c","ios":"levelo://app?vid=b1a84b04-518e-4afc-917b-44bd3f67587c"},"vehicle_type_id":"4","last_reported":1686855949,"current_range_meters":5600,"station_id":"ce4bgm92rcd13ifvqbr0","pricing_plan_id":"free"},{"bike_id":"cd56b801-c2f0-4005-9587-a4c4f482819f","system_id":"levelo_inurba_marseille","lat":43.299222,"lon":5.365554,"is_reserved":false,"is_disabled":false,"rental_uris":{"android":"levelo://app?vid=cd56b801-c2f0-4005-9587-a4c4f482819f","ios":"levelo://app?vid=cd56b801-c2f0-4005-9587-a4c4f482819f"},"vehicle_type_id":"4","last_reported":1686855949,"current_range_meters":26000,"station_id":"ce4bgm92rcd13ifvqbr0","pricing_plan_id":"free"},{"bike_id":"ae29db89-70ad-4fba-85b3-7300c3be61bb","system_id":"levelo_inurba_marseille","lat":43.298433,"lon":5.362774,"is_reserved":false,"is_disabled":false,"rental_uris":{"android":"levelo://app?vid=ae29db89-70ad-4fba-85b3-7300c3be61bb","ios":"levelo://app?vid=ae29db89-70ad-4fba-85b3-7300c3be61bb"},"vehicle_type_id":"4","last_reported":1686855949,"current_range_meters":16000,"station_id":"ce4bgpp2rcd13ifvqc3g","pricing_plan_id":"free"},{"bike_id":"0e9188d1-72a4-4add-85bd-79e7f7ccbd70","system_id":"levelo_inurba_marseille","lat":43.298433,"lon":5.362774,"is_reserved":false,"is_disabled":false,"rental_uris":{"android":"levelo://app?vid=0e9188d1-72a4-4add-85bd-79e7f7ccbd70","ios":"levelo://app?vid=0e9188d1-72a4-4add-85bd-79e7f7ccbd70"},"vehicle_type_id":"4","last_reported":1686855949,"current_range_meters":400,"station_id":"ce4bgpp2rcd13ifvqc3g","pricing_plan_id":"free"},{"bike_id":"c69c4380-f3b1-4562-a855-1c982080dd7c","system_id":"levelo_inurba_marseille","lat":43.298433,"lon":5.362774,"is_reserved":false,"is_disabled":false,"rental_uris":{"android":"levelo://app?vid=c69c4380-f3b1-4562-a855-1c982080dd7c","ios":"levelo://app?vid=c69c4380-f3b1-4562-a855-1c982080dd7c"},"vehicle_type_id":"4","last_reported":1686855949,"current_range_meters":5200,"station_id":"ce4bgpp2rcd13ifvqc3g","pricing_plan_id":"free"},{"bike_id":"060f5e0f-d85e-4946-a246-6e7d105a31ba","system_id":"levelo_inurba_marseille","lat":43.29847,"lon":5.36286,"is_reserved":false,"is_disabled":false,"rental_uris":{"android":"levelo://app?vid=060f5e0f-d85e-4946-a246-6e7d105a31ba","ios":"levelo://app?vid=060f5e0f-d85e-4946-a246-6e7d105a31ba"},"vehicle_type_id":"4","last_reported":1686855949,"current_range_meters":22800,"station_id":"ce4bgpp2rcd13ifvqc3g","pricing_plan_id":"free"},{"bike_id":"6c1f71b1-d60f-416d-8eed-23d4293620f0","system_id":"levelo_inurba_marseille","lat":43.298433,"lon":5.362774,"is_reserved":false,"is_disabled":false,"rental_uris":{"android":"levelo://app?vid=6c1f71b1-d60f-416d-8eed-23d4293620f0","ios":"levelo://app?vid=6c1f71b1-d60f-416d-8eed-23d4293620f0"},"vehicle_type_id":"4","last_reported":1686855949,"current_range_meters":4400,"station_id":"ce4bgpp2rcd13ifvqc3g","pricing_plan_id":"free"},{"bike_id":"a50457f3-69a9-4ecf-80f2-22056433948a","system_id":"levelo_inurba_marseille","lat":43.298433,"lon":5.362774,"is_reserved":false,"is_disabled":false,"rental_uris":{"android":"levelo://app?vid=a50457f3-69a9-4ecf-80f2-22056433948a","ios":"levelo://app?vid=a50457f3-69a9-4ecf-80f2-22056433948a"},"vehicle_type_id":"4","last_reported":1686855949,"current_range_meters":21200,"station_id":"ce4bgpp2rcd13ifvqc3g","pricing_plan_id":"free"},{"bike_id":"5191e970-8148-477f-85c1-bee9a4edee60","system_id":"levelo_inurba_marseille","lat":43.298433,"lon":5.362774,"is_reserved":false,"is_disabled":false,"rental_uris":{"android":"levelo://app?vid=5191e970-8148-477f-85c1-bee9a4edee60","ios":"levelo://app?vid=5191e970-8148-477f-85c1-bee9a4edee60"},"vehicle_type_id":"4","last_reported":1686855949,"current_range_meters":6400,"station_id":"ce4bgpp2rcd13ifvqc3g","pricing_plan_id":"free"},{"bike_id":"1796b66f-7d7c-4a7e-b96e-7e7a69ec60c7","system_id":"levelo_inurba_marseille","lat":43.298433,"lon":5.362774,"is_reserved":false,"is_disabled":false,"rental_uris":{"android":"levelo://app?vid=1796b66f-7d7c-4a7e-b96e-7e7a69ec60c7","ios":"levelo://app?vid=1796b66f-7d7c-4a7e-b96e-7e7a69ec60c7"},"vehicle_type_id":"4","last_reported":1686855949,"current_range_meters":3200,"station_id":"ce4bgpp2rcd13ifvqc3g","pricing_plan_id":"free"},{"bike_id":"cbff9214-d9e6-4296-b0f2-c93755c8b843","system_id":"levelo_inurba_marseille","lat":43.3053,"lon":5.38429,"is_reserved":false,"is_disabled":false,"rental_uris":{"android":"levelo://app?vid=cbff9214-d9e6-4296-b0f2-c93755c8b843","ios":"levelo://app?vid=cbff9214-d9e6-4296-b0f2-c93755c8b843"},"vehicle_type_id":"4","last_reported":1686855949,"current_range_meters":0,"station_id":"ce4bgg92rcd13ifvqb30","pricing_plan_id":"free"},{"bike_id":"73edf311-b809-4a04-b46f-460ead0341a4","system_id":"levelo_inurba_marseille","lat":43.299243,"lon":5.374807,"is_reserved":false,"is_disabled":false,"rental_uris":{"android":"levelo://app?vid=73edf311-b809-4a04-b46f-460ead0341a4","ios":"levelo://app?vid=73edf311-b809-4a04-b46f-460ead0341a4"},"vehicle_type_id":"4","last_reported":1686855949,"current_range_meters":1600,"station_id":"ce4bgjh2rcd13ifvqbg0","pricing_plan_id":"free"},{"bike_id":"275b815c-d9cf-410f-aa8d-480ac904654f","system_id":"levelo_inurba_marseille","lat":43.311839,"lon":5.387202,"is_reserved":false,"is_disabled":false,"rental_uris":{"android":"levelo://app?vid=275b815c-d9cf-410f-aa8d-480ac904654f","ios":"levelo://app?vid=275b815c-d9cf-410f-aa8d-480ac904654f"},"vehicle_type_id":"4","last_reported":1686855949,"current_range_meters":22400,"station_id":"","pricing_plan_id":"free"},{"bike_id":"cb568a47-bfef-4745-a1cd-e96c699e88f1","system_id":"levelo_inurba_marseille","lat":43.2991,"lon":5.37499,"is_reserved":false,"is_disabled":false,"rental_uris":{"android":"levelo://app?vid=cb568a47-bfef-4745-a1cd-e96c699e88f1","ios":"levelo://app?vid=cb568a47-bfef-4745-a1cd-e96c699e88f1"},"vehicle_type_id":"4","last_reported":1686855949,"current_range_meters":2400,"station_id":"ce4bgjh2rcd13ifvqbg0","pricing_plan_id":"free"},{"bike_id":"6938353d-b323-4b5d-9339-e3d5397a084a","system_id":"levelo_inurba_marseille","lat":43.32803,"lon":5.36675,"is_reserved":false,"is_disabled":false,"rental_uris":{"android":"levelo://app?vid=6938353d-b323-4b5d-9339-e3d5397a084a","ios":"levelo://app?vid=6938353d-b323-4b5d-9339-e3d5397a084a"},"vehicle_type_id":"4","last_reported":1686855949,"current_range_meters":25200,"station_id":"","pricing_plan_id":"free"},{"bike_id":"455ec81b-ef73-4668-ae45-bfd60fbf9d6d","system_id":"levelo_inurba_marseille","lat":43.311722,"lon":5.387247,"is_reserved":false,"is_disabled":false,"rental_uris":{"android":"levelo://app?vid=455ec81b-ef73-4668-ae45-bfd60fbf9d6d","ios":"levelo://app?vid=455ec81b-ef73-4668-ae45-bfd60fbf9d6d"},"vehicle_type_id":"4","last_reported":1686855949,"current_range_meters":0,"station_id":"ce4bgv12rcd13ifvqcp0","pricing_plan_id":"free"},{"bike_id":"aa06f726-f012-446d-8f5b-650279a6533a","system_id":"levelo_inurba_marseille","lat":43.2971,"lon":5.36606,"is_reserved":false,"is_disabled":false,"rental_uris":{"android":"levelo://app?vid=aa06f726-f012-446d-8f5b-650279a6533a","ios":"levelo://app?vid=aa06f726-f012-446d-8f5b-650279a6533a"},"vehicle_type_id":"4","last_reported":1686855949,"current_range_meters":4400,"station_id":"ce4bhb92rcd13ifvqen0","pricing_plan_id":"free"},{"bike_id":"e655b593-0151-45dd-b7c6-04154149d135","system_id":"levelo_inurba_marseille","lat":43.29709,"lon":5.36608,"is_reserved":false,"is_disabled":false,"rental_uris":{"android":"levelo://app?vid=e655b593-0151-45dd-b7c6-04154149d135","ios":"levelo://app?vid=e655b593-0151-45dd-b7c6-04154149d135"},"vehicle_type_id":"4","last_reported":1686855949,"current_range_meters":0,"station_id":"","pricing_plan_id":"free"},{"bike_id":"2bb4f0cc-04fd-45c5-adfa-006b3992426f","system_id":"levelo_inurba_marseille","lat":43.29704,"lon":5.3661,"is_reserved":false,"is_disabled":false,"rental_uris":{"android":"levelo://app?vid=2bb4f0cc-04fd-45c5-adfa-006b3992426f","ios":"levelo://app?vid=2bb4f0cc-04fd-45c5-adfa-006b3992426f"},"vehicle_type_id":"4","last_reported":1686855949,"current_range_meters":2400,"station_id":"","pricing_plan_id":"free"},{"bike_id":"88d0330c-5bb0-4a19-9b65-d4683b42e015","system_id":"levelo_inurba_marseille","lat":43.29683,"lon":5.36046,"is_reserved":false,"is_disabled":false,"rental_uris":{"android":"levelo://app?vid=88d0330c-5bb0-4a19-9b65-d4683b42e015","ios":"levelo://app?vid=88d0330c-5bb0-4a19-9b65-d4683b42e015"},"vehicle_type_id":"4","last_reported":1686855949,"current_range_meters":13200,"station_id":"ce4bgpp2rcd13ifvqc3g","pricing_plan_id":"free"},{"bike_id":"05294798-6ab0-4449-b137-36e581acdca4","system_id":"levelo_inurba_marseille","lat":43.29577,"lon":5.36744,"is_reserved":false,"is_disabled":false,"rental_uris":{"android":"levelo://app?vid=05294798-6ab0-4449-b137-36e581acdca4","ios":"levelo://app?vid=05294798-6ab0-4449-b137-36e581acdca4"},"vehicle_type_id":"4","last_reported":1686855949,"current_range_meters":20400,"station_id":"ce4bgph2rcd13ifvqc2g","pricing_plan_id":"free"},{"bike_id":"9189b564-4f7d-4bff-92f5-8ca3e2b45b0f","system_id":"levelo_inurba_marseille","lat":43.29573,"lon":5.367355,"is_reserved":false,"is_disabled":false,"rental_uris":{"android":"levelo://app?vid=9189b564-4f7d-4bff-92f5-8ca3e2b45b0f","ios":"levelo://app?vid=9189b564-4f7d-4bff-92f5-8ca3e2b45b0f"},"vehicle_type_id":"4","last_reported":1686855949,"current_range_meters":0,"station_id":"ce4bgph2rcd13ifvqc2g","pricing_plan_id":"free"},{"bike_id":"c162b81e-a0e0-4cc7-a697-5869b6e63b3f","system_id":"levelo_inurba_marseille","lat":43.296921,"lon":5.376579,"is_reserved":false,"is_disabled":false,"rental_uris":{"android":"levelo://app?vid=c162b81e-a0e0-4cc7-a697-5869b6e63b3f","ios":"levelo://app?vid=c162b81e-a0e0-4cc7-a697-5869b6e63b3f"},"vehicle_type_id":"4","last_reported":1686855949,"current_range_meters":3200,"station_id":"ce4bgkh2rcd13ifvqbl0","pricing_plan_id":"free"},{"bike_id":"4e81d5c8-0f32-4e3f-8243-3fb65c03808a","system_id":"levelo_inurba_marseille","lat":43.296935,"lon":5.376544,"is_reserved":false,"is_disabled":false,"rental_uris":{"android":"levelo://app?vid=4e81d5c8-0f32-4e3f-8243-3fb65c03808a","ios":"levelo://app?vid=4e81d5c8-0f32-4e3f-8243-3fb65c03808a"},"vehicle_type_id":"4","last_reported":1686855949,"current_range_meters":20000,"station_id":"ce4bgkh2rcd13ifvqbl0","pricing_plan_id":"free"},{"bike_id":"a3f38ea8-c850-47a7-befd-35af6669a848","system_id":"levelo_inurba_marseille","lat":43.309589,"lon":5.390258,"is_reserved":false,"is_disabled":false,"rental_uris":{"android":"levelo://app?vid=a3f38ea8-c850-47a7-befd-35af6669a848","ios":"levelo://app?vid=a3f38ea8-c850-47a7-befd-35af6669a848"},"vehicle_type_id":"4","last_reported":1686855949,"current_range_meters":26000,"station_id":"ce4bgup2rcd13ifvqco0","pricing_plan_id":"free"},{"bike_id":"86da4d83-881b-4276-b99b-175de1a38e3a","system_id":"levelo_inurba_marseille","lat":43.309589,"lon":5.390258,"is_reserved":false,"is_disabled":false,"rental_uris":{"android":"levelo://app?vid=86da4d83-881b-4276-b99b-175de1a38e3a","ios":"levelo://app?vid=86da4d83-881b-4276-b99b-175de1a38e3a"},"vehicle_type_id":"4","last_reported":1686855949,"current_range_meters":22400,"station_id":"ce4bgup2rcd13ifvqco0","pricing_plan_id":"free"},{"bike_id":"1911e093-d8d6-46bd-9f70-1bed64e4c4f8","system_id":"levelo_inurba_marseille","lat":43.317557,"lon":5.390173,"is_reserved":false,"is_disabled":false,"rental_uris":{"android":"levelo://app?vid=1911e093-d8d6-46bd-9f70-1bed64e4c4f8","ios":"levelo://app?vid=1911e093-d8d6-46bd-9f70-1bed64e4c4f8"},"vehicle_type_id":"4","last_reported":1686855949,"current_range_meters":22000,"station_id":"ce4bhqp2rcd13ifvqhng","pricing_plan_id":"free"},{"bike_id":"113d8f7e-ffd1-4394-aaba-49ba04306712","system_id":"levelo_inurba_marseille","lat":43.317557,"lon":5.390173,"is_reserved":false,"is_disabled":false,"rental_uris":{"android":"levelo://app?vid=113d8f7e-ffd1-4394-aaba-49ba04306712","ios":"levelo://app?vid=113d8f7e-ffd1-4394-aaba-49ba04306712"},"vehicle_type_id":"4","last_reported":1686855949,"current_range_meters":15200,"station_id":"ce4bhqp2rcd13ifvqhng","pricing_plan_id":"free"},{"bike_id":"8bb475a8-5490-4e4a-9459-7731ffe59154","system_id":"levelo_inurba_marseille","lat":43.298037,"lon":5.381066,"is_reserved":false,"is_disabled":false,"rental_uris":{"android":"levelo://app?vid=8bb475a8-5490-4e4a-9459-7731ffe59154","ios":"levelo://app?vid=8bb475a8-5490-4e4a-9459-7731ffe59154"},"vehicle_type_id":"4","last_reported":1686855949,"current_range_meters":1200,"station_id":"ce4bgip2rcd13ifvqbb0","pricing_plan_id":"free"},{"bike_id":"c787fb61-fc7d-4046-be6d-2d9b83fa97c7","system_id":"levelo_inurba_marseille","lat":43.295748,"lon":5.37522,"is_reserved":false,"is_disabled":false,"rental_uris":{"android":"levelo://app?vid=c787fb61-fc7d-4046-be6d-2d9b83fa97c7","ios":"levelo://app?vid=c787fb61-fc7d-4046-be6d-2d9b83fa97c7"},"vehicle_type_id":"4","last_reported":1686855949,"current_range_meters":24000,"station_id":"ce4bgh92rcd13ifvqb50","pricing_plan_id":"free"},{"bike_id":"d03a1e90-58df-4daa-9290-6c360b69245a","system_id":"levelo_inurba_marseille","lat":43.29649,"lon":5.37787,"is_reserved":false,"is_disabled":false,"rental_uris":{"android":"levelo://app?vid=d03a1e90-58df-4daa-9290-6c360b69245a","ios":"levelo://app?vid=d03a1e90-58df-4daa-9290-6c360b69245a"},"vehicle_type_id":"4","last_reported":1686855949,"current_range_meters":0,"station_id":"","pricing_plan_id":"free"},{"bike_id":"eebfffce-5381-4347-9f37-bbe487e2e90c","system_id":"levelo_inurba_marseille","lat":43.296277,"lon":5.377108,"is_reserved":false,"is_disabled":false,"rental_uris":{"android":"levelo://app?vid=eebfffce-5381-4347-9f37-bbe487e2e90c","ios":"levelo://app?vid=eebfffce-5381-4347-9f37-bbe487e2e90c"},"vehicle_type_id":"4","last_reported":1686855949,"current_range_meters":400,"station_id":"ce4bgi92rcd13ifvqb90","pricing_plan_id":"free"},{"bike_id":"163ff09d-003f-4e7a-8554-1fc5f59a2b5e","system_id":"levelo_inurba_marseille","lat":43.296277,"lon":5.377108,"is_reserved":false,"is_disabled":false,"rental_uris":{"android":"levelo://app?vid=163ff09d-003f-4e7a-8554-1fc5f59a2b5e","ios":"levelo://app?vid=163ff09d-003f-4e7a-8554-1fc5f59a2b5e"},"vehicle_type_id":"4","last_reported":1686855949,"current_range_meters":25600,"station_id":"ce4bgi92rcd13ifvqb90","pricing_plan_id":"free"},{"bike_id":"2c9ad911-25e0-4222-8751-d809dfadd582","system_id":"levelo_inurba_marseille","lat":43.32364,"lon":5.38877,"is_reserved":false,"is_disabled":false,"rental_uris":{"android":"levelo://app?vid=2c9ad911-25e0-4222-8751-d809dfadd582","ios":"levelo://app?vid=2c9ad911-25e0-4222-8751-d809dfadd582"},"vehicle_type_id":"4","last_reported":1686855949,"current_range_meters":10000,"station_id":"ce4bhqp2rcd13ifvqhog","pricing_plan_id":"free"},{"bike_id":"4e609ef0-2e17-4e6c-ba3b-29daedaa2e8a","system_id":"levelo_inurba_marseille","lat":43.32367,"lon":5.388836,"is_reserved":false,"is_disabled":false,"rental_uris":{"android":"levelo://app?vid=4e609ef0-2e17-4e6c-ba3b-29daedaa2e8a","ios":"levelo://app?vid=4e609ef0-2e17-4e6c-ba3b-29daedaa2e8a"},"vehicle_type_id":"4","last_reported":1686855949,"current_range_meters":22400,"station_id":"ce4bhqp2rcd13ifvqhog","pricing_plan_id":"free"},{"bike_id":"eff2d2cf-f86d-4bde-b078-38a5973866d7","system_id":"levelo_inurba_marseille","lat":43.29602,"lon":5.38106,"is_reserved":false,"is_disabled":false,"rental_uris":{"android":"levelo://app?vid=eff2d2cf-f86d-4bde-b078-38a5973866d7","ios":"levelo://app?vid=eff2d2cf-f86d-4bde-b078-38a5973866d7"},"vehicle_type_id":"4","last_reported":1686855949,"current_range_meters":1200,"station_id":"ce4bgl12rcd13ifvqbo0","pricing_plan_id":"free"},{"bike_id":"f7fe7112-6950-4aa0-84e8-de2d5ce6a878","system_id":"levelo_inurba_marseille","lat":43.29306,"lon":5.3719,"is_reserved":false,"is_disabled":false,"rental_uris":{"android":"levelo://app?vid=f7fe7112-6950-4aa0-84e8-de2d5ce6a878","ios":"levelo://app?vid=f7fe7112-6950-4aa0-84e8-de2d5ce6a878"},"vehicle_type_id":"4","last_reported":1686855949,"current_range_meters":0,"station_id":"ce4bgh92rcd13ifvqb40","pricing_plan_id":"free"},{"bike_id":"d3e5ec50-cdd2-4dda-b3aa-56eb536bbb12","system_id":"levelo_inurba_marseille","lat":43.29262,"lon":5.35974,"is_reserved":false,"is_disabled":false,"rental_uris":{"android":"levelo://app?vid=d3e5ec50-cdd2-4dda-b3aa-56eb536bbb12","ios":"levelo://app?vid=d3e5ec50-cdd2-4dda-b3aa-56eb536bbb12"},"vehicle_type_id":"4","last_reported":1686855949,"current_range_meters":29200,"station_id":"","pricing_plan_id":"free"},{"bike_id":"ee37a42a-d1f4-43e3-830b-9c95a48a8bdc","system_id":"levelo_inurba_marseille","lat":43.298764,"lon":5.388973,"is_reserved":false,"is_disabled":false,"rental_uris":{"android":"levelo://app?vid=ee37a42a-d1f4-43e3-830b-9c95a48a8bdc","ios":"levelo://app?vid=ee37a42a-d1f4-43e3-830b-9c95a48a8bdc"},"vehicle_type_id":"4","last_reported":1686855949,"current_range_meters":10000,"station_id":"ce4bh392rcd13ifvqdl0","pricing_plan_id":"free"},{"bike_id":"b2785abe-5eba-4a79-973c-db3ce0951e1a","system_id":"levelo_inurba_marseille","lat":43.313291,"lon":5.396838,"is_reserved":false,"is_disabled":false,"rental_uris":{"android":"levelo://app?vid=b2785abe-5eba-4a79-973c-db3ce0951e1a","ios":"levelo://app?vid=b2785abe-5eba-4a79-973c-db3ce0951e1a"},"vehicle_type_id":"4","last_reported":1686855949,"current_range_meters":23200,"station_id":"ce4bgvp2rcd13ifvqcu0","pricing_plan_id":"free"},{"bike_id":"44ac02c9-2dd2-4578-aac9-5f811adde33b","system_id":"levelo_inurba_marseille","lat":43.313291,"lon":5.396838,"is_reserved":false,"is_disabled":false,"rental_uris":{"android":"levelo://app?vid=44ac02c9-2dd2-4578-aac9-5f811adde33b","ios":"levelo://app?vid=44ac02c9-2dd2-4578-aac9-5f811adde33b"},"vehicle_type_id":"4","last_reported":1686855949,"current_range_meters":17600,"station_id":"ce4bgvp2rcd13ifvqcu0","pricing_plan_id":"free"},{"bike_id":"c8040753-3793-4bf4-9af9-d991fc62e187","system_id":"levelo_inurba_marseille","lat":43.313291,"lon":5.396838,"is_reserved":false,"is_disabled":false,"rental_uris":{"android":"levelo://app?vid=c8040753-3793-4bf4-9af9-d991fc62e187","ios":"levelo://app?vid=c8040753-3793-4bf4-9af9-d991fc62e187"},"vehicle_type_id":"4","last_reported":1686855949,"current_range_meters":5200,"station_id":"ce4bgvp2rcd13ifvqcu0","pricing_plan_id":"free"},{"bike_id":"335294c6-d1a6-4298-8c05-342e51b3911e","system_id":"levelo_inurba_marseille","lat":43.29527,"lon":5.38549,"is_reserved":false,"is_disabled":false,"rental_uris":{"android":"levelo://app?vid=335294c6-d1a6-4298-8c05-342e51b3911e","ios":"levelo://app?vid=335294c6-d1a6-4298-8c05-342e51b3911e"},"vehicle_type_id":"4","last_reported":1686855949,"current_range_meters":23600,"station_id":"ce4bgih2rcd13ifvqba0","pricing_plan_id":"free"},{"bike_id":"ae30864e-d54a-42fd-afcb-df290a3730dd","system_id":"levelo_inurba_marseille","lat":43.29524,"lon":5.38545,"is_reserved":false,"is_disabled":false,"rental_uris":{"android":"levelo://app?vid=ae30864e-d54a-42fd-afcb-df290a3730dd","ios":"levelo://app?vid=ae30864e-d54a-42fd-afcb-df290a3730dd"},"vehicle_type_id":"4","last_reported":1686855949,"current_range_meters":0,"station_id":"ce4bgih2rcd13ifvqba0","pricing_plan_id":"free"},{"bike_id":"1f88765a-b127-4bfe-8715-d3102953d3aa","system_id":"levelo_inurba_marseille","lat":43.302008,"lon":5.394694,"is_reserved":false,"is_disabled":false,"rental_uris":{"android":"levelo://app?vid=1f88765a-b127-4bfe-8715-d3102953d3aa","ios":"levelo://app?vid=1f88765a-b127-4bfe-8715-d3102953d3aa"},"vehicle_type_id":"4","last_reported":1686855949,"current_range_meters":2400,"station_id":"ce4bh0p2rcd13ifvqd70","pricing_plan_id":"free"},{"bike_id":"c63fea80-98d6-4451-b93b-bf804c47c67d","system_id":"levelo_inurba_marseille","lat":43.294162,"lon":5.386292,"is_reserved":false,"is_disabled":false,"rental_uris":{"android":"levelo://app?vid=c63fea80-98d6-4451-b93b-bf804c47c67d","ios":"levelo://app?vid=c63fea80-98d6-4451-b93b-bf804c47c67d"},"vehicle_type_id":"4","last_reported":1686855949,"current_range_meters":26400,"station_id":"ce4bh2h2rcd13ifvqdh0","pricing_plan_id":"free"},{"bike_id":"dd515735-d6c5-49be-a0e9-e2fbfc4eb9d2","system_id":"levelo_inurba_marseille","lat":43.294153,"lon":5.386305,"is_reserved":false,"is_disabled":false,"rental_uris":{"android":"levelo://app?vid=dd515735-d6c5-49be-a0e9-e2fbfc4eb9d2","ios":"levelo://app?vid=dd515735-d6c5-49be-a0e9-e2fbfc4eb9d2"},"vehicle_type_id":"4","last_reported":1686855949,"current_range_meters":2000,"station_id":"ce4bh2h2rcd13ifvqdh0","pricing_plan_id":"free"},{"bike_id":"e6130974-6480-41df-a0c4-6ef8b584c7dc","system_id":"levelo_inurba_marseille","lat":43.294153,"lon":5.386305,"is_reserved":false,"is_disabled":false,"rental_uris":{"android":"levelo://app?vid=e6130974-6480-41df-a0c4-6ef8b584c7dc","ios":"levelo://app?vid=e6130974-6480-41df-a0c4-6ef8b584c7dc"},"vehicle_type_id":"4","last_reported":1686855949,"current_range_meters":28800,"station_id":"ce4bh2h2rcd13ifvqdh0","pricing_plan_id":"free"},{"bike_id":"0ee9d470-147b-4f3a-bb5d-3ea686359f82","system_id":"levelo_inurba_marseille","lat":43.294153,"lon":5.386305,"is_reserved":false,"is_disabled":false,"rental_uris":{"android":"levelo://app?vid=0ee9d470-147b-4f3a-bb5d-3ea686359f82","ios":"levelo://app?vid=0ee9d470-147b-4f3a-bb5d-3ea686359f82"},"vehicle_type_id":"4","last_reported":1686855949,"current_range_meters":400,"station_id":"ce4bh2h2rcd13ifvqdh0","pricing_plan_id":"free"},{"bike_id":"3df37ff6-ff22-4d84-ac50-c337f47f3f6d","system_id":"levelo_inurba_marseille","lat":43.294153,"lon":5.386305,"is_reserved":false,"is_disabled":false,"rental_uris":{"android":"levelo://app?vid=3df37ff6-ff22-4d84-ac50-c337f47f3f6d","ios":"levelo://app?vid=3df37ff6-ff22-4d84-ac50-c337f47f3f6d"},"vehicle_type_id":"4","last_reported":1686855949,"current_range_meters":0,"station_id":"ce4bh2h2rcd13ifvqdh0","pricing_plan_id":"free"},{"bike_id":"e5ab07d5-cfe7-4f79-b642-a95a0abc6b41","system_id":"levelo_inurba_marseille","lat":43.294153,"lon":5.386305,"is_reserved":false,"is_disabled":false,"rental_uris":{"android":"levelo://app?vid=e5ab07d5-cfe7-4f79-b642-a95a0abc6b41","ios":"levelo://app?vid=e5ab07d5-cfe7-4f79-b642-a95a0abc6b41"},"vehicle_type_id":"4","last_reported":1686855949,"current_range_meters":12800,"station_id":"ce4bh2h2rcd13ifvqdh0","pricing_plan_id":"free"},{"bike_id":"577daa82-833f-4a4b-9b04-55325fa18f91","system_id":"levelo_inurba_marseille","lat":43.294153,"lon":5.386305,"is_reserved":false,"is_disabled":false,"rental_uris":{"android":"levelo://app?vid=577daa82-833f-4a4b-9b04-55325fa18f91","ios":"levelo://app?vid=577daa82-833f-4a4b-9b04-55325fa18f91"},"vehicle_type_id":"4","last_reported":1686855949,"current_range_meters":2400,"station_id":"ce4bh2h2rcd13ifvqdh0","pricing_plan_id":"free"},{"bike_id":"e4c635bb-f26c-4057-8a08-567f515e1802","system_id":"levelo_inurba_marseille","lat":43.289184,"lon":5.366408,"is_reserved":false,"is_disabled":false,"rental_uris":{"android":"levelo://app?vid=e4c635bb-f26c-4057-8a08-567f515e1802","ios":"levelo://app?vid=e4c635bb-f26c-4057-8a08-567f515e1802"},"vehicle_type_id":"4","last_reported":1686855949,"current_range_meters":22400,"station_id":"ce4bhap2rcd13ifvqek0","pricing_plan_id":"free"},{"bike_id":"da802d72-5763-4550-b7b3-26250e94e43a","system_id":"levelo_inurba_marseille","lat":43.292644,"lon":5.384257,"is_reserved":false,"is_disabled":false,"rental_uris":{"android":"levelo://app?vid=da802d72-5763-4550-b7b3-26250e94e43a","ios":"levelo://app?vid=da802d72-5763-4550-b7b3-26250e94e43a"},"vehicle_type_id":"4","last_reported":1686855949,"current_range_meters":14000,"station_id":"ce4bh692rcd13ifvqea0","pricing_plan_id":"free"},{"bike_id":"afa7b79b-2cd4-4aab-9269-13e0dde03977","system_id":"levelo_inurba_marseille","lat":43.292644,"lon":5.384257,"is_reserved":false,"is_disabled":false,"rental_uris":{"android":"levelo://app?vid=afa7b79b-2cd4-4aab-9269-13e0dde03977","ios":"levelo://app?vid=afa7b79b-2cd4-4aab-9269-13e0dde03977"},"vehicle_type_id":"4","last_reported":1686855949,"current_range_meters":27200,"station_id":"ce4bh692rcd13ifvqea0","pricing_plan_id":"free"},{"bike_id":"5da1b713-741c-48a4-a73c-088d0b68adbc","system_id":"levelo_inurba_marseille","lat":43.304296,"lon":5.397513,"is_reserved":false,"is_disabled":false,"rental_uris":{"android":"levelo://app?vid=5da1b713-741c-48a4-a73c-088d0b68adbc","ios":"levelo://app?vid=5da1b713-741c-48a4-a73c-088d0b68adbc"},"vehicle_type_id":"4","last_reported":1686855949,"current_range_meters":800,"station_id":"ce4bh092rcd13ifvqd20","pricing_plan_id":"free"},{"bike_id":"df9c1ea1-a085-42ae-9a7f-9bb2de8166a7","system_id":"levelo_inurba_marseille","lat":43.292644,"lon":5.384257,"is_reserved":false,"is_disabled":false,"rental_uris":{"android":"levelo://app?vid=df9c1ea1-a085-42ae-9a7f-9bb2de8166a7","ios":"levelo://app?vid=df9c1ea1-a085-42ae-9a7f-9bb2de8166a7"},"vehicle_type_id":"4","last_reported":1686855949,"current_range_meters":2000,"station_id":"ce4bh692rcd13ifvqea0","pricing_plan_id":"free"},{"bike_id":"33b8ed6b-3afe-4972-ba03-36aaa94df9f6","system_id":"levelo_inurba_marseille","lat":43.292644,"lon":5.384257,"is_reserved":false,"is_disabled":false,"rental_uris":{"android":"levelo://app?vid=33b8ed6b-3afe-4972-ba03-36aaa94df9f6","ios":"levelo://app?vid=33b8ed6b-3afe-4972-ba03-36aaa94df9f6"},"vehicle_type_id":"4","last_reported":1686855949,"current_range_meters":24800,"station_id":"ce4bh692rcd13ifvqea0","pricing_plan_id":"free"},{"bike_id":"e6f3f476-b254-4371-b7f7-681eda475359","system_id":"levelo_inurba_marseille","lat":43.292644,"lon":5.384257,"is_reserved":false,"is_disabled":false,"rental_uris":{"android":"levelo://app?vid=e6f3f476-b254-4371-b7f7-681eda475359","ios":"levelo://app?vid=e6f3f476-b254-4371-b7f7-681eda475359"},"vehicle_type_id":"4","last_reported":1686855949,"current_range_meters":4000,"station_id":"ce4bh692rcd13ifvqea0","pricing_plan_id":"free"},{"bike_id":"42962062-0e9f-43c0-a118-ab096866bca6","system_id":"levelo_inurba_marseille","lat":43.292644,"lon":5.384257,"is_reserved":false,"is_disabled":false,"rental_uris":{"android":"levelo://app?vid=42962062-0e9f-43c0-a118-ab096866bca6","ios":"levelo://app?vid=42962062-0e9f-43c0-a118-ab096866bca6"},"vehicle_type_id":"4","last_reported":1686855949,"current_range_meters":0,"station_id":"ce4bh692rcd13ifvqea0","pricing_plan_id":"free"},{"bike_id":"be1c875a-ccaa-4b3e-b5ec-8db54515d42d","system_id":"levelo_inurba_marseille","lat":43.292644,"lon":5.384257,"is_reserved":false,"is_disabled":false,"rental_uris":{"android":"levelo://app?vid=be1c875a-ccaa-4b3e-b5ec-8db54515d42d","ios":"levelo://app?vid=be1c875a-ccaa-4b3e-b5ec-8db54515d42d"},"vehicle_type_id":"4","last_reported":1686855949,"current_range_meters":5600,"station_id":"ce4bh692rcd13ifvqea0","pricing_plan_id":"free"},{"bike_id":"57bf62b5-b48c-4ae5-84ff-4734fbbb911d","system_id":"levelo_inurba_marseille","lat":43.290103,"lon":5.356114,"is_reserved":false,"is_disabled":false,"rental_uris":{"android":"levelo://app?vid=57bf62b5-b48c-4ae5-84ff-4734fbbb911d","ios":"levelo://app?vid=57bf62b5-b48c-4ae5-84ff-4734fbbb911d"},"vehicle_type_id":"4","last_reported":1686855949,"current_range_meters":0,"station_id":"ce4bhb92rcd13ifvqen0","pricing_plan_id":"free"},{"bike_id":"4828fe20-4ccb-48a7-91cd-ef88cd86a8a1","system_id":"levelo_inurba_marseille","lat":43.330462,"lon":5.38915,"is_reserved":false,"is_disabled":false,"rental_uris":{"android":"levelo://app?vid=4828fe20-4ccb-48a7-91cd-ef88cd86a8a1","ios":"levelo://app?vid=4828fe20-4ccb-48a7-91cd-ef88cd86a8a1"},"vehicle_type_id":"4","last_reported":1686855949,"current_range_meters":25200,"station_id":"","pricing_plan_id":"free"},{"bike_id":"10242aba-74bf-40b3-9906-8251b4a392dc","system_id":"levelo_inurba_marseille","lat":43.313291,"lon":5.396838,"is_reserved":false,"is_disabled":false,"rental_uris":{"android":"levelo://app?vid=10242aba-74bf-40b3-9906-8251b4a392dc","ios":"levelo://app?vid=10242aba-74bf-40b3-9906-8251b4a392dc"},"vehicle_type_id":"4","last_reported":1686855949,"current_range_meters":0,"station_id":"ce4bgvp2rcd13ifvqcu0","pricing_plan_id":"free"},{"bike_id":"90220897-84ff-40c8-bc44-4ab915c51884","system_id":"levelo_inurba_marseille","lat":43.290104,"lon":5.356111,"is_reserved":false,"is_disabled":false,"rental_uris":{"android":"levelo://app?vid=90220897-84ff-40c8-bc44-4ab915c51884","ios":"levelo://app?vid=90220897-84ff-40c8-bc44-4ab915c51884"},"vehicle_type_id":"4","last_reported":1686855949,"current_range_meters":0,"station_id":"ce4bhb92rcd13ifvqen0","pricing_plan_id":"free"},{"bike_id":"546eaa30-81dd-4979-85a7-31c45158990c","system_id":"levelo_inurba_marseille","lat":43.290104,"lon":5.356111,"is_reserved":false,"is_disabled":false,"rental_uris":{"android":"levelo://app?vid=546eaa30-81dd-4979-85a7-31c45158990c","ios":"levelo://app?vid=546eaa30-81dd-4979-85a7-31c45158990c"},"vehicle_type_id":"4","last_reported":1686855949,"current_range_meters":0,"station_id":"ce4bhb92rcd13ifvqen0","pricing_plan_id":"free"},{"bike_id":"f1ec64cf-8be3-420f-8f91-bd668f8a8222","system_id":"levelo_inurba_marseille","lat":43.297815,"lon":5.393548,"is_reserved":false,"is_disabled":false,"rental_uris":{"android":"levelo://app?vid=f1ec64cf-8be3-420f-8f91-bd668f8a8222","ios":"levelo://app?vid=f1ec64cf-8be3-420f-8f91-bd668f8a8222"},"vehicle_type_id":"4","last_reported":1686855949,"current_range_meters":18800,"station_id":"chh1huq6cuj3fo74tm60","pricing_plan_id":"free"},{"bike_id":"9f5ae28b-a376-4035-b618-eb1d2603d133","system_id":"levelo_inurba_marseille","lat":43.295169,"lon":5.390426,"is_reserved":false,"is_disabled":false,"rental_uris":{"android":"levelo://app?vid=9f5ae28b-a376-4035-b618-eb1d2603d133","ios":"levelo://app?vid=9f5ae28b-a376-4035-b618-eb1d2603d133"},"vehicle_type_id":"4","last_reported":1686855949,"current_range_meters":800,"station_id":"ce4bh3p2rcd13ifvqdp0","pricing_plan_id":"free"},{"bike_id":"01c962c8-3d1f-4003-a68a-23e47fd17c01","system_id":"levelo_inurba_marseille","lat":43.295169,"lon":5.390426,"is_reserved":false,"is_disabled":false,"rental_uris":{"android":"levelo://app?vid=01c962c8-3d1f-4003-a68a-23e47fd17c01","ios":"levelo://app?vid=01c962c8-3d1f-4003-a68a-23e47fd17c01"},"vehicle_type_id":"4","last_reported":1686855949,"current_range_meters":8400,"station_id":"ce4bh3p2rcd13ifvqdp0","pricing_plan_id":"free"},{"bike_id":"ce6cf9f1-85a1-4879-b0b0-4265c2e61bd5","system_id":"levelo_inurba_marseille","lat":43.295169,"lon":5.390426,"is_reserved":false,"is_disabled":false,"rental_uris":{"android":"levelo://app?vid=ce6cf9f1-85a1-4879-b0b0-4265c2e61bd5","ios":"levelo://app?vid=ce6cf9f1-85a1-4879-b0b0-4265c2e61bd5"},"vehicle_type_id":"4","last_reported":1686855949,"current_range_meters":5600,"station_id":"ce4bh3p2rcd13ifvqdp0","pricing_plan_id":"free"},{"bike_id":"3df40c17-f72b-4ff2-a538-cb0ca4dd4da2","system_id":"levelo_inurba_marseille","lat":43.28856,"lon":5.358371,"is_reserved":false,"is_disabled":false,"rental_uris":{"android":"levelo://app?vid=3df40c17-f72b-4ff2-a538-cb0ca4dd4da2","ios":"levelo://app?vid=3df40c17-f72b-4ff2-a538-cb0ca4dd4da2"},"vehicle_type_id":"4","last_reported":1686855949,"current_range_meters":25200,"station_id":"ce4bhb12rcd13ifvqem0","pricing_plan_id":"free"},{"bike_id":"c0fb8083-e02d-4dec-b1b9-fa095e6c5b75","system_id":"levelo_inurba_marseille","lat":43.337396,"lon":5.374526,"is_reserved":false,"is_disabled":false,"rental_uris":{"android":"levelo://app?vid=c0fb8083-e02d-4dec-b1b9-fa095e6c5b75","ios":"levelo://app?vid=c0fb8083-e02d-4dec-b1b9-fa095e6c5b75"},"vehicle_type_id":"4","last_reported":1686855949,"current_range_meters":4000,"station_id":"ce4bhp92rcd13ifvqhag","pricing_plan_id":"free"},{"bike_id":"4a754460-fadd-46aa-8025-e29151f697b6","system_id":"levelo_inurba_marseille","lat":43.33757,"lon":5.37485,"is_reserved":false,"is_disabled":false,"rental_uris":{"android":"levelo://app?vid=4a754460-fadd-46aa-8025-e29151f697b6","ios":"levelo://app?vid=4a754460-fadd-46aa-8025-e29151f697b6"},"vehicle_type_id":"4","last_reported":1686855949,"current_range_meters":30000,"station_id":"","pricing_plan_id":"free"},{"bike_id":"2b7a1e7a-e98c-41df-aa2b-d8d238979b8e","system_id":"levelo_inurba_marseille","lat":43.28701,"lon":5.37406,"is_reserved":false,"is_disabled":false,"rental_uris":{"android":"levelo://app?vid=2b7a1e7a-e98c-41df-aa2b-d8d238979b8e","ios":"levelo://app?vid=2b7a1e7a-e98c-41df-aa2b-d8d238979b8e"},"vehicle_type_id":"4","last_reported":1686855949,"current_range_meters":0,"station_id":"","pricing_plan_id":"free"},{"bike_id":"3a4cc26a-05c7-4de9-bd02-e6eb4e14b750","system_id":"levelo_inurba_marseille","lat":43.286039,"lon":5.370679,"is_reserved":false,"is_disabled":false,"rental_uris":{"android":"levelo://app?vid=3a4cc26a-05c7-4de9-bd02-e6eb4e14b750","ios":"levelo://app?vid=3a4cc26a-05c7-4de9-bd02-e6eb4e14b750"},"vehicle_type_id":"4","last_reported":1686855949,"current_range_meters":28400,"station_id":"ce4bht12rcd13ifvqi60","pricing_plan_id":"free"},{"bike_id":"3d0449a4-e3c4-4472-8368-a945e7216ee4","system_id":"levelo_inurba_marseille","lat":43.286039,"lon":5.370679,"is_reserved":false,"is_disabled":false,"rental_uris":{"android":"levelo://app?vid=3d0449a4-e3c4-4472-8368-a945e7216ee4","ios":"levelo://app?vid=3d0449a4-e3c4-4472-8368-a945e7216ee4"},"vehicle_type_id":"4","last_reported":1686855949,"current_range_meters":26000,"station_id":"ce4bht12rcd13ifvqi60","pricing_plan_id":"free"},{"bike_id":"6fad018c-6cbc-46e7-a1cd-85c45bd5e28f","system_id":"levelo_inurba_marseille","lat":43.316523,"lon":5.404367,"is_reserved":false,"is_disabled":false,"rental_uris":{"android":"levelo://app?vid=6fad018c-6cbc-46e7-a1cd-85c45bd5e28f","ios":"levelo://app?vid=6fad018c-6cbc-46e7-a1cd-85c45bd5e28f"},"vehicle_type_id":"4","last_reported":1686855949,"current_range_meters":9200,"station_id":"ce4bh012rcd13ifvqd00","pricing_plan_id":"free"},{"bike_id":"c8a87011-d1e9-468b-a29a-a070555c1de6","system_id":"levelo_inurba_marseille","lat":43.31644,"lon":5.40438,"is_reserved":false,"is_disabled":false,"rental_uris":{"android":"levelo://app?vid=c8a87011-d1e9-468b-a29a-a070555c1de6","ios":"levelo://app?vid=c8a87011-d1e9-468b-a29a-a070555c1de6"},"vehicle_type_id":"4","last_reported":1686855949,"current_range_meters":800,"station_id":"ce4bh012rcd13ifvqd00","pricing_plan_id":"free"},{"bike_id":"c8783f57-7fa2-41b7-9edd-1e131f0b201c","system_id":"levelo_inurba_marseille","lat":43.291994,"lon":5.392907,"is_reserved":false,"is_disabled":false,"rental_uris":{"android":"levelo://app?vid=c8783f57-7fa2-41b7-9edd-1e131f0b201c","ios":"levelo://app?vid=c8783f57-7fa2-41b7-9edd-1e131f0b201c"},"vehicle_type_id":"4","last_reported":1686855949,"current_range_meters":9600,"station_id":"ce4bh192rcd13ifvqdd0","pricing_plan_id":"free"},{"bike_id":"8aff4066-66dc-48bb-a453-671059f79f5f","system_id":"levelo_inurba_marseille","lat":43.291994,"lon":5.392907,"is_reserved":false,"is_disabled":false,"rental_uris":{"android":"levelo://app?vid=8aff4066-66dc-48bb-a453-671059f79f5f","ios":"levelo://app?vid=8aff4066-66dc-48bb-a453-671059f79f5f"},"vehicle_type_id":"4","last_reported":1686855949,"current_range_meters":0,"station_id":"ce4bh192rcd13ifvqdd0","pricing_plan_id":"free"},{"bike_id":"d14ad478-dd54-4ad1-ad10-e40ae23b6e19","system_id":"levelo_inurba_marseille","lat":43.2862,"lon":5.35102,"is_reserved":false,"is_disabled":false,"rental_uris":{"android":"levelo://app?vid=d14ad478-dd54-4ad1-ad10-e40ae23b6e19","ios":"levelo://app?vid=d14ad478-dd54-4ad1-ad10-e40ae23b6e19"},"vehicle_type_id":"4","last_reported":1686855949,"current_range_meters":25600,"station_id":"","pricing_plan_id":"free"},{"bike_id":"c4f45ba7-a3a9-4ab8-bd06-eba51ddeef91","system_id":"levelo_inurba_marseille","lat":43.285848,"lon":5.350787,"is_reserved":false,"is_disabled":false,"rental_uris":{"android":"levelo://app?vid=c4f45ba7-a3a9-4ab8-bd06-eba51ddeef91","ios":"levelo://app?vid=c4f45ba7-a3a9-4ab8-bd06-eba51ddeef91"},"vehicle_type_id":"4","last_reported":1686855949,"current_range_meters":0,"station_id":"ce4bhch2rcd13ifvqeug","pricing_plan_id":"free"},{"bike_id":"4682e828-cc5b-4b2d-aa58-9672938f345f","system_id":"levelo_inurba_marseille","lat":43.28616,"lon":5.35098,"is_reserved":false,"is_disabled":false,"rental_uris":{"android":"levelo://app?vid=4682e828-cc5b-4b2d-aa58-9672938f345f","ios":"levelo://app?vid=4682e828-cc5b-4b2d-aa58-9672938f345f"},"vehicle_type_id":"4","last_reported":1686855949,"current_range_meters":31200,"station_id":"","pricing_plan_id":"free"},{"bike_id":"06b9f570-d845-4234-8863-749c6fb07506","system_id":"levelo_inurba_marseille","lat":43.28614,"lon":5.35102,"is_reserved":false,"is_disabled":false,"rental_uris":{"android":"levelo://app?vid=06b9f570-d845-4234-8863-749c6fb07506","ios":"levelo://app?vid=06b9f570-d845-4234-8863-749c6fb07506"},"vehicle_type_id":"4","last_reported":1686855949,"current_range_meters":0,"station_id":"","pricing_plan_id":"free"},{"bike_id":"a2cb7624-79b5-48e6-a258-0ae889618b17","system_id":"levelo_inurba_marseille","lat":43.285848,"lon":5.350787,"is_reserved":false,"is_disabled":false,"rental_uris":{"android":"levelo://app?vid=a2cb7624-79b5-48e6-a258-0ae889618b17","ios":"levelo://app?vid=a2cb7624-79b5-48e6-a258-0ae889618b17"},"vehicle_type_id":"4","last_reported":1686855949,"current_range_meters":0,"station_id":"ce4bhch2rcd13ifvqeug","pricing_plan_id":"free"},{"bike_id":"f4fa62ea-d8b9-4557-b3a1-25f519d681da","system_id":"levelo_inurba_marseille","lat":43.283998,"lon":5.375062,"is_reserved":false,"is_disabled":false,"rental_uris":{"android":"levelo://app?vid=f4fa62ea-d8b9-4557-b3a1-25f519d681da","ios":"levelo://app?vid=f4fa62ea-d8b9-4557-b3a1-25f519d681da"},"vehicle_type_id":"4","last_reported":1686855949,"current_range_meters":6800,"station_id":"ce4bh412rcd13ifvqds0","pricing_plan_id":"free"},{"bike_id":"6ac76888-1953-4397-a8c1-320dbad13ea2","system_id":"levelo_inurba_marseille","lat":43.283998,"lon":5.375062,"is_reserved":false,"is_disabled":false,"rental_uris":{"android":"levelo://app?vid=6ac76888-1953-4397-a8c1-320dbad13ea2","ios":"levelo://app?vid=6ac76888-1953-4397-a8c1-320dbad13ea2"},"vehicle_type_id":"4","last_reported":1686855949,"current_range_meters":22800,"station_id":"ce4bh412rcd13ifvqds0","pricing_plan_id":"free"},{"bike_id":"316dc133-db0c-462d-93de-6db04cb47d27","system_id":"levelo_inurba_marseille","lat":43.32712,"lon":5.4038,"is_reserved":false,"is_disabled":false,"rental_uris":{"android":"levelo://app?vid=316dc133-db0c-462d-93de-6db04cb47d27","ios":"levelo://app?vid=316dc133-db0c-462d-93de-6db04cb47d27"},"vehicle_type_id":"4","last_reported":1686855949,"current_range_meters":0,"station_id":"","pricing_plan_id":"free"},{"bike_id":"16e5fedd-6e86-436a-a0a2-72c7cd60a6ea","system_id":"levelo_inurba_marseille","lat":43.323464,"lon":5.406297,"is_reserved":false,"is_disabled":false,"rental_uris":{"android":"levelo://app?vid=16e5fedd-6e86-436a-a0a2-72c7cd60a6ea","ios":"levelo://app?vid=16e5fedd-6e86-436a-a0a2-72c7cd60a6ea"},"vehicle_type_id":"4","last_reported":1686855949,"current_range_meters":31200,"station_id":"ce4bhq92rcd13ifvqhjg","pricing_plan_id":"free"},{"bike_id":"a6839177-fb6b-47f6-b52c-9d048f98fd35","system_id":"levelo_inurba_marseille","lat":43.323464,"lon":5.406297,"is_reserved":false,"is_disabled":false,"rental_uris":{"android":"levelo://app?vid=a6839177-fb6b-47f6-b52c-9d048f98fd35","ios":"levelo://app?vid=a6839177-fb6b-47f6-b52c-9d048f98fd35"},"vehicle_type_id":"4","last_reported":1686855949,"current_range_meters":15600,"station_id":"ce4bhq92rcd13ifvqhjg","pricing_plan_id":"free"},{"bike_id":"26c128b2-24ff-4735-8883-1c86ed16010f","system_id":"levelo_inurba_marseille","lat":43.33724,"lon":5.39194,"is_reserved":false,"is_disabled":false,"rental_uris":{"android":"levelo://app?vid=26c128b2-24ff-4735-8883-1c86ed16010f","ios":"levelo://app?vid=26c128b2-24ff-4735-8883-1c86ed16010f"},"vehicle_type_id":"4","last_reported":1686855949,"current_range_meters":4400,"station_id":"","pricing_plan_id":"free"},{"bike_id":"00b4d942-d645-4a17-a320-9c02b5ecca68","system_id":"levelo_inurba_marseille","lat":43.288497,"lon":5.393089,"is_reserved":false,"is_disabled":false,"rental_uris":{"android":"levelo://app?vid=00b4d942-d645-4a17-a320-9c02b5ecca68","ios":"levelo://app?vid=00b4d942-d645-4a17-a320-9c02b5ecca68"},"vehicle_type_id":"4","last_reported":1686855949,"current_range_meters":20800,"station_id":"ce4bh2p2rcd13ifvqdi0","pricing_plan_id":"free"},{"bike_id":"64f30bf3-f0b8-42cc-8e6f-83979401333b","system_id":"levelo_inurba_marseille","lat":43.28421,"lon":5.34983,"is_reserved":false,"is_disabled":false,"rental_uris":{"android":"levelo://app?vid=64f30bf3-f0b8-42cc-8e6f-83979401333b","ios":"levelo://app?vid=64f30bf3-f0b8-42cc-8e6f-83979401333b"},"vehicle_type_id":"4","last_reported":1686855949,"current_range_meters":31200,"station_id":"ce4bhbh2rcd13ifvqepg","pricing_plan_id":"free"},{"bike_id":"28c90999-3695-4f1a-b035-cf76196e0089","system_id":"levelo_inurba_marseille","lat":43.28418,"lon":5.3499,"is_reserved":false,"is_disabled":false,"rental_uris":{"android":"levelo://app?vid=28c90999-3695-4f1a-b035-cf76196e0089","ios":"levelo://app?vid=28c90999-3695-4f1a-b035-cf76196e0089"},"vehicle_type_id":"4","last_reported":1686855949,"current_range_meters":0,"station_id":"ce4bhbh2rcd13ifvqepg","pricing_plan_id":"free"},{"bike_id":"2175b91b-34ea-4d44-ba7e-72fda5642074","system_id":"levelo_inurba_marseille","lat":43.284219,"lon":5.3497,"is_reserved":false,"is_disabled":false,"rental_uris":{"android":"levelo://app?vid=2175b91b-34ea-4d44-ba7e-72fda5642074","ios":"levelo://app?vid=2175b91b-34ea-4d44-ba7e-72fda5642074"},"vehicle_type_id":"4","last_reported":1686855949,"current_range_meters":22800,"station_id":"ce4bhbh2rcd13ifvqepg","pricing_plan_id":"free"},{"bike_id":"625e3e3e-9fb9-485c-b4f1-ac7bcd9eef84","system_id":"levelo_inurba_marseille","lat":43.284219,"lon":5.3497,"is_reserved":false,"is_disabled":false,"rental_uris":{"android":"levelo://app?vid=625e3e3e-9fb9-485c-b4f1-ac7bcd9eef84","ios":"levelo://app?vid=625e3e3e-9fb9-485c-b4f1-ac7bcd9eef84"},"vehicle_type_id":"4","last_reported":1686855949,"current_range_meters":3200,"station_id":"ce4bhbh2rcd13ifvqepg","pricing_plan_id":"free"},{"bike_id":"7c0565e7-7352-4995-a5b3-f6e7333b7e09","system_id":"levelo_inurba_marseille","lat":43.284219,"lon":5.3497,"is_reserved":false,"is_disabled":false,"rental_uris":{"android":"levelo://app?vid=7c0565e7-7352-4995-a5b3-f6e7333b7e09","ios":"levelo://app?vid=7c0565e7-7352-4995-a5b3-f6e7333b7e09"},"vehicle_type_id":"4","last_reported":1686855949,"current_range_meters":27600,"station_id":"ce4bhbh2rcd13ifvqepg","pricing_plan_id":"free"},{"bike_id":"7a39ed81-d63f-481c-9955-d670e9e8dfac","system_id":"levelo_inurba_marseille","lat":43.28408,"lon":5.34983,"is_reserved":false,"is_disabled":false,"rental_uris":{"android":"levelo://app?vid=7a39ed81-d63f-481c-9955-d670e9e8dfac","ios":"levelo://app?vid=7a39ed81-d63f-481c-9955-d670e9e8dfac"},"vehicle_type_id":"4","last_reported":1686855949,"current_range_meters":30000,"station_id":"ce4bhbh2rcd13ifvqepg","pricing_plan_id":"free"},{"bike_id":"a530a6d2-5215-4868-87db-99d395d24ac2","system_id":"levelo_inurba_marseille","lat":43.292724,"lon":5.401131,"is_reserved":false,"is_disabled":false,"rental_uris":{"android":"levelo://app?vid=a530a6d2-5215-4868-87db-99d395d24ac2","ios":"levelo://app?vid=a530a6d2-5215-4868-87db-99d395d24ac2"},"vehicle_type_id":"4","last_reported":1686855949,"current_range_meters":7600,"station_id":"ce4bh312rcd13ifvqdk0","pricing_plan_id":"free"},{"bike_id":"1c31981c-ed97-4ba9-b5ab-52f0d9b01930","system_id":"levelo_inurba_marseille","lat":43.28273,"lon":5.35058,"is_reserved":false,"is_disabled":false,"rental_uris":{"android":"levelo://app?vid=1c31981c-ed97-4ba9-b5ab-52f0d9b01930","ios":"levelo://app?vid=1c31981c-ed97-4ba9-b5ab-52f0d9b01930"},"vehicle_type_id":"4","last_reported":1686855949,"current_range_meters":10000,"station_id":"ce4bhbp2rcd13ifvqerg","pricing_plan_id":"free"},{"bike_id":"cfdcc4dd-2aa4-426e-a209-82aa6f34486a","system_id":"levelo_inurba_marseille","lat":43.28265,"lon":5.3507,"is_reserved":false,"is_disabled":false,"rental_uris":{"android":"levelo://app?vid=cfdcc4dd-2aa4-426e-a209-82aa6f34486a","ios":"levelo://app?vid=cfdcc4dd-2aa4-426e-a209-82aa6f34486a"},"vehicle_type_id":"4","last_reported":1686855949,"current_range_meters":0,"station_id":"ce4bhbp2rcd13ifvqerg","pricing_plan_id":"free"},{"bike_id":"aac599ae-6a71-4cf6-86e5-a460fb2d882e","system_id":"levelo_inurba_marseille","lat":43.282744,"lon":5.350533,"is_reserved":false,"is_disabled":false,"rental_uris":{"android":"levelo://app?vid=aac599ae-6a71-4cf6-86e5-a460fb2d882e","ios":"levelo://app?vid=aac599ae-6a71-4cf6-86e5-a460fb2d882e"},"vehicle_type_id":"4","last_reported":1686855949,"current_range_meters":14000,"station_id":"ce4bhbp2rcd13ifvqerg","pricing_plan_id":"free"},{"bike_id":"ef844eb0-3f9d-4a8b-9008-b384bcacf659","system_id":"levelo_inurba_marseille","lat":43.28267,"lon":5.35058,"is_reserved":false,"is_disabled":false,"rental_uris":{"android":"levelo://app?vid=ef844eb0-3f9d-4a8b-9008-b384bcacf659","ios":"levelo://app?vid=ef844eb0-3f9d-4a8b-9008-b384bcacf659"},"vehicle_type_id":"4","last_reported":1686855949,"current_range_meters":4000,"station_id":"ce4bhbp2rcd13ifvqerg","pricing_plan_id":"free"},{"bike_id":"98ebe8c6-a748-453f-9c95-dd5949d4efda","system_id":"levelo_inurba_marseille","lat":43.282754,"lon":5.350519,"is_reserved":false,"is_disabled":false,"rental_uris":{"android":"levelo://app?vid=98ebe8c6-a748-453f-9c95-dd5949d4efda","ios":"levelo://app?vid=98ebe8c6-a748-453f-9c95-dd5949d4efda"},"vehicle_type_id":"4","last_reported":1686855949,"current_range_meters":18800,"station_id":"ce4bhbp2rcd13ifvqerg","pricing_plan_id":"free"},{"bike_id":"13164015-8500-4567-8d1b-928710571f1a","system_id":"levelo_inurba_marseille","lat":43.282754,"lon":5.350519,"is_reserved":false,"is_disabled":false,"rental_uris":{"android":"levelo://app?vid=13164015-8500-4567-8d1b-928710571f1a","ios":"levelo://app?vid=13164015-8500-4567-8d1b-928710571f1a"},"vehicle_type_id":"4","last_reported":1686855949,"current_range_meters":1600,"station_id":"ce4bhbp2rcd13ifvqerg","pricing_plan_id":"free"},{"bike_id":"47d5b8c0-4567-4992-8dd9-991cab7ff288","system_id":"levelo_inurba_marseille","lat":43.29035,"lon":5.39989,"is_reserved":false,"is_disabled":false,"rental_uris":{"android":"levelo://app?vid=47d5b8c0-4567-4992-8dd9-991cab7ff288","ios":"levelo://app?vid=47d5b8c0-4567-4992-8dd9-991cab7ff288"},"vehicle_type_id":"4","last_reported":1686855949,"current_range_meters":2000,"station_id":"ce4bh392rcd13ifvqdm0","pricing_plan_id":"free"},{"bike_id":"f5b6cfb6-e823-427a-af0d-908c8604fbc6","system_id":"levelo_inurba_marseille","lat":43.29055,"lon":5.40038,"is_reserved":false,"is_disabled":false,"rental_uris":{"android":"levelo://app?vid=f5b6cfb6-e823-427a-af0d-908c8604fbc6","ios":"levelo://app?vid=f5b6cfb6-e823-427a-af0d-908c8604fbc6"},"vehicle_type_id":"4","last_reported":1686855949,"current_range_meters":19600,"station_id":"ce4bh392rcd13ifvqdm0","pricing_plan_id":"free"},{"bike_id":"b5254e6d-07b0-4678-8ba7-0719d5fce0e8","system_id":"levelo_inurba_marseille","lat":43.254947,"lon":5.376454,"is_reserved":false,"is_disabled":false,"rental_uris":{"android":"levelo://app?vid=b5254e6d-07b0-4678-8ba7-0719d5fce0e8","ios":"levelo://app?vid=b5254e6d-07b0-4678-8ba7-0719d5fce0e8"},"vehicle_type_id":"4","last_reported":1686855949,"current_range_meters":0,"station_id":"ce4bhh12rcd13ifvqff0","pricing_plan_id":"free"},{"bike_id":"b20ca1dc-7b4a-4a7b-814d-e42100e57ffd","system_id":"levelo_inurba_marseille","lat":43.284462,"lon":5.392121,"is_reserved":false,"is_disabled":false,"rental_uris":{"android":"levelo://app?vid=b20ca1dc-7b4a-4a7b-814d-e42100e57ffd","ios":"levelo://app?vid=b20ca1dc-7b4a-4a7b-814d-e42100e57ffd"},"vehicle_type_id":"4","last_reported":1686855949,"current_range_meters":1200,"station_id":"ce4bhoh2rcd13ifvqh5g","pricing_plan_id":"free"},{"bike_id":"3bd3c75a-7b5a-47a6-926e-a537769a363b","system_id":"levelo_inurba_marseille","lat":43.284462,"lon":5.392121,"is_reserved":false,"is_disabled":false,"rental_uris":{"android":"levelo://app?vid=3bd3c75a-7b5a-47a6-926e-a537769a363b","ios":"levelo://app?vid=3bd3c75a-7b5a-47a6-926e-a537769a363b"},"vehicle_type_id":"4","last_reported":1686855949,"current_range_meters":18400,"station_id":"ce4bhoh2rcd13ifvqh5g","pricing_plan_id":"free"},{"bike_id":"ebc89a42-fb88-4a1b-84fe-d8f12f81080a","system_id":"levelo_inurba_marseille","lat":43.284462,"lon":5.392121,"is_reserved":false,"is_disabled":false,"rental_uris":{"android":"levelo://app?vid=ebc89a42-fb88-4a1b-84fe-d8f12f81080a","ios":"levelo://app?vid=ebc89a42-fb88-4a1b-84fe-d8f12f81080a"},"vehicle_type_id":"4","last_reported":1686855949,"current_range_meters":29200,"station_id":"ce4bhoh2rcd13ifvqh5g","pricing_plan_id":"free"},{"bike_id":"4ef851c5-4bc0-4fc1-8798-af9531a7e9b9","system_id":"levelo_inurba_marseille","lat":43.284462,"lon":5.392121,"is_reserved":false,"is_disabled":false,"rental_uris":{"android":"levelo://app?vid=4ef851c5-4bc0-4fc1-8798-af9531a7e9b9","ios":"levelo://app?vid=4ef851c5-4bc0-4fc1-8798-af9531a7e9b9"},"vehicle_type_id":"4","last_reported":1686855949,"current_range_meters":6800,"station_id":"ce4bhoh2rcd13ifvqh5g","pricing_plan_id":"free"},{"bike_id":"54e83a07-881b-48aa-9994-dead08b5a6a9","system_id":"levelo_inurba_marseille","lat":43.285742,"lon":5.395004,"is_reserved":false,"is_disabled":false,"rental_uris":{"android":"levelo://app?vid=54e83a07-881b-48aa-9994-dead08b5a6a9","ios":"levelo://app?vid=54e83a07-881b-48aa-9994-dead08b5a6a9"},"vehicle_type_id":"4","last_reported":1686855949,"current_range_meters":16400,"station_id":"ce4bh292rcd13ifvqdg0","pricing_plan_id":"free"},{"bike_id":"dbf6a8aa-21ad-4bd8-a2e7-45e73e6d23b5","system_id":"levelo_inurba_marseille","lat":43.285742,"lon":5.395004,"is_reserved":false,"is_disabled":false,"rental_uris":{"android":"levelo://app?vid=dbf6a8aa-21ad-4bd8-a2e7-45e73e6d23b5","ios":"levelo://app?vid=dbf6a8aa-21ad-4bd8-a2e7-45e73e6d23b5"},"vehicle_type_id":"4","last_reported":1686855949,"current_range_meters":26400,"station_id":"ce4bh292rcd13ifvqdg0","pricing_plan_id":"free"},{"bike_id":"f86263b1-4227-4725-a358-f2f9ad2a0d71","system_id":"levelo_inurba_marseille","lat":43.28573,"lon":5.394992,"is_reserved":false,"is_disabled":false,"rental_uris":{"android":"levelo://app?vid=f86263b1-4227-4725-a358-f2f9ad2a0d71","ios":"levelo://app?vid=f86263b1-4227-4725-a358-f2f9ad2a0d71"},"vehicle_type_id":"4","last_reported":1686855949,"current_range_meters":4000,"station_id":"ce4bh292rcd13ifvqdg0","pricing_plan_id":"free"},{"bike_id":"d9adcb1f-bdf1-44b4-9cd7-238f1f0d5eb7","system_id":"levelo_inurba_marseille","lat":43.27908,"lon":5.38006,"is_reserved":false,"is_disabled":false,"rental_uris":{"android":"levelo://app?vid=d9adcb1f-bdf1-44b4-9cd7-238f1f0d5eb7","ios":"levelo://app?vid=d9adcb1f-bdf1-44b4-9cd7-238f1f0d5eb7"},"vehicle_type_id":"4","last_reported":1686855949,"current_range_meters":10400,"station_id":"","pricing_plan_id":"free"},{"bike_id":"ca5ae337-77d1-42f6-9bb7-25723fbee9fb","system_id":"levelo_inurba_marseille","lat":43.27898,"lon":5.38011,"is_reserved":false,"is_disabled":false,"rental_uris":{"android":"levelo://app?vid=ca5ae337-77d1-42f6-9bb7-25723fbee9fb","ios":"levelo://app?vid=ca5ae337-77d1-42f6-9bb7-25723fbee9fb"},"vehicle_type_id":"4","last_reported":1686855949,"current_range_meters":0,"station_id":"","pricing_plan_id":"free"},{"bike_id":"53398520-fc69-4a58-bd3d-81cd8a9088a2","system_id":"levelo_inurba_marseille","lat":43.320045,"lon":5.415046,"is_reserved":false,"is_disabled":false,"rental_uris":{"android":"levelo://app?vid=53398520-fc69-4a58-bd3d-81cd8a9088a2","ios":"levelo://app?vid=53398520-fc69-4a58-bd3d-81cd8a9088a2"},"vehicle_type_id":"4","last_reported":1686855949,"current_range_meters":29600,"station_id":"ce4bhq92rcd13ifvqhkg","pricing_plan_id":"free"},{"bike_id":"d1816290-ceb3-480c-914c-8cd16fa9657e","system_id":"levelo_inurba_marseille","lat":43.320045,"lon":5.415046,"is_reserved":false,"is_disabled":false,"rental_uris":{"android":"levelo://app?vid=d1816290-ceb3-480c-914c-8cd16fa9657e","ios":"levelo://app?vid=d1816290-ceb3-480c-914c-8cd16fa9657e"},"vehicle_type_id":"4","last_reported":1686855949,"current_range_meters":22400,"station_id":"ce4bhq92rcd13ifvqhkg","pricing_plan_id":"free"},{"bike_id":"47024854-e41a-4509-b8a3-7b540be5e122","system_id":"levelo_inurba_marseille","lat":43.320045,"lon":5.415048,"is_reserved":false,"is_disabled":false,"rental_uris":{"android":"levelo://app?vid=47024854-e41a-4509-b8a3-7b540be5e122","ios":"levelo://app?vid=47024854-e41a-4509-b8a3-7b540be5e122"},"vehicle_type_id":"4","last_reported":1686855949,"current_range_meters":31200,"station_id":"ce4bhq92rcd13ifvqhkg","pricing_plan_id":"free"},{"bike_id":"eaba4ee4-bd93-4f9d-bc34-2302e3e0d806","system_id":"levelo_inurba_marseille","lat":43.320045,"lon":5.415046,"is_reserved":false,"is_disabled":false,"rental_uris":{"android":"levelo://app?vid=eaba4ee4-bd93-4f9d-bc34-2302e3e0d806","ios":"levelo://app?vid=eaba4ee4-bd93-4f9d-bc34-2302e3e0d806"},"vehicle_type_id":"4","last_reported":1686855949,"current_range_meters":32000,"station_id":"ce4bhq92rcd13ifvqhkg","pricing_plan_id":"free"},{"bike_id":"65bac0c1-56c6-4bdb-a45a-2ed4d311ea2f","system_id":"levelo_inurba_marseille","lat":43.320045,"lon":5.415046,"is_reserved":false,"is_disabled":false,"rental_uris":{"android":"levelo://app?vid=65bac0c1-56c6-4bdb-a45a-2ed4d311ea2f","ios":"levelo://app?vid=65bac0c1-56c6-4bdb-a45a-2ed4d311ea2f"},"vehicle_type_id":"4","last_reported":1686855949,"current_range_meters":31200,"station_id":"ce4bhq92rcd13ifvqhkg","pricing_plan_id":"free"},{"bike_id":"a39ec750-1e0c-4e6e-860b-1932ca108867","system_id":"levelo_inurba_marseille","lat":43.320045,"lon":5.415046,"is_reserved":false,"is_disabled":false,"rental_uris":{"android":"levelo://app?vid=a39ec750-1e0c-4e6e-860b-1932ca108867","ios":"levelo://app?vid=a39ec750-1e0c-4e6e-860b-1932ca108867"},"vehicle_type_id":"4","last_reported":1686855949,"current_range_meters":31600,"station_id":"ce4bhq92rcd13ifvqhkg","pricing_plan_id":"free"},{"bike_id":"ddebc0d7-5718-429d-9d30-ce3e94a2f248","system_id":"levelo_inurba_marseille","lat":43.320045,"lon":5.415046,"is_reserved":false,"is_disabled":false,"rental_uris":{"android":"levelo://app?vid=ddebc0d7-5718-429d-9d30-ce3e94a2f248","ios":"levelo://app?vid=ddebc0d7-5718-429d-9d30-ce3e94a2f248"},"vehicle_type_id":"4","last_reported":1686855949,"current_range_meters":28800,"station_id":"ce4bhq92rcd13ifvqhkg","pricing_plan_id":"free"},{"bike_id":"7a6bcaf7-ee17-486a-a3dd-05e679e34a6d","system_id":"levelo_inurba_marseille","lat":43.320045,"lon":5.415046,"is_reserved":false,"is_disabled":false,"rental_uris":{"android":"levelo://app?vid=7a6bcaf7-ee17-486a-a3dd-05e679e34a6d","ios":"levelo://app?vid=7a6bcaf7-ee17-486a-a3dd-05e679e34a6d"},"vehicle_type_id":"4","last_reported":1686855949,"current_range_meters":6000,"station_id":"ce4bhq92rcd13ifvqhkg","pricing_plan_id":"free"},{"bike_id":"4c690297-2995-44ba-9c9b-859f25452df9","system_id":"levelo_inurba_marseille","lat":43.320045,"lon":5.415048,"is_reserved":false,"is_disabled":false,"rental_uris":{"android":"levelo://app?vid=4c690297-2995-44ba-9c9b-859f25452df9","ios":"levelo://app?vid=4c690297-2995-44ba-9c9b-859f25452df9"},"vehicle_type_id":"4","last_reported":1686855949,"current_range_meters":28800,"station_id":"ce4bhq92rcd13ifvqhkg","pricing_plan_id":"free"},{"bike_id":"aaa08283-b9de-4916-8a2b-1936aa2d28de","system_id":"levelo_inurba_marseille","lat":43.320045,"lon":5.415048,"is_reserved":false,"is_disabled":false,"rental_uris":{"android":"levelo://app?vid=aaa08283-b9de-4916-8a2b-1936aa2d28de","ios":"levelo://app?vid=aaa08283-b9de-4916-8a2b-1936aa2d28de"},"vehicle_type_id":"4","last_reported":1686855949,"current_range_meters":31200,"station_id":"ce4bhq92rcd13ifvqhkg","pricing_plan_id":"free"},{"bike_id":"0d766cb6-769f-4932-8e7a-6e11f8395820","system_id":"levelo_inurba_marseille","lat":43.320045,"lon":5.415046,"is_reserved":false,"is_disabled":false,"rental_uris":{"android":"levelo://app?vid=0d766cb6-769f-4932-8e7a-6e11f8395820","ios":"levelo://app?vid=0d766cb6-769f-4932-8e7a-6e11f8395820"},"vehicle_type_id":"4","last_reported":1686855949,"current_range_meters":28000,"station_id":"ce4bhq92rcd13ifvqhkg","pricing_plan_id":"free"},{"bike_id":"b3016403-edd8-4ffd-a2b9-1b615850a062","system_id":"levelo_inurba_marseille","lat":43.320045,"lon":5.415046,"is_reserved":false,"is_disabled":false,"rental_uris":{"android":"levelo://app?vid=b3016403-edd8-4ffd-a2b9-1b615850a062","ios":"levelo://app?vid=b3016403-edd8-4ffd-a2b9-1b615850a062"},"vehicle_type_id":"4","last_reported":1686855949,"current_range_meters":31200,"station_id":"ce4bhq92rcd13ifvqhkg","pricing_plan_id":"free"},{"bike_id":"b82a4b5e-9079-4ee1-a37c-675e175e1295","system_id":"levelo_inurba_marseille","lat":43.32048,"lon":5.41576,"is_reserved":false,"is_disabled":false,"rental_uris":{"android":"levelo://app?vid=b82a4b5e-9079-4ee1-a37c-675e175e1295","ios":"levelo://app?vid=b82a4b5e-9079-4ee1-a37c-675e175e1295"},"vehicle_type_id":"4","last_reported":1686855949,"current_range_meters":28000,"station_id":"ce4bhq92rcd13ifvqhkg","pricing_plan_id":"free"},{"bike_id":"c2f55d59-a8a1-46fa-a569-7a734176255f","system_id":"levelo_inurba_marseille","lat":43.320045,"lon":5.415046,"is_reserved":false,"is_disabled":false,"rental_uris":{"android":"levelo://app?vid=c2f55d59-a8a1-46fa-a569-7a734176255f","ios":"levelo://app?vid=c2f55d59-a8a1-46fa-a569-7a734176255f"},"vehicle_type_id":"4","last_reported":1686855949,"current_range_meters":29600,"station_id":"ce4bhq92rcd13ifvqhkg","pricing_plan_id":"free"},{"bike_id":"67d3221d-4b13-455b-8b7d-33eeee4b07e0","system_id":"levelo_inurba_marseille","lat":43.292569,"lon":5.409107,"is_reserved":false,"is_disabled":false,"rental_uris":{"android":"levelo://app?vid=67d3221d-4b13-455b-8b7d-33eeee4b07e0","ios":"levelo://app?vid=67d3221d-4b13-455b-8b7d-33eeee4b07e0"},"vehicle_type_id":"4","last_reported":1686855949,"current_range_meters":400,"station_id":"ce4bh192rcd13ifvqdc0","pricing_plan_id":"free"},{"bike_id":"1d46138c-490c-4265-b0ed-8c49592a7c22","system_id":"levelo_inurba_marseille","lat":43.292571,"lon":5.409107,"is_reserved":false,"is_disabled":false,"rental_uris":{"android":"levelo://app?vid=1d46138c-490c-4265-b0ed-8c49592a7c22","ios":"levelo://app?vid=1d46138c-490c-4265-b0ed-8c49592a7c22"},"vehicle_type_id":"4","last_reported":1686855949,"current_range_meters":17200,"station_id":"ce4bh192rcd13ifvqdc0","pricing_plan_id":"free"},{"bike_id":"08055de6-fd35-424c-a61e-ae008c776754","system_id":"levelo_inurba_marseille","lat":43.292571,"lon":5.409107,"is_reserved":false,"is_disabled":false,"rental_uris":{"android":"levelo://app?vid=08055de6-fd35-424c-a61e-ae008c776754","ios":"levelo://app?vid=08055de6-fd35-424c-a61e-ae008c776754"},"vehicle_type_id":"4","last_reported":1686855949,"current_range_meters":21600,"station_id":"ce4bh192rcd13ifvqdc0","pricing_plan_id":"free"},{"bike_id":"808a7b2e-b853-410d-a028-60d905433bc1","system_id":"levelo_inurba_marseille","lat":43.325233,"lon":5.414318,"is_reserved":false,"is_disabled":false,"rental_uris":{"android":"levelo://app?vid=808a7b2e-b853-410d-a028-60d905433bc1","ios":"levelo://app?vid=808a7b2e-b853-410d-a028-60d905433bc1"},"vehicle_type_id":"4","last_reported":1686855949,"current_range_meters":20000,"station_id":"ce4bhq12rcd13ifvqhhg","pricing_plan_id":"free"},{"bike_id":"983d05d2-68ad-4c51-80c3-0abc7dcedc7e","system_id":"levelo_inurba_marseille","lat":43.27608,"lon":5.3611,"is_reserved":false,"is_disabled":false,"rental_uris":{"android":"levelo://app?vid=983d05d2-68ad-4c51-80c3-0abc7dcedc7e","ios":"levelo://app?vid=983d05d2-68ad-4c51-80c3-0abc7dcedc7e"},"vehicle_type_id":"4","last_reported":1686855949,"current_range_meters":14000,"station_id":"ce4bgj92rcd13ifvqbe0","pricing_plan_id":"free"},{"bike_id":"e6b3e608-5988-48b1-8fc1-17352e6b4723","system_id":"levelo_inurba_marseille","lat":43.280784,"lon":5.396622,"is_reserved":false,"is_disabled":false,"rental_uris":{"android":"levelo://app?vid=e6b3e608-5988-48b1-8fc1-17352e6b4723","ios":"levelo://app?vid=e6b3e608-5988-48b1-8fc1-17352e6b4723"},"vehicle_type_id":"4","last_reported":1686855949,"current_range_meters":2400,"station_id":"ce4bho12rcd13ifvqh2g","pricing_plan_id":"free"},{"bike_id":"6cb4195e-8f3b-45b8-a810-edd28a2e2cc3","system_id":"levelo_inurba_marseille","lat":43.303837,"lon":5.418724,"is_reserved":false,"is_disabled":false,"rental_uris":{"android":"levelo://app?vid=6cb4195e-8f3b-45b8-a810-edd28a2e2cc3","ios":"levelo://app?vid=6cb4195e-8f3b-45b8-a810-edd28a2e2cc3"},"vehicle_type_id":"4","last_reported":1686855949,"current_range_meters":6000,"station_id":"ce4bhop2rcd13ifvqh7g","pricing_plan_id":"free"},{"bike_id":"7b4e2a2f-03d5-437b-90f6-c8fb4e13ba49","system_id":"levelo_inurba_marseille","lat":43.278401,"lon":5.392152,"is_reserved":false,"is_disabled":false,"rental_uris":{"android":"levelo://app?vid=7b4e2a2f-03d5-437b-90f6-c8fb4e13ba49","ios":"levelo://app?vid=7b4e2a2f-03d5-437b-90f6-c8fb4e13ba49"},"vehicle_type_id":"4","last_reported":1686855949,"current_range_meters":4400,"station_id":"ce4bhjp2rcd13ifvqga0","pricing_plan_id":"free"},{"bike_id":"42ca3d34-c546-4c01-8265-3c8b7ffa760f","system_id":"levelo_inurba_marseille","lat":43.278401,"lon":5.392152,"is_reserved":false,"is_disabled":false,"rental_uris":{"android":"levelo://app?vid=42ca3d34-c546-4c01-8265-3c8b7ffa760f","ios":"levelo://app?vid=42ca3d34-c546-4c01-8265-3c8b7ffa760f"},"vehicle_type_id":"4","last_reported":1686855949,"current_range_meters":4000,"station_id":"ce4bhjp2rcd13ifvqga0","pricing_plan_id":"free"},{"bike_id":"087c4f76-733e-432d-800a-09a99ae5bd16","system_id":"levelo_inurba_marseille","lat":43.275625,"lon":5.384392,"is_reserved":false,"is_disabled":false,"rental_uris":{"android":"levelo://app?vid=087c4f76-733e-432d-800a-09a99ae5bd16","ios":"levelo://app?vid=087c4f76-733e-432d-800a-09a99ae5bd16"},"vehicle_type_id":"4","last_reported":1686855949,"current_range_meters":800,"station_id":"ce4bhh92rcd13ifvqfi0","pricing_plan_id":"free"},{"bike_id":"2563e8c7-5565-4674-ba56-d539965182bb","system_id":"levelo_inurba_marseille","lat":43.273613,"lon":5.362705,"is_reserved":false,"is_disabled":false,"rental_uris":{"android":"levelo://app?vid=2563e8c7-5565-4674-ba56-d539965182bb","ios":"levelo://app?vid=2563e8c7-5565-4674-ba56-d539965182bb"},"vehicle_type_id":"4","last_reported":1686855949,"current_range_meters":28400,"station_id":"ce4bhbh2rcd13ifvqeo0","pricing_plan_id":"free"},{"bike_id":"21e61fc1-1c04-432b-b30a-186e952de962","system_id":"levelo_inurba_marseille","lat":43.27377,"lon":5.3626,"is_reserved":false,"is_disabled":false,"rental_uris":{"android":"levelo://app?vid=21e61fc1-1c04-432b-b30a-186e952de962","ios":"levelo://app?vid=21e61fc1-1c04-432b-b30a-186e952de962"},"vehicle_type_id":"4","last_reported":1686855949,"current_range_meters":400,"station_id":"ce4bhbh2rcd13ifvqeo0","pricing_plan_id":"free"},{"bike_id":"608131e0-cf80-4418-8e74-bac4c745bcce","system_id":"levelo_inurba_marseille","lat":43.273613,"lon":5.362705,"is_reserved":false,"is_disabled":false,"rental_uris":{"android":"levelo://app?vid=608131e0-cf80-4418-8e74-bac4c745bcce","ios":"levelo://app?vid=608131e0-cf80-4418-8e74-bac4c745bcce"},"vehicle_type_id":"4","last_reported":1686855949,"current_range_meters":400,"station_id":"ce4bhbh2rcd13ifvqeo0","pricing_plan_id":"free"},{"bike_id":"2449945f-2881-4a23-bead-ea9dc6cd9806","system_id":"levelo_inurba_marseille","lat":43.27377,"lon":5.36248,"is_reserved":false,"is_disabled":false,"rental_uris":{"android":"levelo://app?vid=2449945f-2881-4a23-bead-ea9dc6cd9806","ios":"levelo://app?vid=2449945f-2881-4a23-bead-ea9dc6cd9806"},"vehicle_type_id":"4","last_reported":1686855949,"current_range_meters":31200,"station_id":"","pricing_plan_id":"free"},{"bike_id":"3c88d91b-fdfd-4015-a72d-74659c1d1937","system_id":"levelo_inurba_marseille","lat":43.273613,"lon":5.362705,"is_reserved":false,"is_disabled":false,"rental_uris":{"android":"levelo://app?vid=3c88d91b-fdfd-4015-a72d-74659c1d1937","ios":"levelo://app?vid=3c88d91b-fdfd-4015-a72d-74659c1d1937"},"vehicle_type_id":"4","last_reported":1686855949,"current_range_meters":13200,"station_id":"ce4bhbh2rcd13ifvqeo0","pricing_plan_id":"free"},{"bike_id":"e8c99334-4905-48e2-b3d8-07d40351b41d","system_id":"levelo_inurba_marseille","lat":43.273613,"lon":5.362705,"is_reserved":false,"is_disabled":false,"rental_uris":{"android":"levelo://app?vid=e8c99334-4905-48e2-b3d8-07d40351b41d","ios":"levelo://app?vid=e8c99334-4905-48e2-b3d8-07d40351b41d"},"vehicle_type_id":"4","last_reported":1686855949,"current_range_meters":29200,"station_id":"ce4bhbh2rcd13ifvqeo0","pricing_plan_id":"free"},{"bike_id":"8eb3c6f1-4877-4148-9a5d-9331d6c2f4a7","system_id":"levelo_inurba_marseille","lat":43.27372,"lon":5.3626,"is_reserved":false,"is_disabled":false,"rental_uris":{"android":"levelo://app?vid=8eb3c6f1-4877-4148-9a5d-9331d6c2f4a7","ios":"levelo://app?vid=8eb3c6f1-4877-4148-9a5d-9331d6c2f4a7"},"vehicle_type_id":"4","last_reported":1686855949,"current_range_meters":14000,"station_id":"ce4bhbh2rcd13ifvqeo0","pricing_plan_id":"free"},{"bike_id":"2420f382-0554-42e7-8f3f-ae6a2a94f80b","system_id":"levelo_inurba_marseille","lat":43.273609,"lon":5.362708,"is_reserved":false,"is_disabled":false,"rental_uris":{"android":"levelo://app?vid=2420f382-0554-42e7-8f3f-ae6a2a94f80b","ios":"levelo://app?vid=2420f382-0554-42e7-8f3f-ae6a2a94f80b"},"vehicle_type_id":"4","last_reported":1686855949,"current_range_meters":29600,"station_id":"ce4bhbh2rcd13ifvqeo0","pricing_plan_id":"free"},{"bike_id":"7750236f-ba31-469e-84b0-a523eba4751d","system_id":"levelo_inurba_marseille","lat":43.273613,"lon":5.362705,"is_reserved":false,"is_disabled":false,"rental_uris":{"android":"levelo://app?vid=7750236f-ba31-469e-84b0-a523eba4751d","ios":"levelo://app?vid=7750236f-ba31-469e-84b0-a523eba4751d"},"vehicle_type_id":"4","last_reported":1686855949,"current_range_meters":31200,"station_id":"ce4bhbh2rcd13ifvqeo0","pricing_plan_id":"free"},{"bike_id":"b4a0c15d-d01a-42d1-8259-f8a43cafba0c","system_id":"levelo_inurba_marseille","lat":43.33612,"lon":5.410321,"is_reserved":false,"is_disabled":false,"rental_uris":{"android":"levelo://app?vid=b4a0c15d-d01a-42d1-8259-f8a43cafba0c","ios":"levelo://app?vid=b4a0c15d-d01a-42d1-8259-f8a43cafba0c"},"vehicle_type_id":"4","last_reported":1686855949,"current_range_meters":27200,"station_id":"ce4bhqh2rcd13ifvqhmg","pricing_plan_id":"free"},{"bike_id":"1f224297-6a23-4500-af11-da48ecbf3284","system_id":"levelo_inurba_marseille","lat":43.33612,"lon":5.410321,"is_reserved":false,"is_disabled":false,"rental_uris":{"android":"levelo://app?vid=1f224297-6a23-4500-af11-da48ecbf3284","ios":"levelo://app?vid=1f224297-6a23-4500-af11-da48ecbf3284"},"vehicle_type_id":"4","last_reported":1686855949,"current_range_meters":29600,"station_id":"ce4bhqh2rcd13ifvqhmg","pricing_plan_id":"free"},{"bike_id":"91761ad8-545c-4e82-9a72-2f9b85064bd2","system_id":"levelo_inurba_marseille","lat":43.336134,"lon":5.410341,"is_reserved":false,"is_disabled":false,"rental_uris":{"android":"levelo://app?vid=91761ad8-545c-4e82-9a72-2f9b85064bd2","ios":"levelo://app?vid=91761ad8-545c-4e82-9a72-2f9b85064bd2"},"vehicle_type_id":"4","last_reported":1686855949,"current_range_meters":24400,"station_id":"ce4bhqh2rcd13ifvqhmg","pricing_plan_id":"free"},{"bike_id":"3fa8ebdc-aa99-4ea6-a910-7119710cb2b1","system_id":"levelo_inurba_marseille","lat":43.317121,"lon":5.423936,"is_reserved":false,"is_disabled":false,"rental_uris":{"android":"levelo://app?vid=3fa8ebdc-aa99-4ea6-a910-7119710cb2b1","ios":"levelo://app?vid=3fa8ebdc-aa99-4ea6-a910-7119710cb2b1"},"vehicle_type_id":"4","last_reported":1686855949,"current_range_meters":19200,"station_id":"ce4bhp92rcd13ifvqhbg","pricing_plan_id":"free"},{"bike_id":"e02287b1-056f-4bc4-9646-47090fe04fbf","system_id":"levelo_inurba_marseille","lat":43.317121,"lon":5.423936,"is_reserved":false,"is_disabled":false,"rental_uris":{"android":"levelo://app?vid=e02287b1-056f-4bc4-9646-47090fe04fbf","ios":"levelo://app?vid=e02287b1-056f-4bc4-9646-47090fe04fbf"},"vehicle_type_id":"4","last_reported":1686855949,"current_range_meters":22800,"station_id":"ce4bhp92rcd13ifvqhbg","pricing_plan_id":"free"},{"bike_id":"326b453c-f42e-4f99-97cc-3c8ecf046add","system_id":"levelo_inurba_marseille","lat":43.27417,"lon":5.39409,"is_reserved":false,"is_disabled":false,"rental_uris":{"android":"levelo://app?vid=326b453c-f42e-4f99-97cc-3c8ecf046add","ios":"levelo://app?vid=326b453c-f42e-4f99-97cc-3c8ecf046add"},"vehicle_type_id":"4","last_reported":1686855949,"current_range_meters":31200,"station_id":"ce4bhdp2rcd13ifvqf20","pricing_plan_id":"free"},{"bike_id":"f82c4e0b-ce86-4de4-962b-f266d6ba506e","system_id":"levelo_inurba_marseille","lat":43.273125,"lon":5.390731,"is_reserved":false,"is_disabled":false,"rental_uris":{"android":"levelo://app?vid=f82c4e0b-ce86-4de4-962b-f266d6ba506e","ios":"levelo://app?vid=f82c4e0b-ce86-4de4-962b-f266d6ba506e"},"vehicle_type_id":"4","last_reported":1686855949,"current_range_meters":16000,"station_id":"ce4bhgp2rcd13ifvqfe0","pricing_plan_id":"free"},{"bike_id":"bf6d348c-2130-4bec-a215-ad74a5ebcd06","system_id":"levelo_inurba_marseille","lat":43.304096,"lon":5.425385,"is_reserved":false,"is_disabled":false,"rental_uris":{"android":"levelo://app?vid=bf6d348c-2130-4bec-a215-ad74a5ebcd06","ios":"levelo://app?vid=bf6d348c-2130-4bec-a215-ad74a5ebcd06"},"vehicle_type_id":"4","last_reported":1686855949,"current_range_meters":0,"station_id":"ce4bhoh2rcd13ifvqh6g","pricing_plan_id":"free"},{"bike_id":"53b810fc-e0a6-46ed-bf3c-21d580efe7a1","system_id":"levelo_inurba_marseille","lat":43.30411,"lon":5.42551,"is_reserved":false,"is_disabled":false,"rental_uris":{"android":"levelo://app?vid=53b810fc-e0a6-46ed-bf3c-21d580efe7a1","ios":"levelo://app?vid=53b810fc-e0a6-46ed-bf3c-21d580efe7a1"},"vehicle_type_id":"4","last_reported":1686855949,"current_range_meters":4400,"station_id":"ce4bhoh2rcd13ifvqh6g","pricing_plan_id":"free"},{"bike_id":"b0ee2bb5-3189-4f60-a005-f04d4a81520e","system_id":"levelo_inurba_marseille","lat":43.295523,"lon":5.422926,"is_reserved":false,"is_disabled":false,"rental_uris":{"android":"levelo://app?vid=b0ee2bb5-3189-4f60-a005-f04d4a81520e","ios":"levelo://app?vid=b0ee2bb5-3189-4f60-a005-f04d4a81520e"},"vehicle_type_id":"4","last_reported":1686855949,"current_range_meters":11200,"station_id":"ce4bhph2rcd13ifvqhdg","pricing_plan_id":"free"},{"bike_id":"b6ae69e0-7c94-485c-91e3-c97468913591","system_id":"levelo_inurba_marseille","lat":43.295523,"lon":5.422926,"is_reserved":false,"is_disabled":false,"rental_uris":{"android":"levelo://app?vid=b6ae69e0-7c94-485c-91e3-c97468913591","ios":"levelo://app?vid=b6ae69e0-7c94-485c-91e3-c97468913591"},"vehicle_type_id":"4","last_reported":1686855949,"current_range_meters":800,"station_id":"ce4bhph2rcd13ifvqhdg","pricing_plan_id":"free"},{"bike_id":"f4197ee4-864a-4564-8538-ca3f8d1cdea5","system_id":"levelo_inurba_marseille","lat":43.27811,"lon":5.4071,"is_reserved":false,"is_disabled":false,"rental_uris":{"android":"levelo://app?vid=f4197ee4-864a-4564-8538-ca3f8d1cdea5","ios":"levelo://app?vid=f4197ee4-864a-4564-8538-ca3f8d1cdea5"},"vehicle_type_id":"4","last_reported":1686855949,"current_range_meters":400,"station_id":"ce4bhnh2rcd13ifvqgtg","pricing_plan_id":"free"},{"bike_id":"6275aaca-a354-407f-be44-df40f2969d44","system_id":"levelo_inurba_marseille","lat":43.26681,"lon":5.382694,"is_reserved":false,"is_disabled":false,"rental_uris":{"android":"levelo://app?vid=6275aaca-a354-407f-be44-df40f2969d44","ios":"levelo://app?vid=6275aaca-a354-407f-be44-df40f2969d44"},"vehicle_type_id":"4","last_reported":1686855949,"current_range_meters":31200,"station_id":"ce4bhg92rcd13ifvqf90","pricing_plan_id":"free"},{"bike_id":"cfba2fbe-9ed5-423f-b411-8d6c38451715","system_id":"levelo_inurba_marseille","lat":43.26681,"lon":5.382694,"is_reserved":false,"is_disabled":false,"rental_uris":{"android":"levelo://app?vid=cfba2fbe-9ed5-423f-b411-8d6c38451715","ios":"levelo://app?vid=cfba2fbe-9ed5-423f-b411-8d6c38451715"},"vehicle_type_id":"4","last_reported":1686855949,"current_range_meters":31200,"station_id":"ce4bhg92rcd13ifvqf90","pricing_plan_id":"free"},{"bike_id":"4df698b3-48fa-4e40-aba0-ec5c5e9af476","system_id":"levelo_inurba_marseille","lat":43.26681,"lon":5.382694,"is_reserved":false,"is_disabled":false,"rental_uris":{"android":"levelo://app?vid=4df698b3-48fa-4e40-aba0-ec5c5e9af476","ios":"levelo://app?vid=4df698b3-48fa-4e40-aba0-ec5c5e9af476"},"vehicle_type_id":"4","last_reported":1686855949,"current_range_meters":8000,"station_id":"ce4bhg92rcd13ifvqf90","pricing_plan_id":"free"},{"bike_id":"8f12b3e4-d904-4681-a504-f4abd09d4d5b","system_id":"levelo_inurba_marseille","lat":43.26426,"lon":5.37227,"is_reserved":false,"is_disabled":false,"rental_uris":{"android":"levelo://app?vid=8f12b3e4-d904-4681-a504-f4abd09d4d5b","ios":"levelo://app?vid=8f12b3e4-d904-4681-a504-f4abd09d4d5b"},"vehicle_type_id":"4","last_reported":1686855949,"current_range_meters":18000,"station_id":"","pricing_plan_id":"free"},{"bike_id":"6adcd780-1f21-4659-b4a0-8da24a6c4da0","system_id":"levelo_inurba_marseille","lat":43.27996,"lon":5.416624,"is_reserved":false,"is_disabled":false,"rental_uris":{"android":"levelo://app?vid=6adcd780-1f21-4659-b4a0-8da24a6c4da0","ios":"levelo://app?vid=6adcd780-1f21-4659-b4a0-8da24a6c4da0"},"vehicle_type_id":"4","last_reported":1686855949,"current_range_meters":18800,"station_id":"ce4bho12rcd13ifvqh1g","pricing_plan_id":"free"},{"bike_id":"d172bec7-fe16-49ee-b8b9-7774a79dad6c","system_id":"levelo_inurba_marseille","lat":43.27996,"lon":5.416624,"is_reserved":false,"is_disabled":false,"rental_uris":{"android":"levelo://app?vid=d172bec7-fe16-49ee-b8b9-7774a79dad6c","ios":"levelo://app?vid=d172bec7-fe16-49ee-b8b9-7774a79dad6c"},"vehicle_type_id":"4","last_reported":1686855949,"current_range_meters":400,"station_id":"ce4bho12rcd13ifvqh1g","pricing_plan_id":"free"},{"bike_id":"749898e0-7e19-4b81-b542-6dc75e4e531e","system_id":"levelo_inurba_marseille","lat":43.27996,"lon":5.416624,"is_reserved":false,"is_disabled":false,"rental_uris":{"android":"levelo://app?vid=749898e0-7e19-4b81-b542-6dc75e4e531e","ios":"levelo://app?vid=749898e0-7e19-4b81-b542-6dc75e4e531e"},"vehicle_type_id":"4","last_reported":1686855949,"current_range_meters":3600,"station_id":"ce4bho12rcd13ifvqh1g","pricing_plan_id":"free"},{"bike_id":"cbaf7c75-be10-4a2d-b192-fa4ebf8e2763","system_id":"levelo_inurba_marseille","lat":43.27996,"lon":5.416624,"is_reserved":false,"is_disabled":false,"rental_uris":{"android":"levelo://app?vid=cbaf7c75-be10-4a2d-b192-fa4ebf8e2763","ios":"levelo://app?vid=cbaf7c75-be10-4a2d-b192-fa4ebf8e2763"},"vehicle_type_id":"4","last_reported":1686855949,"current_range_meters":0,"station_id":"ce4bho12rcd13ifvqh1g","pricing_plan_id":"free"},{"bike_id":"1a99213b-7835-43f9-9650-2e4f75d6fbd1","system_id":"levelo_inurba_marseille","lat":43.27996,"lon":5.416624,"is_reserved":false,"is_disabled":false,"rental_uris":{"android":"levelo://app?vid=1a99213b-7835-43f9-9650-2e4f75d6fbd1","ios":"levelo://app?vid=1a99213b-7835-43f9-9650-2e4f75d6fbd1"},"vehicle_type_id":"4","last_reported":1686855949,"current_range_meters":13200,"station_id":"ce4bho12rcd13ifvqh1g","pricing_plan_id":"free"},{"bike_id":"3987290e-fd4b-4f2b-81c0-57fca98f9cde","system_id":"levelo_inurba_marseille","lat":43.26783,"lon":5.39419,"is_reserved":false,"is_disabled":false,"rental_uris":{"android":"levelo://app?vid=3987290e-fd4b-4f2b-81c0-57fca98f9cde","ios":"levelo://app?vid=3987290e-fd4b-4f2b-81c0-57fca98f9cde"},"vehicle_type_id":"4","last_reported":1686855949,"current_range_meters":30400,"station_id":"ce4bhh12rcd13ifvqfg0","pricing_plan_id":"free"},{"bike_id":"2fa6184a-d16c-4ef0-aa49-ef882f15bbe1","system_id":"levelo_inurba_marseille","lat":43.30809,"lon":5.43522,"is_reserved":false,"is_disabled":false,"rental_uris":{"android":"levelo://app?vid=2fa6184a-d16c-4ef0-aa49-ef882f15bbe1","ios":"levelo://app?vid=2fa6184a-d16c-4ef0-aa49-ef882f15bbe1"},"vehicle_type_id":"4","last_reported":1686855949,"current_range_meters":11600,"station_id":"","pricing_plan_id":"free"},{"bike_id":"9be000a7-c6b6-4f12-98bc-f187ad54e568","system_id":"levelo_inurba_marseille","lat":43.308,"lon":5.43521,"is_reserved":false,"is_disabled":false,"rental_uris":{"android":"levelo://app?vid=9be000a7-c6b6-4f12-98bc-f187ad54e568","ios":"levelo://app?vid=9be000a7-c6b6-4f12-98bc-f187ad54e568"},"vehicle_type_id":"4","last_reported":1686855949,"current_range_meters":18400,"station_id":"","pricing_plan_id":"free"},{"bike_id":"74088c92-caa8-4325-93ba-3194bcea9d62","system_id":"levelo_inurba_marseille","lat":43.30805,"lon":5.43522,"is_reserved":false,"is_disabled":false,"rental_uris":{"android":"levelo://app?vid=74088c92-caa8-4325-93ba-3194bcea9d62","ios":"levelo://app?vid=74088c92-caa8-4325-93ba-3194bcea9d62"},"vehicle_type_id":"4","last_reported":1686855949,"current_range_meters":2800,"station_id":"","pricing_plan_id":"free"},{"bike_id":"78e97d53-9c5c-46cb-b7c7-4d7a3e7a8100","system_id":"levelo_inurba_marseille","lat":43.308,"lon":5.43528,"is_reserved":false,"is_disabled":false,"rental_uris":{"android":"levelo://app?vid=78e97d53-9c5c-46cb-b7c7-4d7a3e7a8100","ios":"levelo://app?vid=78e97d53-9c5c-46cb-b7c7-4d7a3e7a8100"},"vehicle_type_id":"4","last_reported":1686855949,"current_range_meters":19600,"station_id":"","pricing_plan_id":"free"},{"bike_id":"f9938518-c63f-4d80-bc36-ea3dddc8779f","system_id":"levelo_inurba_marseille","lat":43.317104,"lon":5.436818,"is_reserved":false,"is_disabled":false,"rental_uris":{"android":"levelo://app?vid=f9938518-c63f-4d80-bc36-ea3dddc8779f","ios":"levelo://app?vid=f9938518-c63f-4d80-bc36-ea3dddc8779f"},"vehicle_type_id":"4","last_reported":1686855949,"current_range_meters":30800,"station_id":"ce4bhp92rcd13ifvqhcg","pricing_plan_id":"free"},{"bike_id":"a0cbef13-77ee-497c-ae76-87f5e0cdce44","system_id":"levelo_inurba_marseille","lat":43.261782,"lon":5.374515,"is_reserved":false,"is_disabled":false,"rental_uris":{"android":"levelo://app?vid=a0cbef13-77ee-497c-ae76-87f5e0cdce44","ios":"levelo://app?vid=a0cbef13-77ee-497c-ae76-87f5e0cdce44"},"vehicle_type_id":"4","last_reported":1686855949,"current_range_meters":31200,"station_id":"ce4bhgp2rcd13ifvqfc0","pricing_plan_id":"free"},{"bike_id":"ee8dc899-b25e-46d2-9574-647a547f63e6","system_id":"levelo_inurba_marseille","lat":43.261782,"lon":5.374515,"is_reserved":false,"is_disabled":false,"rental_uris":{"android":"levelo://app?vid=ee8dc899-b25e-46d2-9574-647a547f63e6","ios":"levelo://app?vid=ee8dc899-b25e-46d2-9574-647a547f63e6"},"vehicle_type_id":"4","last_reported":1686855949,"current_range_meters":31200,"station_id":"ce4bhgp2rcd13ifvqfc0","pricing_plan_id":"free"},{"bike_id":"707852c1-a29a-4a86-968d-5cda5dcc5a6b","system_id":"levelo_inurba_marseille","lat":43.261846,"lon":5.374472,"is_reserved":false,"is_disabled":false,"rental_uris":{"android":"levelo://app?vid=707852c1-a29a-4a86-968d-5cda5dcc5a6b","ios":"levelo://app?vid=707852c1-a29a-4a86-968d-5cda5dcc5a6b"},"vehicle_type_id":"4","last_reported":1686855949,"current_range_meters":22000,"station_id":"ce4bhgp2rcd13ifvqfc0","pricing_plan_id":"free"},{"bike_id":"e1522585-8121-4908-923c-0b240723b22f","system_id":"levelo_inurba_marseille","lat":43.261782,"lon":5.374515,"is_reserved":false,"is_disabled":false,"rental_uris":{"android":"levelo://app?vid=e1522585-8121-4908-923c-0b240723b22f","ios":"levelo://app?vid=e1522585-8121-4908-923c-0b240723b22f"},"vehicle_type_id":"4","last_reported":1686855949,"current_range_meters":0,"station_id":"ce4bhgp2rcd13ifvqfc0","pricing_plan_id":"free"},{"bike_id":"e41e945b-2e1a-4a3a-9b24-001d3982c0d3","system_id":"levelo_inurba_marseille","lat":43.317104,"lon":5.436818,"is_reserved":false,"is_disabled":false,"rental_uris":{"android":"levelo://app?vid=e41e945b-2e1a-4a3a-9b24-001d3982c0d3","ios":"levelo://app?vid=e41e945b-2e1a-4a3a-9b24-001d3982c0d3"},"vehicle_type_id":"4","last_reported":1686855949,"current_range_meters":3600,"station_id":"ce4bhp92rcd13ifvqhcg","pricing_plan_id":"free"},{"bike_id":"14d950e8-0be6-4d17-887e-2aa52ba454bf","system_id":"levelo_inurba_marseille","lat":43.27184,"lon":5.40991,"is_reserved":false,"is_disabled":false,"rental_uris":{"android":"levelo://app?vid=14d950e8-0be6-4d17-887e-2aa52ba454bf","ios":"levelo://app?vid=14d950e8-0be6-4d17-887e-2aa52ba454bf"},"vehicle_type_id":"4","last_reported":1686855949,"current_range_meters":21200,"station_id":"","pricing_plan_id":"free"},{"bike_id":"8cef4df0-69b8-4c21-a763-577c04b1e207","system_id":"levelo_inurba_marseille","lat":43.271849,"lon":5.40994,"is_reserved":false,"is_disabled":false,"rental_uris":{"android":"levelo://app?vid=8cef4df0-69b8-4c21-a763-577c04b1e207","ios":"levelo://app?vid=8cef4df0-69b8-4c21-a763-577c04b1e207"},"vehicle_type_id":"4","last_reported":1686855949,"current_range_meters":24800,"station_id":"","pricing_plan_id":"free"},{"bike_id":"105d388f-6463-4aeb-a083-d8b8ce680623","system_id":"levelo_inurba_marseille","lat":43.27173,"lon":5.40988,"is_reserved":false,"is_disabled":false,"rental_uris":{"android":"levelo://app?vid=105d388f-6463-4aeb-a083-d8b8ce680623","ios":"levelo://app?vid=105d388f-6463-4aeb-a083-d8b8ce680623"},"vehicle_type_id":"4","last_reported":1686855949,"current_range_meters":8800,"station_id":"","pricing_plan_id":"free"},{"bike_id":"5137a758-9a33-4c6f-8ca9-7bcf26cfab19","system_id":"levelo_inurba_marseille","lat":43.27171,"lon":5.40992,"is_reserved":false,"is_disabled":false,"rental_uris":{"android":"levelo://app?vid=5137a758-9a33-4c6f-8ca9-7bcf26cfab19","ios":"levelo://app?vid=5137a758-9a33-4c6f-8ca9-7bcf26cfab19"},"vehicle_type_id":"4","last_reported":1686855949,"current_range_meters":23600,"station_id":"","pricing_plan_id":"free"},{"bike_id":"78bfd6e1-405b-4aa6-abf0-061f070712e1","system_id":"levelo_inurba_marseille","lat":43.27172,"lon":5.40994,"is_reserved":false,"is_disabled":false,"rental_uris":{"android":"levelo://app?vid=78bfd6e1-405b-4aa6-abf0-061f070712e1","ios":"levelo://app?vid=78bfd6e1-405b-4aa6-abf0-061f070712e1"},"vehicle_type_id":"4","last_reported":1686855949,"current_range_meters":28400,"station_id":"","pricing_plan_id":"free"},{"bike_id":"d7ff504d-beb5-4f65-9fa6-eedf51fa45f1","system_id":"levelo_inurba_marseille","lat":43.26314,"lon":5.40261,"is_reserved":false,"is_disabled":false,"rental_uris":{"android":"levelo://app?vid=d7ff504d-beb5-4f65-9fa6-eedf51fa45f1","ios":"levelo://app?vid=d7ff504d-beb5-4f65-9fa6-eedf51fa45f1"},"vehicle_type_id":"4","last_reported":1686855949,"current_range_meters":14000,"station_id":"","pricing_plan_id":"free"},{"bike_id":"ec5a6dc1-2cea-487e-b2e9-516f7d8cc376","system_id":"levelo_inurba_marseille","lat":43.275028,"lon":5.424534,"is_reserved":false,"is_disabled":false,"rental_uris":{"android":"levelo://app?vid=ec5a6dc1-2cea-487e-b2e9-516f7d8cc376","ios":"levelo://app?vid=ec5a6dc1-2cea-487e-b2e9-516f7d8cc376"},"vehicle_type_id":"4","last_reported":1686855949,"current_range_meters":16800,"station_id":"ce4bhn92rcd13ifvqgrg","pricing_plan_id":"free"},{"bike_id":"8ee27250-5302-40fe-a890-60b9085effa8","system_id":"levelo_inurba_marseille","lat":43.254947,"lon":5.376454,"is_reserved":false,"is_disabled":false,"rental_uris":{"android":"levelo://app?vid=8ee27250-5302-40fe-a890-60b9085effa8","ios":"levelo://app?vid=8ee27250-5302-40fe-a890-60b9085effa8"},"vehicle_type_id":"4","last_reported":1686855949,"current_range_meters":4000,"station_id":"ce4bhh12rcd13ifvqff0","pricing_plan_id":"free"},{"bike_id":"946e3a71-4d70-4b5e-9c2d-e78b9abf3061","system_id":"levelo_inurba_marseille","lat":43.254947,"lon":5.376454,"is_reserved":false,"is_disabled":false,"rental_uris":{"android":"levelo://app?vid=946e3a71-4d70-4b5e-9c2d-e78b9abf3061","ios":"levelo://app?vid=946e3a71-4d70-4b5e-9c2d-e78b9abf3061"},"vehicle_type_id":"4","last_reported":1686855949,"current_range_meters":0,"station_id":"ce4bhh12rcd13ifvqff0","pricing_plan_id":"free"},{"bike_id":"2b12f34a-0fb8-4baf-8fde-9c4248b05385","system_id":"levelo_inurba_marseille","lat":43.254947,"lon":5.376454,"is_reserved":false,"is_disabled":false,"rental_uris":{"android":"levelo://app?vid=2b12f34a-0fb8-4baf-8fde-9c4248b05385","ios":"levelo://app?vid=2b12f34a-0fb8-4baf-8fde-9c4248b05385"},"vehicle_type_id":"4","last_reported":1686855949,"current_range_meters":800,"station_id":"ce4bhh12rcd13ifvqff0","pricing_plan_id":"free"},{"bike_id":"735e2bd4-bfa5-4447-b277-275bb1bcb39d","system_id":"levelo_inurba_marseille","lat":43.25496,"lon":5.37651,"is_reserved":false,"is_disabled":false,"rental_uris":{"android":"levelo://app?vid=735e2bd4-bfa5-4447-b277-275bb1bcb39d","ios":"levelo://app?vid=735e2bd4-bfa5-4447-b277-275bb1bcb39d"},"vehicle_type_id":"4","last_reported":1686855949,"current_range_meters":27200,"station_id":"ce4bhh12rcd13ifvqff0","pricing_plan_id":"free"},{"bike_id":"35059ef6-c4cc-443d-8f4e-de3b32f19ef6","system_id":"levelo_inurba_marseille","lat":43.254945,"lon":5.376454,"is_reserved":false,"is_disabled":false,"rental_uris":{"android":"levelo://app?vid=35059ef6-c4cc-443d-8f4e-de3b32f19ef6","ios":"levelo://app?vid=35059ef6-c4cc-443d-8f4e-de3b32f19ef6"},"vehicle_type_id":"4","last_reported":1686855949,"current_range_meters":8800,"station_id":"ce4bhh12rcd13ifvqff0","pricing_plan_id":"free"},{"bike_id":"5593c6b2-b1f8-4c94-87e0-60b354d00e79","system_id":"levelo_inurba_marseille","lat":43.254947,"lon":5.376454,"is_reserved":false,"is_disabled":false,"rental_uris":{"android":"levelo://app?vid=5593c6b2-b1f8-4c94-87e0-60b354d00e79","ios":"levelo://app?vid=5593c6b2-b1f8-4c94-87e0-60b354d00e79"},"vehicle_type_id":"4","last_reported":1686855949,"current_range_meters":18400,"station_id":"ce4bhh12rcd13ifvqff0","pricing_plan_id":"free"},{"bike_id":"1a5d176f-e3ce-4e4a-aced-5dda529a46f0","system_id":"levelo_inurba_marseille","lat":43.254947,"lon":5.376454,"is_reserved":false,"is_disabled":false,"rental_uris":{"android":"levelo://app?vid=1a5d176f-e3ce-4e4a-aced-5dda529a46f0","ios":"levelo://app?vid=1a5d176f-e3ce-4e4a-aced-5dda529a46f0"},"vehicle_type_id":"4","last_reported":1686855949,"current_range_meters":17200,"station_id":"ce4bhh12rcd13ifvqff0","pricing_plan_id":"free"},{"bike_id":"ca397d50-305d-45b7-a52b-bce9c80f83b9","system_id":"levelo_inurba_marseille","lat":43.254947,"lon":5.376454,"is_reserved":false,"is_disabled":false,"rental_uris":{"android":"levelo://app?vid=ca397d50-305d-45b7-a52b-bce9c80f83b9","ios":"levelo://app?vid=ca397d50-305d-45b7-a52b-bce9c80f83b9"},"vehicle_type_id":"4","last_reported":1686855949,"current_range_meters":13200,"station_id":"ce4bhh12rcd13ifvqff0","pricing_plan_id":"free"},{"bike_id":"fcd51637-dc5f-4022-b88d-a41dc12d5d28","system_id":"levelo_inurba_marseille","lat":43.27075,"lon":5.42279,"is_reserved":false,"is_disabled":false,"rental_uris":{"android":"levelo://app?vid=fcd51637-dc5f-4022-b88d-a41dc12d5d28","ios":"levelo://app?vid=fcd51637-dc5f-4022-b88d-a41dc12d5d28"},"vehicle_type_id":"4","last_reported":1686855949,"current_range_meters":12400,"station_id":"ce4bhk92rcd13ifvqgb0","pricing_plan_id":"free"},{"bike_id":"163495de-6832-427d-8964-bbc4240dcb0e","system_id":"levelo_inurba_marseille","lat":43.270721,"lon":5.422764,"is_reserved":false,"is_disabled":false,"rental_uris":{"android":"levelo://app?vid=163495de-6832-427d-8964-bbc4240dcb0e","ios":"levelo://app?vid=163495de-6832-427d-8964-bbc4240dcb0e"},"vehicle_type_id":"4","last_reported":1686855949,"current_range_meters":27600,"station_id":"ce4bhk92rcd13ifvqgb0","pricing_plan_id":"free"},{"bike_id":"b8e22036-e2f3-40de-a574-a294ebc5d735","system_id":"levelo_inurba_marseille","lat":43.270721,"lon":5.422764,"is_reserved":false,"is_disabled":false,"rental_uris":{"android":"levelo://app?vid=b8e22036-e2f3-40de-a574-a294ebc5d735","ios":"levelo://app?vid=b8e22036-e2f3-40de-a574-a294ebc5d735"},