{"last_updated":1748538564,"ttl":60,"version":"2.2","data":{"bikes":[{"bike_id":"55d42eeb-6b71-4987-a0f2-3d758b10d43e","system_id":"levelo_inurba_marseille","lat":43.33771,"lon":5.37424,"is_reserved":false,"is_disabled":true,"rental_uris":{"android":"levelo://app?vid=55d42eeb-6b71-4987-a0f2-3d758b10d43e","ios":"levelo://app?vid=55d42eeb-6b71-4987-a0f2-3d758b10d43e"},"vehicle_type_id":"4","last_reported":1748538564,"current_range_meters":0,"station_id":"","pricing_plan_id":"cebpf4jnsgd1na2vs0mg"},{"bike_id":"0ef803a5-4571-4d58-8c82-f80d2dcd62dd","system_id":"levelo_inurba_marseille","lat":43.217851,"lon":5.345946,"is_reserved":false,"is_disabled":true,"rental_uris":{"android":"levelo://app?vid=0ef803a5-4571-4d58-8c82-f80d2dcd62dd","ios":"levelo://app?vid=0ef803a5-4571-4d58-8c82-f80d2dcd62dd"},"vehicle_type_id":"4","last_reported":1748538564,"current_range_meters":0,"station_id":"","pricing_plan_id":"cebpf4jnsgd1na2vs0mg"},{"bike_id":"b7fe4621-b706-42f0-9085-4811142f84e8","system_id":"levelo_inurba_marseille","lat":43.337499,"lon":5.374469,"is_reserved":false,"is_disabled":true,"rental_uris":{"android":"levelo://app?vid=b7fe4621-b706-42f0-9085-4811142f84e8","ios":"levelo://app?vid=b7fe4621-b706-42f0-9085-4811142f84e8"},"vehicle_type_id":"4","last_reported":1748538564,"current_range_meters":0,"station_id":"","pricing_plan_id":"cebpf4jnsgd1na2vs0mg"},{"bike_id":"2a4c12b9-20f8-4a57-9dbe-920bc253b604","system_id":"levelo_inurba_marseille","lat":43.33005,"lon":5.38395,"is_reserved":false,"is_disabled":true,"rental_uris":{"android":"levelo://app?vid=2a4c12b9-20f8-4a57-9dbe-920bc253b604","ios":"levelo://app?vid=2a4c12b9-20f8-4a57-9dbe-920bc253b604"},"vehicle_type_id":"4","last_reported":1748538564,"current_range_meters":0,"station_id":"","pricing_plan_id":"cebpf4jnsgd1na2vs0mg"},{"bike_id":"ad402f0f-3192-410c-afac-8cf064a40c6d","system_id":"levelo_inurba_marseille","lat":43.337444,"lon":5.374475,"is_reserved":false,"is_disabled":true,"rental_uris":{"android":"levelo://app?vid=ad402f0f-3192-410c-afac-8cf064a40c6d","ios":"levelo://app?vid=ad402f0f-3192-410c-afac-8cf064a40c6d"},"vehicle_type_id":"4","last_reported":1748538564,"current_range_meters":0,"station_id":"","pricing_plan_id":"cebpf4jnsgd1na2vs0mg"},{"bike_id":"8c7291be-ed63-4533-9817-ac4e5bc6776f","system_id":"levelo_inurba_marseille","lat":43.29187,"lon":5.35578,"is_reserved":false,"is_disabled":true,"rental_uris":{"android":"levelo://app?vid=8c7291be-ed63-4533-9817-ac4e5bc6776f","ios":"levelo://app?vid=8c7291be-ed63-4533-9817-ac4e5bc6776f"},"vehicle_type_id":"4","last_reported":1748538564,"current_range_meters":0,"station_id":"","pricing_plan_id":"cebpf4jnsgd1na2vs0mg"},{"bike_id":"06938951-e273-452e-94b8-4a2eaf56a0de","system_id":"levelo_inurba_marseille","lat":43.31973,"lon":5.37101,"is_reserved":false,"is_disabled":true,"rental_uris":{"android":"levelo://app?vid=06938951-e273-452e-94b8-4a2eaf56a0de","ios":"levelo://app?vid=06938951-e273-452e-94b8-4a2eaf56a0de"},"vehicle_type_id":"4","last_reported":1748538564,"current_range_meters":0,"station_id":"","pricing_plan_id":"cebpf4jnsgd1na2vs0mg"},{"bike_id":"52d5fac3-b8b2-412f-9940-ac0c06f6478f","system_id":"levelo_inurba_marseille","lat":43.26213,"lon":5.37254,"is_reserved":false,"is_disabled":true,"rental_uris":{"android":"levelo://app?vid=52d5fac3-b8b2-412f-9940-ac0c06f6478f","ios":"levelo://app?vid=52d5fac3-b8b2-412f-9940-ac0c06f6478f"},"vehicle_type_id":"4","last_reported":1748538564,"current_range_meters":0,"station_id":"","pricing_plan_id":"cebpf4jnsgd1na2vs0mg"},{"bike_id":"80dc1064-d63f-4a22-ad21-d8abd70986c0","system_id":"levelo_inurba_marseille","lat":43.33756,"lon":5.37481,"is_reserved":false,"is_disabled":true,"rental_uris":{"android":"levelo://app?vid=80dc1064-d63f-4a22-ad21-d8abd70986c0","ios":"levelo://app?vid=80dc1064-d63f-4a22-ad21-d8abd70986c0"},"vehicle_type_id":"4","last_reported":1748538564,"current_range_meters":0,"station_id":"","pricing_plan_id":"cebpf4jnsgd1na2vs0mg"},{"bike_id":"da5c0d7c-a0f7-4309-9147-7e75efd6f413","system_id":"levelo_inurba_marseille","lat":43.23836,"lon":5.36552,"is_reserved":false,"is_disabled":true,"rental_uris":{"android":"levelo://app?vid=da5c0d7c-a0f7-4309-9147-7e75efd6f413","ios":"levelo://app?vid=da5c0d7c-a0f7-4309-9147-7e75efd6f413"},"vehicle_type_id":"4","last_reported":1748538564,"current_range_meters":0,"station_id":"","pricing_plan_id":"cebpf4jnsgd1na2vs0mg"},{"bike_id":"7f9bdcaf-4217-4932-be91-52b5120d5ca8","system_id":"levelo_inurba_marseille","lat":43.26349,"lon":5.4011,"is_reserved":false,"is_disabled":true,"rental_uris":{"android":"levelo://app?vid=7f9bdcaf-4217-4932-be91-52b5120d5ca8","ios":"levelo://app?vid=7f9bdcaf-4217-4932-be91-52b5120d5ca8"},"vehicle_type_id":"4","last_reported":1748538564,"current_range_meters":0,"station_id":"","pricing_plan_id":"cebpf4jnsgd1na2vs0mg"},{"bike_id":"2fd7e160-685c-4858-b57b-dcaef27a8e94","system_id":"levelo_inurba_marseille","lat":43.230331,"lon":5.401847,"is_reserved":false,"is_disabled":true,"rental_uris":{"android":"levelo://app?vid=2fd7e160-685c-4858-b57b-dcaef27a8e94","ios":"levelo://app?vid=2fd7e160-685c-4858-b57b-dcaef27a8e94"},"vehicle_type_id":"4","last_reported":1748538564,"current_range_meters":0,"station_id":"","pricing_plan_id":"cebpf4jnsgd1na2vs0mg"},{"bike_id":"66a46371-a083-4e51-bf59-4857902949fc","system_id":"levelo_inurba_marseille","lat":43.29362,"lon":5.37854,"is_reserved":false,"is_disabled":true,"rental_uris":{"android":"levelo://app?vid=66a46371-a083-4e51-bf59-4857902949fc","ios":"levelo://app?vid=66a46371-a083-4e51-bf59-4857902949fc"},"vehicle_type_id":"4","last_reported":1748538564,"current_range_meters":0,"station_id":"ce4bgjh2rcd13ifvqbf0","pricing_plan_id":"cebpf4jnsgd1na2vs0mg"},{"bike_id":"7580d16e-9fc8-4017-9994-fb5aa057e83d","system_id":"levelo_inurba_marseille","lat":43.31113,"lon":5.37763,"is_reserved":false,"is_disabled":true,"rental_uris":{"android":"levelo://app?vid=7580d16e-9fc8-4017-9994-fb5aa057e83d","ios":"levelo://app?vid=7580d16e-9fc8-4017-9994-fb5aa057e83d"},"vehicle_type_id":"4","last_reported":1748538564,"current_range_meters":0,"station_id":"ce4bgt92rcd13ifvqcg0","pricing_plan_id":"cebpf4jnsgd1na2vs0mg"},{"bike_id":"c24be4af-5d88-4a21-ab9a-9e25f0677207","system_id":"levelo_inurba_marseille","lat":43.30788,"lon":5.37646,"is_reserved":false,"is_disabled":true,"rental_uris":{"android":"levelo://app?vid=c24be4af-5d88-4a21-ab9a-9e25f0677207","ios":"levelo://app?vid=c24be4af-5d88-4a21-ab9a-9e25f0677207"},"vehicle_type_id":"4","last_reported":1748538564,"current_range_meters":0,"station_id":"ce4bgv92rcd13ifvqcq0","pricing_plan_id":"cebpf4jnsgd1na2vs0mg"},{"bike_id":"0d4eecf6-6c45-4a3f-8eea-19557da5084f","system_id":"levelo_inurba_marseille","lat":43.282891,"lon":5.386353,"is_reserved":false,"is_disabled":true,"rental_uris":{"android":"levelo://app?vid=0d4eecf6-6c45-4a3f-8eea-19557da5084f","ios":"levelo://app?vid=0d4eecf6-6c45-4a3f-8eea-19557da5084f"},"vehicle_type_id":"4","last_reported":1748538564,"current_range_meters":0,"station_id":"ce4bh492rcd13ifvqdvg","pricing_plan_id":"cebpf4jnsgd1na2vs0mg"},{"bike_id":"7f18467c-4f4a-4215-b796-3285ffa2a52f","system_id":"levelo_inurba_marseille","lat":43.28973,"lon":5.37856,"is_reserved":false,"is_disabled":true,"rental_uris":{"android":"levelo://app?vid=7f18467c-4f4a-4215-b796-3285ffa2a52f","ios":"levelo://app?vid=7f18467c-4f4a-4215-b796-3285ffa2a52f"},"vehicle_type_id":"4","last_reported":1748538564,"current_range_meters":0,"station_id":"ce4bh9p2rcd13ifvqed0","pricing_plan_id":"cebpf4jnsgd1na2vs0mg"},{"bike_id":"cc941f4e-8185-4ad6-83da-7fd4fbb628e0","system_id":"levelo_inurba_marseille","lat":43.27373,"lon":5.36242,"is_reserved":false,"is_disabled":true,"rental_uris":{"android":"levelo://app?vid=cc941f4e-8185-4ad6-83da-7fd4fbb628e0","ios":"levelo://app?vid=cc941f4e-8185-4ad6-83da-7fd4fbb628e0"},"vehicle_type_id":"4","last_reported":1748538564,"current_range_meters":0,"station_id":"ce4bhbh2rcd13ifvqeo0","pricing_plan_id":"cebpf4jnsgd1na2vs0mg"},{"bike_id":"8469860c-9731-4f73-8a3f-6c770f473b9e","system_id":"levelo_inurba_marseille","lat":43.273743,"lon":5.362597,"is_reserved":false,"is_disabled":true,"rental_uris":{"android":"levelo://app?vid=8469860c-9731-4f73-8a3f-6c770f473b9e","ios":"levelo://app?vid=8469860c-9731-4f73-8a3f-6c770f473b9e"},"vehicle_type_id":"4","last_reported":1748538564,"current_range_meters":0,"station_id":"ce4bhbh2rcd13ifvqeo0","pricing_plan_id":"cebpf4jnsgd1na2vs0mg"},{"bike_id":"95f1bcd3-af5f-421d-8c20-19f98ecc7534","system_id":"levelo_inurba_marseille","lat":43.27363,"lon":5.36246,"is_reserved":false,"is_disabled":true,"rental_uris":{"android":"levelo://app?vid=95f1bcd3-af5f-421d-8c20-19f98ecc7534","ios":"levelo://app?vid=95f1bcd3-af5f-421d-8c20-19f98ecc7534"},"vehicle_type_id":"4","last_reported":1748538564,"current_range_meters":0,"station_id":"ce4bhbh2rcd13ifvqeo0","pricing_plan_id":"cebpf4jnsgd1na2vs0mg"},{"bike_id":"da528404-ef90-4ff8-aac5-76813f507df4","system_id":"levelo_inurba_marseille","lat":43.28618,"lon":5.351,"is_reserved":false,"is_disabled":true,"rental_uris":{"android":"levelo://app?vid=da528404-ef90-4ff8-aac5-76813f507df4","ios":"levelo://app?vid=da528404-ef90-4ff8-aac5-76813f507df4"},"vehicle_type_id":"4","last_reported":1748538564,"current_range_meters":0,"station_id":"ce4bhch2rcd13ifvqeug","pricing_plan_id":"cebpf4jnsgd1na2vs0mg"},{"bike_id":"10922916-3d65-45e6-aef3-7acf04097e6b","system_id":"levelo_inurba_marseille","lat":43.26571,"lon":5.3902,"is_reserved":false,"is_disabled":true,"rental_uris":{"android":"levelo://app?vid=10922916-3d65-45e6-aef3-7acf04097e6b","ios":"levelo://app?vid=10922916-3d65-45e6-aef3-7acf04097e6b"},"vehicle_type_id":"4","last_reported":1748538564,"current_range_meters":0,"station_id":"ce4bhe12rcd13ifvqf30","pricing_plan_id":"cebpf4jnsgd1na2vs0mg"},{"bike_id":"6fa74942-2579-4587-ab6e-71e7ea3908ec","system_id":"levelo_inurba_marseille","lat":43.26679,"lon":5.38269,"is_reserved":false,"is_disabled":true,"rental_uris":{"android":"levelo://app?vid=6fa74942-2579-4587-ab6e-71e7ea3908ec","ios":"levelo://app?vid=6fa74942-2579-4587-ab6e-71e7ea3908ec"},"vehicle_type_id":"4","last_reported":1748538564,"current_range_meters":0,"station_id":"ce4bhg92rcd13ifvqf90","pricing_plan_id":"cebpf4jnsgd1na2vs0mg"},{"bike_id":"a7df79a0-a140-4786-b251-fe38692f001e","system_id":"levelo_inurba_marseille","lat":43.26026,"lon":5.37547,"is_reserved":false,"is_disabled":true,"rental_uris":{"android":"levelo://app?vid=a7df79a0-a140-4786-b251-fe38692f001e","ios":"levelo://app?vid=a7df79a0-a140-4786-b251-fe38692f001e"},"vehicle_type_id":"4","last_reported":1748538564,"current_range_meters":0,"station_id":"ce4bhgh2rcd13ifvqfa0","pricing_plan_id":"cebpf4jnsgd1na2vs0mg"},{"bike_id":"e43c1063-5c36-4b97-a802-b895378bbdf8","system_id":"levelo_inurba_marseille","lat":43.26041,"lon":5.37531,"is_reserved":false,"is_disabled":true,"rental_uris":{"android":"levelo://app?vid=e43c1063-5c36-4b97-a802-b895378bbdf8","ios":"levelo://app?vid=e43c1063-5c36-4b97-a802-b895378bbdf8"},"vehicle_type_id":"4","last_reported":1748538564,"current_range_meters":0,"station_id":"ce4bhgh2rcd13ifvqfa0","pricing_plan_id":"cebpf4jnsgd1na2vs0mg"},{"bike_id":"e1f6ce08-f5ae-4e1f-b91b-0b71d50af565","system_id":"levelo_inurba_marseille","lat":43.24998,"lon":5.38922,"is_reserved":false,"is_disabled":true,"rental_uris":{"android":"levelo://app?vid=e1f6ce08-f5ae-4e1f-b91b-0b71d50af565","ios":"levelo://app?vid=e1f6ce08-f5ae-4e1f-b91b-0b71d50af565"},"vehicle_type_id":"4","last_reported":1748538564,"current_range_meters":0,"station_id":"ce4bhgp2rcd13ifvqfd0","pricing_plan_id":"cebpf4jnsgd1na2vs0mg"},{"bike_id":"6ab9c10e-fc8d-4533-8fed-920d56796583","system_id":"levelo_inurba_marseille","lat":43.25506,"lon":5.37642,"is_reserved":false,"is_disabled":true,"rental_uris":{"android":"levelo://app?vid=6ab9c10e-fc8d-4533-8fed-920d56796583","ios":"levelo://app?vid=6ab9c10e-fc8d-4533-8fed-920d56796583"},"vehicle_type_id":"4","last_reported":1748538564,"current_range_meters":0,"station_id":"ce4bhh12rcd13ifvqff0","pricing_plan_id":"cebpf4jnsgd1na2vs0mg"},{"bike_id":"65a81118-47be-47e2-b26d-9baf54bf5e68","system_id":"levelo_inurba_marseille","lat":43.27196,"lon":5.39194,"is_reserved":false,"is_disabled":true,"rental_uris":{"android":"levelo://app?vid=65a81118-47be-47e2-b26d-9baf54bf5e68","ios":"levelo://app?vid=65a81118-47be-47e2-b26d-9baf54bf5e68"},"vehicle_type_id":"4","last_reported":1748538564,"current_range_meters":0,"station_id":"ce4bhhp2rcd13ifvqfm0","pricing_plan_id":"cebpf4jnsgd1na2vs0mg"},{"bike_id":"68fbca69-6c1d-434c-8546-5363b266d8c5","system_id":"levelo_inurba_marseille","lat":43.27691,"lon":5.38907,"is_reserved":false,"is_disabled":true,"rental_uris":{"android":"levelo://app?vid=68fbca69-6c1d-434c-8546-5363b266d8c5","ios":"levelo://app?vid=68fbca69-6c1d-434c-8546-5363b266d8c5"},"vehicle_type_id":"4","last_reported":1748538564,"current_range_meters":0,"station_id":"ce4bhi12rcd13ifvqfo0","pricing_plan_id":"cebpf4jnsgd1na2vs0mg"},{"bike_id":"c159a264-2548-4fae-91b7-724a40cef837","system_id":"levelo_inurba_marseille","lat":43.239601,"lon":5.366295,"is_reserved":false,"is_disabled":true,"rental_uris":{"android":"levelo://app?vid=c159a264-2548-4fae-91b7-724a40cef837","ios":"levelo://app?vid=c159a264-2548-4fae-91b7-724a40cef837"},"vehicle_type_id":"4","last_reported":1748538564,"current_range_meters":0,"station_id":"ce4bhi12rcd13ifvqfp0","pricing_plan_id":"cebpf4jnsgd1na2vs0mg"},{"bike_id":"9420123a-2191-42b0-8151-eb37c4795ec5","system_id":"levelo_inurba_marseille","lat":43.246536,"lon":5.381628,"is_reserved":false,"is_disabled":true,"rental_uris":{"android":"levelo://app?vid=9420123a-2191-42b0-8151-eb37c4795ec5","ios":"levelo://app?vid=9420123a-2191-42b0-8151-eb37c4795ec5"},"vehicle_type_id":"4","last_reported":1748538564,"current_range_meters":0,"station_id":"ce4bhih2rcd13ifvqfr0","pricing_plan_id":"cebpf4jnsgd1na2vs0mg"},{"bike_id":"0d76e503-0427-40b1-9eb7-acadbf88563e","system_id":"levelo_inurba_marseille","lat":43.27068,"lon":5.42283,"is_reserved":false,"is_disabled":true,"rental_uris":{"android":"levelo://app?vid=0d76e503-0427-40b1-9eb7-acadbf88563e","ios":"levelo://app?vid=0d76e503-0427-40b1-9eb7-acadbf88563e"},"vehicle_type_id":"4","last_reported":1748538564,"current_range_meters":0,"station_id":"ce4bhk92rcd13ifvqgb0","pricing_plan_id":"cebpf4jnsgd1na2vs0mg"},{"bike_id":"7ef9bb47-8217-4993-a51e-c3315d592a05","system_id":"levelo_inurba_marseille","lat":43.25117,"lon":5.40317,"is_reserved":false,"is_disabled":true,"rental_uris":{"android":"levelo://app?vid=7ef9bb47-8217-4993-a51e-c3315d592a05","ios":"levelo://app?vid=7ef9bb47-8217-4993-a51e-c3315d592a05"},"vehicle_type_id":"4","last_reported":1748538564,"current_range_meters":0,"station_id":"ce4bhlh2rcd13ifvqgig","pricing_plan_id":"cebpf4jnsgd1na2vs0mg"},{"bike_id":"6b409d41-fbab-4db8-926f-32a54ab75f10","system_id":"levelo_inurba_marseille","lat":43.23151,"lon":5.43702,"is_reserved":false,"is_disabled":true,"rental_uris":{"android":"levelo://app?vid=6b409d41-fbab-4db8-926f-32a54ab75f10","ios":"levelo://app?vid=6b409d41-fbab-4db8-926f-32a54ab75f10"},"vehicle_type_id":"4","last_reported":1748538564,"current_range_meters":0,"station_id":"ce4bhmp2rcd13ifvqgog","pricing_plan_id":"cebpf4jnsgd1na2vs0mg"},{"bike_id":"0ccfba81-66bf-4aef-8641-a847c67e05f1","system_id":"levelo_inurba_marseille","lat":43.27497,"lon":5.42445,"is_reserved":false,"is_disabled":true,"rental_uris":{"android":"levelo://app?vid=0ccfba81-66bf-4aef-8641-a847c67e05f1","ios":"levelo://app?vid=0ccfba81-66bf-4aef-8641-a847c67e05f1"},"vehicle_type_id":"4","last_reported":1748538564,"current_range_meters":0,"station_id":"ce4bhn92rcd13ifvqgrg","pricing_plan_id":"cebpf4jnsgd1na2vs0mg"},{"bike_id":"8c62c1a7-50b1-400a-86bc-74d959217200","system_id":"levelo_inurba_marseille","lat":43.30805,"lon":5.43523,"is_reserved":false,"is_disabled":true,"rental_uris":{"android":"levelo://app?vid=8c62c1a7-50b1-400a-86bc-74d959217200","ios":"levelo://app?vid=8c62c1a7-50b1-400a-86bc-74d959217200"},"vehicle_type_id":"4","last_reported":1748538564,"current_range_meters":0,"station_id":"ce4bhph2rcd13ifvqheg","pricing_plan_id":"cebpf4jnsgd1na2vs0mg"},{"bike_id":"1e5dad32-b1df-4cef-88b5-8d9c7d326fc9","system_id":"levelo_inurba_marseille","lat":43.232,"lon":5.35563,"is_reserved":false,"is_disabled":true,"rental_uris":{"android":"levelo://app?vid=1e5dad32-b1df-4cef-88b5-8d9c7d326fc9","ios":"levelo://app?vid=1e5dad32-b1df-4cef-88b5-8d9c7d326fc9"},"vehicle_type_id":"4","last_reported":1748538564,"current_range_meters":0,"station_id":"ce4bhu92rcd13ifvqi70","pricing_plan_id":"cebpf4jnsgd1na2vs0mg"},{"bike_id":"e0f3f54d-4e6e-4cd8-8266-0d35d27db2bb","system_id":"levelo_inurba_marseille","lat":43.231905,"lon":5.355687,"is_reserved":false,"is_disabled":true,"rental_uris":{"android":"levelo://app?vid=e0f3f54d-4e6e-4cd8-8266-0d35d27db2bb","ios":"levelo://app?vid=e0f3f54d-4e6e-4cd8-8266-0d35d27db2bb"},"vehicle_type_id":"4","last_reported":1748538564,"current_range_meters":0,"station_id":"ce4bhu92rcd13ifvqi70","pricing_plan_id":"cebpf4jnsgd1na2vs0mg"},{"bike_id":"2ea91a97-fb76-4527-b1a7-856ef6802055","system_id":"levelo_inurba_marseille","lat":43.22929,"lon":5.3537,"is_reserved":false,"is_disabled":true,"rental_uris":{"android":"levelo://app?vid=2ea91a97-fb76-4527-b1a7-856ef6802055","ios":"levelo://app?vid=2ea91a97-fb76-4527-b1a7-856ef6802055"},"vehicle_type_id":"4","last_reported":1748538564,"current_range_meters":0,"station_id":"cpo3532slgdg3j2ikp40","pricing_plan_id":"cebpf4jnsgd1na2vs0mg"},{"bike_id":"cd018a14-e83d-4d40-ac42-b66ab9d8e9cc","system_id":"levelo_inurba_marseille","lat":43.22523,"lon":5.3477,"is_reserved":false,"is_disabled":true,"rental_uris":{"android":"levelo://app?vid=cd018a14-e83d-4d40-ac42-b66ab9d8e9cc","ios":"levelo://app?vid=cd018a14-e83d-4d40-ac42-b66ab9d8e9cc"},"vehicle_type_id":"4","last_reported":1748538564,"current_range_meters":0,"station_id":"st_cvj5dfep6f1abm77gieg","pricing_plan_id":"cebpf4jnsgd1na2vs0mg"},{"bike_id":"f5562019-e43c-4e03-87d1-a47e41da2dba","system_id":"levelo_inurba_marseille","lat":43.2953,"lon":5.38548,"is_reserved":false,"is_disabled":true,"rental_uris":{"android":"levelo://app?vid=f5562019-e43c-4e03-87d1-a47e41da2dba","ios":"levelo://app?vid=f5562019-e43c-4e03-87d1-a47e41da2dba"},"vehicle_type_id":"4","last_reported":1748538564,"current_range_meters":400,"station_id":"ce4bgih2rcd13ifvqba0","pricing_plan_id":"cebpf4jnsgd1na2vs0mg"},{"bike_id":"1ca3b9eb-252b-4d2a-9a4c-bdaeee50e285","system_id":"levelo_inurba_marseille","lat":43.30432,"lon":5.39744,"is_reserved":false,"is_disabled":true,"rental_uris":{"android":"levelo://app?vid=1ca3b9eb-252b-4d2a-9a4c-bdaeee50e285","ios":"levelo://app?vid=1ca3b9eb-252b-4d2a-9a4c-bdaeee50e285"},"vehicle_type_id":"4","last_reported":1748538564,"current_range_meters":400,"station_id":"ce4bh092rcd13ifvqd20","pricing_plan_id":"cebpf4jnsgd1na2vs0mg"},{"bike_id":"a2bfea14-5883-4110-901e-ddff2e1e7dde","system_id":"levelo_inurba_marseille","lat":43.27914,"lon":5.39572,"is_reserved":false,"is_disabled":true,"rental_uris":{"android":"levelo://app?vid=a2bfea14-5883-4110-901e-ddff2e1e7dde","ios":"levelo://app?vid=a2bfea14-5883-4110-901e-ddff2e1e7dde"},"vehicle_type_id":"4","last_reported":1748538564,"current_range_meters":400,"station_id":"ce4bhf92rcd13ifvqf40","pricing_plan_id":"cebpf4jnsgd1na2vs0mg"},{"bike_id":"8e171b84-792c-420b-b223-89090267e3b9","system_id":"levelo_inurba_marseille","lat":43.23156,"lon":5.43702,"is_reserved":false,"is_disabled":true,"rental_uris":{"android":"levelo://app?vid=8e171b84-792c-420b-b223-89090267e3b9","ios":"levelo://app?vid=8e171b84-792c-420b-b223-89090267e3b9"},"vehicle_type_id":"4","last_reported":1748538564,"current_range_meters":400,"station_id":"ce4bhmp2rcd13ifvqgog","pricing_plan_id":"cebpf4jnsgd1na2vs0mg"},{"bike_id":"aed05472-a545-436a-8c6a-330a63cfe271","system_id":"levelo_inurba_marseille","lat":43.29529,"lon":5.39037,"is_reserved":false,"is_disabled":true,"rental_uris":{"android":"levelo://app?vid=aed05472-a545-436a-8c6a-330a63cfe271","ios":"levelo://app?vid=aed05472-a545-436a-8c6a-330a63cfe271"},"vehicle_type_id":"4","last_reported":1748538564,"current_range_meters":800,"station_id":"ce4bh3p2rcd13ifvqdp0","pricing_plan_id":"cebpf4jnsgd1na2vs0mg"},{"bike_id":"a8a0e141-4f2a-4d6f-af8a-b2b665d0c414","system_id":"levelo_inurba_marseille","lat":43.282684,"lon":5.350549,"is_reserved":false,"is_disabled":true,"rental_uris":{"android":"levelo://app?vid=a8a0e141-4f2a-4d6f-af8a-b2b665d0c414","ios":"levelo://app?vid=a8a0e141-4f2a-4d6f-af8a-b2b665d0c414"},"vehicle_type_id":"4","last_reported":1748538564,"current_range_meters":800,"station_id":"ce4bhbp2rcd13ifvqerg","pricing_plan_id":"cebpf4jnsgd1na2vs0mg"},{"bike_id":"397615b6-f695-4e12-97a7-b97d738e1d02","system_id":"levelo_inurba_marseille","lat":43.27995,"lon":5.38786,"is_reserved":false,"is_disabled":true,"rental_uris":{"android":"levelo://app?vid=397615b6-f695-4e12-97a7-b97d738e1d02","ios":"levelo://app?vid=397615b6-f695-4e12-97a7-b97d738e1d02"},"vehicle_type_id":"4","last_reported":1748538564,"current_range_meters":800,"station_id":"ce4bhg12rcd13ifvqf80","pricing_plan_id":"cebpf4jnsgd1na2vs0mg"},{"bike_id":"4adc5412-4f43-454e-a27a-309475fcd202","system_id":"levelo_inurba_marseille","lat":43.279635,"lon":5.38706,"is_reserved":false,"is_disabled":true,"rental_uris":{"android":"levelo://app?vid=4adc5412-4f43-454e-a27a-309475fcd202","ios":"levelo://app?vid=4adc5412-4f43-454e-a27a-309475fcd202"},"vehicle_type_id":"4","last_reported":1748538564,"current_range_meters":800,"station_id":"ce4bhg12rcd13ifvqf80","pricing_plan_id":"cebpf4jnsgd1na2vs0mg"},{"bike_id":"aa65ca4f-c082-4513-bd14-2e984aa1f5f9","system_id":"levelo_inurba_marseille","lat":43.25923,"lon":5.40925,"is_reserved":false,"is_disabled":true,"rental_uris":{"android":"levelo://app?vid=aa65ca4f-c082-4513-bd14-2e984aa1f5f9","ios":"levelo://app?vid=aa65ca4f-c082-4513-bd14-2e984aa1f5f9"},"vehicle_type_id":"4","last_reported":1748538564,"current_range_meters":800,"station_id":"ce4bhm92rcd13ifvqglg","pricing_plan_id":"cebpf4jnsgd1na2vs0mg"},{"bike_id":"705d85fb-1ecf-41cc-ae1c-04f54e922f86","system_id":"levelo_inurba_marseille","lat":43.23191,"lon":5.35554,"is_reserved":false,"is_disabled":true,"rental_uris":{"android":"levelo://app?vid=705d85fb-1ecf-41cc-ae1c-04f54e922f86","ios":"levelo://app?vid=705d85fb-1ecf-41cc-ae1c-04f54e922f86"},"vehicle_type_id":"4","last_reported":1748538564,"current_range_meters":800,"station_id":"ce4bhu92rcd13ifvqi70","pricing_plan_id":"cebpf4jnsgd1na2vs0mg"},{"bike_id":"432eef5d-9ab8-4992-85fa-7fefc1d24756","system_id":"levelo_inurba_marseille","lat":43.325026,"lon":5.424504,"is_reserved":false,"is_disabled":true,"rental_uris":{"android":"levelo://app?vid=432eef5d-9ab8-4992-85fa-7fefc1d24756","ios":"levelo://app?vid=432eef5d-9ab8-4992-85fa-7fefc1d24756"},"vehicle_type_id":"4","last_reported":1748538564,"current_range_meters":1200,"station_id":"","pricing_plan_id":"cebpf4jnsgd1na2vs0mg"},{"bike_id":"95aa6be9-171e-4d5c-9902-09ca8cd6c55f","system_id":"levelo_inurba_marseille","lat":43.31326,"lon":5.39684,"is_reserved":false,"is_disabled":true,"rental_uris":{"android":"levelo://app?vid=95aa6be9-171e-4d5c-9902-09ca8cd6c55f","ios":"levelo://app?vid=95aa6be9-171e-4d5c-9902-09ca8cd6c55f"},"vehicle_type_id":"4","last_reported":1748538564,"current_range_meters":1200,"station_id":"ce4bgvp2rcd13ifvqcu0","pricing_plan_id":"cebpf4jnsgd1na2vs0mg"},{"bike_id":"a2c01336-7ab8-4ae8-b219-68913dc8726d","system_id":"levelo_inurba_marseille","lat":43.2827,"lon":5.35078,"is_reserved":false,"is_disabled":false,"rental_uris":{"android":"levelo://app?vid=a2c01336-7ab8-4ae8-b219-68913dc8726d","ios":"levelo://app?vid=a2c01336-7ab8-4ae8-b219-68913dc8726d"},"vehicle_type_id":"4","last_reported":1748538564,"current_range_meters":1200,"station_id":"ce4bhbp2rcd13ifvqerg","pricing_plan_id":"cebpf4jnsgd1na2vs0mg"},{"bike_id":"65ac6af9-b280-465d-96c1-87c937a726dc","system_id":"levelo_inurba_marseille","lat":43.26187,"lon":5.37442,"is_reserved":false,"is_disabled":true,"rental_uris":{"android":"levelo://app?vid=65ac6af9-b280-465d-96c1-87c937a726dc","ios":"levelo://app?vid=65ac6af9-b280-465d-96c1-87c937a726dc"},"vehicle_type_id":"4","last_reported":1748538564,"current_range_meters":1200,"station_id":"ce4bhgp2rcd13ifvqfc0","pricing_plan_id":"cebpf4jnsgd1na2vs0mg"},{"bike_id":"7e757266-6a6b-43be-bb26-55fa663a7d17","system_id":"levelo_inurba_marseille","lat":43.27828,"lon":5.39213,"is_reserved":false,"is_disabled":true,"rental_uris":{"android":"levelo://app?vid=7e757266-6a6b-43be-bb26-55fa663a7d17","ios":"levelo://app?vid=7e757266-6a6b-43be-bb26-55fa663a7d17"},"vehicle_type_id":"4","last_reported":1748538564,"current_range_meters":1200,"station_id":"ce4bhjp2rcd13ifvqga0","pricing_plan_id":"cebpf4jnsgd1na2vs0mg"},{"bike_id":"180e4da0-00a9-4461-bfd1-11630824fb3b","system_id":"levelo_inurba_marseille","lat":43.24351,"lon":5.40149,"is_reserved":false,"is_disabled":true,"rental_uris":{"android":"levelo://app?vid=180e4da0-00a9-4461-bfd1-11630824fb3b","ios":"levelo://app?vid=180e4da0-00a9-4461-bfd1-11630824fb3b"},"vehicle_type_id":"4","last_reported":1748538564,"current_range_meters":1600,"station_id":"","pricing_plan_id":"cebpf4jnsgd1na2vs0mg"},{"bike_id":"6ca348b1-4653-48c2-bbda-a166bf9a8008","system_id":"levelo_inurba_marseille","lat":43.29546,"lon":5.37487,"is_reserved":false,"is_disabled":true,"rental_uris":{"android":"levelo://app?vid=6ca348b1-4653-48c2-bbda-a166bf9a8008","ios":"levelo://app?vid=6ca348b1-4653-48c2-bbda-a166bf9a8008"},"vehicle_type_id":"4","last_reported":1748538564,"current_range_meters":1600,"station_id":"ce4bgkp2rcd13ifvqbmg","pricing_plan_id":"cebpf4jnsgd1na2vs0mg"},{"bike_id":"b066d6fa-d36b-449b-85f8-cbe05cc14996","system_id":"levelo_inurba_marseille","lat":43.26674,"lon":5.3827,"is_reserved":false,"is_disabled":true,"rental_uris":{"android":"levelo://app?vid=b066d6fa-d36b-449b-85f8-cbe05cc14996","ios":"levelo://app?vid=b066d6fa-d36b-449b-85f8-cbe05cc14996"},"vehicle_type_id":"4","last_reported":1748538564,"current_range_meters":1600,"station_id":"ce4bhg92rcd13ifvqf90","pricing_plan_id":"cebpf4jnsgd1na2vs0mg"},{"bike_id":"3d1e24b0-aa61-4d12-921e-4b7bd6cdad7a","system_id":"levelo_inurba_marseille","lat":43.27213,"lon":5.39171,"is_reserved":false,"is_disabled":true,"rental_uris":{"android":"levelo://app?vid=3d1e24b0-aa61-4d12-921e-4b7bd6cdad7a","ios":"levelo://app?vid=3d1e24b0-aa61-4d12-921e-4b7bd6cdad7a"},"vehicle_type_id":"4","last_reported":1748538564,"current_range_meters":2000,"station_id":"ce4bhhp2rcd13ifvqfm0","pricing_plan_id":"cebpf4jnsgd1na2vs0mg"},{"bike_id":"6515368c-636e-4161-8fe9-dbb4252e92e8","system_id":"levelo_inurba_marseille","lat":43.23179,"lon":5.39983,"is_reserved":false,"is_disabled":true,"rental_uris":{"android":"levelo://app?vid=6515368c-636e-4161-8fe9-dbb4252e92e8","ios":"levelo://app?vid=6515368c-636e-4161-8fe9-dbb4252e92e8"},"vehicle_type_id":"4","last_reported":1748538564,"current_range_meters":2000,"station_id":"ce4bhn12rcd13ifvqgqg","pricing_plan_id":"cebpf4jnsgd1na2vs0mg"},{"bike_id":"600848c5-e35d-4d63-ab51-cea84c771a6f","system_id":"levelo_inurba_marseille","lat":43.23182,"lon":5.39989,"is_reserved":false,"is_disabled":true,"rental_uris":{"android":"levelo://app?vid=600848c5-e35d-4d63-ab51-cea84c771a6f","ios":"levelo://app?vid=600848c5-e35d-4d63-ab51-cea84c771a6f"},"vehicle_type_id":"4","last_reported":1748538564,"current_range_meters":2000,"station_id":"ce4bhn12rcd13ifvqgqg","pricing_plan_id":"cebpf4jnsgd1na2vs0mg"},{"bike_id":"6c7bfdb7-b7f6-413a-8c36-ff612b6709cd","system_id":"levelo_inurba_marseille","lat":43.27997,"lon":5.40008,"is_reserved":false,"is_disabled":true,"rental_uris":{"android":"levelo://app?vid=6c7bfdb7-b7f6-413a-8c36-ff612b6709cd","ios":"levelo://app?vid=6c7bfdb7-b7f6-413a-8c36-ff612b6709cd"},"vehicle_type_id":"4","last_reported":1748538564,"current_range_meters":2000,"station_id":"ce4bho92rcd13ifvqh4g","pricing_plan_id":"cebpf4jnsgd1na2vs0mg"},{"bike_id":"5215640d-2fd5-4a51-af38-ba665e8ec76a","system_id":"levelo_inurba_marseille","lat":43.31758,"lon":5.42409,"is_reserved":false,"is_disabled":true,"rental_uris":{"android":"levelo://app?vid=5215640d-2fd5-4a51-af38-ba665e8ec76a","ios":"levelo://app?vid=5215640d-2fd5-4a51-af38-ba665e8ec76a"},"vehicle_type_id":"4","last_reported":1748538564,"current_range_meters":2800,"station_id":"","pricing_plan_id":"cebpf4jnsgd1na2vs0mg"},{"bike_id":"172ae39d-667a-4695-a47c-bd5e09f4652c","system_id":"levelo_inurba_marseille","lat":43.29416,"lon":5.38624,"is_reserved":false,"is_disabled":false,"rental_uris":{"android":"levelo://app?vid=172ae39d-667a-4695-a47c-bd5e09f4652c","ios":"levelo://app?vid=172ae39d-667a-4695-a47c-bd5e09f4652c"},"vehicle_type_id":"4","last_reported":1748538564,"current_range_meters":2800,"station_id":"ce4bh2h2rcd13ifvqdh0","pricing_plan_id":"cebpf4jnsgd1na2vs0mg"},{"bike_id":"f1a9a0df-04aa-4081-92cf-a32891f374d4","system_id":"levelo_inurba_marseille","lat":43.28036,"lon":5.36938,"is_reserved":false,"is_disabled":false,"rental_uris":{"android":"levelo://app?vid=f1a9a0df-04aa-4081-92cf-a32891f374d4","ios":"levelo://app?vid=f1a9a0df-04aa-4081-92cf-a32891f374d4"},"vehicle_type_id":"4","last_reported":1748538564,"current_range_meters":2800,"station_id":"ce4bha12rcd13ifvqef0","pricing_plan_id":"cebpf4jnsgd1na2vs0mg"},{"bike_id":"3329d6c1-b8c8-4807-ab3b-ebc683f6142b","system_id":"levelo_inurba_marseille","lat":43.248019,"lon":5.374546,"is_reserved":false,"is_disabled":false,"rental_uris":{"android":"levelo://app?vid=3329d6c1-b8c8-4807-ab3b-ebc683f6142b","ios":"levelo://app?vid=3329d6c1-b8c8-4807-ab3b-ebc683f6142b"},"vehicle_type_id":"4","last_reported":1748538564,"current_range_meters":2800,"station_id":"ce4bhgh2rcd13ifvqfb0","pricing_plan_id":"cebpf4jnsgd1na2vs0mg"},{"bike_id":"1b23b90c-48af-43ef-882c-8b4f6794c9e0","system_id":"levelo_inurba_marseille","lat":43.2621,"lon":5.37443,"is_reserved":false,"is_disabled":false,"rental_uris":{"android":"levelo://app?vid=1b23b90c-48af-43ef-882c-8b4f6794c9e0","ios":"levelo://app?vid=1b23b90c-48af-43ef-882c-8b4f6794c9e0"},"vehicle_type_id":"4","last_reported":1748538564,"current_range_meters":2800,"station_id":"ce4bhgp2rcd13ifvqfc0","pricing_plan_id":"cebpf4jnsgd1na2vs0mg"},{"bike_id":"66f450a3-35bb-4dec-85be-3968f9f1cd22","system_id":"levelo_inurba_marseille","lat":43.26933,"lon":5.38647,"is_reserved":false,"is_disabled":false,"rental_uris":{"android":"levelo://app?vid=66f450a3-35bb-4dec-85be-3968f9f1cd22","ios":"levelo://app?vid=66f450a3-35bb-4dec-85be-3968f9f1cd22"},"vehicle_type_id":"4","last_reported":1748538564,"current_range_meters":2800,"station_id":"ce4bhh92rcd13ifvqfh0","pricing_plan_id":"cebpf4jnsgd1na2vs0mg"},{"bike_id":"770851ca-92f1-42e1-a2ae-d018725f3d4c","system_id":"levelo_inurba_marseille","lat":43.25127,"lon":5.40308,"is_reserved":false,"is_disabled":false,"rental_uris":{"android":"levelo://app?vid=770851ca-92f1-42e1-a2ae-d018725f3d4c","ios":"levelo://app?vid=770851ca-92f1-42e1-a2ae-d018725f3d4c"},"vehicle_type_id":"4","last_reported":1748538564,"current_range_meters":2800,"station_id":"ce4bhlh2rcd13ifvqgig","pricing_plan_id":"cebpf4jnsgd1na2vs0mg"},{"bike_id":"ab53cae3-05b7-4c77-8b87-d9a3a5a359c4","system_id":"levelo_inurba_marseille","lat":43.319869,"lon":5.381467,"is_reserved":false,"is_disabled":false,"rental_uris":{"android":"levelo://app?vid=ab53cae3-05b7-4c77-8b87-d9a3a5a359c4","ios":"levelo://app?vid=ab53cae3-05b7-4c77-8b87-d9a3a5a359c4"},"vehicle_type_id":"4","last_reported":1748538564,"current_range_meters":2800,"station_id":"ce4bhr12rcd13ifvqhpg","pricing_plan_id":"cebpf4jnsgd1na2vs0mg"},{"bike_id":"c3a0bd73-5813-47f0-a5c8-27701041c8ba","system_id":"levelo_inurba_marseille","lat":43.27254,"lon":5.424272,"is_reserved":false,"is_disabled":false,"rental_uris":{"android":"levelo://app?vid=c3a0bd73-5813-47f0-a5c8-27701041c8ba","ios":"levelo://app?vid=c3a0bd73-5813-47f0-a5c8-27701041c8ba"},"vehicle_type_id":"4","last_reported":1748538564,"current_range_meters":3200,"station_id":"","pricing_plan_id":"cebpf4jnsgd1na2vs0mg"},{"bike_id":"bfb98993-a5b5-403c-9490-03ec98261b82","system_id":"levelo_inurba_marseille","lat":43.29711,"lon":5.36599,"is_reserved":false,"is_disabled":false,"rental_uris":{"android":"levelo://app?vid=bfb98993-a5b5-403c-9490-03ec98261b82","ios":"levelo://app?vid=bfb98993-a5b5-403c-9490-03ec98261b82"},"vehicle_type_id":"4","last_reported":1748538564,"current_range_meters":3200,"station_id":"ce4bgn12rcd13ifvqbt0","pricing_plan_id":"cebpf4jnsgd1na2vs0mg"},{"bike_id":"d7af82ec-0470-4fc9-8ae1-7664bcf35c8f","system_id":"levelo_inurba_marseille","lat":43.28448,"lon":5.39158,"is_reserved":false,"is_disabled":false,"rental_uris":{"android":"levelo://app?vid=d7af82ec-0470-4fc9-8ae1-7664bcf35c8f","ios":"levelo://app?vid=d7af82ec-0470-4fc9-8ae1-7664bcf35c8f"},"vehicle_type_id":"4","last_reported":1748538564,"current_range_meters":3200,"station_id":"ce4bhoh2rcd13ifvqh5g","pricing_plan_id":"cebpf4jnsgd1na2vs0mg"},{"bike_id":"d90baf97-e6b3-4c48-bcd2-63bc44243da4","system_id":"levelo_inurba_marseille","lat":43.21636,"lon":5.34305,"is_reserved":false,"is_disabled":false,"rental_uris":{"android":"levelo://app?vid=d90baf97-e6b3-4c48-bcd2-63bc44243da4","ios":"levelo://app?vid=d90baf97-e6b3-4c48-bcd2-63bc44243da4"},"vehicle_type_id":"4","last_reported":1748538564,"current_range_meters":3600,"station_id":"","pricing_plan_id":"cebpf4jnsgd1na2vs0mg"},{"bike_id":"603d9e33-3aff-468d-a578-75e30195d402","system_id":"levelo_inurba_marseille","lat":43.29363,"lon":5.37838,"is_reserved":false,"is_disabled":false,"rental_uris":{"android":"levelo://app?vid=603d9e33-3aff-468d-a578-75e30195d402","ios":"levelo://app?vid=603d9e33-3aff-468d-a578-75e30195d402"},"vehicle_type_id":"4","last_reported":1748538564,"current_range_meters":3600,"station_id":"ce4bgjh2rcd13ifvqbf0","pricing_plan_id":"cebpf4jnsgd1na2vs0mg"},{"bike_id":"54103149-926c-4664-86bd-c066576f9292","system_id":"levelo_inurba_marseille","lat":43.284674,"lon":5.384131,"is_reserved":false,"is_disabled":false,"rental_uris":{"android":"levelo://app?vid=54103149-926c-4664-86bd-c066576f9292","ios":"levelo://app?vid=54103149-926c-4664-86bd-c066576f9292"},"vehicle_type_id":"4","last_reported":1748538564,"current_range_meters":3600,"station_id":"ce4bh512rcd13ifvqe3g","pricing_plan_id":"cebpf4jnsgd1na2vs0mg"},{"bike_id":"90047ad6-4206-4489-92fb-c4c9f8bc2261","system_id":"levelo_inurba_marseille","lat":43.23187,"lon":5.39975,"is_reserved":false,"is_disabled":false,"rental_uris":{"android":"levelo://app?vid=90047ad6-4206-4489-92fb-c4c9f8bc2261","ios":"levelo://app?vid=90047ad6-4206-4489-92fb-c4c9f8bc2261"},"vehicle_type_id":"4","last_reported":1748538564,"current_range_meters":3600,"station_id":"ce4bhn12rcd13ifvqgqg","pricing_plan_id":"cebpf4jnsgd1na2vs0mg"},{"bike_id":"4681dfcd-d151-4e9e-88ea-4f530e9084dc","system_id":"levelo_inurba_marseille","lat":43.312261,"lon":5.36886,"is_reserved":false,"is_disabled":false,"rental_uris":{"android":"levelo://app?vid=4681dfcd-d151-4e9e-88ea-4f530e9084dc","ios":"levelo://app?vid=4681dfcd-d151-4e9e-88ea-4f530e9084dc"},"vehicle_type_id":"4","last_reported":1748538564,"current_range_meters":4000,"station_id":"ce4bgl92rcd13ifvqbq0","pricing_plan_id":"cebpf4jnsgd1na2vs0mg"},{"bike_id":"9adc803f-4413-479f-bca8-d9f703fb9993","system_id":"levelo_inurba_marseille","lat":43.297072,"lon":5.366044,"is_reserved":false,"is_disabled":false,"rental_uris":{"android":"levelo://app?vid=9adc803f-4413-479f-bca8-d9f703fb9993","ios":"levelo://app?vid=9adc803f-4413-479f-bca8-d9f703fb9993"},"vehicle_type_id":"4","last_reported":1748538564,"current_range_meters":4000,"station_id":"ce4bgn12rcd13ifvqbt0","pricing_plan_id":"cebpf4jnsgd1na2vs0mg"},{"bike_id":"2e10306f-3c55-4048-9b36-10d55e7f12a6","system_id":"levelo_inurba_marseille","lat":43.30145,"lon":5.39846,"is_reserved":false,"is_disabled":false,"rental_uris":{"android":"levelo://app?vid=2e10306f-3c55-4048-9b36-10d55e7f12a6","ios":"levelo://app?vid=2e10306f-3c55-4048-9b36-10d55e7f12a6"},"vehicle_type_id":"4","last_reported":1748538564,"current_range_meters":4000,"station_id":"ce4bh0h2rcd13ifvqd40","pricing_plan_id":"cebpf4jnsgd1na2vs0mg"},{"bike_id":"9195f342-14ef-41ee-aeeb-0ab42c9400f4","system_id":"levelo_inurba_marseille","lat":43.26571,"lon":5.3902,"is_reserved":false,"is_disabled":false,"rental_uris":{"android":"levelo://app?vid=9195f342-14ef-41ee-aeeb-0ab42c9400f4","ios":"levelo://app?vid=9195f342-14ef-41ee-aeeb-0ab42c9400f4"},"vehicle_type_id":"4","last_reported":1748538564,"current_range_meters":4000,"station_id":"ce4bhe12rcd13ifvqf30","pricing_plan_id":"cebpf4jnsgd1na2vs0mg"},{"bike_id":"71b2dacf-57d6-4c16-8139-31a5dac9be87","system_id":"levelo_inurba_marseille","lat":43.25715,"lon":5.41108,"is_reserved":false,"is_disabled":false,"rental_uris":{"android":"levelo://app?vid=71b2dacf-57d6-4c16-8139-31a5dac9be87","ios":"levelo://app?vid=71b2dacf-57d6-4c16-8139-31a5dac9be87"},"vehicle_type_id":"4","last_reported":1748538564,"current_range_meters":4000,"station_id":"ce4bhkp2rcd13ifvqgd0","pricing_plan_id":"cebpf4jnsgd1na2vs0mg"},{"bike_id":"b80ee325-09b2-4724-993d-4f8d3707c41c","system_id":"levelo_inurba_marseille","lat":43.25862,"lon":5.39902,"is_reserved":false,"is_disabled":false,"rental_uris":{"android":"levelo://app?vid=b80ee325-09b2-4724-993d-4f8d3707c41c","ios":"levelo://app?vid=b80ee325-09b2-4724-993d-4f8d3707c41c"},"vehicle_type_id":"4","last_reported":1748538564,"current_range_meters":4000,"station_id":"ce4bhl92rcd13ifvqghg","pricing_plan_id":"cebpf4jnsgd1na2vs0mg"},{"bike_id":"8f81bcf0-43a4-4aea-bfd9-2ddf5b4cf17b","system_id":"levelo_inurba_marseille","lat":43.30355,"lon":5.4187,"is_reserved":false,"is_disabled":false,"rental_uris":{"android":"levelo://app?vid=8f81bcf0-43a4-4aea-bfd9-2ddf5b4cf17b","ios":"levelo://app?vid=8f81bcf0-43a4-4aea-bfd9-2ddf5b4cf17b"},"vehicle_type_id":"4","last_reported":1748538564,"current_range_meters":4000,"station_id":"ce4bhop2rcd13ifvqh7g","pricing_plan_id":"cebpf4jnsgd1na2vs0mg"},{"bike_id":"4b52d72f-f9f5-4685-b245-843a8192e5f9","system_id":"levelo_inurba_marseille","lat":43.29891,"lon":5.38891,"is_reserved":false,"is_disabled":false,"rental_uris":{"android":"levelo://app?vid=4b52d72f-f9f5-4685-b245-843a8192e5f9","ios":"levelo://app?vid=4b52d72f-f9f5-4685-b245-843a8192e5f9"},"vehicle_type_id":"4","last_reported":1748538564,"current_range_meters":4400,"station_id":"ce4bh392rcd13ifvqdl0","pricing_plan_id":"cebpf4jnsgd1na2vs0mg"},{"bike_id":"fde35570-9e94-4299-a44e-578bdb04bc0b","system_id":"levelo_inurba_marseille","lat":43.29913,"lon":5.37492,"is_reserved":false,"is_disabled":false,"rental_uris":{"android":"levelo://app?vid=fde35570-9e94-4299-a44e-578bdb04bc0b","ios":"levelo://app?vid=fde35570-9e94-4299-a44e-578bdb04bc0b"},"vehicle_type_id":"4","last_reported":1748538564,"current_range_meters":4800,"station_id":"ce4bgjh2rcd13ifvqbg0","pricing_plan_id":"cebpf4jnsgd1na2vs0mg"},{"bike_id":"58f94678-c852-4f52-98f0-91dce3a69e4f","system_id":"levelo_inurba_marseille","lat":43.28468,"lon":5.38417,"is_reserved":false,"is_disabled":false,"rental_uris":{"android":"levelo://app?vid=58f94678-c852-4f52-98f0-91dce3a69e4f","ios":"levelo://app?vid=58f94678-c852-4f52-98f0-91dce3a69e4f"},"vehicle_type_id":"4","last_reported":1748538564,"current_range_meters":4800,"station_id":"ce4bh512rcd13ifvqe3g","pricing_plan_id":"cebpf4jnsgd1na2vs0mg"},{"bike_id":"d6b42c87-482d-43e1-acb6-e951bd6c8753","system_id":"levelo_inurba_marseille","lat":43.26057,"lon":5.39394,"is_reserved":false,"is_disabled":false,"rental_uris":{"android":"levelo://app?vid=d6b42c87-482d-43e1-acb6-e951bd6c8753","ios":"levelo://app?vid=d6b42c87-482d-43e1-acb6-e951bd6c8753"},"vehicle_type_id":"4","last_reported":1748538564,"current_range_meters":4800,"station_id":"ce4bhh92rcd13ifvqfj0","pricing_plan_id":"cebpf4jnsgd1na2vs0mg"},{"bike_id":"6d7cfdcd-f061-4eee-b4e5-78d9b6729328","system_id":"levelo_inurba_marseille","lat":43.329989,"lon":5.438477,"is_reserved":false,"is_disabled":false,"rental_uris":{"android":"levelo://app?vid=6d7cfdcd-f061-4eee-b4e5-78d9b6729328","ios":"levelo://app?vid=6d7cfdcd-f061-4eee-b4e5-78d9b6729328"},"vehicle_type_id":"4","last_reported":1748538564,"current_range_meters":5600,"station_id":"","pricing_plan_id":"cebpf4jnsgd1na2vs0mg"},{"bike_id":"c8c10349-7827-41bc-8ebe-d937e6b60f72","system_id":"levelo_inurba_marseille","lat":43.29772,"lon":5.37113,"is_reserved":false,"is_disabled":false,"rental_uris":{"android":"levelo://app?vid=c8c10349-7827-41bc-8ebe-d937e6b60f72","ios":"levelo://app?vid=c8c10349-7827-41bc-8ebe-d937e6b60f72"},"vehicle_type_id":"4","last_reported":1748538564,"current_range_meters":5600,"station_id":"ce4bgop2rcd13ifvqc1g","pricing_plan_id":"cebpf4jnsgd1na2vs0mg"},{"bike_id":"7ae39440-06b4-4bc9-8a9b-885325c407db","system_id":"levelo_inurba_marseille","lat":43.29417,"lon":5.38617,"is_reserved":false,"is_disabled":false,"rental_uris":{"android":"levelo://app?vid=7ae39440-06b4-4bc9-8a9b-885325c407db","ios":"levelo://app?vid=7ae39440-06b4-4bc9-8a9b-885325c407db"},"vehicle_type_id":"4","last_reported":1748538564,"current_range_meters":5600,"station_id":"ce4bh2h2rcd13ifvqdh0","pricing_plan_id":"cebpf4jnsgd1na2vs0mg"},{"bike_id":"366034d7-9a67-4064-952f-50d2857f918e","system_id":"levelo_inurba_marseille","lat":43.289472,"lon":5.363844,"is_reserved":false,"is_disabled":false,"rental_uris":{"android":"levelo://app?vid=366034d7-9a67-4064-952f-50d2857f918e","ios":"levelo://app?vid=366034d7-9a67-4064-952f-50d2857f918e"},"vehicle_type_id":"4","last_reported":1748538564,"current_range_meters":5600,"station_id":"ce4bhc92rcd13ifvqetg","pricing_plan_id":"cebpf4jnsgd1na2vs0mg"},{"bike_id":"c0c5027f-c041-4b12-acfa-e6b17680071b","system_id":"levelo_inurba_marseille","lat":43.23799,"lon":5.435715,"is_reserved":false,"is_disabled":false,"rental_uris":{"android":"levelo://app?vid=c0c5027f-c041-4b12-acfa-e6b17680071b","ios":"levelo://app?vid=c0c5027f-c041-4b12-acfa-e6b17680071b"},"vehicle_type_id":"4","last_reported":1748538564,"current_range_meters":6000,"station_id":"","pricing_plan_id":"cebpf4jnsgd1na2vs0mg"},{"bike_id":"8812bae7-4e11-40a6-bad2-1639cd10ee49","system_id":"levelo_inurba_marseille","lat":43.29791,"lon":5.38106,"is_reserved":false,"is_disabled":false,"rental_uris":{"android":"levelo://app?vid=8812bae7-4e11-40a6-bad2-1639cd10ee49","ios":"levelo://app?vid=8812bae7-4e11-40a6-bad2-1639cd10ee49"},"vehicle_type_id":"4","last_reported":1748538564,"current_range_meters":6000,"station_id":"ce4bgip2rcd13ifvqbb0","pricing_plan_id":"cebpf4jnsgd1na2vs0mg"},{"bike_id":"1aa8eeb6-e43b-4a90-b2af-d35ac178ce39","system_id":"levelo_inurba_marseille","lat":43.26197,"lon":5.37932,"is_reserved":false,"is_disabled":false,"rental_uris":{"android":"levelo://app?vid=1aa8eeb6-e43b-4a90-b2af-d35ac178ce39","ios":"levelo://app?vid=1aa8eeb6-e43b-4a90-b2af-d35ac178ce39"},"vehicle_type_id":"4","last_reported":1748538564,"current_range_meters":6000,"station_id":"ce4bhjp2rcd13ifvqg90","pricing_plan_id":"cebpf4jnsgd1na2vs0mg"},{"bike_id":"80b8ff9c-7722-4881-b966-4de10e6a2fb3","system_id":"levelo_inurba_marseille","lat":43.30413,"lon":5.41286,"is_reserved":false,"is_disabled":false,"rental_uris":{"android":"levelo://app?vid=80b8ff9c-7722-4881-b966-4de10e6a2fb3","ios":"levelo://app?vid=80b8ff9c-7722-4881-b966-4de10e6a2fb3"},"vehicle_type_id":"4","last_reported":1748538564,"current_range_meters":6000,"station_id":"ce4bhop2rcd13ifvqh8g","pricing_plan_id":"cebpf4jnsgd1na2vs0mg"},{"bike_id":"2f095946-dfd5-48f9-b854-2516371960ab","system_id":"levelo_inurba_marseille","lat":43.3053,"lon":5.38428,"is_reserved":false,"is_disabled":false,"rental_uris":{"android":"levelo://app?vid=2f095946-dfd5-48f9-b854-2516371960ab","ios":"levelo://app?vid=2f095946-dfd5-48f9-b854-2516371960ab"},"vehicle_type_id":"4","last_reported":1748538564,"current_range_meters":6400,"station_id":"ce4bgg92rcd13ifvqb30","pricing_plan_id":"cebpf4jnsgd1na2vs0mg"},{"bike_id":"6739e059-bf18-488f-ab64-964c3c0179fa","system_id":"levelo_inurba_marseille","lat":43.28569,"lon":5.39497,"is_reserved":false,"is_disabled":false,"rental_uris":{"android":"levelo://app?vid=6739e059-bf18-488f-ab64-964c3c0179fa","ios":"levelo://app?vid=6739e059-bf18-488f-ab64-964c3c0179fa"},"vehicle_type_id":"4","last_reported":1748538564,"current_range_meters":6400,"station_id":"ce4bh292rcd13ifvqdg0","pricing_plan_id":"cebpf4jnsgd1na2vs0mg"},{"bike_id":"f6a47009-c675-4b06-8efe-f673cb9fe3e8","system_id":"levelo_inurba_marseille","lat":43.26558,"lon":5.37322,"is_reserved":false,"is_disabled":false,"rental_uris":{"android":"levelo://app?vid=f6a47009-c675-4b06-8efe-f673cb9fe3e8","ios":"levelo://app?vid=f6a47009-c675-4b06-8efe-f673cb9fe3e8"},"vehicle_type_id":"4","last_reported":1748538564,"current_range_meters":6400,"station_id":"ce4bhg12rcd13ifvqf70","pricing_plan_id":"cebpf4jnsgd1na2vs0mg"},{"bike_id":"b6194222-a80b-43bc-b765-fba2143e9c5c","system_id":"levelo_inurba_marseille","lat":43.231865,"lon":5.35565,"is_reserved":false,"is_disabled":false,"rental_uris":{"android":"levelo://app?vid=b6194222-a80b-43bc-b765-fba2143e9c5c","ios":"levelo://app?vid=b6194222-a80b-43bc-b765-fba2143e9c5c"},"vehicle_type_id":"4","last_reported":1748538564,"current_range_meters":6400,"station_id":"ce4bhu92rcd13ifvqi70","pricing_plan_id":"cebpf4jnsgd1na2vs0mg"},{"bike_id":"1eed49fb-ce64-4ebd-9903-7d87835a2ccf","system_id":"levelo_inurba_marseille","lat":43.29781,"lon":5.45974,"is_reserved":false,"is_disabled":false,"rental_uris":{"android":"levelo://app?vid=1eed49fb-ce64-4ebd-9903-7d87835a2ccf","ios":"levelo://app?vid=1eed49fb-ce64-4ebd-9903-7d87835a2ccf"},"vehicle_type_id":"4","last_reported":1748538564,"current_range_meters":6800,"station_id":"","pricing_plan_id":"cebpf4jnsgd1na2vs0mg"},{"bike_id":"3b8a580b-54a1-4cdb-8dd4-3de441b5941c","system_id":"levelo_inurba_marseille","lat":43.30243,"lon":5.4003,"is_reserved":false,"is_disabled":false,"rental_uris":{"android":"levelo://app?vid=3b8a580b-54a1-4cdb-8dd4-3de441b5941c","ios":"levelo://app?vid=3b8a580b-54a1-4cdb-8dd4-3de441b5941c"},"vehicle_type_id":"4","last_reported":1748538564,"current_range_meters":6800,"station_id":"","pricing_plan_id":"cebpf4jnsgd1na2vs0mg"},{"bike_id":"50e10798-e69f-4872-a9ec-390e5a89cab6","system_id":"levelo_inurba_marseille","lat":43.30532,"lon":5.3671,"is_reserved":false,"is_disabled":false,"rental_uris":{"android":"levelo://app?vid=50e10798-e69f-4872-a9ec-390e5a89cab6","ios":"levelo://app?vid=50e10798-e69f-4872-a9ec-390e5a89cab6"},"vehicle_type_id":"4","last_reported":1748538564,"current_range_meters":6800,"station_id":"ce4bgrp2rcd13ifvqc9g","pricing_plan_id":"cebpf4jnsgd1na2vs0mg"},{"bike_id":"bf106879-ecde-48b6-8ced-379454d46ddc","system_id":"levelo_inurba_marseille","lat":43.26553,"lon":5.37297,"is_reserved":false,"is_disabled":false,"rental_uris":{"android":"levelo://app?vid=bf106879-ecde-48b6-8ced-379454d46ddc","ios":"levelo://app?vid=bf106879-ecde-48b6-8ced-379454d46ddc"},"vehicle_type_id":"4","last_reported":1748538564,"current_range_meters":6800,"station_id":"ce4bhg12rcd13ifvqf70","pricing_plan_id":"cebpf4jnsgd1na2vs0mg"},{"bike_id":"f0e12869-ccfc-49f7-8bf1-87de5389d98e","system_id":"levelo_inurba_marseille","lat":43.27502,"lon":5.42428,"is_reserved":false,"is_disabled":false,"rental_uris":{"android":"levelo://app?vid=f0e12869-ccfc-49f7-8bf1-87de5389d98e","ios":"levelo://app?vid=f0e12869-ccfc-49f7-8bf1-87de5389d98e"},"vehicle_type_id":"4","last_reported":1748538564,"current_range_meters":6800,"station_id":"ce4bhn92rcd13ifvqgrg","pricing_plan_id":"cebpf4jnsgd1na2vs0mg"},{"bike_id":"f71d842b-cad5-4ae9-9397-1c7296d825fb","system_id":"levelo_inurba_marseille","lat":43.313547,"lon":5.366929,"is_reserved":false,"is_disabled":false,"rental_uris":{"android":"levelo://app?vid=f71d842b-cad5-4ae9-9397-1c7296d825fb","ios":"levelo://app?vid=f71d842b-cad5-4ae9-9397-1c7296d825fb"},"vehicle_type_id":"4","last_reported":1748538564,"current_range_meters":7200,"station_id":"ce4bgr92rcd13ifvqc6g","pricing_plan_id":"cebpf4jnsgd1na2vs0mg"},{"bike_id":"be33f004-c445-4451-8171-5930e651b406","system_id":"levelo_inurba_marseille","lat":43.30139,"lon":5.39859,"is_reserved":false,"is_disabled":false,"rental_uris":{"android":"levelo://app?vid=be33f004-c445-4451-8171-5930e651b406","ios":"levelo://app?vid=be33f004-c445-4451-8171-5930e651b406"},"vehicle_type_id":"4","last_reported":1748538564,"current_range_meters":7200,"station_id":"ce4bh0h2rcd13ifvqd40","pricing_plan_id":"cebpf4jnsgd1na2vs0mg"},{"bike_id":"09ceb6d3-ac57-4630-a07f-597376540e6c","system_id":"levelo_inurba_marseille","lat":43.2925,"lon":5.40904,"is_reserved":false,"is_disabled":false,"rental_uris":{"android":"levelo://app?vid=09ceb6d3-ac57-4630-a07f-597376540e6c","ios":"levelo://app?vid=09ceb6d3-ac57-4630-a07f-597376540e6c"},"vehicle_type_id":"4","last_reported":1748538564,"current_range_meters":7200,"station_id":"ce4bh192rcd13ifvqdc0","pricing_plan_id":"cebpf4jnsgd1na2vs0mg"},{"bike_id":"249a1795-441d-4915-b46e-4eb025c35e1e","system_id":"levelo_inurba_marseille","lat":43.27942,"lon":5.39573,"is_reserved":false,"is_disabled":false,"rental_uris":{"android":"levelo://app?vid=249a1795-441d-4915-b46e-4eb025c35e1e","ios":"levelo://app?vid=249a1795-441d-4915-b46e-4eb025c35e1e"},"vehicle_type_id":"4","last_reported":1748538564,"current_range_meters":7200,"station_id":"ce4bhf92rcd13ifvqf40","pricing_plan_id":"cebpf4jnsgd1na2vs0mg"},{"bike_id":"dbbdd555-1e69-4bd9-9ea2-e1e7a8581e70","system_id":"levelo_inurba_marseille","lat":43.28445,"lon":5.39206,"is_reserved":false,"is_disabled":false,"rental_uris":{"android":"levelo://app?vid=dbbdd555-1e69-4bd9-9ea2-e1e7a8581e70","ios":"levelo://app?vid=dbbdd555-1e69-4bd9-9ea2-e1e7a8581e70"},"vehicle_type_id":"4","last_reported":1748538564,"current_range_meters":7200,"station_id":"ce4bhoh2rcd13ifvqh5g","pricing_plan_id":"cebpf4jnsgd1na2vs0mg"},{"bike_id":"2f650bb1-6027-4191-83d2-16315820a0a7","system_id":"levelo_inurba_marseille","lat":43.299983,"lon":5.373481,"is_reserved":false,"is_disabled":false,"rental_uris":{"android":"levelo://app?vid=2f650bb1-6027-4191-83d2-16315820a0a7","ios":"levelo://app?vid=2f650bb1-6027-4191-83d2-16315820a0a7"},"vehicle_type_id":"4","last_reported":1748538564,"current_range_meters":8000,"station_id":"","pricing_plan_id":"cebpf4jnsgd1na2vs0mg"},{"bike_id":"9da75692-7495-4c67-89d8-110bdd1ac358","system_id":"levelo_inurba_marseille","lat":43.25091,"lon":5.39506,"is_reserved":false,"is_disabled":false,"rental_uris":{"android":"levelo://app?vid=9da75692-7495-4c67-89d8-110bdd1ac358","ios":"levelo://app?vid=9da75692-7495-4c67-89d8-110bdd1ac358"},"vehicle_type_id":"4","last_reported":1748538564,"current_range_meters":8000,"station_id":"ce4bhm12rcd13ifvqgkg","pricing_plan_id":"cebpf4jnsgd1na2vs0mg"},{"bike_id":"84adab0f-96c1-4426-bc86-147d47e6151b","system_id":"levelo_inurba_marseille","lat":43.23206,"lon":5.3556,"is_reserved":false,"is_disabled":false,"rental_uris":{"android":"levelo://app?vid=84adab0f-96c1-4426-bc86-147d47e6151b","ios":"levelo://app?vid=84adab0f-96c1-4426-bc86-147d47e6151b"},"vehicle_type_id":"4","last_reported":1748538564,"current_range_meters":8000,"station_id":"ce4bhu92rcd13ifvqi70","pricing_plan_id":"cebpf4jnsgd1na2vs0mg"},{"bike_id":"86f11208-7f90-4009-a976-cc81e2c7825f","system_id":"levelo_inurba_marseille","lat":43.24165,"lon":5.36409,"is_reserved":false,"is_disabled":false,"rental_uris":{"android":"levelo://app?vid=86f11208-7f90-4009-a976-cc81e2c7825f","ios":"levelo://app?vid=86f11208-7f90-4009-a976-cc81e2c7825f"},"vehicle_type_id":"4","last_reported":1748538564,"current_range_meters":8000,"station_id":"cpo36qri1sfpv3e86is0","pricing_plan_id":"cebpf4jnsgd1na2vs0mg"},{"bike_id":"7ad6fa5f-df46-4408-be3a-66a4244a5a34","system_id":"levelo_inurba_marseille","lat":43.26566,"lon":5.40327,"is_reserved":false,"is_disabled":false,"rental_uris":{"android":"levelo://app?vid=7ad6fa5f-df46-4408-be3a-66a4244a5a34","ios":"levelo://app?vid=7ad6fa5f-df46-4408-be3a-66a4244a5a34"},"vehicle_type_id":"4","last_reported":1748538564,"current_range_meters":8400,"station_id":"","pricing_plan_id":"cebpf4jnsgd1na2vs0mg"},{"bike_id":"13950f74-b86d-45c9-a82d-b1be448f50f7","system_id":"levelo_inurba_marseille","lat":43.292908,"lon":5.374664,"is_reserved":false,"is_disabled":false,"rental_uris":{"android":"levelo://app?vid=13950f74-b86d-45c9-a82d-b1be448f50f7","ios":"levelo://app?vid=13950f74-b86d-45c9-a82d-b1be448f50f7"},"vehicle_type_id":"4","last_reported":1748538564,"current_range_meters":8400,"station_id":"ce4bgi12rcd13ifvqb70","pricing_plan_id":"cebpf4jnsgd1na2vs0mg"},{"bike_id":"5ebcab2d-592d-446c-bba6-9706c8bc4b45","system_id":"levelo_inurba_marseille","lat":43.31342,"lon":5.36703,"is_reserved":false,"is_disabled":false,"rental_uris":{"android":"levelo://app?vid=5ebcab2d-592d-446c-bba6-9706c8bc4b45","ios":"levelo://app?vid=5ebcab2d-592d-446c-bba6-9706c8bc4b45"},"vehicle_type_id":"4","last_reported":1748538564,"current_range_meters":8400,"station_id":"ce4bgr92rcd13ifvqc6g","pricing_plan_id":"cebpf4jnsgd1na2vs0mg"},{"bike_id":"35cc31c8-3562-4783-8998-6fb421e58b01","system_id":"levelo_inurba_marseille","lat":43.30635,"lon":5.40102,"is_reserved":false,"is_disabled":false,"rental_uris":{"android":"levelo://app?vid=35cc31c8-3562-4783-8998-6fb421e58b01","ios":"levelo://app?vid=35cc31c8-3562-4783-8998-6fb421e58b01"},"vehicle_type_id":"4","last_reported":1748538564,"current_range_meters":8400,"station_id":"ce4bh112rcd13ifvqda0","pricing_plan_id":"cebpf4jnsgd1na2vs0mg"},{"bike_id":"033bc839-f7e6-4b07-b34d-140eecfce297","system_id":"levelo_inurba_marseille","lat":43.28711,"lon":5.37389,"is_reserved":false,"is_disabled":false,"rental_uris":{"android":"levelo://app?vid=033bc839-f7e6-4b07-b34d-140eecfce297","ios":"levelo://app?vid=033bc839-f7e6-4b07-b34d-140eecfce297"},"vehicle_type_id":"4","last_reported":1748538564,"current_range_meters":8400,"station_id":"ce4bh3p2rcd13ifvqdq0","pricing_plan_id":"cebpf4jnsgd1na2vs0mg"},{"bike_id":"a196b62c-4d9f-40de-964e-5e76cf7ab0bc","system_id":"levelo_inurba_marseille","lat":43.28406,"lon":5.37523,"is_reserved":false,"is_disabled":false,"rental_uris":{"android":"levelo://app?vid=a196b62c-4d9f-40de-964e-5e76cf7ab0bc","ios":"levelo://app?vid=a196b62c-4d9f-40de-964e-5e76cf7ab0bc"},"vehicle_type_id":"4","last_reported":1748538564,"current_range_meters":8400,"station_id":"ce4bh412rcd13ifvqds0","pricing_plan_id":"cebpf4jnsgd1na2vs0mg"},{"bike_id":"d66f3467-6486-4818-ad58-482d36968736","system_id":"levelo_inurba_marseille","lat":43.2848,"lon":5.38425,"is_reserved":false,"is_disabled":false,"rental_uris":{"android":"levelo://app?vid=d66f3467-6486-4818-ad58-482d36968736","ios":"levelo://app?vid=d66f3467-6486-4818-ad58-482d36968736"},"vehicle_type_id":"4","last_reported":1748538564,"current_range_meters":8400,"station_id":"ce4bh512rcd13ifvqe3g","pricing_plan_id":"cebpf4jnsgd1na2vs0mg"},{"bike_id":"8472c6ba-4097-4b01-afcd-c81b98519f37","system_id":"levelo_inurba_marseille","lat":43.24998,"lon":5.38932,"is_reserved":false,"is_disabled":false,"rental_uris":{"android":"levelo://app?vid=8472c6ba-4097-4b01-afcd-c81b98519f37","ios":"levelo://app?vid=8472c6ba-4097-4b01-afcd-c81b98519f37"},"vehicle_type_id":"4","last_reported":1748538564,"current_range_meters":8400,"station_id":"ce4bhgp2rcd13ifvqfd0","pricing_plan_id":"cebpf4jnsgd1na2vs0mg"},{"bike_id":"22771043-09b1-43eb-91e0-5c845144e1e3","system_id":"levelo_inurba_marseille","lat":43.276986,"lon":5.408676,"is_reserved":false,"is_disabled":false,"rental_uris":{"android":"levelo://app?vid=22771043-09b1-43eb-91e0-5c845144e1e3","ios":"levelo://app?vid=22771043-09b1-43eb-91e0-5c845144e1e3"},"vehicle_type_id":"4","last_reported":1748538564,"current_range_meters":8800,"station_id":"","pricing_plan_id":"cebpf4jnsgd1na2vs0mg"},{"bike_id":"24cd34e1-bb74-4352-90f7-805b9231f525","system_id":"levelo_inurba_marseille","lat":43.263773,"lon":5.420074,"is_reserved":false,"is_disabled":false,"rental_uris":{"android":"levelo://app?vid=24cd34e1-bb74-4352-90f7-805b9231f525","ios":"levelo://app?vid=24cd34e1-bb74-4352-90f7-805b9231f525"},"vehicle_type_id":"4","last_reported":1748538564,"current_range_meters":8800,"station_id":"","pricing_plan_id":"cebpf4jnsgd1na2vs0mg"},{"bike_id":"f3ef6342-bc91-41f1-99e8-a3d60e2e8ff3","system_id":"levelo_inurba_marseille","lat":43.29306,"lon":5.37461,"is_reserved":false,"is_disabled":false,"rental_uris":{"android":"levelo://app?vid=f3ef6342-bc91-41f1-99e8-a3d60e2e8ff3","ios":"levelo://app?vid=f3ef6342-bc91-41f1-99e8-a3d60e2e8ff3"},"vehicle_type_id":"4","last_reported":1748538564,"current_range_meters":8800,"station_id":"ce4bgi12rcd13ifvqb70","pricing_plan_id":"cebpf4jnsgd1na2vs0mg"},{"bike_id":"41835534-cf8a-4ad1-a3f6-eac9e9827999","system_id":"levelo_inurba_marseille","lat":43.28264,"lon":5.35064,"is_reserved":false,"is_disabled":false,"rental_uris":{"android":"levelo://app?vid=41835534-cf8a-4ad1-a3f6-eac9e9827999","ios":"levelo://app?vid=41835534-cf8a-4ad1-a3f6-eac9e9827999"},"vehicle_type_id":"4","last_reported":1748538564,"current_range_meters":8800,"station_id":"ce4bhbp2rcd13ifvqerg","pricing_plan_id":"cebpf4jnsgd1na2vs0mg"},{"bike_id":"a853e1c2-8d75-493a-840b-aaba88d28284","system_id":"levelo_inurba_marseille","lat":43.26215,"lon":5.37438,"is_reserved":false,"is_disabled":false,"rental_uris":{"android":"levelo://app?vid=a853e1c2-8d75-493a-840b-aaba88d28284","ios":"levelo://app?vid=a853e1c2-8d75-493a-840b-aaba88d28284"},"vehicle_type_id":"4","last_reported":1748538564,"current_range_meters":8800,"station_id":"ce4bhgp2rcd13ifvqfc0","pricing_plan_id":"cebpf4jnsgd1na2vs0mg"},{"bike_id":"8de64f42-6079-4295-b961-fcc02d3a7511","system_id":"levelo_inurba_marseille","lat":43.28156,"lon":5.4264,"is_reserved":false,"is_disabled":false,"rental_uris":{"android":"levelo://app?vid=8de64f42-6079-4295-b961-fcc02d3a7511","ios":"levelo://app?vid=8de64f42-6079-4295-b961-fcc02d3a7511"},"vehicle_type_id":"4","last_reported":1748538564,"current_range_meters":8800,"station_id":"ce4bhnh2rcd13ifvqgug","pricing_plan_id":"cebpf4jnsgd1na2vs0mg"},{"bike_id":"a410ab0b-50f8-4493-9edb-7734b96e2aec","system_id":"levelo_inurba_marseille","lat":43.29569,"lon":5.37513,"is_reserved":false,"is_disabled":false,"rental_uris":{"android":"levelo://app?vid=a410ab0b-50f8-4493-9edb-7734b96e2aec","ios":"levelo://app?vid=a410ab0b-50f8-4493-9edb-7734b96e2aec"},"vehicle_type_id":"4","last_reported":1748538564,"current_range_meters":9200,"station_id":"ce4bgh92rcd13ifvqb50","pricing_plan_id":"cebpf4jnsgd1na2vs0mg"},{"bike_id":"63ba5f7a-d088-48d9-8a7f-5af380af0aaa","system_id":"levelo_inurba_marseille","lat":43.28407,"lon":5.37518,"is_reserved":false,"is_disabled":false,"rental_uris":{"android":"levelo://app?vid=63ba5f7a-d088-48d9-8a7f-5af380af0aaa","ios":"levelo://app?vid=63ba5f7a-d088-48d9-8a7f-5af380af0aaa"},"vehicle_type_id":"4","last_reported":1748538564,"current_range_meters":9200,"station_id":"ce4bh412rcd13ifvqds0","pricing_plan_id":"cebpf4jnsgd1na2vs0mg"},{"bike_id":"52dfb456-7694-4fd1-a47c-33e7dcdc6766","system_id":"levelo_inurba_marseille","lat":43.28483,"lon":5.38558,"is_reserved":false,"is_disabled":false,"rental_uris":{"android":"levelo://app?vid=52dfb456-7694-4fd1-a47c-33e7dcdc6766","ios":"levelo://app?vid=52dfb456-7694-4fd1-a47c-33e7dcdc6766"},"vehicle_type_id":"4","last_reported":1748538564,"current_range_meters":9200,"station_id":"ce4bh8p2rcd13ifvqeb0","pricing_plan_id":"cebpf4jnsgd1na2vs0mg"},{"bike_id":"9e65e34a-0af6-45ac-ade1-8ab64e429883","system_id":"levelo_inurba_marseille","lat":43.291958,"lon":5.358123,"is_reserved":false,"is_disabled":false,"rental_uris":{"android":"levelo://app?vid=9e65e34a-0af6-45ac-ade1-8ab64e429883","ios":"levelo://app?vid=9e65e34a-0af6-45ac-ade1-8ab64e429883"},"vehicle_type_id":"4","last_reported":1748538564,"current_range_meters":9200,"station_id":"ce4bhb12rcd13ifvqel0","pricing_plan_id":"cebpf4jnsgd1na2vs0mg"},{"bike_id":"6af3c224-0761-4800-a562-e06feca0d455","system_id":"levelo_inurba_marseille","lat":43.25016,"lon":5.38937,"is_reserved":false,"is_disabled":false,"rental_uris":{"android":"levelo://app?vid=6af3c224-0761-4800-a562-e06feca0d455","ios":"levelo://app?vid=6af3c224-0761-4800-a562-e06feca0d455"},"vehicle_type_id":"4","last_reported":1748538564,"current_range_meters":9200,"station_id":"ce4bhgp2rcd13ifvqfd0","pricing_plan_id":"cebpf4jnsgd1na2vs0mg"},{"bike_id":"dc2a0e6e-5315-4858-bdd2-78b4da596278","system_id":"levelo_inurba_marseille","lat":43.29782,"lon":5.37096,"is_reserved":false,"is_disabled":false,"rental_uris":{"android":"levelo://app?vid=dc2a0e6e-5315-4858-bdd2-78b4da596278","ios":"levelo://app?vid=dc2a0e6e-5315-4858-bdd2-78b4da596278"},"vehicle_type_id":"4","last_reported":1748538564,"current_range_meters":9600,"station_id":"ce4bgop2rcd13ifvqc1g","pricing_plan_id":"cebpf4jnsgd1na2vs0mg"},{"bike_id":"97b3763c-a78e-463e-91a6-522d3035a365","system_id":"levelo_inurba_marseille","lat":43.292802,"lon":5.409,"is_reserved":false,"is_disabled":false,"rental_uris":{"android":"levelo://app?vid=97b3763c-a78e-463e-91a6-522d3035a365","ios":"levelo://app?vid=97b3763c-a78e-463e-91a6-522d3035a365"},"vehicle_type_id":"4","last_reported":1748538564,"current_range_meters":9600,"station_id":"ce4bh192rcd13ifvqdc0","pricing_plan_id":"cebpf4jnsgd1na2vs0mg"},{"bike_id":"66f2fb24-f35f-46bb-8208-52ece735255f","system_id":"levelo_inurba_marseille","lat":43.26195,"lon":5.37928,"is_reserved":false,"is_disabled":false,"rental_uris":{"android":"levelo://app?vid=66f2fb24-f35f-46bb-8208-52ece735255f","ios":"levelo://app?vid=66f2fb24-f35f-46bb-8208-52ece735255f"},"vehicle_type_id":"4","last_reported":1748538564,"current_range_meters":9600,"station_id":"ce4bhjp2rcd13ifvqg90","pricing_plan_id":"cebpf4jnsgd1na2vs0mg"},{"bike_id":"db5f2da5-1f77-495f-bd46-0ea082fcb1ba","system_id":"levelo_inurba_marseille","lat":43.27944,"lon":5.41052,"is_reserved":false,"is_disabled":false,"rental_uris":{"android":"levelo://app?vid=db5f2da5-1f77-495f-bd46-0ea082fcb1ba","ios":"levelo://app?vid=db5f2da5-1f77-495f-bd46-0ea082fcb1ba"},"vehicle_type_id":"4","last_reported":1748538564,"current_range_meters":9600,"station_id":"ce4bhnp2rcd13ifvqh0g","pricing_plan_id":"cebpf4jnsgd1na2vs0mg"},{"bike_id":"e9a33d3e-bc7c-45bb-a2af-6b3f38575aae","system_id":"levelo_inurba_marseille","lat":43.33722,"lon":5.3918,"is_reserved":false,"is_disabled":false,"rental_uris":{"android":"levelo://app?vid=e9a33d3e-bc7c-45bb-a2af-6b3f38575aae","ios":"levelo://app?vid=e9a33d3e-bc7c-45bb-a2af-6b3f38575aae"},"vehicle_type_id":"4","last_reported":1748538564,"current_range_meters":9600,"station_id":"ce4bhr92rcd13ifvqhsg","pricing_plan_id":"cebpf4jnsgd1na2vs0mg"},{"bike_id":"48d689ba-1776-48e9-b9b8-2206a6b00fc7","system_id":"levelo_inurba_marseille","lat":43.28604,"lon":5.37065,"is_reserved":false,"is_disabled":false,"rental_uris":{"android":"levelo://app?vid=48d689ba-1776-48e9-b9b8-2206a6b00fc7","ios":"levelo://app?vid=48d689ba-1776-48e9-b9b8-2206a6b00fc7"},"vehicle_type_id":"4","last_reported":1748538564,"current_range_meters":9600,"station_id":"ce4bht12rcd13ifvqi60","pricing_plan_id":"cebpf4jnsgd1na2vs0mg"},{"bike_id":"01ee190b-e1da-49a1-9320-c2541121af76","system_id":"levelo_inurba_marseille","lat":43.30649,"lon":5.40103,"is_reserved":false,"is_disabled":false,"rental_uris":{"android":"levelo://app?vid=01ee190b-e1da-49a1-9320-c2541121af76","ios":"levelo://app?vid=01ee190b-e1da-49a1-9320-c2541121af76"},"vehicle_type_id":"4","last_reported":1748538564,"current_range_meters":10000,"station_id":"ce4bh112rcd13ifvqda0","pricing_plan_id":"cebpf4jnsgd1na2vs0mg"},{"bike_id":"8275ed54-4e3f-4acd-87df-9189f84d4dba","system_id":"levelo_inurba_marseille","lat":43.29253,"lon":5.38441,"is_reserved":false,"is_disabled":false,"rental_uris":{"android":"levelo://app?vid=8275ed54-4e3f-4acd-87df-9189f84d4dba","ios":"levelo://app?vid=8275ed54-4e3f-4acd-87df-9189f84d4dba"},"vehicle_type_id":"4","last_reported":1748538564,"current_range_meters":10000,"station_id":"ce4bh692rcd13ifvqea0","pricing_plan_id":"cebpf4jnsgd1na2vs0mg"},{"bike_id":"33cd3cac-6178-47a7-9aad-6df9453a279d","system_id":"levelo_inurba_marseille","lat":43.24546,"lon":5.39517,"is_reserved":false,"is_disabled":false,"rental_uris":{"android":"levelo://app?vid=33cd3cac-6178-47a7-9aad-6df9453a279d","ios":"levelo://app?vid=33cd3cac-6178-47a7-9aad-6df9453a279d"},"vehicle_type_id":"4","last_reported":1748538564,"current_range_meters":10000,"station_id":"ce4bhlp2rcd13ifvqgjg","pricing_plan_id":"cebpf4jnsgd1na2vs0mg"},{"bike_id":"f293ba09-4b7e-4261-9c45-5e8e5f6ff81c","system_id":"levelo_inurba_marseille","lat":43.30374,"lon":5.42485,"is_reserved":false,"is_disabled":false,"rental_uris":{"android":"levelo://app?vid=f293ba09-4b7e-4261-9c45-5e8e5f6ff81c","ios":"levelo://app?vid=f293ba09-4b7e-4261-9c45-5e8e5f6ff81c"},"vehicle_type_id":"4","last_reported":1748538564,"current_range_meters":10000,"station_id":"ce4bhoh2rcd13ifvqh6g","pricing_plan_id":"cebpf4jnsgd1na2vs0mg"},{"bike_id":"42dca157-bdb0-4361-8022-7979135f94aa","system_id":"levelo_inurba_marseille","lat":43.285667,"lon":5.365635,"is_reserved":false,"is_disabled":false,"rental_uris":{"android":"levelo://app?vid=42dca157-bdb0-4361-8022-7979135f94aa","ios":"levelo://app?vid=42dca157-bdb0-4361-8022-7979135f94aa"},"vehicle_type_id":"4","last_reported":1748538564,"current_range_meters":10800,"station_id":"","pricing_plan_id":"cebpf4jnsgd1na2vs0mg"},{"bike_id":"daa469c1-3374-4165-82f9-43190021a704","system_id":"levelo_inurba_marseille","lat":43.305232,"lon":5.367358,"is_reserved":false,"is_disabled":false,"rental_uris":{"android":"levelo://app?vid=daa469c1-3374-4165-82f9-43190021a704","ios":"levelo://app?vid=daa469c1-3374-4165-82f9-43190021a704"},"vehicle_type_id":"4","last_reported":1748538564,"current_range_meters":10800,"station_id":"ce4bgrp2rcd13ifvqc9g","pricing_plan_id":"cebpf4jnsgd1na2vs0mg"},{"bike_id":"cf8c6464-5830-4c23-beaa-ab42957262f4","system_id":"levelo_inurba_marseille","lat":43.29094,"lon":5.38126,"is_reserved":false,"is_disabled":false,"rental_uris":{"android":"levelo://app?vid=cf8c6464-5830-4c23-beaa-ab42957262f4","ios":"levelo://app?vid=cf8c6464-5830-4c23-beaa-ab42957262f4"},"vehicle_type_id":"4","last_reported":1748538564,"current_range_meters":10800,"station_id":"ce4bh512rcd13ifvqe2g","pricing_plan_id":"cebpf4jnsgd1na2vs0mg"},{"bike_id":"11b196b0-bb2f-42a1-b9d1-f3db9a1a163c","system_id":"levelo_inurba_marseille","lat":43.28417,"lon":5.34995,"is_reserved":false,"is_disabled":false,"rental_uris":{"android":"levelo://app?vid=11b196b0-bb2f-42a1-b9d1-f3db9a1a163c","ios":"levelo://app?vid=11b196b0-bb2f-42a1-b9d1-f3db9a1a163c"},"vehicle_type_id":"4","last_reported":1748538564,"current_range_meters":10800,"station_id":"ce4bhbh2rcd13ifvqepg","pricing_plan_id":"cebpf4jnsgd1na2vs0mg"},{"bike_id":"9195d626-108a-4a18-adfc-a568b1b44ba6","system_id":"levelo_inurba_marseille","lat":43.28947,"lon":5.36406,"is_reserved":false,"is_disabled":false,"rental_uris":{"android":"levelo://app?vid=9195d626-108a-4a18-adfc-a568b1b44ba6","ios":"levelo://app?vid=9195d626-108a-4a18-adfc-a568b1b44ba6"},"vehicle_type_id":"4","last_reported":1748538564,"current_range_meters":10800,"station_id":"ce4bhc92rcd13ifvqetg","pricing_plan_id":"cebpf4jnsgd1na2vs0mg"},{"bike_id":"f1095dbf-eecb-436c-a822-a985c7e42668","system_id":"levelo_inurba_marseille","lat":43.26571,"lon":5.37284,"is_reserved":false,"is_disabled":false,"rental_uris":{"android":"levelo://app?vid=f1095dbf-eecb-436c-a822-a985c7e42668","ios":"levelo://app?vid=f1095dbf-eecb-436c-a822-a985c7e42668"},"vehicle_type_id":"4","last_reported":1748538564,"current_range_meters":10800,"station_id":"ce4bhg12rcd13ifvqf70","pricing_plan_id":"cebpf4jnsgd1na2vs0mg"},{"bike_id":"b294db3b-36e7-4219-b9d2-1351ec081ffb","system_id":"levelo_inurba_marseille","lat":43.25008,"lon":5.38924,"is_reserved":false,"is_disabled":false,"rental_uris":{"android":"levelo://app?vid=b294db3b-36e7-4219-b9d2-1351ec081ffb","ios":"levelo://app?vid=b294db3b-36e7-4219-b9d2-1351ec081ffb"},"vehicle_type_id":"4","last_reported":1748538564,"current_range_meters":10800,"station_id":"ce4bhgp2rcd13ifvqfd0","pricing_plan_id":"cebpf4jnsgd1na2vs0mg"},{"bike_id":"15d8a114-2e87-4579-9c89-d5c920bef090","system_id":"levelo_inurba_marseille","lat":43.28698,"lon":5.39982,"is_reserved":false,"is_disabled":false,"rental_uris":{"android":"levelo://app?vid=15d8a114-2e87-4579-9c89-d5c920bef090","ios":"levelo://app?vid=15d8a114-2e87-4579-9c89-d5c920bef090"},"vehicle_type_id":"4","last_reported":1748538564,"current_range_meters":10800,"station_id":"ce4bho92rcd13ifvqh3g","pricing_plan_id":"cebpf4jnsgd1na2vs0mg"},{"bike_id":"0e009545-9acc-491d-b143-22cbd0096db4","system_id":"levelo_inurba_marseille","lat":43.33812,"lon":5.3925,"is_reserved":false,"is_disabled":false,"rental_uris":{"android":"levelo://app?vid=0e009545-9acc-491d-b143-22cbd0096db4","ios":"levelo://app?vid=0e009545-9acc-491d-b143-22cbd0096db4"},"vehicle_type_id":"4","last_reported":1748538564,"current_range_meters":11200,"station_id":"","pricing_plan_id":"cebpf4jnsgd1na2vs0mg"},{"bike_id":"528e54e0-df6b-40ef-9929-2e4f1ee5a533","system_id":"levelo_inurba_marseille","lat":43.296742,"lon":5.387101,"is_reserved":false,"is_disabled":false,"rental_uris":{"android":"levelo://app?vid=528e54e0-df6b-40ef-9929-2e4f1ee5a533","ios":"levelo://app?vid=528e54e0-df6b-40ef-9929-2e4f1ee5a533"},"vehicle_type_id":"4","last_reported":1748538564,"current_range_meters":11600,"station_id":"","pricing_plan_id":"cebpf4jnsgd1na2vs0mg"},{"bike_id":"de5cf318-1a36-4a98-a920-6d997a25c229","system_id":"levelo_inurba_marseille","lat":43.289444,"lon":5.366428,"is_reserved":false,"is_disabled":false,"rental_uris":{"android":"levelo://app?vid=de5cf318-1a36-4a98-a920-6d997a25c229","ios":"levelo://app?vid=de5cf318-1a36-4a98-a920-6d997a25c229"},"vehicle_type_id":"4","last_reported":1748538564,"current_range_meters":11600,"station_id":"ce4bhap2rcd13ifvqek0","pricing_plan_id":"cebpf4jnsgd1na2vs0mg"},{"bike_id":"522184cf-f0c5-4fc8-99bc-7daea548b561","system_id":"levelo_inurba_marseille","lat":43.28624,"lon":5.37046,"is_reserved":false,"is_disabled":false,"rental_uris":{"android":"levelo://app?vid=522184cf-f0c5-4fc8-99bc-7daea548b561","ios":"levelo://app?vid=522184cf-f0c5-4fc8-99bc-7daea548b561"},"vehicle_type_id":"4","last_reported":1748538564,"current_range_meters":11600,"station_id":"ce4bht12rcd13ifvqi60","pricing_plan_id":"cebpf4jnsgd1na2vs0mg"},{"bike_id":"94ae23e9-32f3-4b59-920d-52703380f570","system_id":"levelo_inurba_marseille","lat":43.3208,"lon":5.36786,"is_reserved":false,"is_disabled":false,"rental_uris":{"android":"levelo://app?vid=94ae23e9-32f3-4b59-920d-52703380f570","ios":"levelo://app?vid=94ae23e9-32f3-4b59-920d-52703380f570"},"vehicle_type_id":"4","last_reported":1748538564,"current_range_meters":12000,"station_id":"ce4bhrh2rcd13ifvqhug","pricing_plan_id":"cebpf4jnsgd1na2vs0mg"},{"bike_id":"7d8016e4-8135-4b99-a260-4cbbdabcb1c0","system_id":"levelo_inurba_marseille","lat":43.29271,"lon":5.36851,"is_reserved":false,"is_disabled":false,"rental_uris":{"android":"levelo://app?vid=7d8016e4-8135-4b99-a260-4cbbdabcb1c0","ios":"levelo://app?vid=7d8016e4-8135-4b99-a260-4cbbdabcb1c0"},"vehicle_type_id":"4","last_reported":1748538564,"current_range_meters":12400,"station_id":"ce4bhbp2rcd13ifvqesg","pricing_plan_id":"cebpf4jnsgd1na2vs0mg"},{"bike_id":"2a4463a2-5e35-4ba6-b2a0-f4ba53016fd6","system_id":"levelo_inurba_marseille","lat":43.25013,"lon":5.38932,"is_reserved":false,"is_disabled":false,"rental_uris":{"android":"levelo://app?vid=2a4463a2-5e35-4ba6-b2a0-f4ba53016fd6","ios":"levelo://app?vid=2a4463a2-5e35-4ba6-b2a0-f4ba53016fd6"},"vehicle_type_id":"4","last_reported":1748538564,"current_range_meters":12400,"station_id":"ce4bhgp2rcd13ifvqfd0","pricing_plan_id":"cebpf4jnsgd1na2vs0mg"},{"bike_id":"100dedf2-6ca5-4b08-a91f-7dc452151000","system_id":"levelo_inurba_marseille","lat":43.2558,"lon":5.38231,"is_reserved":false,"is_disabled":false,"rental_uris":{"android":"levelo://app?vid=100dedf2-6ca5-4b08-a91f-7dc452151000","ios":"levelo://app?vid=100dedf2-6ca5-4b08-a91f-7dc452151000"},"vehicle_type_id":"4","last_reported":1748538564,"current_range_meters":12400,"station_id":"ce4bhih2rcd13ifvqfs0","pricing_plan_id":"cebpf4jnsgd1na2vs0mg"},{"bike_id":"fc97b9a7-e757-435b-b412-30f021ba3baf","system_id":"levelo_inurba_marseille","lat":43.28702,"lon":5.39989,"is_reserved":false,"is_disabled":false,"rental_uris":{"android":"levelo://app?vid=fc97b9a7-e757-435b-b412-30f021ba3baf","ios":"levelo://app?vid=fc97b9a7-e757-435b-b412-30f021ba3baf"},"vehicle_type_id":"4","last_reported":1748538564,"current_range_meters":12400,"station_id":"ce4bho92rcd13ifvqh3g","pricing_plan_id":"cebpf4jnsgd1na2vs0mg"},{"bike_id":"da279776-c099-4cdd-acd3-f802ffed4965","system_id":"levelo_inurba_marseille","lat":43.295638,"lon":5.42294,"is_reserved":false,"is_disabled":false,"rental_uris":{"android":"levelo://app?vid=da279776-c099-4cdd-acd3-f802ffed4965","ios":"levelo://app?vid=da279776-c099-4cdd-acd3-f802ffed4965"},"vehicle_type_id":"4","last_reported":1748538564,"current_range_meters":12400,"station_id":"ce4bhph2rcd13ifvqhdg","pricing_plan_id":"cebpf4jnsgd1na2vs0mg"},{"bike_id":"a426f99b-d34a-41bf-bbda-59f7dfd6939b","system_id":"levelo_inurba_marseille","lat":43.255796,"lon":5.382262,"is_reserved":false,"is_disabled":false,"rental_uris":{"android":"levelo://app?vid=a426f99b-d34a-41bf-bbda-59f7dfd6939b","ios":"levelo://app?vid=a426f99b-d34a-41bf-bbda-59f7dfd6939b"},"vehicle_type_id":"4","last_reported":1748538564,"current_range_meters":12400,"station_id":"ce501612rcd8frsf0b60","pricing_plan_id":"cebpf4jnsgd1na2vs0mg"},{"bike_id":"54ec863d-ed64-4d65-ad0c-5217cbb3fe25","system_id":"levelo_inurba_marseille","lat":43.22501,"lon":5.34783,"is_reserved":false,"is_disabled":false,"rental_uris":{"android":"levelo://app?vid=54ec863d-ed64-4d65-ad0c-5217cbb3fe25","ios":"levelo://app?vid=54ec863d-ed64-4d65-ad0c-5217cbb3fe25"},"vehicle_type_id":"4","last_reported":1748538564,"current_range_meters":12400,"station_id":"st_cvj5dfep6f1abm77gieg","pricing_plan_id":"cebpf4jnsgd1na2vs0mg"},{"bike_id":"f5733814-9732-4748-bcc9-3b2fac8e1564","system_id":"levelo_inurba_marseille","lat":43.31256,"lon":5.37829,"is_reserved":false,"is_disabled":false,"rental_uris":{"android":"levelo://app?vid=f5733814-9732-4748-bcc9-3b2fac8e1564","ios":"levelo://app?vid=f5733814-9732-4748-bcc9-3b2fac8e1564"},"vehicle_type_id":"4","last_reported":1748538564,"current_range_meters":12800,"station_id":"","pricing_plan_id":"cebpf4jnsgd1na2vs0mg"},{"bike_id":"7f179574-4b74-4cb4-a222-e20d50d47699","system_id":"levelo_inurba_marseille","lat":43.29039,"lon":5.37565,"is_reserved":false,"is_disabled":false,"rental_uris":{"android":"levelo://app?vid=7f179574-4b74-4cb4-a222-e20d50d47699","ios":"levelo://app?vid=7f179574-4b74-4cb4-a222-e20d50d47699"},"vehicle_type_id":"4","last_reported":1748538564,"current_range_meters":12800,"station_id":"ce4bh692rcd13ifvqe90","pricing_plan_id":"cebpf4jnsgd1na2vs0mg"},{"bike_id":"f96d3350-c5bf-4b21-add4-93ecfdb5e9e5","system_id":"levelo_inurba_marseille","lat":43.26564,"lon":5.3729,"is_reserved":false,"is_disabled":false,"rental_uris":{"android":"levelo://app?vid=f96d3350-c5bf-4b21-add4-93ecfdb5e9e5","ios":"levelo://app?vid=f96d3350-c5bf-4b21-add4-93ecfdb5e9e5"},"vehicle_type_id":"4","last_reported":1748538564,"current_range_meters":12800,"station_id":"ce4bhg12rcd13ifvqf70","pricing_plan_id":"cebpf4jnsgd1na2vs0mg"},{"bike_id":"2da2cd27-0e66-49b5-9000-c50a8c90d5cd","system_id":"levelo_inurba_marseille","lat":43.26551,"lon":5.37286,"is_reserved":false,"is_disabled":false,"rental_uris":{"android":"levelo://app?vid=2da2cd27-0e66-49b5-9000-c50a8c90d5cd","ios":"levelo://app?vid=2da2cd27-0e66-49b5-9000-c50a8c90d5cd"},"vehicle_type_id":"4","last_reported":1748538564,"current_range_meters":12800,"station_id":"ce4bhg12rcd13ifvqf70","pricing_plan_id":"cebpf4jnsgd1na2vs0mg"},{"bike_id":"d481b48a-92d4-493b-bf57-03803c371a5d","system_id":"levelo_inurba_marseille","lat":43.24178,"lon":5.36394,"is_reserved":false,"is_disabled":false,"rental_uris":{"android":"levelo://app?vid=d481b48a-92d4-493b-bf57-03803c371a5d","ios":"levelo://app?vid=d481b48a-92d4-493b-bf57-03803c371a5d"},"vehicle_type_id":"4","last_reported":1748538564,"current_range_meters":12800,"station_id":"cpo36qri1sfpv3e86is0","pricing_plan_id":"cebpf4jnsgd1na2vs0mg"},{"bike_id":"e9cda520-c6f4-465d-ad7f-8c059b3dc45a","system_id":"levelo_inurba_marseille","lat":43.313967,"lon":5.383993,"is_reserved":false,"is_disabled":false,"rental_uris":{"android":"levelo://app?vid=e9cda520-c6f4-465d-ad7f-8c059b3dc45a","ios":"levelo://app?vid=e9cda520-c6f4-465d-ad7f-8c059b3dc45a"},"vehicle_type_id":"4","last_reported":1748538564,"current_range_meters":13600,"station_id":"","pricing_plan_id":"cebpf4jnsgd1na2vs0mg"},{"bike_id":"243329ec-61f4-47d0-ac7f-0dbb82dc38af","system_id":"levelo_inurba_marseille","lat":43.26044,"lon":5.37552,"is_reserved":false,"is_disabled":false,"rental_uris":{"android":"levelo://app?vid=243329ec-61f4-47d0-ac7f-0dbb82dc38af","ios":"levelo://app?vid=243329ec-61f4-47d0-ac7f-0dbb82dc38af"},"vehicle_type_id":"4","last_reported":1748538564,"current_range_meters":13600,"station_id":"ce4bhgh2rcd13ifvqfa0","pricing_plan_id":"cebpf4jnsgd1na2vs0mg"},{"bike_id":"105d09e9-562a-489f-ab9c-1a895093e05c","system_id":"levelo_inurba_marseille","lat":43.26191,"lon":5.37453,"is_reserved":false,"is_disabled":false,"rental_uris":{"android":"levelo://app?vid=105d09e9-562a-489f-ab9c-1a895093e05c","ios":"levelo://app?vid=105d09e9-562a-489f-ab9c-1a895093e05c"},"vehicle_type_id":"4","last_reported":1748538564,"current_range_meters":14000,"station_id":"ce4bhgp2rcd13ifvqfc0","pricing_plan_id":"cebpf4jnsgd1na2vs0mg"},{"bike_id":"bb44d196-d9e0-4306-be2a-c6bc58dafccc","system_id":"levelo_inurba_marseille","lat":43.27053,"lon":5.402614,"is_reserved":false,"is_disabled":false,"rental_uris":{"android":"levelo://app?vid=bb44d196-d9e0-4306-be2a-c6bc58dafccc","ios":"levelo://app?vid=bb44d196-d9e0-4306-be2a-c6bc58dafccc"},"vehicle_type_id":"4","last_reported":1748538564,"current_range_meters":14000,"station_id":"ce4bhk92rcd13ifvqgc0","pricing_plan_id":"cebpf4jnsgd1na2vs0mg"},{"bike_id":"747224c9-7e52-4c58-9390-d943c4f5446c","system_id":"levelo_inurba_marseille","lat":43.271755,"lon":5.410036,"is_reserved":false,"is_disabled":false,"rental_uris":{"android":"levelo://app?vid=747224c9-7e52-4c58-9390-d943c4f5446c","ios":"levelo://app?vid=747224c9-7e52-4c58-9390-d943c4f5446c"},"vehicle_type_id":"4","last_reported":1748538564,"current_range_meters":14000,"station_id":"ce4bhl12rcd13ifvqgf0","pricing_plan_id":"cebpf4jnsgd1na2vs0mg"},{"bike_id":"a825ca66-0155-482b-ba57-da25292791c6","system_id":"levelo_inurba_marseille","lat":43.30411,"lon":5.41276,"is_reserved":false,"is_disabled":false,"rental_uris":{"android":"levelo://app?vid=a825ca66-0155-482b-ba57-da25292791c6","ios":"levelo://app?vid=a825ca66-0155-482b-ba57-da25292791c6"},"vehicle_type_id":"4","last_reported":1748538564,"current_range_meters":14000,"station_id":"ce4bhop2rcd13ifvqh8g","pricing_plan_id":"cebpf4jnsgd1na2vs0mg"},{"bike_id":"1670b24b-1003-4def-a3fa-f11df4e19231","system_id":"levelo_inurba_marseille","lat":43.30385,"lon":5.42471,"is_reserved":false,"is_disabled":false,"rental_uris":{"android":"levelo://app?vid=1670b24b-1003-4def-a3fa-f11df4e19231","ios":"levelo://app?vid=1670b24b-1003-4def-a3fa-f11df4e19231"},"vehicle_type_id":"4","last_reported":1748538564,"current_range_meters":14400,"station_id":"ce4bhoh2rcd13ifvqh6g","pricing_plan_id":"cebpf4jnsgd1na2vs0mg"},{"bike_id":"ede90320-0a32-4e7a-9972-070e26426437","system_id":"levelo_inurba_marseille","lat":43.28262,"lon":5.35064,"is_reserved":false,"is_disabled":false,"rental_uris":{"android":"levelo://app?vid=ede90320-0a32-4e7a-9972-070e26426437","ios":"levelo://app?vid=ede90320-0a32-4e7a-9972-070e26426437"},"vehicle_type_id":"4","last_reported":1748538564,"current_range_meters":14800,"station_id":"","pricing_plan_id":"cebpf4jnsgd1na2vs0mg"},{"bike_id":"cef93761-81b7-44b8-b1db-0322c65cd6f5","system_id":"levelo_inurba_marseille","lat":43.26106,"lon":5.37264,"is_reserved":false,"is_disabled":false,"rental_uris":{"android":"levelo://app?vid=cef93761-81b7-44b8-b1db-0322c65cd6f5","ios":"levelo://app?vid=cef93761-81b7-44b8-b1db-0322c65cd6f5"},"vehicle_type_id":"4","last_reported":1748538564,"current_range_meters":14800,"station_id":"","pricing_plan_id":"cebpf4jnsgd1na2vs0mg"},{"bike_id":"5c081b87-4dc4-49fd-bf3f-9a171b0fd8bd","system_id":"levelo_inurba_marseille","lat":43.31327,"lon":5.40222,"is_reserved":false,"is_disabled":false,"rental_uris":{"android":"levelo://app?vid=5c081b87-4dc4-49fd-bf3f-9a171b0fd8bd","ios":"levelo://app?vid=5c081b87-4dc4-49fd-bf3f-9a171b0fd8bd"},"vehicle_type_id":"4","last_reported":1748538564,"current_range_meters":14800,"station_id":"","pricing_plan_id":"cebpf4jnsgd1na2vs0mg"},{"bike_id":"295d9dc8-b324-43b5-bdda-821f515b71a3","system_id":"levelo_inurba_marseille","lat":43.30926,"lon":5.40143,"is_reserved":false,"is_disabled":false,"rental_uris":{"android":"levelo://app?vid=295d9dc8-b324-43b5-bdda-821f515b71a3","ios":"levelo://app?vid=295d9dc8-b324-43b5-bdda-821f515b71a3"},"vehicle_type_id":"4","last_reported":1748538564,"current_range_meters":14800,"station_id":"ce4bgvp2rcd13ifvqct0","pricing_plan_id":"cebpf4jnsgd1na2vs0mg"},{"bike_id":"48e26ea8-1795-4299-a1c4-724bbc46d8d5","system_id":"levelo_inurba_marseille","lat":43.28934,"lon":5.36652,"is_reserved":false,"is_disabled":false,"rental_uris":{"android":"levelo://app?vid=48e26ea8-1795-4299-a1c4-724bbc46d8d5","ios":"levelo://app?vid=48e26ea8-1795-4299-a1c4-724bbc46d8d5"},"vehicle_type_id":"4","last_reported":1748538564,"current_range_meters":14800,"station_id":"ce4bhap2rcd13ifvqek0","pricing_plan_id":"cebpf4jnsgd1na2vs0mg"},{"bike_id":"b96c15de-05db-4daa-89c1-f32501676f10","system_id":"levelo_inurba_marseille","lat":43.284232,"lon":5.349897,"is_reserved":false,"is_disabled":false,"rental_uris":{"android":"levelo://app?vid=b96c15de-05db-4daa-89c1-f32501676f10","ios":"levelo://app?vid=b96c15de-05db-4daa-89c1-f32501676f10"},"vehicle_type_id":"4","last_reported":1748538564,"current_range_meters":14800,"station_id":"ce4bhbh2rcd13ifvqepg","pricing_plan_id":"cebpf4jnsgd1na2vs0mg"},{"bike_id":"8c65a594-86c3-4a53-9d26-03d55a815cae","system_id":"levelo_inurba_marseille","lat":43.26027,"lon":5.37557,"is_reserved":false,"is_disabled":false,"rental_uris":{"android":"levelo://app?vid=8c65a594-86c3-4a53-9d26-03d55a815cae","ios":"levelo://app?vid=8c65a594-86c3-4a53-9d26-03d55a815cae"},"vehicle_type_id":"4","last_reported":1748538564,"current_range_meters":14800,"station_id":"ce4bhgh2rcd13ifvqfa0","pricing_plan_id":"cebpf4jnsgd1na2vs0mg"},{"bike_id":"9e8157dd-aac7-47fa-99c6-b2fa7e77054e","system_id":"levelo_inurba_marseille","lat":43.27996,"lon":5.41662,"is_reserved":false,"is_disabled":false,"rental_uris":{"android":"levelo://app?vid=9e8157dd-aac7-47fa-99c6-b2fa7e77054e","ios":"levelo://app?vid=9e8157dd-aac7-47fa-99c6-b2fa7e77054e"},"vehicle_type_id":"4","last_reported":1748538564,"current_range_meters":14800,"station_id":"ce4bho12rcd13ifvqh1g","pricing_plan_id":"cebpf4jnsgd1na2vs0mg"},{"bike_id":"c3a73ff4-cb2c-4608-80e4-ac58e1652d70","system_id":"levelo_inurba_marseille","lat":43.30458,"lon":5.37906,"is_reserved":false,"is_disabled":false,"rental_uris":{"android":"levelo://app?vid=c3a73ff4-cb2c-4608-80e4-ac58e1652d70","ios":"levelo://app?vid=c3a73ff4-cb2c-4608-80e4-ac58e1652d70"},"vehicle_type_id":"4","last_reported":1748538564,"current_range_meters":15200,"station_id":"ce4bgup2rcd13ifvqcn0","pricing_plan_id":"cebpf4jnsgd1na2vs0mg"},{"bike_id":"4c124391-4bce-40d2-a5a5-bbd35165add0","system_id":"levelo_inurba_marseille","lat":43.28351,"lon":5.38103,"is_reserved":false,"is_disabled":false,"rental_uris":{"android":"levelo://app?vid=4c124391-4bce-40d2-a5a5-bbd35165add0","ios":"levelo://app?vid=4c124391-4bce-40d2-a5a5-bbd35165add0"},"vehicle_type_id":"4","last_reported":1748538564,"current_range_meters":15200,"station_id":"ce4bh412rcd13ifvqdr0","pricing_plan_id":"cebpf4jnsgd1na2vs0mg"},{"bike_id":"bbfef5cb-adc9-4831-8930-c36a3a71640b","system_id":"levelo_inurba_marseille","lat":43.29094,"lon":5.3812,"is_reserved":false,"is_disabled":false,"rental_uris":{"android":"levelo://app?vid=bbfef5cb-adc9-4831-8930-c36a3a71640b","ios":"levelo://app?vid=bbfef5cb-adc9-4831-8930-c36a3a71640b"},"vehicle_type_id":"4","last_reported":1748538564,"current_range_meters":15200,"station_id":"ce4bh512rcd13ifvqe2g","pricing_plan_id":"cebpf4jnsgd1na2vs0mg"},{"bike_id":"5ff8ccbe-fe04-4645-9e8a-dc7563943083","system_id":"levelo_inurba_marseille","lat":43.28284,"lon":5.35067,"is_reserved":false,"is_disabled":false,"rental_uris":{"android":"levelo://app?vid=5ff8ccbe-fe04-4645-9e8a-dc7563943083","ios":"levelo://app?vid=5ff8ccbe-fe04-4645-9e8a-dc7563943083"},"vehicle_type_id":"4","last_reported":1748538564,"current_range_meters":15200,"station_id":"ce4bhbp2rcd13ifvqerg","pricing_plan_id":"cebpf4jnsgd1na2vs0mg"},{"bike_id":"8dbc9ebe-5649-416d-980f-20e7d1a64ee0","system_id":"levelo_inurba_marseille","lat":43.26194,"lon":5.3745,"is_reserved":false,"is_disabled":false,"rental_uris":{"android":"levelo://app?vid=8dbc9ebe-5649-416d-980f-20e7d1a64ee0","ios":"levelo://app?vid=8dbc9ebe-5649-416d-980f-20e7d1a64ee0"},"vehicle_type_id":"4","last_reported":1748538564,"current_range_meters":15200,"station_id":"ce4bhgp2rcd13ifvqfc0","pricing_plan_id":"cebpf4jnsgd1na2vs0mg"},{"bike_id":"69acdaa4-c512-4b45-9ee5-6feafa1b5792","system_id":"levelo_inurba_marseille","lat":43.26496,"lon":5.39534,"is_reserved":false,"is_disabled":false,"rental_uris":{"android":"levelo://app?vid=69acdaa4-c512-4b45-9ee5-6feafa1b5792","ios":"levelo://app?vid=69acdaa4-c512-4b45-9ee5-6feafa1b5792"},"vehicle_type_id":"4","last_reported":1748538564,"current_range_meters":15200,"station_id":"ce4bhi12rcd13ifvqfq0","pricing_plan_id":"cebpf4jnsgd1na2vs0mg"},{"bike_id":"43587390-0436-473c-ab4f-3ae5eadc1e2a","system_id":"levelo_inurba_marseille","lat":43.270743,"lon":5.422817,"is_reserved":false,"is_disabled":false,"rental_uris":{"android":"levelo://app?vid=43587390-0436-473c-ab4f-3ae5eadc1e2a","ios":"levelo://app?vid=43587390-0436-473c-ab4f-3ae5eadc1e2a"},"vehicle_type_id":"4","last_reported":1748538564,"current_range_meters":15200,"station_id":"ce4bhk92rcd13ifvqgb0","pricing_plan_id":"cebpf4jnsgd1na2vs0mg"},{"bike_id":"9a86381f-51bc-4d54-858d-d27c0e51d901","system_id":"levelo_inurba_marseille","lat":43.30727,"lon":5.42444,"is_reserved":false,"is_disabled":false,"rental_uris":{"android":"levelo://app?vid=9a86381f-51bc-4d54-858d-d27c0e51d901","ios":"levelo://app?vid=9a86381f-51bc-4d54-858d-d27c0e51d901"},"vehicle_type_id":"4","last_reported":1748538564,"current_range_meters":15200,"station_id":"st_cvj6ca6bvosntc0bfgr0","pricing_plan_id":"cebpf4jnsgd1na2vs0mg"},{"bike_id":"b5f1c253-d26f-43f1-a42e-dd5366d19c2b","system_id":"levelo_inurba_marseille","lat":43.21739,"lon":5.34609,"is_reserved":false,"is_disabled":false,"rental_uris":{"android":"levelo://app?vid=b5f1c253-d26f-43f1-a42e-dd5366d19c2b","ios":"levelo://app?vid=b5f1c253-d26f-43f1-a42e-dd5366d19c2b"},"vehicle_type_id":"4","last_reported":1748538564,"current_range_meters":15200,"station_id":"st_cvj6r9ubvosntc0bgbag","pricing_plan_id":"cebpf4jnsgd1na2vs0mg"},{"bike_id":"e044c9db-ce02-4ecf-bf86-8eaa46f9c414","system_id":"levelo_inurba_marseille","lat":43.258116,"lon":5.394365,"is_reserved":false,"is_disabled":false,"rental_uris":{"android":"levelo://app?vid=e044c9db-ce02-4ecf-bf86-8eaa46f9c414","ios":"levelo://app?vid=e044c9db-ce02-4ecf-bf86-8eaa46f9c414"},"vehicle_type_id":"4","last_reported":1748538564,"current_range_meters":16000,"station_id":"ce4bhip2rcd13ifvqft0","pricing_plan_id":"cebpf4jnsgd1na2vs0mg"},{"bike_id":"7243d7c8-02f5-4392-89cf-8c360e846d55","system_id":"levelo_inurba_marseille","lat":43.252776,"lon":5.378265,"is_reserved":false,"is_disabled":false,"rental_uris":{"android":"levelo://app?vid=7243d7c8-02f5-4392-89cf-8c360e846d55","ios":"levelo://app?vid=7243d7c8-02f5-4392-89cf-8c360e846d55"},"vehicle_type_id":"4","last_reported":1748538564,"current_range_meters":16400,"station_id":"","pricing_plan_id":"cebpf4jnsgd1na2vs0mg"},{"bike_id":"3849f794-2ee3-41bd-bdaa-f432c8ae5858","system_id":"levelo_inurba_marseille","lat":43.30131,"lon":5.3986,"is_reserved":false,"is_disabled":false,"rental_uris":{"android":"levelo://app?vid=3849f794-2ee3-41bd-bdaa-f432c8ae5858","ios":"levelo://app?vid=3849f794-2ee3-41bd-bdaa-f432c8ae5858"},"vehicle_type_id":"4","last_reported":1748538564,"current_range_meters":16400,"station_id":"ce4bh0h2rcd13ifvqd40","pricing_plan_id":"cebpf4jnsgd1na2vs0mg"},{"bike_id":"0ddc71b0-8ff0-40c0-818d-d2a73e00d097","system_id":"levelo_inurba_marseille","lat":43.291909,"lon":5.3581,"is_reserved":false,"is_disabled":false,"rental_uris":{"android":"levelo://app?vid=0ddc71b0-8ff0-40c0-818d-d2a73e00d097","ios":"levelo://app?vid=0ddc71b0-8ff0-40c0-818d-d2a73e00d097"},"vehicle_type_id":"4","last_reported":1748538564,"current_range_meters":16400,"station_id":"ce4bhb12rcd13ifvqel0","pricing_plan_id":"cebpf4jnsgd1na2vs0mg"},{"bike_id":"47a78c80-c781-4287-9e08-b74206bf7ff6","system_id":"levelo_inurba_marseille","lat":43.24638,"lon":5.38901,"is_reserved":false,"is_disabled":false,"rental_uris":{"android":"levelo://app?vid=47a78c80-c781-4287-9e08-b74206bf7ff6","ios":"levelo://app?vid=47a78c80-c781-4287-9e08-b74206bf7ff6"},"vehicle_type_id":"4","last_reported":1748538564,"current_range_meters":16400,"station_id":"ce4bhg12rcd13ifvqf60","pricing_plan_id":"cebpf4jnsgd1na2vs0mg"},{"bike_id":"77d0fff2-4075-4f41-aadd-6f202546402d","system_id":"levelo_inurba_marseille","lat":43.27309,"lon":5.39085,"is_reserved":false,"is_disabled":false,"rental_uris":{"android":"levelo://app?vid=77d0fff2-4075-4f41-aadd-6f202546402d","ios":"levelo://app?vid=77d0fff2-4075-4f41-aadd-6f202546402d"},"vehicle_type_id":"4","last_reported":1748538564,"current_range_meters":16400,"station_id":"ce4bhgp2rcd13ifvqfe0","pricing_plan_id":"cebpf4jnsgd1na2vs0mg"},{"bike_id":"9e077e27-33c0-4331-96cc-ce43f93f1c2b","system_id":"levelo_inurba_marseille","lat":43.26732,"lon":5.37198,"is_reserved":false,"is_disabled":false,"rental_uris":{"android":"levelo://app?vid=9e077e27-33c0-4331-96cc-ce43f93f1c2b","ios":"levelo://app?vid=9e077e27-33c0-4331-96cc-ce43f93f1c2b"},"vehicle_type_id":"4","last_reported":1748538564,"current_range_meters":16800,"station_id":"","pricing_plan_id":"cebpf4jnsgd1na2vs0mg"},{"bike_id":"706fe74a-5901-4574-b625-f5e3642f9077","system_id":"levelo_inurba_marseille","lat":43.30143,"lon":5.3984,"is_reserved":false,"is_disabled":false,"rental_uris":{"android":"levelo://app?vid=706fe74a-5901-4574-b625-f5e3642f9077","ios":"levelo://app?vid=706fe74a-5901-4574-b625-f5e3642f9077"},"vehicle_type_id":"4","last_reported":1748538564,"current_range_meters":16800,"station_id":"ce4bh0h2rcd13ifvqd40","pricing_plan_id":"cebpf4jnsgd1na2vs0mg"},{"bike_id":"076c051d-749a-414d-9e44-f58b512856cd","system_id":"levelo_inurba_marseille","lat":43.28427,"lon":5.35008,"is_reserved":false,"is_disabled":false,"rental_uris":{"android":"levelo://app?vid=076c051d-749a-414d-9e44-f58b512856cd","ios":"levelo://app?vid=076c051d-749a-414d-9e44-f58b512856cd"},"vehicle_type_id":"4","last_reported":1748538564,"current_range_meters":16800,"station_id":"ce4bhbh2rcd13ifvqepg","pricing_plan_id":"cebpf4jnsgd1na2vs0mg"},{"bike_id":"ebb5fbab-df6d-4919-9edf-ea0e7908881b","system_id":"levelo_inurba_marseille","lat":43.27206,"lon":5.39188,"is_reserved":false,"is_disabled":false,"rental_uris":{"android":"levelo://app?vid=ebb5fbab-df6d-4919-9edf-ea0e7908881b","ios":"levelo://app?vid=ebb5fbab-df6d-4919-9edf-ea0e7908881b"},"vehicle_type_id":"4","last_reported":1748538564,"current_range_meters":16800,"station_id":"ce4bhhp2rcd13ifvqfm0","pricing_plan_id":"cebpf4jnsgd1na2vs0mg"},{"bike_id":"f376d412-3c92-49aa-9f73-832ae5ce399e","system_id":"levelo_inurba_marseille","lat":43.27071,"lon":5.42283,"is_reserved":false,"is_disabled":false,"rental_uris":{"android":"levelo://app?vid=f376d412-3c92-49aa-9f73-832ae5ce399e","ios":"levelo://app?vid=f376d412-3c92-49aa-9f73-832ae5ce399e"},"vehicle_type_id":"4","last_reported":1748538564,"current_range_meters":16800,"station_id":"ce4bhk92rcd13ifvqgb0","pricing_plan_id":"cebpf4jnsgd1na2vs0mg"},{"bike_id":"062ff17d-183d-42c7-851f-6f5c81dc90fc","system_id":"levelo_inurba_marseille","lat":43.21214,"lon":5.35061,"is_reserved":false,"is_disabled":false,"rental_uris":{"android":"levelo://app?vid=062ff17d-183d-42c7-851f-6f5c81dc90fc","ios":"levelo://app?vid=062ff17d-183d-42c7-851f-6f5c81dc90fc"},"vehicle_type_id":"4","last_reported":1748538564,"current_range_meters":16800,"station_id":"st_cvj6sg6p6f1abm77japg","pricing_plan_id":"cebpf4jnsgd1na2vs0mg"},{"bike_id":"bf4a0959-f180-4d54-9913-5e4a1fd78137","system_id":"levelo_inurba_marseille","lat":43.21187,"lon":5.35071,"is_reserved":false,"is_disabled":false,"rental_uris":{"android":"levelo://app?vid=bf4a0959-f180-4d54-9913-5e4a1fd78137","ios":"levelo://app?vid=bf4a0959-f180-4d54-9913-5e4a1fd78137"},"vehicle_type_id":"4","last_reported":1748538564,"current_range_meters":16800,"station_id":"st_cvj6sg6p6f1abm77japg","pricing_plan_id":"cebpf4jnsgd1na2vs0mg"},{"bike_id":"9fe1e697-36ec-421f-b0be-031c2f5ed7f3","system_id":"levelo_inurba_marseille","lat":43.337516,"lon":5.374354,"is_reserved":false,"is_disabled":false,"rental_uris":{"android":"levelo://app?vid=9fe1e697-36ec-421f-b0be-031c2f5ed7f3","ios":"levelo://app?vid=9fe1e697-36ec-421f-b0be-031c2f5ed7f3"},"vehicle_type_id":"4","last_reported":1748538564,"current_range_meters":17200,"station_id":"","pricing_plan_id":"cebpf4jnsgd1na2vs0mg"},{"bike_id":"05efe5ae-4077-4f62-8af3-09e12615e64e","system_id":"levelo_inurba_marseille","lat":43.28702,"lon":5.37919,"is_reserved":false,"is_disabled":false,"rental_uris":{"android":"levelo://app?vid=05efe5ae-4077-4f62-8af3-09e12615e64e","ios":"levelo://app?vid=05efe5ae-4077-4f62-8af3-09e12615e64e"},"vehicle_type_id":"4","last_reported":1748538564,"current_range_meters":17200,"station_id":"ce4bh9p2rcd13ifvqec0","pricing_plan_id":"cebpf4jnsgd1na2vs0mg"},{"bike_id":"8039389f-dedd-43ae-b19b-0bd695a54a26","system_id":"levelo_inurba_marseille","lat":43.29033,"lon":5.35918,"is_reserved":false,"is_disabled":false,"rental_uris":{"android":"levelo://app?vid=8039389f-dedd-43ae-b19b-0bd695a54a26","ios":"levelo://app?vid=8039389f-dedd-43ae-b19b-0bd695a54a26"},"vehicle_type_id":"4","last_reported":1748538564,"current_range_meters":17200,"station_id":"ce4bha92rcd13ifvqeg0","pricing_plan_id":"cebpf4jnsgd1na2vs0mg"},{"bike_id":"c7b93978-a078-4e21-b827-6cb18fcdb3a4","system_id":"levelo_inurba_marseille","lat":43.28408,"lon":5.35,"is_reserved":false,"is_disabled":false,"rental_uris":{"android":"levelo://app?vid=c7b93978-a078-4e21-b827-6cb18fcdb3a4","ios":"levelo://app?vid=c7b93978-a078-4e21-b827-6cb18fcdb3a4"},"vehicle_type_id":"4","last_reported":1748538564,"current_range_meters":17200,"station_id":"ce4bhbh2rcd13ifvqepg","pricing_plan_id":"cebpf4jnsgd1na2vs0mg"},{"bike_id":"a77606c8-fe7f-4c1a-afb5-0c460a54a312","system_id":"levelo_inurba_marseille","lat":43.26204,"lon":5.37423,"is_reserved":false,"is_disabled":false,"rental_uris":{"android":"levelo://app?vid=a77606c8-fe7f-4c1a-afb5-0c460a54a312","ios":"levelo://app?vid=a77606c8-fe7f-4c1a-afb5-0c460a54a312"},"vehicle_type_id":"4","last_reported":1748538564,"current_range_meters":17200,"station_id":"ce4bhgp2rcd13ifvqfc0","pricing_plan_id":"cebpf4jnsgd1na2vs0mg"},{"bike_id":"141bd8ef-87bf-4844-9292-378bb6260c29","system_id":"levelo_inurba_marseille","lat":43.280633,"lon":5.393581,"is_reserved":false,"is_disabled":false,"rental_uris":{"android":"levelo://app?vid=141bd8ef-87bf-4844-9292-378bb6260c29","ios":"levelo://app?vid=141bd8ef-87bf-4844-9292-378bb6260c29"},"vehicle_type_id":"4","last_reported":1748538564,"current_range_meters":17200,"station_id":"ce4bhoh2rcd13ifvqh5g","pricing_plan_id":"cebpf4jnsgd1na2vs0mg"},{"bike_id":"cc09afa2-a4a5-4b3b-bee8-137fc8b6e944","system_id":"levelo_inurba_marseille","lat":43.225154,"lon":5.347902,"is_reserved":false,"is_disabled":false,"rental_uris":{"android":"levelo://app?vid=cc09afa2-a4a5-4b3b-bee8-137fc8b6e944","ios":"levelo://app?vid=cc09afa2-a4a5-4b3b-bee8-137fc8b6e944"},"vehicle_type_id":"4","last_reported":1748538564,"current_range_meters":17200,"station_id":"st_cvj5dfep6f1abm77gieg","pricing_plan_id":"cebpf4jnsgd1na2vs0mg"},{"bike_id":"f613c00d-a69d-42cd-8c3f-fbd915f4e753","system_id":"levelo_inurba_marseille","lat":43.211944,"lon":5.350745,"is_reserved":false,"is_disabled":false,"rental_uris":{"android":"levelo://app?vid=f613c00d-a69d-42cd-8c3f-fbd915f4e753","ios":"levelo://app?vid=f613c00d-a69d-42cd-8c3f-fbd915f4e753"},"vehicle_type_id":"4","last_reported":1748538564,"current_range_meters":17200,"station_id":"st_cvj6sg6p6f1abm77japg","pricing_plan_id":"cebpf4jnsgd1na2vs0mg"},{"bike_id":"3bf61b85-2aba-461e-a48a-f0f900863789","system_id":"levelo_inurba_marseille","lat":43.21187,"lon":5.35075,"is_reserved":false,"is_disabled":false,"rental_uris":{"android":"levelo://app?vid=3bf61b85-2aba-461e-a48a-f0f900863789","ios":"levelo://app?vid=3bf61b85-2aba-461e-a48a-f0f900863789"},"vehicle_type_id":"4","last_reported":1748538564,"current_range_meters":17200,"station_id":"st_cvj6sg6p6f1abm77japg","pricing_plan_id":"cebpf4jnsgd1na2vs0mg"},{"bike_id":"5136fe86-b4e4-4ca4-8fbe-d5b7d8a48e43","system_id":"levelo_inurba_marseille","lat":43.269955,"lon":5.40302,"is_reserved":false,"is_disabled":false,"rental_uris":{"android":"levelo://app?vid=5136fe86-b4e4-4ca4-8fbe-d5b7d8a48e43","ios":"levelo://app?vid=5136fe86-b4e4-4ca4-8fbe-d5b7d8a48e43"},"vehicle_type_id":"4","last_reported":1748538564,"current_range_meters":17600,"station_id":"","pricing_plan_id":"cebpf4jnsgd1na2vs0mg"},{"bike_id":"502b1051-0bae-4a23-bcbf-a876bfe3288a","system_id":"levelo_inurba_marseille","lat":43.31253,"lon":5.38222,"is_reserved":false,"is_disabled":false,"rental_uris":{"android":"levelo://app?vid=502b1051-0bae-4a23-bcbf-a876bfe3288a","ios":"levelo://app?vid=502b1051-0bae-4a23-bcbf-a876bfe3288a"},"vehicle_type_id":"4","last_reported":1748538564,"current_range_meters":17600,"station_id":"","pricing_plan_id":"cebpf4jnsgd1na2vs0mg"},{"bike_id":"474515a5-1077-475f-b14d-19f8292d368d","system_id":"levelo_inurba_marseille","lat":43.28415,"lon":5.34992,"is_reserved":false,"is_disabled":false,"rental_uris":{"android":"levelo://app?vid=474515a5-1077-475f-b14d-19f8292d368d","ios":"levelo://app?vid=474515a5-1077-475f-b14d-19f8292d368d"},"vehicle_type_id":"4","last_reported":1748538564,"current_range_meters":17600,"station_id":"ce4bhbh2rcd13ifvqepg","pricing_plan_id":"cebpf4jnsgd1na2vs0mg"},{"bike_id":"781b5835-3f7a-4f3a-9d52-1e44ff13850c","system_id":"levelo_inurba_marseille","lat":43.26213,"lon":5.37439,"is_reserved":false,"is_disabled":false,"rental_uris":{"android":"levelo://app?vid=781b5835-3f7a-4f3a-9d52-1e44ff13850c","ios":"levelo://app?vid=781b5835-3f7a-4f3a-9d52-1e44ff13850c"},"vehicle_type_id":"4","last_reported":1748538564,"current_range_meters":17600,"station_id":"ce4bhgp2rcd13ifvqfc0","pricing_plan_id":"cebpf4jnsgd1na2vs0mg"},{"bike_id":"cf253c0f-4ffc-4e74-afd7-3f5b764d05c3","system_id":"levelo_inurba_marseille","lat":43.2582,"lon":5.39432,"is_reserved":false,"is_disabled":false,"rental_uris":{"android":"levelo://app?vid=cf253c0f-4ffc-4e74-afd7-3f5b764d05c3","ios":"levelo://app?vid=cf253c0f-4ffc-4e74-afd7-3f5b764d05c3"},"vehicle_type_id":"4","last_reported":1748538564,"current_range_meters":17600,"station_id":"ce4bhip2rcd13ifvqft0","pricing_plan_id":"cebpf4jnsgd1na2vs0mg"},{"bike_id":"134f8af8-cf82-4b5f-a82e-dd58c5dc2662","system_id":"levelo_inurba_marseille","lat":43.307336,"lon":5.424341,"is_reserved":false,"is_disabled":false,"rental_uris":{"android":"levelo://app?vid=134f8af8-cf82-4b5f-a82e-dd58c5dc2662","ios":"levelo://app?vid=134f8af8-cf82-4b5f-a82e-dd58c5dc2662"},"vehicle_type_id":"4","last_reported":1748538564,"current_range_meters":17600,"station_id":"st_cvj6ca6bvosntc0bfgr0","pricing_plan_id":"cebpf4jnsgd1na2vs0mg"},{"bike_id":"582b36ef-5b37-47f2-8e52-d31144606e8b","system_id":"levelo_inurba_marseille","lat":43.29359,"lon":5.37833,"is_reserved":false,"is_disabled":false,"rental_uris":{"android":"levelo://app?vid=582b36ef-5b37-47f2-8e52-d31144606e8b","ios":"levelo://app?vid=582b36ef-5b37-47f2-8e52-d31144606e8b"},