{"last_updated":1749550280,"ttl":60,"version":"2.2","data":{"bikes":[{"bike_id":"f5ab3f7f-0da3-4437-82b7-69f98e6b7f4c","system_id":"levelo_inurba_marseille","lat":43.304223,"lon":5.412762,"is_reserved":false,"is_disabled":false,"rental_uris":{"android":"levelo://app?vid=f5ab3f7f-0da3-4437-82b7-69f98e6b7f4c","ios":"levelo://app?vid=f5ab3f7f-0da3-4437-82b7-69f98e6b7f4c"},"vehicle_type_id":"4","last_reported":1749550280,"current_range_meters":2800,"station_id":"ce4bhop2rcd13ifvqh8g","pricing_plan_id":"cebpf4jnsgd1na2vs0mg"},{"bike_id":"8c03ec80-dc19-4c9d-b151-e0210828c13a","system_id":"levelo_inurba_marseille","lat":43.29666,"lon":5.394,"is_reserved":false,"is_disabled":false,"rental_uris":{"android":"levelo://app?vid=8c03ec80-dc19-4c9d-b151-e0210828c13a","ios":"levelo://app?vid=8c03ec80-dc19-4c9d-b151-e0210828c13a"},"vehicle_type_id":"4","last_reported":1749550280,"current_range_meters":2800,"station_id":"","pricing_plan_id":"cebpf4jnsgd1na2vs0mg"},{"bike_id":"1a0aedb3-115e-4582-bfb2-1755631076b1","system_id":"levelo_inurba_marseille","lat":43.337178,"lon":5.391866,"is_reserved":false,"is_disabled":false,"rental_uris":{"android":"levelo://app?vid=1a0aedb3-115e-4582-bfb2-1755631076b1","ios":"levelo://app?vid=1a0aedb3-115e-4582-bfb2-1755631076b1"},"vehicle_type_id":"4","last_reported":1749550280,"current_range_meters":3200,"station_id":"","pricing_plan_id":"cebpf4jnsgd1na2vs0mg"},{"bike_id":"5911434e-d506-44ca-9337-dcf69c77b39e","system_id":"levelo_inurba_marseille","lat":43.30951,"lon":5.39024,"is_reserved":false,"is_disabled":false,"rental_uris":{"android":"levelo://app?vid=5911434e-d506-44ca-9337-dcf69c77b39e","ios":"levelo://app?vid=5911434e-d506-44ca-9337-dcf69c77b39e"},"vehicle_type_id":"4","last_reported":1749550280,"current_range_meters":3200,"station_id":"ce4bgup2rcd13ifvqco0","pricing_plan_id":"cebpf4jnsgd1na2vs0mg"},{"bike_id":"800af543-fa9e-4228-b001-44078b96235b","system_id":"levelo_inurba_marseille","lat":43.27174,"lon":5.40991,"is_reserved":false,"is_disabled":false,"rental_uris":{"android":"levelo://app?vid=800af543-fa9e-4228-b001-44078b96235b","ios":"levelo://app?vid=800af543-fa9e-4228-b001-44078b96235b"},"vehicle_type_id":"4","last_reported":1749550280,"current_range_meters":3200,"station_id":"ce4bhl12rcd13ifvqgf0","pricing_plan_id":"cebpf4jnsgd1na2vs0mg"},{"bike_id":"0e66646a-b4b3-4d2c-9f57-afdc64769cd8","system_id":"levelo_inurba_marseille","lat":43.2621,"lon":5.37433,"is_reserved":false,"is_disabled":false,"rental_uris":{"android":"levelo://app?vid=0e66646a-b4b3-4d2c-9f57-afdc64769cd8","ios":"levelo://app?vid=0e66646a-b4b3-4d2c-9f57-afdc64769cd8"},"vehicle_type_id":"4","last_reported":1749550280,"current_range_meters":3600,"station_id":"ce4bhgp2rcd13ifvqfc0","pricing_plan_id":"cebpf4jnsgd1na2vs0mg"},{"bike_id":"e580b2c9-021d-469d-9e14-54f3c9646a24","system_id":"levelo_inurba_marseille","lat":43.24651,"lon":5.38885,"is_reserved":false,"is_disabled":false,"rental_uris":{"android":"levelo://app?vid=e580b2c9-021d-469d-9e14-54f3c9646a24","ios":"levelo://app?vid=e580b2c9-021d-469d-9e14-54f3c9646a24"},"vehicle_type_id":"4","last_reported":1749550280,"current_range_meters":3600,"station_id":"ce4bhg12rcd13ifvqf60","pricing_plan_id":"cebpf4jnsgd1na2vs0mg"},{"bike_id":"9b71bb59-bd4d-444b-a6bd-6d848a1f45f8","system_id":"levelo_inurba_marseille","lat":43.299067,"lon":5.437324,"is_reserved":false,"is_disabled":false,"rental_uris":{"android":"levelo://app?vid=9b71bb59-bd4d-444b-a6bd-6d848a1f45f8","ios":"levelo://app?vid=9b71bb59-bd4d-444b-a6bd-6d848a1f45f8"},"vehicle_type_id":"4","last_reported":1749550280,"current_range_meters":3600,"station_id":"ce4bhpp2rcd13ifvqhfg","pricing_plan_id":"cebpf4jnsgd1na2vs0mg"},{"bike_id":"3f03a988-07e5-4ebb-ab99-e3f8df930ed7","system_id":"levelo_inurba_marseille","lat":43.27945,"lon":5.41053,"is_reserved":false,"is_disabled":false,"rental_uris":{"android":"levelo://app?vid=3f03a988-07e5-4ebb-ab99-e3f8df930ed7","ios":"levelo://app?vid=3f03a988-07e5-4ebb-ab99-e3f8df930ed7"},"vehicle_type_id":"4","last_reported":1749550280,"current_range_meters":4000,"station_id":"ce4bhnp2rcd13ifvqh0g","pricing_plan_id":"cebpf4jnsgd1na2vs0mg"},{"bike_id":"267d3676-ea24-44ad-88aa-a319a5f60db8","system_id":"levelo_inurba_marseille","lat":43.29068,"lon":5.37144,"is_reserved":false,"is_disabled":false,"rental_uris":{"android":"levelo://app?vid=267d3676-ea24-44ad-88aa-a319a5f60db8","ios":"levelo://app?vid=267d3676-ea24-44ad-88aa-a319a5f60db8"},"vehicle_type_id":"4","last_reported":1749550280,"current_range_meters":4000,"station_id":"ce4bh5p2rcd13ifvqe4g","pricing_plan_id":"cebpf4jnsgd1na2vs0mg"},{"bike_id":"0ce71ab2-35c3-4db6-a1b7-602f336755e3","system_id":"levelo_inurba_marseille","lat":43.28041,"lon":5.36944,"is_reserved":false,"is_disabled":false,"rental_uris":{"android":"levelo://app?vid=0ce71ab2-35c3-4db6-a1b7-602f336755e3","ios":"levelo://app?vid=0ce71ab2-35c3-4db6-a1b7-602f336755e3"},"vehicle_type_id":"4","last_reported":1749550280,"current_range_meters":4000,"station_id":"ce4bha12rcd13ifvqef0","pricing_plan_id":"cebpf4jnsgd1na2vs0mg"},{"bike_id":"112ef101-c5ad-439b-90ab-994bec43d692","system_id":"levelo_inurba_marseille","lat":43.28415,"lon":5.34965,"is_reserved":false,"is_disabled":false,"rental_uris":{"android":"levelo://app?vid=112ef101-c5ad-439b-90ab-994bec43d692","ios":"levelo://app?vid=112ef101-c5ad-439b-90ab-994bec43d692"},"vehicle_type_id":"4","last_reported":1749550280,"current_range_meters":4400,"station_id":"ce4bhbh2rcd13ifvqepg","pricing_plan_id":"cebpf4jnsgd1na2vs0mg"},{"bike_id":"fc444a8f-c515-4e7d-a6f8-aec06631abbe","system_id":"levelo_inurba_marseille","lat":43.23965,"lon":5.36628,"is_reserved":false,"is_disabled":false,"rental_uris":{"android":"levelo://app?vid=fc444a8f-c515-4e7d-a6f8-aec06631abbe","ios":"levelo://app?vid=fc444a8f-c515-4e7d-a6f8-aec06631abbe"},"vehicle_type_id":"4","last_reported":1749550280,"current_range_meters":4800,"station_id":"ce4bhi12rcd13ifvqfp0","pricing_plan_id":"cebpf4jnsgd1na2vs0mg"},{"bike_id":"11d99533-1239-4522-b0b5-f8a3bff696e7","system_id":"levelo_inurba_marseille","lat":43.30135,"lon":5.42442,"is_reserved":false,"is_disabled":false,"rental_uris":{"android":"levelo://app?vid=11d99533-1239-4522-b0b5-f8a3bff696e7","ios":"levelo://app?vid=11d99533-1239-4522-b0b5-f8a3bff696e7"},"vehicle_type_id":"4","last_reported":1749550280,"current_range_meters":5600,"station_id":"","pricing_plan_id":"cebpf4jnsgd1na2vs0mg"},{"bike_id":"9ab5dcb2-22af-49e2-b2c1-32117ad578dc","system_id":"levelo_inurba_marseille","lat":43.2952,"lon":5.42562,"is_reserved":false,"is_disabled":false,"rental_uris":{"android":"levelo://app?vid=9ab5dcb2-22af-49e2-b2c1-32117ad578dc","ios":"levelo://app?vid=9ab5dcb2-22af-49e2-b2c1-32117ad578dc"},"vehicle_type_id":"4","last_reported":1749550280,"current_range_meters":5600,"station_id":"","pricing_plan_id":"cebpf4jnsgd1na2vs0mg"},{"bike_id":"8b4caff4-6ee7-47a5-a64f-5ccaa83c132f","system_id":"levelo_inurba_marseille","lat":43.29515,"lon":5.42513,"is_reserved":false,"is_disabled":false,"rental_uris":{"android":"levelo://app?vid=8b4caff4-6ee7-47a5-a64f-5ccaa83c132f","ios":"levelo://app?vid=8b4caff4-6ee7-47a5-a64f-5ccaa83c132f"},"vehicle_type_id":"4","last_reported":1749550280,"current_range_meters":5600,"station_id":"","pricing_plan_id":"cebpf4jnsgd1na2vs0mg"},{"bike_id":"34eb7cac-12be-42dd-ac2e-b7b72e6ae50a","system_id":"levelo_inurba_marseille","lat":43.29154,"lon":5.35802,"is_reserved":false,"is_disabled":false,"rental_uris":{"android":"levelo://app?vid=34eb7cac-12be-42dd-ac2e-b7b72e6ae50a","ios":"levelo://app?vid=34eb7cac-12be-42dd-ac2e-b7b72e6ae50a"},"vehicle_type_id":"4","last_reported":1749550280,"current_range_meters":5600,"station_id":"","pricing_plan_id":"cebpf4jnsgd1na2vs0mg"},{"bike_id":"d05c55d3-5bcd-4ec9-b4dd-5e199f1ff537","system_id":"levelo_inurba_marseille","lat":43.29037,"lon":5.39972,"is_reserved":false,"is_disabled":false,"rental_uris":{"android":"levelo://app?vid=d05c55d3-5bcd-4ec9-b4dd-5e199f1ff537","ios":"levelo://app?vid=d05c55d3-5bcd-4ec9-b4dd-5e199f1ff537"},"vehicle_type_id":"4","last_reported":1749550280,"current_range_meters":6000,"station_id":"ce4bh392rcd13ifvqdm0","pricing_plan_id":"cebpf4jnsgd1na2vs0mg"},{"bike_id":"d055766b-99bf-4caa-a479-3bb81bdfdedb","system_id":"levelo_inurba_marseille","lat":43.29315,"lon":5.3746,"is_reserved":false,"is_disabled":false,"rental_uris":{"android":"levelo://app?vid=d055766b-99bf-4caa-a479-3bb81bdfdedb","ios":"levelo://app?vid=d055766b-99bf-4caa-a479-3bb81bdfdedb"},"vehicle_type_id":"4","last_reported":1749550280,"current_range_meters":6000,"station_id":"ce4bgi12rcd13ifvqb70","pricing_plan_id":"cebpf4jnsgd1na2vs0mg"},{"bike_id":"43ca3058-82d8-4b35-bdcc-38649f348a95","system_id":"levelo_inurba_marseille","lat":43.30297,"lon":5.39212,"is_reserved":false,"is_disabled":false,"rental_uris":{"android":"levelo://app?vid=43ca3058-82d8-4b35-bdcc-38649f348a95","ios":"levelo://app?vid=43ca3058-82d8-4b35-bdcc-38649f348a95"},"vehicle_type_id":"4","last_reported":1749550280,"current_range_meters":6000,"station_id":"ce4bgkh2rcd13ifvqbk0","pricing_plan_id":"cebpf4jnsgd1na2vs0mg"},{"bike_id":"09706b27-996a-4ac1-bc7f-78c5abeb6b65","system_id":"levelo_inurba_marseille","lat":43.28616,"lon":5.35103,"is_reserved":false,"is_disabled":false,"rental_uris":{"android":"levelo://app?vid=09706b27-996a-4ac1-bc7f-78c5abeb6b65","ios":"levelo://app?vid=09706b27-996a-4ac1-bc7f-78c5abeb6b65"},"vehicle_type_id":"4","last_reported":1749550280,"current_range_meters":6000,"station_id":"ce4bhch2rcd13ifvqeug","pricing_plan_id":"cebpf4jnsgd1na2vs0mg"},{"bike_id":"dd67f108-95bf-4a1e-b619-4bb77e009c5b","system_id":"levelo_inurba_marseille","lat":43.29059,"lon":5.4277,"is_reserved":false,"is_disabled":false,"rental_uris":{"android":"levelo://app?vid=dd67f108-95bf-4a1e-b619-4bb77e009c5b","ios":"levelo://app?vid=dd67f108-95bf-4a1e-b619-4bb77e009c5b"},"vehicle_type_id":"4","last_reported":1749550280,"current_range_meters":6400,"station_id":"","pricing_plan_id":"cebpf4jnsgd1na2vs0mg"},{"bike_id":"7df780a9-e7dd-40f3-908d-9b17c15f773e","system_id":"levelo_inurba_marseille","lat":43.29191,"lon":5.35794,"is_reserved":false,"is_disabled":false,"rental_uris":{"android":"levelo://app?vid=7df780a9-e7dd-40f3-908d-9b17c15f773e","ios":"levelo://app?vid=7df780a9-e7dd-40f3-908d-9b17c15f773e"},"vehicle_type_id":"4","last_reported":1749550280,"current_range_meters":6400,"station_id":"ce4bhb12rcd13ifvqel0","pricing_plan_id":"cebpf4jnsgd1na2vs0mg"},{"bike_id":"1dc54f7e-7b0f-4763-b180-826756693fee","system_id":"levelo_inurba_marseille","lat":43.29857,"lon":5.36281,"is_reserved":false,"is_disabled":false,"rental_uris":{"android":"levelo://app?vid=1dc54f7e-7b0f-4763-b180-826756693fee","ios":"levelo://app?vid=1dc54f7e-7b0f-4763-b180-826756693fee"},"vehicle_type_id":"4","last_reported":1749550280,"current_range_meters":6000,"station_id":"ce4bgpp2rcd13ifvqc3g","pricing_plan_id":"cebpf4jnsgd1na2vs0mg"},{"bike_id":"45c6316d-85af-4e45-9c5e-f5d6f02e52fc","system_id":"levelo_inurba_marseille","lat":43.25495,"lon":5.37644,"is_reserved":false,"is_disabled":false,"rental_uris":{"android":"levelo://app?vid=45c6316d-85af-4e45-9c5e-f5d6f02e52fc","ios":"levelo://app?vid=45c6316d-85af-4e45-9c5e-f5d6f02e52fc"},"vehicle_type_id":"4","last_reported":1749550280,"current_range_meters":6400,"station_id":"ce4bhh12rcd13ifvqff0","pricing_plan_id":"cebpf4jnsgd1na2vs0mg"},{"bike_id":"d518f0a2-cc0c-4ab9-b076-86dfd38b0aae","system_id":"levelo_inurba_marseille","lat":43.29321,"lon":5.37178,"is_reserved":false,"is_disabled":false,"rental_uris":{"android":"levelo://app?vid=d518f0a2-cc0c-4ab9-b076-86dfd38b0aae","ios":"levelo://app?vid=d518f0a2-cc0c-4ab9-b076-86dfd38b0aae"},"vehicle_type_id":"4","last_reported":1749550280,"current_range_meters":6400,"station_id":"ce4bgh92rcd13ifvqb40","pricing_plan_id":"cebpf4jnsgd1na2vs0mg"},{"bike_id":"3d30ef86-89a9-43f8-8fe1-9ba3ea0a1581","system_id":"levelo_inurba_marseille","lat":43.28421,"lon":5.34979,"is_reserved":false,"is_disabled":false,"rental_uris":{"android":"levelo://app?vid=3d30ef86-89a9-43f8-8fe1-9ba3ea0a1581","ios":"levelo://app?vid=3d30ef86-89a9-43f8-8fe1-9ba3ea0a1581"},"vehicle_type_id":"4","last_reported":1749550280,"current_range_meters":11200,"station_id":"ce4bhbh2rcd13ifvqepg","pricing_plan_id":"cebpf4jnsgd1na2vs0mg"},{"bike_id":"2e5b7a2e-ae80-4b63-807c-0d74d0713d36","system_id":"levelo_inurba_marseille","lat":43.28422,"lon":5.34971,"is_reserved":false,"is_disabled":false,"rental_uris":{"android":"levelo://app?vid=2e5b7a2e-ae80-4b63-807c-0d74d0713d36","ios":"levelo://app?vid=2e5b7a2e-ae80-4b63-807c-0d74d0713d36"},"vehicle_type_id":"4","last_reported":1749550280,"current_range_meters":7200,"station_id":"ce4bhbh2rcd13ifvqepg","pricing_plan_id":"cebpf4jnsgd1na2vs0mg"},{"bike_id":"7a286b17-17df-491a-a381-1330c2f7a715","system_id":"levelo_inurba_marseille","lat":43.29904,"lon":5.43659,"is_reserved":false,"is_disabled":false,"rental_uris":{"android":"levelo://app?vid=7a286b17-17df-491a-a381-1330c2f7a715","ios":"levelo://app?vid=7a286b17-17df-491a-a381-1330c2f7a715"},"vehicle_type_id":"4","last_reported":1749550280,"current_range_meters":7200,"station_id":"ce4bhpp2rcd13ifvqhfg","pricing_plan_id":"cebpf4jnsgd1na2vs0mg"},{"bike_id":"ee7ca1cb-13de-4aa6-b313-88687be7b011","system_id":"levelo_inurba_marseille","lat":43.28842,"lon":5.39277,"is_reserved":false,"is_disabled":false,"rental_uris":{"android":"levelo://app?vid=ee7ca1cb-13de-4aa6-b313-88687be7b011","ios":"levelo://app?vid=ee7ca1cb-13de-4aa6-b313-88687be7b011"},"vehicle_type_id":"4","last_reported":1749550280,"current_range_meters":6800,"station_id":"ce4bh2p2rcd13ifvqdi0","pricing_plan_id":"cebpf4jnsgd1na2vs0mg"},{"bike_id":"f511734b-78f6-466c-a632-23e9869ef2bc","system_id":"levelo_inurba_marseille","lat":43.31229,"lon":5.36872,"is_reserved":false,"is_disabled":false,"rental_uris":{"android":"levelo://app?vid=f511734b-78f6-466c-a632-23e9869ef2bc","ios":"levelo://app?vid=f511734b-78f6-466c-a632-23e9869ef2bc"},"vehicle_type_id":"4","last_reported":1749550280,"current_range_meters":7200,"station_id":"ce4bgl92rcd13ifvqbq0","pricing_plan_id":"cebpf4jnsgd1na2vs0mg"},{"bike_id":"c5458cc1-095b-4f7b-a272-f0f5cbbbf481","system_id":"levelo_inurba_marseille","lat":43.28995,"lon":5.37823,"is_reserved":false,"is_disabled":false,"rental_uris":{"android":"levelo://app?vid=c5458cc1-095b-4f7b-a272-f0f5cbbbf481","ios":"levelo://app?vid=c5458cc1-095b-4f7b-a272-f0f5cbbbf481"},"vehicle_type_id":"4","last_reported":1749550280,"current_range_meters":7200,"station_id":"ce4bh9p2rcd13ifvqed0","pricing_plan_id":"cebpf4jnsgd1na2vs0mg"},{"bike_id":"d6d8f87e-6abd-4796-ada9-0d925ef2ccda","system_id":"levelo_inurba_marseille","lat":43.29248,"lon":5.37626,"is_reserved":false,"is_disabled":false,"rental_uris":{"android":"levelo://app?vid=d6d8f87e-6abd-4796-ada9-0d925ef2ccda","ios":"levelo://app?vid=d6d8f87e-6abd-4796-ada9-0d925ef2ccda"},"vehicle_type_id":"4","last_reported":1749550280,"current_range_meters":8000,"station_id":"ce4bgi12rcd13ifvqb80","pricing_plan_id":"cebpf4jnsgd1na2vs0mg"},{"bike_id":"f0782932-4f65-40fc-9cee-a635f880f137","system_id":"levelo_inurba_marseille","lat":43.32365,"lon":5.36763,"is_reserved":false,"is_disabled":false,"rental_uris":{"android":"levelo://app?vid=f0782932-4f65-40fc-9cee-a635f880f137","ios":"levelo://app?vid=f0782932-4f65-40fc-9cee-a635f880f137"},"vehicle_type_id":"4","last_reported":1749550280,"current_range_meters":8400,"station_id":"ce4bhsh2rcd13ifvqi2g","pricing_plan_id":"cebpf4jnsgd1na2vs0mg"},{"bike_id":"033207ed-7f96-4a63-b77f-af7d33d65640","system_id":"levelo_inurba_marseille","lat":43.30546,"lon":5.36504,"is_reserved":false,"is_disabled":false,"rental_uris":{"android":"levelo://app?vid=033207ed-7f96-4a63-b77f-af7d33d65640","ios":"levelo://app?vid=033207ed-7f96-4a63-b77f-af7d33d65640"},"vehicle_type_id":"4","last_reported":1749550280,"current_range_meters":8400,"station_id":"","pricing_plan_id":"cebpf4jnsgd1na2vs0mg"},{"bike_id":"da14da1f-7442-42b5-98f6-365f4fbd4c56","system_id":"levelo_inurba_marseille","lat":43.324486,"lon":5.411718,"is_reserved":false,"is_disabled":false,"rental_uris":{"android":"levelo://app?vid=da14da1f-7442-42b5-98f6-365f4fbd4c56","ios":"levelo://app?vid=da14da1f-7442-42b5-98f6-365f4fbd4c56"},"vehicle_type_id":"4","last_reported":1749550280,"current_range_meters":8400,"station_id":"","pricing_plan_id":"cebpf4jnsgd1na2vs0mg"},{"bike_id":"09817d46-8abc-4044-a28f-4b863f9fe158","system_id":"levelo_inurba_marseille","lat":43.29912,"lon":5.37474,"is_reserved":false,"is_disabled":false,"rental_uris":{"android":"levelo://app?vid=09817d46-8abc-4044-a28f-4b863f9fe158","ios":"levelo://app?vid=09817d46-8abc-4044-a28f-4b863f9fe158"},"vehicle_type_id":"4","last_reported":1749550280,"current_range_meters":8400,"station_id":"ce4bgjh2rcd13ifvqbg0","pricing_plan_id":"cebpf4jnsgd1na2vs0mg"},{"bike_id":"744fa010-b75f-4fd7-ac23-cc808ecd0bf7","system_id":"levelo_inurba_marseille","lat":43.31485,"lon":5.37299,"is_reserved":false,"is_disabled":false,"rental_uris":{"android":"levelo://app?vid=744fa010-b75f-4fd7-ac23-cc808ecd0bf7","ios":"levelo://app?vid=744fa010-b75f-4fd7-ac23-cc808ecd0bf7"},"vehicle_type_id":"4","last_reported":1749550280,"current_range_meters":8800,"station_id":"ce4bgt12rcd13ifvqcd0","pricing_plan_id":"cebpf4jnsgd1na2vs0mg"},{"bike_id":"7fa8fe03-e761-44b8-8ced-e506fdbc1a3a","system_id":"levelo_inurba_marseille","lat":43.32129,"lon":5.36757,"is_reserved":false,"is_disabled":false,"rental_uris":{"android":"levelo://app?vid=7fa8fe03-e761-44b8-8ced-e506fdbc1a3a","ios":"levelo://app?vid=7fa8fe03-e761-44b8-8ced-e506fdbc1a3a"},"vehicle_type_id":"4","last_reported":1749550280,"current_range_meters":8800,"station_id":"ce4bhrh2rcd13ifvqhug","pricing_plan_id":"cebpf4jnsgd1na2vs0mg"},{"bike_id":"a3e4080e-1739-4693-aeac-632a995c4d4c","system_id":"levelo_inurba_marseille","lat":43.27219,"lon":5.39178,"is_reserved":false,"is_disabled":false,"rental_uris":{"android":"levelo://app?vid=a3e4080e-1739-4693-aeac-632a995c4d4c","ios":"levelo://app?vid=a3e4080e-1739-4693-aeac-632a995c4d4c"},"vehicle_type_id":"4","last_reported":1749550280,"current_range_meters":8800,"station_id":"ce4bhhp2rcd13ifvqfm0","pricing_plan_id":"cebpf4jnsgd1na2vs0mg"},{"bike_id":"8530395c-6397-41c6-86a0-70e1c9a57a3e","system_id":"levelo_inurba_marseille","lat":43.31079,"lon":5.38351,"is_reserved":false,"is_disabled":false,"rental_uris":{"android":"levelo://app?vid=8530395c-6397-41c6-86a0-70e1c9a57a3e","ios":"levelo://app?vid=8530395c-6397-41c6-86a0-70e1c9a57a3e"},"vehicle_type_id":"4","last_reported":1749550280,"current_range_meters":9200,"station_id":"ce4bgv92rcd13ifvqcr0","pricing_plan_id":"cebpf4jnsgd1na2vs0mg"},{"bike_id":"8ba180c1-20a5-403d-a0d9-f1c495ed9311","system_id":"levelo_inurba_marseille","lat":43.292,"lon":5.35805,"is_reserved":false,"is_disabled":false,"rental_uris":{"android":"levelo://app?vid=8ba180c1-20a5-403d-a0d9-f1c495ed9311","ios":"levelo://app?vid=8ba180c1-20a5-403d-a0d9-f1c495ed9311"},"vehicle_type_id":"4","last_reported":1749550280,"current_range_meters":9200,"station_id":"ce4bhb12rcd13ifvqel0","pricing_plan_id":"cebpf4jnsgd1na2vs0mg"},{"bike_id":"58bfdf23-14cb-4d5b-8233-8b77b880c147","system_id":"levelo_inurba_marseille","lat":43.30934,"lon":5.4014,"is_reserved":false,"is_disabled":false,"rental_uris":{"android":"levelo://app?vid=58bfdf23-14cb-4d5b-8233-8b77b880c147","ios":"levelo://app?vid=58bfdf23-14cb-4d5b-8233-8b77b880c147"},"vehicle_type_id":"4","last_reported":1749550280,"current_range_meters":9200,"station_id":"ce4bgvp2rcd13ifvqct0","pricing_plan_id":"cebpf4jnsgd1na2vs0mg"},{"bike_id":"2f32b755-3ca4-4102-8e33-37fff5e1ff8d","system_id":"levelo_inurba_marseille","lat":43.27131,"lon":5.4014,"is_reserved":false,"is_disabled":false,"rental_uris":{"android":"levelo://app?vid=2f32b755-3ca4-4102-8e33-37fff5e1ff8d","ios":"levelo://app?vid=2f32b755-3ca4-4102-8e33-37fff5e1ff8d"},"vehicle_type_id":"4","last_reported":1749550280,"current_range_meters":9200,"station_id":"","pricing_plan_id":"cebpf4jnsgd1na2vs0mg"},{"bike_id":"05d515d4-f9a4-4d33-9344-77da9a44570b","system_id":"levelo_inurba_marseille","lat":43.27629,"lon":5.36102,"is_reserved":false,"is_disabled":false,"rental_uris":{"android":"levelo://app?vid=05d515d4-f9a4-4d33-9344-77da9a44570b","ios":"levelo://app?vid=05d515d4-f9a4-4d33-9344-77da9a44570b"},"vehicle_type_id":"4","last_reported":1749550280,"current_range_meters":9200,"station_id":"ce4bgj92rcd13ifvqbe0","pricing_plan_id":"cebpf4jnsgd1na2vs0mg"},{"bike_id":"4b9eb7f0-61d0-4628-a7e2-d737cbbeb8ac","system_id":"levelo_inurba_marseille","lat":43.25498,"lon":5.42016,"is_reserved":false,"is_disabled":false,"rental_uris":{"android":"levelo://app?vid=4b9eb7f0-61d0-4628-a7e2-d737cbbeb8ac","ios":"levelo://app?vid=4b9eb7f0-61d0-4628-a7e2-d737cbbeb8ac"},"vehicle_type_id":"4","last_reported":1749550280,"current_range_meters":9600,"station_id":"","pricing_plan_id":"cebpf4jnsgd1na2vs0mg"},{"bike_id":"2649ef45-0b6a-4349-a65a-a2f74f74f74f","system_id":"levelo_inurba_marseille","lat":43.26471,"lon":5.39246,"is_reserved":false,"is_disabled":false,"rental_uris":{"android":"levelo://app?vid=2649ef45-0b6a-4349-a65a-a2f74f74f74f","ios":"levelo://app?vid=2649ef45-0b6a-4349-a65a-a2f74f74f74f"},"vehicle_type_id":"4","last_reported":1749550280,"current_range_meters":9600,"station_id":"","pricing_plan_id":"cebpf4jnsgd1na2vs0mg"},{"bike_id":"88113087-f0bb-4133-ab2a-bbfce1f3d99a","system_id":"levelo_inurba_marseille","lat":43.31722,"lon":5.40439,"is_reserved":false,"is_disabled":true,"rental_uris":{"android":"levelo://app?vid=88113087-f0bb-4133-ab2a-bbfce1f3d99a","ios":"levelo://app?vid=88113087-f0bb-4133-ab2a-bbfce1f3d99a"},"vehicle_type_id":"4","last_reported":1749550280,"current_range_meters":9600,"station_id":"","pricing_plan_id":"cebpf4jnsgd1na2vs0mg"},{"bike_id":"f156dd16-bfc6-4d9c-8774-e71864afe86d","system_id":"levelo_inurba_marseille","lat":43.27996,"lon":5.4165,"is_reserved":false,"is_disabled":true,"rental_uris":{"android":"levelo://app?vid=f156dd16-bfc6-4d9c-8774-e71864afe86d","ios":"levelo://app?vid=f156dd16-bfc6-4d9c-8774-e71864afe86d"},"vehicle_type_id":"4","last_reported":1749550280,"current_range_meters":9600,"station_id":"ce4bho12rcd13ifvqh1g","pricing_plan_id":"cebpf4jnsgd1na2vs0mg"},{"bike_id":"82be120d-595b-4301-b926-71200afa0fe4","system_id":"levelo_inurba_marseille","lat":43.29253,"lon":5.37621,"is_reserved":false,"is_disabled":false,"rental_uris":{"android":"levelo://app?vid=82be120d-595b-4301-b926-71200afa0fe4","ios":"levelo://app?vid=82be120d-595b-4301-b926-71200afa0fe4"},"vehicle_type_id":"4","last_reported":1749550280,"current_range_meters":9600,"station_id":"ce4bgi12rcd13ifvqb80","pricing_plan_id":"cebpf4jnsgd1na2vs0mg"},{"bike_id":"885ef8b2-27ba-46cd-aaf9-e96c3192252d","system_id":"levelo_inurba_marseille","lat":43.29309,"lon":5.3743,"is_reserved":false,"is_disabled":false,"rental_uris":{"android":"levelo://app?vid=885ef8b2-27ba-46cd-aaf9-e96c3192252d","ios":"levelo://app?vid=885ef8b2-27ba-46cd-aaf9-e96c3192252d"},"vehicle_type_id":"4","last_reported":1749550280,"current_range_meters":9600,"station_id":"ce4bgi12rcd13ifvqb70","pricing_plan_id":"cebpf4jnsgd1na2vs0mg"},{"bike_id":"24e9e948-3262-4072-8dd0-7e254b70aef4","system_id":"levelo_inurba_marseille","lat":43.30961,"lon":5.3904,"is_reserved":false,"is_disabled":false,"rental_uris":{"android":"levelo://app?vid=24e9e948-3262-4072-8dd0-7e254b70aef4","ios":"levelo://app?vid=24e9e948-3262-4072-8dd0-7e254b70aef4"},"vehicle_type_id":"4","last_reported":1749550280,"current_range_meters":10000,"station_id":"ce4bgup2rcd13ifvqco0","pricing_plan_id":"cebpf4jnsgd1na2vs0mg"},{"bike_id":"0b87baf5-0191-4be3-9088-26dcf479d979","system_id":"levelo_inurba_marseille","lat":43.32479,"lon":5.36529,"is_reserved":false,"is_disabled":false,"rental_uris":{"android":"levelo://app?vid=0b87baf5-0191-4be3-9088-26dcf479d979","ios":"levelo://app?vid=0b87baf5-0191-4be3-9088-26dcf479d979"},"vehicle_type_id":"4","last_reported":1749550280,"current_range_meters":10000,"station_id":"ce4bhs12rcd13ifvqhvg","pricing_plan_id":"cebpf4jnsgd1na2vs0mg"},{"bike_id":"c07a7351-aaaf-465f-b00c-b9ca4162fcb9","system_id":"levelo_inurba_marseille","lat":43.29267,"lon":5.37613,"is_reserved":false,"is_disabled":false,"rental_uris":{"android":"levelo://app?vid=c07a7351-aaaf-465f-b00c-b9ca4162fcb9","ios":"levelo://app?vid=c07a7351-aaaf-465f-b00c-b9ca4162fcb9"},"vehicle_type_id":"4","last_reported":1749550280,"current_range_meters":10000,"station_id":"ce4bgi12rcd13ifvqb80","pricing_plan_id":"cebpf4jnsgd1na2vs0mg"},{"bike_id":"00ca30c3-b636-4824-8f37-e641de8b6bdb","system_id":"levelo_inurba_marseille","lat":43.30521,"lon":5.36687,"is_reserved":false,"is_disabled":false,"rental_uris":{"android":"levelo://app?vid=00ca30c3-b636-4824-8f37-e641de8b6bdb","ios":"levelo://app?vid=00ca30c3-b636-4824-8f37-e641de8b6bdb"},"vehicle_type_id":"4","last_reported":1749550280,"current_range_meters":10800,"station_id":"ce4bgrp2rcd13ifvqc9g","pricing_plan_id":"cebpf4jnsgd1na2vs0mg"},{"bike_id":"fb095673-d178-45fe-bd05-4220f8c344f6","system_id":"levelo_inurba_marseille","lat":43.30146,"lon":5.38071,"is_reserved":false,"is_disabled":false,"rental_uris":{"android":"levelo://app?vid=fb095673-d178-45fe-bd05-4220f8c344f6","ios":"levelo://app?vid=fb095673-d178-45fe-bd05-4220f8c344f6"},"vehicle_type_id":"4","last_reported":1749550280,"current_range_meters":10000,"station_id":"ce4bgjp2rcd13ifvqbh0","pricing_plan_id":"cebpf4jnsgd1na2vs0mg"},{"bike_id":"b6285f6b-e9e7-470d-9b6d-1afe99ab71bf","system_id":"levelo_inurba_marseille","lat":43.2619,"lon":5.42071,"is_reserved":false,"is_disabled":false,"rental_uris":{"android":"levelo://app?vid=b6285f6b-e9e7-470d-9b6d-1afe99ab71bf","ios":"levelo://app?vid=b6285f6b-e9e7-470d-9b6d-1afe99ab71bf"},"vehicle_type_id":"4","last_reported":1749550280,"current_range_meters":10800,"station_id":"","pricing_plan_id":"cebpf4jnsgd1na2vs0mg"},{"bike_id":"bb92ba5b-25cf-421d-8e4d-dbd092d0fe43","system_id":"levelo_inurba_marseille","lat":43.23966,"lon":5.36615,"is_reserved":false,"is_disabled":false,"rental_uris":{"android":"levelo://app?vid=bb92ba5b-25cf-421d-8e4d-dbd092d0fe43","ios":"levelo://app?vid=bb92ba5b-25cf-421d-8e4d-dbd092d0fe43"},"vehicle_type_id":"4","last_reported":1749550280,"current_range_meters":10800,"station_id":"ce4bhi12rcd13ifvqfp0","pricing_plan_id":"cebpf4jnsgd1na2vs0mg"},{"bike_id":"3486fa7e-a44b-4c48-832c-bf36c4387a50","system_id":"levelo_inurba_marseille","lat":43.29263,"lon":5.38436,"is_reserved":false,"is_disabled":false,"rental_uris":{"android":"levelo://app?vid=3486fa7e-a44b-4c48-832c-bf36c4387a50","ios":"levelo://app?vid=3486fa7e-a44b-4c48-832c-bf36c4387a50"},"vehicle_type_id":"4","last_reported":1749550280,"current_range_meters":10800,"station_id":"ce4bh692rcd13ifvqea0","pricing_plan_id":"cebpf4jnsgd1na2vs0mg"},{"bike_id":"3658bf30-0c15-4e18-a876-dcb09458a2ab","system_id":"levelo_inurba_marseille","lat":43.32475,"lon":5.36556,"is_reserved":false,"is_disabled":false,"rental_uris":{"android":"levelo://app?vid=3658bf30-0c15-4e18-a876-dcb09458a2ab","ios":"levelo://app?vid=3658bf30-0c15-4e18-a876-dcb09458a2ab"},"vehicle_type_id":"4","last_reported":1749550280,"current_range_meters":11200,"station_id":"ce4bhs12rcd13ifvqhvg","pricing_plan_id":"cebpf4jnsgd1na2vs0mg"},{"bike_id":"448ebf06-cdfc-4f7e-824a-ee09b1815518","system_id":"levelo_inurba_marseille","lat":43.295786,"lon":5.367421,"is_reserved":false,"is_disabled":false,"rental_uris":{"android":"levelo://app?vid=448ebf06-cdfc-4f7e-824a-ee09b1815518","ios":"levelo://app?vid=448ebf06-cdfc-4f7e-824a-ee09b1815518"},"vehicle_type_id":"4","last_reported":1749550280,"current_range_meters":11200,"station_id":"","pricing_plan_id":"cebpf4jnsgd1na2vs0mg"},{"bike_id":"8f957c09-cb4b-453c-9cb7-b922ce8003f6","system_id":"levelo_inurba_marseille","lat":43.274991,"lon":5.424471,"is_reserved":false,"is_disabled":false,"rental_uris":{"android":"levelo://app?vid=8f957c09-cb4b-453c-9cb7-b922ce8003f6","ios":"levelo://app?vid=8f957c09-cb4b-453c-9cb7-b922ce8003f6"},"vehicle_type_id":"4","last_reported":1749550280,"current_range_meters":11200,"station_id":"ce4bhn92rcd13ifvqgrg","pricing_plan_id":"cebpf4jnsgd1na2vs0mg"},{"bike_id":"1aea7cfc-afca-4737-8f8d-ae60132524de","system_id":"levelo_inurba_marseille","lat":43.28783,"lon":5.39868,"is_reserved":false,"is_disabled":false,"rental_uris":{"android":"levelo://app?vid=1aea7cfc-afca-4737-8f8d-ae60132524de","ios":"levelo://app?vid=1aea7cfc-afca-4737-8f8d-ae60132524de"},"vehicle_type_id":"4","last_reported":1749550280,"current_range_meters":11200,"station_id":"","pricing_plan_id":"cebpf4jnsgd1na2vs0mg"},{"bike_id":"39d32260-51d5-455a-ba53-6471389bd255","system_id":"levelo_inurba_marseille","lat":43.31986,"lon":5.37636,"is_reserved":false,"is_disabled":false,"rental_uris":{"android":"levelo://app?vid=39d32260-51d5-455a-ba53-6471389bd255","ios":"levelo://app?vid=39d32260-51d5-455a-ba53-6471389bd255"},"vehicle_type_id":"4","last_reported":1749550280,"current_range_meters":11200,"station_id":"","pricing_plan_id":"cebpf4jnsgd1na2vs0mg"},{"bike_id":"683c1ff9-67f5-40ec-9df8-fb9f5479b0f5","system_id":"levelo_inurba_marseille","lat":43.28564,"lon":5.39496,"is_reserved":false,"is_disabled":false,"rental_uris":{"android":"levelo://app?vid=683c1ff9-67f5-40ec-9df8-fb9f5479b0f5","ios":"levelo://app?vid=683c1ff9-67f5-40ec-9df8-fb9f5479b0f5"},"vehicle_type_id":"4","last_reported":1749550280,"current_range_meters":10800,"station_id":"ce4bh292rcd13ifvqdg0","pricing_plan_id":"cebpf4jnsgd1na2vs0mg"},{"bike_id":"854ce545-3e9c-4c67-a5f7-08326d56d6a0","system_id":"levelo_inurba_marseille","lat":43.27813,"lon":5.40707,"is_reserved":false,"is_disabled":false,"rental_uris":{"android":"levelo://app?vid=854ce545-3e9c-4c67-a5f7-08326d56d6a0","ios":"levelo://app?vid=854ce545-3e9c-4c67-a5f7-08326d56d6a0"},"vehicle_type_id":"4","last_reported":1749550280,"current_range_meters":11600,"station_id":"ce4bhnh2rcd13ifvqgtg","pricing_plan_id":"cebpf4jnsgd1na2vs0mg"},{"bike_id":"d157ec7f-a874-46cb-8308-aad07e93098c","system_id":"levelo_inurba_marseille","lat":43.28622,"lon":5.35106,"is_reserved":false,"is_disabled":false,"rental_uris":{"android":"levelo://app?vid=d157ec7f-a874-46cb-8308-aad07e93098c","ios":"levelo://app?vid=d157ec7f-a874-46cb-8308-aad07e93098c"},"vehicle_type_id":"4","last_reported":1749550280,"current_range_meters":11600,"station_id":"ce4bhch2rcd13ifvqeug","pricing_plan_id":"cebpf4jnsgd1na2vs0mg"},{"bike_id":"50e54b5e-b3ae-4cbf-ac6f-d4984f23cbe1","system_id":"levelo_inurba_marseille","lat":43.29972,"lon":5.38495,"is_reserved":false,"is_disabled":false,"rental_uris":{"android":"levelo://app?vid=50e54b5e-b3ae-4cbf-ac6f-d4984f23cbe1","ios":"levelo://app?vid=50e54b5e-b3ae-4cbf-ac6f-d4984f23cbe1"},"vehicle_type_id":"4","last_reported":1749550280,"current_range_meters":11600,"station_id":"ce4bgj92rcd13ifvqbd0","pricing_plan_id":"cebpf4jnsgd1na2vs0mg"},{"bike_id":"68b94840-97ba-4429-b1e2-d51806048f00","system_id":"levelo_inurba_marseille","lat":43.29014,"lon":5.38136,"is_reserved":false,"is_disabled":false,"rental_uris":{"android":"levelo://app?vid=68b94840-97ba-4429-b1e2-d51806048f00","ios":"levelo://app?vid=68b94840-97ba-4429-b1e2-d51806048f00"},"vehicle_type_id":"4","last_reported":1749550280,"current_range_meters":11600,"station_id":"ce4bh4p2rcd13ifvqe1g","pricing_plan_id":"cebpf4jnsgd1na2vs0mg"},{"bike_id":"1087cbe1-d3d6-4b86-835b-89dda5119d98","system_id":"levelo_inurba_marseille","lat":43.27032,"lon":5.42276,"is_reserved":false,"is_disabled":false,"rental_uris":{"android":"levelo://app?vid=1087cbe1-d3d6-4b86-835b-89dda5119d98","ios":"levelo://app?vid=1087cbe1-d3d6-4b86-835b-89dda5119d98"},"vehicle_type_id":"4","last_reported":1749550280,"current_range_meters":12000,"station_id":"ce4bhk92rcd13ifvqgb0","pricing_plan_id":"cebpf4jnsgd1na2vs0mg"},{"bike_id":"5077581b-cebb-46fc-ba69-4fa8272d4810","system_id":"levelo_inurba_marseille","lat":43.21366,"lon":5.35513,"is_reserved":false,"is_disabled":false,"rental_uris":{"android":"levelo://app?vid=5077581b-cebb-46fc-ba69-4fa8272d4810","ios":"levelo://app?vid=5077581b-cebb-46fc-ba69-4fa8272d4810"},"vehicle_type_id":"4","last_reported":1749550280,"current_range_meters":12000,"station_id":"","pricing_plan_id":"cebpf4jnsgd1na2vs0mg"},{"bike_id":"7c5a756f-df2d-41c6-9fa1-96f4703433b7","system_id":"levelo_inurba_marseille","lat":43.2835,"lon":5.38635,"is_reserved":false,"is_disabled":false,"rental_uris":{"android":"levelo://app?vid=7c5a756f-df2d-41c6-9fa1-96f4703433b7","ios":"levelo://app?vid=7c5a756f-df2d-41c6-9fa1-96f4703433b7"},"vehicle_type_id":"4","last_reported":1749550280,"current_range_meters":11600,"station_id":"ce4bh492rcd13ifvqdvg","pricing_plan_id":"cebpf4jnsgd1na2vs0mg"},{"bike_id":"402b268f-51d8-4319-85da-3f411d4d5d91","system_id":"levelo_inurba_marseille","lat":43.21205,"lon":5.35038,"is_reserved":false,"is_disabled":false,"rental_uris":{"android":"levelo://app?vid=402b268f-51d8-4319-85da-3f411d4d5d91","ios":"levelo://app?vid=402b268f-51d8-4319-85da-3f411d4d5d91"},"vehicle_type_id":"4","last_reported":1749550280,"current_range_meters":12000,"station_id":"st_cvj6sg6p6f1abm77japg","pricing_plan_id":"cebpf4jnsgd1na2vs0mg"},{"bike_id":"ef555bdb-3115-4b1f-9398-9c76776e1204","system_id":"levelo_inurba_marseille","lat":43.26043,"lon":5.37405,"is_reserved":false,"is_disabled":false,"rental_uris":{"android":"levelo://app?vid=ef555bdb-3115-4b1f-9398-9c76776e1204","ios":"levelo://app?vid=ef555bdb-3115-4b1f-9398-9c76776e1204"},"vehicle_type_id":"4","last_reported":1749550280,"current_range_meters":12400,"station_id":"","pricing_plan_id":"cebpf4jnsgd1na2vs0mg"},{"bike_id":"93fe7527-ff59-49e4-8a28-7b6371205510","system_id":"levelo_inurba_marseille","lat":43.2396,"lon":5.36632,"is_reserved":false,"is_disabled":false,"rental_uris":{"android":"levelo://app?vid=93fe7527-ff59-49e4-8a28-7b6371205510","ios":"levelo://app?vid=93fe7527-ff59-49e4-8a28-7b6371205510"},"vehicle_type_id":"4","last_reported":1749550280,"current_range_meters":12400,"station_id":"ce4bhi12rcd13ifvqfp0","pricing_plan_id":"cebpf4jnsgd1na2vs0mg"},{"bike_id":"fde471f0-ae87-4303-8d32-8f47c104d103","system_id":"levelo_inurba_marseille","lat":43.27052,"lon":5.42259,"is_reserved":false,"is_disabled":false,"rental_uris":{"android":"levelo://app?vid=fde471f0-ae87-4303-8d32-8f47c104d103","ios":"levelo://app?vid=fde471f0-ae87-4303-8d32-8f47c104d103"},"vehicle_type_id":"4","last_reported":1749550280,"current_range_meters":12400,"station_id":"ce4bhk92rcd13ifvqgb0","pricing_plan_id":"cebpf4jnsgd1na2vs0mg"},{"bike_id":"8f83e785-ba0b-4cbb-804f-c07bff87329a","system_id":"levelo_inurba_marseille","lat":43.30542,"lon":5.36544,"is_reserved":false,"is_disabled":false,"rental_uris":{"android":"levelo://app?vid=8f83e785-ba0b-4cbb-804f-c07bff87329a","ios":"levelo://app?vid=8f83e785-ba0b-4cbb-804f-c07bff87329a"},"vehicle_type_id":"4","last_reported":1749550280,"current_range_meters":12800,"station_id":"ce4bgs12rcd13ifvqcag","pricing_plan_id":"cebpf4jnsgd1na2vs0mg"},{"bike_id":"b7651752-8eb3-4b67-91fc-0a6e006c8d1f","system_id":"levelo_inurba_marseille","lat":43.21228,"lon":5.35089,"is_reserved":false,"is_disabled":false,"rental_uris":{"android":"levelo://app?vid=b7651752-8eb3-4b67-91fc-0a6e006c8d1f","ios":"levelo://app?vid=b7651752-8eb3-4b67-91fc-0a6e006c8d1f"},"vehicle_type_id":"4","last_reported":1749550280,"current_range_meters":12800,"station_id":"","pricing_plan_id":"cebpf4jnsgd1na2vs0mg"},{"bike_id":"0762674f-1e89-4d4c-aa36-9ccaf8f24fa7","system_id":"levelo_inurba_marseille","lat":43.28419,"lon":5.34986,"is_reserved":false,"is_disabled":false,"rental_uris":{"android":"levelo://app?vid=0762674f-1e89-4d4c-aa36-9ccaf8f24fa7","ios":"levelo://app?vid=0762674f-1e89-4d4c-aa36-9ccaf8f24fa7"},"vehicle_type_id":"4","last_reported":1749550280,"current_range_meters":12800,"station_id":"ce4bhbh2rcd13ifvqepg","pricing_plan_id":"cebpf4jnsgd1na2vs0mg"},{"bike_id":"e2a64c8a-2e9c-4983-8bfe-fc40daf0ec69","system_id":"levelo_inurba_marseille","lat":43.26553,"lon":5.37282,"is_reserved":false,"is_disabled":false,"rental_uris":{"android":"levelo://app?vid=e2a64c8a-2e9c-4983-8bfe-fc40daf0ec69","ios":"levelo://app?vid=e2a64c8a-2e9c-4983-8bfe-fc40daf0ec69"},"vehicle_type_id":"4","last_reported":1749550280,"current_range_meters":12800,"station_id":"ce4bhg12rcd13ifvqf70","pricing_plan_id":"cebpf4jnsgd1na2vs0mg"},{"bike_id":"6cb4ce7f-ba79-4b5c-89c6-9471cc4909d9","system_id":"levelo_inurba_marseille","lat":43.30468,"lon":5.37896,"is_reserved":false,"is_disabled":true,"rental_uris":{"android":"levelo://app?vid=6cb4ce7f-ba79-4b5c-89c6-9471cc4909d9","ios":"levelo://app?vid=6cb4ce7f-ba79-4b5c-89c6-9471cc4909d9"},"vehicle_type_id":"4","last_reported":1749550280,"current_range_meters":13600,"station_id":"ce4bgup2rcd13ifvqcn0","pricing_plan_id":"cebpf4jnsgd1na2vs0mg"},{"bike_id":"3f75bb5f-6a6e-4f9b-a1c6-8428b67407c5","system_id":"levelo_inurba_marseille","lat":43.280867,"lon":5.396228,"is_reserved":false,"is_disabled":false,"rental_uris":{"android":"levelo://app?vid=3f75bb5f-6a6e-4f9b-a1c6-8428b67407c5","ios":"levelo://app?vid=3f75bb5f-6a6e-4f9b-a1c6-8428b67407c5"},"vehicle_type_id":"4","last_reported":1749550280,"current_range_meters":13600,"station_id":"ce4bho12rcd13ifvqh2g","pricing_plan_id":"cebpf4jnsgd1na2vs0mg"},{"bike_id":"ca27e12a-1f2d-4cf2-be29-12a2b9ff1547","system_id":"levelo_inurba_marseille","lat":43.31723,"lon":5.42399,"is_reserved":false,"is_disabled":false,"rental_uris":{"android":"levelo://app?vid=ca27e12a-1f2d-4cf2-be29-12a2b9ff1547","ios":"levelo://app?vid=ca27e12a-1f2d-4cf2-be29-12a2b9ff1547"},"vehicle_type_id":"4","last_reported":1749550280,"current_range_meters":13600,"station_id":"ce4bhp92rcd13ifvqhbg","pricing_plan_id":"cebpf4jnsgd1na2vs0mg"},{"bike_id":"0e188833-f87b-4584-92a8-77e7c3266749","system_id":"levelo_inurba_marseille","lat":43.28994,"lon":5.37829,"is_reserved":false,"is_disabled":false,"rental_uris":{"android":"levelo://app?vid=0e188833-f87b-4584-92a8-77e7c3266749","ios":"levelo://app?vid=0e188833-f87b-4584-92a8-77e7c3266749"},"vehicle_type_id":"4","last_reported":1749550280,"current_range_meters":14000,"station_id":"ce4bh9p2rcd13ifvqed0","pricing_plan_id":"cebpf4jnsgd1na2vs0mg"},{"bike_id":"8e401600-8bcb-4aca-a609-303bd5c43190","system_id":"levelo_inurba_marseille","lat":43.31262,"lon":5.36832,"is_reserved":false,"is_disabled":false,"rental_uris":{"android":"levelo://app?vid=8e401600-8bcb-4aca-a609-303bd5c43190","ios":"levelo://app?vid=8e401600-8bcb-4aca-a609-303bd5c43190"},"vehicle_type_id":"4","last_reported":1749550280,"current_range_meters":14000,"station_id":"ce4bgl92rcd13ifvqbq0","pricing_plan_id":"cebpf4jnsgd1na2vs0mg"},{"bike_id":"b2a55171-9e11-4eba-beeb-f2e7c5d27df2","system_id":"levelo_inurba_marseille","lat":43.2119,"lon":5.35073,"is_reserved":false,"is_disabled":false,"rental_uris":{"android":"levelo://app?vid=b2a55171-9e11-4eba-beeb-f2e7c5d27df2","ios":"levelo://app?vid=b2a55171-9e11-4eba-beeb-f2e7c5d27df2"},"vehicle_type_id":"4","last_reported":1749550280,"current_range_meters":14000,"station_id":"st_cvj6sg6p6f1abm77japg","pricing_plan_id":"cebpf4jnsgd1na2vs0mg"},{"bike_id":"e925ed2b-babc-4cf9-b75b-bac898fd5635","system_id":"levelo_inurba_marseille","lat":43.21192,"lon":5.35064,"is_reserved":false,"is_disabled":false,"rental_uris":{"android":"levelo://app?vid=e925ed2b-babc-4cf9-b75b-bac898fd5635","ios":"levelo://app?vid=e925ed2b-babc-4cf9-b75b-bac898fd5635"},"vehicle_type_id":"4","last_reported":1749550280,"current_range_meters":14000,"station_id":"st_cvj6sg6p6f1abm77japg","pricing_plan_id":"cebpf4jnsgd1na2vs0mg"},{"bike_id":"55c78ebe-818d-42aa-8909-149368b489ee","system_id":"levelo_inurba_marseille","lat":43.28413,"lon":5.34981,"is_reserved":false,"is_disabled":false,"rental_uris":{"android":"levelo://app?vid=55c78ebe-818d-42aa-8909-149368b489ee","ios":"levelo://app?vid=55c78ebe-818d-42aa-8909-149368b489ee"},"vehicle_type_id":"4","last_reported":1749550280,"current_range_meters":14400,"station_id":"ce4bhbh2rcd13ifvqepg","pricing_plan_id":"cebpf4jnsgd1na2vs0mg"},{"bike_id":"40ed4c37-b91e-4ca4-b661-c38b860b1c45","system_id":"levelo_inurba_marseille","lat":43.2927,"lon":5.38436,"is_reserved":false,"is_disabled":false,"rental_uris":{"android":"levelo://app?vid=40ed4c37-b91e-4ca4-b661-c38b860b1c45","ios":"levelo://app?vid=40ed4c37-b91e-4ca4-b661-c38b860b1c45"},"vehicle_type_id":"4","last_reported":1749550280,"current_range_meters":14400,"station_id":"ce4bh692rcd13ifvqea0","pricing_plan_id":"cebpf4jnsgd1na2vs0mg"},{"bike_id":"e4c92553-820d-4bab-bd78-8b1843ca23ce","system_id":"levelo_inurba_marseille","lat":43.24191,"lon":5.39695,"is_reserved":false,"is_disabled":false,"rental_uris":{"android":"levelo://app?vid=e4c92553-820d-4bab-bd78-8b1843ca23ce","ios":"levelo://app?vid=e4c92553-820d-4bab-bd78-8b1843ca23ce"},"vehicle_type_id":"4","last_reported":1749550280,"current_range_meters":14400,"station_id":"ce4bhn12rcd13ifvqgpg","pricing_plan_id":"cebpf4jnsgd1na2vs0mg"},{"bike_id":"7e2732c6-0822-49aa-9ca1-f1b15113f3d8","system_id":"levelo_inurba_marseille","lat":43.3371,"lon":5.39174,"is_reserved":false,"is_disabled":false,"rental_uris":{"android":"levelo://app?vid=7e2732c6-0822-49aa-9ca1-f1b15113f3d8","ios":"levelo://app?vid=7e2732c6-0822-49aa-9ca1-f1b15113f3d8"},"vehicle_type_id":"4","last_reported":1749550280,"current_range_meters":14000,"station_id":"ce4bhr92rcd13ifvqhsg","pricing_plan_id":"cebpf4jnsgd1na2vs0mg"},{"bike_id":"89c20e90-6d33-4b21-a313-2ad127172117","system_id":"levelo_inurba_marseille","lat":43.26206,"lon":5.37437,"is_reserved":false,"is_disabled":false,"rental_uris":{"android":"levelo://app?vid=89c20e90-6d33-4b21-a313-2ad127172117","ios":"levelo://app?vid=89c20e90-6d33-4b21-a313-2ad127172117"},"vehicle_type_id":"4","last_reported":1749550280,"current_range_meters":14800,"station_id":"ce4bhgp2rcd13ifvqfc0","pricing_plan_id":"cebpf4jnsgd1na2vs0mg"},{"bike_id":"53ee3cc9-b247-4446-911a-a2c706769e92","system_id":"levelo_inurba_marseille","lat":43.27973,"lon":5.38751,"is_reserved":false,"is_disabled":false,"rental_uris":{"android":"levelo://app?vid=53ee3cc9-b247-4446-911a-a2c706769e92","ios":"levelo://app?vid=53ee3cc9-b247-4446-911a-a2c706769e92"},"vehicle_type_id":"4","last_reported":1749550280,"current_range_meters":14800,"station_id":"ce4bhg12rcd13ifvqf80","pricing_plan_id":"cebpf4jnsgd1na2vs0mg"},{"bike_id":"1f6b9c47-b35c-4d40-8c5c-4be5ae78363e","system_id":"levelo_inurba_marseille","lat":43.27372,"lon":5.36259,"is_reserved":false,"is_disabled":false,"rental_uris":{"android":"levelo://app?vid=1f6b9c47-b35c-4d40-8c5c-4be5ae78363e","ios":"levelo://app?vid=1f6b9c47-b35c-4d40-8c5c-4be5ae78363e"},"vehicle_type_id":"4","last_reported":1749550280,"current_range_meters":14800,"station_id":"ce4bhbh2rcd13ifvqeo0","pricing_plan_id":"cebpf4jnsgd1na2vs0mg"},{"bike_id":"7fbb8cf5-f563-4c4a-90cf-1a5ac10b01c4","system_id":"levelo_inurba_marseille","lat":43.21199,"lon":5.3506,"is_reserved":false,"is_disabled":false,"rental_uris":{"android":"levelo://app?vid=7fbb8cf5-f563-4c4a-90cf-1a5ac10b01c4","ios":"levelo://app?vid=7fbb8cf5-f563-4c4a-90cf-1a5ac10b01c4"},"vehicle_type_id":"4","last_reported":1749550280,"current_range_meters":14800,"station_id":"st_cvj6sg6p6f1abm77japg","pricing_plan_id":"cebpf4jnsgd1na2vs0mg"},{"bike_id":"fd7409d9-164b-4d2c-81a1-56fc926fba4a","system_id":"levelo_inurba_marseille","lat":43.30354,"lon":5.41871,"is_reserved":false,"is_disabled":false,"rental_uris":{"android":"levelo://app?vid=fd7409d9-164b-4d2c-81a1-56fc926fba4a","ios":"levelo://app?vid=fd7409d9-164b-4d2c-81a1-56fc926fba4a"},"vehicle_type_id":"4","last_reported":1749550280,"current_range_meters":14800,"station_id":"ce4bhop2rcd13ifvqh7g","pricing_plan_id":"cebpf4jnsgd1na2vs0mg"},{"bike_id":"5a55eb0f-0567-487e-a6a7-2cfcfc5473aa","system_id":"levelo_inurba_marseille","lat":43.33773,"lon":5.37424,"is_reserved":false,"is_disabled":false,"rental_uris":{"android":"levelo://app?vid=5a55eb0f-0567-487e-a6a7-2cfcfc5473aa","ios":"levelo://app?vid=5a55eb0f-0567-487e-a6a7-2cfcfc5473aa"},"vehicle_type_id":"4","last_reported":1749550280,"current_range_meters":15200,"station_id":"","pricing_plan_id":"cebpf4jnsgd1na2vs0mg"},{"bike_id":"2e32314d-bad6-4539-bc4e-efa5da5f8857","system_id":"levelo_inurba_marseille","lat":43.2997,"lon":5.38491,"is_reserved":false,"is_disabled":false,"rental_uris":{"android":"levelo://app?vid=2e32314d-bad6-4539-bc4e-efa5da5f8857","ios":"levelo://app?vid=2e32314d-bad6-4539-bc4e-efa5da5f8857"},"vehicle_type_id":"4","last_reported":1749550280,"current_range_meters":15200,"station_id":"ce4bgj92rcd13ifvqbd0","pricing_plan_id":"cebpf4jnsgd1na2vs0mg"},{"bike_id":"abcd2dc9-4396-440f-85b3-9d9064401860","system_id":"levelo_inurba_marseille","lat":43.31351,"lon":5.36745,"is_reserved":false,"is_disabled":false,"rental_uris":{"android":"levelo://app?vid=abcd2dc9-4396-440f-85b3-9d9064401860","ios":"levelo://app?vid=abcd2dc9-4396-440f-85b3-9d9064401860"},"vehicle_type_id":"4","last_reported":1749550280,"current_range_meters":15200,"station_id":"ce4bgr92rcd13ifvqc6g","pricing_plan_id":"cebpf4jnsgd1na2vs0mg"},{"bike_id":"187b0a7b-e256-4c19-9794-bb250a6c5653","system_id":"levelo_inurba_marseille","lat":43.31858,"lon":5.3794,"is_reserved":false,"is_disabled":false,"rental_uris":{"android":"levelo://app?vid=187b0a7b-e256-4c19-9794-bb250a6c5653","ios":"levelo://app?vid=187b0a7b-e256-4c19-9794-bb250a6c5653"},"vehicle_type_id":"4","last_reported":1749550280,"current_range_meters":15200,"station_id":"","pricing_plan_id":"cebpf4jnsgd1na2vs0mg"},{"bike_id":"c30dbedc-c866-492b-a092-32c1ee0c1f22","system_id":"levelo_inurba_marseille","lat":43.29545,"lon":5.38546,"is_reserved":false,"is_disabled":true,"rental_uris":{"android":"levelo://app?vid=c30dbedc-c866-492b-a092-32c1ee0c1f22","ios":"levelo://app?vid=c30dbedc-c866-492b-a092-32c1ee0c1f22"},"vehicle_type_id":"4","last_reported":1749550280,"current_range_meters":16000,"station_id":"ce4bgih2rcd13ifvqba0","pricing_plan_id":"cebpf4jnsgd1na2vs0mg"},{"bike_id":"a7e979e5-7afa-4658-b3e7-2502946031d3","system_id":"levelo_inurba_marseille","lat":43.2551,"lon":5.42019,"is_reserved":false,"is_disabled":false,"rental_uris":{"android":"levelo://app?vid=a7e979e5-7afa-4658-b3e7-2502946031d3","ios":"levelo://app?vid=a7e979e5-7afa-4658-b3e7-2502946031d3"},"vehicle_type_id":"4","last_reported":1749550280,"current_range_meters":16000,"station_id":"","pricing_plan_id":"cebpf4jnsgd1na2vs0mg"},{"bike_id":"1e20f032-0f6a-40b2-ad29-e4d2225496fa","system_id":"levelo_inurba_marseille","lat":43.30282,"lon":5.37059,"is_reserved":false,"is_disabled":false,"rental_uris":{"android":"levelo://app?vid=1e20f032-0f6a-40b2-ad29-e4d2225496fa","ios":"levelo://app?vid=1e20f032-0f6a-40b2-ad29-e4d2225496fa"},"vehicle_type_id":"4","last_reported":1749550280,"current_range_meters":16000,"station_id":"","pricing_plan_id":"cebpf4jnsgd1na2vs0mg"},{"bike_id":"1ef37c59-3b3d-4016-85d9-222ea0d08abb","system_id":"levelo_inurba_marseille","lat":43.23966,"lon":5.36631,"is_reserved":false,"is_disabled":false,"rental_uris":{"android":"levelo://app?vid=1ef37c59-3b3d-4016-85d9-222ea0d08abb","ios":"levelo://app?vid=1ef37c59-3b3d-4016-85d9-222ea0d08abb"},"vehicle_type_id":"4","last_reported":1749550280,"current_range_meters":16000,"station_id":"ce4bhi12rcd13ifvqfp0","pricing_plan_id":"cebpf4jnsgd1na2vs0mg"},{"bike_id":"95f3cfb5-fc35-4c93-b5a6-80c909b6a6e2","system_id":"levelo_inurba_marseille","lat":43.28265,"lon":5.35065,"is_reserved":false,"is_disabled":false,"rental_uris":{"android":"levelo://app?vid=95f3cfb5-fc35-4c93-b5a6-80c909b6a6e2","ios":"levelo://app?vid=95f3cfb5-fc35-4c93-b5a6-80c909b6a6e2"},"vehicle_type_id":"4","last_reported":1749550280,"current_range_meters":16000,"station_id":"ce4bhbp2rcd13ifvqerg","pricing_plan_id":"cebpf4jnsgd1na2vs0mg"},{"bike_id":"8d40b566-02c8-4dfb-ae5f-53cce8dc604c","system_id":"levelo_inurba_marseille","lat":43.28147,"lon":5.42655,"is_reserved":false,"is_disabled":false,"rental_uris":{"android":"levelo://app?vid=8d40b566-02c8-4dfb-ae5f-53cce8dc604c","ios":"levelo://app?vid=8d40b566-02c8-4dfb-ae5f-53cce8dc604c"},"vehicle_type_id":"4","last_reported":1749550280,"current_range_meters":16000,"station_id":"ce4bhnh2rcd13ifvqgug","pricing_plan_id":"cebpf4jnsgd1na2vs0mg"},{"bike_id":"fad9b98f-1bfd-41b0-be76-c725e485d072","system_id":"levelo_inurba_marseille","lat":43.21199,"lon":5.35049,"is_reserved":false,"is_disabled":false,"rental_uris":{"android":"levelo://app?vid=fad9b98f-1bfd-41b0-be76-c725e485d072","ios":"levelo://app?vid=fad9b98f-1bfd-41b0-be76-c725e485d072"},"vehicle_type_id":"4","last_reported":1749550280,"current_range_meters":16400,"station_id":"st_cvj6sg6p6f1abm77japg","pricing_plan_id":"cebpf4jnsgd1na2vs0mg"},{"bike_id":"d666a945-f24d-480c-8e3f-07619f450677","system_id":"levelo_inurba_marseille","lat":43.29171,"lon":5.37162,"is_reserved":false,"is_disabled":false,"rental_uris":{"android":"levelo://app?vid=d666a945-f24d-480c-8e3f-07619f450677","ios":"levelo://app?vid=d666a945-f24d-480c-8e3f-07619f450677"},"vehicle_type_id":"4","last_reported":1749550280,"current_range_meters":16400,"station_id":"ce4bha92rcd13ifvqeh0","pricing_plan_id":"cebpf4jnsgd1na2vs0mg"},{"bike_id":"84f5a926-1dd6-4535-b647-2764ce0ca103","system_id":"levelo_inurba_marseille","lat":43.32118,"lon":5.36766,"is_reserved":false,"is_disabled":false,"rental_uris":{"android":"levelo://app?vid=84f5a926-1dd6-4535-b647-2764ce0ca103","ios":"levelo://app?vid=84f5a926-1dd6-4535-b647-2764ce0ca103"},"vehicle_type_id":"4","last_reported":1749550280,"current_range_meters":16400,"station_id":"ce4bhrh2rcd13ifvqhug","pricing_plan_id":"cebpf4jnsgd1na2vs0mg"},{"bike_id":"8ec58c3b-72b7-4b30-a963-ff8209edacde","system_id":"levelo_inurba_marseille","lat":43.30121,"lon":5.39865,"is_reserved":false,"is_disabled":false,"rental_uris":{"android":"levelo://app?vid=8ec58c3b-72b7-4b30-a963-ff8209edacde","ios":"levelo://app?vid=8ec58c3b-72b7-4b30-a963-ff8209edacde"},"vehicle_type_id":"4","last_reported":1749550280,"current_range_meters":16000,"station_id":"ce4bh0h2rcd13ifvqd40","pricing_plan_id":"cebpf4jnsgd1na2vs0mg"},{"bike_id":"38f3574c-6050-4f7b-b824-25609fb7b634","system_id":"levelo_inurba_marseille","lat":43.29962,"lon":5.38488,"is_reserved":false,"is_disabled":true,"rental_uris":{"android":"levelo://app?vid=38f3574c-6050-4f7b-b824-25609fb7b634","ios":"levelo://app?vid=38f3574c-6050-4f7b-b824-25609fb7b634"},"vehicle_type_id":"4","last_reported":1749550280,"current_range_meters":16400,"station_id":"ce4bgj92rcd13ifvqbd0","pricing_plan_id":"cebpf4jnsgd1na2vs0mg"},{"bike_id":"262903a9-22b9-4b2d-96c2-2e5dbd155090","system_id":"levelo_inurba_marseille","lat":43.32483,"lon":5.36559,"is_reserved":false,"is_disabled":false,"rental_uris":{"android":"levelo://app?vid=262903a9-22b9-4b2d-96c2-2e5dbd155090","ios":"levelo://app?vid=262903a9-22b9-4b2d-96c2-2e5dbd155090"},"vehicle_type_id":"4","last_reported":1749550280,"current_range_meters":16800,"station_id":"ce4bhs12rcd13ifvqhvg","pricing_plan_id":"cebpf4jnsgd1na2vs0mg"},{"bike_id":"1cb49127-83c2-42e5-a0c1-a209212b201e","system_id":"levelo_inurba_marseille","lat":43.28423,"lon":5.34985,"is_reserved":false,"is_disabled":false,"rental_uris":{"android":"levelo://app?vid=1cb49127-83c2-42e5-a0c1-a209212b201e","ios":"levelo://app?vid=1cb49127-83c2-42e5-a0c1-a209212b201e"},"vehicle_type_id":"4","last_reported":1749550280,"current_range_meters":16800,"station_id":"ce4bhbh2rcd13ifvqepg","pricing_plan_id":"cebpf4jnsgd1na2vs0mg"},{"bike_id":"2fba4263-3889-4a12-b2e8-665d585e72c2","system_id":"levelo_inurba_marseille","lat":43.28264,"lon":5.35067,"is_reserved":false,"is_disabled":false,"rental_uris":{"android":"levelo://app?vid=2fba4263-3889-4a12-b2e8-665d585e72c2","ios":"levelo://app?vid=2fba4263-3889-4a12-b2e8-665d585e72c2"},"vehicle_type_id":"4","last_reported":1749550280,"current_range_meters":16800,"station_id":"ce4bhbp2rcd13ifvqerg","pricing_plan_id":"cebpf4jnsgd1na2vs0mg"},{"bike_id":"557104e5-12ad-4811-8d87-d8392375329d","system_id":"levelo_inurba_marseille","lat":43.28255,"lon":5.35066,"is_reserved":false,"is_disabled":false,"rental_uris":{"android":"levelo://app?vid=557104e5-12ad-4811-8d87-d8392375329d","ios":"levelo://app?vid=557104e5-12ad-4811-8d87-d8392375329d"},"vehicle_type_id":"4","last_reported":1749550280,"current_range_meters":16800,"station_id":"ce4bhbp2rcd13ifvqerg","pricing_plan_id":"cebpf4jnsgd1na2vs0mg"},{"bike_id":"9bdd209e-65f6-4bde-aecb-55bb2c796e6e","system_id":"levelo_inurba_marseille","lat":43.28678,"lon":5.38647,"is_reserved":false,"is_disabled":false,"rental_uris":{"android":"levelo://app?vid=9bdd209e-65f6-4bde-aecb-55bb2c796e6e","ios":"levelo://app?vid=9bdd209e-65f6-4bde-aecb-55bb2c796e6e"},"vehicle_type_id":"4","last_reported":1749550280,"current_range_meters":16800,"station_id":"ce4bh492rcd13ifvqdug","pricing_plan_id":"cebpf4jnsgd1na2vs0mg"},{"bike_id":"002ad4e8-6140-4bdd-b14b-f38ee707447e","system_id":"levelo_inurba_marseille","lat":43.30987,"lon":5.38578,"is_reserved":false,"is_disabled":false,"rental_uris":{"android":"levelo://app?vid=002ad4e8-6140-4bdd-b14b-f38ee707447e","ios":"levelo://app?vid=002ad4e8-6140-4bdd-b14b-f38ee707447e"},"vehicle_type_id":"4","last_reported":1749550280,"current_range_meters":16800,"station_id":"","pricing_plan_id":"cebpf4jnsgd1na2vs0mg"},{"bike_id":"66bfda14-7ebe-400d-a3a8-40b2e6f58cb4","system_id":"levelo_inurba_marseille","lat":43.21746,"lon":5.34601,"is_reserved":false,"is_disabled":false,"rental_uris":{"android":"levelo://app?vid=66bfda14-7ebe-400d-a3a8-40b2e6f58cb4","ios":"levelo://app?vid=66bfda14-7ebe-400d-a3a8-40b2e6f58cb4"},"vehicle_type_id":"4","last_reported":1749550280,"current_range_meters":16800,"station_id":"","pricing_plan_id":"cebpf4jnsgd1na2vs0mg"},{"bike_id":"bf84f13a-3455-4664-97db-447b4b978353","system_id":"levelo_inurba_marseille","lat":43.2732,"lon":5.390546,"is_reserved":false,"is_disabled":true,"rental_uris":{"android":"levelo://app?vid=bf84f13a-3455-4664-97db-447b4b978353","ios":"levelo://app?vid=bf84f13a-3455-4664-97db-447b4b978353"},"vehicle_type_id":"4","last_reported":1749550280,"current_range_meters":16800,"station_id":"","pricing_plan_id":"cebpf4jnsgd1na2vs0mg"},{"bike_id":"e61a5abb-c900-4d6e-8217-a46fab06e9f4","system_id":"levelo_inurba_marseille","lat":43.32985,"lon":5.39429,"is_reserved":false,"is_disabled":false,"rental_uris":{"android":"levelo://app?vid=e61a5abb-c900-4d6e-8217-a46fab06e9f4","ios":"levelo://app?vid=e61a5abb-c900-4d6e-8217-a46fab06e9f4"},"vehicle_type_id":"4","last_reported":1749550280,"current_range_meters":17200,"station_id":"","pricing_plan_id":"cebpf4jnsgd1na2vs0mg"},{"bike_id":"bd893a1d-efb6-4254-a08f-ea9291620f61","system_id":"levelo_inurba_marseille","lat":43.29733,"lon":5.37674,"is_reserved":false,"is_disabled":false,"rental_uris":{"android":"levelo://app?vid=bd893a1d-efb6-4254-a08f-ea9291620f61","ios":"levelo://app?vid=bd893a1d-efb6-4254-a08f-ea9291620f61"},"vehicle_type_id":"4","last_reported":1749550280,"current_range_meters":17200,"station_id":"ce4bgkh2rcd13ifvqbl0","pricing_plan_id":"cebpf4jnsgd1na2vs0mg"},{"bike_id":"72befdc9-9f00-42fe-9fa3-196160650a86","system_id":"levelo_inurba_marseille","lat":43.28621,"lon":5.3511,"is_reserved":false,"is_disabled":false,"rental_uris":{"android":"levelo://app?vid=72befdc9-9f00-42fe-9fa3-196160650a86","ios":"levelo://app?vid=72befdc9-9f00-42fe-9fa3-196160650a86"},"vehicle_type_id":"4","last_reported":1749550280,"current_range_meters":17200,"station_id":"ce4bhch2rcd13ifvqeug","pricing_plan_id":"cebpf4jnsgd1na2vs0mg"},{"bike_id":"f86c871e-5691-4061-a487-aa146b09dc41","system_id":"levelo_inurba_marseille","lat":43.28423,"lon":5.34989,"is_reserved":false,"is_disabled":false,"rental_uris":{"android":"levelo://app?vid=f86c871e-5691-4061-a487-aa146b09dc41","ios":"levelo://app?vid=f86c871e-5691-4061-a487-aa146b09dc41"},"vehicle_type_id":"4","last_reported":1749550280,"current_range_meters":17200,"station_id":"ce4bhbh2rcd13ifvqepg","pricing_plan_id":"cebpf4jnsgd1na2vs0mg"},{"bike_id":"3028b02e-24ef-45b5-a0b3-735b2150ec30","system_id":"levelo_inurba_marseille","lat":43.274255,"lon":5.39407,"is_reserved":false,"is_disabled":false,"rental_uris":{"android":"levelo://app?vid=3028b02e-24ef-45b5-a0b3-735b2150ec30","ios":"levelo://app?vid=3028b02e-24ef-45b5-a0b3-735b2150ec30"},"vehicle_type_id":"4","last_reported":1749550280,"current_range_meters":16800,"station_id":"ce4bhdp2rcd13ifvqf20","pricing_plan_id":"cebpf4jnsgd1na2vs0mg"},{"bike_id":"787e4fac-022a-42a6-a25c-cb35361bbd97","system_id":"levelo_inurba_marseille","lat":43.29191,"lon":5.3579,"is_reserved":false,"is_disabled":false,"rental_uris":{"android":"levelo://app?vid=787e4fac-022a-42a6-a25c-cb35361bbd97","ios":"levelo://app?vid=787e4fac-022a-42a6-a25c-cb35361bbd97"},"vehicle_type_id":"4","last_reported":1749550280,"current_range_meters":17200,"station_id":"ce4bhb12rcd13ifvqel0","pricing_plan_id":"cebpf4jnsgd1na2vs0mg"},{"bike_id":"1cb1ecd4-bbf4-40f4-ba10-4edb5201664c","system_id":"levelo_inurba_marseille","lat":43.28856,"lon":5.35853,"is_reserved":false,"is_disabled":false,"rental_uris":{"android":"levelo://app?vid=1cb1ecd4-bbf4-40f4-ba10-4edb5201664c","ios":"levelo://app?vid=1cb1ecd4-bbf4-40f4-ba10-4edb5201664c"},"vehicle_type_id":"4","last_reported":1749550280,"current_range_meters":17200,"station_id":"ce4bhb12rcd13ifvqem0","pricing_plan_id":"cebpf4jnsgd1na2vs0mg"},{"bike_id":"6dedfccc-e4fc-4486-81a0-ff90d001cced","system_id":"levelo_inurba_marseille","lat":43.26952,"lon":5.38634,"is_reserved":false,"is_disabled":false,"rental_uris":{"android":"levelo://app?vid=6dedfccc-e4fc-4486-81a0-ff90d001cced","ios":"levelo://app?vid=6dedfccc-e4fc-4486-81a0-ff90d001cced"},"vehicle_type_id":"4","last_reported":1749550280,"current_range_meters":17200,"station_id":"ce4bhh92rcd13ifvqfh0","pricing_plan_id":"cebpf4jnsgd1na2vs0mg"},{"bike_id":"0abd7fe4-085c-4c8b-a77f-174bd23fa865","system_id":"levelo_inurba_marseille","lat":43.30954,"lon":5.39014,"is_reserved":false,"is_disabled":false,"rental_uris":{"android":"levelo://app?vid=0abd7fe4-085c-4c8b-a77f-174bd23fa865","ios":"levelo://app?vid=0abd7fe4-085c-4c8b-a77f-174bd23fa865"},"vehicle_type_id":"4","last_reported":1749550280,"current_range_meters":17600,"station_id":"ce4bgup2rcd13ifvqco0","pricing_plan_id":"cebpf4jnsgd1na2vs0mg"},{"bike_id":"f47be119-bfcb-4a6a-b442-d0ce0aaf9e3f","system_id":"levelo_inurba_marseille","lat":43.29239,"lon":5.40889,"is_reserved":false,"is_disabled":false,"rental_uris":{"android":"levelo://app?vid=f47be119-bfcb-4a6a-b442-d0ce0aaf9e3f","ios":"levelo://app?vid=f47be119-bfcb-4a6a-b442-d0ce0aaf9e3f"},"vehicle_type_id":"4","last_reported":1749550280,"current_range_meters":17200,"station_id":"ce4bh192rcd13ifvqdc0","pricing_plan_id":"cebpf4jnsgd1na2vs0mg"},{"bike_id":"2dfb1439-d102-48c6-8268-1b39c5e28a08","system_id":"levelo_inurba_marseille","lat":43.293001,"lon":5.374613,"is_reserved":false,"is_disabled":false,"rental_uris":{"android":"levelo://app?vid=2dfb1439-d102-48c6-8268-1b39c5e28a08","ios":"levelo://app?vid=2dfb1439-d102-48c6-8268-1b39c5e28a08"},"vehicle_type_id":"4","last_reported":1749550280,"current_range_meters":17600,"station_id":"ce4bgi12rcd13ifvqb70","pricing_plan_id":"cebpf4jnsgd1na2vs0mg"},{"bike_id":"54c94be1-c0a0-480e-baf3-cde6bf247775","system_id":"levelo_inurba_marseille","lat":43.29287,"lon":5.37438,"is_reserved":false,"is_disabled":false,"rental_uris":{"android":"levelo://app?vid=54c94be1-c0a0-480e-baf3-cde6bf247775","ios":"levelo://app?vid=54c94be1-c0a0-480e-baf3-cde6bf247775"},"vehicle_type_id":"4","last_reported":1749550280,"current_range_meters":17600,"station_id":"ce4bgi12rcd13ifvqb70","pricing_plan_id":"cebpf4jnsgd1na2vs0mg"},{"bike_id":"b999e088-ad38-4e66-a6c0-e320752fc7db","system_id":"levelo_inurba_marseille","lat":43.27371,"lon":5.36244,"is_reserved":false,"is_disabled":false,"rental_uris":{"android":"levelo://app?vid=b999e088-ad38-4e66-a6c0-e320752fc7db","ios":"levelo://app?vid=b999e088-ad38-4e66-a6c0-e320752fc7db"},"vehicle_type_id":"4","last_reported":1749550280,"current_range_meters":17200,"station_id":"ce4bhbh2rcd13ifvqeo0","pricing_plan_id":"cebpf4jnsgd1na2vs0mg"},{"bike_id":"ee7a2e6a-3e65-41f6-b8b3-501fb42682dc","system_id":"levelo_inurba_marseille","lat":43.27565,"lon":5.38419,"is_reserved":false,"is_disabled":false,"rental_uris":{"android":"levelo://app?vid=ee7a2e6a-3e65-41f6-b8b3-501fb42682dc","ios":"levelo://app?vid=ee7a2e6a-3e65-41f6-b8b3-501fb42682dc"},"vehicle_type_id":"4","last_reported":1749550280,"current_range_meters":17600,"station_id":"ce4bhh92rcd13ifvqfi0","pricing_plan_id":"cebpf4jnsgd1na2vs0mg"},{"bike_id":"1acfb620-cad7-48c0-8901-d7a5b74a5b65","system_id":"levelo_inurba_marseille","lat":43.33751,"lon":5.37456,"is_reserved":false,"is_disabled":false,"rental_uris":{"android":"levelo://app?vid=1acfb620-cad7-48c0-8901-d7a5b74a5b65","ios":"levelo://app?vid=1acfb620-cad7-48c0-8901-d7a5b74a5b65"},"vehicle_type_id":"4","last_reported":1749550280,"current_range_meters":17600,"station_id":"","pricing_plan_id":"cebpf4jnsgd1na2vs0mg"},{"bike_id":"d7671809-ada6-41d9-87af-f8ce6de72169","system_id":"levelo_inurba_marseille","lat":43.27366,"lon":5.36244,"is_reserved":false,"is_disabled":false,"rental_uris":{"android":"levelo://app?vid=d7671809-ada6-41d9-87af-f8ce6de72169","ios":"levelo://app?vid=d7671809-ada6-41d9-87af-f8ce6de72169"},"vehicle_type_id":"4","last_reported":1749550280,"current_range_meters":18000,"station_id":"ce4bhbh2rcd13ifvqeo0","pricing_plan_id":"cebpf4jnsgd1na2vs0mg"},{"bike_id":"7722e534-bd57-43ff-88e0-47a2e003863a","system_id":"levelo_inurba_marseille","lat":43.2621,"lon":5.37453,"is_reserved":false,"is_disabled":false,"rental_uris":{"android":"levelo://app?vid=7722e534-bd57-43ff-88e0-47a2e003863a","ios":"levelo://app?vid=7722e534-bd57-43ff-88e0-47a2e003863a"},"vehicle_type_id":"4","last_reported":1749550280,"current_range_meters":18000,"station_id":"ce4bhgp2rcd13ifvqfc0","pricing_plan_id":"cebpf4jnsgd1na2vs0mg"},{"bike_id":"760f2cd3-d191-4b99-8f3d-0d7454dcacc1","system_id":"levelo_inurba_marseille","lat":43.28706,"lon":5.37386,"is_reserved":false,"is_disabled":false,"rental_uris":{"android":"levelo://app?vid=760f2cd3-d191-4b99-8f3d-0d7454dcacc1","ios":"levelo://app?vid=760f2cd3-d191-4b99-8f3d-0d7454dcacc1"},"vehicle_type_id":"4","last_reported":1749550280,"current_range_meters":18000,"station_id":"ce4bh3p2rcd13ifvqdq0","pricing_plan_id":"cebpf4jnsgd1na2vs0mg"},{"bike_id":"4bbb660e-24a2-4cc0-b894-3d0acf500b62","system_id":"levelo_inurba_marseille","lat":43.29414,"lon":5.3861,"is_reserved":false,"is_disabled":false,"rental_uris":{"android":"levelo://app?vid=4bbb660e-24a2-4cc0-b894-3d0acf500b62","ios":"levelo://app?vid=4bbb660e-24a2-4cc0-b894-3d0acf500b62"},"vehicle_type_id":"4","last_reported":1749550280,"current_range_meters":18000,"station_id":"ce4bh2h2rcd13ifvqdh0","pricing_plan_id":"cebpf4jnsgd1na2vs0mg"},{"bike_id":"624f3f6d-7b56-476a-8281-6f4ee94cf8e9","system_id":"levelo_inurba_marseille","lat":43.26566,"lon":5.39007,"is_reserved":false,"is_disabled":false,"rental_uris":{"android":"levelo://app?vid=624f3f6d-7b56-476a-8281-6f4ee94cf8e9","ios":"levelo://app?vid=624f3f6d-7b56-476a-8281-6f4ee94cf8e9"},"vehicle_type_id":"4","last_reported":1749550280,"current_range_meters":18000,"station_id":"ce4bhe12rcd13ifvqf30","pricing_plan_id":"cebpf4jnsgd1na2vs0mg"},{"bike_id":"4497bc7b-bd64-47d5-92de-a3021c6fff2f","system_id":"levelo_inurba_marseille","lat":43.32466,"lon":5.36577,"is_reserved":false,"is_disabled":false,"rental_uris":{"android":"levelo://app?vid=4497bc7b-bd64-47d5-92de-a3021c6fff2f","ios":"levelo://app?vid=4497bc7b-bd64-47d5-92de-a3021c6fff2f"},"vehicle_type_id":"4","last_reported":1749550280,"current_range_meters":18000,"station_id":"ce4bhs12rcd13ifvqhvg","pricing_plan_id":"cebpf4jnsgd1na2vs0mg"},{"bike_id":"4f277a40-c562-419c-82d0-1686b6d2030f","system_id":"levelo_inurba_marseille","lat":43.28415,"lon":5.3499,"is_reserved":false,"is_disabled":false,"rental_uris":{"android":"levelo://app?vid=4f277a40-c562-419c-82d0-1686b6d2030f","ios":"levelo://app?vid=4f277a40-c562-419c-82d0-1686b6d2030f"},"vehicle_type_id":"4","last_reported":1749550280,"current_range_meters":18000,"station_id":"ce4bhbh2rcd13ifvqepg","pricing_plan_id":"cebpf4jnsgd1na2vs0mg"},{"bike_id":"f6a61804-330d-4f30-8fcc-2bb88b5a7142","system_id":"levelo_inurba_marseille","lat":43.25764,"lon":5.41082,"is_reserved":false,"is_disabled":false,"rental_uris":{"android":"levelo://app?vid=f6a61804-330d-4f30-8fcc-2bb88b5a7142","ios":"levelo://app?vid=f6a61804-330d-4f30-8fcc-2bb88b5a7142"},"vehicle_type_id":"4","last_reported":1749550280,"current_range_meters":18000,"station_id":"","pricing_plan_id":"cebpf4jnsgd1na2vs0mg"},{"bike_id":"e9ace29f-678e-469a-b37f-fc4b5c7410e7","system_id":"levelo_inurba_marseille","lat":43.27373,"lon":5.36258,"is_reserved":false,"is_disabled":false,"rental_uris":{"android":"levelo://app?vid=e9ace29f-678e-469a-b37f-fc4b5c7410e7","ios":"levelo://app?vid=e9ace29f-678e-469a-b37f-fc4b5c7410e7"},"vehicle_type_id":"4","last_reported":1749550280,"current_range_meters":18000,"station_id":"ce4bhbh2rcd13ifvqeo0","pricing_plan_id":"cebpf4jnsgd1na2vs0mg"},{"bike_id":"f53bc08c-3129-4fc3-9174-862ec7b43c8b","system_id":"levelo_inurba_marseille","lat":43.28265,"lon":5.35059,"is_reserved":false,"is_disabled":false,"rental_uris":{"android":"levelo://app?vid=f53bc08c-3129-4fc3-9174-862ec7b43c8b","ios":"levelo://app?vid=f53bc08c-3129-4fc3-9174-862ec7b43c8b"},"vehicle_type_id":"4","last_reported":1749550280,"current_range_meters":18800,"station_id":"ce4bhbp2rcd13ifvqerg","pricing_plan_id":"cebpf4jnsgd1na2vs0mg"},{"bike_id":"8a00b287-d1a7-4202-afdd-a24298546915","system_id":"levelo_inurba_marseille","lat":43.30244,"lon":5.40058,"is_reserved":false,"is_disabled":false,"rental_uris":{"android":"levelo://app?vid=8a00b287-d1a7-4202-afdd-a24298546915","ios":"levelo://app?vid=8a00b287-d1a7-4202-afdd-a24298546915"},"vehicle_type_id":"4","last_reported":1749550280,"current_range_meters":18800,"station_id":"ce4bgvh2rcd13ifvqcs0","pricing_plan_id":"cebpf4jnsgd1na2vs0mg"},{"bike_id":"72c1ffbe-b6ca-406d-960d-a9616882f308","system_id":"levelo_inurba_marseille","lat":43.24193,"lon":5.39731,"is_reserved":false,"is_disabled":false,"rental_uris":{"android":"levelo://app?vid=72c1ffbe-b6ca-406d-960d-a9616882f308","ios":"levelo://app?vid=72c1ffbe-b6ca-406d-960d-a9616882f308"},"vehicle_type_id":"4","last_reported":1749550280,"current_range_meters":18800,"station_id":"ce4bhn12rcd13ifvqgpg","pricing_plan_id":"cebpf4jnsgd1na2vs0mg"},{"bike_id":"cff174c6-6ba3-44b0-a9d2-aee572f9c64a","system_id":"levelo_inurba_marseille","lat":43.29719,"lon":5.3612,"is_reserved":false,"is_disabled":true,"rental_uris":{"android":"levelo://app?vid=cff174c6-6ba3-44b0-a9d2-aee572f9c64a","ios":"levelo://app?vid=cff174c6-6ba3-44b0-a9d2-aee572f9c64a"},"vehicle_type_id":"4","last_reported":1749550280,"current_range_meters":18800,"station_id":"","pricing_plan_id":"cebpf4jnsgd1na2vs0mg"},{"bike_id":"61c3047c-933c-413d-91fb-0a1b2df9ed6e","system_id":"levelo_inurba_marseille","lat":43.29939,"lon":5.36535,"is_reserved":false,"is_disabled":false,"rental_uris":{"android":"levelo://app?vid=61c3047c-933c-413d-91fb-0a1b2df9ed6e","ios":"levelo://app?vid=61c3047c-933c-413d-91fb-0a1b2df9ed6e"},"vehicle_type_id":"4","last_reported":1749550280,"current_range_meters":18800,"station_id":"ce4bgm92rcd13ifvqbr0","pricing_plan_id":"cebpf4jnsgd1na2vs0mg"},{"bike_id":"0c2cd831-dce1-4444-b808-d346232c5b6b","system_id":"levelo_inurba_marseille","lat":43.26216,"lon":5.37441,"is_reserved":false,"is_disabled":false,"rental_uris":{"android":"levelo://app?vid=0c2cd831-dce1-4444-b808-d346232c5b6b","ios":"levelo://app?vid=0c2cd831-dce1-4444-b808-d346232c5b6b"},"vehicle_type_id":"4","last_reported":1749550280,"current_range_meters":19200,"station_id":"ce4bhgp2rcd13ifvqfc0","pricing_plan_id":"cebpf4jnsgd1na2vs0mg"},{"bike_id":"0a61a83d-30f6-461d-afb3-c145799620b8","system_id":"levelo_inurba_marseille","lat":43.3246,"lon":5.36573,"is_reserved":false,"is_disabled":false,"rental_uris":{"android":"levelo://app?vid=0a61a83d-30f6-461d-afb3-c145799620b8","ios":"levelo://app?vid=0a61a83d-30f6-461d-afb3-c145799620b8"},"vehicle_type_id":"4","last_reported":1749550280,"current_range_meters":19200,"station_id":"ce4bhs12rcd13ifvqhvg","pricing_plan_id":"cebpf4jnsgd1na2vs0mg"},{"bike_id":"9b10b8df-6216-45be-916a-17e350e2c08b","system_id":"levelo_inurba_marseille","lat":43.28262,"lon":5.35066,"is_reserved":false,"is_disabled":false,"rental_uris":{"android":"levelo://app?vid=9b10b8df-6216-45be-916a-17e350e2c08b","ios":"levelo://app?vid=9b10b8df-6216-45be-916a-17e350e2c08b"},"vehicle_type_id":"4","last_reported":1749550280,"current_range_meters":19200,"station_id":"ce4bhbp2rcd13ifvqerg","pricing_plan_id":"cebpf4jnsgd1na2vs0mg"},{"bike_id":"25a4c875-602e-485b-a883-bfff2f4afc41","system_id":"levelo_inurba_marseille","lat":43.28419,"lon":5.34986,"is_reserved":false,"is_disabled":false,"rental_uris":{"android":"levelo://app?vid=25a4c875-602e-485b-a883-bfff2f4afc41","ios":"levelo://app?vid=25a4c875-602e-485b-a883-bfff2f4afc41"},"vehicle_type_id":"4","last_reported":1749550280,"current_range_meters":19200,"station_id":"ce4bhbh2rcd13ifvqepg","pricing_plan_id":"cebpf4jnsgd1na2vs0mg"},{"bike_id":"4cb78e2c-8e63-4812-81ef-1980f9de8b37","system_id":"levelo_inurba_marseille","lat":43.32389,"lon":5.38923,"is_reserved":false,"is_disabled":false,"rental_uris":{"android":"levelo://app?vid=4cb78e2c-8e63-4812-81ef-1980f9de8b37","ios":"levelo://app?vid=4cb78e2c-8e63-4812-81ef-1980f9de8b37"},"vehicle_type_id":"4","last_reported":1749550280,"current_range_meters":19200,"station_id":"ce4bhqp2rcd13ifvqhog","pricing_plan_id":"cebpf4jnsgd1na2vs0mg"},{"bike_id":"e85c2c6e-6986-4a93-bf0f-808d2d8ea1f6","system_id":"levelo_inurba_marseille","lat":43.31759,"lon":5.39018,"is_reserved":false,"is_disabled":false,"rental_uris":{"android":"levelo://app?vid=e85c2c6e-6986-4a93-bf0f-808d2d8ea1f6","ios":"levelo://app?vid=e85c2c6e-6986-4a93-bf0f-808d2d8ea1f6"},"vehicle_type_id":"4","last_reported":1749550280,"current_range_meters":19200,"station_id":"ce4bhqp2rcd13ifvqhng","pricing_plan_id":"cebpf4jnsgd1na2vs0mg"},{"bike_id":"c24128ee-cd14-41fb-849a-bbed2f9cd4b1","system_id":"levelo_inurba_marseille","lat":43.31484,"lon":5.37302,"is_reserved":false,"is_disabled":false,"rental_uris":{"android":"levelo://app?vid=c24128ee-cd14-41fb-849a-bbed2f9cd4b1","ios":"levelo://app?vid=c24128ee-cd14-41fb-849a-bbed2f9cd4b1"},"vehicle_type_id":"4","last_reported":1749550280,"current_range_meters":19200,"station_id":"ce4bgt12rcd13ifvqcd0","pricing_plan_id":"cebpf4jnsgd1na2vs0mg"},{"bike_id":"314bac2c-e47f-46cd-afcd-53cd84a7d142","system_id":"levelo_inurba_marseille","lat":43.27617,"lon":5.361,"is_reserved":false,"is_disabled":true,"rental_uris":{"android":"levelo://app?vid=314bac2c-e47f-46cd-afcd-53cd84a7d142","ios":"levelo://app?vid=314bac2c-e47f-46cd-afcd-53cd84a7d142"},"vehicle_type_id":"4","last_reported":1749550280,"current_range_meters":19200,"station_id":"ce4bgj92rcd13ifvqbe0","pricing_plan_id":"cebpf4jnsgd1na2vs0mg"},{"bike_id":"e93073ab-c17c-467a-b540-f93334fc1a8a","system_id":"levelo_inurba_marseille","lat":43.21187,"lon":5.35064,"is_reserved":false,"is_disabled":true,"rental_uris":{"android":"levelo://app?vid=e93073ab-c17c-467a-b540-f93334fc1a8a","ios":"levelo://app?vid=e93073ab-c17c-467a-b540-f93334fc1a8a"},"vehicle_type_id":"4","last_reported":1749550280,"current_range_meters":19200,"station_id":"","pricing_plan_id":"cebpf4jnsgd1na2vs0mg"},{"bike_id":"9e2594c6-125b-4b5c-96ba-31a7ebd8b638","system_id":"levelo_inurba_marseille","lat":43.28454,"lon":5.35899,"is_reserved":false,"is_disabled":false,"rental_uris":{"android":"levelo://app?vid=9e2594c6-125b-4b5c-96ba-31a7ebd8b638","ios":"levelo://app?vid=9e2594c6-125b-4b5c-96ba-31a7ebd8b638"},"vehicle_type_id":"4","last_reported":1749550280,"current_range_meters":19600,"station_id":"ce4bhah2rcd13ifvqei0","pricing_plan_id":"cebpf4jnsgd1na2vs0mg"},{"bike_id":"63e40138-141f-4768-876a-d09ed0ddb6e8","system_id":"levelo_inurba_marseille","lat":43.28622,"lon":5.35096,"is_reserved":false,"is_disabled":false,"rental_uris":{"android":"levelo://app?vid=63e40138-141f-4768-876a-d09ed0ddb6e8","ios":"levelo://app?vid=63e40138-141f-4768-876a-d09ed0ddb6e8"},"vehicle_type_id":"4","last_reported":1749550280,"current_range_meters":19600,"station_id":"ce4bhch2rcd13ifvqeug","pricing_plan_id":"cebpf4jnsgd1na2vs0mg"},{"bike_id":"d964114e-b0c8-4795-b1ca-f80f88349e42","system_id":"levelo_inurba_marseille","lat":43.2992,"lon":5.37475,"is_reserved":false,"is_disabled":false,"rental_uris":{"android":"levelo://app?vid=d964114e-b0c8-4795-b1ca-f80f88349e42","ios":"levelo://app?vid=d964114e-b0c8-4795-b1ca-f80f88349e42"},"vehicle_type_id":"4","last_reported":1749550280,"current_range_meters":19600,"station_id":"ce4bgjh2rcd13ifvqbg0","pricing_plan_id":"cebpf4jnsgd1na2vs0mg"},{"bike_id":"d6005db3-520a-4475-a5f6-8ec57777fe80","system_id":"levelo_inurba_marseille","lat":43.32295,"lon":5.38272,"is_reserved":false,"is_disabled":false,"rental_uris":{"android":"levelo://app?vid=d6005db3-520a-4475-a5f6-8ec57777fe80","ios":"levelo://app?vid=d6005db3-520a-4475-a5f6-8ec57777fe80"},"vehicle_type_id":"4","last_reported":1749550280,"current_range_meters":19600,"station_id":"ce4bhr12rcd13ifvqhqg","pricing_plan_id":"cebpf4jnsgd1na2vs0mg"},{"bike_id":"3b096210-825d-41ec-9777-ddc6f401a9f2","system_id":"levelo_inurba_marseille","lat":43.2957,"lon":5.36733,"is_reserved":false,"is_disabled":false,"rental_uris":{"android":"levelo://app?vid=3b096210-825d-41ec-9777-ddc6f401a9f2","ios":"levelo://app?vid=3b096210-825d-41ec-9777-ddc6f401a9f2"},"vehicle_type_id":"4","last_reported":1749550280,"current_range_meters":20000,"station_id":"ce4bgph2rcd13ifvqc2g","pricing_plan_id":"cebpf4jnsgd1na2vs0mg"},{"bike_id":"a2421370-e442-436f-a98a-844d44299694","system_id":"levelo_inurba_marseille","lat":43.32358,"lon":5.36747,"is_reserved":false,"is_disabled":false,"rental_uris":{"android":"levelo://app?vid=a2421370-e442-436f-a98a-844d44299694","ios":"levelo://app?vid=a2421370-e442-436f-a98a-844d44299694"},"vehicle_type_id":"4","last_reported":1749550280,"current_range_meters":20000,"station_id":"ce4bhsh2rcd13ifvqi2g","pricing_plan_id":"cebpf4jnsgd1na2vs0mg"},{"bike_id":"862302de-32c5-43b7-89e9-d8e52ce74aa1","system_id":"levelo_inurba_marseille","lat":43.26939,"lon":5.4026,"is_reserved":false,"is_disabled":false,"rental_uris":{"android":"levelo://app?vid=862302de-32c5-43b7-89e9-d8e52ce74aa1","ios":"levelo://app?vid=862302de-32c5-43b7-89e9-d8e52ce74aa1"},"vehicle_type_id":"4","last_reported":1749550280,"current_range_meters":20000,"station_id":"cjm6bp8fraef2m0cb0m0","pricing_plan_id":"cebpf4jnsgd1na2vs0mg"},{"bike_id":"4c6626b9-ed32-4d33-959e-bd5b3ccbf771","system_id":"levelo_inurba_marseille","lat":43.275782,"lon":5.384242,"is_reserved":false,"is_disabled":false,"rental_uris":{"android":"levelo://app?vid=4c6626b9-ed32-4d33-959e-bd5b3ccbf771","ios":"levelo://app?vid=4c6626b9-ed32-4d33-959e-bd5b3ccbf771"},"vehicle_type_id":"4","last_reported":1749550280,"current_range_meters":20000,"station_id":"ce4bhh92rcd13ifvqfi0","pricing_plan_id":"cebpf4jnsgd1na2vs0mg"},{"bike_id":"456fd0fb-6b00-49e3-944b-55516afdf508","system_id":"levelo_inurba_marseille","lat":43.28276,"lon":5.35063,"is_reserved":false,"is_disabled":false,"rental_uris":{"android":"levelo://app?vid=456fd0fb-6b00-49e3-944b-55516afdf508","ios":"levelo://app?vid=456fd0fb-6b00-49e3-944b-55516afdf508"},"vehicle_type_id":"4","last_reported":1749550280,"current_range_meters":20000,"station_id":"ce4bhbp2rcd13ifvqerg","pricing_plan_id":"cebpf4jnsgd1na2vs0mg"},{"bike_id":"f3059ad2-e6ea-4b81-9530-2c95797bed9e","system_id":"levelo_inurba_marseille","lat":43.29271,"lon":5.38426,"is_reserved":false,"is_disabled":false,"rental_uris":{"android":"levelo://app?vid=f3059ad2-e6ea-4b81-9530-2c95797bed9e","ios":"levelo://app?vid=f3059ad2-e6ea-4b81-9530-2c95797bed9e"},"vehicle_type_id":"4","last_reported":1749550280,"current_range_meters":20000,"station_id":"ce4bh692rcd13ifvqea0","pricing_plan_id":"cebpf4jnsgd1na2vs0mg"},{"bike_id":"a8981b3d-484f-4c6f-b49b-9aa1aa6f8c78","system_id":"levelo_inurba_marseille","lat":43.2988,"lon":5.38909,"is_reserved":false,"is_disabled":false,"rental_uris":{"android":"levelo://app?vid=a8981b3d-484f-4c6f-b49b-9aa1aa6f8c78","ios":"levelo://app?vid=a8981b3d-484f-4c6f-b49b-9aa1aa6f8c78"},"vehicle_type_id":"4","last_reported":1749550280,"current_range_meters":20000,"station_id":"ce4bh392rcd13ifvqdl0","pricing_plan_id":"cebpf4jnsgd1na2vs0mg"},{"bike_id":"f8eba5d3-af65-4c73-823d-1a3091e2f8e6","system_id":"levelo_inurba_marseille","lat":43.30352,"lon":5.41873,"is_reserved":false,"is_disabled":false,"rental_uris":{"android":"levelo://app?vid=f8eba5d3-af65-4c73-823d-1a3091e2f8e6","ios":"levelo://app?vid=f8eba5d3-af65-4c73-823d-1a3091e2f8e6"},"vehicle_type_id":"4","last_reported":1749550280,"current_range_meters":20000,"station_id":"ce4bhop2rcd13ifvqh7g","pricing_plan_id":"cebpf4jnsgd1na2vs0mg"},{"bike_id":"1e1f7885-7a89-42b3-8e2d-ad30c32fe4c3","system_id":"levelo_inurba_marseille","lat":43.29416,"lon":5.38611,"is_reserved":false,"is_disabled":true,"rental_uris":{"android":"levelo://app?vid=1e1f7885-7a89-42b3-8e2d-ad30c32fe4c3","ios":"levelo://app?vid=1e1f7885-7a89-42b3-8e2d-ad30c32fe4c3"},"vehicle_type_id":"4","last_reported":1749550280,"current_range_meters":20000,"station_id":"ce4bh2h2rcd13ifvqdh0","pricing_plan_id":"cebpf4jnsgd1na2vs0mg"},{"bike_id":"5055556c-aa6d-493f-b56b-cad2c0029768","system_id":"levelo_inurba_marseille","lat":43.29797,"lon":5.404,"is_reserved":false,"is_disabled":false,"rental_uris":{"android":"levelo://app?vid=5055556c-aa6d-493f-b56b-cad2c0029768","ios":"levelo://app?vid=5055556c-aa6d-493f-b56b-cad2c0029768"},"vehicle_type_id":"4","last_reported":1749550280,"current_range_meters":20000,"station_id":"ce4bh112rcd13ifvqd90","pricing_plan_id":"cebpf4jnsgd1na2vs0mg"},{"bike_id":"ed7c8074-7b8a-462c-a783-65696e69e889","system_id":"levelo_inurba_marseille","lat":43.30274,"lon":5.37703,"is_reserved":false,"is_disabled":false,"rental_uris":{"android":"levelo://app?vid=ed7c8074-7b8a-462c-a783-65696e69e889","ios":"levelo://app?vid=ed7c8074-7b8a-462c-a783-65696e69e889"},"vehicle_type_id":"4","last_reported":1749550280,"current_range_meters":20000,"station_id":"ce4bguh2rcd13ifvqcj0","pricing_plan_id":"cebpf4jnsgd1na2vs0mg"},{"bike_id":"32b0a7c2-1f42-4346-ae2f-5210dc629ddc","system_id":"levelo_inurba_marseille","lat":43.27064,"lon":5.40258,"is_reserved":false,"is_disabled":false,"rental_uris":{"android":"levelo://app?vid=32b0a7c2-1f42-4346-ae2f-5210dc629ddc","ios":"levelo://app?vid=32b0a7c2-1f42-4346-ae2f-5210dc629ddc"},"vehicle_type_id":"4","last_reported":1749550280,"current_range_meters":20000,"station_id":"ce4bhk92rcd13ifvqgc0","pricing_plan_id":"cebpf4jnsgd1na2vs0mg"},{"bike_id":"3cb45e3c-b8fc-49f9-9598-959763e10c69","system_id":"levelo_inurba_marseille","lat":43.25084,"lon":5.39518,"is_reserved":false,"is_disabled":false,"rental_uris":{"android":"levelo://app?vid=3cb45e3c-b8fc-49f9-9598-959763e10c69","ios":"levelo://app?vid=3cb45e3c-b8fc-49f9-9598-959763e10c69"},"vehicle_type_id":"4","last_reported":1749550280,"current_range_meters":20000,"station_id":"ce4bhm12rcd13ifvqgkg","pricing_plan_id":"cebpf4jnsgd1na2vs0mg"},{"bike_id":"0509747e-8e83-44e0-a642-c1bc88d90254","system_id":"levelo_inurba_marseille","lat":43.21189,"lon":5.35067,"is_reserved":false,"is_disabled":false,"rental_uris":{"android":"levelo://app?vid=0509747e-8e83-44e0-a642-c1bc88d90254","ios":"levelo://app?vid=0509747e-8e83-44e0-a642-c1bc88d90254"},"vehicle_type_id":"4","last_reported":1749550280,"current_range_meters":20000,"station_id":"st_cvj6sg6p6f1abm77japg","pricing_plan_id":"cebpf4jnsgd1na2vs0mg"},{"bike_id":"4ad4ad44-a1c0-4403-8c93-a8a90e4c0e56","system_id":"levelo_inurba_marseille","lat":43.28485,"lon":5.38559,"is_reserved":false,"is_disabled":false,"rental_uris":{"android":"levelo://app?vid=4ad4ad44-a1c0-4403-8c93-a8a90e4c0e56","ios":"levelo://app?vid=4ad4ad44-a1c0-4403-8c93-a8a90e4c0e56"},"vehicle_type_id":"4","last_reported":1749550280,"current_range_meters":20400,"station_id":"ce4bh8p2rcd13ifvqeb0","pricing_plan_id":"cebpf4jnsgd1na2vs0mg"},{"bike_id":"4791d8c6-61ac-4062-9d0d-84d5cf0d80d7","system_id":"levelo_inurba_marseille","lat":43.26221,"lon":5.40439,"is_reserved":false,"is_disabled":true,"rental_uris":{"android":"levelo://app?vid=4791d8c6-61ac-4062-9d0d-84d5cf0d80d7","ios":"levelo://app?vid=4791d8c6-61ac-4062-9d0d-84d5cf0d80d7"},"vehicle_type_id":"4","last_reported":1749550280,"current_range_meters":20400,"station_id":"ce4bhmh2rcd13ifvqgmg","pricing_plan_id":"cebpf4jnsgd1na2vs0mg"},{"bike_id":"ea70cfcf-a0b4-4263-ade9-99779399be9f","system_id":"levelo_inurba_marseille","lat":43.29631,"lon":5.37165,"is_reserved":false,"is_disabled":false,"rental_uris":{"android":"levelo://app?vid=ea70cfcf-a0b4-4263-ade9-99779399be9f","ios":"levelo://app?vid=ea70cfcf-a0b4-4263-ade9-99779399be9f"},"vehicle_type_id":"4","last_reported":1749550280,"current_range_meters":20400,"station_id":"ce4bgnh2rcd13ifvqc0g","pricing_plan_id":"cebpf4jnsgd1na2vs0mg"},{"bike_id":"8bdd603f-2e2b-4b21-9b8a-8ccc725d6316","system_id":"levelo_inurba_marseille","lat":43.28282,"lon":5.35076,"is_reserved":false,"is_disabled":false,"rental_uris":{"android":"levelo://app?vid=8bdd603f-2e2b-4b21-9b8a-8ccc725d6316","ios":"levelo://app?vid=8bdd603f-2e2b-4b21-9b8a-8ccc725d6316"},"vehicle_type_id":"4","last_reported":1749550280,"current_range_meters":20400,"station_id":"ce4bhbp2rcd13ifvqerg","pricing_plan_id":"cebpf4jnsgd1na2vs0mg"},{"bike_id":"a14d9009-3ab8-4ff6-be66-08d83900e22d","system_id":"levelo_inurba_marseille","lat":43.29609,"lon":5.38104,"is_reserved":false,"is_disabled":false,"rental_uris":{"android":"levelo://app?vid=a14d9009-3ab8-4ff6-be66-08d83900e22d","ios":"levelo://app?vid=a14d9009-3ab8-4ff6-be66-08d83900e22d"},"vehicle_type_id":"4","last_reported":1749550280,"current_range_meters":20000,"station_id":"ce4bgl12rcd13ifvqbo0","pricing_plan_id":"cebpf4jnsgd1na2vs0mg"},{"bike_id":"184f97e5-27c3-4c49-a973-ca3b6f3254c4","system_id":"levelo_inurba_marseille","lat":43.30956,"lon":5.39037,"is_reserved":false,"is_disabled":false,"rental_uris":{"android":"levelo://app?vid=184f97e5-27c3-4c49-a973-ca3b6f3254c4","ios":"levelo://app?vid=184f97e5-27c3-4c49-a973-ca3b6f3254c4"},"vehicle_type_id":"4","last_reported":1749550280,"current_range_meters":20800,"station_id":"ce4bgup2rcd13ifvqco0","pricing_plan_id":"cebpf4jnsgd1na2vs0mg"},{"bike_id":"df14e8f0-0918-4da6-a805-a2155daa06d2","system_id":"levelo_inurba_marseille","lat":43.32287,"lon":5.38272,"is_reserved":false,"is_disabled":false,"rental_uris":{"android":"levelo://app?vid=df14e8f0-0918-4da6-a805-a2155daa06d2","ios":"levelo://app?vid=df14e8f0-0918-4da6-a805-a2155daa06d2"},"vehicle_type_id":"4","last_reported":1749550280,"current_range_meters":20800,"station_id":"ce4bhr12rcd13ifvqhqg","pricing_plan_id":"cebpf4jnsgd1na2vs0mg"},{"bike_id":"a530e156-1f3a-4efb-bc71-33a33efbad32","system_id":"levelo_inurba_marseille","lat":43.25932,"lon":5.40904,"is_reserved":false,"is_disabled":false,"rental_uris":{"android":"levelo://app?vid=a530e156-1f3a-4efb-bc71-33a33efbad32","ios":"levelo://app?vid=a530e156-1f3a-4efb-bc71-33a33efbad32"},"vehicle_type_id":"4","last_reported":1749550280,"current_range_meters":20800,"station_id":"ce4bhm92rcd13ifvqglg","pricing_plan_id":"cebpf4jnsgd1na2vs0mg"},{"bike_id":"f10adc7e-6a3a-4a5d-9515-dc52fefe2058","system_id":"levelo_inurba_marseille","lat":43.32363,"lon":5.36783,"is_reserved":false,"is_disabled":false,"rental_uris":{"android":"levelo://app?vid=f10adc7e-6a3a-4a5d-9515-dc52fefe2058","ios":"levelo://app?vid=f10adc7e-6a3a-4a5d-9515-dc52fefe2058"},"vehicle_type_id":"4","last_reported":1749550280,"current_range_meters":20800,"station_id":"ce4bhsh2rcd13ifvqi2g","pricing_plan_id":"cebpf4jnsgd1na2vs0mg"},{"bike_id":"3a2f8f35-7ccd-4ecf-9ddb-a3e32daa6b59","system_id":"levelo_inurba_marseille","lat":43.26211,"lon":5.37439,"is_reserved":false,"is_disabled":false,"rental_uris":{"android":"levelo://app?vid=3a2f8f35-7ccd-4ecf-9ddb-a3e32daa6b59","ios":"levelo://app?vid=3a2f8f35-7ccd-4ecf-9ddb-a3e32daa6b59"},"vehicle_type_id":"4","last_reported":1749550280,"current_range_meters":20800,"station_id":"ce4bhgp2rcd13ifvqfc0","pricing_plan_id":"cebpf4jnsgd1na2vs0mg"},{"bike_id":"6449d12f-e1bc-48dd-a5e4-e5d8f6d4cd0b","system_id":"levelo_inurba_marseille","lat":43.27578,"lon":5.3842,"is_reserved":false,"is_disabled":false,"rental_uris":{"android":"levelo://app?vid=6449d12f-e1bc-48dd-a5e4-e5d8f6d4cd0b","ios":"levelo://app?vid=6449d12f-e1bc-48dd-a5e4-e5d8f6d4cd0b"},"vehicle_type_id":"4","last_reported":1749550280,"current_range_meters":20800,"station_id":"ce4bhh92rcd13ifvqfi0","pricing_plan_id":"cebpf4jnsgd1na2vs0mg"},{"bike_id":"e4adc4c4-5aca-42c6-8cbd-1b62e2d8d755","system_id":"levelo_inurba_marseille","lat":43.27048,"lon":5.40262,"is_reserved":false,"is_disabled":false,"rental_uris":{"android":"levelo://app?vid=e4adc4c4-5aca-42c6-8cbd-1b62e2d8d755","ios":"levelo://app?vid=e4adc4c4-5aca-42c6-8cbd-1b62e2d8d755"},"vehicle_type_id":"4","last_reported":1749550280,"current_range_meters":20800,"station_id":"ce4bhk92rcd13ifvqgc0","pricing_plan_id":"cebpf4jnsgd1na2vs0mg"},{"bike_id":"590eca34-aa64-4f37-9160-5df7996ccc96","system_id":"levelo_inurba_marseille","lat":43.27175,"lon":5.40992,"is_reserved":false,"is_disabled":false,"rental_uris":{"android":"levelo://app?vid=590eca34-aa64-4f37-9160-5df7996ccc96","ios":"levelo://app?vid=590eca34-aa64-4f37-9160-5df7996ccc96"},"vehicle_type_id":"4","last_reported":1749550280,"current_range_meters":20800,"station_id":"ce4bhl12rcd13ifvqgf0","pricing_plan_id":"cebpf4jnsgd1na2vs0mg"},{"bike_id":"3db8fde5-dc25-47f9-adb5-1429f5338e31","system_id":"levelo_inurba_marseille","lat":43.31744,"lon":5.38464,"is_reserved":false,"is_disabled":false,"rental_uris":{"android":"levelo://app?vid=3db8fde5-dc25-47f9-adb5-1429f5338e31","ios":"levelo://app?vid=3db8fde5-dc25-47f9-adb5-1429f5338e31"},"vehicle_type_id":"4","last_reported":1749550280,"current_range_meters":20800,"station_id":"","pricing_plan_id":"cebpf4jnsgd1na2vs0mg"},{"bike_id":"ba61ca2a-324e-4c5d-9dd2-36be1a45da9f","system_id":"levelo_inurba_marseille","lat":43.30543,"lon":5.36528,"is_reserved":false,"is_disabled":false,"rental_uris":{"android":"levelo://app?vid=ba61ca2a-324e-4c5d-9dd2-36be1a45da9f","ios":"levelo://app?vid=ba61ca2a-324e-4c5d-9dd2-36be1a45da9f"},"vehicle_type_id":"4","last_reported":1749550280,"current_range_meters":20800,"station_id":"ce4bgs12rcd13ifvqcag","pricing_plan_id":"cebpf4jnsgd1na2vs0mg"},{"bike_id":"8d55c32a-1045-4246-b6f3-046806e572ad","system_id":"levelo_inurba_marseille","lat":43.29227,"lon":5.36071,"is_reserved":false,"is_disabled":false,"rental_uris":{"android":"levelo://app?vid=8d55c32a-1045-4246-b6f3-046806e572ad","ios":"levelo://app?vid=8d55c32a-1045-4246-b6f3-046806e572ad"},"vehicle_type_id":"4","last_reported":1749550280,"current_range_meters":21600,"station_id":"ce4bhbh2rcd13ifvqeqg","pricing_plan_id":"cebpf4jnsgd1na2vs0mg"},{"bike_id":"f32d7909-c83f-4b88-a353-fd98078d5a91","system_id":"levelo_inurba_marseille","lat":43.29528,"lon":5.39403,"is_reserved":false,"is_disabled":false,"rental_uris":{"android":"levelo://app?vid=f32d7909-c83f-4b88-a353-fd98078d5a91","ios":"levelo://app?vid=f32d7909-c83f-4b88-a353-fd98078d5a91"},"vehicle_type_id":"4","last_reported":1749550280,"current_range_meters":21600,"station_id":"ce4bh292rcd13ifvqdf0","pricing_plan_id":"cebpf4jnsgd1na2vs0mg"},{"bike_id":"76b35b48-d299-4c6a-b351-64528344fa69","system_id":"levelo_inurba_marseille","lat":43.28653,"lon":5.38685,"is_reserved":false,"is_disabled":false,"rental_uris":{"android":"levelo://app?vid=76b35b48-d299-4c6a-b351-64528344fa69","ios":"levelo://app?vid=76b35b48-d299-4c6a-b351-64528344fa69"},"vehicle_type_id":"4","last_reported":1749550280,"current_range_meters":21600,"station_id":"ce4bh492rcd13ifvqdug","pricing_plan_id":"cebpf4jnsgd1na2vs0mg"},{"bike_id":"25faebf4-9c23-4836-ae99-e853d9942b75","system_id":"levelo_inurba_marseille","lat":43.287229,"lon":5.360873,"is_reserved":false,"is_disabled":false,"rental_uris":{"android":"levelo://app?vid=25faebf4-9c23-4836-ae99-e853d9942b75","ios":"levelo://app?vid=25faebf4-9c23-4836-ae99-e853d9942b75"},"vehicle_type_id":"4","last_reported":1749550280,"current_range_meters":21600,"station_id":"cki0cbj6b192h4jlfktg","pricing_plan_id":"cebpf4jnsgd1na2vs0mg"},{"bike_id":"ef671fc0-95e6-46c1-ba04-da11ccd6d327","system_id":"levelo_inurba_marseille","lat":43.259394,"lon":5.409061,"is_reserved":false,"is_disabled":false,"rental_uris":{"android":"levelo://app?vid=ef671fc0-95e6-46c1-ba04-da11ccd6d327","ios":"levelo://app?vid=ef671fc0-95e6-46c1-ba04-da11ccd6d327"},"vehicle_type_id":"4","last_reported":1749550280,"current_range_meters":21600,"station_id":"ce4bhm92rcd13ifvqglg","pricing_plan_id":"cebpf4jnsgd1na2vs0mg"},{"bike_id":"ee8317ea-9e0a-45ea-87d9-1dabc3f634bc","system_id":"levelo_inurba_marseille","lat":43.299965,"lon":5.39642,"is_reserved":false,"is_disabled":false,"rental_uris":{"android":"levelo://app?vid=ee8317ea-9e0a-45ea-87d9-1dabc3f634bc","ios":"levelo://app?vid=ee8317ea-9e0a-45ea-87d9-1dabc3f634bc"},"vehicle_type_id":"4","last_reported":1749550280,"current_range_meters":22000,"station_id":"ce4bh0h2rcd13ifvqd50","pricing_plan_id":"cebpf4jnsgd1na2vs0mg"},{"bike_id":"63f78d54-117d-4075-aac5-fb084c59229d","system_id":"levelo_inurba_marseille","lat":43.309334,"lon":5.401369,"is_reserved":false,"is_disabled":false,"rental_uris":{"android":"levelo://app?vid=63f78d54-117d-4075-aac5-fb084c59229d","ios":"levelo://app?vid=63f78d54-117d-4075-aac5-fb084c59229d"},"vehicle_type_id":"4","last_reported":1749550280,"current_range_meters":22000,"station_id":"ce4bgvp2rcd13ifvqct0","pricing_plan_id":"cebpf4jnsgd1na2vs0mg"},{"bike_id":"0d77e0b9-acd4-48b5-8646-ae85e6318140","system_id":"levelo_inurba_marseille","lat":43.28152,"lon":5.42638,"is_reserved":false,"is_disabled":true,"rental_uris":{"android":"levelo://app?vid=0d77e0b9-acd4-48b5-8646-ae85e6318140","ios":"levelo://app?vid=0d77e0b9-acd4-48b5-8646-ae85e6318140"},"vehicle_type_id":"4","last_reported":1749550280,"current_range_meters":22000,"station_id":"ce4bhnh2rcd13ifvqgug","pricing_plan_id":"cebpf4jnsgd1na2vs0mg"},{"bike_id":"e96652c2-4059-48ea-bfd1-f3086171d791","system_id":"levelo_inurba_marseille","lat":43.28929,"lon":5.36636,"is_reserved":false,"is_disabled":false,"rental_uris":{"android":"levelo://app?vid=e96652c2-4059-48ea-bfd1-f3086171d791","ios":"levelo://app?vid=e96652c2-4059-48ea-bfd1-f3086171d791"},"vehicle_type_id":"4","last_reported":1749550280,"current_range_meters":21600,"station_id":"ce4bhap2rcd13ifvqek0","pricing_plan_id":"cebpf4jnsgd1na2vs0mg"},{"bike_id":"dc138925-1266-4897-9256-f1d921dc9f4d","system_id":"levelo_inurba_marseille","lat":43.31493,"lon":5.37304,"is_reserved":false,"is_disabled":false,"rental_uris":{"android":"levelo://app?vid=dc138925-1266-4897-9256-f1d921dc9f4d","ios":"levelo://app?vid=dc138925-1266-4897-9256-f1d921dc9f4d"},"vehicle_type_id":"4","last_reported":1749550280,"current_range_meters":22000,"station_id":"ce4bgt12rcd13ifvqcd0","pricing_plan_id":"cebpf4jnsgd1na2vs0mg"},{"bike_id":"2bbf588e-1569-4ffb-aff1-d9c9494389fd","system_id":"levelo_inurba_marseille","lat":43.27492,"lon":5.42451,"is_reserved":false,"is_disabled":false,"rental_uris":{"android":"levelo://app?vid=2bbf588e-1569-4ffb-aff1-d9c9494389fd","ios":"levelo://app?vid=2bbf588e-1569-4ffb-aff1-d9c9494389fd"},"vehicle_type_id":"4","last_reported":1749550280,"current_range_meters":22000,"station_id":"ce4bhn92rcd13ifvqgrg","pricing_plan_id":"cebpf4jnsgd1na2vs0mg"},{"bike_id":"effba42f-3bab-498d-9b15-c198eb885d5f","system_id":"levelo_inurba_marseille","lat":43.292647,"lon":5.368428,"is_reserved":false,"is_disabled":false,"rental_uris":{"android":"levelo://app?vid=effba42f-3bab-498d-9b15-c198eb885d5f","ios":"levelo://app?vid=effba42f-3bab-498d-9b15-c198eb885d5f"},"vehicle_type_id":"4","last_reported":1749550280,"current_range_meters":22400,"station_id":"ce4bhbp2rcd13ifvqesg","pricing_plan_id":"cebpf4jnsgd1na2vs0mg"},{"bike_id":"2019038c-863c-40c7-9704-fe0935c8a017","system_id":"levelo_inurba_marseille","lat":43.21192,"lon":5.35067,"is_reserved":false,"is_disabled":false,"rental_uris":{"android":"levelo://app?vid=2019038c-863c-40c7-9704-fe0935c8a017","ios":"levelo://app?vid=2019038c-863c-40c7-9704-fe0935c8a017"},"vehicle_type_id":"4","last_reported":1749550280,"current_range_meters":22400,"station_id":"st_cvj6sg6p6f1abm77japg","pricing_plan_id":"cebpf4jnsgd1na2vs0mg"},{"bike_id":"c341d116-8e0e-41d1-b86a-5693c82e83d0","system_id":"levelo_inurba_marseille","lat":43.26802,"lon":5.40267,"is_reserved":false,"is_disabled":false,"rental_uris":{"android":"levelo://app?vid=c341d116-8e0e-41d1-b86a-5693c82e83d0","ios":"levelo://app?vid=c341d116-8e0e-41d1-b86a-5693c82e83d0"},"vehicle_type_id":"4","last_reported":1749550280,"current_range_meters":22400,"station_id":"ce501612rcd8frsf0b60","pricing_plan_id":"cebpf4jnsgd1na2vs0mg"},{"bike_id":"49558069-07cf-49e2-bb09-373c4aa07372","system_id":"levelo_inurba_marseille","lat":43.30936,"lon":5.40134,"is_reserved":false,"is_disabled":false,"rental_uris":{"android":"levelo://app?vid=49558069-07cf-49e2-bb09-373c4aa07372","ios":"levelo://app?vid=49558069-07cf-49e2-bb09-373c4aa07372"},"vehicle_type_id":"4","last_reported":1749550280,"current_range_meters":22400,"station_id":"ce4bgvp2rcd13ifvqct0","pricing_plan_id":"cebpf4jnsgd1na2vs0mg"},{"bike_id":"e8b1e94a-9ee7-4eb7-8948-e24cf27a8d22","system_id":"levelo_inurba_marseille","lat":43.30158,"lon":5.38088,"is_reserved":false,"is_disabled":false,"rental_uris":{"android":"levelo://app?vid=e8b1e94a-9ee7-4eb7-8948-e24cf27a8d22","ios":"levelo://app?vid=e8b1e94a-9ee7-4eb7-8948-e24cf27a8d22"},"vehicle_type_id":"4","last_reported":1749550280,"current_range_meters":22400,"station_id":"ce4bgjp2rcd13ifvqbh0","pricing_plan_id":"cebpf4jnsgd1na2vs0mg"},{"bike_id":"1af23d28-ee2b-4655-9104-9acdee5ccac1","system_id":"levelo_inurba_marseille","lat":43.26573,"lon":5.39032,"is_reserved":false,"is_disabled":false,"rental_uris":{"android":"levelo://app?vid=1af23d28-ee2b-4655-9104-9acdee5ccac1","ios":"levelo://app?vid=1af23d28-ee2b-4655-9104-9acdee5ccac1"},"vehicle_type_id":"4","last_reported":1749550280,"current_range_meters":22400,"station_id":"ce4bhe12rcd13ifvqf30","pricing_plan_id":"cebpf4jnsgd1na2vs0mg"},{"bike_id":"2ec42470-350a-46de-8574-76f46c56b208","system_id":"levelo_inurba_marseille","lat":43.27808,"lon":5.40711,"is_reserved":false,"is_disabled":false,"rental_uris":{"android":"levelo://app?vid=2ec42470-350a-46de-8574-76f46c56b208","ios":"levelo://app?vid=2ec42470-350a-46de-8574-76f46c56b208"},"vehicle_type_id":"4","last_reported":1749550280,"current_range_meters":22400,"station_id":"ce4bhnh2rcd13ifvqgtg","pricing_plan_id":"cebpf4jnsgd1na2vs0mg"},{"bike_id":"bb56e47b-94d5-442c-8abc-d0b5aab17271","system_id":"levelo_inurba_marseille","lat":43.30883,"lon":5.39643,"is_reserved":false,"is_disabled":false,"rental_uris":{"android":"levelo://app?vid=bb56e47b-94d5-442c-8abc-d0b5aab17271","ios":"levelo://app?vid=bb56e47b-94d5-442c-8abc-d0b5aab17271"},"vehicle_type_id":"4","last_reported":1749550280,"current_range_meters":22400,"station_id":"ce4bh012rcd13ifvqcv0","pricing_plan_id":"cebpf4jnsgd1na2vs0mg"},{"bike_id":"fa91c16e-8d10-4223-8240-b64601ac37e6","system_id":"levelo_inurba_marseille","lat":43.30333,"lon":5.40425,"is_reserved":false,"is_disabled":false,"rental_uris":{"android":"levelo://app?vid=fa91c16e-8d10-4223-8240-b64601ac37e6","ios":"levelo://app?vid=fa91c16e-8d10-4223-8240-b64601ac37e6"},"vehicle_type_id":"4","last_reported":1749550280,"current_range_meters":22400,"station_id":"ce4bh012rcd13ifvqd10","pricing_plan_id":"cebpf4jnsgd1na2vs0mg"},{"bike_id":"8bf46ca2-9a60-478e-8732-12f46d5f060a","system_id":"levelo_inurba_marseille","lat":43.26214,"lon":5.37435,"is_reserved":false,"is_disabled":false,"rental_uris":{"android":"levelo://app?vid=8bf46ca2-9a60-478e-8732-12f46d5f060a","ios":"levelo://app?vid=8bf46ca2-9a60-478e-8732-12f46d5f060a"},"vehicle_type_id":"4","last_reported":1749550280,"current_range_meters":22400,"station_id":"ce4bhgp2rcd13ifvqfc0","pricing_plan_id":"cebpf4jnsgd1na2vs0mg"},{"bike_id":"84c1b610-f2c0-4c96-acb0-a10a066e8dbd","system_id":"levelo_inurba_marseille","lat":43.28258,"lon":5.35059,"is_reserved":false,"is_disabled":false,"rental_uris":{"android":"levelo://app?vid=84c1b610-f2c0-4c96-acb0-a10a066e8dbd","ios":"levelo://app?vid=84c1b610-f2c0-4c96-acb0-a10a066e8dbd"},"vehicle_type_id":"4","last_reported":1749550280,"current_range_meters":22400,"station_id":"ce4bhbp2rcd13ifvqerg","pricing_plan_id":"cebpf4jnsgd1na2vs0mg"},{"bike_id":"1a7846b8-7da6-4fac-9773-09e26977d94d","system_id":"levelo_inurba_marseille","lat":43.29974,"lon":5.37177,"is_reserved":false,"is_disabled":false,"rental_uris":{"android":"levelo://app?vid=1a7846b8-7da6-4fac-9773-09e26977d94d","ios":"levelo://app?vid=1a7846b8-7da6-4fac-9773-09e26977d94d"},"vehicle_type_id":"4","last_reported":1749550280,"current_range_meters":22800,"station_id":"ce4bgr92rcd13ifvqc7g","pricing_plan_id":"cebpf4jnsgd1na2vs0mg"},{"bike_id":"131a22c5-2c23-41a1-8993-48538638085c","system_id":"levelo_inurba_marseille","lat":43.32112,"lon":5.36768,"is_reserved":false,"is_disabled":false,"rental_uris":{"android":"levelo://app?vid=131a22c5-2c23-41a1-8993-48538638085c","ios":"levelo://app?vid=131a22c5-2c23-41a1-8993-48538638085c"},"vehicle_type_id":"4","last_reported":1749550280,"current_range_meters":22800,"station_id":"ce4bhrh2rcd13ifvqhug","pricing_plan_id":"cebpf4jnsgd1na2vs0mg"},{"bike_id":"d3bb4de2-759b-4fe9-9525-da9f14e62788","system_id":"levelo_inurba_marseille","lat":43.25584,"lon":5.38228,"is_reserved":false,"is_disabled":false,"rental_uris":{"android":"levelo://app?vid=d3bb4de2-759b-4fe9-9525-da9f14e62788","ios":"levelo://app?vid=d3bb4de2-759b-4fe9-9525-da9f14e62788"},"vehicle_type_id":"4","last_reported":1749550280,"current_range_meters":22800,"station_id":"ce4bhih2rcd13ifvqfs0","pricing_plan_id":"cebpf4jnsgd1na2vs0mg"},{"bike_id":"f71ebf4d-280c-4fe3-bbd2-3b0012ce6577","system_id":"levelo_inurba_marseille","lat":43.337444,"lon":5.374475,"is_reserved":false,"is_disabled":true,"rental_uris":{"android":"levelo://app?vid=f71ebf4d-280c-4fe3-bbd2-3b0012ce6577","ios":"levelo://app?vid=f71ebf4d-280c-4fe3-bbd2-3b0012ce6577"},"vehicle_type_id":"4","last_reported":1749550280,"current_range_meters":22800,"station_id":"","pricing_plan_id":"cebpf4jnsgd1na2vs0mg"},{"bike_id":"74c64d16-96a5-4b21-8360-39a8f34d0b36","system_id":"levelo_inurba_marseille","lat":43.29801,"lon":5.38094,"is_reserved":false,"is_disabled":true,"rental_uris":{"android":"levelo://app?vid=74c64d16-96a5-4b21-8360-39a8f34d0b36","ios":"levelo://app?vid=74c64d16-96a5-4b21-8360-39a8f34d0b36"},"vehicle_type_id":"4","last_reported":1749550280,"current_range_meters":22800,"station_id":"ce4bgip2rcd13ifvqbb0","pricing_plan_id":"cebpf4jnsgd1na2vs0mg"},{"bike_id":"2d64a067-c886-45a0-81df-45a35b2f6a72","system_id":"levelo_inurba_marseille","lat":43.27374,"lon":5.36253,"is_reserved":false,"is_disabled":false,"rental_uris":{"android":"levelo://app?vid=2d64a067-c886-45a0-81df-45a35b2f6a72","ios":"levelo://app?vid=2d64a067-c886-45a0-81df-45a35b2f6a72"},"vehicle_type_id":"4","last_reported":1749550280,"current_range_meters":22800,"station_id":"ce4bhbh2rcd13ifvqeo0","pricing_plan_id":"cebpf4jnsgd1na2vs0mg"},{"bike_id":"aa5215d0-b8cf-41c7-b698-bf7551fb34ad","system_id":"levelo_inurba_marseille","lat":43.3171,"lon":5.40433,"is_reserved":false,"is_disabled":false,"rental_uris":{"android":"levelo://app?vid=aa5215d0-b8cf-41c7-b698-bf7551fb34ad","ios":"levelo://app?vid=aa5215d0-b8cf-41c7-b698-bf7551fb34ad"},"vehicle_type_id":"4","last_reported":1749550280,"current_range_meters":22800,"station_id":"ce4bh012rcd13ifvqd00","pricing_plan_id":"cebpf4jnsgd1na2vs0mg"},{"bike_id":"4b3d5f90-048c-47a4-9634-9cac2473ba43","system_id":"levelo_inurba_marseille","lat":43.31228,"lon":5.36851,"is_reserved":false,"is_disabled":false,"rental_uris":{"android":"levelo://app?vid=4b3d5f90-048c-47a4-9634-9cac2473ba43","ios":"levelo://app?vid=4b3d5f90-048c-47a4-9634-9cac2473ba43"},"vehicle_type_id":"4","last_reported":1749550280,"current_range_meters":22800,"station_id":"ce4bgl92rcd13ifvqbq0","pricing_plan_id":"cebpf4jnsgd1na2vs0mg"},