{"last_updated":1748380196,"ttl":60,"version":"2.2","data":{"bikes":[{"bike_id":"d0f4d136-d412-4cd4-afdb-4dd7acb4ac4d","system_id":"levelo_inurba_marseille","lat":43.288361,"lon":5.393316,"is_reserved":false,"is_disabled":true,"rental_uris":{"android":"levelo://app?vid=d0f4d136-d412-4cd4-afdb-4dd7acb4ac4d","ios":"levelo://app?vid=d0f4d136-d412-4cd4-afdb-4dd7acb4ac4d"},"vehicle_type_id":"4","last_reported":1748380196,"current_range_meters":2800,"station_id":"ce4bh2p2rcd13ifvqdi0","pricing_plan_id":"cebpf4jnsgd1na2vs0mg"},{"bike_id":"2771b601-ac3d-4b94-949d-f7f957c53e74","system_id":"levelo_inurba_marseille","lat":43.30242,"lon":5.40072,"is_reserved":false,"is_disabled":false,"rental_uris":{"android":"levelo://app?vid=2771b601-ac3d-4b94-949d-f7f957c53e74","ios":"levelo://app?vid=2771b601-ac3d-4b94-949d-f7f957c53e74"},"vehicle_type_id":"4","last_reported":1748380196,"current_range_meters":2800,"station_id":"ce4bgvh2rcd13ifvqcs0","pricing_plan_id":"cebpf4jnsgd1na2vs0mg"},{"bike_id":"96a44e34-b976-44ce-b699-1843c1bd321a","system_id":"levelo_inurba_marseille","lat":43.2886,"lon":5.35858,"is_reserved":false,"is_disabled":false,"rental_uris":{"android":"levelo://app?vid=96a44e34-b976-44ce-b699-1843c1bd321a","ios":"levelo://app?vid=96a44e34-b976-44ce-b699-1843c1bd321a"},"vehicle_type_id":"4","last_reported":1748380196,"current_range_meters":800,"station_id":"ce4bhb12rcd13ifvqem0","pricing_plan_id":"cebpf4jnsgd1na2vs0mg"},{"bike_id":"904e61f3-9543-4358-95e4-e461a880e97a","system_id":"levelo_inurba_marseille","lat":43.25108,"lon":5.40308,"is_reserved":false,"is_disabled":false,"rental_uris":{"android":"levelo://app?vid=904e61f3-9543-4358-95e4-e461a880e97a","ios":"levelo://app?vid=904e61f3-9543-4358-95e4-e461a880e97a"},"vehicle_type_id":"4","last_reported":1748380196,"current_range_meters":3200,"station_id":"ce4bhlh2rcd13ifvqgig","pricing_plan_id":"cebpf4jnsgd1na2vs0mg"},{"bike_id":"6bc1c8cc-21b1-4839-a013-3e27c8e368f8","system_id":"levelo_inurba_marseille","lat":43.26563,"lon":5.40325,"is_reserved":false,"is_disabled":false,"rental_uris":{"android":"levelo://app?vid=6bc1c8cc-21b1-4839-a013-3e27c8e368f8","ios":"levelo://app?vid=6bc1c8cc-21b1-4839-a013-3e27c8e368f8"},"vehicle_type_id":"4","last_reported":1748380196,"current_range_meters":3200,"station_id":"","pricing_plan_id":"cebpf4jnsgd1na2vs0mg"},{"bike_id":"2532535e-dea2-4f0a-965d-416a2611cae0","system_id":"levelo_inurba_marseille","lat":43.24168,"lon":5.36387,"is_reserved":false,"is_disabled":true,"rental_uris":{"android":"levelo://app?vid=2532535e-dea2-4f0a-965d-416a2611cae0","ios":"levelo://app?vid=2532535e-dea2-4f0a-965d-416a2611cae0"},"vehicle_type_id":"4","last_reported":1748380196,"current_range_meters":3600,"station_id":"cpo36qri1sfpv3e86is0","pricing_plan_id":"cebpf4jnsgd1na2vs0mg"},{"bike_id":"d74483e1-13cc-4905-8a14-1a72a7c1bcaa","system_id":"levelo_inurba_marseille","lat":43.24181,"lon":5.39731,"is_reserved":false,"is_disabled":false,"rental_uris":{"android":"levelo://app?vid=d74483e1-13cc-4905-8a14-1a72a7c1bcaa","ios":"levelo://app?vid=d74483e1-13cc-4905-8a14-1a72a7c1bcaa"},"vehicle_type_id":"4","last_reported":1748380196,"current_range_meters":3600,"station_id":"ce4bhn12rcd13ifvqgpg","pricing_plan_id":"cebpf4jnsgd1na2vs0mg"},{"bike_id":"5c0e6c04-027e-46d9-a8cf-6767eaff3ad2","system_id":"levelo_inurba_marseille","lat":43.29415,"lon":5.38622,"is_reserved":false,"is_disabled":false,"rental_uris":{"android":"levelo://app?vid=5c0e6c04-027e-46d9-a8cf-6767eaff3ad2","ios":"levelo://app?vid=5c0e6c04-027e-46d9-a8cf-6767eaff3ad2"},"vehicle_type_id":"4","last_reported":1748380196,"current_range_meters":3600,"station_id":"ce4bh2h2rcd13ifvqdh0","pricing_plan_id":"cebpf4jnsgd1na2vs0mg"},{"bike_id":"fc56555b-396d-4667-b896-0ad86036e39e","system_id":"levelo_inurba_marseille","lat":43.25926,"lon":5.3802,"is_reserved":false,"is_disabled":false,"rental_uris":{"android":"levelo://app?vid=fc56555b-396d-4667-b896-0ad86036e39e","ios":"levelo://app?vid=fc56555b-396d-4667-b896-0ad86036e39e"},"vehicle_type_id":"4","last_reported":1748380196,"current_range_meters":4000,"station_id":"","pricing_plan_id":"cebpf4jnsgd1na2vs0mg"},{"bike_id":"a4aef2b9-b7e8-4e2d-8340-592d28bc6c85","system_id":"levelo_inurba_marseille","lat":43.337654,"lon":5.37434,"is_reserved":false,"is_disabled":false,"rental_uris":{"android":"levelo://app?vid=a4aef2b9-b7e8-4e2d-8340-592d28bc6c85","ios":"levelo://app?vid=a4aef2b9-b7e8-4e2d-8340-592d28bc6c85"},"vehicle_type_id":"4","last_reported":1748380196,"current_range_meters":4000,"station_id":"","pricing_plan_id":"cebpf4jnsgd1na2vs0mg"},{"bike_id":"adba12e7-5206-46f0-b5ae-d736cc8dba7d","system_id":"levelo_inurba_marseille","lat":43.276614,"lon":5.388795,"is_reserved":false,"is_disabled":true,"rental_uris":{"android":"levelo://app?vid=adba12e7-5206-46f0-b5ae-d736cc8dba7d","ios":"levelo://app?vid=adba12e7-5206-46f0-b5ae-d736cc8dba7d"},"vehicle_type_id":"4","last_reported":1748380196,"current_range_meters":4000,"station_id":"ce4bhgp2rcd13ifvqfe0","pricing_plan_id":"cebpf4jnsgd1na2vs0mg"},{"bike_id":"35d25ae7-0916-4021-a599-0376b7f643ed","system_id":"levelo_inurba_marseille","lat":43.299754,"lon":5.371822,"is_reserved":false,"is_disabled":false,"rental_uris":{"android":"levelo://app?vid=35d25ae7-0916-4021-a599-0376b7f643ed","ios":"levelo://app?vid=35d25ae7-0916-4021-a599-0376b7f643ed"},"vehicle_type_id":"4","last_reported":1748380196,"current_range_meters":3600,"station_id":"ce4bgr92rcd13ifvqc7g","pricing_plan_id":"cebpf4jnsgd1na2vs0mg"},{"bike_id":"c135dc47-98f9-419d-abdb-97af229da1ab","system_id":"levelo_inurba_marseille","lat":43.25125,"lon":5.40325,"is_reserved":false,"is_disabled":false,"rental_uris":{"android":"levelo://app?vid=c135dc47-98f9-419d-abdb-97af229da1ab","ios":"levelo://app?vid=c135dc47-98f9-419d-abdb-97af229da1ab"},"vehicle_type_id":"4","last_reported":1748380196,"current_range_meters":4000,"station_id":"ce4bhlh2rcd13ifvqgig","pricing_plan_id":"cebpf4jnsgd1na2vs0mg"},{"bike_id":"f89f89d6-e90d-418f-88f5-e39038f5683e","system_id":"levelo_inurba_marseille","lat":43.29802,"lon":5.40394,"is_reserved":false,"is_disabled":false,"rental_uris":{"android":"levelo://app?vid=f89f89d6-e90d-418f-88f5-e39038f5683e","ios":"levelo://app?vid=f89f89d6-e90d-418f-88f5-e39038f5683e"},"vehicle_type_id":"4","last_reported":1748380196,"current_range_meters":4400,"station_id":"ce4bh112rcd13ifvqd90","pricing_plan_id":"cebpf4jnsgd1na2vs0mg"},{"bike_id":"d61a2e27-e65f-4e4c-9647-5687c75317c0","system_id":"levelo_inurba_marseille","lat":43.28101,"lon":5.378443,"is_reserved":false,"is_disabled":false,"rental_uris":{"android":"levelo://app?vid=d61a2e27-e65f-4e4c-9647-5687c75317c0","ios":"levelo://app?vid=d61a2e27-e65f-4e4c-9647-5687c75317c0"},"vehicle_type_id":"4","last_reported":1748380196,"current_range_meters":4400,"station_id":"ce4bha12rcd13ifvqee0","pricing_plan_id":"cebpf4jnsgd1na2vs0mg"},{"bike_id":"f1733994-596a-42d8-ba1f-289ddc36b89b","system_id":"levelo_inurba_marseille","lat":43.22539,"lon":5.34777,"is_reserved":false,"is_disabled":false,"rental_uris":{"android":"levelo://app?vid=f1733994-596a-42d8-ba1f-289ddc36b89b","ios":"levelo://app?vid=f1733994-596a-42d8-ba1f-289ddc36b89b"},"vehicle_type_id":"4","last_reported":1748380196,"current_range_meters":4400,"station_id":"","pricing_plan_id":"cebpf4jnsgd1na2vs0mg"},{"bike_id":"5e669dbf-b92e-4d90-8faa-89e2559b7f1b","system_id":"levelo_inurba_marseille","lat":43.27677,"lon":5.38881,"is_reserved":false,"is_disabled":false,"rental_uris":{"android":"levelo://app?vid=5e669dbf-b92e-4d90-8faa-89e2559b7f1b","ios":"levelo://app?vid=5e669dbf-b92e-4d90-8faa-89e2559b7f1b"},"vehicle_type_id":"4","last_reported":1748380196,"current_range_meters":4400,"station_id":"ce4bhi12rcd13ifvqfo0","pricing_plan_id":"cebpf4jnsgd1na2vs0mg"},{"bike_id":"301bf0f9-9b48-466e-a883-4d218136fa68","system_id":"levelo_inurba_marseille","lat":43.28706,"lon":5.37386,"is_reserved":false,"is_disabled":false,"rental_uris":{"android":"levelo://app?vid=301bf0f9-9b48-466e-a883-4d218136fa68","ios":"levelo://app?vid=301bf0f9-9b48-466e-a883-4d218136fa68"},"vehicle_type_id":"4","last_reported":1748380196,"current_range_meters":4400,"station_id":"ce4bh3p2rcd13ifvqdq0","pricing_plan_id":"cebpf4jnsgd1na2vs0mg"},{"bike_id":"4215ee10-1e7f-4ba3-8ea6-ad25df34cf50","system_id":"levelo_inurba_marseille","lat":43.28705,"lon":5.39982,"is_reserved":false,"is_disabled":false,"rental_uris":{"android":"levelo://app?vid=4215ee10-1e7f-4ba3-8ea6-ad25df34cf50","ios":"levelo://app?vid=4215ee10-1e7f-4ba3-8ea6-ad25df34cf50"},"vehicle_type_id":"4","last_reported":1748380196,"current_range_meters":4400,"station_id":"ce4bho92rcd13ifvqh3g","pricing_plan_id":"cebpf4jnsgd1na2vs0mg"},{"bike_id":"441c8cdf-82b5-4b3f-b7a9-67655a597c48","system_id":"levelo_inurba_marseille","lat":43.27316,"lon":5.39077,"is_reserved":false,"is_disabled":false,"rental_uris":{"android":"levelo://app?vid=441c8cdf-82b5-4b3f-b7a9-67655a597c48","ios":"levelo://app?vid=441c8cdf-82b5-4b3f-b7a9-67655a597c48"},"vehicle_type_id":"4","last_reported":1748380196,"current_range_meters":4800,"station_id":"ce4bhgp2rcd13ifvqfe0","pricing_plan_id":"cebpf4jnsgd1na2vs0mg"},{"bike_id":"1bb6b9ab-431f-4e98-be6e-58b84c845ea7","system_id":"levelo_inurba_marseille","lat":43.30919,"lon":5.40146,"is_reserved":false,"is_disabled":false,"rental_uris":{"android":"levelo://app?vid=1bb6b9ab-431f-4e98-be6e-58b84c845ea7","ios":"levelo://app?vid=1bb6b9ab-431f-4e98-be6e-58b84c845ea7"},"vehicle_type_id":"4","last_reported":1748380196,"current_range_meters":5600,"station_id":"ce4bgvp2rcd13ifvqct0","pricing_plan_id":"cebpf4jnsgd1na2vs0mg"},{"bike_id":"069da931-ad7a-46e7-83f2-3e021650a079","system_id":"levelo_inurba_marseille","lat":43.28738,"lon":5.40008,"is_reserved":false,"is_disabled":true,"rental_uris":{"android":"levelo://app?vid=069da931-ad7a-46e7-83f2-3e021650a079","ios":"levelo://app?vid=069da931-ad7a-46e7-83f2-3e021650a079"},"vehicle_type_id":"4","last_reported":1748380196,"current_range_meters":4800,"station_id":"ce4bho92rcd13ifvqh3g","pricing_plan_id":"cebpf4jnsgd1na2vs0mg"},{"bike_id":"fd908bdf-5d81-4122-b313-442572d15912","system_id":"levelo_inurba_marseille","lat":43.29525,"lon":5.39395,"is_reserved":false,"is_disabled":true,"rental_uris":{"android":"levelo://app?vid=fd908bdf-5d81-4122-b313-442572d15912","ios":"levelo://app?vid=fd908bdf-5d81-4122-b313-442572d15912"},"vehicle_type_id":"4","last_reported":1748380196,"current_range_meters":5600,"station_id":"ce4bh292rcd13ifvqdf0","pricing_plan_id":"cebpf4jnsgd1na2vs0mg"},{"bike_id":"2d393347-525f-40cd-8bc8-636e6636ef28","system_id":"levelo_inurba_marseille","lat":43.26234,"lon":5.40457,"is_reserved":false,"is_disabled":false,"rental_uris":{"android":"levelo://app?vid=2d393347-525f-40cd-8bc8-636e6636ef28","ios":"levelo://app?vid=2d393347-525f-40cd-8bc8-636e6636ef28"},"vehicle_type_id":"4","last_reported":1748380196,"current_range_meters":5600,"station_id":"ce4bhmh2rcd13ifvqgmg","pricing_plan_id":"cebpf4jnsgd1na2vs0mg"},{"bike_id":"9b33e131-456f-4624-8691-a7cd4e3c6065","system_id":"levelo_inurba_marseille","lat":43.27383,"lon":5.36248,"is_reserved":false,"is_disabled":false,"rental_uris":{"android":"levelo://app?vid=9b33e131-456f-4624-8691-a7cd4e3c6065","ios":"levelo://app?vid=9b33e131-456f-4624-8691-a7cd4e3c6065"},"vehicle_type_id":"4","last_reported":1748380196,"current_range_meters":5600,"station_id":"ce4bhbh2rcd13ifvqeo0","pricing_plan_id":"cebpf4jnsgd1na2vs0mg"},{"bike_id":"aa127b9c-d120-4169-9c49-d5b2c149225c","system_id":"levelo_inurba_marseille","lat":43.29537,"lon":5.37828,"is_reserved":false,"is_disabled":false,"rental_uris":{"android":"levelo://app?vid=aa127b9c-d120-4169-9c49-d5b2c149225c","ios":"levelo://app?vid=aa127b9c-d120-4169-9c49-d5b2c149225c"},"vehicle_type_id":"4","last_reported":1748380196,"current_range_meters":5600,"station_id":"","pricing_plan_id":"cebpf4jnsgd1na2vs0mg"},{"bike_id":"3ec21973-a1d7-4ca4-be49-3fc654fc1ac2","system_id":"levelo_inurba_marseille","lat":43.26806,"lon":5.4027,"is_reserved":false,"is_disabled":false,"rental_uris":{"android":"levelo://app?vid=3ec21973-a1d7-4ca4-be49-3fc654fc1ac2","ios":"levelo://app?vid=3ec21973-a1d7-4ca4-be49-3fc654fc1ac2"},"vehicle_type_id":"4","last_reported":1748380196,"current_range_meters":5600,"station_id":"ce501612rcd8frsf0b60","pricing_plan_id":"cebpf4jnsgd1na2vs0mg"},{"bike_id":"854610a0-faf2-4a8f-a589-0d6ce3f0edf0","system_id":"levelo_inurba_marseille","lat":43.28846,"lon":5.393301,"is_reserved":false,"is_disabled":false,"rental_uris":{"android":"levelo://app?vid=854610a0-faf2-4a8f-a589-0d6ce3f0edf0","ios":"levelo://app?vid=854610a0-faf2-4a8f-a589-0d6ce3f0edf0"},"vehicle_type_id":"4","last_reported":1748380196,"current_range_meters":6000,"station_id":"ce4bh2p2rcd13ifvqdi0","pricing_plan_id":"cebpf4jnsgd1na2vs0mg"},{"bike_id":"c0aab6a2-4792-419e-a415-40c661bc24ec","system_id":"levelo_inurba_marseille","lat":43.519938,"lon":5.469177,"is_reserved":false,"is_disabled":false,"rental_uris":{"android":"levelo://app?vid=c0aab6a2-4792-419e-a415-40c661bc24ec","ios":"levelo://app?vid=c0aab6a2-4792-419e-a415-40c661bc24ec"},"vehicle_type_id":"4","last_reported":1748380196,"current_range_meters":6000,"station_id":"ce4bhg92rcd13ifvqf90","pricing_plan_id":"cebpf4jnsgd1na2vs0mg"},{"bike_id":"8e1e3d14-39e1-40c6-a572-79984978bd7d","system_id":"levelo_inurba_marseille","lat":43.225022,"lon":5.347878,"is_reserved":false,"is_disabled":false,"rental_uris":{"android":"levelo://app?vid=8e1e3d14-39e1-40c6-a572-79984978bd7d","ios":"levelo://app?vid=8e1e3d14-39e1-40c6-a572-79984978bd7d"},"vehicle_type_id":"4","last_reported":1748380196,"current_range_meters":6400,"station_id":"","pricing_plan_id":"cebpf4jnsgd1na2vs0mg"},{"bike_id":"507e72b9-2648-4d53-a3bc-aa45c2198a2e","system_id":"levelo_inurba_marseille","lat":43.30653,"lon":5.40057,"is_reserved":false,"is_disabled":true,"rental_uris":{"android":"levelo://app?vid=507e72b9-2648-4d53-a3bc-aa45c2198a2e","ios":"levelo://app?vid=507e72b9-2648-4d53-a3bc-aa45c2198a2e"},"vehicle_type_id":"4","last_reported":1748380196,"current_range_meters":6400,"station_id":"ce4bh112rcd13ifvqda0","pricing_plan_id":"cebpf4jnsgd1na2vs0mg"},{"bike_id":"c2b0a191-bf31-4e89-8dc5-11d646e535b1","system_id":"levelo_inurba_marseille","lat":43.254969,"lon":5.37649,"is_reserved":false,"is_disabled":false,"rental_uris":{"android":"levelo://app?vid=c2b0a191-bf31-4e89-8dc5-11d646e535b1","ios":"levelo://app?vid=c2b0a191-bf31-4e89-8dc5-11d646e535b1"},"vehicle_type_id":"4","last_reported":1748380196,"current_range_meters":6400,"station_id":"","pricing_plan_id":"cebpf4jnsgd1na2vs0mg"},{"bike_id":"966b6eaa-5627-48ba-8bd1-d6fcdeaae1b2","system_id":"levelo_inurba_marseille","lat":43.29189,"lon":5.39316,"is_reserved":false,"is_disabled":false,"rental_uris":{"android":"levelo://app?vid=966b6eaa-5627-48ba-8bd1-d6fcdeaae1b2","ios":"levelo://app?vid=966b6eaa-5627-48ba-8bd1-d6fcdeaae1b2"},"vehicle_type_id":"4","last_reported":1748380196,"current_range_meters":6400,"station_id":"ce4bh192rcd13ifvqdd0","pricing_plan_id":"cebpf4jnsgd1na2vs0mg"},{"bike_id":"143c2ab4-f42c-444a-976a-2bc9c3850a17","system_id":"levelo_inurba_marseille","lat":43.30213,"lon":5.39468,"is_reserved":false,"is_disabled":false,"rental_uris":{"android":"levelo://app?vid=143c2ab4-f42c-444a-976a-2bc9c3850a17","ios":"levelo://app?vid=143c2ab4-f42c-444a-976a-2bc9c3850a17"},"vehicle_type_id":"4","last_reported":1748380196,"current_range_meters":6400,"station_id":"ce4bh0p2rcd13ifvqd70","pricing_plan_id":"cebpf4jnsgd1na2vs0mg"},{"bike_id":"09df80ce-6c55-4b18-a6b1-b1ee6d982bd8","system_id":"levelo_inurba_marseille","lat":43.2986,"lon":5.389,"is_reserved":false,"is_disabled":false,"rental_uris":{"android":"levelo://app?vid=09df80ce-6c55-4b18-a6b1-b1ee6d982bd8","ios":"levelo://app?vid=09df80ce-6c55-4b18-a6b1-b1ee6d982bd8"},"vehicle_type_id":"4","last_reported":1748380196,"current_range_meters":6400,"station_id":"ce4bh392rcd13ifvqdl0","pricing_plan_id":"cebpf4jnsgd1na2vs0mg"},{"bike_id":"c437d2cf-2db2-401d-99d8-68cfd28314bb","system_id":"levelo_inurba_marseille","lat":43.29525,"lon":5.37795,"is_reserved":false,"is_disabled":false,"rental_uris":{"android":"levelo://app?vid=c437d2cf-2db2-401d-99d8-68cfd28314bb","ios":"levelo://app?vid=c437d2cf-2db2-401d-99d8-68cfd28314bb"},"vehicle_type_id":"4","last_reported":1748380196,"current_range_meters":6400,"station_id":"","pricing_plan_id":"cebpf4jnsgd1na2vs0mg"},{"bike_id":"a345b307-2904-42cb-8731-ec0325151a1f","system_id":"levelo_inurba_marseille","lat":43.30154,"lon":5.38089,"is_reserved":false,"is_disabled":false,"rental_uris":{"android":"levelo://app?vid=a345b307-2904-42cb-8731-ec0325151a1f","ios":"levelo://app?vid=a345b307-2904-42cb-8731-ec0325151a1f"},"vehicle_type_id":"4","last_reported":1748380196,"current_range_meters":6400,"station_id":"ce4bgjp2rcd13ifvqbh0","pricing_plan_id":"cebpf4jnsgd1na2vs0mg"},{"bike_id":"fdb7e479-19f8-4a1e-a521-bb2ee89608e0","system_id":"levelo_inurba_marseille","lat":43.31086,"lon":5.42435,"is_reserved":false,"is_disabled":false,"rental_uris":{"android":"levelo://app?vid=fdb7e479-19f8-4a1e-a521-bb2ee89608e0","ios":"levelo://app?vid=fdb7e479-19f8-4a1e-a521-bb2ee89608e0"},"vehicle_type_id":"4","last_reported":1748380196,"current_range_meters":6800,"station_id":"ce4bhp92rcd13ifvqhag","pricing_plan_id":"cebpf4jnsgd1na2vs0mg"},{"bike_id":"114dc401-a27e-46d4-a93c-42feda223b25","system_id":"levelo_inurba_marseille","lat":43.25722,"lon":5.41104,"is_reserved":false,"is_disabled":false,"rental_uris":{"android":"levelo://app?vid=114dc401-a27e-46d4-a93c-42feda223b25","ios":"levelo://app?vid=114dc401-a27e-46d4-a93c-42feda223b25"},"vehicle_type_id":"4","last_reported":1748380196,"current_range_meters":6800,"station_id":"ce4bhkp2rcd13ifvqgd0","pricing_plan_id":"cebpf4jnsgd1na2vs0mg"},{"bike_id":"1a0998e5-8bb9-474f-a827-53cad24c9e8f","system_id":"levelo_inurba_marseille","lat":43.32022,"lon":5.44951,"is_reserved":false,"is_disabled":false,"rental_uris":{"android":"levelo://app?vid=1a0998e5-8bb9-474f-a827-53cad24c9e8f","ios":"levelo://app?vid=1a0998e5-8bb9-474f-a827-53cad24c9e8f"},"vehicle_type_id":"4","last_reported":1748380196,"current_range_meters":7200,"station_id":"","pricing_plan_id":"cebpf4jnsgd1na2vs0mg"},{"bike_id":"90350e55-53fb-48d9-8c9a-452ed59f6370","system_id":"levelo_inurba_marseille","lat":43.29708,"lon":5.36615,"is_reserved":false,"is_disabled":false,"rental_uris":{"android":"levelo://app?vid=90350e55-53fb-48d9-8c9a-452ed59f6370","ios":"levelo://app?vid=90350e55-53fb-48d9-8c9a-452ed59f6370"},"vehicle_type_id":"4","last_reported":1748380196,"current_range_meters":7200,"station_id":"ce4bgn12rcd13ifvqbt0","pricing_plan_id":"cebpf4jnsgd1na2vs0mg"},{"bike_id":"ae6e6868-2635-4f49-b7c1-b03759c58ec7","system_id":"levelo_inurba_marseille","lat":43.27312,"lon":5.41617,"is_reserved":false,"is_disabled":false,"rental_uris":{"android":"levelo://app?vid=ae6e6868-2635-4f49-b7c1-b03759c58ec7","ios":"levelo://app?vid=ae6e6868-2635-4f49-b7c1-b03759c58ec7"},"vehicle_type_id":"4","last_reported":1748380196,"current_range_meters":7200,"station_id":"","pricing_plan_id":"cebpf4jnsgd1na2vs0mg"},{"bike_id":"765a5150-62da-407f-a255-c32151d126c4","system_id":"levelo_inurba_marseille","lat":43.28866,"lon":5.35843,"is_reserved":false,"is_disabled":true,"rental_uris":{"android":"levelo://app?vid=765a5150-62da-407f-a255-c32151d126c4","ios":"levelo://app?vid=765a5150-62da-407f-a255-c32151d126c4"},"vehicle_type_id":"4","last_reported":1748380196,"current_range_meters":7200,"station_id":"ce4bhb12rcd13ifvqem0","pricing_plan_id":"cebpf4jnsgd1na2vs0mg"},{"bike_id":"2621921b-742a-4cef-8fb9-86afebf4ef48","system_id":"levelo_inurba_marseille","lat":43.268084,"lon":5.402575,"is_reserved":false,"is_disabled":false,"rental_uris":{"android":"levelo://app?vid=2621921b-742a-4cef-8fb9-86afebf4ef48","ios":"levelo://app?vid=2621921b-742a-4cef-8fb9-86afebf4ef48"},"vehicle_type_id":"4","last_reported":1748380196,"current_range_meters":7200,"station_id":"ce501612rcd8frsf0b60","pricing_plan_id":"cebpf4jnsgd1na2vs0mg"},{"bike_id":"a7bcb1f1-7682-4d43-a695-1c800fa5f5e8","system_id":"levelo_inurba_marseille","lat":43.287,"lon":5.374133,"is_reserved":false,"is_disabled":false,"rental_uris":{"android":"levelo://app?vid=a7bcb1f1-7682-4d43-a695-1c800fa5f5e8","ios":"levelo://app?vid=a7bcb1f1-7682-4d43-a695-1c800fa5f5e8"},"vehicle_type_id":"4","last_reported":1748380196,"current_range_meters":7200,"station_id":"ce4bh3p2rcd13ifvqdq0","pricing_plan_id":"cebpf4jnsgd1na2vs0mg"},{"bike_id":"0bf5d1c6-1433-425f-b1d7-4180aad61682","system_id":"levelo_inurba_marseille","lat":43.29027,"lon":5.38642,"is_reserved":false,"is_disabled":false,"rental_uris":{"android":"levelo://app?vid=0bf5d1c6-1433-425f-b1d7-4180aad61682","ios":"levelo://app?vid=0bf5d1c6-1433-425f-b1d7-4180aad61682"},"vehicle_type_id":"4","last_reported":1748380196,"current_range_meters":7200,"station_id":"ce4bh4p2rcd13ifvqe0g","pricing_plan_id":"cebpf4jnsgd1na2vs0mg"},{"bike_id":"1e18c27f-9130-424e-9050-68e778d8dd4a","system_id":"levelo_inurba_marseille","lat":43.29054,"lon":5.37167,"is_reserved":false,"is_disabled":false,"rental_uris":{"android":"levelo://app?vid=1e18c27f-9130-424e-9050-68e778d8dd4a","ios":"levelo://app?vid=1e18c27f-9130-424e-9050-68e778d8dd4a"},"vehicle_type_id":"4","last_reported":1748380196,"current_range_meters":7200,"station_id":"ce4bh5p2rcd13ifvqe4g","pricing_plan_id":"cebpf4jnsgd1na2vs0mg"},{"bike_id":"627ce8b7-6923-4ea2-8fbc-2dd1b52ebb91","system_id":"levelo_inurba_marseille","lat":43.29263,"lon":5.40906,"is_reserved":false,"is_disabled":false,"rental_uris":{"android":"levelo://app?vid=627ce8b7-6923-4ea2-8fbc-2dd1b52ebb91","ios":"levelo://app?vid=627ce8b7-6923-4ea2-8fbc-2dd1b52ebb91"},"vehicle_type_id":"4","last_reported":1748380196,"current_range_meters":7200,"station_id":"ce4bh192rcd13ifvqdc0","pricing_plan_id":"cebpf4jnsgd1na2vs0mg"},{"bike_id":"d1f8a23a-7603-406e-9c73-c05afadc927b","system_id":"levelo_inurba_marseille","lat":43.2816,"lon":5.42651,"is_reserved":false,"is_disabled":false,"rental_uris":{"android":"levelo://app?vid=d1f8a23a-7603-406e-9c73-c05afadc927b","ios":"levelo://app?vid=d1f8a23a-7603-406e-9c73-c05afadc927b"},"vehicle_type_id":"4","last_reported":1748380196,"current_range_meters":7200,"station_id":"ce4bhnh2rcd13ifvqgug","pricing_plan_id":"cebpf4jnsgd1na2vs0mg"},{"bike_id":"1705d4f3-168b-42d7-9a1b-0c9b7c37f4c0","system_id":"levelo_inurba_marseille","lat":43.26501,"lon":5.39548,"is_reserved":false,"is_disabled":false,"rental_uris":{"android":"levelo://app?vid=1705d4f3-168b-42d7-9a1b-0c9b7c37f4c0","ios":"levelo://app?vid=1705d4f3-168b-42d7-9a1b-0c9b7c37f4c0"},"vehicle_type_id":"4","last_reported":1748380196,"current_range_meters":7200,"station_id":"ce4bhi12rcd13ifvqfq0","pricing_plan_id":"cebpf4jnsgd1na2vs0mg"},{"bike_id":"2badb821-2859-4b8d-9b1a-9dfbe62ae729","system_id":"levelo_inurba_marseille","lat":43.3034,"lon":5.404307,"is_reserved":false,"is_disabled":false,"rental_uris":{"android":"levelo://app?vid=2badb821-2859-4b8d-9b1a-9dfbe62ae729","ios":"levelo://app?vid=2badb821-2859-4b8d-9b1a-9dfbe62ae729"},"vehicle_type_id":"4","last_reported":1748380196,"current_range_meters":8000,"station_id":"ce4bh012rcd13ifvqd10","pricing_plan_id":"cebpf4jnsgd1na2vs0mg"},{"bike_id":"a382f3df-edfa-456b-8f81-d62e49146343","system_id":"levelo_inurba_marseille","lat":43.3081,"lon":5.39392,"is_reserved":false,"is_disabled":false,"rental_uris":{"android":"levelo://app?vid=a382f3df-edfa-456b-8f81-d62e49146343","ios":"levelo://app?vid=a382f3df-edfa-456b-8f81-d62e49146343"},"vehicle_type_id":"4","last_reported":1748380196,"current_range_meters":8000,"station_id":"","pricing_plan_id":"cebpf4jnsgd1na2vs0mg"},{"bike_id":"ee617531-7300-4958-baa3-db4f90ad5721","system_id":"levelo_inurba_marseille","lat":43.25819,"lon":5.39427,"is_reserved":false,"is_disabled":false,"rental_uris":{"android":"levelo://app?vid=ee617531-7300-4958-baa3-db4f90ad5721","ios":"levelo://app?vid=ee617531-7300-4958-baa3-db4f90ad5721"},"vehicle_type_id":"4","last_reported":1748380196,"current_range_meters":8000,"station_id":"ce4bhip2rcd13ifvqft0","pricing_plan_id":"cebpf4jnsgd1na2vs0mg"},{"bike_id":"0a3ef987-84c3-4749-8364-35366df6e26b","system_id":"levelo_inurba_marseille","lat":43.28574,"lon":5.395,"is_reserved":false,"is_disabled":false,"rental_uris":{"android":"levelo://app?vid=0a3ef987-84c3-4749-8364-35366df6e26b","ios":"levelo://app?vid=0a3ef987-84c3-4749-8364-35366df6e26b"},"vehicle_type_id":"4","last_reported":1748380196,"current_range_meters":8000,"station_id":"ce4bh292rcd13ifvqdg0","pricing_plan_id":"cebpf4jnsgd1na2vs0mg"},{"bike_id":"8ac2acc6-b767-4c1c-bcde-982458034c88","system_id":"levelo_inurba_marseille","lat":43.31196,"lon":5.41608,"is_reserved":false,"is_disabled":false,"rental_uris":{"android":"levelo://app?vid=8ac2acc6-b767-4c1c-bcde-982458034c88","ios":"levelo://app?vid=8ac2acc6-b767-4c1c-bcde-982458034c88"},"vehicle_type_id":"4","last_reported":1748380196,"current_range_meters":8000,"station_id":"","pricing_plan_id":"cebpf4jnsgd1na2vs0mg"},{"bike_id":"9ccbac86-38e4-4ddf-a8ae-e8e6aad748d0","system_id":"levelo_inurba_marseille","lat":43.30411,"lon":5.41284,"is_reserved":false,"is_disabled":true,"rental_uris":{"android":"levelo://app?vid=9ccbac86-38e4-4ddf-a8ae-e8e6aad748d0","ios":"levelo://app?vid=9ccbac86-38e4-4ddf-a8ae-e8e6aad748d0"},"vehicle_type_id":"4","last_reported":1748380196,"current_range_meters":8000,"station_id":"ce4bhop2rcd13ifvqh8g","pricing_plan_id":"cebpf4jnsgd1na2vs0mg"},{"bike_id":"31b5b198-fa02-44b7-b6f9-32e39fcd8d3d","system_id":"levelo_inurba_marseille","lat":43.28853,"lon":5.39322,"is_reserved":false,"is_disabled":false,"rental_uris":{"android":"levelo://app?vid=31b5b198-fa02-44b7-b6f9-32e39fcd8d3d","ios":"levelo://app?vid=31b5b198-fa02-44b7-b6f9-32e39fcd8d3d"},"vehicle_type_id":"4","last_reported":1748380196,"current_range_meters":8000,"station_id":"ce4bh2p2rcd13ifvqdi0","pricing_plan_id":"cebpf4jnsgd1na2vs0mg"},{"bike_id":"5b09f956-8980-4021-9dd8-a3b65c1bb01e","system_id":"levelo_inurba_marseille","lat":43.29431,"lon":5.39753,"is_reserved":false,"is_disabled":false,"rental_uris":{"android":"levelo://app?vid=5b09f956-8980-4021-9dd8-a3b65c1bb01e","ios":"levelo://app?vid=5b09f956-8980-4021-9dd8-a3b65c1bb01e"},"vehicle_type_id":"4","last_reported":1748380196,"current_range_meters":8000,"station_id":"ce4bh3h2rcd13ifvqdo0","pricing_plan_id":"cebpf4jnsgd1na2vs0mg"},{"bike_id":"a29a2708-797f-4e9a-9f1a-17352bf6f3db","system_id":"levelo_inurba_marseille","lat":43.273245,"lon":5.390958,"is_reserved":false,"is_disabled":true,"rental_uris":{"android":"levelo://app?vid=a29a2708-797f-4e9a-9f1a-17352bf6f3db","ios":"levelo://app?vid=a29a2708-797f-4e9a-9f1a-17352bf6f3db"},"vehicle_type_id":"4","last_reported":1748380196,"current_range_meters":8000,"station_id":"ce4bhgp2rcd13ifvqfe0","pricing_plan_id":"cebpf4jnsgd1na2vs0mg"},{"bike_id":"3b48e20c-6ce7-41d5-9a01-65c0ba0052bc","system_id":"levelo_inurba_marseille","lat":43.312216,"lon":5.368542,"is_reserved":false,"is_disabled":false,"rental_uris":{"android":"levelo://app?vid=3b48e20c-6ce7-41d5-9a01-65c0ba0052bc","ios":"levelo://app?vid=3b48e20c-6ce7-41d5-9a01-65c0ba0052bc"},"vehicle_type_id":"4","last_reported":1748380196,"current_range_meters":8000,"station_id":"ce4bgl92rcd13ifvqbq0","pricing_plan_id":"cebpf4jnsgd1na2vs0mg"},{"bike_id":"760bcd8b-a4e0-4b4e-bedb-6462d7843576","system_id":"levelo_inurba_marseille","lat":43.29268,"lon":5.36838,"is_reserved":false,"is_disabled":true,"rental_uris":{"android":"levelo://app?vid=760bcd8b-a4e0-4b4e-bedb-6462d7843576","ios":"levelo://app?vid=760bcd8b-a4e0-4b4e-bedb-6462d7843576"},"vehicle_type_id":"4","last_reported":1748380196,"current_range_meters":8400,"station_id":"ce4bhbp2rcd13ifvqesg","pricing_plan_id":"cebpf4jnsgd1na2vs0mg"},{"bike_id":"6cfbbcc0-2df4-4d03-a732-b4eb0ab40960","system_id":"levelo_inurba_marseille","lat":43.31329,"lon":5.39698,"is_reserved":false,"is_disabled":false,"rental_uris":{"android":"levelo://app?vid=6cfbbcc0-2df4-4d03-a732-b4eb0ab40960","ios":"levelo://app?vid=6cfbbcc0-2df4-4d03-a732-b4eb0ab40960"},"vehicle_type_id":"4","last_reported":1748380196,"current_range_meters":8400,"station_id":"ce4bgvp2rcd13ifvqcu0","pricing_plan_id":"cebpf4jnsgd1na2vs0mg"},{"bike_id":"9946121a-e441-4db9-b342-d50b7a06f604","system_id":"levelo_inurba_marseille","lat":43.31719,"lon":5.37742,"is_reserved":false,"is_disabled":false,"rental_uris":{"android":"levelo://app?vid=9946121a-e441-4db9-b342-d50b7a06f604","ios":"levelo://app?vid=9946121a-e441-4db9-b342-d50b7a06f604"},"vehicle_type_id":"4","last_reported":1748380196,"current_range_meters":8400,"station_id":"ce4bgth2rcd13ifvqch0","pricing_plan_id":"cebpf4jnsgd1na2vs0mg"},{"bike_id":"54ba0f5e-635f-4ac5-933d-62d761246dd5","system_id":"levelo_inurba_marseille","lat":43.28464,"lon":5.35874,"is_reserved":false,"is_disabled":false,"rental_uris":{"android":"levelo://app?vid=54ba0f5e-635f-4ac5-933d-62d761246dd5","ios":"levelo://app?vid=54ba0f5e-635f-4ac5-933d-62d761246dd5"},"vehicle_type_id":"4","last_reported":1748380196,"current_range_meters":8400,"station_id":"ce4bhah2rcd13ifvqei0","pricing_plan_id":"cebpf4jnsgd1na2vs0mg"},{"bike_id":"dc4bc07c-b76e-4ef7-ae63-610566bce330","system_id":"levelo_inurba_marseille","lat":43.27432,"lon":5.39423,"is_reserved":false,"is_disabled":false,"rental_uris":{"android":"levelo://app?vid=dc4bc07c-b76e-4ef7-ae63-610566bce330","ios":"levelo://app?vid=dc4bc07c-b76e-4ef7-ae63-610566bce330"},"vehicle_type_id":"4","last_reported":1748380196,"current_range_meters":8400,"station_id":"ce4bhdp2rcd13ifvqf20","pricing_plan_id":"cebpf4jnsgd1na2vs0mg"},{"bike_id":"db71ab02-81ac-4a4d-a8af-cf7a1ec445b3","system_id":"levelo_inurba_marseille","lat":43.25017,"lon":5.38981,"is_reserved":false,"is_disabled":false,"rental_uris":{"android":"levelo://app?vid=db71ab02-81ac-4a4d-a8af-cf7a1ec445b3","ios":"levelo://app?vid=db71ab02-81ac-4a4d-a8af-cf7a1ec445b3"},"vehicle_type_id":"4","last_reported":1748380196,"current_range_meters":8400,"station_id":"ce4bhgp2rcd13ifvqfd0","pricing_plan_id":"cebpf4jnsgd1na2vs0mg"},{"bike_id":"f232529e-99ff-4fa8-bf28-15d9f403e767","system_id":"levelo_inurba_marseille","lat":43.28492,"lon":5.38557,"is_reserved":false,"is_disabled":false,"rental_uris":{"android":"levelo://app?vid=f232529e-99ff-4fa8-bf28-15d9f403e767","ios":"levelo://app?vid=f232529e-99ff-4fa8-bf28-15d9f403e767"},"vehicle_type_id":"4","last_reported":1748380196,"current_range_meters":8400,"station_id":"ce4bh8p2rcd13ifvqeb0","pricing_plan_id":"cebpf4jnsgd1na2vs0mg"},{"bike_id":"ecec0dbe-0ccb-470d-bc6b-7e71f374730a","system_id":"levelo_inurba_marseille","lat":43.23962,"lon":5.36623,"is_reserved":false,"is_disabled":false,"rental_uris":{"android":"levelo://app?vid=ecec0dbe-0ccb-470d-bc6b-7e71f374730a","ios":"levelo://app?vid=ecec0dbe-0ccb-470d-bc6b-7e71f374730a"},"vehicle_type_id":"4","last_reported":1748380196,"current_range_meters":8400,"station_id":"ce4bhi12rcd13ifvqfp0","pricing_plan_id":"cebpf4jnsgd1na2vs0mg"},{"bike_id":"7e823e3b-1b92-4735-8533-dc1341b80eaf","system_id":"levelo_inurba_marseille","lat":43.230588,"lon":5.35493,"is_reserved":false,"is_disabled":true,"rental_uris":{"android":"levelo://app?vid=7e823e3b-1b92-4735-8533-dc1341b80eaf","ios":"levelo://app?vid=7e823e3b-1b92-4735-8533-dc1341b80eaf"},"vehicle_type_id":"4","last_reported":1748380196,"current_range_meters":8400,"station_id":"cpo3342slgdg3j2ifvpg","pricing_plan_id":"cebpf4jnsgd1na2vs0mg"},{"bike_id":"ceb81090-b40e-47dd-bc35-8598d269ef58","system_id":"levelo_inurba_marseille","lat":43.26666,"lon":5.38427,"is_reserved":false,"is_disabled":false,"rental_uris":{"android":"levelo://app?vid=ceb81090-b40e-47dd-bc35-8598d269ef58","ios":"levelo://app?vid=ceb81090-b40e-47dd-bc35-8598d269ef58"},"vehicle_type_id":"4","last_reported":1748380196,"current_range_meters":8800,"station_id":"","pricing_plan_id":"cebpf4jnsgd1na2vs0mg"},{"bike_id":"086db649-d8a7-4996-b50f-1dba37294b53","system_id":"levelo_inurba_marseille","lat":43.308968,"lon":5.396649,"is_reserved":false,"is_disabled":false,"rental_uris":{"android":"levelo://app?vid=086db649-d8a7-4996-b50f-1dba37294b53","ios":"levelo://app?vid=086db649-d8a7-4996-b50f-1dba37294b53"},"vehicle_type_id":"4","last_reported":1748380196,"current_range_meters":8800,"station_id":"","pricing_plan_id":"cebpf4jnsgd1na2vs0mg"},{"bike_id":"099adafd-f2fb-48ac-8ad0-2acaeae469e3","system_id":"levelo_inurba_marseille","lat":43.29064,"lon":5.3715,"is_reserved":false,"is_disabled":false,"rental_uris":{"android":"levelo://app?vid=099adafd-f2fb-48ac-8ad0-2acaeae469e3","ios":"levelo://app?vid=099adafd-f2fb-48ac-8ad0-2acaeae469e3"},"vehicle_type_id":"4","last_reported":1748380196,"current_range_meters":8800,"station_id":"ce4bh5p2rcd13ifvqe4g","pricing_plan_id":"cebpf4jnsgd1na2vs0mg"},{"bike_id":"f4dd589b-5b58-470a-a2c9-9de3a4398e71","system_id":"levelo_inurba_marseille","lat":43.22948,"lon":5.35346,"is_reserved":false,"is_disabled":false,"rental_uris":{"android":"levelo://app?vid=f4dd589b-5b58-470a-a2c9-9de3a4398e71","ios":"levelo://app?vid=f4dd589b-5b58-470a-a2c9-9de3a4398e71"},"vehicle_type_id":"4","last_reported":1748380196,"current_range_meters":8800,"station_id":"cpo3532slgdg3j2ikp40","pricing_plan_id":"cebpf4jnsgd1na2vs0mg"},{"bike_id":"8a8da44b-f0bc-49bf-a97a-1dee19c6a572","system_id":"levelo_inurba_marseille","lat":43.23195,"lon":5.3555,"is_reserved":false,"is_disabled":false,"rental_uris":{"android":"levelo://app?vid=8a8da44b-f0bc-49bf-a97a-1dee19c6a572","ios":"levelo://app?vid=8a8da44b-f0bc-49bf-a97a-1dee19c6a572"},"vehicle_type_id":"4","last_reported":1748380196,"current_range_meters":8800,"station_id":"ce4bhu92rcd13ifvqi70","pricing_plan_id":"cebpf4jnsgd1na2vs0mg"},{"bike_id":"c464a309-13cc-4134-bec0-5181afa6abeb","system_id":"levelo_inurba_marseille","lat":43.29415,"lon":5.38623,"is_reserved":false,"is_disabled":false,"rental_uris":{"android":"levelo://app?vid=c464a309-13cc-4134-bec0-5181afa6abeb","ios":"levelo://app?vid=c464a309-13cc-4134-bec0-5181afa6abeb"},"vehicle_type_id":"4","last_reported":1748380196,"current_range_meters":8800,"station_id":"ce4bh2h2rcd13ifvqdh0","pricing_plan_id":"cebpf4jnsgd1na2vs0mg"},{"bike_id":"ab8fa819-2481-4db1-9320-6d372b84d192","system_id":"levelo_inurba_marseille","lat":43.29968,"lon":5.37185,"is_reserved":false,"is_disabled":false,"rental_uris":{"android":"levelo://app?vid=ab8fa819-2481-4db1-9320-6d372b84d192","ios":"levelo://app?vid=ab8fa819-2481-4db1-9320-6d372b84d192"},"vehicle_type_id":"4","last_reported":1748380196,"current_range_meters":9200,"station_id":"ce4bgr92rcd13ifvqc7g","pricing_plan_id":"cebpf4jnsgd1na2vs0mg"},{"bike_id":"6ef27e84-462a-46f9-afe5-e09b209cc7f0","system_id":"levelo_inurba_marseille","lat":43.331084,"lon":5.36208,"is_reserved":false,"is_disabled":false,"rental_uris":{"android":"levelo://app?vid=6ef27e84-462a-46f9-afe5-e09b209cc7f0","ios":"levelo://app?vid=6ef27e84-462a-46f9-afe5-e09b209cc7f0"},"vehicle_type_id":"4","last_reported":1748380196,"current_range_meters":9200,"station_id":"","pricing_plan_id":"cebpf4jnsgd1na2vs0mg"},{"bike_id":"7e2d13cd-01ed-48be-a1b4-1756640f6409","system_id":"levelo_inurba_marseille","lat":43.309479,"lon":5.390339,"is_reserved":false,"is_disabled":true,"rental_uris":{"android":"levelo://app?vid=7e2d13cd-01ed-48be-a1b4-1756640f6409","ios":"levelo://app?vid=7e2d13cd-01ed-48be-a1b4-1756640f6409"},"vehicle_type_id":"4","last_reported":1748380196,"current_range_meters":9200,"station_id":"ce4bgup2rcd13ifvqco0","pricing_plan_id":"cebpf4jnsgd1na2vs0mg"},{"bike_id":"8df877f1-b26b-4555-9770-a7ce46b0b547","system_id":"levelo_inurba_marseille","lat":43.30099,"lon":5.39095,"is_reserved":false,"is_disabled":false,"rental_uris":{"android":"levelo://app?vid=8df877f1-b26b-4555-9770-a7ce46b0b547","ios":"levelo://app?vid=8df877f1-b26b-4555-9770-a7ce46b0b547"},"vehicle_type_id":"4","last_reported":1748380196,"current_range_meters":9600,"station_id":"ce4bh192rcd13ifvqdb0","pricing_plan_id":"cebpf4jnsgd1na2vs0mg"},{"bike_id":"3d0b9b03-293c-4f7b-aa12-8053e4bae1a3","system_id":"levelo_inurba_marseille","lat":43.28684,"lon":5.37373,"is_reserved":false,"is_disabled":false,"rental_uris":{"android":"levelo://app?vid=3d0b9b03-293c-4f7b-aa12-8053e4bae1a3","ios":"levelo://app?vid=3d0b9b03-293c-4f7b-aa12-8053e4bae1a3"},"vehicle_type_id":"4","last_reported":1748380196,"current_range_meters":9600,"station_id":"ce4bh3p2rcd13ifvqdq0","pricing_plan_id":"cebpf4jnsgd1na2vs0mg"},{"bike_id":"a0ed6abf-a58d-4a7a-820f-54a4c9109eb7","system_id":"levelo_inurba_marseille","lat":43.29535,"lon":5.38546,"is_reserved":false,"is_disabled":false,"rental_uris":{"android":"levelo://app?vid=a0ed6abf-a58d-4a7a-820f-54a4c9109eb7","ios":"levelo://app?vid=a0ed6abf-a58d-4a7a-820f-54a4c9109eb7"},"vehicle_type_id":"4","last_reported":1748380196,"current_range_meters":9600,"station_id":"ce4bgih2rcd13ifvqba0","pricing_plan_id":"cebpf4jnsgd1na2vs0mg"},{"bike_id":"e6c65de3-7d92-4979-809c-6677188473c0","system_id":"levelo_inurba_marseille","lat":43.337598,"lon":5.374632,"is_reserved":false,"is_disabled":false,"rental_uris":{"android":"levelo://app?vid=e6c65de3-7d92-4979-809c-6677188473c0","ios":"levelo://app?vid=e6c65de3-7d92-4979-809c-6677188473c0"},"vehicle_type_id":"4","last_reported":1748380196,"current_range_meters":9600,"station_id":"","pricing_plan_id":"cebpf4jnsgd1na2vs0mg"},{"bike_id":"31eb1c1c-c5a5-4f60-aaa0-7dd8c371696a","system_id":"levelo_inurba_marseille","lat":43.27933,"lon":5.4102,"is_reserved":false,"is_disabled":true,"rental_uris":{"android":"levelo://app?vid=31eb1c1c-c5a5-4f60-aaa0-7dd8c371696a","ios":"levelo://app?vid=31eb1c1c-c5a5-4f60-aaa0-7dd8c371696a"},"vehicle_type_id":"4","last_reported":1748380196,"current_range_meters":9600,"station_id":"ce4bhnp2rcd13ifvqh0g","pricing_plan_id":"cebpf4jnsgd1na2vs0mg"},{"bike_id":"226e8884-45e8-4155-9023-6b9c578286c2","system_id":"levelo_inurba_marseille","lat":43.30602,"lon":5.37198,"is_reserved":false,"is_disabled":true,"rental_uris":{"android":"levelo://app?vid=226e8884-45e8-4155-9023-6b9c578286c2","ios":"levelo://app?vid=226e8884-45e8-4155-9023-6b9c578286c2"},"vehicle_type_id":"4","last_reported":1748380196,"current_range_meters":9600,"station_id":"ce4bgqh2rcd13ifvqc4g","pricing_plan_id":"cebpf4jnsgd1na2vs0mg"},{"bike_id":"ddb91082-4722-4770-bd2c-0e7cd7a0719c","system_id":"levelo_inurba_marseille","lat":43.284298,"lon":5.375098,"is_reserved":false,"is_disabled":false,"rental_uris":{"android":"levelo://app?vid=ddb91082-4722-4770-bd2c-0e7cd7a0719c","ios":"levelo://app?vid=ddb91082-4722-4770-bd2c-0e7cd7a0719c"},"vehicle_type_id":"4","last_reported":1748380196,"current_range_meters":9600,"station_id":"ce4bh412rcd13ifvqds0","pricing_plan_id":"cebpf4jnsgd1na2vs0mg"},{"bike_id":"59bb42cc-754d-4c4a-829d-a52b1d552159","system_id":"levelo_inurba_marseille","lat":43.30177,"lon":5.36618,"is_reserved":false,"is_disabled":false,"rental_uris":{"android":"levelo://app?vid=59bb42cc-754d-4c4a-829d-a52b1d552159","ios":"levelo://app?vid=59bb42cc-754d-4c4a-829d-a52b1d552159"},"vehicle_type_id":"4","last_reported":1748380196,"current_range_meters":9200,"station_id":"ce4bgrh2rcd13ifvqc8g","pricing_plan_id":"cebpf4jnsgd1na2vs0mg"},{"bike_id":"630e3090-df9f-4e61-a2d8-b2bbefd032a0","system_id":"levelo_inurba_marseille","lat":43.2461,"lon":5.39285,"is_reserved":false,"is_disabled":false,"rental_uris":{"android":"levelo://app?vid=630e3090-df9f-4e61-a2d8-b2bbefd032a0","ios":"levelo://app?vid=630e3090-df9f-4e61-a2d8-b2bbefd032a0"},"vehicle_type_id":"4","last_reported":1748380196,"current_range_meters":9600,"station_id":"","pricing_plan_id":"cebpf4jnsgd1na2vs0mg"},{"bike_id":"f689d449-d0ec-464c-9319-de295e0a037a","system_id":"levelo_inurba_marseille","lat":43.23952,"lon":5.36627,"is_reserved":false,"is_disabled":true,"rental_uris":{"android":"levelo://app?vid=f689d449-d0ec-464c-9319-de295e0a037a","ios":"levelo://app?vid=f689d449-d0ec-464c-9319-de295e0a037a"},"vehicle_type_id":"4","last_reported":1748380196,"current_range_meters":9600,"station_id":"ce4bhi12rcd13ifvqfp0","pricing_plan_id":"cebpf4jnsgd1na2vs0mg"},{"bike_id":"4d3d13e9-c15b-4813-a625-9518f13ee4ea","system_id":"levelo_inurba_marseille","lat":43.284653,"lon":5.358827,"is_reserved":false,"is_disabled":false,"rental_uris":{"android":"levelo://app?vid=4d3d13e9-c15b-4813-a625-9518f13ee4ea","ios":"levelo://app?vid=4d3d13e9-c15b-4813-a625-9518f13ee4ea"},"vehicle_type_id":"4","last_reported":1748380196,"current_range_meters":9600,"station_id":"ce4bhah2rcd13ifvqei0","pricing_plan_id":"cebpf4jnsgd1na2vs0mg"},{"bike_id":"58c565ec-4152-4033-9b18-66babf3bc18f","system_id":"levelo_inurba_marseille","lat":43.30611,"lon":5.3722,"is_reserved":false,"is_disabled":false,"rental_uris":{"android":"levelo://app?vid=58c565ec-4152-4033-9b18-66babf3bc18f","ios":"levelo://app?vid=58c565ec-4152-4033-9b18-66babf3bc18f"},"vehicle_type_id":"4","last_reported":1748380196,"current_range_meters":9600,"station_id":"","pricing_plan_id":"cebpf4jnsgd1na2vs0mg"},{"bike_id":"700d448c-24a5-47f8-9a5d-6b6acc5bb32d","system_id":"levelo_inurba_marseille","lat":43.25751,"lon":5.41101,"is_reserved":false,"is_disabled":false,"rental_uris":{"android":"levelo://app?vid=700d448c-24a5-47f8-9a5d-6b6acc5bb32d","ios":"levelo://app?vid=700d448c-24a5-47f8-9a5d-6b6acc5bb32d"},"vehicle_type_id":"4","last_reported":1748380196,"current_range_meters":9600,"station_id":"ce4bhkp2rcd13ifvqgd0","pricing_plan_id":"cebpf4jnsgd1na2vs0mg"},{"bike_id":"9bf3db75-b014-414a-83c8-553f39b51df1","system_id":"levelo_inurba_marseille","lat":43.303049,"lon":5.395528,"is_reserved":false,"is_disabled":false,"rental_uris":{"android":"levelo://app?vid=9bf3db75-b014-414a-83c8-553f39b51df1","ios":"levelo://app?vid=9bf3db75-b014-414a-83c8-553f39b51df1"},"vehicle_type_id":"4","last_reported":1748380196,"current_range_meters":9600,"station_id":"ce4bgj92rcd13ifvqbd0","pricing_plan_id":"cebpf4jnsgd1na2vs0mg"},{"bike_id":"2832a3a3-6b04-4e1d-bbf3-45f8abce36e3","system_id":"levelo_inurba_marseille","lat":43.31701,"lon":5.4044,"is_reserved":false,"is_disabled":false,"rental_uris":{"android":"levelo://app?vid=2832a3a3-6b04-4e1d-bbf3-45f8abce36e3","ios":"levelo://app?vid=2832a3a3-6b04-4e1d-bbf3-45f8abce36e3"},"vehicle_type_id":"4","last_reported":1748380196,"current_range_meters":10000,"station_id":"ce4bh012rcd13ifvqd00","pricing_plan_id":"cebpf4jnsgd1na2vs0mg"},{"bike_id":"7a65e3be-209f-451a-8d0f-734d6f59b819","system_id":"levelo_inurba_marseille","lat":43.29561,"lon":5.39461,"is_reserved":false,"is_disabled":false,"rental_uris":{"android":"levelo://app?vid=7a65e3be-209f-451a-8d0f-734d6f59b819","ios":"levelo://app?vid=7a65e3be-209f-451a-8d0f-734d6f59b819"},"vehicle_type_id":"4","last_reported":1748380196,"current_range_meters":10000,"station_id":"","pricing_plan_id":"cebpf4jnsgd1na2vs0mg"},{"bike_id":"c45ba5f1-d663-429e-b6d6-24b4bba252a4","system_id":"levelo_inurba_marseille","lat":43.24684,"lon":5.38157,"is_reserved":false,"is_disabled":false,"rental_uris":{"android":"levelo://app?vid=c45ba5f1-d663-429e-b6d6-24b4bba252a4","ios":"levelo://app?vid=c45ba5f1-d663-429e-b6d6-24b4bba252a4"},"vehicle_type_id":"4","last_reported":1748380196,"current_range_meters":10000,"station_id":"ce4bhih2rcd13ifvqfr0","pricing_plan_id":"cebpf4jnsgd1na2vs0mg"},{"bike_id":"f0d83b53-4594-4033-afb0-0d9b1a402851","system_id":"levelo_inurba_marseille","lat":43.31083,"lon":5.37726,"is_reserved":false,"is_disabled":false,"rental_uris":{"android":"levelo://app?vid=f0d83b53-4594-4033-afb0-0d9b1a402851","ios":"levelo://app?vid=f0d83b53-4594-4033-afb0-0d9b1a402851"},"vehicle_type_id":"4","last_reported":1748380196,"current_range_meters":10000,"station_id":"ce4bgt92rcd13ifvqcg0","pricing_plan_id":"cebpf4jnsgd1na2vs0mg"},{"bike_id":"d9cdd6b1-4a24-449e-9576-b4a3bddb5375","system_id":"levelo_inurba_marseille","lat":43.29916,"lon":5.37457,"is_reserved":false,"is_disabled":false,"rental_uris":{"android":"levelo://app?vid=d9cdd6b1-4a24-449e-9576-b4a3bddb5375","ios":"levelo://app?vid=d9cdd6b1-4a24-449e-9576-b4a3bddb5375"},"vehicle_type_id":"4","last_reported":1748380196,"current_range_meters":10000,"station_id":"ce4bgjh2rcd13ifvqbg0","pricing_plan_id":"cebpf4jnsgd1na2vs0mg"},{"bike_id":"1a6da69f-1ddb-4eb0-99d5-b8d7dbfa3b64","system_id":"levelo_inurba_marseille","lat":43.28073,"lon":5.39647,"is_reserved":false,"is_disabled":false,"rental_uris":{"android":"levelo://app?vid=1a6da69f-1ddb-4eb0-99d5-b8d7dbfa3b64","ios":"levelo://app?vid=1a6da69f-1ddb-4eb0-99d5-b8d7dbfa3b64"},"vehicle_type_id":"4","last_reported":1748380196,"current_range_meters":10000,"station_id":"ce4bho12rcd13ifvqh2g","pricing_plan_id":"cebpf4jnsgd1na2vs0mg"},{"bike_id":"a3a1e2f8-c082-4657-9cf8-ceb282e14a71","system_id":"levelo_inurba_marseille","lat":43.23197,"lon":5.40001,"is_reserved":false,"is_disabled":false,"rental_uris":{"android":"levelo://app?vid=a3a1e2f8-c082-4657-9cf8-ceb282e14a71","ios":"levelo://app?vid=a3a1e2f8-c082-4657-9cf8-ceb282e14a71"},"vehicle_type_id":"4","last_reported":1748380196,"current_range_meters":10800,"station_id":"ce4bhn12rcd13ifvqgqg","pricing_plan_id":"cebpf4jnsgd1na2vs0mg"},{"bike_id":"b739c376-f33a-42b8-8eff-1fe4940cc855","system_id":"levelo_inurba_marseille","lat":43.29259,"lon":5.38428,"is_reserved":false,"is_disabled":true,"rental_uris":{"android":"levelo://app?vid=b739c376-f33a-42b8-8eff-1fe4940cc855","ios":"levelo://app?vid=b739c376-f33a-42b8-8eff-1fe4940cc855"},"vehicle_type_id":"4","last_reported":1748380196,"current_range_meters":10000,"station_id":"ce4bh692rcd13ifvqea0","pricing_plan_id":"cebpf4jnsgd1na2vs0mg"},{"bike_id":"2a046dee-b3af-48c9-9659-b7d30ba20af5","system_id":"levelo_inurba_marseille","lat":43.24334,"lon":5.3799,"is_reserved":false,"is_disabled":false,"rental_uris":{"android":"levelo://app?vid=2a046dee-b3af-48c9-9659-b7d30ba20af5","ios":"levelo://app?vid=2a046dee-b3af-48c9-9659-b7d30ba20af5"},"vehicle_type_id":"4","last_reported":1748380196,"current_range_meters":10000,"station_id":"","pricing_plan_id":"cebpf4jnsgd1na2vs0mg"},{"bike_id":"7fcdd423-8667-4a3d-a3a0-bdcb5e9ad8dc","system_id":"levelo_inurba_marseille","lat":43.2573,"lon":5.41096,"is_reserved":false,"is_disabled":false,"rental_uris":{"android":"levelo://app?vid=7fcdd423-8667-4a3d-a3a0-bdcb5e9ad8dc","ios":"levelo://app?vid=7fcdd423-8667-4a3d-a3a0-bdcb5e9ad8dc"},"vehicle_type_id":"4","last_reported":1748380196,"current_range_meters":10000,"station_id":"ce4bhkp2rcd13ifvqgd0","pricing_plan_id":"cebpf4jnsgd1na2vs0mg"},{"bike_id":"ce7eb61c-206b-4db3-b332-8632cc159729","system_id":"levelo_inurba_marseille","lat":43.28368,"lon":5.38632,"is_reserved":false,"is_disabled":false,"rental_uris":{"android":"levelo://app?vid=ce7eb61c-206b-4db3-b332-8632cc159729","ios":"levelo://app?vid=ce7eb61c-206b-4db3-b332-8632cc159729"},"vehicle_type_id":"4","last_reported":1748380196,"current_range_meters":10800,"station_id":"ce4bh492rcd13ifvqdvg","pricing_plan_id":"cebpf4jnsgd1na2vs0mg"},{"bike_id":"26287ccc-7b12-4725-a7ad-008152084d93","system_id":"levelo_inurba_marseille","lat":43.29251,"lon":5.40909,"is_reserved":false,"is_disabled":false,"rental_uris":{"android":"levelo://app?vid=26287ccc-7b12-4725-a7ad-008152084d93","ios":"levelo://app?vid=26287ccc-7b12-4725-a7ad-008152084d93"},"vehicle_type_id":"4","last_reported":1748380196,"current_range_meters":10800,"station_id":"ce4bh192rcd13ifvqdc0","pricing_plan_id":"cebpf4jnsgd1na2vs0mg"},{"bike_id":"2bfa03fe-9760-4a8f-a981-15b7184b6380","system_id":"levelo_inurba_marseille","lat":43.29421,"lon":5.38631,"is_reserved":false,"is_disabled":false,"rental_uris":{"android":"levelo://app?vid=2bfa03fe-9760-4a8f-a981-15b7184b6380","ios":"levelo://app?vid=2bfa03fe-9760-4a8f-a981-15b7184b6380"},"vehicle_type_id":"4","last_reported":1748380196,"current_range_meters":10800,"station_id":"ce4bh2h2rcd13ifvqdh0","pricing_plan_id":"cebpf4jnsgd1na2vs0mg"},{"bike_id":"e501abd7-9de5-4b39-b0c2-7842d0ad844c","system_id":"levelo_inurba_marseille","lat":43.28528,"lon":5.38386,"is_reserved":false,"is_disabled":false,"rental_uris":{"android":"levelo://app?vid=e501abd7-9de5-4b39-b0c2-7842d0ad844c","ios":"levelo://app?vid=e501abd7-9de5-4b39-b0c2-7842d0ad844c"},"vehicle_type_id":"4","last_reported":1748380196,"current_range_meters":10800,"station_id":"","pricing_plan_id":"cebpf4jnsgd1na2vs0mg"},{"bike_id":"8b75c625-40ab-459a-8eba-3ed719cf2761","system_id":"levelo_inurba_marseille","lat":43.279154,"lon":5.380003,"is_reserved":false,"is_disabled":false,"rental_uris":{"android":"levelo://app?vid=8b75c625-40ab-459a-8eba-3ed719cf2761","ios":"levelo://app?vid=8b75c625-40ab-459a-8eba-3ed719cf2761"},"vehicle_type_id":"4","last_reported":1748380196,"current_range_meters":10800,"station_id":"ce4bhf92rcd13ifvqf50","pricing_plan_id":"cebpf4jnsgd1na2vs0mg"},{"bike_id":"c0b9a566-efe3-4d0b-9acc-6ef247057511","system_id":"levelo_inurba_marseille","lat":43.325876,"lon":5.388993,"is_reserved":false,"is_disabled":false,"rental_uris":{"android":"levelo://app?vid=c0b9a566-efe3-4d0b-9acc-6ef247057511","ios":"levelo://app?vid=c0b9a566-efe3-4d0b-9acc-6ef247057511"},"vehicle_type_id":"4","last_reported":1748380196,"current_range_meters":10800,"station_id":"ce4bhqp2rcd13ifvqhog","pricing_plan_id":"cebpf4jnsgd1na2vs0mg"},{"bike_id":"1c4d626c-93ab-41b9-815e-96048904b577","system_id":"levelo_inurba_marseille","lat":43.24071,"lon":5.37767,"is_reserved":false,"is_disabled":false,"rental_uris":{"android":"levelo://app?vid=1c4d626c-93ab-41b9-815e-96048904b577","ios":"levelo://app?vid=1c4d626c-93ab-41b9-815e-96048904b577"},"vehicle_type_id":"4","last_reported":1748380196,"current_range_meters":10800,"station_id":"ce4bhnp2rcd13ifvqgvg","pricing_plan_id":"cebpf4jnsgd1na2vs0mg"},{"bike_id":"765507f4-4472-41a3-99a1-e5ed81e33e54","system_id":"levelo_inurba_marseille","lat":43.28423,"lon":5.3751,"is_reserved":false,"is_disabled":false,"rental_uris":{"android":"levelo://app?vid=765507f4-4472-41a3-99a1-e5ed81e33e54","ios":"levelo://app?vid=765507f4-4472-41a3-99a1-e5ed81e33e54"},"vehicle_type_id":"4","last_reported":1748380196,"current_range_meters":10800,"station_id":"ce4bh412rcd13ifvqds0","pricing_plan_id":"cebpf4jnsgd1na2vs0mg"},{"bike_id":"92c20333-f1be-4048-8f1a-30fdeff2a990","system_id":"levelo_inurba_marseille","lat":43.330234,"lon":5.390327,"is_reserved":false,"is_disabled":false,"rental_uris":{"android":"levelo://app?vid=92c20333-f1be-4048-8f1a-30fdeff2a990","ios":"levelo://app?vid=92c20333-f1be-4048-8f1a-30fdeff2a990"},"vehicle_type_id":"4","last_reported":1748380196,"current_range_meters":10800,"station_id":"ce4bhr92rcd13ifvqhrg","pricing_plan_id":"cebpf4jnsgd1na2vs0mg"},{"bike_id":"37d1376c-dfa1-4e03-8541-7bea54bb6ea8","system_id":"levelo_inurba_marseille","lat":43.31166,"lon":5.387246,"is_reserved":false,"is_disabled":false,"rental_uris":{"android":"levelo://app?vid=37d1376c-dfa1-4e03-8541-7bea54bb6ea8","ios":"levelo://app?vid=37d1376c-dfa1-4e03-8541-7bea54bb6ea8"},"vehicle_type_id":"4","last_reported":1748380196,"current_range_meters":10800,"station_id":"ce4bgv12rcd13ifvqcp0","pricing_plan_id":"cebpf4jnsgd1na2vs0mg"},{"bike_id":"399ed01e-2d4e-4bc6-b1d3-297b8a613b84","system_id":"levelo_inurba_marseille","lat":43.29889,"lon":5.38916,"is_reserved":false,"is_disabled":false,"rental_uris":{"android":"levelo://app?vid=399ed01e-2d4e-4bc6-b1d3-297b8a613b84","ios":"levelo://app?vid=399ed01e-2d4e-4bc6-b1d3-297b8a613b84"},"vehicle_type_id":"4","last_reported":1748380196,"current_range_meters":11200,"station_id":"ce4bh392rcd13ifvqdl0","pricing_plan_id":"cebpf4jnsgd1na2vs0mg"},{"bike_id":"2eefa692-cf01-477e-b75f-98c8d4095538","system_id":"levelo_inurba_marseille","lat":43.27844,"lon":5.39215,"is_reserved":false,"is_disabled":false,"rental_uris":{"android":"levelo://app?vid=2eefa692-cf01-477e-b75f-98c8d4095538","ios":"levelo://app?vid=2eefa692-cf01-477e-b75f-98c8d4095538"},"vehicle_type_id":"4","last_reported":1748380196,"current_range_meters":10800,"station_id":"ce4bhjp2rcd13ifvqga0","pricing_plan_id":"cebpf4jnsgd1na2vs0mg"},{"bike_id":"7f87552f-d6b0-4eee-bda4-adadf1cf8635","system_id":"levelo_inurba_marseille","lat":43.29415,"lon":5.3862,"is_reserved":false,"is_disabled":false,"rental_uris":{"android":"levelo://app?vid=7f87552f-d6b0-4eee-bda4-adadf1cf8635","ios":"levelo://app?vid=7f87552f-d6b0-4eee-bda4-adadf1cf8635"},"vehicle_type_id":"4","last_reported":1748380196,"current_range_meters":11200,"station_id":"ce4bh2h2rcd13ifvqdh0","pricing_plan_id":"cebpf4jnsgd1na2vs0mg"},{"bike_id":"e5c564c2-05be-4d1d-857c-8a676d5a4464","system_id":"levelo_inurba_marseille","lat":43.29919,"lon":5.37471,"is_reserved":false,"is_disabled":false,"rental_uris":{"android":"levelo://app?vid=e5c564c2-05be-4d1d-857c-8a676d5a4464","ios":"levelo://app?vid=e5c564c2-05be-4d1d-857c-8a676d5a4464"},"vehicle_type_id":"4","last_reported":1748380196,"current_range_meters":11200,"station_id":"ce4bgjh2rcd13ifvqbg0","pricing_plan_id":"cebpf4jnsgd1na2vs0mg"},{"bike_id":"7aada5ca-e1c3-4b6b-b301-a25ef474274f","system_id":"levelo_inurba_marseille","lat":43.23963,"lon":5.3663,"is_reserved":false,"is_disabled":false,"rental_uris":{"android":"levelo://app?vid=7aada5ca-e1c3-4b6b-b301-a25ef474274f","ios":"levelo://app?vid=7aada5ca-e1c3-4b6b-b301-a25ef474274f"},"vehicle_type_id":"4","last_reported":1748380196,"current_range_meters":11200,"station_id":"ce4bhi12rcd13ifvqfp0","pricing_plan_id":"cebpf4jnsgd1na2vs0mg"},{"bike_id":"1bc2e38c-0f2a-436f-9c6b-ca4dfffbca40","system_id":"levelo_inurba_marseille","lat":43.29427,"lon":5.38625,"is_reserved":false,"is_disabled":false,"rental_uris":{"android":"levelo://app?vid=1bc2e38c-0f2a-436f-9c6b-ca4dfffbca40","ios":"levelo://app?vid=1bc2e38c-0f2a-436f-9c6b-ca4dfffbca40"},"vehicle_type_id":"4","last_reported":1748380196,"current_range_meters":11200,"station_id":"ce4bh2h2rcd13ifvqdh0","pricing_plan_id":"cebpf4jnsgd1na2vs0mg"},{"bike_id":"33443118-723c-498a-898f-16f5d8bf077e","system_id":"levelo_inurba_marseille","lat":43.28568,"lon":5.39477,"is_reserved":false,"is_disabled":false,"rental_uris":{"android":"levelo://app?vid=33443118-723c-498a-898f-16f5d8bf077e","ios":"levelo://app?vid=33443118-723c-498a-898f-16f5d8bf077e"},"vehicle_type_id":"4","last_reported":1748380196,"current_range_meters":11600,"station_id":"ce4bh292rcd13ifvqdg0","pricing_plan_id":"cebpf4jnsgd1na2vs0mg"},{"bike_id":"c5a65b20-1c31-4027-b917-59e1f1ac3631","system_id":"levelo_inurba_marseille","lat":43.29419,"lon":5.38615,"is_reserved":false,"is_disabled":false,"rental_uris":{"android":"levelo://app?vid=c5a65b20-1c31-4027-b917-59e1f1ac3631","ios":"levelo://app?vid=c5a65b20-1c31-4027-b917-59e1f1ac3631"},"vehicle_type_id":"4","last_reported":1748380196,"current_range_meters":11600,"station_id":"ce4bh2h2rcd13ifvqdh0","pricing_plan_id":"cebpf4jnsgd1na2vs0mg"},{"bike_id":"de144cf8-0cf0-4b6e-b682-0aa33fdfa126","system_id":"levelo_inurba_marseille","lat":43.2768,"lon":5.38869,"is_reserved":false,"is_disabled":false,"rental_uris":{"android":"levelo://app?vid=de144cf8-0cf0-4b6e-b682-0aa33fdfa126","ios":"levelo://app?vid=de144cf8-0cf0-4b6e-b682-0aa33fdfa126"},"vehicle_type_id":"4","last_reported":1748380196,"current_range_meters":11600,"station_id":"ce4bhi12rcd13ifvqfo0","pricing_plan_id":"cebpf4jnsgd1na2vs0mg"},{"bike_id":"a90e0e39-2ee6-49b7-b01d-34f46bf33794","system_id":"levelo_inurba_marseille","lat":43.28426,"lon":5.34995,"is_reserved":false,"is_disabled":true,"rental_uris":{"android":"levelo://app?vid=a90e0e39-2ee6-49b7-b01d-34f46bf33794","ios":"levelo://app?vid=a90e0e39-2ee6-49b7-b01d-34f46bf33794"},"vehicle_type_id":"4","last_reported":1748380196,"current_range_meters":11600,"station_id":"ce4bhbh2rcd13ifvqepg","pricing_plan_id":"cebpf4jnsgd1na2vs0mg"},{"bike_id":"4abe6b14-37da-48c1-95c2-6bcc375f4ebf","system_id":"levelo_inurba_marseille","lat":43.29422,"lon":5.38629,"is_reserved":false,"is_disabled":false,"rental_uris":{"android":"levelo://app?vid=4abe6b14-37da-48c1-95c2-6bcc375f4ebf","ios":"levelo://app?vid=4abe6b14-37da-48c1-95c2-6bcc375f4ebf"},"vehicle_type_id":"4","last_reported":1748380196,"current_range_meters":11600,"station_id":"ce4bh2h2rcd13ifvqdh0","pricing_plan_id":"cebpf4jnsgd1na2vs0mg"},{"bike_id":"d210ed15-0cab-4985-be76-61173c3a81e4","system_id":"levelo_inurba_marseille","lat":43.28724,"lon":5.36086,"is_reserved":false,"is_disabled":true,"rental_uris":{"android":"levelo://app?vid=d210ed15-0cab-4985-be76-61173c3a81e4","ios":"levelo://app?vid=d210ed15-0cab-4985-be76-61173c3a81e4"},"vehicle_type_id":"4","last_reported":1748380196,"current_range_meters":11600,"station_id":"cki0cbj6b192h4jlfktg","pricing_plan_id":"cebpf4jnsgd1na2vs0mg"},{"bike_id":"3bb69b95-acc1-4494-9449-5a747ed5114d","system_id":"levelo_inurba_marseille","lat":43.27369,"lon":5.36242,"is_reserved":false,"is_disabled":false,"rental_uris":{"android":"levelo://app?vid=3bb69b95-acc1-4494-9449-5a747ed5114d","ios":"levelo://app?vid=3bb69b95-acc1-4494-9449-5a747ed5114d"},"vehicle_type_id":"4","last_reported":1748380196,"current_range_meters":11600,"station_id":"ce4bhbh2rcd13ifvqeo0","pricing_plan_id":"cebpf4jnsgd1na2vs0mg"},{"bike_id":"f11bc507-3a25-4869-bad2-624bc62971f0","system_id":"levelo_inurba_marseille","lat":43.29852,"lon":5.36269,"is_reserved":false,"is_disabled":false,"rental_uris":{"android":"levelo://app?vid=f11bc507-3a25-4869-bad2-624bc62971f0","ios":"levelo://app?vid=f11bc507-3a25-4869-bad2-624bc62971f0"},"vehicle_type_id":"4","last_reported":1748380196,"current_range_meters":11600,"station_id":"ce4bgpp2rcd13ifvqc3g","pricing_plan_id":"cebpf4jnsgd1na2vs0mg"},{"bike_id":"6a32a17f-f0e0-416c-9282-65617ef08471","system_id":"levelo_inurba_marseille","lat":43.23965,"lon":5.36632,"is_reserved":false,"is_disabled":false,"rental_uris":{"android":"levelo://app?vid=6a32a17f-f0e0-416c-9282-65617ef08471","ios":"levelo://app?vid=6a32a17f-f0e0-416c-9282-65617ef08471"},"vehicle_type_id":"4","last_reported":1748380196,"current_range_meters":12000,"station_id":"ce4bhi12rcd13ifvqfp0","pricing_plan_id":"cebpf4jnsgd1na2vs0mg"},{"bike_id":"aa8291b6-6ecb-444f-b84b-e4aaad9e47ca","system_id":"levelo_inurba_marseille","lat":43.27948,"lon":5.41032,"is_reserved":false,"is_disabled":false,"rental_uris":{"android":"levelo://app?vid=aa8291b6-6ecb-444f-b84b-e4aaad9e47ca","ios":"levelo://app?vid=aa8291b6-6ecb-444f-b84b-e4aaad9e47ca"},"vehicle_type_id":"4","last_reported":1748380196,"current_range_meters":12000,"station_id":"ce4bhnp2rcd13ifvqh0g","pricing_plan_id":"cebpf4jnsgd1na2vs0mg"},{"bike_id":"f757d16f-10d1-46fd-97c8-e7926b6602c0","system_id":"levelo_inurba_marseille","lat":43.30888,"lon":5.39619,"is_reserved":false,"is_disabled":false,"rental_uris":{"android":"levelo://app?vid=f757d16f-10d1-46fd-97c8-e7926b6602c0","ios":"levelo://app?vid=f757d16f-10d1-46fd-97c8-e7926b6602c0"},"vehicle_type_id":"4","last_reported":1748380196,"current_range_meters":12400,"station_id":"ce4bh012rcd13ifvqcv0","pricing_plan_id":"cebpf4jnsgd1na2vs0mg"},{"bike_id":"5ad0faef-897d-4c19-b2e4-979327720bd4","system_id":"levelo_inurba_marseille","lat":43.25097,"lon":5.39522,"is_reserved":false,"is_disabled":false,"rental_uris":{"android":"levelo://app?vid=5ad0faef-897d-4c19-b2e4-979327720bd4","ios":"levelo://app?vid=5ad0faef-897d-4c19-b2e4-979327720bd4"},"vehicle_type_id":"4","last_reported":1748380196,"current_range_meters":12400,"station_id":"ce4bhm12rcd13ifvqgkg","pricing_plan_id":"cebpf4jnsgd1na2vs0mg"},{"bike_id":"1031a0de-1a80-4c50-9132-2decfc1c7d44","system_id":"levelo_inurba_marseille","lat":43.23191,"lon":5.3998,"is_reserved":false,"is_disabled":false,"rental_uris":{"android":"levelo://app?vid=1031a0de-1a80-4c50-9132-2decfc1c7d44","ios":"levelo://app?vid=1031a0de-1a80-4c50-9132-2decfc1c7d44"},"vehicle_type_id":"4","last_reported":1748380196,"current_range_meters":12400,"station_id":"ce4bhn12rcd13ifvqgqg","pricing_plan_id":"cebpf4jnsgd1na2vs0mg"},{"bike_id":"cc391400-7d4c-4261-8004-e9968eddac7e","system_id":"levelo_inurba_marseille","lat":43.29037,"lon":5.37553,"is_reserved":false,"is_disabled":true,"rental_uris":{"android":"levelo://app?vid=cc391400-7d4c-4261-8004-e9968eddac7e","ios":"levelo://app?vid=cc391400-7d4c-4261-8004-e9968eddac7e"},"vehicle_type_id":"4","last_reported":1748380196,"current_range_meters":12400,"station_id":"ce4bh692rcd13ifvqe90","pricing_plan_id":"cebpf4jnsgd1na2vs0mg"},{"bike_id":"6a2eb3d1-8421-4db2-9c25-13e15f56bb41","system_id":"levelo_inurba_marseille","lat":43.30943,"lon":5.4015,"is_reserved":false,"is_disabled":false,"rental_uris":{"android":"levelo://app?vid=6a2eb3d1-8421-4db2-9c25-13e15f56bb41","ios":"levelo://app?vid=6a2eb3d1-8421-4db2-9c25-13e15f56bb41"},"vehicle_type_id":"4","last_reported":1748380196,"current_range_meters":12400,"station_id":"ce4bgvp2rcd13ifvqct0","pricing_plan_id":"cebpf4jnsgd1na2vs0mg"},{"bike_id":"6f09a455-6782-48cf-bf56-c0c04af231c1","system_id":"levelo_inurba_marseille","lat":43.31331,"lon":5.39683,"is_reserved":false,"is_disabled":false,"rental_uris":{"android":"levelo://app?vid=6f09a455-6782-48cf-bf56-c0c04af231c1","ios":"levelo://app?vid=6f09a455-6782-48cf-bf56-c0c04af231c1"},"vehicle_type_id":"4","last_reported":1748380196,"current_range_meters":12400,"station_id":"ce4bgvp2rcd13ifvqcu0","pricing_plan_id":"cebpf4jnsgd1na2vs0mg"},{"bike_id":"f8202d39-2e7a-4ca8-ab37-01c4228f54d0","system_id":"levelo_inurba_marseille","lat":43.28702,"lon":5.39982,"is_reserved":false,"is_disabled":false,"rental_uris":{"android":"levelo://app?vid=f8202d39-2e7a-4ca8-ab37-01c4228f54d0","ios":"levelo://app?vid=f8202d39-2e7a-4ca8-ab37-01c4228f54d0"},"vehicle_type_id":"4","last_reported":1748380196,"current_range_meters":12400,"station_id":"ce4bho92rcd13ifvqh3g","pricing_plan_id":"cebpf4jnsgd1na2vs0mg"},{"bike_id":"18f379c0-cd6a-4d28-94be-da5478774af1","system_id":"levelo_inurba_marseille","lat":43.29044,"lon":5.35916,"is_reserved":false,"is_disabled":true,"rental_uris":{"android":"levelo://app?vid=18f379c0-cd6a-4d28-94be-da5478774af1","ios":"levelo://app?vid=18f379c0-cd6a-4d28-94be-da5478774af1"},"vehicle_type_id":"4","last_reported":1748380196,"current_range_meters":12800,"station_id":"ce4bha92rcd13ifvqeg0","pricing_plan_id":"cebpf4jnsgd1na2vs0mg"},{"bike_id":"54d619eb-d5de-4b2b-9336-6f3587fb20da","system_id":"levelo_inurba_marseille","lat":43.2942,"lon":5.38625,"is_reserved":false,"is_disabled":false,"rental_uris":{"android":"levelo://app?vid=54d619eb-d5de-4b2b-9336-6f3587fb20da","ios":"levelo://app?vid=54d619eb-d5de-4b2b-9336-6f3587fb20da"},"vehicle_type_id":"4","last_reported":1748380196,"current_range_meters":12800,"station_id":"ce4bh2h2rcd13ifvqdh0","pricing_plan_id":"cebpf4jnsgd1na2vs0mg"},{"bike_id":"cee3fd6f-59d8-44bc-a6ae-9899f5310af3","system_id":"levelo_inurba_marseille","lat":43.30894,"lon":5.37183,"is_reserved":false,"is_disabled":false,"rental_uris":{"android":"levelo://app?vid=cee3fd6f-59d8-44bc-a6ae-9899f5310af3","ios":"levelo://app?vid=cee3fd6f-59d8-44bc-a6ae-9899f5310af3"},"vehicle_type_id":"4","last_reported":1748380196,"current_range_meters":12800,"station_id":"ce4bguh2rcd13ifvqckg","pricing_plan_id":"cebpf4jnsgd1na2vs0mg"},{"bike_id":"8b8f4ddc-5f2d-41ad-9613-91a528fd4361","system_id":"levelo_inurba_marseille","lat":43.229315,"lon":5.353754,"is_reserved":false,"is_disabled":false,"rental_uris":{"android":"levelo://app?vid=8b8f4ddc-5f2d-41ad-9613-91a528fd4361","ios":"levelo://app?vid=8b8f4ddc-5f2d-41ad-9613-91a528fd4361"},"vehicle_type_id":"4","last_reported":1748380196,"current_range_meters":12800,"station_id":"cpo3532slgdg3j2ikp40","pricing_plan_id":"cebpf4jnsgd1na2vs0mg"},{"bike_id":"07ab72bd-9298-45dd-8184-52d45380b58d","system_id":"levelo_inurba_marseille","lat":43.28069,"lon":5.39645,"is_reserved":false,"is_disabled":false,"rental_uris":{"android":"levelo://app?vid=07ab72bd-9298-45dd-8184-52d45380b58d","ios":"levelo://app?vid=07ab72bd-9298-45dd-8184-52d45380b58d"},"vehicle_type_id":"4","last_reported":1748380196,"current_range_meters":12800,"station_id":"ce4bho12rcd13ifvqh2g","pricing_plan_id":"cebpf4jnsgd1na2vs0mg"},{"bike_id":"16325869-b0b1-4ea6-b5e0-4206964d490a","system_id":"levelo_inurba_marseille","lat":43.2603,"lon":5.41739,"is_reserved":false,"is_disabled":false,"rental_uris":{"android":"levelo://app?vid=16325869-b0b1-4ea6-b5e0-4206964d490a","ios":"levelo://app?vid=16325869-b0b1-4ea6-b5e0-4206964d490a"},"vehicle_type_id":"4","last_reported":1748380196,"current_range_meters":12800,"station_id":"","pricing_plan_id":"cebpf4jnsgd1na2vs0mg"},{"bike_id":"9457a377-3567-464b-b191-f8d2ccbd3d31","system_id":"levelo_inurba_marseille","lat":43.31698,"lon":5.40412,"is_reserved":false,"is_disabled":false,"rental_uris":{"android":"levelo://app?vid=9457a377-3567-464b-b191-f8d2ccbd3d31","ios":"levelo://app?vid=9457a377-3567-464b-b191-f8d2ccbd3d31"},"vehicle_type_id":"4","last_reported":1748380196,"current_range_meters":12800,"station_id":"","pricing_plan_id":"cebpf4jnsgd1na2vs0mg"},{"bike_id":"79cee223-35b4-48b7-8367-997cdc71bb24","system_id":"levelo_inurba_marseille","lat":43.29263,"lon":5.38448,"is_reserved":false,"is_disabled":false,"rental_uris":{"android":"levelo://app?vid=79cee223-35b4-48b7-8367-997cdc71bb24","ios":"levelo://app?vid=79cee223-35b4-48b7-8367-997cdc71bb24"},"vehicle_type_id":"4","last_reported":1748380196,"current_range_meters":12800,"station_id":"ce4bh692rcd13ifvqea0","pricing_plan_id":"cebpf4jnsgd1na2vs0mg"},{"bike_id":"0c54ac15-bb15-4844-a441-b6cbd573eb91","system_id":"levelo_inurba_marseille","lat":43.30888,"lon":5.39624,"is_reserved":false,"is_disabled":false,"rental_uris":{"android":"levelo://app?vid=0c54ac15-bb15-4844-a441-b6cbd573eb91","ios":"levelo://app?vid=0c54ac15-bb15-4844-a441-b6cbd573eb91"},"vehicle_type_id":"4","last_reported":1748380196,"current_range_meters":12800,"station_id":"ce4bh012rcd13ifvqcv0","pricing_plan_id":"cebpf4jnsgd1na2vs0mg"},{"bike_id":"4fd52991-ce7f-4faf-8f58-3efb0bf9139c","system_id":"levelo_inurba_marseille","lat":43.3026,"lon":5.40072,"is_reserved":false,"is_disabled":false,"rental_uris":{"android":"levelo://app?vid=4fd52991-ce7f-4faf-8f58-3efb0bf9139c","ios":"levelo://app?vid=4fd52991-ce7f-4faf-8f58-3efb0bf9139c"},"vehicle_type_id":"4","last_reported":1748380196,"current_range_meters":13600,"station_id":"ce4bgvh2rcd13ifvqcs0","pricing_plan_id":"cebpf4jnsgd1na2vs0mg"},{"bike_id":"cca40936-2e2e-4cae-9baf-eec8f3341b59","system_id":"levelo_inurba_marseille","lat":43.30683,"lon":5.40093,"is_reserved":false,"is_disabled":false,"rental_uris":{"android":"levelo://app?vid=cca40936-2e2e-4cae-9baf-eec8f3341b59","ios":"levelo://app?vid=cca40936-2e2e-4cae-9baf-eec8f3341b59"},"vehicle_type_id":"4","last_reported":1748380196,"current_range_meters":13600,"station_id":"ce4bh112rcd13ifvqda0","pricing_plan_id":"cebpf4jnsgd1na2vs0mg"},{"bike_id":"f7fbc1d9-af64-4aef-9eba-8165d0aadc07","system_id":"levelo_inurba_marseille","lat":43.30933,"lon":5.40142,"is_reserved":false,"is_disabled":false,"rental_uris":{"android":"levelo://app?vid=f7fbc1d9-af64-4aef-9eba-8165d0aadc07","ios":"levelo://app?vid=f7fbc1d9-af64-4aef-9eba-8165d0aadc07"},"vehicle_type_id":"4","last_reported":1748380196,"current_range_meters":13600,"station_id":"ce4bgvp2rcd13ifvqct0","pricing_plan_id":"cebpf4jnsgd1na2vs0mg"},{"bike_id":"d4bb0c74-3b3f-459a-bcc3-8e388dc68a97","system_id":"levelo_inurba_marseille","lat":43.28411,"lon":5.37514,"is_reserved":false,"is_disabled":false,"rental_uris":{"android":"levelo://app?vid=d4bb0c74-3b3f-459a-bcc3-8e388dc68a97","ios":"levelo://app?vid=d4bb0c74-3b3f-459a-bcc3-8e388dc68a97"},"vehicle_type_id":"4","last_reported":1748380196,"current_range_meters":13600,"station_id":"ce4bh412rcd13ifvqds0","pricing_plan_id":"cebpf4jnsgd1na2vs0mg"},{"bike_id":"2529c065-7ff3-4734-bd87-ef819623e19c","system_id":"levelo_inurba_marseille","lat":43.33606,"lon":5.41035,"is_reserved":false,"is_disabled":false,"rental_uris":{"android":"levelo://app?vid=2529c065-7ff3-4734-bd87-ef819623e19c","ios":"levelo://app?vid=2529c065-7ff3-4734-bd87-ef819623e19c"},"vehicle_type_id":"4","last_reported":1748380196,"current_range_meters":13600,"station_id":"ce4bhqh2rcd13ifvqhmg","pricing_plan_id":"cebpf4jnsgd1na2vs0mg"},{"bike_id":"5a621852-4b0d-47fa-9514-efb82e08741c","system_id":"levelo_inurba_marseille","lat":43.33778,"lon":5.37463,"is_reserved":false,"is_disabled":true,"rental_uris":{"android":"levelo://app?vid=5a621852-4b0d-47fa-9514-efb82e08741c","ios":"levelo://app?vid=5a621852-4b0d-47fa-9514-efb82e08741c"},"vehicle_type_id":"4","last_reported":1748380196,"current_range_meters":14000,"station_id":"","pricing_plan_id":"cebpf4jnsgd1na2vs0mg"},{"bike_id":"ab23b45d-55a4-4f45-8515-e9a728e9e7ef","system_id":"levelo_inurba_marseille","lat":43.3054,"lon":5.38421,"is_reserved":false,"is_disabled":false,"rental_uris":{"android":"levelo://app?vid=ab23b45d-55a4-4f45-8515-e9a728e9e7ef","ios":"levelo://app?vid=ab23b45d-55a4-4f45-8515-e9a728e9e7ef"},"vehicle_type_id":"4","last_reported":1748380196,"current_range_meters":14000,"station_id":"ce4bgg92rcd13ifvqb30","pricing_plan_id":"cebpf4jnsgd1na2vs0mg"},{"bike_id":"cf3dd4c5-ed3c-41b4-acb2-cdba42ba9074","system_id":"levelo_inurba_marseille","lat":43.25719,"lon":5.41118,"is_reserved":false,"is_disabled":false,"rental_uris":{"android":"levelo://app?vid=cf3dd4c5-ed3c-41b4-acb2-cdba42ba9074","ios":"levelo://app?vid=cf3dd4c5-ed3c-41b4-acb2-cdba42ba9074"},"vehicle_type_id":"4","last_reported":1748380196,"current_range_meters":14000,"station_id":"ce4bhkp2rcd13ifvqgd0","pricing_plan_id":"cebpf4jnsgd1na2vs0mg"},{"bike_id":"9ed94f34-a328-46fc-b201-bade39dda6d1","system_id":"levelo_inurba_marseille","lat":43.25004,"lon":5.3891,"is_reserved":false,"is_disabled":false,"rental_uris":{"android":"levelo://app?vid=9ed94f34-a328-46fc-b201-bade39dda6d1","ios":"levelo://app?vid=9ed94f34-a328-46fc-b201-bade39dda6d1"},"vehicle_type_id":"4","last_reported":1748380196,"current_range_meters":14000,"station_id":"ce4bhgp2rcd13ifvqfd0","pricing_plan_id":"cebpf4jnsgd1na2vs0mg"},{"bike_id":"da0f3c49-6bb7-4bbf-844b-3fdcb99def2b","system_id":"levelo_inurba_marseille","lat":43.29544,"lon":5.38536,"is_reserved":false,"is_disabled":false,"rental_uris":{"android":"levelo://app?vid=da0f3c49-6bb7-4bbf-844b-3fdcb99def2b","ios":"levelo://app?vid=da0f3c49-6bb7-4bbf-844b-3fdcb99def2b"},"vehicle_type_id":"4","last_reported":1748380196,"current_range_meters":14000,"station_id":"ce4bgih2rcd13ifvqba0","pricing_plan_id":"cebpf4jnsgd1na2vs0mg"},{"bike_id":"c6030a8e-a841-4cc8-b31d-293276639673","system_id":"levelo_inurba_marseille","lat":43.29021,"lon":5.3756,"is_reserved":false,"is_disabled":false,"rental_uris":{"android":"levelo://app?vid=c6030a8e-a841-4cc8-b31d-293276639673","ios":"levelo://app?vid=c6030a8e-a841-4cc8-b31d-293276639673"},"vehicle_type_id":"4","last_reported":1748380196,"current_range_meters":14000,"station_id":"ce4bh692rcd13ifvqe90","pricing_plan_id":"cebpf4jnsgd1na2vs0mg"},{"bike_id":"46f1e1a2-421d-4288-9b19-22918bc7cc7f","system_id":"levelo_inurba_marseille","lat":43.232023,"lon":5.355498,"is_reserved":false,"is_disabled":false,"rental_uris":{"android":"levelo://app?vid=46f1e1a2-421d-4288-9b19-22918bc7cc7f","ios":"levelo://app?vid=46f1e1a2-421d-4288-9b19-22918bc7cc7f"},"vehicle_type_id":"4","last_reported":1748380196,"current_range_meters":14000,"station_id":"ce4bhu92rcd13ifvqi70","pricing_plan_id":"cebpf4jnsgd1na2vs0mg"},{"bike_id":"7d644362-2701-4137-aac7-822704820d27","system_id":"levelo_inurba_marseille","lat":43.31758,"lon":5.3902,"is_reserved":false,"is_disabled":true,"rental_uris":{"android":"levelo://app?vid=7d644362-2701-4137-aac7-822704820d27","ios":"levelo://app?vid=7d644362-2701-4137-aac7-822704820d27"},"vehicle_type_id":"4","last_reported":1748380196,"current_range_meters":14000,"station_id":"ce4bhqp2rcd13ifvqhng","pricing_plan_id":"cebpf4jnsgd1na2vs0mg"},{"bike_id":"b9feece3-8db7-4d9c-b5c4-3d592ac61b90","system_id":"levelo_inurba_marseille","lat":43.291848,"lon":5.358085,"is_reserved":false,"is_disabled":true,"rental_uris":{"android":"levelo://app?vid=b9feece3-8db7-4d9c-b5c4-3d592ac61b90","ios":"levelo://app?vid=b9feece3-8db7-4d9c-b5c4-3d592ac61b90"},"vehicle_type_id":"4","last_reported":1748380196,"current_range_meters":14000,"station_id":"","pricing_plan_id":"cebpf4jnsgd1na2vs0mg"},{"bike_id":"34c6f0fc-a825-460a-874b-f9afa9305de8","system_id":"levelo_inurba_marseille","lat":43.30613,"lon":5.37204,"is_reserved":false,"is_disabled":false,"rental_uris":{"android":"levelo://app?vid=34c6f0fc-a825-460a-874b-f9afa9305de8","ios":"levelo://app?vid=34c6f0fc-a825-460a-874b-f9afa9305de8"},"vehicle_type_id":"4","last_reported":1748380196,"current_range_meters":14400,"station_id":"ce4bgqh2rcd13ifvqc4g","pricing_plan_id":"cebpf4jnsgd1na2vs0mg"},{"bike_id":"7aa7b369-c4e8-494e-a460-d3e5f9177952","system_id":"levelo_inurba_marseille","lat":43.29578,"lon":5.39968,"is_reserved":false,"is_disabled":false,"rental_uris":{"android":"levelo://app?vid=7aa7b369-c4e8-494e-a460-d3e5f9177952","ios":"levelo://app?vid=7aa7b369-c4e8-494e-a460-d3e5f9177952"},"vehicle_type_id":"4","last_reported":1748380196,"current_range_meters":14400,"station_id":"ce4bh312rcd13ifvqdj0","pricing_plan_id":"cebpf4jnsgd1na2vs0mg"},{"bike_id":"eddd9072-a91d-427d-8086-3015846f476b","system_id":"levelo_inurba_marseille","lat":43.29029,"lon":5.38637,"is_reserved":false,"is_disabled":false,"rental_uris":{"android":"levelo://app?vid=eddd9072-a91d-427d-8086-3015846f476b","ios":"levelo://app?vid=eddd9072-a91d-427d-8086-3015846f476b"},"vehicle_type_id":"4","last_reported":1748380196,"current_range_meters":14400,"station_id":"ce4bh4p2rcd13ifvqe0g","pricing_plan_id":"cebpf4jnsgd1na2vs0mg"},{"bike_id":"66925941-48fd-44ac-a1de-7c99050ee566","system_id":"levelo_inurba_marseille","lat":43.29257,"lon":5.38455,"is_reserved":false,"is_disabled":false,"rental_uris":{"android":"levelo://app?vid=66925941-48fd-44ac-a1de-7c99050ee566","ios":"levelo://app?vid=66925941-48fd-44ac-a1de-7c99050ee566"},"vehicle_type_id":"4","last_reported":1748380196,"current_range_meters":14400,"station_id":"ce4bh692rcd13ifvqea0","pricing_plan_id":"cebpf4jnsgd1na2vs0mg"},{"bike_id":"f186b7ce-a6c7-4f8b-bbd3-58c3ae9f5edc","system_id":"levelo_inurba_marseille","lat":43.30098,"lon":5.39075,"is_reserved":false,"is_disabled":false,"rental_uris":{"android":"levelo://app?vid=f186b7ce-a6c7-4f8b-bbd3-58c3ae9f5edc","ios":"levelo://app?vid=f186b7ce-a6c7-4f8b-bbd3-58c3ae9f5edc"},"vehicle_type_id":"4","last_reported":1748380196,"current_range_meters":14400,"station_id":"ce4bh192rcd13ifvqdb0","pricing_plan_id":"cebpf4jnsgd1na2vs0mg"},{"bike_id":"31953c9f-5508-4ba2-9b05-ee8f23721b7a","system_id":"levelo_inurba_marseille","lat":43.294391,"lon":5.397423,"is_reserved":false,"is_disabled":false,"rental_uris":{"android":"levelo://app?vid=31953c9f-5508-4ba2-9b05-ee8f23721b7a","ios":"levelo://app?vid=31953c9f-5508-4ba2-9b05-ee8f23721b7a"},"vehicle_type_id":"4","last_reported":1748380196,"current_range_meters":14800,"station_id":"ce4bh3h2rcd13ifvqdo0","pricing_plan_id":"cebpf4jnsgd1na2vs0mg"},{"bike_id":"71c3c26b-dbd0-45d0-80eb-41fe0433ad32","system_id":"levelo_inurba_marseille","lat":43.3107,"lon":5.38359,"is_reserved":false,"is_disabled":false,"rental_uris":{"android":"levelo://app?vid=71c3c26b-dbd0-45d0-80eb-41fe0433ad32","ios":"levelo://app?vid=71c3c26b-dbd0-45d0-80eb-41fe0433ad32"},"vehicle_type_id":"4","last_reported":1748380196,"current_range_meters":14800,"station_id":"ce4bgv92rcd13ifvqcr0","pricing_plan_id":"cebpf4jnsgd1na2vs0mg"},{"bike_id":"66ce27fa-93cf-4af2-b68b-f853af9cec83","system_id":"levelo_inurba_marseille","lat":43.295066,"lon":5.374448,"is_reserved":false,"is_disabled":false,"rental_uris":{"android":"levelo://app?vid=66ce27fa-93cf-4af2-b68b-f853af9cec83","ios":"levelo://app?vid=66ce27fa-93cf-4af2-b68b-f853af9cec83"},"vehicle_type_id":"4","last_reported":1748380196,"current_range_meters":14800,"station_id":"ce4bgh92rcd13ifvqb50","pricing_plan_id":"cebpf4jnsgd1na2vs0mg"},{"bike_id":"f17b5f1b-722c-492d-a6a6-635d0fc8540a","system_id":"levelo_inurba_marseille","lat":43.30426,"lon":5.39751,"is_reserved":false,"is_disabled":false,"rental_uris":{"android":"levelo://app?vid=f17b5f1b-722c-492d-a6a6-635d0fc8540a","ios":"levelo://app?vid=f17b5f1b-722c-492d-a6a6-635d0fc8540a"},"vehicle_type_id":"4","last_reported":1748380196,"current_range_meters":14800,"station_id":"ce4bh092rcd13ifvqd20","pricing_plan_id":"cebpf4jnsgd1na2vs0mg"},{"bike_id":"e5e07e3f-8204-48bc-a099-0bf73319985c","system_id":"levelo_inurba_marseille","lat":43.28433,"lon":5.39182,"is_reserved":false,"is_disabled":false,"rental_uris":{"android":"levelo://app?vid=e5e07e3f-8204-48bc-a099-0bf73319985c","ios":"levelo://app?vid=e5e07e3f-8204-48bc-a099-0bf73319985c"},"vehicle_type_id":"4","last_reported":1748380196,"current_range_meters":14800,"station_id":"ce4bhoh2rcd13ifvqh5g","pricing_plan_id":"cebpf4jnsgd1na2vs0mg"},{"bike_id":"c9ac9815-cace-4f5a-bc55-391519ae5e1e","system_id":"levelo_inurba_marseille","lat":43.27196,"lon":5.40977,"is_reserved":false,"is_disabled":false,"rental_uris":{"android":"levelo://app?vid=c9ac9815-cace-4f5a-bc55-391519ae5e1e","ios":"levelo://app?vid=c9ac9815-cace-4f5a-bc55-391519ae5e1e"},"vehicle_type_id":"4","last_reported":1748380196,"current_range_meters":14800,"station_id":"ce4bhl12rcd13ifvqgf0","pricing_plan_id":"cebpf4jnsgd1na2vs0mg"},{"bike_id":"aeb17350-5d00-44be-8ef5-7401b4326230","system_id":"levelo_inurba_marseille","lat":43.24551,"lon":5.39532,"is_reserved":false,"is_disabled":false,"rental_uris":{"android":"levelo://app?vid=aeb17350-5d00-44be-8ef5-7401b4326230","ios":"levelo://app?vid=aeb17350-5d00-44be-8ef5-7401b4326230"},"vehicle_type_id":"4","last_reported":1748380196,"current_range_meters":14800,"station_id":"ce4bhlp2rcd13ifvqgjg","pricing_plan_id":"cebpf4jnsgd1na2vs0mg"},{"bike_id":"47583335-9e10-4931-b076-003bea66dc0e","system_id":"levelo_inurba_marseille","lat":43.28214,"lon":5.39059,"is_reserved":false,"is_disabled":false,"rental_uris":{"android":"levelo://app?vid=47583335-9e10-4931-b076-003bea66dc0e","ios":"levelo://app?vid=47583335-9e10-4931-b076-003bea66dc0e"},"vehicle_type_id":"4","last_reported":1748380196,"current_range_meters":14800,"station_id":"","pricing_plan_id":"cebpf4jnsgd1na2vs0mg"},{"bike_id":"9187d597-8ec5-4a95-8ce6-4cb163df2c3b","system_id":"levelo_inurba_marseille","lat":43.28686,"lon":5.37407,"is_reserved":false,"is_disabled":false,"rental_uris":{"android":"levelo://app?vid=9187d597-8ec5-4a95-8ce6-4cb163df2c3b","ios":"levelo://app?vid=9187d597-8ec5-4a95-8ce6-4cb163df2c3b"},"vehicle_type_id":"4","last_reported":1748380196,"current_range_meters":15200,"station_id":"ce4bh3p2rcd13ifvqdq0","pricing_plan_id":"cebpf4jnsgd1na2vs0mg"},{"bike_id":"0c92f513-ef44-4a67-958b-d1ecfa5c366b","system_id":"levelo_inurba_marseille","lat":43.31174,"lon":5.38719,"is_reserved":false,"is_disabled":false,"rental_uris":{"android":"levelo://app?vid=0c92f513-ef44-4a67-958b-d1ecfa5c366b","ios":"levelo://app?vid=0c92f513-ef44-4a67-958b-d1ecfa5c366b"},"vehicle_type_id":"4","last_reported":1748380196,"current_range_meters":15200,"station_id":"ce4bgv12rcd13ifvqcp0","pricing_plan_id":"cebpf4jnsgd1na2vs0mg"},{"bike_id":"1bb2c0f7-dc33-426d-b9b9-4eac3adaba82","system_id":"levelo_inurba_marseille","lat":43.28675,"lon":5.36343,"is_reserved":false,"is_disabled":false,"rental_uris":{"android":"levelo://app?vid=1bb2c0f7-dc33-426d-b9b9-4eac3adaba82","ios":"levelo://app?vid=1bb2c0f7-dc33-426d-b9b9-4eac3adaba82"},"vehicle_type_id":"4","last_reported":1748380196,"current_range_meters":15200,"station_id":"ce4bhah2rcd13ifvqej0","pricing_plan_id":"cebpf4jnsgd1na2vs0mg"},{"bike_id":"bedbbb34-82aa-4a56-8ecf-72e3100f83ac","system_id":"levelo_inurba_marseille","lat":43.30246,"lon":5.38873,"is_reserved":false,"is_disabled":false,"rental_uris":{"android":"levelo://app?vid=bedbbb34-82aa-4a56-8ecf-72e3100f83ac","ios":"levelo://app?vid=bedbbb34-82aa-4a56-8ecf-72e3100f83ac"},"vehicle_type_id":"4","last_reported":1748380196,"current_range_meters":15200,"station_id":"","pricing_plan_id":"cebpf4jnsgd1na2vs0mg"},{"bike_id":"b38b96d3-38d3-4d6a-be25-e7c9777ff1be","system_id":"levelo_inurba_marseille","lat":43.31118,"lon":5.37764,"is_reserved":false,"is_disabled":false,"rental_uris":{"android":"levelo://app?vid=b38b96d3-38d3-4d6a-be25-e7c9777ff1be","ios":"levelo://app?vid=b38b96d3-38d3-4d6a-be25-e7c9777ff1be"},"vehicle_type_id":"4","last_reported":1748380196,"current_range_meters":15200,"station_id":"ce4bgt92rcd13ifvqcg0","pricing_plan_id":"cebpf4jnsgd1na2vs0mg"},{"bike_id":"134c70cc-46f1-414c-ba60-b99ba2b4a992","system_id":"levelo_inurba_marseille","lat":43.34817,"lon":5.35112,"is_reserved":false,"is_disabled":false,"rental_uris":{"android":"levelo://app?vid=134c70cc-46f1-414c-ba60-b99ba2b4a992","ios":"levelo://app?vid=134c70cc-46f1-414c-ba60-b99ba2b4a992"},"vehicle_type_id":"4","last_reported":1748380196,"current_range_meters":15200,"station_id":"","pricing_plan_id":"cebpf4jnsgd1na2vs0mg"},{"bike_id":"24f3e3d5-b921-4756-97bd-883483154b22","system_id":"levelo_inurba_marseille","lat":43.3229,"lon":5.38274,"is_reserved":false,"is_disabled":false,"rental_uris":{"android":"levelo://app?vid=24f3e3d5-b921-4756-97bd-883483154b22","ios":"levelo://app?vid=24f3e3d5-b921-4756-97bd-883483154b22"},"vehicle_type_id":"4","last_reported":1748380196,"current_range_meters":15200,"station_id":"ce4bhr12rcd13ifvqhqg","pricing_plan_id":"cebpf4jnsgd1na2vs0mg"},{"bike_id":"4fa3c1d1-3244-4bce-abb3-1ffd69aee1e2","system_id":"levelo_inurba_marseille","lat":43.29554,"lon":5.38544,"is_reserved":false,"is_disabled":false,"rental_uris":{"android":"levelo://app?vid=4fa3c1d1-3244-4bce-abb3-1ffd69aee1e2","ios":"levelo://app?vid=4fa3c1d1-3244-4bce-abb3-1ffd69aee1e2"},"vehicle_type_id":"4","last_reported":1748380196,"current_range_meters":16000,"station_id":"ce4bgih2rcd13ifvqba0","pricing_plan_id":"cebpf4jnsgd1na2vs0mg"},{"bike_id":"c2c25dd5-dc71-4aa2-a4d5-1ae79422659b","system_id":"levelo_inurba_marseille","lat":43.2822,"lon":5.39051,"is_reserved":false,"is_disabled":false,"rental_uris":{"android":"levelo://app?vid=c2c25dd5-dc71-4aa2-a4d5-1ae79422659b","ios":"levelo://app?vid=c2c25dd5-dc71-4aa2-a4d5-1ae79422659b"},"vehicle_type_id":"4","last_reported":1748380196,"current_range_meters":16000,"station_id":"","pricing_plan_id":"cebpf4jnsgd1na2vs0mg"},{"bike_id":"1d9aa0a3-8d94-496c-8645-8bc9aba995f5","system_id":"levelo_inurba_marseille","lat":43.29273,"lon":5.401198,"is_reserved":false,"is_disabled":false,"rental_uris":{"android":"levelo://app?vid=1d9aa0a3-8d94-496c-8645-8bc9aba995f5","ios":"levelo://app?vid=1d9aa0a3-8d94-496c-8645-8bc9aba995f5"},"vehicle_type_id":"4","last_reported":1748380196,"current_range_meters":16000,"station_id":"ce4bh312rcd13ifvqdk0","pricing_plan_id":"cebpf4jnsgd1na2vs0mg"},{"bike_id":"6ebb6dd7-e028-471a-a254-2363923c0cd9","system_id":"levelo_inurba_marseille","lat":43.32123,"lon":5.36797,"is_reserved":false,"is_disabled":false,"rental_uris":{"android":"levelo://app?vid=6ebb6dd7-e028-471a-a254-2363923c0cd9","ios":"levelo://app?vid=6ebb6dd7-e028-471a-a254-2363923c0cd9"},"vehicle_type_id":"4","last_reported":1748380196,"current_range_meters":16000,"station_id":"ce4bhrh2rcd13ifvqhug","pricing_plan_id":"cebpf4jnsgd1na2vs0mg"},{"bike_id":"e4534a03-0cb5-48e6-a5ff-43585afc0912","system_id":"levelo_inurba_marseille","lat":43.31365,"lon":5.385,"is_reserved":false,"is_disabled":false,"rental_uris":{"android":"levelo://app?vid=e4534a03-0cb5-48e6-a5ff-43585afc0912","ios":"levelo://app?vid=e4534a03-0cb5-48e6-a5ff-43585afc0912"},"vehicle_type_id":"4","last_reported":1748380196,"current_range_meters":16000,"station_id":"ce4bgt92rcd13ifvqcf0","pricing_plan_id":"cebpf4jnsgd1na2vs0mg"},{"bike_id":"b4e04653-171c-4de0-be4e-c9abd17f1915","system_id":"levelo_inurba_marseille","lat":43.25118,"lon":5.40329,"is_reserved":false,"is_disabled":false,"rental_uris":{"android":"levelo://app?vid=b4e04653-171c-4de0-be4e-c9abd17f1915","ios":"levelo://app?vid=b4e04653-171c-4de0-be4e-c9abd17f1915"},"vehicle_type_id":"4","last_reported":1748380196,"current_range_meters":16000,"station_id":"ce4bhlh2rcd13ifvqgig","pricing_plan_id":"cebpf4jnsgd1na2vs0mg"},{"bike_id":"5b71d762-ff7f-46b3-a906-4507d388dbfe","system_id":"levelo_inurba_marseille","lat":43.29892,"lon":5.39773,"is_reserved":false,"is_disabled":true,"rental_uris":{"android":"levelo://app?vid=5b71d762-ff7f-46b3-a906-4507d388dbfe","ios":"levelo://app?vid=5b71d762-ff7f-46b3-a906-4507d388dbfe"},"vehicle_type_id":"4","last_reported":1748380196,"current_range_meters":16400,"station_id":"ce4bh0h2rcd13ifvqd50","pricing_plan_id":"cebpf4jnsgd1na2vs0mg"},{"bike_id":"8cb48e60-19aa-4fb9-8708-4e4a56b04ded","system_id":"levelo_inurba_marseille","lat":43.25485,"lon":5.37637,"is_reserved":false,"is_disabled":true,"rental_uris":{"android":"levelo://app?vid=8cb48e60-19aa-4fb9-8708-4e4a56b04ded","ios":"levelo://app?vid=8cb48e60-19aa-4fb9-8708-4e4a56b04ded"},"vehicle_type_id":"4","last_reported":1748380196,"current_range_meters":16400,"station_id":"ce4bhh12rcd13ifvqff0","pricing_plan_id":"cebpf4jnsgd1na2vs0mg"},{"bike_id":"1317c4f1-3b2f-4782-959b-fe162ef6f028","system_id":"levelo_inurba_marseille","lat":43.29527,"lon":5.38534,"is_reserved":false,"is_disabled":false,"rental_uris":{"android":"levelo://app?vid=1317c4f1-3b2f-4782-959b-fe162ef6f028","ios":"levelo://app?vid=1317c4f1-3b2f-4782-959b-fe162ef6f028"},"vehicle_type_id":"4","last_reported":1748380196,"current_range_meters":16400,"station_id":"ce4bgih2rcd13ifvqba0","pricing_plan_id":"cebpf4jnsgd1na2vs0mg"},{"bike_id":"5adb54d7-efd6-4774-886e-7a0e656549f8","system_id":"levelo_inurba_marseille","lat":43.30113,"lon":5.39852,"is_reserved":false,"is_disabled":false,"rental_uris":{"android":"levelo://app?vid=5adb54d7-efd6-4774-886e-7a0e656549f8","ios":"levelo://app?vid=5adb54d7-efd6-4774-886e-7a0e656549f8"},"vehicle_type_id":"4","last_reported":1748380196,"current_range_meters":16400,"station_id":"ce4bh0h2rcd13ifvqd40","pricing_plan_id":"cebpf4jnsgd1na2vs0mg"},{"bike_id":"c06fca89-0053-4526-bf0e-39603aea1bf2","system_id":"levelo_inurba_marseille","lat":43.33032,"lon":5.39025,"is_reserved":false,"is_disabled":false,"rental_uris":{"android":"levelo://app?vid=c06fca89-0053-4526-bf0e-39603aea1bf2","ios":"levelo://app?vid=c06fca89-0053-4526-bf0e-39603aea1bf2"},"vehicle_type_id":"4","last_reported":1748380196,"current_range_meters":16800,"station_id":"ce4bhr92rcd13ifvqhrg","pricing_plan_id":"cebpf4jnsgd1na2vs0mg"},{"bike_id":"3a8bffc1-cad2-4aad-a2fb-c07971ac2e43","system_id":"levelo_inurba_marseille","lat":43.27684,"lon":5.38922,"is_reserved":false,"is_disabled":false,"rental_uris":{"android":"levelo://app?vid=3a8bffc1-cad2-4aad-a2fb-c07971ac2e43","ios":"levelo://app?vid=3a8bffc1-cad2-4aad-a2fb-c07971ac2e43"},"vehicle_type_id":"4","last_reported":1748380196,"current_range_meters":16800,"station_id":"ce4bhi12rcd13ifvqfo0","pricing_plan_id":"cebpf4jnsgd1na2vs0mg"},{"bike_id":"24cf99cf-4db3-4903-af5c-af8e5fab6bea","system_id":"levelo_inurba_marseille","lat":43.25748,"lon":5.41086,"is_reserved":false,"is_disabled":true,"rental_uris":{"android":"levelo://app?vid=24cf99cf-4db3-4903-af5c-af8e5fab6bea","ios":"levelo://app?vid=24cf99cf-4db3-4903-af5c-af8e5fab6bea"},"vehicle_type_id":"4","last_reported":1748380196,"current_range_meters":16800,"station_id":"ce4bhkp2rcd13ifvqgd0","pricing_plan_id":"cebpf4jnsgd1na2vs0mg"},{"bike_id":"9d261c87-a2b3-4a62-884c-13fffe97a760","system_id":"levelo_inurba_marseille","lat":43.30934,"lon":5.40141,"is_reserved":false,"is_disabled":false,"rental_uris":{"android":"levelo://app?vid=9d261c87-a2b3-4a62-884c-13fffe97a760","ios":"levelo://app?vid=9d261c87-a2b3-4a62-884c-13fffe97a760"},"vehicle_type_id":"4","last_reported":1748380196,"current_range_meters":16800,"station_id":"ce4bgvp2rcd13ifvqct0","pricing_plan_id":"cebpf4jnsgd1na2vs0mg"},{"bike_id":"28ca52c4-faba-4d0e-bc79-83c8874bc569","system_id":"levelo_inurba_marseille","lat":43.29906,"lon":5.37473,"is_reserved":false,"is_disabled":false,"rental_uris":{"android":"levelo://app?vid=28ca52c4-faba-4d0e-bc79-83c8874bc569","ios":"levelo://app?vid=28ca52c4-faba-4d0e-bc79-83c8874bc569"},"vehicle_type_id":"4","last_reported":1748380196,"current_range_meters":16800,"station_id":"ce4bgjh2rcd13ifvqbg0","pricing_plan_id":"cebpf4jnsgd1na2vs0mg"},{"bike_id":"1fed5cf7-13b7-4dc4-814e-e55c1b74556e","system_id":"levelo_inurba_marseille","lat":43.29229,"lon":5.40133,"is_reserved":false,"is_disabled":true,"rental_uris":{"android":"levelo://app?vid=1fed5cf7-13b7-4dc4-814e-e55c1b74556e","ios":"levelo://app?vid=1fed5cf7-13b7-4dc4-814e-e55c1b74556e"},"vehicle_type_id":"4","last_reported":1748380196,"current_range_meters":16800,"station_id":"ce4bh312rcd13ifvqdk0","pricing_plan_id":"cebpf4jnsgd1na2vs0mg"},{"bike_id":"cb719026-1c2c-49cd-b33b-2132d4e9d497","system_id":"levelo_inurba_marseille","lat":43.28363,"lon":5.38121,"is_reserved":false,"is_disabled":false,"rental_uris":{"android":"levelo://app?vid=cb719026-1c2c-49cd-b33b-2132d4e9d497","ios":"levelo://app?vid=cb719026-1c2c-49cd-b33b-2132d4e9d497"},"vehicle_type_id":"4","last_reported":1748380196,"current_range_meters":16800,"station_id":"ce4bh412rcd13ifvqdr0","pricing_plan_id":"cebpf4jnsgd1na2vs0mg"},{"bike_id":"47473bd8-8b43-432c-9d7a-415e717aa32f","system_id":"levelo_inurba_marseille","lat":43.30918,"lon":5.39655,"is_reserved":false,"is_disabled":false,"rental_uris":{"android":"levelo://app?vid=47473bd8-8b43-432c-9d7a-415e717aa32f","ios":"levelo://app?vid=47473bd8-8b43-432c-9d7a-415e717aa32f"},"vehicle_type_id":"4","last_reported":1748380196,"current_range_meters":16800,"station_id":"ce4bh012rcd13ifvqcv0","pricing_plan_id":"cebpf4jnsgd1na2vs0mg"},{"bike_id":"fc210bdd-ed72-4802-94f8-a96a8f9f9f5d","system_id":"levelo_inurba_marseille","lat":43.27994,"lon":5.40005,"is_reserved":false,"is_disabled":false,"rental_uris":{"android":"levelo://app?vid=fc210bdd-ed72-4802-94f8-a96a8f9f9f5d","ios":"levelo://app?vid=fc210bdd-ed72-4802-94f8-a96a8f9f9f5d"},"vehicle_type_id":"4","last_reported":1748380196,"current_range_meters":16800,"station_id":"ce4bho92rcd13ifvqh4g","pricing_plan_id":"cebpf4jnsgd1na2vs0mg"},{"bike_id":"750d9e45-bbfa-48c7-98ea-fdd51751dc8b","system_id":"levelo_inurba_marseille","lat":43.23955,"lon":5.36634,"is_reserved":false,"is_disabled":false,"rental_uris":{"android":"levelo://app?vid=750d9e45-bbfa-48c7-98ea-fdd51751dc8b","ios":"levelo://app?vid=750d9e45-bbfa-48c7-98ea-fdd51751dc8b"},"vehicle_type_id":"4","last_reported":1748380196,"current_range_meters":16800,"station_id":"ce4bhi12rcd13ifvqfp0","pricing_plan_id":"cebpf4jnsgd1na2vs0mg"},{"bike_id":"78cfde37-b253-4fc0-a7ff-0e34f033978c","system_id":"levelo_inurba_marseille","lat":43.30889,"lon":5.39623,"is_reserved":false,"is_disabled":false,"rental_uris":{"android":"levelo://app?vid=78cfde37-b253-4fc0-a7ff-0e34f033978c","ios":"levelo://app?vid=78cfde37-b253-4fc0-a7ff-0e34f033978c"},"vehicle_type_id":"4","last_reported":1748380196,"current_range_meters":16800,"station_id":"ce4bh012rcd13ifvqcv0","pricing_plan_id":"cebpf4jnsgd1na2vs0mg"},{"bike_id":"37075ab1-59de-427a-b26f-ec3af48f74d2","system_id":"levelo_inurba_marseille","lat":43.29256,"lon":5.40906,"is_reserved":false,"is_disabled":false,"rental_uris":{"android":"levelo://app?vid=37075ab1-59de-427a-b26f-ec3af48f74d2","ios":"levelo://app?vid=37075ab1-59de-427a-b26f-ec3af48f74d2"},"vehicle_type_id":"4","last_reported":1748380196,"current_range_meters":16800,"station_id":"ce4bh192rcd13ifvqdc0","pricing_plan_id":"cebpf4jnsgd1na2vs0mg"},{"bike_id":"92e9428d-cae4-4b6e-b1bd-7ca7b0c2d50f","system_id":"levelo_inurba_marseille","lat":43.27833,"lon":5.39207,"is_reserved":false,"is_disabled":false,"rental_uris":{"android":"levelo://app?vid=92e9428d-cae4-4b6e-b1bd-7ca7b0c2d50f","ios":"levelo://app?vid=92e9428d-cae4-4b6e-b1bd-7ca7b0c2d50f"},"vehicle_type_id":"4","last_reported":1748380196,"current_range_meters":16800,"station_id":"ce4bhjp2rcd13ifvqga0","pricing_plan_id":"cebpf4jnsgd1na2vs0mg"},{"bike_id":"3647bbb6-6398-4425-acce-fe7bae127660","system_id":"levelo_inurba_marseille","lat":43.30886,"lon":5.39631,"is_reserved":false,"is_disabled":false,"rental_uris":{"android":"levelo://app?vid=3647bbb6-6398-4425-acce-fe7bae127660","ios":"levelo://app?vid=3647bbb6-6398-4425-acce-fe7bae127660"},"vehicle_type_id":"4","last_reported":1748380196,"current_range_meters":16800,"station_id":"ce4bh012rcd13ifvqcv0","pricing_plan_id":"cebpf4jnsgd1na2vs0mg"},{"bike_id":"e0937de6-3de3-475e-9f20-652aaadefb8e","system_id":"levelo_inurba_marseille","lat":43.29534,"lon":5.38551,"is_reserved":false,"is_disabled":false,"rental_uris":{"android":"levelo://app?vid=e0937de6-3de3-475e-9f20-652aaadefb8e","ios":"levelo://app?vid=e0937de6-3de3-475e-9f20-652aaadefb8e"},"vehicle_type_id":"4","last_reported":1748380196,"current_range_meters":16800,"station_id":"ce4bgih2rcd13ifvqba0","pricing_plan_id":"cebpf4jnsgd1na2vs0mg"},{"bike_id":"2447e726-02f2-4707-a232-a209224dd9ad","system_id":"levelo_inurba_marseille","lat":43.33009,"lon":5.39021,"is_reserved":false,"is_disabled":false,"rental_uris":{"android":"levelo://app?vid=2447e726-02f2-4707-a232-a209224dd9ad","ios":"levelo://app?vid=2447e726-02f2-4707-a232-a209224dd9ad"},"vehicle_type_id":"4","last_reported":1748380196,"current_range_meters":16800,"station_id":"ce4bhr92rcd13ifvqhrg","pricing_plan_id":"cebpf4jnsgd1na2vs0mg"},{"bike_id":"ed3ce463-8108-462a-b16b-760e2671d87c","system_id":"levelo_inurba_marseille","lat":43.25117,"lon":5.39479,"is_reserved":false,"is_disabled":false,"rental_uris":{"android":"levelo://app?vid=ed3ce463-8108-462a-b16b-760e2671d87c","ios":"levelo://app?vid=ed3ce463-8108-462a-b16b-760e2671d87c"},"vehicle_type_id":"4","last_reported":1748380196,"current_range_meters":16800,"station_id":"ce4bhm12rcd13ifvqgkg","pricing_plan_id":"cebpf4jnsgd1na2vs0mg"},{"bike_id":"e736686f-625a-4d9a-a7d4-f55f37278fdb","system_id":"levelo_inurba_marseille","lat":43.29421,"lon":5.38607,"is_reserved":false,"is_disabled":true,"rental_uris":{"android":"levelo://app?vid=e736686f-625a-4d9a-a7d4-f55f37278fdb","ios":"levelo://app?vid=e736686f-625a-4d9a-a7d4-f55f37278fdb"},"vehicle_type_id":"4","last_reported":1748380196,"current_range_meters":16800,"station_id":"ce4bh2h2rcd13ifvqdh0","pricing_plan_id":"cebpf4jnsgd1na2vs0mg"},{"bike_id":"2070b75f-30e7-41e0-ba4d-dd096d96a131","system_id":"levelo_inurba_marseille","lat":43.29252,"lon":5.38441,"is_reserved":false,"is_disabled":false,"rental_uris":{"android":"levelo://app?vid=2070b75f-30e7-41e0-ba4d-dd096d96a131","ios":"levelo://app?vid=2070b75f-30e7-41e0-ba4d-dd096d96a131"},"vehicle_type_id":"4","last_reported":1748380196,"current_range_meters":17200,"station_id":"ce4bh692rcd13ifvqea0","pricing_plan_id":"cebpf4jnsgd1na2vs0mg"},{"bike_id":"349e7297-179d-46aa-af73-d0772f15795a","system_id":"levelo_inurba_marseille","lat":43.29974,"lon":5.38395,"is_reserved":false,"is_disabled":false,"rental_uris":{"android":"levelo://app?vid=349e7297-179d-46aa-af73-d0772f15795a","ios":"levelo://app?vid=349e7297-179d-46aa-af73-d0772f15795a"},"vehicle_type_id":"4","last_reported":1748380196,"current_range_meters":17200,"station_id":"","pricing_plan_id":"cebpf4jnsgd1na2vs0mg"},{"bike_id":"bade44ce-6394-41cb-8e7a-d0b83544d146","system_id":"levelo_inurba_marseille","lat":43.28681,"lon":5.36352,"is_reserved":false,"is_disabled":false,"rental_uris":{"android":"levelo://app?vid=bade44ce-6394-41cb-8e7a-d0b83544d146","ios":"levelo://app?vid=bade44ce-6394-41cb-8e7a-d0b83544d146"},"vehicle_type_id":"4","last_reported":1748380196,"current_range_meters":16800,"station_id":"ce4bhah2rcd13ifvqej0","pricing_plan_id":"cebpf4jnsgd1na2vs0mg"},{"bike_id":"3b07f020-3d8e-47eb-b723-de46e817e2a3","system_id":"levelo_inurba_marseille","lat":43.29736,"lon":5.38372,"is_reserved":false,"is_disabled":false,"rental_uris":{"android":"levelo://app?vid=3b07f020-3d8e-47eb-b723-de46e817e2a3","ios":"levelo://app?vid=3b07f020-3d8e-47eb-b723-de46e817e2a3"},"vehicle_type_id":"4","last_reported":1748380196,"current_range_meters":17200,"station_id":"","pricing_plan_id":"cebpf4jnsgd1na2vs0mg"},{"bike_id":"20cab9ff-4a4f-44fc-8107-0e24f91d45c1","system_id":"levelo_inurba_marseille","lat":43.2846,"lon":5.35884,"is_reserved":false,"is_disabled":false,"rental_uris":{"android":"levelo://app?vid=20cab9ff-4a4f-44fc-8107-0e24f91d45c1","ios":"levelo://app?vid=20cab9ff-4a4f-44fc-8107-0e24f91d45c1"},"vehicle_type_id":"4","last_reported":1748380196,"current_range_meters":17200,"station_id":"ce4bhah2rcd13ifvqei0","pricing_plan_id":"cebpf4jnsgd1na2vs0mg"},{"bike_id":"45c941a7-9562-4778-ae0c-86ddbaf5a628","system_id":"levelo_inurba_marseille","lat":43.2455,"lon":5.3953,"is_reserved":false,"is_disabled":false,"rental_uris":{"android":"levelo://app?vid=45c941a7-9562-4778-ae0c-86ddbaf5a628","ios":"levelo://app?vid=45c941a7-9562-4778-ae0c-86ddbaf5a628"},"vehicle_type_id":"4","last_reported":1748380196,"current_range_meters":17200,"station_id":"ce4bhlp2rcd13ifvqgjg","pricing_plan_id":"cebpf4jnsgd1na2vs0mg"},{"bike_id":"7989d02c-6eb5-47b3-b55e-3a0c3bb05fec","system_id":"levelo_inurba_marseille","lat":43.29795,"lon":5.38097,"is_reserved":false,"is_disabled":false,"rental_uris":{"android":"levelo://app?vid=7989d02c-6eb5-47b3-b55e-3a0c3bb05fec","ios":"levelo://app?vid=7989d02c-6eb5-47b3-b55e-3a0c3bb05fec"},"vehicle_type_id":"4","last_reported":1748380196,"current_range_meters":17200,"station_id":"ce4bgip2rcd13ifvqbb0","pricing_plan_id":"cebpf4jnsgd1na2vs0mg"},{"bike_id":"cc6b0279-6212-4c7f-aec6-2611faf4e658","system_id":"levelo_inurba_marseille","lat":43.25495,"lon":5.37646,"is_reserved":false,"is_disabled":false,"rental_uris":{"android":"levelo://app?vid=cc6b0279-6212-4c7f-aec6-2611faf4e658","ios":"levelo://app?vid=cc6b0279-6212-4c7f-aec6-2611faf4e658"},"vehicle_type_id":"4","last_reported":1748380196,"current_range_meters":16800,"station_id":"ce4bhh12rcd13ifvqff0","pricing_plan_id":"cebpf4jnsgd1na2vs0mg"},{"bike_id":"80358fd9-3299-4b47-b9f3-bc1e120ce4a4","system_id":"levelo_inurba_marseille","lat":43.29921,"lon":5.37466,"is_reserved":false,"is_disabled":false,"rental_uris":{"android":"levelo://app?vid=80358fd9-3299-4b47-b9f3-bc1e120ce4a4","ios":"levelo://app?vid=80358fd9-3299-4b47-b9f3-bc1e120ce4a4"},"vehicle_type_id":"4","last_reported":1748380196,"current_range_meters":17200,"station_id":"ce4bgjh2rcd13ifvqbg0","pricing_plan_id":"cebpf4jnsgd1na2vs0mg"},{"bike_id":"7d6adf04-437a-4c84-957e-f3c73ecf36e1","system_id":"levelo_inurba_marseille","lat":43.27175,"lon":5.40995,"is_reserved":false,"is_disabled":false,"rental_uris":{"android":"levelo://app?vid=7d6adf04-437a-4c84-957e-f3c73ecf36e1","ios":"levelo://app?vid=7d6adf04-437a-4c84-957e-f3c73ecf36e1"},"vehicle_type_id":"4","last_reported":1748380196,"current_range_meters":17200,"station_id":"ce4bhl12rcd13ifvqgf0","pricing_plan_id":"cebpf4jnsgd1na2vs0mg"},{"bike_id":"f7643edf-ff87-431b-9fb8-9d9c3573035c","system_id":"levelo_inurba_marseille","lat":43.27848,"lon":5.39216,"is_reserved":false,"is_disabled":false,"rental_uris":{"android":"levelo://app?vid=f7643edf-ff87-431b-9fb8-9d9c3573035c","ios":"levelo://app?vid=f7643edf-ff87-431b-9fb8-9d9c3573035c"},"vehicle_type_id":"4","last_reported":1748380196,"current_range_meters":17200,"station_id":"ce4bhjp2rcd13ifvqga0","pricing_plan_id":"cebpf4jnsgd1na2vs0mg"},{"bike_id":"825274f2-35c2-43a3-ab4e-e6978ea7f406","system_id":"levelo_inurba_marseille","lat":43.30231,"lon":5.39476,"is_reserved":false,"is_disabled":false,"rental_uris":{"android":"levelo://app?vid=825274f2-35c2-43a3-ab4e-e6978ea7f406","ios":"levelo://app?vid=825274f2-35c2-43a3-ab4e-e6978ea7f406"},"vehicle_type_id":"4","last_reported":1748380196,"current_range_meters":17600,"station_id":"ce4bh0p2rcd13ifvqd70","pricing_plan_id":"cebpf4jnsgd1na2vs0mg"},{"bike_id":"798b4dd9-09fd-4939-a396-5d8278d045a8","system_id":"levelo_inurba_marseille","lat":43.28216,"lon":5.39038,"is_reserved":false,"is_disabled":false,"rental_uris":{"android":"levelo://app?vid=798b4dd9-09fd-4939-a396-5d8278d045a8","ios":"levelo://app?vid=798b4dd9-09fd-4939-a396-5d8278d045a8"},"vehicle_type_id":"4","last_reported":1748380196,"current_range_meters":17600,"station_id":"","pricing_plan_id":"cebpf4jnsgd1na2vs0mg"},{"bike_id":"88f0b25b-9fcb-4934-ae2a-80fd3f534b8a","system_id":"levelo_inurba_marseille","lat":43.30192,"lon":5.36611,"is_reserved":false,"is_disabled":true,"rental_uris":{"android":"levelo://app?vid=88f0b25b-9fcb-4934-ae2a-80fd3f534b8a","ios":"levelo://app?vid=88f0b25b-9fcb-4934-ae2a-80fd3f534b8a"},"vehicle_type_id":"4","last_reported":1748380196,"current_range_meters":17600,"station_id":"ce4bgrh2rcd13ifvqc8g","pricing_plan_id":"cebpf4jnsgd1na2vs0mg"},