{"last_updated":1734614373,"ttl":60,"version":"2.2","data":{"bikes":[{"bike_id":"37db10fd-f58e-4f18-a5b2-5769e0e8c712","system_id":"levelo_inurba_marseille","lat":43.27069,"lon":5.42288,"is_reserved":false,"is_disabled":false,"rental_uris":{"android":"levelo://app?vid=37db10fd-f58e-4f18-a5b2-5769e0e8c712","ios":"levelo://app?vid=37db10fd-f58e-4f18-a5b2-5769e0e8c712"},"vehicle_type_id":"4","last_reported":1734614374,"current_range_meters":24800,"station_id":"ce4bhk92rcd13ifvqgb0","pricing_plan_id":"cebpf4jnsgd1na2vs0mg"},{"bike_id":"74dc27b5-e2a4-4b1e-9dc3-5894ac4bda0a","system_id":"levelo_inurba_marseille","lat":43.29767,"lon":5.37275,"is_reserved":false,"is_disabled":true,"rental_uris":{"android":"levelo://app?vid=74dc27b5-e2a4-4b1e-9dc3-5894ac4bda0a","ios":"levelo://app?vid=74dc27b5-e2a4-4b1e-9dc3-5894ac4bda0a"},"vehicle_type_id":"4","last_reported":1734614374,"current_range_meters":1600,"station_id":"","pricing_plan_id":"cebpf4jnsgd1na2vs0mg"},{"bike_id":"23d53d36-6ec8-4e2e-b484-61e0de626137","system_id":"levelo_inurba_marseille","lat":43.29358,"lon":5.37856,"is_reserved":false,"is_disabled":false,"rental_uris":{"android":"levelo://app?vid=23d53d36-6ec8-4e2e-b484-61e0de626137","ios":"levelo://app?vid=23d53d36-6ec8-4e2e-b484-61e0de626137"},"vehicle_type_id":"4","last_reported":1734614374,"current_range_meters":26000,"station_id":"ce4bgjh2rcd13ifvqbf0","pricing_plan_id":"cebpf4jnsgd1na2vs0mg"},{"bike_id":"159e43d8-90b4-4d96-8e0b-14b846f0dc7a","system_id":"levelo_inurba_marseille","lat":43.30931,"lon":5.40147,"is_reserved":false,"is_disabled":false,"rental_uris":{"android":"levelo://app?vid=159e43d8-90b4-4d96-8e0b-14b846f0dc7a","ios":"levelo://app?vid=159e43d8-90b4-4d96-8e0b-14b846f0dc7a"},"vehicle_type_id":"4","last_reported":1734614374,"current_range_meters":11200,"station_id":"ce4bgvp2rcd13ifvqct0","pricing_plan_id":"cebpf4jnsgd1na2vs0mg"},{"bike_id":"0416dd85-6b82-4181-8c04-ea55c6533084","system_id":"levelo_inurba_marseille","lat":43.27479,"lon":5.42448,"is_reserved":false,"is_disabled":false,"rental_uris":{"android":"levelo://app?vid=0416dd85-6b82-4181-8c04-ea55c6533084","ios":"levelo://app?vid=0416dd85-6b82-4181-8c04-ea55c6533084"},"vehicle_type_id":"4","last_reported":1734614374,"current_range_meters":24800,"station_id":"ce4bhn92rcd13ifvqgrg","pricing_plan_id":"cebpf4jnsgd1na2vs0mg"},{"bike_id":"0b3c962c-40d1-4375-b60d-644d72aaacf1","system_id":"levelo_inurba_marseille","lat":43.28011,"lon":5.40394,"is_reserved":false,"is_disabled":true,"rental_uris":{"android":"levelo://app?vid=0b3c962c-40d1-4375-b60d-644d72aaacf1","ios":"levelo://app?vid=0b3c962c-40d1-4375-b60d-644d72aaacf1"},"vehicle_type_id":"4","last_reported":1734614374,"current_range_meters":0,"station_id":"","pricing_plan_id":"cebpf4jnsgd1na2vs0mg"},{"bike_id":"a5bbf16c-437e-4a6c-b935-fb89c1d704f4","system_id":"levelo_inurba_marseille","lat":43.30338,"lon":5.40426,"is_reserved":false,"is_disabled":false,"rental_uris":{"android":"levelo://app?vid=a5bbf16c-437e-4a6c-b935-fb89c1d704f4","ios":"levelo://app?vid=a5bbf16c-437e-4a6c-b935-fb89c1d704f4"},"vehicle_type_id":"4","last_reported":1734614374,"current_range_meters":33600,"station_id":"ce4bh012rcd13ifvqd10","pricing_plan_id":"cebpf4jnsgd1na2vs0mg"},{"bike_id":"aa8a84f6-27ce-4784-96eb-5fc2b87b1385","system_id":"levelo_inurba_marseille","lat":43.27812,"lon":5.40709,"is_reserved":false,"is_disabled":false,"rental_uris":{"android":"levelo://app?vid=aa8a84f6-27ce-4784-96eb-5fc2b87b1385","ios":"levelo://app?vid=aa8a84f6-27ce-4784-96eb-5fc2b87b1385"},"vehicle_type_id":"4","last_reported":1734614374,"current_range_meters":35200,"station_id":"ce4bhnh2rcd13ifvqgtg","pricing_plan_id":"cebpf4jnsgd1na2vs0mg"},{"bike_id":"3b5b02e2-92a0-43fc-8f2d-a81d0fb57fe6","system_id":"levelo_inurba_marseille","lat":43.23153,"lon":5.43723,"is_reserved":false,"is_disabled":false,"rental_uris":{"android":"levelo://app?vid=3b5b02e2-92a0-43fc-8f2d-a81d0fb57fe6","ios":"levelo://app?vid=3b5b02e2-92a0-43fc-8f2d-a81d0fb57fe6"},"vehicle_type_id":"4","last_reported":1734614374,"current_range_meters":39200,"station_id":"ce4bhmp2rcd13ifvqgog","pricing_plan_id":"cebpf4jnsgd1na2vs0mg"},{"bike_id":"cdfbb810-d223-40f7-99d6-192db8fd2ec8","system_id":"levelo_inurba_marseille","lat":43.29792,"lon":5.38091,"is_reserved":false,"is_disabled":false,"rental_uris":{"android":"levelo://app?vid=cdfbb810-d223-40f7-99d6-192db8fd2ec8","ios":"levelo://app?vid=cdfbb810-d223-40f7-99d6-192db8fd2ec8"},"vehicle_type_id":"4","last_reported":1734614374,"current_range_meters":37600,"station_id":"ce4bgip2rcd13ifvqbb0","pricing_plan_id":"cebpf4jnsgd1na2vs0mg"},{"bike_id":"53216bc0-db19-436b-803c-24b87a4c95f3","system_id":"levelo_inurba_marseille","lat":43.32485,"lon":5.36601,"is_reserved":false,"is_disabled":false,"rental_uris":{"android":"levelo://app?vid=53216bc0-db19-436b-803c-24b87a4c95f3","ios":"levelo://app?vid=53216bc0-db19-436b-803c-24b87a4c95f3"},"vehicle_type_id":"4","last_reported":1734614374,"current_range_meters":39200,"station_id":"ce4bhs12rcd13ifvqhvg","pricing_plan_id":"cebpf4jnsgd1na2vs0mg"},{"bike_id":"23ef9141-55cc-4cda-b9d1-c70ee4f9d9d1","system_id":"levelo_inurba_marseille","lat":43.24811,"lon":5.37461,"is_reserved":false,"is_disabled":true,"rental_uris":{"android":"levelo://app?vid=23ef9141-55cc-4cda-b9d1-c70ee4f9d9d1","ios":"levelo://app?vid=23ef9141-55cc-4cda-b9d1-c70ee4f9d9d1"},"vehicle_type_id":"4","last_reported":1734614374,"current_range_meters":0,"station_id":"ce4bhgh2rcd13ifvqfb0","pricing_plan_id":"cebpf4jnsgd1na2vs0mg"},{"bike_id":"0e932eed-194f-4ba1-b929-5d448ebf2028","system_id":"levelo_inurba_marseille","lat":43.26553,"lon":5.39018,"is_reserved":false,"is_disabled":false,"rental_uris":{"android":"levelo://app?vid=0e932eed-194f-4ba1-b929-5d448ebf2028","ios":"levelo://app?vid=0e932eed-194f-4ba1-b929-5d448ebf2028"},"vehicle_type_id":"4","last_reported":1734614374,"current_range_meters":4000,"station_id":"ce4bhe12rcd13ifvqf30","pricing_plan_id":"cebpf4jnsgd1na2vs0mg"},{"bike_id":"3417d897-84a9-44ba-81ef-40200cfed818","system_id":"levelo_inurba_marseille","lat":43.25738,"lon":5.41072,"is_reserved":false,"is_disabled":false,"rental_uris":{"android":"levelo://app?vid=3417d897-84a9-44ba-81ef-40200cfed818","ios":"levelo://app?vid=3417d897-84a9-44ba-81ef-40200cfed818"},"vehicle_type_id":"4","last_reported":1734614374,"current_range_meters":38800,"station_id":"ce4bhkp2rcd13ifvqgd0","pricing_plan_id":"cebpf4jnsgd1na2vs0mg"},{"bike_id":"b3a0a937-593c-426c-a8c8-0efad309623d","system_id":"levelo_inurba_marseille","lat":43.29213,"lon":5.40222,"is_reserved":false,"is_disabled":true,"rental_uris":{"android":"levelo://app?vid=b3a0a937-593c-426c-a8c8-0efad309623d","ios":"levelo://app?vid=b3a0a937-593c-426c-a8c8-0efad309623d"},"vehicle_type_id":"4","last_reported":1734614374,"current_range_meters":28800,"station_id":"","pricing_plan_id":"cebpf4jnsgd1na2vs0mg"},{"bike_id":"53c5dd90-208e-4b14-9aec-3133385e99e3","system_id":"levelo_inurba_marseille","lat":43.29559,"lon":5.42282,"is_reserved":false,"is_disabled":false,"rental_uris":{"android":"levelo://app?vid=53c5dd90-208e-4b14-9aec-3133385e99e3","ios":"levelo://app?vid=53c5dd90-208e-4b14-9aec-3133385e99e3"},"vehicle_type_id":"4","last_reported":1734614374,"current_range_meters":8400,"station_id":"ce4bhph2rcd13ifvqhdg","pricing_plan_id":"cebpf4jnsgd1na2vs0mg"},{"bike_id":"b8ab8a40-a2b4-425d-a9ba-0fdbe3a77b74","system_id":"levelo_inurba_marseille","lat":43.31702,"lon":5.3774,"is_reserved":false,"is_disabled":false,"rental_uris":{"android":"levelo://app?vid=b8ab8a40-a2b4-425d-a9ba-0fdbe3a77b74","ios":"levelo://app?vid=b8ab8a40-a2b4-425d-a9ba-0fdbe3a77b74"},"vehicle_type_id":"4","last_reported":1734614374,"current_range_meters":32400,"station_id":"ce4bgth2rcd13ifvqch0","pricing_plan_id":"cebpf4jnsgd1na2vs0mg"},{"bike_id":"41d4d63c-1601-40b8-9c24-4e8eca1ea969","system_id":"levelo_inurba_marseille","lat":43.317168,"lon":5.377161,"is_reserved":false,"is_disabled":false,"rental_uris":{"android":"levelo://app?vid=41d4d63c-1601-40b8-9c24-4e8eca1ea969","ios":"levelo://app?vid=41d4d63c-1601-40b8-9c24-4e8eca1ea969"},"vehicle_type_id":"4","last_reported":1734614374,"current_range_meters":38800,"station_id":"ce4bgth2rcd13ifvqch0","pricing_plan_id":"cebpf4jnsgd1na2vs0mg"},{"bike_id":"62cc5a16-2562-4639-85b3-96bc9a8ba745","system_id":"levelo_inurba_marseille","lat":43.29845,"lon":5.36274,"is_reserved":false,"is_disabled":false,"rental_uris":{"android":"levelo://app?vid=62cc5a16-2562-4639-85b3-96bc9a8ba745","ios":"levelo://app?vid=62cc5a16-2562-4639-85b3-96bc9a8ba745"},"vehicle_type_id":"4","last_reported":1734614374,"current_range_meters":10800,"station_id":"ce4bgpp2rcd13ifvqc3g","pricing_plan_id":"cebpf4jnsgd1na2vs0mg"},{"bike_id":"2f0d85a2-56b3-451a-9c7a-7917c578436e","system_id":"levelo_inurba_marseille","lat":43.29548,"lon":5.37472,"is_reserved":false,"is_disabled":false,"rental_uris":{"android":"levelo://app?vid=2f0d85a2-56b3-451a-9c7a-7917c578436e","ios":"levelo://app?vid=2f0d85a2-56b3-451a-9c7a-7917c578436e"},"vehicle_type_id":"4","last_reported":1734614374,"current_range_meters":32000,"station_id":"ce4bgkp2rcd13ifvqbmg","pricing_plan_id":"cebpf4jnsgd1na2vs0mg"},{"bike_id":"0c27b126-6cd5-4c40-b033-7d368936d16c","system_id":"levelo_inurba_marseille","lat":43.24073,"lon":5.37766,"is_reserved":false,"is_disabled":false,"rental_uris":{"android":"levelo://app?vid=0c27b126-6cd5-4c40-b033-7d368936d16c","ios":"levelo://app?vid=0c27b126-6cd5-4c40-b033-7d368936d16c"},"vehicle_type_id":"4","last_reported":1734614374,"current_range_meters":12000,"station_id":"ce4bhnp2rcd13ifvqgvg","pricing_plan_id":"cebpf4jnsgd1na2vs0mg"},{"bike_id":"68bc6016-d260-4114-b74a-ee9490ecf1f2","system_id":"levelo_inurba_marseille","lat":43.32657,"lon":5.40997,"is_reserved":false,"is_disabled":false,"rental_uris":{"android":"levelo://app?vid=68bc6016-d260-4114-b74a-ee9490ecf1f2","ios":"levelo://app?vid=68bc6016-d260-4114-b74a-ee9490ecf1f2"},"vehicle_type_id":"4","last_reported":1734614374,"current_range_meters":18000,"station_id":"ce4bhpp2rcd13ifvqhgg","pricing_plan_id":"cebpf4jnsgd1na2vs0mg"},{"bike_id":"d34bdf4f-71bc-4ae4-b273-f3852ddc692a","system_id":"levelo_inurba_marseille","lat":43.33756,"lon":5.37472,"is_reserved":false,"is_disabled":false,"rental_uris":{"android":"levelo://app?vid=d34bdf4f-71bc-4ae4-b273-f3852ddc692a","ios":"levelo://app?vid=d34bdf4f-71bc-4ae4-b273-f3852ddc692a"},"vehicle_type_id":"4","last_reported":1734614374,"current_range_meters":37600,"station_id":"","pricing_plan_id":"cebpf4jnsgd1na2vs0mg"},{"bike_id":"0a4a63bd-ef1a-48eb-835d-9160e5c79a1e","system_id":"levelo_inurba_marseille","lat":43.27493,"lon":5.42451,"is_reserved":false,"is_disabled":false,"rental_uris":{"android":"levelo://app?vid=0a4a63bd-ef1a-48eb-835d-9160e5c79a1e","ios":"levelo://app?vid=0a4a63bd-ef1a-48eb-835d-9160e5c79a1e"},"vehicle_type_id":"4","last_reported":1734614374,"current_range_meters":13600,"station_id":"ce4bhn92rcd13ifvqgrg","pricing_plan_id":"cebpf4jnsgd1na2vs0mg"},{"bike_id":"364c8ece-b245-4176-808b-ceae0c21b59e","system_id":"levelo_inurba_marseille","lat":43.2743,"lon":5.39425,"is_reserved":false,"is_disabled":false,"rental_uris":{"android":"levelo://app?vid=364c8ece-b245-4176-808b-ceae0c21b59e","ios":"levelo://app?vid=364c8ece-b245-4176-808b-ceae0c21b59e"},"vehicle_type_id":"4","last_reported":1734614374,"current_range_meters":26000,"station_id":"ce4bhdp2rcd13ifvqf20","pricing_plan_id":"cebpf4jnsgd1na2vs0mg"},{"bike_id":"312f26c3-4c98-4bb4-bda7-ac70380bf225","system_id":"levelo_inurba_marseille","lat":43.29306,"lon":5.37174,"is_reserved":false,"is_disabled":false,"rental_uris":{"android":"levelo://app?vid=312f26c3-4c98-4bb4-bda7-ac70380bf225","ios":"levelo://app?vid=312f26c3-4c98-4bb4-bda7-ac70380bf225"},"vehicle_type_id":"4","last_reported":1734614374,"current_range_meters":38400,"station_id":"ce4bgh92rcd13ifvqb40","pricing_plan_id":"cebpf4jnsgd1na2vs0mg"},{"bike_id":"85f0faa7-a071-4822-aa17-eec7e9d960df","system_id":"levelo_inurba_marseille","lat":43.29289,"lon":5.37449,"is_reserved":false,"is_disabled":false,"rental_uris":{"android":"levelo://app?vid=85f0faa7-a071-4822-aa17-eec7e9d960df","ios":"levelo://app?vid=85f0faa7-a071-4822-aa17-eec7e9d960df"},"vehicle_type_id":"4","last_reported":1734614374,"current_range_meters":38800,"station_id":"ce4bgi12rcd13ifvqb70","pricing_plan_id":"cebpf4jnsgd1na2vs0mg"},{"bike_id":"f81c5ee8-ac89-4377-80a4-b08e012dcdf6","system_id":"levelo_inurba_marseille","lat":43.30408,"lon":5.3677,"is_reserved":false,"is_disabled":false,"rental_uris":{"android":"levelo://app?vid=f81c5ee8-ac89-4377-80a4-b08e012dcdf6","ios":"levelo://app?vid=f81c5ee8-ac89-4377-80a4-b08e012dcdf6"},"vehicle_type_id":"4","last_reported":1734614374,"current_range_meters":36000,"station_id":"ce4bgn92rcd13ifvqbvg","pricing_plan_id":"cebpf4jnsgd1na2vs0mg"},{"bike_id":"bee6ad41-71c0-4070-bc7e-6d7a9dcb70ba","system_id":"levelo_inurba_marseille","lat":43.26549,"lon":5.37294,"is_reserved":false,"is_disabled":false,"rental_uris":{"android":"levelo://app?vid=bee6ad41-71c0-4070-bc7e-6d7a9dcb70ba","ios":"levelo://app?vid=bee6ad41-71c0-4070-bc7e-6d7a9dcb70ba"},"vehicle_type_id":"4","last_reported":1734614374,"current_range_meters":35600,"station_id":"ce4bhg12rcd13ifvqf70","pricing_plan_id":"cebpf4jnsgd1na2vs0mg"},{"bike_id":"60605134-8f08-4248-bb54-96770516d1f8","system_id":"levelo_inurba_marseille","lat":43.26496,"lon":5.39549,"is_reserved":false,"is_disabled":false,"rental_uris":{"android":"levelo://app?vid=60605134-8f08-4248-bb54-96770516d1f8","ios":"levelo://app?vid=60605134-8f08-4248-bb54-96770516d1f8"},"vehicle_type_id":"4","last_reported":1734614374,"current_range_meters":19200,"station_id":"ce4bhi12rcd13ifvqfq0","pricing_plan_id":"cebpf4jnsgd1na2vs0mg"},{"bike_id":"b042baac-48e3-41d4-beca-2c2cc4a183f1","system_id":"levelo_inurba_marseille","lat":43.23201,"lon":5.35549,"is_reserved":false,"is_disabled":false,"rental_uris":{"android":"levelo://app?vid=b042baac-48e3-41d4-beca-2c2cc4a183f1","ios":"levelo://app?vid=b042baac-48e3-41d4-beca-2c2cc4a183f1"},"vehicle_type_id":"4","last_reported":1734614374,"current_range_meters":38800,"station_id":"ce4bhu92rcd13ifvqi70","pricing_plan_id":"cebpf4jnsgd1na2vs0mg"},{"bike_id":"22251476-f43a-475b-90de-c44ef2245604","system_id":"levelo_inurba_marseille","lat":43.28858,"lon":5.35843,"is_reserved":false,"is_disabled":false,"rental_uris":{"android":"levelo://app?vid=22251476-f43a-475b-90de-c44ef2245604","ios":"levelo://app?vid=22251476-f43a-475b-90de-c44ef2245604"},"vehicle_type_id":"4","last_reported":1734614374,"current_range_meters":34800,"station_id":"ce4bhb12rcd13ifvqem0","pricing_plan_id":"cebpf4jnsgd1na2vs0mg"},{"bike_id":"d8f5e76e-f9f7-4677-b4d2-89d449c9f02e","system_id":"levelo_inurba_marseille","lat":43.29899,"lon":5.43661,"is_reserved":false,"is_disabled":false,"rental_uris":{"android":"levelo://app?vid=d8f5e76e-f9f7-4677-b4d2-89d449c9f02e","ios":"levelo://app?vid=d8f5e76e-f9f7-4677-b4d2-89d449c9f02e"},"vehicle_type_id":"4","last_reported":1734614374,"current_range_meters":14000,"station_id":"ce4bhpp2rcd13ifvqhfg","pricing_plan_id":"cebpf4jnsgd1na2vs0mg"},{"bike_id":"ea1ee0a0-f240-4d25-84d9-e6fb6fc7a18c","system_id":"levelo_inurba_marseille","lat":43.3371,"lon":5.42074,"is_reserved":false,"is_disabled":true,"rental_uris":{"android":"levelo://app?vid=ea1ee0a0-f240-4d25-84d9-e6fb6fc7a18c","ios":"levelo://app?vid=ea1ee0a0-f240-4d25-84d9-e6fb6fc7a18c"},"vehicle_type_id":"4","last_reported":1734614374,"current_range_meters":0,"station_id":"","pricing_plan_id":"cebpf4jnsgd1na2vs0mg"},{"bike_id":"d12a911a-6539-4bf1-8790-26cf17b56281","system_id":"levelo_inurba_marseille","lat":43.28705,"lon":5.37973,"is_reserved":false,"is_disabled":false,"rental_uris":{"android":"levelo://app?vid=d12a911a-6539-4bf1-8790-26cf17b56281","ios":"levelo://app?vid=d12a911a-6539-4bf1-8790-26cf17b56281"},"vehicle_type_id":"4","last_reported":1734614374,"current_range_meters":39200,"station_id":"ce4bh9p2rcd13ifvqec0","pricing_plan_id":"cebpf4jnsgd1na2vs0mg"},{"bike_id":"4784af70-1109-4ba8-8b1f-151e625006d3","system_id":"levelo_inurba_marseille","lat":43.29662,"lon":5.37717,"is_reserved":false,"is_disabled":false,"rental_uris":{"android":"levelo://app?vid=4784af70-1109-4ba8-8b1f-151e625006d3","ios":"levelo://app?vid=4784af70-1109-4ba8-8b1f-151e625006d3"},"vehicle_type_id":"4","last_reported":1734614374,"current_range_meters":32000,"station_id":"ce4bgi92rcd13ifvqb90","pricing_plan_id":"cebpf4jnsgd1na2vs0mg"},{"bike_id":"2e64e1e6-5321-4e48-8e36-8b0923ce9b96","system_id":"levelo_inurba_marseille","lat":43.2917,"lon":5.37163,"is_reserved":false,"is_disabled":false,"rental_uris":{"android":"levelo://app?vid=2e64e1e6-5321-4e48-8e36-8b0923ce9b96","ios":"levelo://app?vid=2e64e1e6-5321-4e48-8e36-8b0923ce9b96"},"vehicle_type_id":"4","last_reported":1734614374,"current_range_meters":19600,"station_id":"ce4bha92rcd13ifvqeh0","pricing_plan_id":"cebpf4jnsgd1na2vs0mg"},{"bike_id":"eba4b541-9132-4ff2-983b-36055e652329","system_id":"levelo_inurba_marseille","lat":43.30958,"lon":5.39037,"is_reserved":false,"is_disabled":false,"rental_uris":{"android":"levelo://app?vid=eba4b541-9132-4ff2-983b-36055e652329","ios":"levelo://app?vid=eba4b541-9132-4ff2-983b-36055e652329"},"vehicle_type_id":"4","last_reported":1734614374,"current_range_meters":32400,"station_id":"ce4bgup2rcd13ifvqco0","pricing_plan_id":"cebpf4jnsgd1na2vs0mg"},{"bike_id":"77df03ec-7c29-4256-9a51-8345b040be40","system_id":"levelo_inurba_marseille","lat":43.31355,"lon":5.39596,"is_reserved":false,"is_disabled":false,"rental_uris":{"android":"levelo://app?vid=77df03ec-7c29-4256-9a51-8345b040be40","ios":"levelo://app?vid=77df03ec-7c29-4256-9a51-8345b040be40"},"vehicle_type_id":"4","last_reported":1734614374,"current_range_meters":17200,"station_id":"","pricing_plan_id":"cebpf4jnsgd1na2vs0mg"},{"bike_id":"9900f6e3-50cc-4797-afb8-42c1cb0713f3","system_id":"levelo_inurba_marseille","lat":43.28425,"lon":5.37523,"is_reserved":false,"is_disabled":true,"rental_uris":{"android":"levelo://app?vid=9900f6e3-50cc-4797-afb8-42c1cb0713f3","ios":"levelo://app?vid=9900f6e3-50cc-4797-afb8-42c1cb0713f3"},"vehicle_type_id":"4","last_reported":1734614374,"current_range_meters":0,"station_id":"ce4bh412rcd13ifvqds0","pricing_plan_id":"cebpf4jnsgd1na2vs0mg"},{"bike_id":"77592e58-7330-482c-98aa-1362dec7556c","system_id":"levelo_inurba_marseille","lat":43.30527,"lon":5.36546,"is_reserved":false,"is_disabled":false,"rental_uris":{"android":"levelo://app?vid=77592e58-7330-482c-98aa-1362dec7556c","ios":"levelo://app?vid=77592e58-7330-482c-98aa-1362dec7556c"},"vehicle_type_id":"4","last_reported":1734614374,"current_range_meters":38800,"station_id":"ce4bgs12rcd13ifvqcag","pricing_plan_id":"cebpf4jnsgd1na2vs0mg"},{"bike_id":"c6a627c8-1c0a-4abb-be27-91ec5e63a781","system_id":"levelo_inurba_marseille","lat":43.28718,"lon":5.37932,"is_reserved":false,"is_disabled":false,"rental_uris":{"android":"levelo://app?vid=c6a627c8-1c0a-4abb-be27-91ec5e63a781","ios":"levelo://app?vid=c6a627c8-1c0a-4abb-be27-91ec5e63a781"},"vehicle_type_id":"4","last_reported":1734614374,"current_range_meters":16400,"station_id":"ce4bh9p2rcd13ifvqec0","pricing_plan_id":"cebpf4jnsgd1na2vs0mg"},{"bike_id":"a146cce3-8823-4758-89fd-b42eb36ef150","system_id":"levelo_inurba_marseille","lat":43.3107,"lon":5.38363,"is_reserved":false,"is_disabled":false,"rental_uris":{"android":"levelo://app?vid=a146cce3-8823-4758-89fd-b42eb36ef150","ios":"levelo://app?vid=a146cce3-8823-4758-89fd-b42eb36ef150"},"vehicle_type_id":"4","last_reported":1734614374,"current_range_meters":8000,"station_id":"ce4bgv92rcd13ifvqcr0","pricing_plan_id":"cebpf4jnsgd1na2vs0mg"},{"bike_id":"cc232246-d625-436a-b92f-a067e5dd49c1","system_id":"levelo_inurba_marseille","lat":43.26686,"lon":5.3827,"is_reserved":false,"is_disabled":false,"rental_uris":{"android":"levelo://app?vid=cc232246-d625-436a-b92f-a067e5dd49c1","ios":"levelo://app?vid=cc232246-d625-436a-b92f-a067e5dd49c1"},"vehicle_type_id":"4","last_reported":1734614374,"current_range_meters":22800,"station_id":"ce4bhg92rcd13ifvqf90","pricing_plan_id":"cebpf4jnsgd1na2vs0mg"},{"bike_id":"429745b4-b0cd-459d-87d4-4a487dce62f2","system_id":"levelo_inurba_marseille","lat":43.31158,"lon":5.38737,"is_reserved":false,"is_disabled":false,"rental_uris":{"android":"levelo://app?vid=429745b4-b0cd-459d-87d4-4a487dce62f2","ios":"levelo://app?vid=429745b4-b0cd-459d-87d4-4a487dce62f2"},"vehicle_type_id":"4","last_reported":1734614374,"current_range_meters":25200,"station_id":"ce4bgv12rcd13ifvqcp0","pricing_plan_id":"cebpf4jnsgd1na2vs0mg"},{"bike_id":"63cff5eb-1415-48a9-b127-707db35946f5","system_id":"levelo_inurba_marseille","lat":43.2783,"lon":5.39197,"is_reserved":false,"is_disabled":true,"rental_uris":{"android":"levelo://app?vid=63cff5eb-1415-48a9-b127-707db35946f5","ios":"levelo://app?vid=63cff5eb-1415-48a9-b127-707db35946f5"},"vehicle_type_id":"4","last_reported":1734614374,"current_range_meters":400,"station_id":"ce4bhjp2rcd13ifvqga0","pricing_plan_id":"cebpf4jnsgd1na2vs0mg"},{"bike_id":"06b03a71-2c60-49ac-ae36-76d0c0c37129","system_id":"levelo_inurba_marseille","lat":43.29908,"lon":5.37474,"is_reserved":false,"is_disabled":false,"rental_uris":{"android":"levelo://app?vid=06b03a71-2c60-49ac-ae36-76d0c0c37129","ios":"levelo://app?vid=06b03a71-2c60-49ac-ae36-76d0c0c37129"},"vehicle_type_id":"4","last_reported":1734614374,"current_range_meters":25600,"station_id":"ce4bgjh2rcd13ifvqbg0","pricing_plan_id":"cebpf4jnsgd1na2vs0mg"},{"bike_id":"c5d3dda4-9397-4823-9c8b-ea8eda2ab949","system_id":"levelo_inurba_marseille","lat":43.23968,"lon":5.36633,"is_reserved":false,"is_disabled":false,"rental_uris":{"android":"levelo://app?vid=c5d3dda4-9397-4823-9c8b-ea8eda2ab949","ios":"levelo://app?vid=c5d3dda4-9397-4823-9c8b-ea8eda2ab949"},"vehicle_type_id":"4","last_reported":1734614374,"current_range_meters":4800,"station_id":"ce4bhi12rcd13ifvqfp0","pricing_plan_id":"cebpf4jnsgd1na2vs0mg"},{"bike_id":"0d4cf357-cd32-43d3-8971-89a7a2f06824","system_id":"levelo_inurba_marseille","lat":43.2557,"lon":5.38243,"is_reserved":false,"is_disabled":false,"rental_uris":{"android":"levelo://app?vid=0d4cf357-cd32-43d3-8971-89a7a2f06824","ios":"levelo://app?vid=0d4cf357-cd32-43d3-8971-89a7a2f06824"},"vehicle_type_id":"4","last_reported":1734614374,"current_range_meters":37600,"station_id":"ce4bhih2rcd13ifvqfs0","pricing_plan_id":"cebpf4jnsgd1na2vs0mg"},{"bike_id":"b11dec3c-37ae-4e5f-a182-7db8571c22d2","system_id":"levelo_inurba_marseille","lat":43.29898,"lon":5.43662,"is_reserved":false,"is_disabled":false,"rental_uris":{"android":"levelo://app?vid=b11dec3c-37ae-4e5f-a182-7db8571c22d2","ios":"levelo://app?vid=b11dec3c-37ae-4e5f-a182-7db8571c22d2"},"vehicle_type_id":"4","last_reported":1734614374,"current_range_meters":36400,"station_id":"ce4bhpp2rcd13ifvqhfg","pricing_plan_id":"cebpf4jnsgd1na2vs0mg"},{"bike_id":"d4aa1161-b39f-4e04-9b26-9b7a54962176","system_id":"levelo_inurba_marseille","lat":43.27619,"lon":5.36115,"is_reserved":false,"is_disabled":true,"rental_uris":{"android":"levelo://app?vid=d4aa1161-b39f-4e04-9b26-9b7a54962176","ios":"levelo://app?vid=d4aa1161-b39f-4e04-9b26-9b7a54962176"},"vehicle_type_id":"4","last_reported":1734614374,"current_range_meters":0,"station_id":"ce4bgj92rcd13ifvqbe0","pricing_plan_id":"cebpf4jnsgd1na2vs0mg"},{"bike_id":"72492ff3-d3e5-4b81-822b-1d3357339451","system_id":"levelo_inurba_marseille","lat":43.29078,"lon":5.39926,"is_reserved":false,"is_disabled":true,"rental_uris":{"android":"levelo://app?vid=72492ff3-d3e5-4b81-822b-1d3357339451","ios":"levelo://app?vid=72492ff3-d3e5-4b81-822b-1d3357339451"},"vehicle_type_id":"4","last_reported":1734614374,"current_range_meters":36000,"station_id":"","pricing_plan_id":"cebpf4jnsgd1na2vs0mg"},{"bike_id":"c88ed8a1-c9ef-47b7-a222-f2860b9f30d3","system_id":"levelo_inurba_marseille","lat":43.29272,"lon":5.3685,"is_reserved":false,"is_disabled":false,"rental_uris":{"android":"levelo://app?vid=c88ed8a1-c9ef-47b7-a222-f2860b9f30d3","ios":"levelo://app?vid=c88ed8a1-c9ef-47b7-a222-f2860b9f30d3"},"vehicle_type_id":"4","last_reported":1734614374,"current_range_meters":36800,"station_id":"ce4bhbp2rcd13ifvqesg","pricing_plan_id":"cebpf4jnsgd1na2vs0mg"},{"bike_id":"79687aac-cb5f-4ae0-a99e-c60a9baa37ca","system_id":"levelo_inurba_marseille","lat":43.30956,"lon":5.39036,"is_reserved":false,"is_disabled":false,"rental_uris":{"android":"levelo://app?vid=79687aac-cb5f-4ae0-a99e-c60a9baa37ca","ios":"levelo://app?vid=79687aac-cb5f-4ae0-a99e-c60a9baa37ca"},"vehicle_type_id":"4","last_reported":1734614374,"current_range_meters":24000,"station_id":"ce4bgup2rcd13ifvqco0","pricing_plan_id":"cebpf4jnsgd1na2vs0mg"},{"bike_id":"551704b5-8798-4672-95f2-ffc698f4a50e","system_id":"levelo_inurba_marseille","lat":43.29524,"lon":5.37504,"is_reserved":false,"is_disabled":false,"rental_uris":{"android":"levelo://app?vid=551704b5-8798-4672-95f2-ffc698f4a50e","ios":"levelo://app?vid=551704b5-8798-4672-95f2-ffc698f4a50e"},"vehicle_type_id":"4","last_reported":1734614374,"current_range_meters":4800,"station_id":"ce4bgkp2rcd13ifvqbmg","pricing_plan_id":"cebpf4jnsgd1na2vs0mg"},{"bike_id":"11279ee7-29a0-485d-88ca-34d560f11dda","system_id":"levelo_inurba_marseille","lat":43.28191,"lon":5.4256,"is_reserved":false,"is_disabled":false,"rental_uris":{"android":"levelo://app?vid=11279ee7-29a0-485d-88ca-34d560f11dda","ios":"levelo://app?vid=11279ee7-29a0-485d-88ca-34d560f11dda"},"vehicle_type_id":"4","last_reported":1734614374,"current_range_meters":8400,"station_id":"ce4bhnh2rcd13ifvqgug","pricing_plan_id":"cebpf4jnsgd1na2vs0mg"},{"bike_id":"8817d0d5-9eca-431a-a655-80bc815ceaa5","system_id":"levelo_inurba_marseille","lat":43.29566,"lon":5.37508,"is_reserved":false,"is_disabled":false,"rental_uris":{"android":"levelo://app?vid=8817d0d5-9eca-431a-a655-80bc815ceaa5","ios":"levelo://app?vid=8817d0d5-9eca-431a-a655-80bc815ceaa5"},"vehicle_type_id":"4","last_reported":1734614374,"current_range_meters":39200,"station_id":"ce4bgh92rcd13ifvqb50","pricing_plan_id":"cebpf4jnsgd1na2vs0mg"},{"bike_id":"92dbe881-4d12-4807-9474-87af83394dc5","system_id":"levelo_inurba_marseille","lat":43.3123,"lon":5.36763,"is_reserved":false,"is_disabled":false,"rental_uris":{"android":"levelo://app?vid=92dbe881-4d12-4807-9474-87af83394dc5","ios":"levelo://app?vid=92dbe881-4d12-4807-9474-87af83394dc5"},"vehicle_type_id":"4","last_reported":1734614374,"current_range_meters":34000,"station_id":"ce4bgl92rcd13ifvqbq0","pricing_plan_id":"cebpf4jnsgd1na2vs0mg"},{"bike_id":"78471806-92f3-4670-9c4a-cbf55d75e3f8","system_id":"levelo_inurba_marseille","lat":43.324803,"lon":5.365683,"is_reserved":false,"is_disabled":false,"rental_uris":{"android":"levelo://app?vid=78471806-92f3-4670-9c4a-cbf55d75e3f8","ios":"levelo://app?vid=78471806-92f3-4670-9c4a-cbf55d75e3f8"},"vehicle_type_id":"4","last_reported":1734614374,"current_range_meters":39200,"station_id":"ce4bhs12rcd13ifvqhvg","pricing_plan_id":"cebpf4jnsgd1na2vs0mg"},{"bike_id":"2bbc7d10-3954-4134-8bbc-e39263d18ca1","system_id":"levelo_inurba_marseille","lat":43.27425,"lon":5.3942,"is_reserved":false,"is_disabled":false,"rental_uris":{"android":"levelo://app?vid=2bbc7d10-3954-4134-8bbc-e39263d18ca1","ios":"levelo://app?vid=2bbc7d10-3954-4134-8bbc-e39263d18ca1"},"vehicle_type_id":"4","last_reported":1734614374,"current_range_meters":14800,"station_id":"ce4bhdp2rcd13ifvqf20","pricing_plan_id":"cebpf4jnsgd1na2vs0mg"},{"bike_id":"370b1eb6-4f45-4760-84c5-106172693f5d","system_id":"levelo_inurba_marseille","lat":43.23962,"lon":5.3663,"is_reserved":false,"is_disabled":false,"rental_uris":{"android":"levelo://app?vid=370b1eb6-4f45-4760-84c5-106172693f5d","ios":"levelo://app?vid=370b1eb6-4f45-4760-84c5-106172693f5d"},"vehicle_type_id":"4","last_reported":1734614374,"current_range_meters":28000,"station_id":"ce4bhi12rcd13ifvqfp0","pricing_plan_id":"cebpf4jnsgd1na2vs0mg"},{"bike_id":"782bcbf2-b7de-4b04-bebc-aaa0329dd90c","system_id":"levelo_inurba_marseille","lat":43.23188,"lon":5.35559,"is_reserved":false,"is_disabled":false,"rental_uris":{"android":"levelo://app?vid=782bcbf2-b7de-4b04-bebc-aaa0329dd90c","ios":"levelo://app?vid=782bcbf2-b7de-4b04-bebc-aaa0329dd90c"},"vehicle_type_id":"4","last_reported":1734614374,"current_range_meters":39200,"station_id":"ce4bhu92rcd13ifvqi70","pricing_plan_id":"cebpf4jnsgd1na2vs0mg"},{"bike_id":"f5b051f4-e217-4e3b-843c-052a74518124","system_id":"levelo_inurba_marseille","lat":43.29921,"lon":5.37465,"is_reserved":false,"is_disabled":false,"rental_uris":{"android":"levelo://app?vid=f5b051f4-e217-4e3b-843c-052a74518124","ios":"levelo://app?vid=f5b051f4-e217-4e3b-843c-052a74518124"},"vehicle_type_id":"4","last_reported":1734614374,"current_range_meters":23200,"station_id":"ce4bgjh2rcd13ifvqbg0","pricing_plan_id":"cebpf4jnsgd1na2vs0mg"},{"bike_id":"2f54f37a-f215-49a7-b2c4-de22e4c382a2","system_id":"levelo_inurba_marseille","lat":43.3042,"lon":5.39753,"is_reserved":false,"is_disabled":false,"rental_uris":{"android":"levelo://app?vid=2f54f37a-f215-49a7-b2c4-de22e4c382a2","ios":"levelo://app?vid=2f54f37a-f215-49a7-b2c4-de22e4c382a2"},"vehicle_type_id":"4","last_reported":1734614374,"current_range_meters":37600,"station_id":"ce4bh092rcd13ifvqd20","pricing_plan_id":"cebpf4jnsgd1na2vs0mg"},{"bike_id":"96ff88dc-8cf7-4b0f-a345-fa00220da932","system_id":"levelo_inurba_marseille","lat":43.27419,"lon":5.42399,"is_reserved":false,"is_disabled":true,"rental_uris":{"android":"levelo://app?vid=96ff88dc-8cf7-4b0f-a345-fa00220da932","ios":"levelo://app?vid=96ff88dc-8cf7-4b0f-a345-fa00220da932"},"vehicle_type_id":"4","last_reported":1734614374,"current_range_meters":0,"station_id":"","pricing_plan_id":"cebpf4jnsgd1na2vs0mg"},{"bike_id":"d5c0e746-a9fa-4159-b28f-7d6a3cba6cea","system_id":"levelo_inurba_marseille","lat":43.24382,"lon":5.3707,"is_reserved":false,"is_disabled":false,"rental_uris":{"android":"levelo://app?vid=d5c0e746-a9fa-4159-b28f-7d6a3cba6cea","ios":"levelo://app?vid=d5c0e746-a9fa-4159-b28f-7d6a3cba6cea"},"vehicle_type_id":"4","last_reported":1734614374,"current_range_meters":14400,"station_id":"ce4bhhh2rcd13ifvqfk0","pricing_plan_id":"cebpf4jnsgd1na2vs0mg"},{"bike_id":"ae925a06-4711-47f5-9f81-00a52a5f2f26","system_id":"levelo_inurba_marseille","lat":43.28506,"lon":5.38451,"is_reserved":false,"is_disabled":true,"rental_uris":{"android":"levelo://app?vid=ae925a06-4711-47f5-9f81-00a52a5f2f26","ios":"levelo://app?vid=ae925a06-4711-47f5-9f81-00a52a5f2f26"},"vehicle_type_id":"4","last_reported":1734614374,"current_range_meters":1200,"station_id":"ce4bh512rcd13ifvqe3g","pricing_plan_id":"cebpf4jnsgd1na2vs0mg"},{"bike_id":"d3cbdaf1-13ec-4077-9ff5-7a5da76596c1","system_id":"levelo_inurba_marseille","lat":43.337444,"lon":5.374475,"is_reserved":false,"is_disabled":false,"rental_uris":{"android":"levelo://app?vid=d3cbdaf1-13ec-4077-9ff5-7a5da76596c1","ios":"levelo://app?vid=d3cbdaf1-13ec-4077-9ff5-7a5da76596c1"},"vehicle_type_id":"4","last_reported":1734614374,"current_range_meters":37600,"station_id":"","pricing_plan_id":"cebpf4jnsgd1na2vs0mg"},{"bike_id":"f6a0097d-208c-4ed5-9b7e-280c6a0f27f2","system_id":"levelo_inurba_marseille","lat":43.31261,"lon":5.40181,"is_reserved":false,"is_disabled":false,"rental_uris":{"android":"levelo://app?vid=f6a0097d-208c-4ed5-9b7e-280c6a0f27f2","ios":"levelo://app?vid=f6a0097d-208c-4ed5-9b7e-280c6a0f27f2"},"vehicle_type_id":"4","last_reported":1734614374,"current_range_meters":8400,"station_id":"ce4bh092rcd13ifvqd30","pricing_plan_id":"cebpf4jnsgd1na2vs0mg"},{"bike_id":"a2a605c8-f45e-4ab0-8cb5-731c77c85b78","system_id":"levelo_inurba_marseille","lat":43.27919,"lon":5.39585,"is_reserved":false,"is_disabled":false,"rental_uris":{"android":"levelo://app?vid=a2a605c8-f45e-4ab0-8cb5-731c77c85b78","ios":"levelo://app?vid=a2a605c8-f45e-4ab0-8cb5-731c77c85b78"},"vehicle_type_id":"4","last_reported":1734614374,"current_range_meters":24400,"station_id":"ce4bhf92rcd13ifvqf40","pricing_plan_id":"cebpf4jnsgd1na2vs0mg"},{"bike_id":"c576bbb7-f598-408a-a4f9-6c8c695eb2d6","system_id":"levelo_inurba_marseille","lat":43.28936,"lon":5.36391,"is_reserved":false,"is_disabled":false,"rental_uris":{"android":"levelo://app?vid=c576bbb7-f598-408a-a4f9-6c8c695eb2d6","ios":"levelo://app?vid=c576bbb7-f598-408a-a4f9-6c8c695eb2d6"},"vehicle_type_id":"4","last_reported":1734614374,"current_range_meters":24800,"station_id":"ce4bhc92rcd13ifvqetg","pricing_plan_id":"cebpf4jnsgd1na2vs0mg"},{"bike_id":"65332c14-8f41-4f1a-b711-08ad210242f2","system_id":"levelo_inurba_marseille","lat":43.29595,"lon":5.38109,"is_reserved":false,"is_disabled":false,"rental_uris":{"android":"levelo://app?vid=65332c14-8f41-4f1a-b711-08ad210242f2","ios":"levelo://app?vid=65332c14-8f41-4f1a-b711-08ad210242f2"},"vehicle_type_id":"4","last_reported":1734614374,"current_range_meters":36000,"station_id":"ce4bgl12rcd13ifvqbo0","pricing_plan_id":"cebpf4jnsgd1na2vs0mg"},{"bike_id":"dabc11e5-2a8c-408a-bea8-b9245b335168","system_id":"levelo_inurba_marseille","lat":43.24052,"lon":5.37764,"is_reserved":false,"is_disabled":true,"rental_uris":{"android":"levelo://app?vid=dabc11e5-2a8c-408a-bea8-b9245b335168","ios":"levelo://app?vid=dabc11e5-2a8c-408a-bea8-b9245b335168"},"vehicle_type_id":"4","last_reported":1734614374,"current_range_meters":0,"station_id":"ce4bhnp2rcd13ifvqgvg","pricing_plan_id":"cebpf4jnsgd1na2vs0mg"},{"bike_id":"e4abd70d-a829-459f-b974-e058d7a95bac","system_id":"levelo_inurba_marseille","lat":43.330174,"lon":5.390366,"is_reserved":false,"is_disabled":false,"rental_uris":{"android":"levelo://app?vid=e4abd70d-a829-459f-b974-e058d7a95bac","ios":"levelo://app?vid=e4abd70d-a829-459f-b974-e058d7a95bac"},"vehicle_type_id":"4","last_reported":1734614374,"current_range_meters":38800,"station_id":"ce4bhr92rcd13ifvqhrg","pricing_plan_id":"cebpf4jnsgd1na2vs0mg"},{"bike_id":"d13f7cfd-aee1-4e81-ada7-11e1cdeabe60","system_id":"levelo_inurba_marseille","lat":43.3108,"lon":5.42431,"is_reserved":false,"is_disabled":false,"rental_uris":{"android":"levelo://app?vid=d13f7cfd-aee1-4e81-ada7-11e1cdeabe60","ios":"levelo://app?vid=d13f7cfd-aee1-4e81-ada7-11e1cdeabe60"},"vehicle_type_id":"4","last_reported":1734614374,"current_range_meters":38000,"station_id":"ce4bhp92rcd13ifvqhag","pricing_plan_id":"cebpf4jnsgd1na2vs0mg"},{"bike_id":"44127e4e-8e84-4a38-89f7-8f4efb63f7a5","system_id":"levelo_inurba_marseille","lat":43.31198,"lon":5.36778,"is_reserved":false,"is_disabled":true,"rental_uris":{"android":"levelo://app?vid=44127e4e-8e84-4a38-89f7-8f4efb63f7a5","ios":"levelo://app?vid=44127e4e-8e84-4a38-89f7-8f4efb63f7a5"},"vehicle_type_id":"4","last_reported":1734614374,"current_range_meters":800,"station_id":"","pricing_plan_id":"cebpf4jnsgd1na2vs0mg"},{"bike_id":"f1856f75-e444-483a-ae81-4b55212a6e52","system_id":"levelo_inurba_marseille","lat":43.2706,"lon":5.40259,"is_reserved":false,"is_disabled":false,"rental_uris":{"android":"levelo://app?vid=f1856f75-e444-483a-ae81-4b55212a6e52","ios":"levelo://app?vid=f1856f75-e444-483a-ae81-4b55212a6e52"},"vehicle_type_id":"4","last_reported":1734614374,"current_range_meters":29600,"station_id":"ce4bhk92rcd13ifvqgc0","pricing_plan_id":"cebpf4jnsgd1na2vs0mg"},{"bike_id":"7479d725-59cb-48cf-a084-1b11e8db4e0c","system_id":"levelo_inurba_marseille","lat":43.28154,"lon":5.42644,"is_reserved":false,"is_disabled":false,"rental_uris":{"android":"levelo://app?vid=7479d725-59cb-48cf-a084-1b11e8db4e0c","ios":"levelo://app?vid=7479d725-59cb-48cf-a084-1b11e8db4e0c"},"vehicle_type_id":"4","last_reported":1734614374,"current_range_meters":38000,"station_id":"ce4bhnh2rcd13ifvqgug","pricing_plan_id":"cebpf4jnsgd1na2vs0mg"},{"bike_id":"6754465b-8ec1-4291-a363-dc0c75d1552e","system_id":"levelo_inurba_marseille","lat":43.24397,"lon":5.37059,"is_reserved":false,"is_disabled":false,"rental_uris":{"android":"levelo://app?vid=6754465b-8ec1-4291-a363-dc0c75d1552e","ios":"levelo://app?vid=6754465b-8ec1-4291-a363-dc0c75d1552e"},"vehicle_type_id":"4","last_reported":1734614374,"current_range_meters":35200,"station_id":"ce4bhhh2rcd13ifvqfk0","pricing_plan_id":"cebpf4jnsgd1na2vs0mg"},{"bike_id":"ec9ccacb-52f3-4e77-a8ae-bd921a28ef88","system_id":"levelo_inurba_marseille","lat":43.31242,"lon":5.36846,"is_reserved":false,"is_disabled":false,"rental_uris":{"android":"levelo://app?vid=ec9ccacb-52f3-4e77-a8ae-bd921a28ef88","ios":"levelo://app?vid=ec9ccacb-52f3-4e77-a8ae-bd921a28ef88"},"vehicle_type_id":"4","last_reported":1734614374,"current_range_meters":28400,"station_id":"ce4bgl92rcd13ifvqbq0","pricing_plan_id":"cebpf4jnsgd1na2vs0mg"},{"bike_id":"a0a91137-5f70-4c0f-84d6-29233f1eedc2","system_id":"levelo_inurba_marseille","lat":43.29537,"lon":5.38551,"is_reserved":false,"is_disabled":false,"rental_uris":{"android":"levelo://app?vid=a0a91137-5f70-4c0f-84d6-29233f1eedc2","ios":"levelo://app?vid=a0a91137-5f70-4c0f-84d6-29233f1eedc2"},"vehicle_type_id":"4","last_reported":1734614374,"current_range_meters":18000,"station_id":"ce4bgih2rcd13ifvqba0","pricing_plan_id":"cebpf4jnsgd1na2vs0mg"},{"bike_id":"3cef7525-5a18-495f-b73e-edfaf8b741ea","system_id":"levelo_inurba_marseille","lat":43.3095,"lon":5.39042,"is_reserved":false,"is_disabled":false,"rental_uris":{"android":"levelo://app?vid=3cef7525-5a18-495f-b73e-edfaf8b741ea","ios":"levelo://app?vid=3cef7525-5a18-495f-b73e-edfaf8b741ea"},"vehicle_type_id":"4","last_reported":1734614374,"current_range_meters":6400,"station_id":"ce4bgup2rcd13ifvqco0","pricing_plan_id":"cebpf4jnsgd1na2vs0mg"},{"bike_id":"ee39a4ff-b614-4dd2-956c-b384f0742800","system_id":"levelo_inurba_marseille","lat":43.32475,"lon":5.36583,"is_reserved":false,"is_disabled":false,"rental_uris":{"android":"levelo://app?vid=ee39a4ff-b614-4dd2-956c-b384f0742800","ios":"levelo://app?vid=ee39a4ff-b614-4dd2-956c-b384f0742800"},"vehicle_type_id":"4","last_reported":1734614374,"current_range_meters":36800,"station_id":"ce4bhs12rcd13ifvqhvg","pricing_plan_id":"cebpf4jnsgd1na2vs0mg"},{"bike_id":"cd7b5a16-f32b-462e-bc1a-923b1c882c05","system_id":"levelo_inurba_marseille","lat":43.28727,"lon":5.37943,"is_reserved":false,"is_disabled":false,"rental_uris":{"android":"levelo://app?vid=cd7b5a16-f32b-462e-bc1a-923b1c882c05","ios":"levelo://app?vid=cd7b5a16-f32b-462e-bc1a-923b1c882c05"},"vehicle_type_id":"4","last_reported":1734614374,"current_range_meters":9200,"station_id":"ce4bh9p2rcd13ifvqec0","pricing_plan_id":"cebpf4jnsgd1na2vs0mg"},{"bike_id":"ebfaac6d-09cc-4a7d-86f1-a826a4bc243f","system_id":"levelo_inurba_marseille","lat":43.30414,"lon":5.39754,"is_reserved":false,"is_disabled":false,"rental_uris":{"android":"levelo://app?vid=ebfaac6d-09cc-4a7d-86f1-a826a4bc243f","ios":"levelo://app?vid=ebfaac6d-09cc-4a7d-86f1-a826a4bc243f"},"vehicle_type_id":"4","last_reported":1734614374,"current_range_meters":38800,"station_id":"ce4bh092rcd13ifvqd20","pricing_plan_id":"cebpf4jnsgd1na2vs0mg"},{"bike_id":"b3bec2b2-1f55-4aa9-bf02-40acba001163","system_id":"levelo_inurba_marseille","lat":43.29847,"lon":5.36274,"is_reserved":false,"is_disabled":false,"rental_uris":{"android":"levelo://app?vid=b3bec2b2-1f55-4aa9-bf02-40acba001163","ios":"levelo://app?vid=b3bec2b2-1f55-4aa9-bf02-40acba001163"},"vehicle_type_id":"4","last_reported":1734614374,"current_range_meters":38800,"station_id":"ce4bgpp2rcd13ifvqc3g","pricing_plan_id":"cebpf4jnsgd1na2vs0mg"},{"bike_id":"e9606422-c23d-4f08-b73c-b815fa90e5f8","system_id":"levelo_inurba_marseille","lat":43.3248,"lon":5.36564,"is_reserved":false,"is_disabled":false,"rental_uris":{"android":"levelo://app?vid=e9606422-c23d-4f08-b73c-b815fa90e5f8","ios":"levelo://app?vid=e9606422-c23d-4f08-b73c-b815fa90e5f8"},"vehicle_type_id":"4","last_reported":1734614374,"current_range_meters":24400,"station_id":"ce4bhs12rcd13ifvqhvg","pricing_plan_id":"cebpf4jnsgd1na2vs0mg"},{"bike_id":"0855ccf4-c4bf-4e2d-91fe-d844493d18ce","system_id":"levelo_inurba_marseille","lat":43.27995,"lon":5.40014,"is_reserved":false,"is_disabled":false,"rental_uris":{"android":"levelo://app?vid=0855ccf4-c4bf-4e2d-91fe-d844493d18ce","ios":"levelo://app?vid=0855ccf4-c4bf-4e2d-91fe-d844493d18ce"},"vehicle_type_id":"4","last_reported":1734614374,"current_range_meters":36800,"station_id":"ce4bho92rcd13ifvqh4g","pricing_plan_id":"cebpf4jnsgd1na2vs0mg"},{"bike_id":"e0c2eddf-4ba9-4754-b0b5-efd80badee74","system_id":"levelo_inurba_marseille","lat":43.25869,"lon":5.39448,"is_reserved":false,"is_disabled":true,"rental_uris":{"android":"levelo://app?vid=e0c2eddf-4ba9-4754-b0b5-efd80badee74","ios":"levelo://app?vid=e0c2eddf-4ba9-4754-b0b5-efd80badee74"},"vehicle_type_id":"4","last_reported":1734614374,"current_range_meters":0,"station_id":"","pricing_plan_id":"cebpf4jnsgd1na2vs0mg"},{"bike_id":"171d375c-18ea-47b4-9afc-7b2025b0138d","system_id":"levelo_inurba_marseille","lat":43.27957,"lon":5.41047,"is_reserved":false,"is_disabled":true,"rental_uris":{"android":"levelo://app?vid=171d375c-18ea-47b4-9afc-7b2025b0138d","ios":"levelo://app?vid=171d375c-18ea-47b4-9afc-7b2025b0138d"},"vehicle_type_id":"4","last_reported":1734614374,"current_range_meters":38400,"station_id":"ce4bhnp2rcd13ifvqh0g","pricing_plan_id":"cebpf4jnsgd1na2vs0mg"},{"bike_id":"aebff4f6-fe4e-494c-9ec4-35d089f38eea","system_id":"levelo_inurba_marseille","lat":43.28154,"lon":5.42648,"is_reserved":false,"is_disabled":false,"rental_uris":{"android":"levelo://app?vid=aebff4f6-fe4e-494c-9ec4-35d089f38eea","ios":"levelo://app?vid=aebff4f6-fe4e-494c-9ec4-35d089f38eea"},"vehicle_type_id":"4","last_reported":1734614374,"current_range_meters":28000,"station_id":"ce4bhnh2rcd13ifvqgug","pricing_plan_id":"cebpf4jnsgd1na2vs0mg"},{"bike_id":"e64ee947-f49f-4ac8-acc9-23f0de33b069","system_id":"levelo_inurba_marseille","lat":43.25827,"lon":5.39437,"is_reserved":false,"is_disabled":false,"rental_uris":{"android":"levelo://app?vid=e64ee947-f49f-4ac8-acc9-23f0de33b069","ios":"levelo://app?vid=e64ee947-f49f-4ac8-acc9-23f0de33b069"},"vehicle_type_id":"4","last_reported":1734614374,"current_range_meters":9200,"station_id":"ce4bhip2rcd13ifvqft0","pricing_plan_id":"cebpf4jnsgd1na2vs0mg"},{"bike_id":"f2a1d246-a6c1-426d-b4f9-6c0e5cd8282d","system_id":"levelo_inurba_marseille","lat":43.30218,"lon":5.3946,"is_reserved":false,"is_disabled":false,"rental_uris":{"android":"levelo://app?vid=f2a1d246-a6c1-426d-b4f9-6c0e5cd8282d","ios":"levelo://app?vid=f2a1d246-a6c1-426d-b4f9-6c0e5cd8282d"},"vehicle_type_id":"4","last_reported":1734614374,"current_range_meters":6800,"station_id":"ce4bh0p2rcd13ifvqd70","pricing_plan_id":"cebpf4jnsgd1na2vs0mg"},{"bike_id":"298b8445-2c9f-45b2-ac4e-9c28b3d5da22","system_id":"levelo_inurba_marseille","lat":43.31229,"lon":5.36861,"is_reserved":false,"is_disabled":false,"rental_uris":{"android":"levelo://app?vid=298b8445-2c9f-45b2-ac4e-9c28b3d5da22","ios":"levelo://app?vid=298b8445-2c9f-45b2-ac4e-9c28b3d5da22"},"vehicle_type_id":"4","last_reported":1734614374,"current_range_meters":35200,"station_id":"ce4bgl92rcd13ifvqbq0","pricing_plan_id":"cebpf4jnsgd1na2vs0mg"},{"bike_id":"f4c56ef6-7291-463e-be49-229f2ca4445a","system_id":"levelo_inurba_marseille","lat":43.30308,"lon":5.39197,"is_reserved":false,"is_disabled":true,"rental_uris":{"android":"levelo://app?vid=f4c56ef6-7291-463e-be49-229f2ca4445a","ios":"levelo://app?vid=f4c56ef6-7291-463e-be49-229f2ca4445a"},"vehicle_type_id":"4","last_reported":1734614374,"current_range_meters":400,"station_id":"ce4bgkh2rcd13ifvqbk0","pricing_plan_id":"cebpf4jnsgd1na2vs0mg"},{"bike_id":"cd660b6c-beaf-4ea1-9b6e-8bbb06141b17","system_id":"levelo_inurba_marseille","lat":43.313422,"lon":5.367098,"is_reserved":false,"is_disabled":true,"rental_uris":{"android":"levelo://app?vid=cd660b6c-beaf-4ea1-9b6e-8bbb06141b17","ios":"levelo://app?vid=cd660b6c-beaf-4ea1-9b6e-8bbb06141b17"},"vehicle_type_id":"4","last_reported":1734614374,"current_range_meters":2800,"station_id":"ce4bgr92rcd13ifvqc6g","pricing_plan_id":"cebpf4jnsgd1na2vs0mg"},{"bike_id":"40c01fe8-258e-4549-bf2f-8f77c0aa9088","system_id":"levelo_inurba_marseille","lat":43.27553,"lon":5.38439,"is_reserved":false,"is_disabled":false,"rental_uris":{"android":"levelo://app?vid=40c01fe8-258e-4549-bf2f-8f77c0aa9088","ios":"levelo://app?vid=40c01fe8-258e-4549-bf2f-8f77c0aa9088"},"vehicle_type_id":"4","last_reported":1734614374,"current_range_meters":34000,"station_id":"ce4bhh92rcd13ifvqfi0","pricing_plan_id":"cebpf4jnsgd1na2vs0mg"},{"bike_id":"0b973181-d92e-4199-b5e4-f787e24045ff","system_id":"levelo_inurba_marseille","lat":43.31085,"lon":5.4243,"is_reserved":false,"is_disabled":false,"rental_uris":{"android":"levelo://app?vid=0b973181-d92e-4199-b5e4-f787e24045ff","ios":"levelo://app?vid=0b973181-d92e-4199-b5e4-f787e24045ff"},"vehicle_type_id":"4","last_reported":1734614374,"current_range_meters":38000,"station_id":"ce4bhp92rcd13ifvqhag","pricing_plan_id":"cebpf4jnsgd1na2vs0mg"},{"bike_id":"bb337245-7c41-4671-900b-a4d92ae562c6","system_id":"levelo_inurba_marseille","lat":43.29535,"lon":5.39034,"is_reserved":false,"is_disabled":true,"rental_uris":{"android":"levelo://app?vid=bb337245-7c41-4671-900b-a4d92ae562c6","ios":"levelo://app?vid=bb337245-7c41-4671-900b-a4d92ae562c6"},"vehicle_type_id":"4","last_reported":1734614374,"current_range_meters":0,"station_id":"ce4bh3p2rcd13ifvqdp0","pricing_plan_id":"cebpf4jnsgd1na2vs0mg"},{"bike_id":"9b7dfab7-97dc-446a-afb6-fe96b2c27bc9","system_id":"levelo_inurba_marseille","lat":43.29532,"lon":5.38539,"is_reserved":false,"is_disabled":false,"rental_uris":{"android":"levelo://app?vid=9b7dfab7-97dc-446a-afb6-fe96b2c27bc9","ios":"levelo://app?vid=9b7dfab7-97dc-446a-afb6-fe96b2c27bc9"},"vehicle_type_id":"4","last_reported":1734614374,"current_range_meters":2800,"station_id":"ce4bgih2rcd13ifvqba0","pricing_plan_id":"cebpf4jnsgd1na2vs0mg"},{"bike_id":"17317f2c-c2e9-4c2f-a167-5ed25c17ca64","system_id":"levelo_inurba_marseille","lat":43.29357,"lon":5.37862,"is_reserved":false,"is_disabled":false,"rental_uris":{"android":"levelo://app?vid=17317f2c-c2e9-4c2f-a167-5ed25c17ca64","ios":"levelo://app?vid=17317f2c-c2e9-4c2f-a167-5ed25c17ca64"},"vehicle_type_id":"4","last_reported":1734614374,"current_range_meters":37600,"station_id":"ce4bgjh2rcd13ifvqbf0","pricing_plan_id":"cebpf4jnsgd1na2vs0mg"},{"bike_id":"4a3adadd-0dd4-4960-ac68-e41574cc9da6","system_id":"levelo_inurba_marseille","lat":43.30548,"lon":5.36534,"is_reserved":false,"is_disabled":false,"rental_uris":{"android":"levelo://app?vid=4a3adadd-0dd4-4960-ac68-e41574cc9da6","ios":"levelo://app?vid=4a3adadd-0dd4-4960-ac68-e41574cc9da6"},"vehicle_type_id":"4","last_reported":1734614374,"current_range_meters":25200,"station_id":"ce4bgs12rcd13ifvqcag","pricing_plan_id":"cebpf4jnsgd1na2vs0mg"},{"bike_id":"30cf218e-0565-4b4d-b831-6b6e7547fc40","system_id":"levelo_inurba_marseille","lat":43.26804,"lon":5.40276,"is_reserved":false,"is_disabled":true,"rental_uris":{"android":"levelo://app?vid=30cf218e-0565-4b4d-b831-6b6e7547fc40","ios":"levelo://app?vid=30cf218e-0565-4b4d-b831-6b6e7547fc40"},"vehicle_type_id":"4","last_reported":1734614374,"current_range_meters":1600,"station_id":"ce501612rcd8frsf0b60","pricing_plan_id":"cebpf4jnsgd1na2vs0mg"},{"bike_id":"1d6615fc-a572-4fc0-999b-b46e373450d8","system_id":"levelo_inurba_marseille","lat":43.26935,"lon":5.4026,"is_reserved":false,"is_disabled":false,"rental_uris":{"android":"levelo://app?vid=1d6615fc-a572-4fc0-999b-b46e373450d8","ios":"levelo://app?vid=1d6615fc-a572-4fc0-999b-b46e373450d8"},"vehicle_type_id":"4","last_reported":1734614374,"current_range_meters":38800,"station_id":"cjm6bp8fraef2m0cb0m0","pricing_plan_id":"cebpf4jnsgd1na2vs0mg"},{"bike_id":"fcfca01c-afe6-47d0-97b1-24cd38cf13c3","system_id":"levelo_inurba_marseille","lat":43.254955,"lon":5.376488,"is_reserved":false,"is_disabled":false,"rental_uris":{"android":"levelo://app?vid=fcfca01c-afe6-47d0-97b1-24cd38cf13c3","ios":"levelo://app?vid=fcfca01c-afe6-47d0-97b1-24cd38cf13c3"},"vehicle_type_id":"4","last_reported":1734614374,"current_range_meters":37600,"station_id":"ce4bhh12rcd13ifvqff0","pricing_plan_id":"cebpf4jnsgd1na2vs0mg"},{"bike_id":"566d2fc9-5399-4398-a4c0-8e3a8af2d6ce","system_id":"levelo_inurba_marseille","lat":43.27501,"lon":5.42447,"is_reserved":false,"is_disabled":false,"rental_uris":{"android":"levelo://app?vid=566d2fc9-5399-4398-a4c0-8e3a8af2d6ce","ios":"levelo://app?vid=566d2fc9-5399-4398-a4c0-8e3a8af2d6ce"},"vehicle_type_id":"4","last_reported":1734614374,"current_range_meters":3600,"station_id":"ce4bhn92rcd13ifvqgrg","pricing_plan_id":"cebpf4jnsgd1na2vs0mg"},{"bike_id":"544eaaef-8e7b-4a7a-aa8b-36b3c8e32e15","system_id":"levelo_inurba_marseille","lat":43.29057,"lon":5.37128,"is_reserved":false,"is_disabled":true,"rental_uris":{"android":"levelo://app?vid=544eaaef-8e7b-4a7a-aa8b-36b3c8e32e15","ios":"levelo://app?vid=544eaaef-8e7b-4a7a-aa8b-36b3c8e32e15"},"vehicle_type_id":"4","last_reported":1734614374,"current_range_meters":38800,"station_id":"ce4bh5p2rcd13ifvqe4g","pricing_plan_id":"cebpf4jnsgd1na2vs0mg"},{"bike_id":"b292cae7-4940-4adf-a1f9-633edb1fbb8a","system_id":"levelo_inurba_marseille","lat":43.28708,"lon":5.39991,"is_reserved":false,"is_disabled":false,"rental_uris":{"android":"levelo://app?vid=b292cae7-4940-4adf-a1f9-633edb1fbb8a","ios":"levelo://app?vid=b292cae7-4940-4adf-a1f9-633edb1fbb8a"},"vehicle_type_id":"4","last_reported":1734614374,"current_range_meters":38000,"station_id":"ce4bho92rcd13ifvqh3g","pricing_plan_id":"cebpf4jnsgd1na2vs0mg"},{"bike_id":"ee541765-428a-4bb1-bc90-f1a524fdccf5","system_id":"levelo_inurba_marseille","lat":43.31721,"lon":5.43713,"is_reserved":false,"is_disabled":false,"rental_uris":{"android":"levelo://app?vid=ee541765-428a-4bb1-bc90-f1a524fdccf5","ios":"levelo://app?vid=ee541765-428a-4bb1-bc90-f1a524fdccf5"},"vehicle_type_id":"4","last_reported":1734614374,"current_range_meters":39200,"station_id":"ce4bhp92rcd13ifvqhcg","pricing_plan_id":"cebpf4jnsgd1na2vs0mg"},{"bike_id":"17b2d2b0-9855-46b4-a478-0bd9c7277056","system_id":"levelo_inurba_marseille","lat":43.30906,"lon":5.3784,"is_reserved":false,"is_disabled":true,"rental_uris":{"android":"levelo://app?vid=17b2d2b0-9855-46b4-a478-0bd9c7277056","ios":"levelo://app?vid=17b2d2b0-9855-46b4-a478-0bd9c7277056"},"vehicle_type_id":"4","last_reported":1734614374,"current_range_meters":0,"station_id":"","pricing_plan_id":"cebpf4jnsgd1na2vs0mg"},{"bike_id":"7448830e-8418-4753-ac56-c801b75e9294","system_id":"levelo_inurba_marseille","lat":43.29653,"lon":5.37757,"is_reserved":false,"is_disabled":false,"rental_uris":{"android":"levelo://app?vid=7448830e-8418-4753-ac56-c801b75e9294","ios":"levelo://app?vid=7448830e-8418-4753-ac56-c801b75e9294"},"vehicle_type_id":"4","last_reported":1734614374,"current_range_meters":38800,"station_id":"ce4bgi92rcd13ifvqb90","pricing_plan_id":"cebpf4jnsgd1na2vs0mg"},{"bike_id":"e1614097-2c37-4a2b-8bf7-29e2124f27de","system_id":"levelo_inurba_marseille","lat":43.29251,"lon":5.40902,"is_reserved":false,"is_disabled":false,"rental_uris":{"android":"levelo://app?vid=e1614097-2c37-4a2b-8bf7-29e2124f27de","ios":"levelo://app?vid=e1614097-2c37-4a2b-8bf7-29e2124f27de"},"vehicle_type_id":"4","last_reported":1734614374,"current_range_meters":38400,"station_id":"ce4bh192rcd13ifvqdc0","pricing_plan_id":"cebpf4jnsgd1na2vs0mg"},{"bike_id":"7bffcd7b-607f-4005-9803-c0e4872f8dc8","system_id":"levelo_inurba_marseille","lat":43.28422,"lon":5.34981,"is_reserved":false,"is_disabled":false,"rental_uris":{"android":"levelo://app?vid=7bffcd7b-607f-4005-9803-c0e4872f8dc8","ios":"levelo://app?vid=7bffcd7b-607f-4005-9803-c0e4872f8dc8"},"vehicle_type_id":"4","last_reported":1734614374,"current_range_meters":8000,"station_id":"ce4bhbh2rcd13ifvqepg","pricing_plan_id":"cebpf4jnsgd1na2vs0mg"},{"bike_id":"67e28fa1-5c05-45ba-804f-23ff1db322b7","system_id":"levelo_inurba_marseille","lat":43.29619,"lon":5.37727,"is_reserved":false,"is_disabled":false,"rental_uris":{"android":"levelo://app?vid=67e28fa1-5c05-45ba-804f-23ff1db322b7","ios":"levelo://app?vid=67e28fa1-5c05-45ba-804f-23ff1db322b7"},"vehicle_type_id":"4","last_reported":1734614374,"current_range_meters":33200,"station_id":"ce4bgi92rcd13ifvqb90","pricing_plan_id":"cebpf4jnsgd1na2vs0mg"},{"bike_id":"9f97f512-1b19-443a-b67f-86de027e5577","system_id":"levelo_inurba_marseille","lat":43.34549,"lon":5.37605,"is_reserved":false,"is_disabled":true,"rental_uris":{"android":"levelo://app?vid=9f97f512-1b19-443a-b67f-86de027e5577","ios":"levelo://app?vid=9f97f512-1b19-443a-b67f-86de027e5577"},"vehicle_type_id":"4","last_reported":1734614374,"current_range_meters":22400,"station_id":"","pricing_plan_id":"cebpf4jnsgd1na2vs0mg"},{"bike_id":"da4cc445-7208-423d-bbea-6eed42d18866","system_id":"levelo_inurba_marseille","lat":43.2936,"lon":5.37858,"is_reserved":false,"is_disabled":false,"rental_uris":{"android":"levelo://app?vid=da4cc445-7208-423d-bbea-6eed42d18866","ios":"levelo://app?vid=da4cc445-7208-423d-bbea-6eed42d18866"},"vehicle_type_id":"4","last_reported":1734614374,"current_range_meters":38800,"station_id":"ce4bgjh2rcd13ifvqbf0","pricing_plan_id":"cebpf4jnsgd1na2vs0mg"},{"bike_id":"5c1b4a9a-cd9c-4e9e-a30b-20868002edd4","system_id":"levelo_inurba_marseille","lat":43.27915,"lon":5.39576,"is_reserved":false,"is_disabled":false,"rental_uris":{"android":"levelo://app?vid=5c1b4a9a-cd9c-4e9e-a30b-20868002edd4","ios":"levelo://app?vid=5c1b4a9a-cd9c-4e9e-a30b-20868002edd4"},"vehicle_type_id":"4","last_reported":1734614374,"current_range_meters":38800,"station_id":"ce4bhf92rcd13ifvqf40","pricing_plan_id":"cebpf4jnsgd1na2vs0mg"},{"bike_id":"4558ff59-b4df-4c14-854f-ce9c5ec0e7e3","system_id":"levelo_inurba_marseille","lat":43.29094,"lon":5.38116,"is_reserved":false,"is_disabled":false,"rental_uris":{"android":"levelo://app?vid=4558ff59-b4df-4c14-854f-ce9c5ec0e7e3","ios":"levelo://app?vid=4558ff59-b4df-4c14-854f-ce9c5ec0e7e3"},"vehicle_type_id":"4","last_reported":1734614374,"current_range_meters":32800,"station_id":"ce4bh512rcd13ifvqe2g","pricing_plan_id":"cebpf4jnsgd1na2vs0mg"},{"bike_id":"3c63cc04-3283-4c6f-985e-8ea9ab39ad66","system_id":"levelo_inurba_marseille","lat":43.3091,"lon":5.36851,"is_reserved":false,"is_disabled":false,"rental_uris":{"android":"levelo://app?vid=3c63cc04-3283-4c6f-985e-8ea9ab39ad66","ios":"levelo://app?vid=3c63cc04-3283-4c6f-985e-8ea9ab39ad66"},"vehicle_type_id":"4","last_reported":1734614374,"current_range_meters":20400,"station_id":"ce4bgn92rcd13ifvqbvg","pricing_plan_id":"cebpf4jnsgd1na2vs0mg"},{"bike_id":"abb4c8bc-518a-46b0-901c-ecf8d892a6ae","system_id":"levelo_inurba_marseille","lat":43.29547,"lon":5.37486,"is_reserved":false,"is_disabled":false,"rental_uris":{"android":"levelo://app?vid=abb4c8bc-518a-46b0-901c-ecf8d892a6ae","ios":"levelo://app?vid=abb4c8bc-518a-46b0-901c-ecf8d892a6ae"},"vehicle_type_id":"4","last_reported":1734614374,"current_range_meters":38800,"station_id":"ce4bgkp2rcd13ifvqbmg","pricing_plan_id":"cebpf4jnsgd1na2vs0mg"},{"bike_id":"d2b3815c-9e72-4cf6-ad7d-db0bff407f5c","system_id":"levelo_inurba_marseille","lat":43.28156,"lon":5.42645,"is_reserved":false,"is_disabled":false,"rental_uris":{"android":"levelo://app?vid=d2b3815c-9e72-4cf6-ad7d-db0bff407f5c","ios":"levelo://app?vid=d2b3815c-9e72-4cf6-ad7d-db0bff407f5c"},"vehicle_type_id":"4","last_reported":1734614374,"current_range_meters":19200,"station_id":"ce4bhnh2rcd13ifvqgug","pricing_plan_id":"cebpf4jnsgd1na2vs0mg"},{"bike_id":"43eb1024-3b5b-4817-baab-0a1232de5541","system_id":"levelo_inurba_marseille","lat":43.30534,"lon":5.36531,"is_reserved":false,"is_disabled":false,"rental_uris":{"android":"levelo://app?vid=43eb1024-3b5b-4817-baab-0a1232de5541","ios":"levelo://app?vid=43eb1024-3b5b-4817-baab-0a1232de5541"},"vehicle_type_id":"4","last_reported":1734614374,"current_range_meters":18000,"station_id":"ce4bgs12rcd13ifvqcag","pricing_plan_id":"cebpf4jnsgd1na2vs0mg"},{"bike_id":"37c87e4d-8d3a-425b-965b-b8737ad0c328","system_id":"levelo_inurba_marseille","lat":43.29609,"lon":5.37705,"is_reserved":false,"is_disabled":false,"rental_uris":{"android":"levelo://app?vid=37c87e4d-8d3a-425b-965b-b8737ad0c328","ios":"levelo://app?vid=37c87e4d-8d3a-425b-965b-b8737ad0c328"},"vehicle_type_id":"4","last_reported":1734614374,"current_range_meters":2800,"station_id":"ce4bgi92rcd13ifvqb90","pricing_plan_id":"cebpf4jnsgd1na2vs0mg"},{"bike_id":"e66ecf25-0462-4a43-8f8a-e78e4b1c301e","system_id":"levelo_inurba_marseille","lat":43.30178,"lon":5.36622,"is_reserved":false,"is_disabled":false,"rental_uris":{"android":"levelo://app?vid=e66ecf25-0462-4a43-8f8a-e78e4b1c301e","ios":"levelo://app?vid=e66ecf25-0462-4a43-8f8a-e78e4b1c301e"},"vehicle_type_id":"4","last_reported":1734614374,"current_range_meters":34800,"station_id":"ce4bgrh2rcd13ifvqc8g","pricing_plan_id":"cebpf4jnsgd1na2vs0mg"},{"bike_id":"6d90c9d4-0b5c-43bf-b682-e7561e654b2c","system_id":"levelo_inurba_marseille","lat":43.29517,"lon":5.39398,"is_reserved":false,"is_disabled":true,"rental_uris":{"android":"levelo://app?vid=6d90c9d4-0b5c-43bf-b682-e7561e654b2c","ios":"levelo://app?vid=6d90c9d4-0b5c-43bf-b682-e7561e654b2c"},"vehicle_type_id":"4","last_reported":1734614374,"current_range_meters":1200,"station_id":"ce4bh292rcd13ifvqdf0","pricing_plan_id":"cebpf4jnsgd1na2vs0mg"},{"bike_id":"6d3e5e6d-fa66-477c-89c4-2654f0e03919","system_id":"levelo_inurba_marseille","lat":43.33605,"lon":5.41031,"is_reserved":false,"is_disabled":false,"rental_uris":{"android":"levelo://app?vid=6d3e5e6d-fa66-477c-89c4-2654f0e03919","ios":"levelo://app?vid=6d3e5e6d-fa66-477c-89c4-2654f0e03919"},"vehicle_type_id":"4","last_reported":1734614374,"current_range_meters":31200,"station_id":"ce4bhqh2rcd13ifvqhmg","pricing_plan_id":"cebpf4jnsgd1na2vs0mg"},{"bike_id":"27589c7b-1ff7-44e4-83f1-d7a65e77b5c9","system_id":"levelo_inurba_marseille","lat":43.32114,"lon":5.36771,"is_reserved":false,"is_disabled":false,"rental_uris":{"android":"levelo://app?vid=27589c7b-1ff7-44e4-83f1-d7a65e77b5c9","ios":"levelo://app?vid=27589c7b-1ff7-44e4-83f1-d7a65e77b5c9"},"vehicle_type_id":"4","last_reported":1734614374,"current_range_meters":28800,"station_id":"ce4bhrh2rcd13ifvqhug","pricing_plan_id":"cebpf4jnsgd1na2vs0mg"},{"bike_id":"daa0937a-ca4a-44f4-a6ea-7661bcb46844","system_id":"levelo_inurba_marseille","lat":43.29368,"lon":5.37848,"is_reserved":false,"is_disabled":false,"rental_uris":{"android":"levelo://app?vid=daa0937a-ca4a-44f4-a6ea-7661bcb46844","ios":"levelo://app?vid=daa0937a-ca4a-44f4-a6ea-7661bcb46844"},"vehicle_type_id":"4","last_reported":1734614374,"current_range_meters":7200,"station_id":"ce4bgjh2rcd13ifvqbf0","pricing_plan_id":"cebpf4jnsgd1na2vs0mg"},{"bike_id":"016009ff-c5b8-4760-85e7-d9cd55f8086c","system_id":"levelo_inurba_marseille","lat":43.28407,"lon":5.34984,"is_reserved":false,"is_disabled":false,"rental_uris":{"android":"levelo://app?vid=016009ff-c5b8-4760-85e7-d9cd55f8086c","ios":"levelo://app?vid=016009ff-c5b8-4760-85e7-d9cd55f8086c"},"vehicle_type_id":"4","last_reported":1734614374,"current_range_meters":28000,"station_id":"ce4bhbh2rcd13ifvqepg","pricing_plan_id":"cebpf4jnsgd1na2vs0mg"},{"bike_id":"2a12bde8-ca1e-4ca8-8cbb-8dbf9a638106","system_id":"levelo_inurba_marseille","lat":43.2319,"lon":5.35565,"is_reserved":false,"is_disabled":false,"rental_uris":{"android":"levelo://app?vid=2a12bde8-ca1e-4ca8-8cbb-8dbf9a638106","ios":"levelo://app?vid=2a12bde8-ca1e-4ca8-8cbb-8dbf9a638106"},"vehicle_type_id":"4","last_reported":1734614374,"current_range_meters":29600,"station_id":"ce4bhu92rcd13ifvqi70","pricing_plan_id":"cebpf4jnsgd1na2vs0mg"},{"bike_id":"e8213348-b35b-48e5-99ff-d8c9a6f92405","system_id":"levelo_inurba_marseille","lat":43.30114,"lon":5.3908,"is_reserved":false,"is_disabled":false,"rental_uris":{"android":"levelo://app?vid=e8213348-b35b-48e5-99ff-d8c9a6f92405","ios":"levelo://app?vid=e8213348-b35b-48e5-99ff-d8c9a6f92405"},"vehicle_type_id":"4","last_reported":1734614374,"current_range_meters":10000,"station_id":"ce4bh192rcd13ifvqdb0","pricing_plan_id":"cebpf4jnsgd1na2vs0mg"},{"bike_id":"35dc4fde-3306-446c-9b26-082eb797139e","system_id":"levelo_inurba_marseille","lat":43.29059,"lon":5.40002,"is_reserved":false,"is_disabled":false,"rental_uris":{"android":"levelo://app?vid=35dc4fde-3306-446c-9b26-082eb797139e","ios":"levelo://app?vid=35dc4fde-3306-446c-9b26-082eb797139e"},"vehicle_type_id":"4","last_reported":1734614374,"current_range_meters":35600,"station_id":"ce4bh392rcd13ifvqdm0","pricing_plan_id":"cebpf4jnsgd1na2vs0mg"},{"bike_id":"72b0eb04-0bef-4c06-92ca-464df8ef6ab3","system_id":"levelo_inurba_marseille","lat":43.29965,"lon":5.37199,"is_reserved":false,"is_disabled":false,"rental_uris":{"android":"levelo://app?vid=72b0eb04-0bef-4c06-92ca-464df8ef6ab3","ios":"levelo://app?vid=72b0eb04-0bef-4c06-92ca-464df8ef6ab3"},"vehicle_type_id":"4","last_reported":1734614374,"current_range_meters":38800,"station_id":"ce4bgr92rcd13ifvqc7g","pricing_plan_id":"cebpf4jnsgd1na2vs0mg"},{"bike_id":"fdeb4ccc-d850-402e-84ed-8ebecff29977","system_id":"levelo_inurba_marseille","lat":43.297129,"lon":5.376993,"is_reserved":false,"is_disabled":false,"rental_uris":{"android":"levelo://app?vid=fdeb4ccc-d850-402e-84ed-8ebecff29977","ios":"levelo://app?vid=fdeb4ccc-d850-402e-84ed-8ebecff29977"},"vehicle_type_id":"4","last_reported":1734614374,"current_range_meters":33200,"station_id":"ce4bgkh2rcd13ifvqbl0","pricing_plan_id":"cebpf4jnsgd1na2vs0mg"},{"bike_id":"35a59f53-aa82-4d61-a3ff-6194d35ba5f7","system_id":"levelo_inurba_marseille","lat":43.27497,"lon":5.42448,"is_reserved":false,"is_disabled":false,"rental_uris":{"android":"levelo://app?vid=35a59f53-aa82-4d61-a3ff-6194d35ba5f7","ios":"levelo://app?vid=35a59f53-aa82-4d61-a3ff-6194d35ba5f7"},"vehicle_type_id":"4","last_reported":1734614374,"current_range_meters":14400,"station_id":"ce4bhn92rcd13ifvqgrg","pricing_plan_id":"cebpf4jnsgd1na2vs0mg"},{"bike_id":"b002d028-e42c-46e2-93ce-a18a7a90546e","system_id":"levelo_inurba_marseille","lat":43.32294,"lon":5.38277,"is_reserved":false,"is_disabled":false,"rental_uris":{"android":"levelo://app?vid=b002d028-e42c-46e2-93ce-a18a7a90546e","ios":"levelo://app?vid=b002d028-e42c-46e2-93ce-a18a7a90546e"},"vehicle_type_id":"4","last_reported":1734614374,"current_range_meters":17600,"station_id":"ce4bhr12rcd13ifvqhqg","pricing_plan_id":"cebpf4jnsgd1na2vs0mg"},{"bike_id":"1a3eed32-e3de-4733-97a1-b9b7fb261a6e","system_id":"levelo_inurba_marseille","lat":43.27495,"lon":5.42457,"is_reserved":false,"is_disabled":false,"rental_uris":{"android":"levelo://app?vid=1a3eed32-e3de-4733-97a1-b9b7fb261a6e","ios":"levelo://app?vid=1a3eed32-e3de-4733-97a1-b9b7fb261a6e"},"vehicle_type_id":"4","last_reported":1734614374,"current_range_meters":38800,"station_id":"ce4bhn92rcd13ifvqgrg","pricing_plan_id":"cebpf4jnsgd1na2vs0mg"},{"bike_id":"a622b19c-a00d-4ba1-ab8f-b1ddfc20d476","system_id":"levelo_inurba_marseille","lat":43.26569,"lon":5.39028,"is_reserved":false,"is_disabled":false,"rental_uris":{"android":"levelo://app?vid=a622b19c-a00d-4ba1-ab8f-b1ddfc20d476","ios":"levelo://app?vid=a622b19c-a00d-4ba1-ab8f-b1ddfc20d476"},"vehicle_type_id":"4","last_reported":1734614374,"current_range_meters":38000,"station_id":"ce4bhe12rcd13ifvqf30","pricing_plan_id":"cebpf4jnsgd1na2vs0mg"},{"bike_id":"b44f9236-c33f-43b3-ab7e-0f32e9951c9e","system_id":"levelo_inurba_marseille","lat":43.23194,"lon":5.35554,"is_reserved":false,"is_disabled":false,"rental_uris":{"android":"levelo://app?vid=b44f9236-c33f-43b3-ab7e-0f32e9951c9e","ios":"levelo://app?vid=b44f9236-c33f-43b3-ab7e-0f32e9951c9e"},"vehicle_type_id":"4","last_reported":1734614374,"current_range_meters":10800,"station_id":"ce4bhu92rcd13ifvqi70","pricing_plan_id":"cebpf4jnsgd1na2vs0mg"},{"bike_id":"4620dcd9-c3a6-4871-8162-c4a28f6d33ca","system_id":"levelo_inurba_marseille","lat":43.318856,"lon":5.407343,"is_reserved":false,"is_disabled":true,"rental_uris":{"android":"levelo://app?vid=4620dcd9-c3a6-4871-8162-c4a28f6d33ca","ios":"levelo://app?vid=4620dcd9-c3a6-4871-8162-c4a28f6d33ca"},"vehicle_type_id":"4","last_reported":1734614374,"current_range_meters":9600,"station_id":"ce4bhq12rcd13ifvqhig","pricing_plan_id":"cebpf4jnsgd1na2vs0mg"},{"bike_id":"5b473b5f-ef03-45ec-8aac-7073658ceb4c","system_id":"levelo_inurba_marseille","lat":43.30596,"lon":5.39357,"is_reserved":false,"is_disabled":false,"rental_uris":{"android":"levelo://app?vid=5b473b5f-ef03-45ec-8aac-7073658ceb4c","ios":"levelo://app?vid=5b473b5f-ef03-45ec-8aac-7073658ceb4c"},"vehicle_type_id":"4","last_reported":1734614374,"current_range_meters":38400,"station_id":"ce4bh0p2rcd13ifvqd80","pricing_plan_id":"cebpf4jnsgd1na2vs0mg"},{"bike_id":"d7d366c8-b1f7-4a48-a9ee-65f50173d118","system_id":"levelo_inurba_marseille","lat":43.30549,"lon":5.36548,"is_reserved":false,"is_disabled":false,"rental_uris":{"android":"levelo://app?vid=d7d366c8-b1f7-4a48-a9ee-65f50173d118","ios":"levelo://app?vid=d7d366c8-b1f7-4a48-a9ee-65f50173d118"},"vehicle_type_id":"4","last_reported":1734614374,"current_range_meters":25600,"station_id":"ce4bgs12rcd13ifvqcag","pricing_plan_id":"cebpf4jnsgd1na2vs0mg"},{"bike_id":"38189c1a-1fea-4cb8-b62f-f8393fe110e8","system_id":"levelo_inurba_marseille","lat":43.30959,"lon":5.39031,"is_reserved":false,"is_disabled":false,"rental_uris":{"android":"levelo://app?vid=38189c1a-1fea-4cb8-b62f-f8393fe110e8","ios":"levelo://app?vid=38189c1a-1fea-4cb8-b62f-f8393fe110e8"},"vehicle_type_id":"4","last_reported":1734614374,"current_range_meters":17200,"station_id":"ce4bgup2rcd13ifvqco0","pricing_plan_id":"cebpf4jnsgd1na2vs0mg"},{"bike_id":"2edc8e2f-2556-4351-aeaf-7299a60616d6","system_id":"levelo_inurba_marseille","lat":43.24667,"lon":5.3817,"is_reserved":false,"is_disabled":false,"rental_uris":{"android":"levelo://app?vid=2edc8e2f-2556-4351-aeaf-7299a60616d6","ios":"levelo://app?vid=2edc8e2f-2556-4351-aeaf-7299a60616d6"},"vehicle_type_id":"4","last_reported":1734614374,"current_range_meters":36800,"station_id":"ce4bhih2rcd13ifvqfr0","pricing_plan_id":"cebpf4jnsgd1na2vs0mg"},{"bike_id":"beea06dd-930f-4a71-b020-a2265bba9670","system_id":"levelo_inurba_marseille","lat":43.32478,"lon":5.36561,"is_reserved":false,"is_disabled":false,"rental_uris":{"android":"levelo://app?vid=beea06dd-930f-4a71-b020-a2265bba9670","ios":"levelo://app?vid=beea06dd-930f-4a71-b020-a2265bba9670"},"vehicle_type_id":"4","last_reported":1734614374,"current_range_meters":33200,"station_id":"ce4bhs12rcd13ifvqhvg","pricing_plan_id":"cebpf4jnsgd1na2vs0mg"},{"bike_id":"699be605-c3f4-4276-babe-4ba137c46c01","system_id":"levelo_inurba_marseille","lat":43.26683,"lon":5.38272,"is_reserved":false,"is_disabled":false,"rental_uris":{"android":"levelo://app?vid=699be605-c3f4-4276-babe-4ba137c46c01","ios":"levelo://app?vid=699be605-c3f4-4276-babe-4ba137c46c01"},"vehicle_type_id":"4","last_reported":1734614374,"current_range_meters":24800,"station_id":"ce4bhg92rcd13ifvqf90","pricing_plan_id":"cebpf4jnsgd1na2vs0mg"},{"bike_id":"af958579-cc4d-44df-853f-d995a1a776b5","system_id":"levelo_inurba_marseille","lat":43.29847,"lon":5.36282,"is_reserved":false,"is_disabled":false,"rental_uris":{"android":"levelo://app?vid=af958579-cc4d-44df-853f-d995a1a776b5","ios":"levelo://app?vid=af958579-cc4d-44df-853f-d995a1a776b5"},"vehicle_type_id":"4","last_reported":1734614374,"current_range_meters":25200,"station_id":"ce4bgpp2rcd13ifvqc3g","pricing_plan_id":"cebpf4jnsgd1na2vs0mg"},{"bike_id":"5d229ec1-843c-42dd-b2d5-c6bbdc4852c3","system_id":"levelo_inurba_marseille","lat":43.33604,"lon":5.41021,"is_reserved":false,"is_disabled":true,"rental_uris":{"android":"levelo://app?vid=5d229ec1-843c-42dd-b2d5-c6bbdc4852c3","ios":"levelo://app?vid=5d229ec1-843c-42dd-b2d5-c6bbdc4852c3"},"vehicle_type_id":"4","last_reported":1734614374,"current_range_meters":24800,"station_id":"ce4bhqh2rcd13ifvqhmg","pricing_plan_id":"cebpf4jnsgd1na2vs0mg"},{"bike_id":"b9641efc-6ed6-40ed-b5e9-920aef58b032","system_id":"levelo_inurba_marseille","lat":43.31685,"lon":5.40473,"is_reserved":false,"is_disabled":false,"rental_uris":{"android":"levelo://app?vid=b9641efc-6ed6-40ed-b5e9-920aef58b032","ios":"levelo://app?vid=b9641efc-6ed6-40ed-b5e9-920aef58b032"},"vehicle_type_id":"4","last_reported":1734614374,"current_range_meters":33200,"station_id":"ce4bh012rcd13ifvqd00","pricing_plan_id":"cebpf4jnsgd1na2vs0mg"},{"bike_id":"4546479c-96ba-4b7b-93be-17310f9dbf66","system_id":"levelo_inurba_marseille","lat":43.30913,"lon":5.36845,"is_reserved":false,"is_disabled":false,"rental_uris":{"android":"levelo://app?vid=4546479c-96ba-4b7b-93be-17310f9dbf66","ios":"levelo://app?vid=4546479c-96ba-4b7b-93be-17310f9dbf66"},"vehicle_type_id":"4","last_reported":1734614374,"current_range_meters":38000,"station_id":"ce4bgn92rcd13ifvqbvg","pricing_plan_id":"cebpf4jnsgd1na2vs0mg"},{"bike_id":"13dcd06c-9af0-4e97-93dd-f7110d153cc1","system_id":"levelo_inurba_marseille","lat":43.29848,"lon":5.36285,"is_reserved":false,"is_disabled":false,"rental_uris":{"android":"levelo://app?vid=13dcd06c-9af0-4e97-93dd-f7110d153cc1","ios":"levelo://app?vid=13dcd06c-9af0-4e97-93dd-f7110d153cc1"},"vehicle_type_id":"4","last_reported":1734614374,"current_range_meters":23200,"station_id":"ce4bgpp2rcd13ifvqc3g","pricing_plan_id":"cebpf4jnsgd1na2vs0mg"},{"bike_id":"9294b7c4-f950-43f8-8e30-fdbb56a51003","system_id":"levelo_inurba_marseille","lat":43.3148,"lon":5.36891,"is_reserved":false,"is_disabled":false,"rental_uris":{"android":"levelo://app?vid=9294b7c4-f950-43f8-8e30-fdbb56a51003","ios":"levelo://app?vid=9294b7c4-f950-43f8-8e30-fdbb56a51003"},"vehicle_type_id":"4","last_reported":1734614374,"current_range_meters":6400,"station_id":"","pricing_plan_id":"cebpf4jnsgd1na2vs0mg"},{"bike_id":"3725838a-d4e9-4239-aca6-1dd61050da18","system_id":"levelo_inurba_marseille","lat":43.29905,"lon":5.37461,"is_reserved":false,"is_disabled":false,"rental_uris":{"android":"levelo://app?vid=3725838a-d4e9-4239-aca6-1dd61050da18","ios":"levelo://app?vid=3725838a-d4e9-4239-aca6-1dd61050da18"},"vehicle_type_id":"4","last_reported":1734614374,"current_range_meters":38800,"station_id":"ce4bgjh2rcd13ifvqbg0","pricing_plan_id":"cebpf4jnsgd1na2vs0mg"},{"bike_id":"a22ff1e1-2709-4d5d-bdce-1d2284ead1d1","system_id":"levelo_inurba_marseille","lat":43.29703,"lon":5.377,"is_reserved":false,"is_disabled":false,"rental_uris":{"android":"levelo://app?vid=a22ff1e1-2709-4d5d-bdce-1d2284ead1d1","ios":"levelo://app?vid=a22ff1e1-2709-4d5d-bdce-1d2284ead1d1"},"vehicle_type_id":"4","last_reported":1734614374,"current_range_meters":33600,"station_id":"ce4bgkh2rcd13ifvqbl0","pricing_plan_id":"cebpf4jnsgd1na2vs0mg"},{"bike_id":"e7945f11-0a30-43c2-b17f-34a6bcbb2a44","system_id":"levelo_inurba_marseille","lat":43.30447,"lon":5.39721,"is_reserved":false,"is_disabled":false,"rental_uris":{"android":"levelo://app?vid=e7945f11-0a30-43c2-b17f-34a6bcbb2a44","ios":"levelo://app?vid=e7945f11-0a30-43c2-b17f-34a6bcbb2a44"},"vehicle_type_id":"4","last_reported":1734614374,"current_range_meters":33200,"station_id":"ce4bh092rcd13ifvqd20","pricing_plan_id":"cebpf4jnsgd1na2vs0mg"},{"bike_id":"c8ec3b95-c936-435c-9639-8ad8661d62f0","system_id":"levelo_inurba_marseille","lat":43.3041,"lon":5.39755,"is_reserved":false,"is_disabled":false,"rental_uris":{"android":"levelo://app?vid=c8ec3b95-c936-435c-9639-8ad8661d62f0","ios":"levelo://app?vid=c8ec3b95-c936-435c-9639-8ad8661d62f0"},"vehicle_type_id":"4","last_reported":1734614374,"current_range_meters":38800,"station_id":"ce4bh092rcd13ifvqd20","pricing_plan_id":"cebpf4jnsgd1na2vs0mg"},{"bike_id":"f54f0160-4583-42cd-8488-12c318c2c19d","system_id":"levelo_inurba_marseille","lat":43.29261,"lon":5.38437,"is_reserved":false,"is_disabled":false,"rental_uris":{"android":"levelo://app?vid=f54f0160-4583-42cd-8488-12c318c2c19d","ios":"levelo://app?vid=f54f0160-4583-42cd-8488-12c318c2c19d"},"vehicle_type_id":"4","last_reported":1734614374,"current_range_meters":39200,"station_id":"ce4bh692rcd13ifvqea0","pricing_plan_id":"cebpf4jnsgd1na2vs0mg"},{"bike_id":"6715ace7-353a-4ccb-9660-af23633d27d8","system_id":"levelo_inurba_marseille","lat":43.27614,"lon":5.36117,"is_reserved":false,"is_disabled":false,"rental_uris":{"android":"levelo://app?vid=6715ace7-353a-4ccb-9660-af23633d27d8","ios":"levelo://app?vid=6715ace7-353a-4ccb-9660-af23633d27d8"},"vehicle_type_id":"4","last_reported":1734614374,"current_range_meters":36400,"station_id":"ce4bgj92rcd13ifvqbe0","pricing_plan_id":"cebpf4jnsgd1na2vs0mg"},{"bike_id":"6ac937f1-6de1-4008-9e5e-4856e540182e","system_id":"levelo_inurba_marseille","lat":43.26691,"lon":5.38245,"is_reserved":false,"is_disabled":false,"rental_uris":{"android":"levelo://app?vid=6ac937f1-6de1-4008-9e5e-4856e540182e","ios":"levelo://app?vid=6ac937f1-6de1-4008-9e5e-4856e540182e"},"vehicle_type_id":"4","last_reported":1734614374,"current_range_meters":38800,"station_id":"ce4bhg92rcd13ifvqf90","pricing_plan_id":"cebpf4jnsgd1na2vs0mg"},{"bike_id":"f957ffa3-7b76-4b18-bb62-81627d313cf8","system_id":"levelo_inurba_marseille","lat":43.23209,"lon":5.35536,"is_reserved":false,"is_disabled":false,"rental_uris":{"android":"levelo://app?vid=f957ffa3-7b76-4b18-bb62-81627d313cf8","ios":"levelo://app?vid=f957ffa3-7b76-4b18-bb62-81627d313cf8"},"vehicle_type_id":"4","last_reported":1734614374,"current_range_meters":34000,"station_id":"ce4bhu92rcd13ifvqi70","pricing_plan_id":"cebpf4jnsgd1na2vs0mg"},{"bike_id":"8418e734-4fcd-4b94-951b-0d0ce81a5b83","system_id":"levelo_inurba_marseille","lat":43.29659,"lon":5.37305,"is_reserved":false,"is_disabled":false,"rental_uris":{"android":"levelo://app?vid=8418e734-4fcd-4b94-951b-0d0ce81a5b83","ios":"levelo://app?vid=8418e734-4fcd-4b94-951b-0d0ce81a5b83"},"vehicle_type_id":"4","last_reported":1734614374,"current_range_meters":36800,"station_id":"ce4bgk12rcd13ifvqbj0","pricing_plan_id":"cebpf4jnsgd1na2vs0mg"},{"bike_id":"dbf1d7d3-a0aa-40e8-af78-7c148b93ac1b","system_id":"levelo_inurba_marseille","lat":43.23183,"lon":5.39994,"is_reserved":false,"is_disabled":false,"rental_uris":{"android":"levelo://app?vid=dbf1d7d3-a0aa-40e8-af78-7c148b93ac1b","ios":"levelo://app?vid=dbf1d7d3-a0aa-40e8-af78-7c148b93ac1b"},"vehicle_type_id":"4","last_reported":1734614374,"current_range_meters":22400,"station_id":"ce4bhn12rcd13ifvqgqg","pricing_plan_id":"cebpf4jnsgd1na2vs0mg"},{"bike_id":"c6929287-9d23-42c4-8ce8-9ec0218d5220","system_id":"levelo_inurba_marseille","lat":43.29935,"lon":5.36549,"is_reserved":false,"is_disabled":false,"rental_uris":{"android":"levelo://app?vid=c6929287-9d23-42c4-8ce8-9ec0218d5220","ios":"levelo://app?vid=c6929287-9d23-42c4-8ce8-9ec0218d5220"},"vehicle_type_id":"4","last_reported":1734614374,"current_range_meters":18000,"station_id":"ce4bgm92rcd13ifvqbr0","pricing_plan_id":"cebpf4jnsgd1na2vs0mg"},{"bike_id":"e5975332-2724-4eab-ba4e-d8835a7e3286","system_id":"levelo_inurba_marseille","lat":43.29892,"lon":5.38887,"is_reserved":false,"is_disabled":false,"rental_uris":{"android":"levelo://app?vid=e5975332-2724-4eab-ba4e-d8835a7e3286","ios":"levelo://app?vid=e5975332-2724-4eab-ba4e-d8835a7e3286"},"vehicle_type_id":"4","last_reported":1734614374,"current_range_meters":32400,"station_id":"ce4bh392rcd13ifvqdl0","pricing_plan_id":"cebpf4jnsgd1na2vs0mg"},{"bike_id":"bd0477ce-061e-4122-b7ac-fbcc42dd0d76","system_id":"levelo_inurba_marseille","lat":43.29974,"lon":5.38492,"is_reserved":false,"is_disabled":true,"rental_uris":{"android":"levelo://app?vid=bd0477ce-061e-4122-b7ac-fbcc42dd0d76","ios":"levelo://app?vid=bd0477ce-061e-4122-b7ac-fbcc42dd0d76"},"vehicle_type_id":"4","last_reported":1734614374,"current_range_meters":800,"station_id":"ce4bgj92rcd13ifvqbd0","pricing_plan_id":"cebpf4jnsgd1na2vs0mg"},{"bike_id":"a0ab432f-da66-45ee-bd4e-3bd41460fc75","system_id":"levelo_inurba_marseille","lat":43.30814,"lon":5.3693,"is_reserved":false,"is_disabled":false,"rental_uris":{"android":"levelo://app?vid=a0ab432f-da66-45ee-bd4e-3bd41460fc75","ios":"levelo://app?vid=a0ab432f-da66-45ee-bd4e-3bd41460fc75"},"vehicle_type_id":"4","last_reported":1734614374,"current_range_meters":24400,"station_id":"","pricing_plan_id":"cebpf4jnsgd1na2vs0mg"},{"bike_id":"aa258fcd-4072-48d7-a973-c58369f705e7","system_id":"levelo_inurba_marseille","lat":43.2695,"lon":5.3863,"is_reserved":false,"is_disabled":false,"rental_uris":{"android":"levelo://app?vid=aa258fcd-4072-48d7-a973-c58369f705e7","ios":"levelo://app?vid=aa258fcd-4072-48d7-a973-c58369f705e7"},"vehicle_type_id":"4","last_reported":1734614374,"current_range_meters":38800,"station_id":"ce4bhh92rcd13ifvqfh0","pricing_plan_id":"cebpf4jnsgd1na2vs0mg"},{"bike_id":"46faabfc-f46f-48ca-ac06-1a98dfabb3e7","system_id":"levelo_inurba_marseille","lat":43.30919,"lon":5.36849,"is_reserved":false,"is_disabled":false,"rental_uris":{"android":"levelo://app?vid=46faabfc-f46f-48ca-ac06-1a98dfabb3e7","ios":"levelo://app?vid=46faabfc-f46f-48ca-ac06-1a98dfabb3e7"},"vehicle_type_id":"4","last_reported":1734614374,"current_range_meters":35600,"station_id":"ce4bgn92rcd13ifvqbvg","pricing_plan_id":"cebpf4jnsgd1na2vs0mg"},{"bike_id":"ffd50738-4963-47aa-ab7d-955fbc933618","system_id":"levelo_inurba_marseille","lat":43.305483,"lon":5.365354,"is_reserved":false,"is_disabled":false,"rental_uris":{"android":"levelo://app?vid=ffd50738-4963-47aa-ab7d-955fbc933618","ios":"levelo://app?vid=ffd50738-4963-47aa-ab7d-955fbc933618"},"vehicle_type_id":"4","last_reported":1734614374,"current_range_meters":38800,"station_id":"ce4bgs12rcd13ifvqcag","pricing_plan_id":"cebpf4jnsgd1na2vs0mg"},{"bike_id":"15f1e9fd-de86-44c0-ad90-338059d3e133","system_id":"levelo_inurba_marseille","lat":43.30933,"lon":5.36844,"is_reserved":false,"is_disabled":false,"rental_uris":{"android":"levelo://app?vid=15f1e9fd-de86-44c0-ad90-338059d3e133","ios":"levelo://app?vid=15f1e9fd-de86-44c0-ad90-338059d3e133"},"vehicle_type_id":"4","last_reported":1734614374,"current_range_meters":6400,"station_id":"ce4bgn92rcd13ifvqbvg","pricing_plan_id":"cebpf4jnsgd1na2vs0mg"},{"bike_id":"9aed28d6-2cfa-4159-b544-fc7437958c77","system_id":"levelo_inurba_marseille","lat":43.27598,"lon":5.36142,"is_reserved":false,"is_disabled":false,"rental_uris":{"android":"levelo://app?vid=9aed28d6-2cfa-4159-b544-fc7437958c77","ios":"levelo://app?vid=9aed28d6-2cfa-4159-b544-fc7437958c77"},"vehicle_type_id":"4","last_reported":1734614374,"current_range_meters":38800,"station_id":"ce4bgj92rcd13ifvqbe0","pricing_plan_id":"cebpf4jnsgd1na2vs0mg"},{"bike_id":"c6fc1f35-949d-4dc4-925e-046f798f5cdb","system_id":"levelo_inurba_marseille","lat":43.30413,"lon":5.41282,"is_reserved":false,"is_disabled":true,"rental_uris":{"android":"levelo://app?vid=c6fc1f35-949d-4dc4-925e-046f798f5cdb","ios":"levelo://app?vid=c6fc1f35-949d-4dc4-925e-046f798f5cdb"},"vehicle_type_id":"4","last_reported":1734614374,"current_range_meters":38800,"station_id":"ce4bhop2rcd13ifvqh8g","pricing_plan_id":"cebpf4jnsgd1na2vs0mg"},{"bike_id":"bbafae24-7280-4138-a299-b7510ce98a6c","system_id":"levelo_inurba_marseille","lat":43.28926,"lon":5.36373,"is_reserved":false,"is_disabled":false,"rental_uris":{"android":"levelo://app?vid=bbafae24-7280-4138-a299-b7510ce98a6c","ios":"levelo://app?vid=bbafae24-7280-4138-a299-b7510ce98a6c"},"vehicle_type_id":"4","last_reported":1734614374,"current_range_meters":10000,"station_id":"ce4bhc92rcd13ifvqetg","pricing_plan_id":"cebpf4jnsgd1na2vs0mg"},{"bike_id":"d473013b-e8ad-4cc1-a2ed-4498b4540a66","system_id":"levelo_inurba_marseille","lat":43.29272,"lon":5.38453,"is_reserved":false,"is_disabled":false,"rental_uris":{"android":"levelo://app?vid=d473013b-e8ad-4cc1-a2ed-4498b4540a66","ios":"levelo://app?vid=d473013b-e8ad-4cc1-a2ed-4498b4540a66"},"vehicle_type_id":"4","last_reported":1734614374,"current_range_meters":16000,"station_id":"ce4bh692rcd13ifvqea0","pricing_plan_id":"cebpf4jnsgd1na2vs0mg"},{"bike_id":"21caaf6b-fb2e-4bb9-a7c3-65c8a1c43c5c","system_id":"levelo_inurba_marseille","lat":43.31697,"lon":5.37745,"is_reserved":false,"is_disabled":false,"rental_uris":{"android":"levelo://app?vid=21caaf6b-fb2e-4bb9-a7c3-65c8a1c43c5c","ios":"levelo://app?vid=21caaf6b-fb2e-4bb9-a7c3-65c8a1c43c5c"},"vehicle_type_id":"4","last_reported":1734614374,"current_range_meters":17200,"station_id":"ce4bgth2rcd13ifvqch0","pricing_plan_id":"cebpf4jnsgd1na2vs0mg"},{"bike_id":"6979b30d-119e-461d-92e4-8ccdeeeba566","system_id":"levelo_inurba_marseille","lat":43.28481,"lon":5.38409,"is_reserved":false,"is_disabled":true,"rental_uris":{"android":"levelo://app?vid=6979b30d-119e-461d-92e4-8ccdeeeba566","ios":"levelo://app?vid=6979b30d-119e-461d-92e4-8ccdeeeba566"},"vehicle_type_id":"4","last_reported":1734614374,"current_range_meters":0,"station_id":"ce4bh512rcd13ifvqe3g","pricing_plan_id":"cebpf4jnsgd1na2vs0mg"},{"bike_id":"4a208263-5683-4c02-b8c0-8842a35d3fff","system_id":"levelo_inurba_marseille","lat":43.30503,"lon":5.36496,"is_reserved":false,"is_disabled":false,"rental_uris":{"android":"levelo://app?vid=4a208263-5683-4c02-b8c0-8842a35d3fff","ios":"levelo://app?vid=4a208263-5683-4c02-b8c0-8842a35d3fff"},"vehicle_type_id":"4","last_reported":1734614374,"current_range_meters":38000,"station_id":"ce4bgs12rcd13ifvqcag","pricing_plan_id":"cebpf4jnsgd1na2vs0mg"},{"bike_id":"66ed3979-dfdc-4b11-9e3a-154448f3d843","system_id":"levelo_inurba_marseille","lat":43.30552,"lon":5.36566,"is_reserved":false,"is_disabled":false,"rental_uris":{"android":"levelo://app?vid=66ed3979-dfdc-4b11-9e3a-154448f3d843","ios":"levelo://app?vid=66ed3979-dfdc-4b11-9e3a-154448f3d843"},"vehicle_type_id":"4","last_reported":1734614374,"current_range_meters":31200,"station_id":"ce4bgs12rcd13ifvqcag","pricing_plan_id":"cebpf4jnsgd1na2vs0mg"},{"bike_id":"aad6eb9f-0863-4e4f-a0f2-cc5f74e5d0e3","system_id":"levelo_inurba_marseille","lat":43.2898,"lon":5.40004,"is_reserved":false,"is_disabled":false,"rental_uris":{"android":"levelo://app?vid=aad6eb9f-0863-4e4f-a0f2-cc5f74e5d0e3","ios":"levelo://app?vid=aad6eb9f-0863-4e4f-a0f2-cc5f74e5d0e3"},"vehicle_type_id":"4","last_reported":1734614374,"current_range_meters":30400,"station_id":"ce4bh0p2rcd13ifvqd80","pricing_plan_id":"cebpf4jnsgd1na2vs0mg"},{"bike_id":"13411e02-e30b-4d1e-a85a-92295b9629fe","system_id":"levelo_inurba_marseille","lat":43.27376,"lon":5.36257,"is_reserved":false,"is_disabled":false,"rental_uris":{"android":"levelo://app?vid=13411e02-e30b-4d1e-a85a-92295b9629fe","ios":"levelo://app?vid=13411e02-e30b-4d1e-a85a-92295b9629fe"},"vehicle_type_id":"4","last_reported":1734614374,"current_range_meters":33600,"station_id":"ce4bhbh2rcd13ifvqeo0","pricing_plan_id":"cebpf4jnsgd1na2vs0mg"},{"bike_id":"6118b054-9ea6-4b9d-8593-36a69758efff","system_id":"levelo_inurba_marseille","lat":43.231875,"lon":5.355658,"is_reserved":false,"is_disabled":false,"rental_uris":{"android":"levelo://app?vid=6118b054-9ea6-4b9d-8593-36a69758efff","ios":"levelo://app?vid=6118b054-9ea6-4b9d-8593-36a69758efff"},"vehicle_type_id":"4","last_reported":1734614374,"current_range_meters":38800,"station_id":"ce4bhu92rcd13ifvqi70","pricing_plan_id":"cebpf4jnsgd1na2vs0mg"},{"bike_id":"f42b81cf-aa56-42a7-902e-236e678f249c","system_id":"levelo_inurba_marseille","lat":43.2558,"lon":5.3823,"is_reserved":false,"is_disabled":false,"rental_uris":{"android":"levelo://app?vid=f42b81cf-aa56-42a7-902e-236e678f249c","ios":"levelo://app?vid=f42b81cf-aa56-42a7-902e-236e678f249c"},"vehicle_type_id":"4","last_reported":1734614374,"current_range_meters":8400,"station_id":"ce4bhih2rcd13ifvqfs0","pricing_plan_id":"cebpf4jnsgd1na2vs0mg"},{"bike_id":"7f677ead-a442-471f-9e46-3bba23d83c37","system_id":"levelo_inurba_marseille","lat":43.33762,"lon":5.37436,"is_reserved":false,"is_disabled":false,"rental_uris":{"android":"levelo://app?vid=7f677ead-a442-471f-9e46-3bba23d83c37","ios":"levelo://app?vid=7f677ead-a442-471f-9e46-3bba23d83c37"},"vehicle_type_id":"4","last_reported":1734614374,"current_range_meters":38800,"station_id":"","pricing_plan_id":"cebpf4jnsgd1na2vs0mg"},{"bike_id":"4e3591ae-60f2-4097-8bba-b22f0691675b","system_id":"levelo_inurba_marseille","lat":43.34147,"lon":5.40908,"is_reserved":false,"is_disabled":false,"rental_uris":{"android":"levelo://app?vid=4e3591ae-60f2-4097-8bba-b22f0691675b","ios":"levelo://app?vid=4e3591ae-60f2-4097-8bba-b22f0691675b"},"vehicle_type_id":"4","last_reported":1734614374,"current_range_meters":24800,"station_id":"ce4bhqh2rcd13ifvqhlg","pricing_plan_id":"cebpf4jnsgd1na2vs0mg"},{"bike_id":"82784db9-6360-4161-bacd-e23667eb9c3e","system_id":"levelo_inurba_marseille","lat":43.30324,"lon":5.38556,"is_reserved":false,"is_disabled":true,"rental_uris":{"android":"levelo://app?vid=82784db9-6360-4161-bacd-e23667eb9c3e","ios":"levelo://app?vid=82784db9-6360-4161-bacd-e23667eb9c3e"},"vehicle_type_id":"4","last_reported":1734614374,"current_range_meters":6000,"station_id":"","pricing_plan_id":"cebpf4jnsgd1na2vs0mg"},{"bike_id":"9d2aefec-f4a3-4a23-a13a-c09b46ffe2e4","system_id":"levelo_inurba_marseille","lat":43.31161,"lon":5.36714,"is_reserved":false,"is_disabled":false,"rental_uris":{"android":"levelo://app?vid=9d2aefec-f4a3-4a23-a13a-c09b46ffe2e4","ios":"levelo://app?vid=9d2aefec-f4a3-4a23-a13a-c09b46ffe2e4"},"vehicle_type_id":"4","last_reported":1734614374,"current_range_meters":30800,"station_id":"","pricing_plan_id":"cebpf4jnsgd1na2vs0mg"},{"bike_id":"cd18d2e6-81cf-4e60-aa15-2ac8966c82fc","system_id":"levelo_inurba_marseille","lat":43.23152,"lon":5.43719,"is_reserved":false,"is_disabled":false,"rental_uris":{"android":"levelo://app?vid=cd18d2e6-81cf-4e60-aa15-2ac8966c82fc","ios":"levelo://app?vid=cd18d2e6-81cf-4e60-aa15-2ac8966c82fc"},"vehicle_type_id":"4","last_reported":1734614374,"current_range_meters":18000,"station_id":"ce4bhmp2rcd13ifvqgog","pricing_plan_id":"cebpf4jnsgd1na2vs0mg"},{"bike_id":"fdb00e72-6d85-4d61-9e62-d139d7971bf0","system_id":"levelo_inurba_marseille","lat":43.26957,"lon":5.38623,"is_reserved":false,"is_disabled":false,"rental_uris":{"android":"levelo://app?vid=fdb00e72-6d85-4d61-9e62-d139d7971bf0","ios":"levelo://app?vid=fdb00e72-6d85-4d61-9e62-d139d7971bf0"},"vehicle_type_id":"4","last_reported":1734614374,"current_range_meters":38800,"station_id":"ce4bhh92rcd13ifvqfh0","pricing_plan_id":"cebpf4jnsgd1na2vs0mg"},{"bike_id":"7a914128-ee9f-4bd2-ac5d-e9c56bd29aaf","system_id":"levelo_inurba_marseille","lat":43.28943,"lon":5.39636,"is_reserved":false,"is_disabled":true,"rental_uris":{"android":"levelo://app?vid=7a914128-ee9f-4bd2-ac5d-e9c56bd29aaf","ios":"levelo://app?vid=7a914128-ee9f-4bd2-ac5d-e9c56bd29aaf"},"vehicle_type_id":"4","last_reported":1734614374,"current_range_meters":38800,"station_id":"ce4bh3h2rcd13ifvqdn0","pricing_plan_id":"cebpf4jnsgd1na2vs0mg"},{"bike_id":"41360683-0f69-4c62-8b87-4868ce57f8d5","system_id":"levelo_inurba_marseille","lat":43.31493,"lon":5.37282,"is_reserved":false,"is_disabled":false,"rental_uris":{"android":"levelo://app?vid=41360683-0f69-4c62-8b87-4868ce57f8d5","ios":"levelo://app?vid=41360683-0f69-4c62-8b87-4868ce57f8d5"},"vehicle_type_id":"4","last_reported":1734614374,"current_range_meters":38800,"station_id":"ce4bgt12rcd13ifvqcd0","pricing_plan_id":"cebpf4jnsgd1na2vs0mg"},{"bike_id":"a2eba22b-b0ee-4005-9bf3-576bb458d391","system_id":"levelo_inurba_marseille","lat":43.279651,"lon":5.387544,"is_reserved":false,"is_disabled":true,"rental_uris":{"android":"levelo://app?vid=a2eba22b-b0ee-4005-9bf3-576bb458d391","ios":"levelo://app?vid=a2eba22b-b0ee-4005-9bf3-576bb458d391"},"vehicle_type_id":"4","last_reported":1734614374,"current_range_meters":0,"station_id":"","pricing_plan_id":"cebpf4jnsgd1na2vs0mg"},{"bike_id":"d8daf1ce-61f9-45df-8ce0-b079aa7d27b6","system_id":"levelo_inurba_marseille","lat":43.30536,"lon":5.36558,"is_reserved":false,"is_disabled":false,"rental_uris":{"android":"levelo://app?vid=d8daf1ce-61f9-45df-8ce0-b079aa7d27b6","ios":"levelo://app?vid=d8daf1ce-61f9-45df-8ce0-b079aa7d27b6"},"vehicle_type_id":"4","last_reported":1734614374,"current_range_meters":10800,"station_id":"ce4bgs12rcd13ifvqcag","pricing_plan_id":"cebpf4jnsgd1na2vs0mg"},{"bike_id":"1ba808f8-ee79-4a6c-a484-094afe27e975","system_id":"levelo_inurba_marseille","lat":43.29804,"lon":5.38115,"is_reserved":false,"is_disabled":false,"rental_uris":{"android":"levelo://app?vid=1ba808f8-ee79-4a6c-a484-094afe27e975","ios":"levelo://app?vid=1ba808f8-ee79-4a6c-a484-094afe27e975"},"vehicle_type_id":"4","last_reported":1734614374,"current_range_meters":6400,"station_id":"ce4bgip2rcd13ifvqbb0","pricing_plan_id":"cebpf4jnsgd1na2vs0mg"},{"bike_id":"9ab982b2-4311-4225-9a32-bac012f864cf","system_id":"levelo_inurba_marseille","lat":43.28937,"lon":5.36392,"is_reserved":false,"is_disabled":false,"rental_uris":{"android":"levelo://app?vid=9ab982b2-4311-4225-9a32-bac012f864cf","ios":"levelo://app?vid=9ab982b2-4311-4225-9a32-bac012f864cf"},"vehicle_type_id":"4","last_reported":1734614374,"current_range_meters":22800,"station_id":"ce4bhc92rcd13ifvqetg","pricing_plan_id":"cebpf4jnsgd1na2vs0mg"},{"bike_id":"f0377741-7cf6-450d-a6fd-153237b93a8a","system_id":"levelo_inurba_marseille","lat":43.25918,"lon":5.40833,"is_reserved":false,"is_disabled":false,"rental_uris":{"android":"levelo://app?vid=f0377741-7cf6-450d-a6fd-153237b93a8a","ios":"levelo://app?vid=f0377741-7cf6-450d-a6fd-153237b93a8a"},"vehicle_type_id":"4","last_reported":1734614374,"current_range_meters":17600,"station_id":"","pricing_plan_id":"cebpf4jnsgd1na2vs0mg"},{"bike_id":"07ab7694-63bb-4c75-b6ed-4d4b1f4239ac","system_id":"levelo_inurba_marseille","lat":43.27962,"lon":5.38731,"is_reserved":false,"is_disabled":false,"rental_uris":{"android":"levelo://app?vid=07ab7694-63bb-4c75-b6ed-4d4b1f4239ac","ios":"levelo://app?vid=07ab7694-63bb-4c75-b6ed-4d4b1f4239ac"},"vehicle_type_id":"4","last_reported":1734614374,"current_range_meters":24000,"station_id":"ce4bhg12rcd13ifvqf80","pricing_plan_id":"cebpf4jnsgd1na2vs0mg"},{"bike_id":"ffc236af-b009-42f9-9931-5439be7b7cf3","system_id":"levelo_inurba_marseille","lat":43.29258,"lon":5.38464,"is_reserved":false,"is_disabled":false,"rental_uris":{"android":"levelo://app?vid=ffc236af-b009-42f9-9931-5439be7b7cf3","ios":"levelo://app?vid=ffc236af-b009-42f9-9931-5439be7b7cf3"},"vehicle_type_id":"4","last_reported":1734614374,"current_range_meters":17600,"station_id":"ce4bh692rcd13ifvqea0","pricing_plan_id":"cebpf4jnsgd1na2vs0mg"},{"bike_id":"0a1355fb-d7a2-40da-93d7-05d9957a15d0","system_id":"levelo_inurba_marseille","lat":43.26205,"lon":5.3792,"is_reserved":false,"is_disabled":false,"rental_uris":{"android":"levelo://app?vid=0a1355fb-d7a2-40da-93d7-05d9957a15d0","ios":"levelo://app?vid=0a1355fb-d7a2-40da-93d7-05d9957a15d0"},"vehicle_type_id":"4","last_reported":1734614374,"current_range_meters":34000,"station_id":"ce4bhjp2rcd13ifvqg90","pricing_plan_id":"cebpf4jnsgd1na2vs0mg"},{"bike_id":"8b61a505-6689-4d59-bdbd-c2bc04b25a7f","system_id":"levelo_inurba_marseille","lat":43.30553,"lon":5.36538,"is_reserved":false,"is_disabled":false,"rental_uris":{"android":"levelo://app?vid=8b61a505-6689-4d59-bdbd-c2bc04b25a7f","ios":"levelo://app?vid=8b61a505-6689-4d59-bdbd-c2bc04b25a7f"},"vehicle_type_id":"4","last_reported":1734614374,"current_range_meters":25200,"station_id":"ce4bgs12rcd13ifvqcag","pricing_plan_id":"cebpf4jnsgd1na2vs0mg"},{"bike_id":"bcba2c13-fd7b-4d65-a255-388b54aedd85","system_id":"levelo_inurba_marseille","lat":43.33607,"lon":5.40988,"is_reserved":false,"is_disabled":false,"rental_uris":{"android":"levelo://app?vid=bcba2c13-fd7b-4d65-a255-388b54aedd85","ios":"levelo://app?vid=bcba2c13-fd7b-4d65-a255-388b54aedd85"},"vehicle_type_id":"4","last_reported":1734614374,"current_range_meters":37600,"station_id":"ce4bhqh2rcd13ifvqhmg","pricing_plan_id":"cebpf4jnsgd1na2vs0mg"},{"bike_id":"ac7c5f56-daad-496c-965f-9103737000e8","system_id":"levelo_inurba_marseille","lat":43.23969,"lon":5.36627,"is_reserved":false,"is_disabled":false,"rental_uris":{"android":"levelo://app?vid=ac7c5f56-daad-496c-965f-9103737000e8","ios":"levelo://app?vid=ac7c5f56-daad-496c-965f-9103737000e8"},"vehicle_type_id":"4","last_reported":1734614374,"current_range_meters":39200,"station_id":"ce4bhi12rcd13ifvqfp0","pricing_plan_id":"cebpf4jnsgd1na2vs0mg"},{"bike_id":"50f3ea1e-8d3a-452b-9061-37af2efe02cc","system_id":"levelo_inurba_marseille","lat":43.31261,"lon":5.40161,"is_reserved":false,"is_disabled":false,"rental_uris":{"android":"levelo://app?vid=50f3ea1e-8d3a-452b-9061-37af2efe02cc","ios":"levelo://app?vid=50f3ea1e-8d3a-452b-9061-37af2efe02cc"},"vehicle_type_id":"4","last_reported":1734614374,"current_range_meters":30000,"station_id":"ce4bh092rcd13ifvqd30","pricing_plan_id":"cebpf4jnsgd1na2vs0mg"},{"bike_id":"21001dda-fdf1-4767-8792-f8d5c2dc3afa","system_id":"levelo_inurba_marseille","lat":43.23963,"lon":5.36624,"is_reserved":false,"is_disabled":false,"rental_uris":{"android":"levelo://app?vid=21001dda-fdf1-4767-8792-f8d5c2dc3afa","ios":"levelo://app?vid=21001dda-fdf1-4767-8792-f8d5c2dc3afa"},"vehicle_type_id":"4","last_reported":1734614374,"current_range_meters":30000,"station_id":"ce4bhi12rcd13ifvqfp0","pricing_plan_id":"cebpf4jnsgd1na2vs0mg"},{"bike_id":"0cef6d55-09da-4dff-80ee-facea058c7a5","system_id":"levelo_inurba_marseille","lat":43.30055,"lon":5.36969,"is_reserved":false,"is_disabled":false,"rental_uris":{"android":"levelo://app?vid=0cef6d55-09da-4dff-80ee-facea058c7a5","ios":"levelo://app?vid=0cef6d55-09da-4dff-80ee-facea058c7a5"},"vehicle_type_id":"4","last_reported":1734614374,"current_range_meters":33200,"station_id":"","pricing_plan_id":"cebpf4jnsgd1na2vs0mg"},{"bike_id":"bf2cda1a-fa95-4ebe-883a-bd745906338f","system_id":"levelo_inurba_marseille","lat":43.31081,"lon":5.38351,"is_reserved":false,"is_disabled":true,"rental_uris":{"android":"levelo://app?vid=bf2cda1a-fa95-4ebe-883a-bd745906338f","ios":"levelo://app?vid=bf2cda1a-fa95-4ebe-883a-bd745906338f"},"vehicle_type_id":"4","last_reported":1734614374,"current_range_meters":0,"station_id":"ce4bgv92rcd13ifvqcr0","pricing_plan_id":"cebpf4jnsgd1na2vs0mg"},{"bike_id":"dc9726d3-3768-484d-a2e6-04d42c546123","system_id":"levelo_inurba_marseille","lat":43.30436,"lon":5.39749,"is_reserved":false,"is_disabled":false,"rental_uris":{"android":"levelo://app?vid=dc9726d3-3768-484d-a2e6-04d42c546123","ios":"levelo://app?vid=dc9726d3-3768-484d-a2e6-04d42c546123"},"vehicle_type_id":"4","last_reported":1734614374,"current_range_meters":39200,"station_id":"ce4bh092rcd13ifvqd20","pricing_plan_id":"cebpf4jnsgd1na2vs0mg"},{"bike_id":"23a049cd-2a20-411e-a25c-f3e09482729c","system_id":"levelo_inurba_marseille","lat":43.30432,"lon":5.37346,"is_reserved":false,"is_disabled":false,"rental_uris":{"android":"levelo://app?vid=23a049cd-2a20-411e-a25c-f3e09482729c","ios":"levelo://app?vid=23a049cd-2a20-411e-a25c-f3e09482729c"},"vehicle_type_id":"4","last_reported":1734614374,"current_range_meters":38000,"station_id":"","pricing_plan_id":"cebpf4jnsgd1na2vs0mg"},{"bike_id":"f948215d-da04-4bb1-9ffe-5b5e1f31f97b","system_id":"levelo_inurba_marseille","lat":43.30461,"lon":5.37903,"is_reserved":false,"is_disabled":false,"rental_uris":{"android":"levelo://app?vid=f948215d-da04-4bb1-9ffe-5b5e1f31f97b","ios":"levelo://app?vid=f948215d-da04-4bb1-9ffe-5b5e1f31f97b"},"vehicle_type_id":"4","last_reported":1734614374,"current_range_meters":34800,"station_id":"ce4bgup2rcd13ifvqcn0","pricing_plan_id":"cebpf4jnsgd1na2vs0mg"},{"bike_id":"b9e0dcf9-3bb4-4708-81c1-daf6a6b0f76c","system_id":"levelo_inurba_marseille","lat":43.32078,"lon":5.36822,"is_reserved":false,"is_disabled":true,"rental_uris":{"android":"levelo://app?vid=b9e0dcf9-3bb4-4708-81c1-daf6a6b0f76c","ios":"levelo://app?vid=b9e0dcf9-3bb4-4708-81c1-daf6a6b0f76c"},"vehicle_type_id":"4","last_reported":1734614374,"current_range_meters":30400,"station_id":"ce4bhrh2rcd13ifvqhug","pricing_plan_id":"cebpf4jnsgd1na2vs0mg"},{"bike_id":"08cd978d-a154-489b-88f9-55e885485e2d","system_id":"levelo_inurba_marseille","lat":43.255,"lon":5.37661,"is_reserved":false,"is_disabled":false,"rental_uris":{"android":"levelo://app?vid=08cd978d-a154-489b-88f9-55e885485e2d","ios":"levelo://app?vid=08cd978d-a154-489b-88f9-55e885485e2d"},"vehicle_type_id":"4","last_reported":1734614374,"current_range_meters":38400,"station_id":"ce4bhh12rcd13ifvqff0","pricing_plan_id":"cebpf4jnsgd1na2vs0mg"},{"bike_id":"11de9416-df88-417e-aee7-4f564b6022ac","system_id":"levelo_inurba_marseille","lat":43.28465,"lon":5.3842,"is_reserved":false,"is_disabled":false,"rental_uris":{"android":"levelo://app?vid=11de9416-df88-417e-aee7-4f564b6022ac","ios":"levelo://app?vid=11de9416-df88-417e-aee7-4f564b6022ac"},"vehicle_type_id":"4","last_reported":1734614374,"current_range_meters":14800,"station_id":"ce4bh512rcd13ifvqe3g","pricing_plan_id":"cebpf4jnsgd1na2vs0mg"},{"bike_id":"c87a4316-72de-4977-aa58-abdf8d622cbb","system_id":"levelo_inurba_marseille","lat":43.29698,"lon":5.3729,"is_reserved":false,"is_disabled":false,"rental_uris":{"android":"levelo://app?vid=c87a4316-72de-4977-aa58-abdf8d622cbb","ios":"levelo://app?vid=c87a4316-72de-4977-aa58-abdf8d622cbb"},"vehicle_type_id":"4","last_reported":1734614374,"current_range_meters":26000,"station_id":"ce4bgk12rcd13ifvqbj0","pricing_plan_id":"cebpf4jnsgd1na2vs0mg"},{"bike_id":"6f7d37fc-a8e4-4c2e-a63f-af1b3b81c773","system_id":"levelo_inurba_marseille","lat":43.30217,"lon":5.39473,"is_reserved":false,"is_disabled":false,"rental_uris":{"android":"levelo://app?vid=6f7d37fc-a8e4-4c2e-a63f-af1b3b81c773","ios":"levelo://app?vid=6f7d37fc-a8e4-4c2e-a63f-af1b3b81c773"},"vehicle_type_id":"4","last_reported":1734614374,"current_range_meters":22000,"station_id":"ce4bh0p2rcd13ifvqd70","pricing_plan_id":"cebpf4jnsgd1na2vs0mg"},{"bike_id":"7b305c6f-361b-46c6-bcc8-6b2d9fd084fa","system_id":"levelo_inurba_marseille","lat":43.28119,"lon":5.4422,"is_reserved":false,"is_disabled":true,"rental_uris":{"android":"levelo://app?vid=7b305c6f-361b-46c6-bcc8-6b2d9fd084fa","ios":"levelo://app?vid=7b305c6f-361b-46c6-bcc8-6b2d9fd084fa"},"vehicle_type_id":"4","last_reported":1734614374,"current_range_meters":0,"station_id":"","pricing_plan_id":"cebpf4jnsgd1na2vs0mg"},{"bike_id":"741ea4b3-763d-4684-9cc9-4d777e722653","system_id":"levelo_inurba_marseille","lat":43.31347,"lon":5.36722,"is_reserved":false,"is_disabled":false,"rental_uris":{"android":"levelo://app?vid=741ea4b3-763d-4684-9cc9-4d777e722653","ios":"levelo://app?vid=741ea4b3-763d-4684-9cc9-4d777e722653"},"vehicle_type_id":"4","last_reported":1734614374,"current_range_meters":35200,"station_id":"ce4bgr92rcd13ifvqc6g","pricing_plan_id":"cebpf4jnsgd1na2vs0mg"},{"bike_id":"c81d12c0-b3b4-4b91-a004-bb72046d4aaa","system_id":"levelo_inurba_marseille","lat":43.299368,"lon":5.37522,"is_reserved":false,"is_disabled":false,"rental_uris":{"android":"levelo://app?vid=c81d12c0-b3b4-4b91-a004-bb72046d4aaa","ios":"levelo://app?vid=c81d12c0-b3b4-4b91-a004-bb72046d4aaa"},"vehicle_type_id":"4","last_reported":1734614374,"current_range_meters":24800,"station_id":"ce4bgjh2rcd13ifvqbg0","pricing_plan_id":"cebpf4jnsgd1na2vs0mg"},{"bike_id":"c1b6203c-0b41-4e21-9b9d-984608f33fe2","system_id":"levelo_inurba_marseille","lat":43.29289,"lon":5.3745,"is_reserved":false,"is_disabled":false,"rental_uris":{"android":"levelo://app?vid=c1b6203c-0b41-4e21-9b9d-984608f33fe2","ios":"levelo://app?vid=c1b6203c-0b41-4e21-9b9d-984608f33fe2"},"vehicle_type_id":"4","last_reported":1734614374,"current_range_meters":35600,"station_id":"ce4bgi12rcd13ifvqb70","pricing_plan_id":"cebpf4jnsgd1na2vs0mg"},{"bike_id":"58460439-34c4-4ffd-a810-879458f6621a","system_id":"levelo_inurba_marseille","lat":43.23179,"lon":5.39975,"is_reserved":false,"is_disabled":false,"rental_uris":{"android":"levelo://app?vid=58460439-34c4-4ffd-a810-879458f6621a","ios":"levelo://app?vid=58460439-34c4-4ffd-a810-879458f6621a"},"vehicle_type_id":"4","last_reported":1734614374,"current_range_meters":24800,"station_id":"ce4bhn12rcd13ifvqgqg","pricing_plan_id":"cebpf4jnsgd1na2vs0mg"},{"bike_id":"065296b9-c1b1-4295-be5f-ba6a4ae67e1e","system_id":"levelo_inurba_marseille","lat":43.27368,"lon":5.36255,"is_reserved":false,"is_disabled":false,"rental_uris":{"android":"levelo://app?vid=065296b9-c1b1-4295-be5f-ba6a4ae67e1e","ios":"levelo://app?vid=065296b9-c1b1-4295-be5f-ba6a4ae67e1e"},"vehicle_type_id":"4","last_reported":1734614374,"current_range_meters":37600,"station_id":"ce4bhbh2rcd13ifvqeo0","pricing_plan_id":"cebpf4jnsgd1na2vs0mg"},{"bike_id":"df2bf2aa-dff9-475f-91c3-5688aec4bd4e","system_id":"levelo_inurba_marseille","lat":43.29845,"lon":5.36275,"is_reserved":false,"is_disabled":false,"rental_uris":{"android":"levelo://app?vid=df2bf2aa-dff9-475f-91c3-5688aec4bd4e","ios":"levelo://app?vid=df2bf2aa-dff9-475f-91c3-5688aec4bd4e"},