{"last_updated":1729671133,"ttl":60,"version":"2.2","data":{"bikes":[{"bike_id":"e49abd15-a4b5-436d-abb0-7517fa642236","system_id":"levelo_inurba_marseille","lat":43.30911,"lon":5.36847,"is_reserved":false,"is_disabled":false,"rental_uris":{"android":"levelo://app?vid=e49abd15-a4b5-436d-abb0-7517fa642236","ios":"levelo://app?vid=e49abd15-a4b5-436d-abb0-7517fa642236"},"vehicle_type_id":"4","last_reported":1729671134,"current_range_meters":32000,"station_id":"ce4bgn92rcd13ifvqbvg","pricing_plan_id":"cebpf4jnsgd1na2vs0mg"},{"bike_id":"94505a83-b206-4db0-aff0-8f5678e8c521","system_id":"levelo_inurba_marseille","lat":43.24078,"lon":5.37752,"is_reserved":false,"is_disabled":false,"rental_uris":{"android":"levelo://app?vid=94505a83-b206-4db0-aff0-8f5678e8c521","ios":"levelo://app?vid=94505a83-b206-4db0-aff0-8f5678e8c521"},"vehicle_type_id":"4","last_reported":1729671134,"current_range_meters":18000,"station_id":"ce4bhnp2rcd13ifvqgvg","pricing_plan_id":"cebpf4jnsgd1na2vs0mg"},{"bike_id":"ae5e602a-152c-4121-9134-23e885a03a33","system_id":"levelo_inurba_marseille","lat":43.30532,"lon":5.36548,"is_reserved":false,"is_disabled":false,"rental_uris":{"android":"levelo://app?vid=ae5e602a-152c-4121-9134-23e885a03a33","ios":"levelo://app?vid=ae5e602a-152c-4121-9134-23e885a03a33"},"vehicle_type_id":"4","last_reported":1729671134,"current_range_meters":34000,"station_id":"ce4bgs12rcd13ifvqcag","pricing_plan_id":"cebpf4jnsgd1na2vs0mg"},{"bike_id":"043e6470-1c1d-42f9-80dc-d591f6e681d0","system_id":"levelo_inurba_marseille","lat":43.2592,"lon":5.40921,"is_reserved":false,"is_disabled":false,"rental_uris":{"android":"levelo://app?vid=043e6470-1c1d-42f9-80dc-d591f6e681d0","ios":"levelo://app?vid=043e6470-1c1d-42f9-80dc-d591f6e681d0"},"vehicle_type_id":"4","last_reported":1729671134,"current_range_meters":36400,"station_id":"ce4bhm92rcd13ifvqglg","pricing_plan_id":"cebpf4jnsgd1na2vs0mg"},{"bike_id":"50f1ec05-4d59-4332-8aca-ecfd573a5bf5","system_id":"levelo_inurba_marseille","lat":43.27066,"lon":5.42273,"is_reserved":false,"is_disabled":false,"rental_uris":{"android":"levelo://app?vid=50f1ec05-4d59-4332-8aca-ecfd573a5bf5","ios":"levelo://app?vid=50f1ec05-4d59-4332-8aca-ecfd573a5bf5"},"vehicle_type_id":"4","last_reported":1729671134,"current_range_meters":39200,"station_id":"ce4bhk92rcd13ifvqgb0","pricing_plan_id":"cebpf4jnsgd1na2vs0mg"},{"bike_id":"e929bbf0-b67f-4d49-bb99-c9e174c9b8b0","system_id":"levelo_inurba_marseille","lat":43.30528,"lon":5.36544,"is_reserved":false,"is_disabled":false,"rental_uris":{"android":"levelo://app?vid=e929bbf0-b67f-4d49-bb99-c9e174c9b8b0","ios":"levelo://app?vid=e929bbf0-b67f-4d49-bb99-c9e174c9b8b0"},"vehicle_type_id":"4","last_reported":1729671134,"current_range_meters":40000,"station_id":"ce4bgs12rcd13ifvqcag","pricing_plan_id":"cebpf4jnsgd1na2vs0mg"},{"bike_id":"da2545c0-1aa1-4252-83b4-6c3657ee2a36","system_id":"levelo_inurba_marseille","lat":43.29549,"lon":5.42281,"is_reserved":false,"is_disabled":false,"rental_uris":{"android":"levelo://app?vid=da2545c0-1aa1-4252-83b4-6c3657ee2a36","ios":"levelo://app?vid=da2545c0-1aa1-4252-83b4-6c3657ee2a36"},"vehicle_type_id":"4","last_reported":1729671134,"current_range_meters":28400,"station_id":"ce4bhph2rcd13ifvqhdg","pricing_plan_id":"cebpf4jnsgd1na2vs0mg"},{"bike_id":"b149ce4e-51e1-44d1-a677-e09dc3311ba7","system_id":"levelo_inurba_marseille","lat":43.24389,"lon":5.37052,"is_reserved":false,"is_disabled":false,"rental_uris":{"android":"levelo://app?vid=b149ce4e-51e1-44d1-a677-e09dc3311ba7","ios":"levelo://app?vid=b149ce4e-51e1-44d1-a677-e09dc3311ba7"},"vehicle_type_id":"4","last_reported":1729671134,"current_range_meters":40000,"station_id":"ce4bhhh2rcd13ifvqfk0","pricing_plan_id":"cebpf4jnsgd1na2vs0mg"},{"bike_id":"b4cc9679-1889-4d52-9d59-6fc564d9e1c9","system_id":"levelo_inurba_marseille","lat":43.24386,"lon":5.37059,"is_reserved":false,"is_disabled":false,"rental_uris":{"android":"levelo://app?vid=b4cc9679-1889-4d52-9d59-6fc564d9e1c9","ios":"levelo://app?vid=b4cc9679-1889-4d52-9d59-6fc564d9e1c9"},"vehicle_type_id":"4","last_reported":1729671134,"current_range_meters":29600,"station_id":"ce4bhhh2rcd13ifvqfk0","pricing_plan_id":"cebpf4jnsgd1na2vs0mg"},{"bike_id":"a581c9ee-de6c-4ca2-adce-d873a10f1b7c","system_id":"levelo_inurba_marseille","lat":43.24079,"lon":5.37747,"is_reserved":false,"is_disabled":false,"rental_uris":{"android":"levelo://app?vid=a581c9ee-de6c-4ca2-adce-d873a10f1b7c","ios":"levelo://app?vid=a581c9ee-de6c-4ca2-adce-d873a10f1b7c"},"vehicle_type_id":"4","last_reported":1729671134,"current_range_meters":12000,"station_id":"ce4bhnp2rcd13ifvqgvg","pricing_plan_id":"cebpf4jnsgd1na2vs0mg"},{"bike_id":"33b2053d-bd1d-49f6-9dc6-9a0d8a900c29","system_id":"levelo_inurba_marseille","lat":43.24073,"lon":5.37752,"is_reserved":false,"is_disabled":false,"rental_uris":{"android":"levelo://app?vid=33b2053d-bd1d-49f6-9dc6-9a0d8a900c29","ios":"levelo://app?vid=33b2053d-bd1d-49f6-9dc6-9a0d8a900c29"},"vehicle_type_id":"4","last_reported":1729671134,"current_range_meters":20000,"station_id":"ce4bhnp2rcd13ifvqgvg","pricing_plan_id":"cebpf4jnsgd1na2vs0mg"},{"bike_id":"0b0ec054-192a-4106-bdb0-bbc08fd8b783","system_id":"levelo_inurba_marseille","lat":43.31997,"lon":5.38146,"is_reserved":false,"is_disabled":false,"rental_uris":{"android":"levelo://app?vid=0b0ec054-192a-4106-bdb0-bbc08fd8b783","ios":"levelo://app?vid=0b0ec054-192a-4106-bdb0-bbc08fd8b783"},"vehicle_type_id":"4","last_reported":1729671134,"current_range_meters":36000,"station_id":"ce4bhr12rcd13ifvqhpg","pricing_plan_id":"cebpf4jnsgd1na2vs0mg"},{"bike_id":"b2b3a5d2-308e-4489-8c55-aeb1cd1f9273","system_id":"levelo_inurba_marseille","lat":43.24076,"lon":5.37751,"is_reserved":false,"is_disabled":false,"rental_uris":{"android":"levelo://app?vid=b2b3a5d2-308e-4489-8c55-aeb1cd1f9273","ios":"levelo://app?vid=b2b3a5d2-308e-4489-8c55-aeb1cd1f9273"},"vehicle_type_id":"4","last_reported":1729671134,"current_range_meters":4400,"station_id":"ce4bhnp2rcd13ifvqgvg","pricing_plan_id":"cebpf4jnsgd1na2vs0mg"},{"bike_id":"aca71716-0ec5-4945-9900-99482cde9429","system_id":"levelo_inurba_marseille","lat":43.34139,"lon":5.409,"is_reserved":false,"is_disabled":false,"rental_uris":{"android":"levelo://app?vid=aca71716-0ec5-4945-9900-99482cde9429","ios":"levelo://app?vid=aca71716-0ec5-4945-9900-99482cde9429"},"vehicle_type_id":"4","last_reported":1729671134,"current_range_meters":24400,"station_id":"ce4bhqh2rcd13ifvqhlg","pricing_plan_id":"cebpf4jnsgd1na2vs0mg"},{"bike_id":"3345ed55-bebd-4d75-a40e-73c625d690c2","system_id":"levelo_inurba_marseille","lat":43.33752,"lon":5.37456,"is_reserved":false,"is_disabled":false,"rental_uris":{"android":"levelo://app?vid=3345ed55-bebd-4d75-a40e-73c625d690c2","ios":"levelo://app?vid=3345ed55-bebd-4d75-a40e-73c625d690c2"},"vehicle_type_id":"4","last_reported":1729671134,"current_range_meters":36800,"station_id":"","pricing_plan_id":"cebpf4jnsgd1na2vs0mg"},{"bike_id":"80d57ba5-2458-4a05-a634-2ad41a1a4a40","system_id":"levelo_inurba_marseille","lat":43.26958,"lon":5.38628,"is_reserved":false,"is_disabled":false,"rental_uris":{"android":"levelo://app?vid=80d57ba5-2458-4a05-a634-2ad41a1a4a40","ios":"levelo://app?vid=80d57ba5-2458-4a05-a634-2ad41a1a4a40"},"vehicle_type_id":"4","last_reported":1729671134,"current_range_meters":17600,"station_id":"ce4bhh92rcd13ifvqfh0","pricing_plan_id":"cebpf4jnsgd1na2vs0mg"},{"bike_id":"bf3cdac8-1828-4c5b-88c1-7d178598dc6a","system_id":"levelo_inurba_marseille","lat":43.30031,"lon":5.37313,"is_reserved":false,"is_disabled":false,"rental_uris":{"android":"levelo://app?vid=bf3cdac8-1828-4c5b-88c1-7d178598dc6a","ios":"levelo://app?vid=bf3cdac8-1828-4c5b-88c1-7d178598dc6a"},"vehicle_type_id":"4","last_reported":1729671134,"current_range_meters":12800,"station_id":"","pricing_plan_id":"cebpf4jnsgd1na2vs0mg"},{"bike_id":"ec3db7e2-a0a2-4dc6-8d37-06a004b32d49","system_id":"levelo_inurba_marseille","lat":43.30552,"lon":5.3655,"is_reserved":false,"is_disabled":false,"rental_uris":{"android":"levelo://app?vid=ec3db7e2-a0a2-4dc6-8d37-06a004b32d49","ios":"levelo://app?vid=ec3db7e2-a0a2-4dc6-8d37-06a004b32d49"},"vehicle_type_id":"4","last_reported":1729671134,"current_range_meters":36800,"station_id":"ce4bgs12rcd13ifvqcag","pricing_plan_id":"cebpf4jnsgd1na2vs0mg"},{"bike_id":"5c449356-4ac4-4d08-a405-c433fbe21a80","system_id":"levelo_inurba_marseille","lat":43.33737,"lon":5.37458,"is_reserved":false,"is_disabled":false,"rental_uris":{"android":"levelo://app?vid=5c449356-4ac4-4d08-a405-c433fbe21a80","ios":"levelo://app?vid=5c449356-4ac4-4d08-a405-c433fbe21a80"},"vehicle_type_id":"4","last_reported":1729671134,"current_range_meters":30400,"station_id":"","pricing_plan_id":"cebpf4jnsgd1na2vs0mg"},{"bike_id":"a34d4e86-e3fb-4711-863f-7eedb40d6428","system_id":"levelo_inurba_marseille","lat":43.29837,"lon":5.36267,"is_reserved":false,"is_disabled":false,"rental_uris":{"android":"levelo://app?vid=a34d4e86-e3fb-4711-863f-7eedb40d6428","ios":"levelo://app?vid=a34d4e86-e3fb-4711-863f-7eedb40d6428"},"vehicle_type_id":"4","last_reported":1729671134,"current_range_meters":38800,"station_id":"ce4bgpp2rcd13ifvqc3g","pricing_plan_id":"cebpf4jnsgd1na2vs0mg"},{"bike_id":"b537a7c5-9c86-4581-9304-b2cb5f9d166b","system_id":"levelo_inurba_marseille","lat":43.2407,"lon":5.37755,"is_reserved":false,"is_disabled":false,"rental_uris":{"android":"levelo://app?vid=b537a7c5-9c86-4581-9304-b2cb5f9d166b","ios":"levelo://app?vid=b537a7c5-9c86-4581-9304-b2cb5f9d166b"},"vehicle_type_id":"4","last_reported":1729671134,"current_range_meters":16400,"station_id":"ce4bhnp2rcd13ifvqgvg","pricing_plan_id":"cebpf4jnsgd1na2vs0mg"},{"bike_id":"80f01561-4f78-4d59-98de-f130f22341eb","system_id":"levelo_inurba_marseille","lat":43.28149,"lon":5.42639,"is_reserved":false,"is_disabled":false,"rental_uris":{"android":"levelo://app?vid=80f01561-4f78-4d59-98de-f130f22341eb","ios":"levelo://app?vid=80f01561-4f78-4d59-98de-f130f22341eb"},"vehicle_type_id":"4","last_reported":1729671134,"current_range_meters":3200,"station_id":"ce4bhnh2rcd13ifvqgug","pricing_plan_id":"cebpf4jnsgd1na2vs0mg"},{"bike_id":"0c6b11eb-50a7-4dc0-bff2-d8026011ec1d","system_id":"levelo_inurba_marseille","lat":43.24389,"lon":5.37057,"is_reserved":false,"is_disabled":false,"rental_uris":{"android":"levelo://app?vid=0c6b11eb-50a7-4dc0-bff2-d8026011ec1d","ios":"levelo://app?vid=0c6b11eb-50a7-4dc0-bff2-d8026011ec1d"},"vehicle_type_id":"4","last_reported":1729671134,"current_range_meters":40000,"station_id":"ce4bhhh2rcd13ifvqfk0","pricing_plan_id":"cebpf4jnsgd1na2vs0mg"},{"bike_id":"3571e33e-08e7-4c65-bcb7-4ff4abd18ba6","system_id":"levelo_inurba_marseille","lat":43.24165,"lon":5.36411,"is_reserved":false,"is_disabled":false,"rental_uris":{"android":"levelo://app?vid=3571e33e-08e7-4c65-bcb7-4ff4abd18ba6","ios":"levelo://app?vid=3571e33e-08e7-4c65-bcb7-4ff4abd18ba6"},"vehicle_type_id":"4","last_reported":1729671134,"current_range_meters":21600,"station_id":"cpo36qri1sfpv3e86is0","pricing_plan_id":"cebpf4jnsgd1na2vs0mg"},{"bike_id":"7bd3f984-c6d5-40e0-8912-1f50431a6a69","system_id":"levelo_inurba_marseille","lat":43.296387,"lon":5.37945,"is_reserved":false,"is_disabled":false,"rental_uris":{"android":"levelo://app?vid=7bd3f984-c6d5-40e0-8912-1f50431a6a69","ios":"levelo://app?vid=7bd3f984-c6d5-40e0-8912-1f50431a6a69"},"vehicle_type_id":"4","last_reported":1729671134,"current_range_meters":28000,"station_id":"ce4bgk12rcd13ifvqbj0","pricing_plan_id":"cebpf4jnsgd1na2vs0mg"},{"bike_id":"c769be1b-4262-45e1-ae17-91133a0a1d6c","system_id":"levelo_inurba_marseille","lat":43.3053,"lon":5.36659,"is_reserved":false,"is_disabled":false,"rental_uris":{"android":"levelo://app?vid=c769be1b-4262-45e1-ae17-91133a0a1d6c","ios":"levelo://app?vid=c769be1b-4262-45e1-ae17-91133a0a1d6c"},"vehicle_type_id":"4","last_reported":1729671134,"current_range_meters":12400,"station_id":"","pricing_plan_id":"cebpf4jnsgd1na2vs0mg"},{"bike_id":"4882a116-5452-4f97-bdbd-13df4cccb9d6","system_id":"levelo_inurba_marseille","lat":43.30595,"lon":5.3725,"is_reserved":false,"is_disabled":false,"rental_uris":{"android":"levelo://app?vid=4882a116-5452-4f97-bdbd-13df4cccb9d6","ios":"levelo://app?vid=4882a116-5452-4f97-bdbd-13df4cccb9d6"},"vehicle_type_id":"4","last_reported":1729671134,"current_range_meters":30400,"station_id":"ce4bgqh2rcd13ifvqc4g","pricing_plan_id":"cebpf4jnsgd1na2vs0mg"},{"bike_id":"7d5846f6-6f8a-4bd6-b113-eb064779c850","system_id":"levelo_inurba_marseille","lat":43.30141,"lon":5.37416,"is_reserved":false,"is_disabled":false,"rental_uris":{"android":"levelo://app?vid=7d5846f6-6f8a-4bd6-b113-eb064779c850","ios":"levelo://app?vid=7d5846f6-6f8a-4bd6-b113-eb064779c850"},"vehicle_type_id":"4","last_reported":1729671134,"current_range_meters":7200,"station_id":"ce4bgs92rcd13ifvqcc0","pricing_plan_id":"cebpf4jnsgd1na2vs0mg"},{"bike_id":"f69cf7c2-ecfc-49f3-9085-da04274eb32a","system_id":"levelo_inurba_marseille","lat":43.30143,"lon":5.37421,"is_reserved":false,"is_disabled":false,"rental_uris":{"android":"levelo://app?vid=f69cf7c2-ecfc-49f3-9085-da04274eb32a","ios":"levelo://app?vid=f69cf7c2-ecfc-49f3-9085-da04274eb32a"},"vehicle_type_id":"4","last_reported":1729671134,"current_range_meters":37600,"station_id":"ce4bgs92rcd13ifvqcc0","pricing_plan_id":"cebpf4jnsgd1na2vs0mg"},{"bike_id":"f584d48a-7b25-4b6e-b51a-15b6758a1e87","system_id":"levelo_inurba_marseille","lat":43.30148,"lon":5.38079,"is_reserved":false,"is_disabled":false,"rental_uris":{"android":"levelo://app?vid=f584d48a-7b25-4b6e-b51a-15b6758a1e87","ios":"levelo://app?vid=f584d48a-7b25-4b6e-b51a-15b6758a1e87"},"vehicle_type_id":"4","last_reported":1729671134,"current_range_meters":17600,"station_id":"ce4bgjp2rcd13ifvqbh0","pricing_plan_id":"cebpf4jnsgd1na2vs0mg"},{"bike_id":"71ea797b-da06-4327-92dc-47c13ec265e2","system_id":"levelo_inurba_marseille","lat":43.30547,"lon":5.3655,"is_reserved":false,"is_disabled":false,"rental_uris":{"android":"levelo://app?vid=71ea797b-da06-4327-92dc-47c13ec265e2","ios":"levelo://app?vid=71ea797b-da06-4327-92dc-47c13ec265e2"},"vehicle_type_id":"4","last_reported":1729671134,"current_range_meters":38800,"station_id":"ce4bgs12rcd13ifvqcag","pricing_plan_id":"cebpf4jnsgd1na2vs0mg"},{"bike_id":"04f008b0-7342-470c-97da-e8ae76fbc046","system_id":"levelo_inurba_marseille","lat":43.26483,"lon":5.39552,"is_reserved":false,"is_disabled":false,"rental_uris":{"android":"levelo://app?vid=04f008b0-7342-470c-97da-e8ae76fbc046","ios":"levelo://app?vid=04f008b0-7342-470c-97da-e8ae76fbc046"},"vehicle_type_id":"4","last_reported":1729671134,"current_range_meters":25600,"station_id":"ce4bhi12rcd13ifvqfq0","pricing_plan_id":"cebpf4jnsgd1na2vs0mg"},{"bike_id":"dd227e09-e22b-4ff7-98c4-b38f80028aa5","system_id":"levelo_inurba_marseille","lat":43.30541,"lon":5.36702,"is_reserved":false,"is_disabled":false,"rental_uris":{"android":"levelo://app?vid=dd227e09-e22b-4ff7-98c4-b38f80028aa5","ios":"levelo://app?vid=dd227e09-e22b-4ff7-98c4-b38f80028aa5"},"vehicle_type_id":"4","last_reported":1729671134,"current_range_meters":34000,"station_id":"ce4bgrp2rcd13ifvqc9g","pricing_plan_id":"cebpf4jnsgd1na2vs0mg"},{"bike_id":"03e455ca-db19-4914-ba3f-fe3463aa8ffe","system_id":"levelo_inurba_marseille","lat":43.27208,"lon":5.39177,"is_reserved":false,"is_disabled":false,"rental_uris":{"android":"levelo://app?vid=03e455ca-db19-4914-ba3f-fe3463aa8ffe","ios":"levelo://app?vid=03e455ca-db19-4914-ba3f-fe3463aa8ffe"},"vehicle_type_id":"4","last_reported":1729671134,"current_range_meters":38800,"station_id":"ce4bhhp2rcd13ifvqfm0","pricing_plan_id":"cebpf4jnsgd1na2vs0mg"},{"bike_id":"20e0b48a-077f-45c8-b5a5-1f4dcb4203d2","system_id":"levelo_inurba_marseille","lat":43.28154,"lon":5.42638,"is_reserved":false,"is_disabled":false,"rental_uris":{"android":"levelo://app?vid=20e0b48a-077f-45c8-b5a5-1f4dcb4203d2","ios":"levelo://app?vid=20e0b48a-077f-45c8-b5a5-1f4dcb4203d2"},"vehicle_type_id":"4","last_reported":1729671134,"current_range_meters":38400,"station_id":"ce4bhnh2rcd13ifvqgug","pricing_plan_id":"cebpf4jnsgd1na2vs0mg"},{"bike_id":"01af60f1-cbeb-41ea-a196-320b1e5ccedd","system_id":"levelo_inurba_marseille","lat":43.26952,"lon":5.38628,"is_reserved":false,"is_disabled":false,"rental_uris":{"android":"levelo://app?vid=01af60f1-cbeb-41ea-a196-320b1e5ccedd","ios":"levelo://app?vid=01af60f1-cbeb-41ea-a196-320b1e5ccedd"},"vehicle_type_id":"4","last_reported":1729671134,"current_range_meters":27600,"station_id":"ce4bhh92rcd13ifvqfh0","pricing_plan_id":"cebpf4jnsgd1na2vs0mg"},{"bike_id":"ece9390d-9e3c-4fc7-abf5-86a62859ddff","system_id":"levelo_inurba_marseille","lat":43.32477,"lon":5.3656,"is_reserved":false,"is_disabled":false,"rental_uris":{"android":"levelo://app?vid=ece9390d-9e3c-4fc7-abf5-86a62859ddff","ios":"levelo://app?vid=ece9390d-9e3c-4fc7-abf5-86a62859ddff"},"vehicle_type_id":"4","last_reported":1729671134,"current_range_meters":27200,"station_id":"ce4bhs12rcd13ifvqhvg","pricing_plan_id":"cebpf4jnsgd1na2vs0mg"},{"bike_id":"453cb995-a894-46df-9269-f03f72ceb225","system_id":"levelo_inurba_marseille","lat":43.27814,"lon":5.40713,"is_reserved":false,"is_disabled":false,"rental_uris":{"android":"levelo://app?vid=453cb995-a894-46df-9269-f03f72ceb225","ios":"levelo://app?vid=453cb995-a894-46df-9269-f03f72ceb225"},"vehicle_type_id":"4","last_reported":1729671134,"current_range_meters":23200,"station_id":"ce4bhnh2rcd13ifvqgtg","pricing_plan_id":"cebpf4jnsgd1na2vs0mg"},{"bike_id":"c1dd68a1-c7ba-4150-984a-0d34925357b2","system_id":"levelo_inurba_marseille","lat":43.27613,"lon":5.36115,"is_reserved":false,"is_disabled":false,"rental_uris":{"android":"levelo://app?vid=c1dd68a1-c7ba-4150-984a-0d34925357b2","ios":"levelo://app?vid=c1dd68a1-c7ba-4150-984a-0d34925357b2"},"vehicle_type_id":"4","last_reported":1729671134,"current_range_meters":26000,"station_id":"ce4bgj92rcd13ifvqbe0","pricing_plan_id":"cebpf4jnsgd1na2vs0mg"},{"bike_id":"474e8192-2c3d-4290-9dca-32a411415637","system_id":"levelo_inurba_marseille","lat":43.30468,"lon":5.37894,"is_reserved":false,"is_disabled":false,"rental_uris":{"android":"levelo://app?vid=474e8192-2c3d-4290-9dca-32a411415637","ios":"levelo://app?vid=474e8192-2c3d-4290-9dca-32a411415637"},"vehicle_type_id":"4","last_reported":1729671134,"current_range_meters":39200,"station_id":"ce4bgup2rcd13ifvqcn0","pricing_plan_id":"cebpf4jnsgd1na2vs0mg"},{"bike_id":"29a32d84-7dde-4434-aaf5-29d91fb210ed","system_id":"levelo_inurba_marseille","lat":43.24173,"lon":5.39726,"is_reserved":false,"is_disabled":false,"rental_uris":{"android":"levelo://app?vid=29a32d84-7dde-4434-aaf5-29d91fb210ed","ios":"levelo://app?vid=29a32d84-7dde-4434-aaf5-29d91fb210ed"},"vehicle_type_id":"4","last_reported":1729671134,"current_range_meters":16400,"station_id":"ce4bhn12rcd13ifvqgpg","pricing_plan_id":"cebpf4jnsgd1na2vs0mg"},{"bike_id":"bde5a3e1-2b27-4680-add5-25f6634f00df","system_id":"levelo_inurba_marseille","lat":43.27986,"lon":5.41659,"is_reserved":false,"is_disabled":false,"rental_uris":{"android":"levelo://app?vid=bde5a3e1-2b27-4680-add5-25f6634f00df","ios":"levelo://app?vid=bde5a3e1-2b27-4680-add5-25f6634f00df"},"vehicle_type_id":"4","last_reported":1729671134,"current_range_meters":6800,"station_id":"ce4bho12rcd13ifvqh1g","pricing_plan_id":"cebpf4jnsgd1na2vs0mg"},{"bike_id":"826111f3-bc2a-44d4-9f42-0c9f6041a7a9","system_id":"levelo_inurba_marseille","lat":43.25934,"lon":5.40908,"is_reserved":false,"is_disabled":false,"rental_uris":{"android":"levelo://app?vid=826111f3-bc2a-44d4-9f42-0c9f6041a7a9","ios":"levelo://app?vid=826111f3-bc2a-44d4-9f42-0c9f6041a7a9"},"vehicle_type_id":"4","last_reported":1729671134,"current_range_meters":36800,"station_id":"ce4bhm92rcd13ifvqglg","pricing_plan_id":"cebpf4jnsgd1na2vs0mg"},{"bike_id":"f9fb1680-a1e3-45b7-b9fb-e3e387b7ca04","system_id":"levelo_inurba_marseille","lat":43.27988,"lon":5.41661,"is_reserved":false,"is_disabled":false,"rental_uris":{"android":"levelo://app?vid=f9fb1680-a1e3-45b7-b9fb-e3e387b7ca04","ios":"levelo://app?vid=f9fb1680-a1e3-45b7-b9fb-e3e387b7ca04"},"vehicle_type_id":"4","last_reported":1729671134,"current_range_meters":33600,"station_id":"ce4bho12rcd13ifvqh1g","pricing_plan_id":"cebpf4jnsgd1na2vs0mg"},{"bike_id":"d08ac600-b85a-4a44-84b0-ee33725e24f7","system_id":"levelo_inurba_marseille","lat":43.32361,"lon":5.3888,"is_reserved":false,"is_disabled":false,"rental_uris":{"android":"levelo://app?vid=d08ac600-b85a-4a44-84b0-ee33725e24f7","ios":"levelo://app?vid=d08ac600-b85a-4a44-84b0-ee33725e24f7"},"vehicle_type_id":"4","last_reported":1729671134,"current_range_meters":30800,"station_id":"ce4bhqp2rcd13ifvqhog","pricing_plan_id":"cebpf4jnsgd1na2vs0mg"},{"bike_id":"6a3d026e-f423-4e19-905c-b73e2bbde2ea","system_id":"levelo_inurba_marseille","lat":43.27177,"lon":5.40988,"is_reserved":false,"is_disabled":false,"rental_uris":{"android":"levelo://app?vid=6a3d026e-f423-4e19-905c-b73e2bbde2ea","ios":"levelo://app?vid=6a3d026e-f423-4e19-905c-b73e2bbde2ea"},"vehicle_type_id":"4","last_reported":1729671134,"current_range_meters":38000,"station_id":"ce4bhl12rcd13ifvqgf0","pricing_plan_id":"cebpf4jnsgd1na2vs0mg"},{"bike_id":"73cad1db-feaf-47f8-8218-e74225abbcf6","system_id":"levelo_inurba_marseille","lat":43.29192,"lon":5.39318,"is_reserved":false,"is_disabled":false,"rental_uris":{"android":"levelo://app?vid=73cad1db-feaf-47f8-8218-e74225abbcf6","ios":"levelo://app?vid=73cad1db-feaf-47f8-8218-e74225abbcf6"},"vehicle_type_id":"4","last_reported":1729671134,"current_range_meters":32400,"station_id":"ce4bh192rcd13ifvqdd0","pricing_plan_id":"cebpf4jnsgd1na2vs0mg"},{"bike_id":"c0577493-6fdf-4288-93e2-1efb6212ffea","system_id":"levelo_inurba_marseille","lat":43.33021,"lon":5.39041,"is_reserved":false,"is_disabled":false,"rental_uris":{"android":"levelo://app?vid=c0577493-6fdf-4288-93e2-1efb6212ffea","ios":"levelo://app?vid=c0577493-6fdf-4288-93e2-1efb6212ffea"},"vehicle_type_id":"4","last_reported":1729671134,"current_range_meters":39200,"station_id":"ce4bhr92rcd13ifvqhrg","pricing_plan_id":"cebpf4jnsgd1na2vs0mg"},{"bike_id":"e5543379-3f25-4adb-a534-e64af83092d3","system_id":"levelo_inurba_marseille","lat":43.29576,"lon":5.36733,"is_reserved":false,"is_disabled":false,"rental_uris":{"android":"levelo://app?vid=e5543379-3f25-4adb-a534-e64af83092d3","ios":"levelo://app?vid=e5543379-3f25-4adb-a534-e64af83092d3"},"vehicle_type_id":"4","last_reported":1729671134,"current_range_meters":21600,"station_id":"ce4bgph2rcd13ifvqc2g","pricing_plan_id":"cebpf4jnsgd1na2vs0mg"},{"bike_id":"131fb6e1-6218-49c0-b715-43a836b29a1c","system_id":"levelo_inurba_marseille","lat":43.313567,"lon":5.367007,"is_reserved":false,"is_disabled":false,"rental_uris":{"android":"levelo://app?vid=131fb6e1-6218-49c0-b715-43a836b29a1c","ios":"levelo://app?vid=131fb6e1-6218-49c0-b715-43a836b29a1c"},"vehicle_type_id":"4","last_reported":1729671134,"current_range_meters":32400,"station_id":"ce4bgr92rcd13ifvqc6g","pricing_plan_id":"cebpf4jnsgd1na2vs0mg"},{"bike_id":"34395ae7-33a1-4c26-8194-827bdeeb57f1","system_id":"levelo_inurba_marseille","lat":43.29251,"lon":5.40893,"is_reserved":false,"is_disabled":false,"rental_uris":{"android":"levelo://app?vid=34395ae7-33a1-4c26-8194-827bdeeb57f1","ios":"levelo://app?vid=34395ae7-33a1-4c26-8194-827bdeeb57f1"},"vehicle_type_id":"4","last_reported":1729671134,"current_range_meters":23200,"station_id":"ce4bh192rcd13ifvqdc0","pricing_plan_id":"cebpf4jnsgd1na2vs0mg"},{"bike_id":"f5a53045-f9b0-4183-9fc6-73b35736d031","system_id":"levelo_inurba_marseille","lat":43.30276,"lon":5.37713,"is_reserved":false,"is_disabled":false,"rental_uris":{"android":"levelo://app?vid=f5a53045-f9b0-4183-9fc6-73b35736d031","ios":"levelo://app?vid=f5a53045-f9b0-4183-9fc6-73b35736d031"},"vehicle_type_id":"4","last_reported":1729671134,"current_range_meters":29600,"station_id":"ce4bguh2rcd13ifvqcj0","pricing_plan_id":"cebpf4jnsgd1na2vs0mg"},{"bike_id":"803a4aa2-3ff9-4fab-8dac-c46d7c886520","system_id":"levelo_inurba_marseille","lat":43.23153,"lon":5.43701,"is_reserved":false,"is_disabled":false,"rental_uris":{"android":"levelo://app?vid=803a4aa2-3ff9-4fab-8dac-c46d7c886520","ios":"levelo://app?vid=803a4aa2-3ff9-4fab-8dac-c46d7c886520"},"vehicle_type_id":"4","last_reported":1729671134,"current_range_meters":34800,"station_id":"ce4bhmp2rcd13ifvqgog","pricing_plan_id":"cebpf4jnsgd1na2vs0mg"},{"bike_id":"38486ab0-efb0-4b05-bf58-d9ae2deab94d","system_id":"levelo_inurba_marseille","lat":43.25575,"lon":5.38242,"is_reserved":false,"is_disabled":false,"rental_uris":{"android":"levelo://app?vid=38486ab0-efb0-4b05-bf58-d9ae2deab94d","ios":"levelo://app?vid=38486ab0-efb0-4b05-bf58-d9ae2deab94d"},"vehicle_type_id":"4","last_reported":1729671134,"current_range_meters":40000,"station_id":"ce4bhih2rcd13ifvqfs0","pricing_plan_id":"cebpf4jnsgd1na2vs0mg"},{"bike_id":"cbe10c03-fb85-436f-9ae4-c9a8a717f05b","system_id":"levelo_inurba_marseille","lat":43.31215,"lon":5.36844,"is_reserved":false,"is_disabled":false,"rental_uris":{"android":"levelo://app?vid=cbe10c03-fb85-436f-9ae4-c9a8a717f05b","ios":"levelo://app?vid=cbe10c03-fb85-436f-9ae4-c9a8a717f05b"},"vehicle_type_id":"4","last_reported":1729671134,"current_range_meters":12800,"station_id":"ce4bgl92rcd13ifvqbq0","pricing_plan_id":"cebpf4jnsgd1na2vs0mg"},{"bike_id":"4200acaf-bcdf-4804-8881-9af9a6d83263","system_id":"levelo_inurba_marseille","lat":43.27307,"lon":5.3909,"is_reserved":false,"is_disabled":false,"rental_uris":{"android":"levelo://app?vid=4200acaf-bcdf-4804-8881-9af9a6d83263","ios":"levelo://app?vid=4200acaf-bcdf-4804-8881-9af9a6d83263"},"vehicle_type_id":"4","last_reported":1729671134,"current_range_meters":19600,"station_id":"ce4bhgp2rcd13ifvqfe0","pricing_plan_id":"cebpf4jnsgd1na2vs0mg"},{"bike_id":"8d2c7c1e-6d12-498b-b468-a81148fd3c75","system_id":"levelo_inurba_marseille","lat":43.26684,"lon":5.38274,"is_reserved":false,"is_disabled":false,"rental_uris":{"android":"levelo://app?vid=8d2c7c1e-6d12-498b-b468-a81148fd3c75","ios":"levelo://app?vid=8d2c7c1e-6d12-498b-b468-a81148fd3c75"},"vehicle_type_id":"4","last_reported":1729671134,"current_range_meters":39200,"station_id":"ce4bhg92rcd13ifvqf90","pricing_plan_id":"cebpf4jnsgd1na2vs0mg"},{"bike_id":"20e7c36a-90bd-4572-8543-6491ffe2f43e","system_id":"levelo_inurba_marseille","lat":43.2408,"lon":5.37747,"is_reserved":false,"is_disabled":false,"rental_uris":{"android":"levelo://app?vid=20e7c36a-90bd-4572-8543-6491ffe2f43e","ios":"levelo://app?vid=20e7c36a-90bd-4572-8543-6491ffe2f43e"},"vehicle_type_id":"4","last_reported":1729671134,"current_range_meters":36800,"station_id":"ce4bhnp2rcd13ifvqgvg","pricing_plan_id":"cebpf4jnsgd1na2vs0mg"},{"bike_id":"1c8b02d9-5f08-476e-b7bd-fdf68c4881ee","system_id":"levelo_inurba_marseille","lat":43.29841,"lon":5.36273,"is_reserved":false,"is_disabled":false,"rental_uris":{"android":"levelo://app?vid=1c8b02d9-5f08-476e-b7bd-fdf68c4881ee","ios":"levelo://app?vid=1c8b02d9-5f08-476e-b7bd-fdf68c4881ee"},"vehicle_type_id":"4","last_reported":1729671134,"current_range_meters":38000,"station_id":"ce4bgpp2rcd13ifvqc3g","pricing_plan_id":"cebpf4jnsgd1na2vs0mg"},{"bike_id":"f4f4cedb-ee30-4d0e-addd-0835963f6da5","system_id":"levelo_inurba_marseille","lat":43.29463,"lon":5.44401,"is_reserved":false,"is_disabled":false,"rental_uris":{"android":"levelo://app?vid=f4f4cedb-ee30-4d0e-addd-0835963f6da5","ios":"levelo://app?vid=f4f4cedb-ee30-4d0e-addd-0835963f6da5"},"vehicle_type_id":"4","last_reported":1729671134,"current_range_meters":2800,"station_id":"","pricing_plan_id":"cebpf4jnsgd1na2vs0mg"},{"bike_id":"59c0bf37-891b-4db8-8fe1-87e51af2fc26","system_id":"levelo_inurba_marseille","lat":43.313572,"lon":5.36709,"is_reserved":false,"is_disabled":false,"rental_uris":{"android":"levelo://app?vid=59c0bf37-891b-4db8-8fe1-87e51af2fc26","ios":"levelo://app?vid=59c0bf37-891b-4db8-8fe1-87e51af2fc26"},"vehicle_type_id":"4","last_reported":1729671134,"current_range_meters":26800,"station_id":"ce4bgr92rcd13ifvqc6g","pricing_plan_id":"cebpf4jnsgd1na2vs0mg"},{"bike_id":"bc74935d-1660-44e5-bf16-e520e3b64275","system_id":"levelo_inurba_marseille","lat":43.29195,"lon":5.369,"is_reserved":false,"is_disabled":false,"rental_uris":{"android":"levelo://app?vid=bc74935d-1660-44e5-bf16-e520e3b64275","ios":"levelo://app?vid=bc74935d-1660-44e5-bf16-e520e3b64275"},"vehicle_type_id":"4","last_reported":1729671134,"current_range_meters":12400,"station_id":"","pricing_plan_id":"cebpf4jnsgd1na2vs0mg"},{"bike_id":"fd3d93e7-99f7-47eb-b079-2d8de5d8ae7c","system_id":"levelo_inurba_marseille","lat":43.30556,"lon":5.36541,"is_reserved":false,"is_disabled":false,"rental_uris":{"android":"levelo://app?vid=fd3d93e7-99f7-47eb-b079-2d8de5d8ae7c","ios":"levelo://app?vid=fd3d93e7-99f7-47eb-b079-2d8de5d8ae7c"},"vehicle_type_id":"4","last_reported":1729671134,"current_range_meters":40000,"station_id":"ce4bgs12rcd13ifvqcag","pricing_plan_id":"cebpf4jnsgd1na2vs0mg"},{"bike_id":"ac16ead3-cd01-4d34-814a-2a0ce3747710","system_id":"levelo_inurba_marseille","lat":43.2594,"lon":5.4091,"is_reserved":false,"is_disabled":false,"rental_uris":{"android":"levelo://app?vid=ac16ead3-cd01-4d34-814a-2a0ce3747710","ios":"levelo://app?vid=ac16ead3-cd01-4d34-814a-2a0ce3747710"},"vehicle_type_id":"4","last_reported":1729671134,"current_range_meters":26800,"station_id":"ce4bhm92rcd13ifvqglg","pricing_plan_id":"cebpf4jnsgd1na2vs0mg"},{"bike_id":"81adea8b-6332-4300-b49a-7f6a69d89899","system_id":"levelo_inurba_marseille","lat":43.31357,"lon":5.36694,"is_reserved":false,"is_disabled":false,"rental_uris":{"android":"levelo://app?vid=81adea8b-6332-4300-b49a-7f6a69d89899","ios":"levelo://app?vid=81adea8b-6332-4300-b49a-7f6a69d89899"},"vehicle_type_id":"4","last_reported":1729671134,"current_range_meters":26000,"station_id":"ce4bgr92rcd13ifvqc6g","pricing_plan_id":"cebpf4jnsgd1na2vs0mg"},{"bike_id":"0167b6fc-c66e-4b8a-9d97-50347f3f616d","system_id":"levelo_inurba_marseille","lat":43.30946,"lon":5.39042,"is_reserved":false,"is_disabled":false,"rental_uris":{"android":"levelo://app?vid=0167b6fc-c66e-4b8a-9d97-50347f3f616d","ios":"levelo://app?vid=0167b6fc-c66e-4b8a-9d97-50347f3f616d"},"vehicle_type_id":"4","last_reported":1729671134,"current_range_meters":28400,"station_id":"ce4bgup2rcd13ifvqco0","pricing_plan_id":"cebpf4jnsgd1na2vs0mg"},{"bike_id":"e8a8026c-2c38-4320-aaae-506332940bc7","system_id":"levelo_inurba_marseille","lat":43.33018,"lon":5.3903,"is_reserved":false,"is_disabled":false,"rental_uris":{"android":"levelo://app?vid=e8a8026c-2c38-4320-aaae-506332940bc7","ios":"levelo://app?vid=e8a8026c-2c38-4320-aaae-506332940bc7"},"vehicle_type_id":"4","last_reported":1729671134,"current_range_meters":38800,"station_id":"ce4bhr92rcd13ifvqhrg","pricing_plan_id":"cebpf4jnsgd1na2vs0mg"},{"bike_id":"6156f02b-3958-4604-bec9-6c5973c98f79","system_id":"levelo_inurba_marseille","lat":43.31747,"lon":5.39013,"is_reserved":false,"is_disabled":false,"rental_uris":{"android":"levelo://app?vid=6156f02b-3958-4604-bec9-6c5973c98f79","ios":"levelo://app?vid=6156f02b-3958-4604-bec9-6c5973c98f79"},"vehicle_type_id":"4","last_reported":1729671134,"current_range_meters":39200,"station_id":"ce4bhqp2rcd13ifvqhng","pricing_plan_id":"cebpf4jnsgd1na2vs0mg"},{"bike_id":"108be11e-07f8-4e0e-b4f9-616d7691da83","system_id":"levelo_inurba_marseille","lat":43.29954,"lon":5.38485,"is_reserved":false,"is_disabled":false,"rental_uris":{"android":"levelo://app?vid=108be11e-07f8-4e0e-b4f9-616d7691da83","ios":"levelo://app?vid=108be11e-07f8-4e0e-b4f9-616d7691da83"},"vehicle_type_id":"4","last_reported":1729671134,"current_range_meters":26800,"station_id":"","pricing_plan_id":"cebpf4jnsgd1na2vs0mg"},{"bike_id":"346b4736-f50b-4148-86a3-e7e011d04e73","system_id":"levelo_inurba_marseille","lat":43.27493,"lon":5.42452,"is_reserved":false,"is_disabled":false,"rental_uris":{"android":"levelo://app?vid=346b4736-f50b-4148-86a3-e7e011d04e73","ios":"levelo://app?vid=346b4736-f50b-4148-86a3-e7e011d04e73"},"vehicle_type_id":"4","last_reported":1729671134,"current_range_meters":31200,"station_id":"ce4bhn92rcd13ifvqgrg","pricing_plan_id":"cebpf4jnsgd1na2vs0mg"},{"bike_id":"ba6bfe25-6ebc-40ef-ad82-1bb8772b0770","system_id":"levelo_inurba_marseille","lat":43.27416,"lon":5.39422,"is_reserved":false,"is_disabled":false,"rental_uris":{"android":"levelo://app?vid=ba6bfe25-6ebc-40ef-ad82-1bb8772b0770","ios":"levelo://app?vid=ba6bfe25-6ebc-40ef-ad82-1bb8772b0770"},"vehicle_type_id":"4","last_reported":1729671134,"current_range_meters":18800,"station_id":"ce4bhdp2rcd13ifvqf20","pricing_plan_id":"cebpf4jnsgd1na2vs0mg"},{"bike_id":"a66c9e41-7e0c-4f5e-a6bb-05c49f6eeff8","system_id":"levelo_inurba_marseille","lat":43.29564,"lon":5.37511,"is_reserved":false,"is_disabled":false,"rental_uris":{"android":"levelo://app?vid=a66c9e41-7e0c-4f5e-a6bb-05c49f6eeff8","ios":"levelo://app?vid=a66c9e41-7e0c-4f5e-a6bb-05c49f6eeff8"},"vehicle_type_id":"4","last_reported":1729671134,"current_range_meters":25200,"station_id":"ce4bgh92rcd13ifvqb50","pricing_plan_id":"cebpf4jnsgd1na2vs0mg"},{"bike_id":"b7393e49-91da-4125-a929-c292a93434a4","system_id":"levelo_inurba_marseille","lat":43.24076,"lon":5.37745,"is_reserved":false,"is_disabled":false,"rental_uris":{"android":"levelo://app?vid=b7393e49-91da-4125-a929-c292a93434a4","ios":"levelo://app?vid=b7393e49-91da-4125-a929-c292a93434a4"},"vehicle_type_id":"4","last_reported":1729671134,"current_range_meters":24400,"station_id":"ce4bhnp2rcd13ifvqgvg","pricing_plan_id":"cebpf4jnsgd1na2vs0mg"},{"bike_id":"12135bd2-d32b-400b-8854-bf0b9249966d","system_id":"levelo_inurba_marseille","lat":43.25919,"lon":5.40922,"is_reserved":false,"is_disabled":false,"rental_uris":{"android":"levelo://app?vid=12135bd2-d32b-400b-8854-bf0b9249966d","ios":"levelo://app?vid=12135bd2-d32b-400b-8854-bf0b9249966d"},"vehicle_type_id":"4","last_reported":1729671134,"current_range_meters":29600,"station_id":"ce4bhm92rcd13ifvqglg","pricing_plan_id":"cebpf4jnsgd1na2vs0mg"},{"bike_id":"a43686e3-0069-495e-bb66-f12ba02ee769","system_id":"levelo_inurba_marseille","lat":43.30357,"lon":5.41881,"is_reserved":false,"is_disabled":false,"rental_uris":{"android":"levelo://app?vid=a43686e3-0069-495e-bb66-f12ba02ee769","ios":"levelo://app?vid=a43686e3-0069-495e-bb66-f12ba02ee769"},"vehicle_type_id":"4","last_reported":1729671134,"current_range_meters":38800,"station_id":"ce4bhop2rcd13ifvqh7g","pricing_plan_id":"cebpf4jnsgd1na2vs0mg"},{"bike_id":"9639bebd-201e-4b55-9187-2633b106e19c","system_id":"levelo_inurba_marseille","lat":43.3302,"lon":5.39034,"is_reserved":false,"is_disabled":false,"rental_uris":{"android":"levelo://app?vid=9639bebd-201e-4b55-9187-2633b106e19c","ios":"levelo://app?vid=9639bebd-201e-4b55-9187-2633b106e19c"},"vehicle_type_id":"4","last_reported":1729671134,"current_range_meters":39200,"station_id":"ce4bhr92rcd13ifvqhrg","pricing_plan_id":"cebpf4jnsgd1na2vs0mg"},{"bike_id":"a6ef77b6-ccc9-41b0-8272-3478a6980024","system_id":"levelo_inurba_marseille","lat":43.31359,"lon":5.36709,"is_reserved":false,"is_disabled":false,"rental_uris":{"android":"levelo://app?vid=a6ef77b6-ccc9-41b0-8272-3478a6980024","ios":"levelo://app?vid=a6ef77b6-ccc9-41b0-8272-3478a6980024"},"vehicle_type_id":"4","last_reported":1729671134,"current_range_meters":31200,"station_id":"ce4bgr92rcd13ifvqc6g","pricing_plan_id":"cebpf4jnsgd1na2vs0mg"},{"bike_id":"b711bd15-347d-439d-b0c3-bc3d75bef70c","system_id":"levelo_inurba_marseille","lat":43.25746,"lon":5.41058,"is_reserved":false,"is_disabled":false,"rental_uris":{"android":"levelo://app?vid=b711bd15-347d-439d-b0c3-bc3d75bef70c","ios":"levelo://app?vid=b711bd15-347d-439d-b0c3-bc3d75bef70c"},"vehicle_type_id":"4","last_reported":1729671134,"current_range_meters":38000,"station_id":"","pricing_plan_id":"cebpf4jnsgd1na2vs0mg"},{"bike_id":"93709edc-0189-48b5-a7e6-8d5a778f9a60","system_id":"levelo_inurba_marseille","lat":43.315277,"lon":5.38044,"is_reserved":false,"is_disabled":false,"rental_uris":{"android":"levelo://app?vid=93709edc-0189-48b5-a7e6-8d5a778f9a60","ios":"levelo://app?vid=93709edc-0189-48b5-a7e6-8d5a778f9a60"},"vehicle_type_id":"4","last_reported":1729671134,"current_range_meters":30000,"station_id":"","pricing_plan_id":"cebpf4jnsgd1na2vs0mg"},{"bike_id":"31d66bb5-81aa-4e93-a933-af250f93adb4","system_id":"levelo_inurba_marseille","lat":43.32536,"lon":5.41424,"is_reserved":false,"is_disabled":false,"rental_uris":{"android":"levelo://app?vid=31d66bb5-81aa-4e93-a933-af250f93adb4","ios":"levelo://app?vid=31d66bb5-81aa-4e93-a933-af250f93adb4"},"vehicle_type_id":"4","last_reported":1729671134,"current_range_meters":38800,"station_id":"ce4bhq12rcd13ifvqhhg","pricing_plan_id":"cebpf4jnsgd1na2vs0mg"},{"bike_id":"c2ce141d-6e76-44dc-931b-253d09157587","system_id":"levelo_inurba_marseille","lat":43.24993,"lon":5.38926,"is_reserved":false,"is_disabled":false,"rental_uris":{"android":"levelo://app?vid=c2ce141d-6e76-44dc-931b-253d09157587","ios":"levelo://app?vid=c2ce141d-6e76-44dc-931b-253d09157587"},"vehicle_type_id":"4","last_reported":1729671134,"current_range_meters":38400,"station_id":"ce4bhgp2rcd13ifvqfd0","pricing_plan_id":"cebpf4jnsgd1na2vs0mg"},{"bike_id":"0d060ab3-d900-48b0-ab80-1e91f46477f4","system_id":"levelo_inurba_marseille","lat":43.31331,"lon":5.39691,"is_reserved":false,"is_disabled":false,"rental_uris":{"android":"levelo://app?vid=0d060ab3-d900-48b0-ab80-1e91f46477f4","ios":"levelo://app?vid=0d060ab3-d900-48b0-ab80-1e91f46477f4"},"vehicle_type_id":"4","last_reported":1729671134,"current_range_meters":28800,"station_id":"ce4bgvp2rcd13ifvqcu0","pricing_plan_id":"cebpf4jnsgd1na2vs0mg"},{"bike_id":"3dcb748a-8f25-4e39-b9c8-4f1e9f8cf5cc","system_id":"levelo_inurba_marseille","lat":43.30902,"lon":5.36848,"is_reserved":false,"is_disabled":false,"rental_uris":{"android":"levelo://app?vid=3dcb748a-8f25-4e39-b9c8-4f1e9f8cf5cc","ios":"levelo://app?vid=3dcb748a-8f25-4e39-b9c8-4f1e9f8cf5cc"},"vehicle_type_id":"4","last_reported":1729671134,"current_range_meters":28400,"station_id":"ce4bgn92rcd13ifvqbvg","pricing_plan_id":"cebpf4jnsgd1na2vs0mg"},{"bike_id":"758c8815-d6d1-4eb0-87f2-4abe41c5d6cf","system_id":"levelo_inurba_marseille","lat":43.29555,"lon":5.42282,"is_reserved":false,"is_disabled":false,"rental_uris":{"android":"levelo://app?vid=758c8815-d6d1-4eb0-87f2-4abe41c5d6cf","ios":"levelo://app?vid=758c8815-d6d1-4eb0-87f2-4abe41c5d6cf"},"vehicle_type_id":"4","last_reported":1729671134,"current_range_meters":25600,"station_id":"ce4bhph2rcd13ifvqhdg","pricing_plan_id":"cebpf4jnsgd1na2vs0mg"},{"bike_id":"01ba26e2-e215-44eb-b82d-a9c7e7f43715","system_id":"levelo_inurba_marseille","lat":43.2937,"lon":5.37841,"is_reserved":false,"is_disabled":false,"rental_uris":{"android":"levelo://app?vid=01ba26e2-e215-44eb-b82d-a9c7e7f43715","ios":"levelo://app?vid=01ba26e2-e215-44eb-b82d-a9c7e7f43715"},"vehicle_type_id":"4","last_reported":1729671134,"current_range_meters":6400,"station_id":"ce4bgjh2rcd13ifvqbf0","pricing_plan_id":"cebpf4jnsgd1na2vs0mg"},{"bike_id":"33334458-340d-4084-9637-ae8a17e72710","system_id":"levelo_inurba_marseille","lat":43.30553,"lon":5.38401,"is_reserved":false,"is_disabled":false,"rental_uris":{"android":"levelo://app?vid=33334458-340d-4084-9637-ae8a17e72710","ios":"levelo://app?vid=33334458-340d-4084-9637-ae8a17e72710"},"vehicle_type_id":"4","last_reported":1729671134,"current_range_meters":37600,"station_id":"ce4bh4p2rcd13ifvqe1g","pricing_plan_id":"cebpf4jnsgd1na2vs0mg"},{"bike_id":"864575c1-85b8-4008-92ba-391073d4ed51","system_id":"levelo_inurba_marseille","lat":43.23194,"lon":5.35545,"is_reserved":false,"is_disabled":false,"rental_uris":{"android":"levelo://app?vid=864575c1-85b8-4008-92ba-391073d4ed51","ios":"levelo://app?vid=864575c1-85b8-4008-92ba-391073d4ed51"},"vehicle_type_id":"4","last_reported":1729671134,"current_range_meters":19600,"station_id":"ce4bhu92rcd13ifvqi70","pricing_plan_id":"cebpf4jnsgd1na2vs0mg"},{"bike_id":"d866835b-524a-4cff-8dc4-88cc4d6c8c24","system_id":"levelo_inurba_marseille","lat":43.23066,"lon":5.3549,"is_reserved":false,"is_disabled":false,"rental_uris":{"android":"levelo://app?vid=d866835b-524a-4cff-8dc4-88cc4d6c8c24","ios":"levelo://app?vid=d866835b-524a-4cff-8dc4-88cc4d6c8c24"},"vehicle_type_id":"4","last_reported":1729671134,"current_range_meters":27200,"station_id":"cpo3342slgdg3j2ifvpg","pricing_plan_id":"cebpf4jnsgd1na2vs0mg"},{"bike_id":"c8b1e0a6-2cf9-4b78-a570-aa54ab028092","system_id":"levelo_inurba_marseille","lat":43.337444,"lon":5.374475,"is_reserved":false,"is_disabled":false,"rental_uris":{"android":"levelo://app?vid=c8b1e0a6-2cf9-4b78-a570-aa54ab028092","ios":"levelo://app?vid=c8b1e0a6-2cf9-4b78-a570-aa54ab028092"},"vehicle_type_id":"4","last_reported":1729671134,"current_range_meters":38400,"station_id":"","pricing_plan_id":"cebpf4jnsgd1na2vs0mg"},{"bike_id":"23898820-4306-45f1-9da4-3bd6b163682b","system_id":"levelo_inurba_marseille","lat":43.27496,"lon":5.42451,"is_reserved":false,"is_disabled":false,"rental_uris":{"android":"levelo://app?vid=23898820-4306-45f1-9da4-3bd6b163682b","ios":"levelo://app?vid=23898820-4306-45f1-9da4-3bd6b163682b"},"vehicle_type_id":"4","last_reported":1729671134,"current_range_meters":33200,"station_id":"ce4bhn92rcd13ifvqgrg","pricing_plan_id":"cebpf4jnsgd1na2vs0mg"},{"bike_id":"2b6b36f0-918c-4869-bfa8-cd3d9c833656","system_id":"levelo_inurba_marseille","lat":43.2449,"lon":5.42528,"is_reserved":false,"is_disabled":false,"rental_uris":{"android":"levelo://app?vid=2b6b36f0-918c-4869-bfa8-cd3d9c833656","ios":"levelo://app?vid=2b6b36f0-918c-4869-bfa8-cd3d9c833656"},"vehicle_type_id":"4","last_reported":1729671134,"current_range_meters":30400,"station_id":"","pricing_plan_id":"cebpf4jnsgd1na2vs0mg"},{"bike_id":"4a93de88-f000-48b3-8c62-db765736ab0a","system_id":"levelo_inurba_marseille","lat":43.23149,"lon":5.43709,"is_reserved":false,"is_disabled":false,"rental_uris":{"android":"levelo://app?vid=4a93de88-f000-48b3-8c62-db765736ab0a","ios":"levelo://app?vid=4a93de88-f000-48b3-8c62-db765736ab0a"},"vehicle_type_id":"4","last_reported":1729671134,"current_range_meters":28000,"station_id":"ce4bhmp2rcd13ifvqgog","pricing_plan_id":"cebpf4jnsgd1na2vs0mg"},{"bike_id":"1104643c-4b3a-4d82-83c1-b7fa66e5b21d","system_id":"levelo_inurba_marseille","lat":43.2592,"lon":5.40923,"is_reserved":false,"is_disabled":false,"rental_uris":{"android":"levelo://app?vid=1104643c-4b3a-4d82-83c1-b7fa66e5b21d","ios":"levelo://app?vid=1104643c-4b3a-4d82-83c1-b7fa66e5b21d"},"vehicle_type_id":"4","last_reported":1729671134,"current_range_meters":30000,"station_id":"ce4bhm92rcd13ifvqglg","pricing_plan_id":"cebpf4jnsgd1na2vs0mg"},{"bike_id":"5b58dcfb-5507-4a17-8cb8-8f66d7e06861","system_id":"levelo_inurba_marseille","lat":43.2319,"lon":5.39977,"is_reserved":false,"is_disabled":false,"rental_uris":{"android":"levelo://app?vid=5b58dcfb-5507-4a17-8cb8-8f66d7e06861","ios":"levelo://app?vid=5b58dcfb-5507-4a17-8cb8-8f66d7e06861"},"vehicle_type_id":"4","last_reported":1729671134,"current_range_meters":38800,"station_id":"ce4bhn12rcd13ifvqgqg","pricing_plan_id":"cebpf4jnsgd1na2vs0mg"},{"bike_id":"46c48a07-1074-4ed1-8427-bac8dd69e380","system_id":"levelo_inurba_marseille","lat":43.3361,"lon":5.4103,"is_reserved":false,"is_disabled":false,"rental_uris":{"android":"levelo://app?vid=46c48a07-1074-4ed1-8427-bac8dd69e380","ios":"levelo://app?vid=46c48a07-1074-4ed1-8427-bac8dd69e380"},"vehicle_type_id":"4","last_reported":1729671134,"current_range_meters":12800,"station_id":"ce4bhqh2rcd13ifvqhmg","pricing_plan_id":"cebpf4jnsgd1na2vs0mg"},{"bike_id":"4f6e48e1-d18c-4ef1-8739-6f3d76585a44","system_id":"levelo_inurba_marseille","lat":43.24995,"lon":5.38934,"is_reserved":false,"is_disabled":false,"rental_uris":{"android":"levelo://app?vid=4f6e48e1-d18c-4ef1-8739-6f3d76585a44","ios":"levelo://app?vid=4f6e48e1-d18c-4ef1-8739-6f3d76585a44"},"vehicle_type_id":"4","last_reported":1729671134,"current_range_meters":36400,"station_id":"ce4bhgp2rcd13ifvqfd0","pricing_plan_id":"cebpf4jnsgd1na2vs0mg"},{"bike_id":"c803187e-448f-4d8d-ad3a-ff36110a20d0","system_id":"levelo_inurba_marseille","lat":43.31363,"lon":5.36687,"is_reserved":false,"is_disabled":false,"rental_uris":{"android":"levelo://app?vid=c803187e-448f-4d8d-ad3a-ff36110a20d0","ios":"levelo://app?vid=c803187e-448f-4d8d-ad3a-ff36110a20d0"},"vehicle_type_id":"4","last_reported":1729671134,"current_range_meters":40000,"station_id":"ce4bgr92rcd13ifvqc6g","pricing_plan_id":"cebpf4jnsgd1na2vs0mg"},{"bike_id":"2da73958-011a-4092-94a6-99a3e0d02e90","system_id":"levelo_inurba_marseille","lat":43.31358,"lon":5.36697,"is_reserved":false,"is_disabled":false,"rental_uris":{"android":"levelo://app?vid=2da73958-011a-4092-94a6-99a3e0d02e90","ios":"levelo://app?vid=2da73958-011a-4092-94a6-99a3e0d02e90"},"vehicle_type_id":"4","last_reported":1729671134,"current_range_meters":22400,"station_id":"ce4bgr92rcd13ifvqc6g","pricing_plan_id":"cebpf4jnsgd1na2vs0mg"},{"bike_id":"6b80f73c-0d12-48e1-80bb-4247d15b8c04","system_id":"levelo_inurba_marseille","lat":43.24495,"lon":5.42521,"is_reserved":false,"is_disabled":false,"rental_uris":{"android":"levelo://app?vid=6b80f73c-0d12-48e1-80bb-4247d15b8c04","ios":"levelo://app?vid=6b80f73c-0d12-48e1-80bb-4247d15b8c04"},"vehicle_type_id":"4","last_reported":1729671134,"current_range_meters":38800,"station_id":"","pricing_plan_id":"cebpf4jnsgd1na2vs0mg"},{"bike_id":"3633b442-1001-499a-ab73-6e73d6aaed5c","system_id":"levelo_inurba_marseille","lat":43.26563,"lon":5.39007,"is_reserved":false,"is_disabled":false,"rental_uris":{"android":"levelo://app?vid=3633b442-1001-499a-ab73-6e73d6aaed5c","ios":"levelo://app?vid=3633b442-1001-499a-ab73-6e73d6aaed5c"},"vehicle_type_id":"4","last_reported":1729671134,"current_range_meters":20800,"station_id":"ce4bhe12rcd13ifvqf30","pricing_plan_id":"cebpf4jnsgd1na2vs0mg"},{"bike_id":"b48f8c2d-a05e-4cee-bf57-4525735200ad","system_id":"levelo_inurba_marseille","lat":43.26677,"lon":5.38264,"is_reserved":false,"is_disabled":false,"rental_uris":{"android":"levelo://app?vid=b48f8c2d-a05e-4cee-bf57-4525735200ad","ios":"levelo://app?vid=b48f8c2d-a05e-4cee-bf57-4525735200ad"},"vehicle_type_id":"4","last_reported":1729671134,"current_range_meters":40000,"station_id":"ce4bhg92rcd13ifvqf90","pricing_plan_id":"cebpf4jnsgd1na2vs0mg"},{"bike_id":"51e54840-6eac-4c9b-9077-e239693ba7d6","system_id":"levelo_inurba_marseille","lat":43.30539,"lon":5.36718,"is_reserved":false,"is_disabled":false,"rental_uris":{"android":"levelo://app?vid=51e54840-6eac-4c9b-9077-e239693ba7d6","ios":"levelo://app?vid=51e54840-6eac-4c9b-9077-e239693ba7d6"},"vehicle_type_id":"4","last_reported":1729671134,"current_range_meters":28000,"station_id":"ce4bgrp2rcd13ifvqc9g","pricing_plan_id":"cebpf4jnsgd1na2vs0mg"},{"bike_id":"36e0d2d8-cfde-4309-b30f-8169a344dcee","system_id":"levelo_inurba_marseille","lat":43.27305,"lon":5.39088,"is_reserved":false,"is_disabled":false,"rental_uris":{"android":"levelo://app?vid=36e0d2d8-cfde-4309-b30f-8169a344dcee","ios":"levelo://app?vid=36e0d2d8-cfde-4309-b30f-8169a344dcee"},"vehicle_type_id":"4","last_reported":1729671134,"current_range_meters":36400,"station_id":"ce4bhgp2rcd13ifvqfe0","pricing_plan_id":"cebpf4jnsgd1na2vs0mg"},{"bike_id":"acaa65b8-5945-4836-8149-16f22818cf43","system_id":"levelo_inurba_marseille","lat":43.29956,"lon":5.38492,"is_reserved":false,"is_disabled":false,"rental_uris":{"android":"levelo://app?vid=acaa65b8-5945-4836-8149-16f22818cf43","ios":"levelo://app?vid=acaa65b8-5945-4836-8149-16f22818cf43"},"vehicle_type_id":"4","last_reported":1729671134,"current_range_meters":34800,"station_id":"","pricing_plan_id":"cebpf4jnsgd1na2vs0mg"},{"bike_id":"4899f6e6-1d55-4a75-bd49-d67101dac4e6","system_id":"levelo_inurba_marseille","lat":43.26927,"lon":5.38915,"is_reserved":false,"is_disabled":false,"rental_uris":{"android":"levelo://app?vid=4899f6e6-1d55-4a75-bd49-d67101dac4e6","ios":"levelo://app?vid=4899f6e6-1d55-4a75-bd49-d67101dac4e6"},"vehicle_type_id":"4","last_reported":1729671134,"current_range_meters":38800,"station_id":"ce4bhhh2rcd13ifvqfl0","pricing_plan_id":"cebpf4jnsgd1na2vs0mg"},{"bike_id":"e3ddf2b3-1206-4f35-9597-006ddf7fa22b","system_id":"levelo_inurba_marseille","lat":43.30945,"lon":5.39053,"is_reserved":false,"is_disabled":false,"rental_uris":{"android":"levelo://app?vid=e3ddf2b3-1206-4f35-9597-006ddf7fa22b","ios":"levelo://app?vid=e3ddf2b3-1206-4f35-9597-006ddf7fa22b"},"vehicle_type_id":"4","last_reported":1729671134,"current_range_meters":36000,"station_id":"ce4bgup2rcd13ifvqco0","pricing_plan_id":"cebpf4jnsgd1na2vs0mg"},{"bike_id":"1c2ecf5b-008c-4b67-8b3c-46122f7ae36e","system_id":"levelo_inurba_marseille","lat":43.31362,"lon":5.38493,"is_reserved":false,"is_disabled":false,"rental_uris":{"android":"levelo://app?vid=1c2ecf5b-008c-4b67-8b3c-46122f7ae36e","ios":"levelo://app?vid=1c2ecf5b-008c-4b67-8b3c-46122f7ae36e"},"vehicle_type_id":"4","last_reported":1729671134,"current_range_meters":14400,"station_id":"ce4bgt92rcd13ifvqcf0","pricing_plan_id":"cebpf4jnsgd1na2vs0mg"},{"bike_id":"e20eacab-28c4-4862-9c97-caa408edf48c","system_id":"levelo_inurba_marseille","lat":43.23183,"lon":5.39984,"is_reserved":false,"is_disabled":false,"rental_uris":{"android":"levelo://app?vid=e20eacab-28c4-4862-9c97-caa408edf48c","ios":"levelo://app?vid=e20eacab-28c4-4862-9c97-caa408edf48c"},"vehicle_type_id":"4","last_reported":1729671134,"current_range_meters":24400,"station_id":"ce4bhn12rcd13ifvqgqg","pricing_plan_id":"cebpf4jnsgd1na2vs0mg"},{"bike_id":"a44d79ac-6706-403f-a5b5-31743a1bcea6","system_id":"levelo_inurba_marseille","lat":43.29946,"lon":5.38508,"is_reserved":false,"is_disabled":false,"rental_uris":{"android":"levelo://app?vid=a44d79ac-6706-403f-a5b5-31743a1bcea6","ios":"levelo://app?vid=a44d79ac-6706-403f-a5b5-31743a1bcea6"},"vehicle_type_id":"4","last_reported":1729671134,"current_range_meters":32800,"station_id":"","pricing_plan_id":"cebpf4jnsgd1na2vs0mg"},{"bike_id":"3c3b48bb-f8a9-4ae9-82bb-3bca79d11ade","system_id":"levelo_inurba_marseille","lat":43.30544,"lon":5.36706,"is_reserved":false,"is_disabled":false,"rental_uris":{"android":"levelo://app?vid=3c3b48bb-f8a9-4ae9-82bb-3bca79d11ade","ios":"levelo://app?vid=3c3b48bb-f8a9-4ae9-82bb-3bca79d11ade"},"vehicle_type_id":"4","last_reported":1729671134,"current_range_meters":26800,"station_id":"ce4bgrp2rcd13ifvqc9g","pricing_plan_id":"cebpf4jnsgd1na2vs0mg"},{"bike_id":"c04ab802-f35d-4e5d-8440-52e2f675fa64","system_id":"levelo_inurba_marseille","lat":43.231633,"lon":5.436796,"is_reserved":false,"is_disabled":false,"rental_uris":{"android":"levelo://app?vid=c04ab802-f35d-4e5d-8440-52e2f675fa64","ios":"levelo://app?vid=c04ab802-f35d-4e5d-8440-52e2f675fa64"},"vehicle_type_id":"4","last_reported":1729671134,"current_range_meters":38800,"station_id":"ce4bhmp2rcd13ifvqgog","pricing_plan_id":"cebpf4jnsgd1na2vs0mg"},{"bike_id":"5c0a0b6a-7ef6-41f8-99b8-35c91ac6fd8e","system_id":"levelo_inurba_marseille","lat":43.31357,"lon":5.36709,"is_reserved":false,"is_disabled":false,"rental_uris":{"android":"levelo://app?vid=5c0a0b6a-7ef6-41f8-99b8-35c91ac6fd8e","ios":"levelo://app?vid=5c0a0b6a-7ef6-41f8-99b8-35c91ac6fd8e"},"vehicle_type_id":"4","last_reported":1729671134,"current_range_meters":35600,"station_id":"ce4bgr92rcd13ifvqc6g","pricing_plan_id":"cebpf4jnsgd1na2vs0mg"},{"bike_id":"a0981640-b2cf-471d-9209-74b7def922a1","system_id":"levelo_inurba_marseille","lat":43.30912,"lon":5.36845,"is_reserved":false,"is_disabled":false,"rental_uris":{"android":"levelo://app?vid=a0981640-b2cf-471d-9209-74b7def922a1","ios":"levelo://app?vid=a0981640-b2cf-471d-9209-74b7def922a1"},"vehicle_type_id":"4","last_reported":1729671134,"current_range_meters":10000,"station_id":"ce4bgn92rcd13ifvqbvg","pricing_plan_id":"cebpf4jnsgd1na2vs0mg"},{"bike_id":"f7436227-8593-4258-8d76-388d13547bae","system_id":"levelo_inurba_marseille","lat":43.33613,"lon":5.41027,"is_reserved":false,"is_disabled":false,"rental_uris":{"android":"levelo://app?vid=f7436227-8593-4258-8d76-388d13547bae","ios":"levelo://app?vid=f7436227-8593-4258-8d76-388d13547bae"},"vehicle_type_id":"4","last_reported":1729671134,"current_range_meters":16800,"station_id":"ce4bhqh2rcd13ifvqhmg","pricing_plan_id":"cebpf4jnsgd1na2vs0mg"},{"bike_id":"ad76b695-2c79-4582-929b-c0772423a60b","system_id":"levelo_inurba_marseille","lat":43.337444,"lon":5.374475,"is_reserved":false,"is_disabled":false,"rental_uris":{"android":"levelo://app?vid=ad76b695-2c79-4582-929b-c0772423a60b","ios":"levelo://app?vid=ad76b695-2c79-4582-929b-c0772423a60b"},"vehicle_type_id":"4","last_reported":1729671134,"current_range_meters":23200,"station_id":"","pricing_plan_id":"cebpf4jnsgd1na2vs0mg"},{"bike_id":"bdd98d7d-7dad-4fba-affb-fa998522963b","system_id":"levelo_inurba_marseille","lat":43.28103,"lon":5.37837,"is_reserved":false,"is_disabled":false,"rental_uris":{"android":"levelo://app?vid=bdd98d7d-7dad-4fba-affb-fa998522963b","ios":"levelo://app?vid=bdd98d7d-7dad-4fba-affb-fa998522963b"},"vehicle_type_id":"4","last_reported":1729671134,"current_range_meters":40000,"station_id":"ce4bha12rcd13ifvqee0","pricing_plan_id":"cebpf4jnsgd1na2vs0mg"},{"bike_id":"ad9de5b6-177b-4378-9830-1f58fb51f4e4","system_id":"levelo_inurba_marseille","lat":43.31352,"lon":5.36705,"is_reserved":false,"is_disabled":false,"rental_uris":{"android":"levelo://app?vid=ad9de5b6-177b-4378-9830-1f58fb51f4e4","ios":"levelo://app?vid=ad9de5b6-177b-4378-9830-1f58fb51f4e4"},"vehicle_type_id":"4","last_reported":1729671134,"current_range_meters":12800,"station_id":"ce4bgr92rcd13ifvqc6g","pricing_plan_id":"cebpf4jnsgd1na2vs0mg"},{"bike_id":"fe269560-e2b9-488b-9e4b-72beadfad0e4","system_id":"levelo_inurba_marseille","lat":43.30279,"lon":5.37707,"is_reserved":false,"is_disabled":false,"rental_uris":{"android":"levelo://app?vid=fe269560-e2b9-488b-9e4b-72beadfad0e4","ios":"levelo://app?vid=fe269560-e2b9-488b-9e4b-72beadfad0e4"},"vehicle_type_id":"4","last_reported":1729671134,"current_range_meters":40000,"station_id":"ce4bguh2rcd13ifvqcj0","pricing_plan_id":"cebpf4jnsgd1na2vs0mg"},{"bike_id":"9bf3276f-a487-4335-8e6e-36b06e93bdd5","system_id":"levelo_inurba_marseille","lat":43.26939,"lon":5.40249,"is_reserved":false,"is_disabled":false,"rental_uris":{"android":"levelo://app?vid=9bf3276f-a487-4335-8e6e-36b06e93bdd5","ios":"levelo://app?vid=9bf3276f-a487-4335-8e6e-36b06e93bdd5"},"vehicle_type_id":"4","last_reported":1729671134,"current_range_meters":28800,"station_id":"cjm6bp8fraef2m0cb0m0","pricing_plan_id":"cebpf4jnsgd1na2vs0mg"},{"bike_id":"f25aa99e-7229-499e-97f6-1721148d5a06","system_id":"levelo_inurba_marseille","lat":43.27824,"lon":5.39211,"is_reserved":false,"is_disabled":false,"rental_uris":{"android":"levelo://app?vid=f25aa99e-7229-499e-97f6-1721148d5a06","ios":"levelo://app?vid=f25aa99e-7229-499e-97f6-1721148d5a06"},"vehicle_type_id":"4","last_reported":1729671134,"current_range_meters":38000,"station_id":"ce4bhjp2rcd13ifvqga0","pricing_plan_id":"cebpf4jnsgd1na2vs0mg"},{"bike_id":"ac1f3f03-0071-47c1-b4fb-f76f956d3ec6","system_id":"levelo_inurba_marseille","lat":43.33719,"lon":5.39183,"is_reserved":false,"is_disabled":false,"rental_uris":{"android":"levelo://app?vid=ac1f3f03-0071-47c1-b4fb-f76f956d3ec6","ios":"levelo://app?vid=ac1f3f03-0071-47c1-b4fb-f76f956d3ec6"},"vehicle_type_id":"4","last_reported":1729671134,"current_range_meters":38400,"station_id":"ce4bhr92rcd13ifvqhsg","pricing_plan_id":"cebpf4jnsgd1na2vs0mg"},{"bike_id":"0824ca51-dbbf-47f1-8a43-2612dbdf03a3","system_id":"levelo_inurba_marseille","lat":43.24071,"lon":5.37754,"is_reserved":false,"is_disabled":false,"rental_uris":{"android":"levelo://app?vid=0824ca51-dbbf-47f1-8a43-2612dbdf03a3","ios":"levelo://app?vid=0824ca51-dbbf-47f1-8a43-2612dbdf03a3"},"vehicle_type_id":"4","last_reported":1729671134,"current_range_meters":31200,"station_id":"ce4bhnp2rcd13ifvqgvg","pricing_plan_id":"cebpf4jnsgd1na2vs0mg"},{"bike_id":"9079b4a8-db0c-4066-8c6a-5a012384c461","system_id":"levelo_inurba_marseille","lat":43.24075,"lon":5.37755,"is_reserved":false,"is_disabled":false,"rental_uris":{"android":"levelo://app?vid=9079b4a8-db0c-4066-8c6a-5a012384c461","ios":"levelo://app?vid=9079b4a8-db0c-4066-8c6a-5a012384c461"},"vehicle_type_id":"4","last_reported":1729671134,"current_range_meters":9600,"station_id":"ce4bhnp2rcd13ifvqgvg","pricing_plan_id":"cebpf4jnsgd1na2vs0mg"},{"bike_id":"e5f13f28-f8d4-4ce8-836c-dc1c942c7da6","system_id":"levelo_inurba_marseille","lat":43.30532,"lon":5.36564,"is_reserved":false,"is_disabled":false,"rental_uris":{"android":"levelo://app?vid=e5f13f28-f8d4-4ce8-836c-dc1c942c7da6","ios":"levelo://app?vid=e5f13f28-f8d4-4ce8-836c-dc1c942c7da6"},"vehicle_type_id":"4","last_reported":1729671134,"current_range_meters":9200,"station_id":"ce4bgs12rcd13ifvqcag","pricing_plan_id":"cebpf4jnsgd1na2vs0mg"},{"bike_id":"f150557d-c6f5-47b4-9419-e627b3c26651","system_id":"levelo_inurba_marseille","lat":43.26193,"lon":5.37447,"is_reserved":false,"is_disabled":false,"rental_uris":{"android":"levelo://app?vid=f150557d-c6f5-47b4-9419-e627b3c26651","ios":"levelo://app?vid=f150557d-c6f5-47b4-9419-e627b3c26651"},"vehicle_type_id":"4","last_reported":1729671134,"current_range_meters":30000,"station_id":"ce4bhgp2rcd13ifvqfc0","pricing_plan_id":"cebpf4jnsgd1na2vs0mg"},{"bike_id":"547c7232-52ae-4113-b72e-784726fa89fb","system_id":"levelo_inurba_marseille","lat":43.26204,"lon":5.37925,"is_reserved":false,"is_disabled":false,"rental_uris":{"android":"levelo://app?vid=547c7232-52ae-4113-b72e-784726fa89fb","ios":"levelo://app?vid=547c7232-52ae-4113-b72e-784726fa89fb"},"vehicle_type_id":"4","last_reported":1729671134,"current_range_meters":23200,"station_id":"ce4bhjp2rcd13ifvqg90","pricing_plan_id":"cebpf4jnsgd1na2vs0mg"},{"bike_id":"3d443a61-e973-47a9-85d9-4c420a34ec27","system_id":"levelo_inurba_marseille","lat":43.2593,"lon":5.40908,"is_reserved":false,"is_disabled":false,"rental_uris":{"android":"levelo://app?vid=3d443a61-e973-47a9-85d9-4c420a34ec27","ios":"levelo://app?vid=3d443a61-e973-47a9-85d9-4c420a34ec27"},"vehicle_type_id":"4","last_reported":1729671134,"current_range_meters":27600,"station_id":"ce4bhm92rcd13ifvqglg","pricing_plan_id":"cebpf4jnsgd1na2vs0mg"},{"bike_id":"c5708d6c-4196-45ca-914e-1f9791ab365b","system_id":"levelo_inurba_marseille","lat":43.25919,"lon":5.40917,"is_reserved":false,"is_disabled":false,"rental_uris":{"android":"levelo://app?vid=c5708d6c-4196-45ca-914e-1f9791ab365b","ios":"levelo://app?vid=c5708d6c-4196-45ca-914e-1f9791ab365b"},"vehicle_type_id":"4","last_reported":1729671134,"current_range_meters":13600,"station_id":"ce4bhm92rcd13ifvqglg","pricing_plan_id":"cebpf4jnsgd1na2vs0mg"},{"bike_id":"29665abb-bb05-4470-bec8-a92af688bd5f","system_id":"levelo_inurba_marseille","lat":43.29556,"lon":5.42282,"is_reserved":false,"is_disabled":false,"rental_uris":{"android":"levelo://app?vid=29665abb-bb05-4470-bec8-a92af688bd5f","ios":"levelo://app?vid=29665abb-bb05-4470-bec8-a92af688bd5f"},"vehicle_type_id":"4","last_reported":1729671134,"current_range_meters":30400,"station_id":"ce4bhph2rcd13ifvqhdg","pricing_plan_id":"cebpf4jnsgd1na2vs0mg"},{"bike_id":"c5d8c911-357b-47f1-b801-6b9c27a2b4f9","system_id":"levelo_inurba_marseille","lat":43.28156,"lon":5.42634,"is_reserved":false,"is_disabled":false,"rental_uris":{"android":"levelo://app?vid=c5d8c911-357b-47f1-b801-6b9c27a2b4f9","ios":"levelo://app?vid=c5d8c911-357b-47f1-b801-6b9c27a2b4f9"},"vehicle_type_id":"4","last_reported":1729671134,"current_range_meters":19200,"station_id":"ce4bhnh2rcd13ifvqgug","pricing_plan_id":"cebpf4jnsgd1na2vs0mg"},{"bike_id":"ffe855c4-4fd2-4bc9-9768-2d5ddb1326c1","system_id":"levelo_inurba_marseille","lat":43.25113,"lon":5.4032,"is_reserved":false,"is_disabled":false,"rental_uris":{"android":"levelo://app?vid=ffe855c4-4fd2-4bc9-9768-2d5ddb1326c1","ios":"levelo://app?vid=ffe855c4-4fd2-4bc9-9768-2d5ddb1326c1"},"vehicle_type_id":"4","last_reported":1729671134,"current_range_meters":11200,"station_id":"ce4bhlh2rcd13ifvqgig","pricing_plan_id":"cebpf4jnsgd1na2vs0mg"},{"bike_id":"c3945b60-e38d-4106-8f18-92c7f436cc4f","system_id":"levelo_inurba_marseille","lat":43.33753,"lon":5.37451,"is_reserved":false,"is_disabled":false,"rental_uris":{"android":"levelo://app?vid=c3945b60-e38d-4106-8f18-92c7f436cc4f","ios":"levelo://app?vid=c3945b60-e38d-4106-8f18-92c7f436cc4f"},"vehicle_type_id":"4","last_reported":1729671134,"current_range_meters":28000,"station_id":"","pricing_plan_id":"cebpf4jnsgd1na2vs0mg"},{"bike_id":"5aa8bf13-6e93-41bb-9a67-d70ad261ecbb","system_id":"levelo_inurba_marseille","lat":43.30794,"lon":5.43521,"is_reserved":false,"is_disabled":false,"rental_uris":{"android":"levelo://app?vid=5aa8bf13-6e93-41bb-9a67-d70ad261ecbb","ios":"levelo://app?vid=5aa8bf13-6e93-41bb-9a67-d70ad261ecbb"},"vehicle_type_id":"4","last_reported":1729671134,"current_range_meters":28000,"station_id":"ce4bhph2rcd13ifvqheg","pricing_plan_id":"cebpf4jnsgd1na2vs0mg"},{"bike_id":"362dd47a-a0a2-4fcc-86ce-5b0a1c4cac31","system_id":"levelo_inurba_marseille","lat":43.27367,"lon":5.36256,"is_reserved":false,"is_disabled":false,"rental_uris":{"android":"levelo://app?vid=362dd47a-a0a2-4fcc-86ce-5b0a1c4cac31","ios":"levelo://app?vid=362dd47a-a0a2-4fcc-86ce-5b0a1c4cac31"},"vehicle_type_id":"4","last_reported":1729671134,"current_range_meters":38800,"station_id":"ce4bhbh2rcd13ifvqeo0","pricing_plan_id":"cebpf4jnsgd1na2vs0mg"},{"bike_id":"78018770-86ea-4404-8452-ce018255cd17","system_id":"levelo_inurba_marseille","lat":43.22927,"lon":5.35379,"is_reserved":false,"is_disabled":false,"rental_uris":{"android":"levelo://app?vid=78018770-86ea-4404-8452-ce018255cd17","ios":"levelo://app?vid=78018770-86ea-4404-8452-ce018255cd17"},"vehicle_type_id":"4","last_reported":1729671134,"current_range_meters":20000,"station_id":"cpo3532slgdg3j2ikp40","pricing_plan_id":"cebpf4jnsgd1na2vs0mg"},{"bike_id":"5304e6d2-a025-4504-9ff2-0054277e008d","system_id":"levelo_inurba_marseille","lat":43.27369,"lon":5.3626,"is_reserved":false,"is_disabled":false,"rental_uris":{"android":"levelo://app?vid=5304e6d2-a025-4504-9ff2-0054277e008d","ios":"levelo://app?vid=5304e6d2-a025-4504-9ff2-0054277e008d"},"vehicle_type_id":"4","last_reported":1729671134,"current_range_meters":38800,"station_id":"ce4bhbh2rcd13ifvqeo0","pricing_plan_id":"cebpf4jnsgd1na2vs0mg"},{"bike_id":"b7b5eb66-a856-4a84-82cc-7d49c1519abe","system_id":"levelo_inurba_marseille","lat":43.31351,"lon":5.36709,"is_reserved":false,"is_disabled":false,"rental_uris":{"android":"levelo://app?vid=b7b5eb66-a856-4a84-82cc-7d49c1519abe","ios":"levelo://app?vid=b7b5eb66-a856-4a84-82cc-7d49c1519abe"},"vehicle_type_id":"4","last_reported":1729671134,"current_range_meters":36000,"station_id":"ce4bgr92rcd13ifvqc6g","pricing_plan_id":"cebpf4jnsgd1na2vs0mg"},{"bike_id":"0ee38f66-ee8f-4341-8b97-438d0d625d0c","system_id":"levelo_inurba_marseille","lat":43.3027,"lon":5.3771,"is_reserved":false,"is_disabled":false,"rental_uris":{"android":"levelo://app?vid=0ee38f66-ee8f-4341-8b97-438d0d625d0c","ios":"levelo://app?vid=0ee38f66-ee8f-4341-8b97-438d0d625d0c"},"vehicle_type_id":"4","last_reported":1729671134,"current_range_meters":40000,"station_id":"ce4bguh2rcd13ifvqcj0","pricing_plan_id":"cebpf4jnsgd1na2vs0mg"},{"bike_id":"fba1569d-7109-462c-8ea7-32115fee226a","system_id":"levelo_inurba_marseille","lat":43.32334,"lon":5.40618,"is_reserved":false,"is_disabled":false,"rental_uris":{"android":"levelo://app?vid=fba1569d-7109-462c-8ea7-32115fee226a","ios":"levelo://app?vid=fba1569d-7109-462c-8ea7-32115fee226a"},"vehicle_type_id":"4","last_reported":1729671134,"current_range_meters":36800,"station_id":"ce4bhq92rcd13ifvqhjg","pricing_plan_id":"cebpf4jnsgd1na2vs0mg"},{"bike_id":"1135af4d-b7d7-4190-b0cb-6113c69ae2ea","system_id":"levelo_inurba_marseille","lat":43.2737,"lon":5.36252,"is_reserved":false,"is_disabled":false,"rental_uris":{"android":"levelo://app?vid=1135af4d-b7d7-4190-b0cb-6113c69ae2ea","ios":"levelo://app?vid=1135af4d-b7d7-4190-b0cb-6113c69ae2ea"},"vehicle_type_id":"4","last_reported":1729671134,"current_range_meters":39200,"station_id":"ce4bhbh2rcd13ifvqeo0","pricing_plan_id":"cebpf4jnsgd1na2vs0mg"},{"bike_id":"e42e5786-e1e5-4d1a-8aeb-2e2155877455","system_id":"levelo_inurba_marseille","lat":43.30462,"lon":5.37891,"is_reserved":false,"is_disabled":false,"rental_uris":{"android":"levelo://app?vid=e42e5786-e1e5-4d1a-8aeb-2e2155877455","ios":"levelo://app?vid=e42e5786-e1e5-4d1a-8aeb-2e2155877455"},"vehicle_type_id":"4","last_reported":1729671134,"current_range_meters":26000,"station_id":"ce4bgup2rcd13ifvqcn0","pricing_plan_id":"cebpf4jnsgd1na2vs0mg"},{"bike_id":"02b0b3bc-c705-489f-8c03-49469db196ea","system_id":"levelo_inurba_marseille","lat":43.29965,"lon":5.38493,"is_reserved":false,"is_disabled":false,"rental_uris":{"android":"levelo://app?vid=02b0b3bc-c705-489f-8c03-49469db196ea","ios":"levelo://app?vid=02b0b3bc-c705-489f-8c03-49469db196ea"},"vehicle_type_id":"4","last_reported":1729671134,"current_range_meters":28400,"station_id":"ce4bgj92rcd13ifvqbd0","pricing_plan_id":"cebpf4jnsgd1na2vs0mg"},{"bike_id":"1d3c2354-bb06-46ef-82cb-7b20702826e7","system_id":"levelo_inurba_marseille","lat":43.3133,"lon":5.36712,"is_reserved":false,"is_disabled":false,"rental_uris":{"android":"levelo://app?vid=1d3c2354-bb06-46ef-82cb-7b20702826e7","ios":"levelo://app?vid=1d3c2354-bb06-46ef-82cb-7b20702826e7"},"vehicle_type_id":"4","last_reported":1729671134,"current_range_meters":40000,"station_id":"ce4bgr92rcd13ifvqc6g","pricing_plan_id":"cebpf4jnsgd1na2vs0mg"},{"bike_id":"2ffc525d-414e-4e6a-b1e3-b817d93add95","system_id":"levelo_inurba_marseille","lat":43.29733,"lon":5.37676,"is_reserved":false,"is_disabled":false,"rental_uris":{"android":"levelo://app?vid=2ffc525d-414e-4e6a-b1e3-b817d93add95","ios":"levelo://app?vid=2ffc525d-414e-4e6a-b1e3-b817d93add95"},"vehicle_type_id":"4","last_reported":1729671134,"current_range_meters":30400,"station_id":"ce4bgkh2rcd13ifvqbl0","pricing_plan_id":"cebpf4jnsgd1na2vs0mg"},{"bike_id":"a2c3faca-c50d-4927-9f48-fb73bd82963d","system_id":"levelo_inurba_marseille","lat":43.33755,"lon":5.37455,"is_reserved":false,"is_disabled":false,"rental_uris":{"android":"levelo://app?vid=a2c3faca-c50d-4927-9f48-fb73bd82963d","ios":"levelo://app?vid=a2c3faca-c50d-4927-9f48-fb73bd82963d"},"vehicle_type_id":"4","last_reported":1729671134,"current_range_meters":38400,"station_id":"","pricing_plan_id":"cebpf4jnsgd1na2vs0mg"},{"bike_id":"946611bd-808f-42aa-8d8e-3a209538d209","system_id":"levelo_inurba_marseille","lat":43.24072,"lon":5.3775,"is_reserved":false,"is_disabled":false,"rental_uris":{"android":"levelo://app?vid=946611bd-808f-42aa-8d8e-3a209538d209","ios":"levelo://app?vid=946611bd-808f-42aa-8d8e-3a209538d209"},"vehicle_type_id":"4","last_reported":1729671134,"current_range_meters":9600,"station_id":"ce4bhnp2rcd13ifvqgvg","pricing_plan_id":"cebpf4jnsgd1na2vs0mg"},{"bike_id":"e6f44c57-c336-4572-bbfa-1a3e6dfaeeae","system_id":"levelo_inurba_marseille","lat":43.24179,"lon":5.39732,"is_reserved":false,"is_disabled":false,"rental_uris":{"android":"levelo://app?vid=e6f44c57-c336-4572-bbfa-1a3e6dfaeeae","ios":"levelo://app?vid=e6f44c57-c336-4572-bbfa-1a3e6dfaeeae"},"vehicle_type_id":"4","last_reported":1729671134,"current_range_meters":24800,"station_id":"ce4bhn12rcd13ifvqgpg","pricing_plan_id":"cebpf4jnsgd1na2vs0mg"},{"bike_id":"8f10ef0d-0565-4eaf-a2d8-a4844f488a10","system_id":"levelo_inurba_marseille","lat":43.2655,"lon":5.37285,"is_reserved":false,"is_disabled":false,"rental_uris":{"android":"levelo://app?vid=8f10ef0d-0565-4eaf-a2d8-a4844f488a10","ios":"levelo://app?vid=8f10ef0d-0565-4eaf-a2d8-a4844f488a10"},"vehicle_type_id":"4","last_reported":1729671134,"current_range_meters":33600,"station_id":"ce4bhg12rcd13ifvqf70","pricing_plan_id":"cebpf4jnsgd1na2vs0mg"},{"bike_id":"a4f2d15f-d374-4de7-8037-5db7162ade91","system_id":"levelo_inurba_marseille","lat":43.30945,"lon":5.3905,"is_reserved":false,"is_disabled":false,"rental_uris":{"android":"levelo://app?vid=a4f2d15f-d374-4de7-8037-5db7162ade91","ios":"levelo://app?vid=a4f2d15f-d374-4de7-8037-5db7162ade91"},"vehicle_type_id":"4","last_reported":1729671134,"current_range_meters":32000,"station_id":"ce4bgup2rcd13ifvqco0","pricing_plan_id":"cebpf4jnsgd1na2vs0mg"},{"bike_id":"0054e9c8-e852-4bb3-8ef5-fd27cbf1d8f3","system_id":"levelo_inurba_marseille","lat":43.3095,"lon":5.3905,"is_reserved":false,"is_disabled":false,"rental_uris":{"android":"levelo://app?vid=0054e9c8-e852-4bb3-8ef5-fd27cbf1d8f3","ios":"levelo://app?vid=0054e9c8-e852-4bb3-8ef5-fd27cbf1d8f3"},"vehicle_type_id":"4","last_reported":1729671134,"current_range_meters":39200,"station_id":"ce4bgup2rcd13ifvqco0","pricing_plan_id":"cebpf4jnsgd1na2vs0mg"},{"bike_id":"4a7abcc4-a1fa-417b-8ffa-a28e55985c43","system_id":"levelo_inurba_marseille","lat":43.24073,"lon":5.37752,"is_reserved":false,"is_disabled":false,"rental_uris":{"android":"levelo://app?vid=4a7abcc4-a1fa-417b-8ffa-a28e55985c43","ios":"levelo://app?vid=4a7abcc4-a1fa-417b-8ffa-a28e55985c43"},"vehicle_type_id":"4","last_reported":1729671134,"current_range_meters":37600,"station_id":"ce4bhnp2rcd13ifvqgvg","pricing_plan_id":"cebpf4jnsgd1na2vs0mg"},{"bike_id":"cdba8dd9-10d6-4358-97ce-fe5c3999d55d","system_id":"levelo_inurba_marseille","lat":43.30352,"lon":5.41875,"is_reserved":false,"is_disabled":false,"rental_uris":{"android":"levelo://app?vid=cdba8dd9-10d6-4358-97ce-fe5c3999d55d","ios":"levelo://app?vid=cdba8dd9-10d6-4358-97ce-fe5c3999d55d"},"vehicle_type_id":"4","last_reported":1729671134,"current_range_meters":39200,"station_id":"ce4bhop2rcd13ifvqh7g","pricing_plan_id":"cebpf4jnsgd1na2vs0mg"},{"bike_id":"efd5afb5-affe-4f92-b718-8fb76e39b27d","system_id":"levelo_inurba_marseille","lat":43.32483,"lon":5.36555,"is_reserved":false,"is_disabled":false,"rental_uris":{"android":"levelo://app?vid=efd5afb5-affe-4f92-b718-8fb76e39b27d","ios":"levelo://app?vid=efd5afb5-affe-4f92-b718-8fb76e39b27d"},"vehicle_type_id":"4","last_reported":1729671134,"current_range_meters":6000,"station_id":"ce4bhs12rcd13ifvqhvg","pricing_plan_id":"cebpf4jnsgd1na2vs0mg"},{"bike_id":"c28a0d84-0e87-4f59-a235-be39e17ed04c","system_id":"levelo_inurba_marseille","lat":43.30009,"lon":5.37991,"is_reserved":false,"is_disabled":false,"rental_uris":{"android":"levelo://app?vid=c28a0d84-0e87-4f59-a235-be39e17ed04c","ios":"levelo://app?vid=c28a0d84-0e87-4f59-a235-be39e17ed04c"},"vehicle_type_id":"4","last_reported":1729671134,"current_range_meters":36800,"station_id":"","pricing_plan_id":"cebpf4jnsgd1na2vs0mg"},{"bike_id":"16f335c4-c085-4811-b43d-345aeae3f978","system_id":"levelo_inurba_marseille","lat":43.29366,"lon":5.37855,"is_reserved":false,"is_disabled":false,"rental_uris":{"android":"levelo://app?vid=16f335c4-c085-4811-b43d-345aeae3f978","ios":"levelo://app?vid=16f335c4-c085-4811-b43d-345aeae3f978"},"vehicle_type_id":"4","last_reported":1729671134,"current_range_meters":19200,"station_id":"ce4bgjh2rcd13ifvqbf0","pricing_plan_id":"cebpf4jnsgd1na2vs0mg"},{"bike_id":"1f41f209-6719-4a28-a2e3-1bcb9e5ada20","system_id":"levelo_inurba_marseille","lat":43.23155,"lon":5.43709,"is_reserved":false,"is_disabled":false,"rental_uris":{"android":"levelo://app?vid=1f41f209-6719-4a28-a2e3-1bcb9e5ada20","ios":"levelo://app?vid=1f41f209-6719-4a28-a2e3-1bcb9e5ada20"},"vehicle_type_id":"4","last_reported":1729671134,"current_range_meters":32000,"station_id":"ce4bhmp2rcd13ifvqgog","pricing_plan_id":"cebpf4jnsgd1na2vs0mg"},{"bike_id":"fed29e3d-ded9-4536-b5e9-762e6c2a1343","system_id":"levelo_inurba_marseille","lat":43.29957,"lon":5.39187,"is_reserved":false,"is_disabled":false,"rental_uris":{"android":"levelo://app?vid=fed29e3d-ded9-4536-b5e9-762e6c2a1343","ios":"levelo://app?vid=fed29e3d-ded9-4536-b5e9-762e6c2a1343"},"vehicle_type_id":"4","last_reported":1729671134,"current_range_meters":14000,"station_id":"ce4bghh2rcd13ifvqb60","pricing_plan_id":"cebpf4jnsgd1na2vs0mg"},{"bike_id":"3cca0b2c-080d-4d79-9322-1c111283f6de","system_id":"levelo_inurba_marseille","lat":43.30304,"lon":5.3691,"is_reserved":false,"is_disabled":false,"rental_uris":{"android":"levelo://app?vid=3cca0b2c-080d-4d79-9322-1c111283f6de","ios":"levelo://app?vid=3cca0b2c-080d-4d79-9322-1c111283f6de"},"vehicle_type_id":"4","last_reported":1729671134,"current_range_meters":33600,"station_id":"ce4bgqh2rcd13ifvqc5g","pricing_plan_id":"cebpf4jnsgd1na2vs0mg"},{"bike_id":"6f3c99f6-25c2-4dd4-ba80-ca7e8e0ba65e","system_id":"levelo_inurba_marseille","lat":43.28148,"lon":5.42646,"is_reserved":false,"is_disabled":false,"rental_uris":{"android":"levelo://app?vid=6f3c99f6-25c2-4dd4-ba80-ca7e8e0ba65e","ios":"levelo://app?vid=6f3c99f6-25c2-4dd4-ba80-ca7e8e0ba65e"},"vehicle_type_id":"4","last_reported":1729671134,"current_range_meters":8000,"station_id":"ce4bhnh2rcd13ifvqgug","pricing_plan_id":"cebpf4jnsgd1na2vs0mg"},{"bike_id":"1d10a592-c5eb-4d86-97ba-5ef16b9ac87e","system_id":"levelo_inurba_marseille","lat":43.24171,"lon":5.39723,"is_reserved":false,"is_disabled":false,"rental_uris":{"android":"levelo://app?vid=1d10a592-c5eb-4d86-97ba-5ef16b9ac87e","ios":"levelo://app?vid=1d10a592-c5eb-4d86-97ba-5ef16b9ac87e"},"vehicle_type_id":"4","last_reported":1729671134,"current_range_meters":27200,"station_id":"ce4bhn12rcd13ifvqgpg","pricing_plan_id":"cebpf4jnsgd1na2vs0mg"},{"bike_id":"01678755-0ad9-4bb7-8723-5a8d7c4420fc","system_id":"levelo_inurba_marseille","lat":43.280639,"lon":5.409824,"is_reserved":false,"is_disabled":false,"rental_uris":{"android":"levelo://app?vid=01678755-0ad9-4bb7-8723-5a8d7c4420fc","ios":"levelo://app?vid=01678755-0ad9-4bb7-8723-5a8d7c4420fc"},"vehicle_type_id":"4","last_reported":1729671134,"current_range_meters":16400,"station_id":"","pricing_plan_id":"cebpf4jnsgd1na2vs0mg"},{"bike_id":"8c79de4e-20bb-43e9-9c15-6c86ce5ce78c","system_id":"levelo_inurba_marseille","lat":43.30279,"lon":5.37693,"is_reserved":false,"is_disabled":false,"rental_uris":{"android":"levelo://app?vid=8c79de4e-20bb-43e9-9c15-6c86ce5ce78c","ios":"levelo://app?vid=8c79de4e-20bb-43e9-9c15-6c86ce5ce78c"},"vehicle_type_id":"4","last_reported":1729671134,"current_range_meters":36800,"station_id":"ce4bguh2rcd13ifvqcj0","pricing_plan_id":"cebpf4jnsgd1na2vs0mg"},{"bike_id":"bca37cdc-69ea-41be-b71b-0a748ac5f352","system_id":"levelo_inurba_marseille","lat":43.2993,"lon":5.36555,"is_reserved":false,"is_disabled":false,"rental_uris":{"android":"levelo://app?vid=bca37cdc-69ea-41be-b71b-0a748ac5f352","ios":"levelo://app?vid=bca37cdc-69ea-41be-b71b-0a748ac5f352"},"vehicle_type_id":"4","last_reported":1729671134,"current_range_meters":32400,"station_id":"ce4bgm92rcd13ifvqbr0","pricing_plan_id":"cebpf4jnsgd1na2vs0mg"},{"bike_id":"f13f59fa-ec33-4503-bc64-a551db3995a4","system_id":"levelo_inurba_marseille","lat":43.30238,"lon":5.37027,"is_reserved":false,"is_disabled":false,"rental_uris":{"android":"levelo://app?vid=f13f59fa-ec33-4503-bc64-a551db3995a4","ios":"levelo://app?vid=f13f59fa-ec33-4503-bc64-a551db3995a4"},"vehicle_type_id":"4","last_reported":1729671134,"current_range_meters":27200,"station_id":"ce4bgqh2rcd13ifvqc5g","pricing_plan_id":"cebpf4jnsgd1na2vs0mg"},{"bike_id":"cbacfa7a-395d-4feb-a0ea-611e8f7e17e7","system_id":"levelo_inurba_marseille","lat":43.28932,"lon":5.36635,"is_reserved":false,"is_disabled":false,"rental_uris":{"android":"levelo://app?vid=cbacfa7a-395d-4feb-a0ea-611e8f7e17e7","ios":"levelo://app?vid=cbacfa7a-395d-4feb-a0ea-611e8f7e17e7"},"vehicle_type_id":"4","last_reported":1729671134,"current_range_meters":25200,"station_id":"ce4bhap2rcd13ifvqek0","pricing_plan_id":"cebpf4jnsgd1na2vs0mg"},{"bike_id":"5236b931-98e6-4eb0-bc69-14b73d03f0ff","system_id":"levelo_inurba_marseille","lat":43.27965,"lon":5.38726,"is_reserved":false,"is_disabled":false,"rental_uris":{"android":"levelo://app?vid=5236b931-98e6-4eb0-bc69-14b73d03f0ff","ios":"levelo://app?vid=5236b931-98e6-4eb0-bc69-14b73d03f0ff"},"vehicle_type_id":"4","last_reported":1729671134,"current_range_meters":28400,"station_id":"ce4bhg12rcd13ifvqf80","pricing_plan_id":"cebpf4jnsgd1na2vs0mg"},{"bike_id":"8bf8b951-1d36-4183-8c79-1dc7f3fbbe47","system_id":"levelo_inurba_marseille","lat":43.28456,"lon":5.38413,"is_reserved":false,"is_disabled":false,"rental_uris":{"android":"levelo://app?vid=8bf8b951-1d36-4183-8c79-1dc7f3fbbe47","ios":"levelo://app?vid=8bf8b951-1d36-4183-8c79-1dc7f3fbbe47"},"vehicle_type_id":"4","last_reported":1729671134,"current_range_meters":17200,"station_id":"ce4bh512rcd13ifvqe3g","pricing_plan_id":"cebpf4jnsgd1na2vs0mg"},{"bike_id":"e68074ff-f5e2-424b-ac9b-aa2b95174368","system_id":"levelo_inurba_marseille","lat":43.28151,"lon":5.42646,"is_reserved":false,"is_disabled":false,"rental_uris":{"android":"levelo://app?vid=e68074ff-f5e2-424b-ac9b-aa2b95174368","ios":"levelo://app?vid=e68074ff-f5e2-424b-ac9b-aa2b95174368"},"vehicle_type_id":"4","last_reported":1729671134,"current_range_meters":27200,"station_id":"ce4bhnh2rcd13ifvqgug","pricing_plan_id":"cebpf4jnsgd1na2vs0mg"},{"bike_id":"815dd284-1bd2-4bb9-992a-b2116e2485bc","system_id":"levelo_inurba_marseille","lat":43.32878,"lon":5.36423,"is_reserved":false,"is_disabled":false,"rental_uris":{"android":"levelo://app?vid=815dd284-1bd2-4bb9-992a-b2116e2485bc","ios":"levelo://app?vid=815dd284-1bd2-4bb9-992a-b2116e2485bc"},"vehicle_type_id":"4","last_reported":1729671134,"current_range_meters":30000,"station_id":"","pricing_plan_id":"cebpf4jnsgd1na2vs0mg"},{"bike_id":"e965d3a4-2c96-47af-ac7f-9f4ca7758090","system_id":"levelo_inurba_marseille","lat":43.24999,"lon":5.38924,"is_reserved":false,"is_disabled":false,"rental_uris":{"android":"levelo://app?vid=e965d3a4-2c96-47af-ac7f-9f4ca7758090","ios":"levelo://app?vid=e965d3a4-2c96-47af-ac7f-9f4ca7758090"},"vehicle_type_id":"4","last_reported":1729671134,"current_range_meters":16400,"station_id":"ce4bhgp2rcd13ifvqfd0","pricing_plan_id":"cebpf4jnsgd1na2vs0mg"},{"bike_id":"627811a9-4978-496f-972a-e45837dda420","system_id":"levelo_inurba_marseille","lat":43.27491,"lon":5.42461,"is_reserved":false,"is_disabled":false,"rental_uris":{"android":"levelo://app?vid=627811a9-4978-496f-972a-e45837dda420","ios":"levelo://app?vid=627811a9-4978-496f-972a-e45837dda420"},"vehicle_type_id":"4","last_reported":1729671134,"current_range_meters":7200,"station_id":"ce4bhn92rcd13ifvqgrg","pricing_plan_id":"cebpf4jnsgd1na2vs0mg"},{"bike_id":"07c2576b-607e-4887-b80e-36889f16876e","system_id":"levelo_inurba_marseille","lat":43.32479,"lon":5.36557,"is_reserved":false,"is_disabled":false,"rental_uris":{"android":"levelo://app?vid=07c2576b-607e-4887-b80e-36889f16876e","ios":"levelo://app?vid=07c2576b-607e-4887-b80e-36889f16876e"},"vehicle_type_id":"4","last_reported":1729671134,"current_range_meters":32000,"station_id":"ce4bhs12rcd13ifvqhvg","pricing_plan_id":"cebpf4jnsgd1na2vs0mg"},{"bike_id":"ce15b430-c4bd-4eaa-8881-61e7bd7d4dad","system_id":"levelo_inurba_marseille","lat":43.26927,"lon":5.3892,"is_reserved":false,"is_disabled":false,"rental_uris":{"android":"levelo://app?vid=ce15b430-c4bd-4eaa-8881-61e7bd7d4dad","ios":"levelo://app?vid=ce15b430-c4bd-4eaa-8881-61e7bd7d4dad"},"vehicle_type_id":"4","last_reported":1729671134,"current_range_meters":38800,"station_id":"ce4bhhh2rcd13ifvqfl0","pricing_plan_id":"cebpf4jnsgd1na2vs0mg"},{"bike_id":"2d9e3cdc-522f-4dad-a624-0c252e82e5b4","system_id":"levelo_inurba_marseille","lat":43.27614,"lon":5.36112,"is_reserved":false,"is_disabled":false,"rental_uris":{"android":"levelo://app?vid=2d9e3cdc-522f-4dad-a624-0c252e82e5b4","ios":"levelo://app?vid=2d9e3cdc-522f-4dad-a624-0c252e82e5b4"},"vehicle_type_id":"4","last_reported":1729671134,"current_range_meters":30800,"station_id":"ce4bgj92rcd13ifvqbe0","pricing_plan_id":"cebpf4jnsgd1na2vs0mg"},{"bike_id":"0e3c4388-07da-4bf0-b894-30ac8cf594bf","system_id":"levelo_inurba_marseille","lat":43.31684,"lon":5.37766,"is_reserved":false,"is_disabled":false,"rental_uris":{"android":"levelo://app?vid=0e3c4388-07da-4bf0-b894-30ac8cf594bf","ios":"levelo://app?vid=0e3c4388-07da-4bf0-b894-30ac8cf594bf"},"vehicle_type_id":"4","last_reported":1729671134,"current_range_meters":19600,"station_id":"ce4bgth2rcd13ifvqch0","pricing_plan_id":"cebpf4jnsgd1na2vs0mg"},{"bike_id":"f4da693c-548c-47ae-97e6-d67d2206004a","system_id":"levelo_inurba_marseille","lat":43.23152,"lon":5.43703,"is_reserved":false,"is_disabled":false,"rental_uris":{"android":"levelo://app?vid=f4da693c-548c-47ae-97e6-d67d2206004a","ios":"levelo://app?vid=f4da693c-548c-47ae-97e6-d67d2206004a"},"vehicle_type_id":"4","last_reported":1729671134,"current_range_meters":25600,"station_id":"ce4bhmp2rcd13ifvqgog","pricing_plan_id":"cebpf4jnsgd1na2vs0mg"},{"bike_id":"4ce5bde3-4773-452b-a6b6-79f9c8450f21","system_id":"levelo_inurba_marseille","lat":43.24386,"lon":5.37053,"is_reserved":false,"is_disabled":false,"rental_uris":{"android":"levelo://app?vid=4ce5bde3-4773-452b-a6b6-79f9c8450f21","ios":"levelo://app?vid=4ce5bde3-4773-452b-a6b6-79f9c8450f21"},"vehicle_type_id":"4","last_reported":1729671134,"current_range_meters":18800,"station_id":"ce4bhhh2rcd13ifvqfk0","pricing_plan_id":"cebpf4jnsgd1na2vs0mg"},{"bike_id":"d4161f29-d3df-4329-b8b6-34c5516d6860","system_id":"levelo_inurba_marseille","lat":43.33607,"lon":5.4102,"is_reserved":false,"is_disabled":false,"rental_uris":{"android":"levelo://app?vid=d4161f29-d3df-4329-b8b6-34c5516d6860","ios":"levelo://app?vid=d4161f29-d3df-4329-b8b6-34c5516d6860"},"vehicle_type_id":"4","last_reported":1729671134,"current_range_meters":12000,"station_id":"ce4bhqh2rcd13ifvqhmg","pricing_plan_id":"cebpf4jnsgd1na2vs0mg"},{"bike_id":"e6aa0871-1902-4f80-85f9-59706d39d830","system_id":"levelo_inurba_marseille","lat":43.29614,"lon":5.37731,"is_reserved":false,"is_disabled":false,"rental_uris":{"android":"levelo://app?vid=e6aa0871-1902-4f80-85f9-59706d39d830","ios":"levelo://app?vid=e6aa0871-1902-4f80-85f9-59706d39d830"},"vehicle_type_id":"4","last_reported":1729671134,"current_range_meters":38400,"station_id":"ce4bgi92rcd13ifvqb90","pricing_plan_id":"cebpf4jnsgd1na2vs0mg"},{"bike_id":"fc04325b-daa7-4d19-bd02-0bde988bf14b","system_id":"levelo_inurba_marseille","lat":43.30468,"lon":5.37959,"is_reserved":false,"is_disabled":false,"rental_uris":{"android":"levelo://app?vid=fc04325b-daa7-4d19-bd02-0bde988bf14b","ios":"levelo://app?vid=fc04325b-daa7-4d19-bd02-0bde988bf14b"},"vehicle_type_id":"4","last_reported":1729671134,"current_range_meters":22800,"station_id":"","pricing_plan_id":"cebpf4jnsgd1na2vs0mg"},{"bike_id":"7a3e5e15-a5a3-484b-a744-5da5ce323139","system_id":"levelo_inurba_marseille","lat":43.24073,"lon":5.37754,"is_reserved":false,"is_disabled":false,"rental_uris":{"android":"levelo://app?vid=7a3e5e15-a5a3-484b-a744-5da5ce323139","ios":"levelo://app?vid=7a3e5e15-a5a3-484b-a744-5da5ce323139"},"vehicle_type_id":"4","last_reported":1729671134,"current_range_meters":35200,"station_id":"ce4bhnp2rcd13ifvqgvg","pricing_plan_id":"cebpf4jnsgd1na2vs0mg"},{"bike_id":"03cf6868-0fec-4687-bfc0-6d467d66db8f","system_id":"levelo_inurba_marseille","lat":43.31215,"lon":5.36871,"is_reserved":false,"is_disabled":false,"rental_uris":{"android":"levelo://app?vid=03cf6868-0fec-4687-bfc0-6d467d66db8f","ios":"levelo://app?vid=03cf6868-0fec-4687-bfc0-6d467d66db8f"},"vehicle_type_id":"4","last_reported":1729671134,"current_range_meters":36000,"station_id":"ce4bgl92rcd13ifvqbq0","pricing_plan_id":"cebpf4jnsgd1na2vs0mg"},{"bike_id":"60646783-9c71-4bc3-a672-7c12563753a5","system_id":"levelo_inurba_marseille","lat":43.31707,"lon":5.37727,"is_reserved":false,"is_disabled":false,"rental_uris":{"android":"levelo://app?vid=60646783-9c71-4bc3-a672-7c12563753a5","ios":"levelo://app?vid=60646783-9c71-4bc3-a672-7c12563753a5"},"vehicle_type_id":"4","last_reported":1729671134,"current_range_meters":33600,"station_id":"ce4bgth2rcd13ifvqch0","pricing_plan_id":"cebpf4jnsgd1na2vs0mg"},{"bike_id":"78e537d8-bd8f-4d34-aae8-e7b0c845af68","system_id":"levelo_inurba_marseille","lat":43.30141,"lon":5.37407,"is_reserved":false,"is_disabled":false,"rental_uris":{"android":"levelo://app?vid=78e537d8-bd8f-4d34-aae8-e7b0c845af68","ios":"levelo://app?vid=78e537d8-bd8f-4d34-aae8-e7b0c845af68"},"vehicle_type_id":"4","last_reported":1729671134,"current_range_meters":36400,"station_id":"ce4bgs92rcd13ifvqcc0","pricing_plan_id":"cebpf4jnsgd1na2vs0mg"},{"bike_id":"0a954bb9-5f21-432b-93b7-04b1fd884e63","system_id":"levelo_inurba_marseille","lat":43.28323,"lon":5.38115,"is_reserved":false,"is_disabled":false,"rental_uris":{"android":"levelo://app?vid=0a954bb9-5f21-432b-93b7-04b1fd884e63","ios":"levelo://app?vid=0a954bb9-5f21-432b-93b7-04b1fd884e63"},"vehicle_type_id":"4","last_reported":1729671134,"current_range_meters":4400,"station_id":"ce4bh412rcd13ifvqdr0","pricing_plan_id":"cebpf4jnsgd1na2vs0mg"},{"bike_id":"0aea9c5a-f885-4476-9e9a-e150850e5428","system_id":"levelo_inurba_marseille","lat":43.25918,"lon":5.40929,"is_reserved":false,"is_disabled":false,"rental_uris":{"android":"levelo://app?vid=0aea9c5a-f885-4476-9e9a-e150850e5428","ios":"levelo://app?vid=0aea9c5a-f885-4476-9e9a-e150850e5428"},"vehicle_type_id":"4","last_reported":1729671134,"current_range_meters":30400,"station_id":"ce4bhm92rcd13ifvqglg","pricing_plan_id":"cebpf4jnsgd1na2vs0mg"},{"bike_id":"7f6f3cf9-248c-44d8-9c0f-c7f5ebfc9478","system_id":"levelo_inurba_marseille","lat":43.30308,"lon":5.36885,"is_reserved":false,"is_disabled":false,"rental_uris":{"android":"levelo://app?vid=7f6f3cf9-248c-44d8-9c0f-c7f5ebfc9478","ios":"levelo://app?vid=7f6f3cf9-248c-44d8-9c0f-c7f5ebfc9478"},"vehicle_type_id":"4","last_reported":1729671134,"current_range_meters":32000,"station_id":"ce4bgqh2rcd13ifvqc5g","pricing_plan_id":"cebpf4jnsgd1na2vs0mg"},{"bike_id":"22fc431c-b57c-465f-994e-166d81585d45","system_id":"levelo_inurba_marseille","lat":43.23965,"lon":5.36637,"is_reserved":false,"is_disabled":false,"rental_uris":{"android":"levelo://app?vid=22fc431c-b57c-465f-994e-166d81585d45","ios":"levelo://app?vid=22fc431c-b57c-465f-994e-166d81585d45"},"vehicle_type_id":"4","last_reported":1729671134,"current_range_meters":38000,"station_id":"ce4bhi12rcd13ifvqfp0","pricing_plan_id":"cebpf4jnsgd1na2vs0mg"},{"bike_id":"d3c7a73c-6b5f-4cdc-80e8-5660952d5502","system_id":"levelo_inurba_marseille","lat":43.29841,"lon":5.36275,"is_reserved":false,"is_disabled":false,"rental_uris":{"android":"levelo://app?vid=d3c7a73c-6b5f-4cdc-80e8-5660952d5502","ios":"levelo://app?vid=d3c7a73c-6b5f-4cdc-80e8-5660952d5502"},"vehicle_type_id":"4","last_reported":1729671134,"current_range_meters":27600,"station_id":"ce4bgpp2rcd13ifvqc3g","pricing_plan_id":"cebpf4jnsgd1na2vs0mg"},{"bike_id":"f4aea8d2-64a2-4124-9304-7da77467e05f","system_id":"levelo_inurba_marseille","lat":43.34141,"lon":5.40901,"is_reserved":false,"is_disabled":false,"rental_uris":{"android":"levelo://app?vid=f4aea8d2-64a2-4124-9304-7da77467e05f","ios":"levelo://app?vid=f4aea8d2-64a2-4124-9304-7da77467e05f"},"vehicle_type_id":"4","last_reported":1729671134,"current_range_meters":23200,"station_id":"ce4bhqh2rcd13ifvqhlg","pricing_plan_id":"cebpf4jnsgd1na2vs0mg"},{"bike_id":"7840748f-5407-4646-a30e-2dede6e90251","system_id":"levelo_inurba_marseille","lat":43.24999,"lon":5.38926,"is_reserved":false,"is_disabled":false,"rental_uris":{"android":"levelo://app?vid=7840748f-5407-4646-a30e-2dede6e90251","ios":"levelo://app?vid=7840748f-5407-4646-a30e-2dede6e90251"},"vehicle_type_id":"4","last_reported":1729671134,"current_range_meters":30400,"station_id":"ce4bhgp2rcd13ifvqfd0","pricing_plan_id":"cebpf4jnsgd1na2vs0mg"},{"bike_id":"c9aaa140-4cb3-444a-80ce-93944fd36d74","system_id":"levelo_inurba_marseille","lat":43.24996,"lon":5.38923,"is_reserved":false,"is_disabled":false,"rental_uris":{"android":"levelo://app?vid=c9aaa140-4cb3-444a-80ce-93944fd36d74","ios":"levelo://app?vid=c9aaa140-4cb3-444a-80ce-93944fd36d74"},"vehicle_type_id":"4","last_reported":1729671134,"current_range_meters":34800,"station_id":"ce4bhgp2rcd13ifvqfd0","pricing_plan_id":"cebpf4jnsgd1na2vs0mg"},{"bike_id":"b4c17c83-feb2-4320-b8f2-f428bac7a5ec","system_id":"levelo_inurba_marseille","lat":43.31361,"lon":5.385,"is_reserved":false,"is_disabled":false,"rental_uris":{"android":"levelo://app?vid=b4c17c83-feb2-4320-b8f2-f428bac7a5ec","ios":"levelo://app?vid=b4c17c83-feb2-4320-b8f2-f428bac7a5ec"},"vehicle_type_id":"4","last_reported":1729671134,"current_range_meters":39200,"station_id":"ce4bgt92rcd13ifvqcf0","pricing_plan_id":"cebpf4jnsgd1na2vs0mg"},{"bike_id":"2cdf5722-0992-422b-b8c9-f0bdbeea1331","system_id":"levelo_inurba_marseille","lat":43.27068,"lon":5.42274,"is_reserved":false,"is_disabled":false,"rental_uris":{"android":"levelo://app?vid=2cdf5722-0992-422b-b8c9-f0bdbeea1331","ios":"levelo://app?vid=2cdf5722-0992-422b-b8c9-f0bdbeea1331"},"vehicle_type_id":"4","last_reported":1729671134,"current_range_meters":39200,"station_id":"ce4bhk92rcd13ifvqgb0","pricing_plan_id":"cebpf4jnsgd1na2vs0mg"},{"bike_id":"27a5a8b0-563c-46fc-81e5-f40494c9273e","system_id":"levelo_inurba_marseille","lat":43.26484,"lon":5.39551,"is_reserved":false,"is_disabled":false,"rental_uris":{"android":"levelo://app?vid=27a5a8b0-563c-46fc-81e5-f40494c9273e","ios":"levelo://app?vid=27a5a8b0-563c-46fc-81e5-f40494c9273e"},"vehicle_type_id":"4","last_reported":1729671134,"current_range_meters":38400,"station_id":"ce4bhi12rcd13ifvqfq0","pricing_plan_id":"cebpf4jnsgd1na2vs0mg"},{"bike_id":"7258a7e0-02ef-43b7-9f55-01996ace8bd0","system_id":"levelo_inurba_marseille","lat":43.3013,"lon":5.37426,"is_reserved":false,"is_disabled":false,"rental_uris":{"android":"levelo://app?vid=7258a7e0-02ef-43b7-9f55-01996ace8bd0","ios":"levelo://app?vid=7258a7e0-02ef-43b7-9f55-01996ace8bd0"},"vehicle_type_id":"4","last_reported":1729671134,"current_range_meters":8800,"station_id":"ce4bgs92rcd13ifvqcc0","pricing_plan_id":"cebpf4jnsgd1na2vs0mg"},{"bike_id":"0f8fcea2-a548-4eec-88b1-83ebcf53f1a8","system_id":"levelo_inurba_marseille","lat":43.32289,"lon":5.38287,"is_reserved":false,"is_disabled":false,"rental_uris":{"android":"levelo://app?vid=0f8fcea2-a548-4eec-88b1-83ebcf53f1a8","ios":"levelo://app?vid=0f8fcea2-a548-4eec-88b1-83ebcf53f1a8"},"vehicle_type_id":"4","last_reported":1729671134,"current_range_meters":39200,"station_id":"ce4bhr12rcd13ifvqhqg","pricing_plan_id":"cebpf4jnsgd1na2vs0mg"},{"bike_id":"2a65fed3-5c60-4dc7-8696-46a5f820080f","system_id":"levelo_inurba_marseille","lat":43.30906,"lon":5.36844,"is_reserved":false,"is_disabled":false,"rental_uris":{"android":"levelo://app?vid=2a65fed3-5c60-4dc7-8696-46a5f820080f","ios":"levelo://app?vid=2a65fed3-5c60-4dc7-8696-46a5f820080f"},"vehicle_type_id":"4","last_reported":1729671134,"current_range_meters":8000,"station_id":"ce4bgn92rcd13ifvqbvg","pricing_plan_id":"cebpf4jnsgd1na2vs0mg"},{"bike_id":"4c60f293-20dc-49e0-96c4-51cda3c32138","system_id":"levelo_inurba_marseille","lat":43.29961,"lon":5.3848,"is_reserved":false,"is_disabled":false,"rental_uris":{"android":"levelo://app?vid=4c60f293-20dc-49e0-96c4-51cda3c32138","ios":"levelo://app?vid=4c60f293-20dc-49e0-96c4-51cda3c32138"},"vehicle_type_id":"4","last_reported":1729671134,"current_range_meters":36800,"station_id":"ce4bgup2rcd13ifvqcn0","pricing_plan_id":"cebpf4jnsgd1na2vs0mg"},{"bike_id":"b84ad2e5-0180-44fe-9db2-25e7373b1b80","system_id":"levelo_inurba_marseille","lat":43.31326,"lon":5.39689,"is_reserved":false,"is_disabled":false,"rental_uris":{"android":"levelo://app?vid=b84ad2e5-0180-44fe-9db2-25e7373b1b80","ios":"levelo://app?vid=b84ad2e5-0180-44fe-9db2-25e7373b1b80"},"vehicle_type_id":"4","last_reported":1729671134,"current_range_meters":3600,"station_id":"ce4bgvp2rcd13ifvqcu0","pricing_plan_id":"cebpf4jnsgd1na2vs0mg"},{"bike_id":"c2c4052e-69f1-4278-8da4-551f58380a5d","system_id":"levelo_inurba_marseille","lat":43.33603,"lon":5.41032,"is_reserved":false,"is_disabled":false,"rental_uris":{"android":"levelo://app?vid=c2c4052e-69f1-4278-8da4-551f58380a5d","ios":"levelo://app?vid=c2c4052e-69f1-4278-8da4-551f58380a5d"},"vehicle_type_id":"4","last_reported":1729671134,"current_range_meters":26800,"station_id":"ce4bhqh2rcd13ifvqhmg","pricing_plan_id":"cebpf4jnsgd1na2vs0mg"},{"bike_id":"6064ba38-3849-4c23-8c6f-3eb896267f69","system_id":"levelo_inurba_marseille","lat":43.25578,"lon":5.38247,"is_reserved":false,"is_disabled":false,"rental_uris":{"android":"levelo://app?vid=6064ba38-3849-4c23-8c6f-3eb896267f69","ios":"levelo://app?vid=6064ba38-3849-4c23-8c6f-3eb896267f69"},"vehicle_type_id":"4","last_reported":1729671134,"current_range_meters":28000,"station_id":"ce4bhih2rcd13ifvqfs0","pricing_plan_id":"cebpf4jnsgd1na2vs0mg"},{"bike_id":"c37f9d44-73fa-4306-9c1f-ffcd871c4600","system_id":"levelo_inurba_marseille","lat":43.30459,"lon":5.37897,"is_reserved":false,"is_disabled":false,"rental_uris":{"android":"levelo://app?vid=c37f9d44-73fa-4306-9c1f-ffcd871c4600","ios":"levelo://app?vid=c37f9d44-73fa-4306-9c1f-ffcd871c4600"},"vehicle_type_id":"4","last_reported":1729671134,"current_range_meters":22000,"station_id":"ce4bgup2rcd13ifvqcn0","pricing_plan_id":"cebpf4jnsgd1na2vs0mg"},{"bike_id":"8a4be30c-8eed-47b6-956f-2ee16714e8ee","system_id":"levelo_inurba_marseille","lat":43.29275,"lon":5.36851,"is_reserved":false,"is_disabled":false,"rental_uris":{"android":"levelo://app?vid=8a4be30c-8eed-47b6-956f-2ee16714e8ee","ios":"levelo://app?vid=8a4be30c-8eed-47b6-956f-2ee16714e8ee"},"vehicle_type_id":"4","last_reported":1729671134,"current_range_meters":9200,"station_id":"ce4bhbp2rcd13ifvqesg","pricing_plan_id":"cebpf4jnsgd1na2vs0mg"},{"bike_id":"01d08235-a4e4-434f-8493-03de70774cab","system_id":"levelo_inurba_marseille","lat":43.32105,"lon":5.36773,"is_reserved":false,"is_disabled":false,"rental_uris":{"android":"levelo://app?vid=01d08235-a4e4-434f-8493-03de70774cab","ios":"levelo://app?vid=01d08235-a4e4-434f-8493-03de70774cab"},"vehicle_type_id":"4","last_reported":1729671134,"current_range_meters":38400,"station_id":"ce4bhrh2rcd13ifvqhug","pricing_plan_id":"cebpf4jnsgd1na2vs0mg"},{"bike_id":"2b80f943-bf35-49c7-9584-ea1845fd1d05","system_id":"levelo_inurba_marseille","lat":43.23055,"lon":5.35488,"is_reserved":false,"is_disabled":false,"rental_uris":{"android":"levelo://app?vid=2b80f943-bf35-49c7-9584-ea1845fd1d05","ios":"levelo://app?vid=2b80f943-bf35-49c7-9584-ea1845fd1d05"},"vehicle_type_id":"4","last_reported":1729671134,"current_range_meters":6400,"station_id":"cpo3342slgdg3j2ifvpg","pricing_plan_id":"cebpf4jnsgd1na2vs0mg"},{"bike_id":"ce116ad0-0fc3-4443-b8ba-bd6dcd42f02b","system_id":"levelo_inurba_marseille","lat":43.25932,"lon":5.40903,"is_reserved":false,"is_disabled":false,"rental_uris":{"android":"levelo://app?vid=ce116ad0-0fc3-4443-b8ba-bd6dcd42f02b","ios":"levelo://app?vid=ce116ad0-0fc3-4443-b8ba-bd6dcd42f02b"},"vehicle_type_id":"4","last_reported":1729671134,"current_range_meters":36400,"station_id":"ce4bhm92rcd13ifvqglg","pricing_plan_id":"cebpf4jnsgd1na2vs0mg"},{"bike_id":"9ee92945-fc74-4382-9645-537465c75a5f","system_id":"levelo_inurba_marseille","lat":43.31229,"lon":5.36863,"is_reserved":false,"is_disabled":false,"rental_uris":{"android":"levelo://app?vid=9ee92945-fc74-4382-9645-537465c75a5f","ios":"levelo://app?vid=9ee92945-fc74-4382-9645-537465c75a5f"},"vehicle_type_id":"4","last_reported":1729671134,"current_range_meters":14800,"station_id":"ce4bgl92rcd13ifvqbq0","pricing_plan_id":"cebpf4jnsgd1na2vs0mg"},{"bike_id":"0ba002b8-e108-4a2b-b69b-9d62a94756b7","system_id":"levelo_inurba_marseille","lat":43.24991,"lon":5.38932,"is_reserved":false,"is_disabled":false,"rental_uris":{"android":"levelo://app?vid=0ba002b8-e108-4a2b-b69b-9d62a94756b7","ios":"levelo://app?vid=0ba002b8-e108-4a2b-b69b-9d62a94756b7"},"vehicle_type_id":"4","last_reported":1729671134,"current_range_meters":37600,"station_id":"ce4bhgp2rcd13ifvqfd0","pricing_plan_id":"cebpf4jnsgd1na2vs0mg"},{"bike_id":"7c2a9497-38f6-4903-877c-54bf6b95d02e","system_id":"levelo_inurba_marseille","lat":43.31345,"lon":5.36707,"is_reserved":false,"is_disabled":false,"rental_uris":{"android":"levelo://app?vid=7c2a9497-38f6-4903-877c-54bf6b95d02e","ios":"levelo://app?vid=7c2a9497-38f6-4903-877c-54bf6b95d02e"},"vehicle_type_id":"4","last_reported":1729671134,"current_range_meters":17200,"station_id":"ce4bgr92rcd13ifvqc6g","pricing_plan_id":"cebpf4jnsgd1na2vs0mg"},{"bike_id":"259bd92d-f87d-4c42-9bb3-b39ac8b7b8fe","system_id":"levelo_inurba_marseille","lat":43.30892,"lon":5.36848,"is_reserved":false,"is_disabled":false,"rental_uris":{"android":"levelo://app?vid=259bd92d-f87d-4c42-9bb3-b39ac8b7b8fe","ios":"levelo://app?vid=259bd92d-f87d-4c42-9bb3-b39ac8b7b8fe"},"vehicle_type_id":"4","last_reported":1729671134,"current_range_meters":10800,"station_id":"ce4bgn92rcd13ifvqbvg","pricing_plan_id":"cebpf4jnsgd1na2vs0mg"},{"bike_id":"6ee8f7f6-a8fa-486b-ba64-92cb6d318cc2","system_id":"levelo_inurba_marseille","lat":43.3248,"lon":5.36555,"is_reserved":false,"is_disabled":false,"rental_uris":{"android":"levelo://app?vid=6ee8f7f6-a8fa-486b-ba64-92cb6d318cc2","ios":"levelo://app?vid=6ee8f7f6-a8fa-486b-ba64-92cb6d318cc2"},"vehicle_type_id":"4","last_reported":1729671134,"current_range_meters":36800,"station_id":"ce4bhs12rcd13ifvqhvg","pricing_plan_id":"cebpf4jnsgd1na2vs0mg"},{"bike_id":"8b3fb690-85c6-4703-86e3-f27a8f80559c","system_id":"levelo_inurba_marseille","lat":43.27367,"lon":5.36249,"is_reserved":false,"is_disabled":false,"rental_uris":{"android":"levelo://app?vid=8b3fb690-85c6-4703-86e3-f27a8f80559c","ios":"levelo://app?vid=8b3fb690-85c6-4703-86e3-f27a8f80559c"},"vehicle_type_id":"4","last_reported":1729671134,"current_range_meters":38800,"station_id":"ce4bhbh2rcd13ifvqeo0","pricing_plan_id":"cebpf4jnsgd1na2vs0mg"},{"bike_id":"c04f3a38-2d79-45e7-b933-ec8226d22e5a","system_id":"levelo_inurba_marseille","lat":43.30541,"lon":5.36701,"is_reserved":false,"is_disabled":false,"rental_uris":{"android":"levelo://app?vid=c04f3a38-2d79-45e7-b933-ec8226d22e5a","ios":"levelo://app?vid=c04f3a38-2d79-45e7-b933-ec8226d22e5a"},"vehicle_type_id":"4","last_reported":1729671134,"current_range_meters":3600,"station_id":"ce4bgrp2rcd13ifvqc9g","pricing_plan_id":"cebpf4jnsgd1na2vs0mg"},{"bike_id":"11ff56db-0d8a-40ba-9c93-d2101a682eb8","system_id":"levelo_inurba_marseille","lat":43.30312,"lon":5.36893,"is_reserved":false,"is_disabled":false,"rental_uris":{"android":"levelo://app?vid=11ff56db-0d8a-40ba-9c93-d2101a682eb8","ios":"levelo://app?vid=11ff56db-0d8a-40ba-9c93-d2101a682eb8"},"vehicle_type_id":"4","last_reported":1729671134,"current_range_meters":39200,"station_id":"ce4bgqh2rcd13ifvqc5g","pricing_plan_id":"cebpf4jnsgd1na2vs0mg"},{"bike_id":"9200f059-e673-4c15-ac4f-15fe74d24d34","system_id":"levelo_inurba_marseille","lat":43.32288,"lon":5.3827,"is_reserved":false,"is_disabled":false,"rental_uris":{"android":"levelo://app?vid=9200f059-e673-4c15-ac4f-15fe74d24d34","ios":"levelo://app?vid=9200f059-e673-4c15-ac4f-15fe74d24d34"},"vehicle_type_id":"4","last_reported":1729671134,"current_range_meters":33200,"station_id":"ce4bhr12rcd13ifvqhqg","pricing_plan_id":"cebpf4jnsgd1na2vs0mg"},{"bike_id":"069edcbe-e78c-4f9c-bb9a-b69bf19f66ec","system_id":"levelo_inurba_marseille","lat":43.30779,"lon":5.37658,"is_reserved":false,"is_disabled":false,"rental_uris":{"android":"levelo://app?vid=069edcbe-e78c-4f9c-bb9a-b69bf19f66ec","ios":"levelo://app?vid=069edcbe-e78c-4f9c-bb9a-b69bf19f66ec"},"vehicle_type_id":"4","last_reported":1729671134,"current_range_meters":10000,"station_id":"ce4bgv92rcd13ifvqcq0","pricing_plan_id":"cebpf4jnsgd1na2vs0mg"},{"bike_id":"517ecd69-925a-40c6-a887-d6451e845ef8","system_id":"levelo_inurba_marseille","lat":43.28156,"lon":5.42628,"is_reserved":false,"is_disabled":false,"rental_uris":{"android":"levelo://app?vid=517ecd69-925a-40c6-a887-d6451e845ef8","ios":"levelo://app?vid=517ecd69-925a-40c6-a887-d6451e845ef8"},"vehicle_type_id":"4","last_reported":1729671134,"current_range_meters":38400,"station_id":"ce4bhnh2rcd13ifvqgug","pricing_plan_id":"cebpf4jnsgd1na2vs0mg"},{"bike_id":"440dab7d-78c2-4e73-908c-9d1a85febbca","system_id":"levelo_inurba_marseille","lat":43.24078,"lon":5.37743,"is_reserved":false,"is_disabled":false,"rental_uris":{"android":"levelo://app?vid=440dab7d-78c2-4e73-908c-9d1a85febbca","ios":"levelo://app?vid=440dab7d-78c2-4e73-908c-9d1a85febbca"},"vehicle_type_id":"4","last_reported":1729671134,"current_range_meters":18000,"station_id":"ce4bhnp2rcd13ifvqgvg","pricing_plan_id":"cebpf4jnsgd1na2vs0mg"},{"bike_id":"6dcc6a10-da58-4ee2-847f-8c381d103b48","system_id":"levelo_inurba_marseille","lat":43.25001,"lon":5.38921,"is_reserved":false,"is_disabled":false,"rental_uris":{"android":"levelo://app?vid=6dcc6a10-da58-4ee2-847f-8c381d103b48","ios":"levelo://app?vid=6dcc6a10-da58-4ee2-847f-8c381d103b48"},