{"last_updated":1728025726,"ttl":60,"version":"2.2","data":{"bikes":[{"bike_id":"fcc0dea3-a4f1-4cdd-9155-e6fbe4a49d1b","system_id":"levelo_inurba_marseille","lat":43.28347,"lon":5.38101,"is_reserved":false,"is_disabled":false,"rental_uris":{"android":"levelo://app?vid=fcc0dea3-a4f1-4cdd-9155-e6fbe4a49d1b","ios":"levelo://app?vid=fcc0dea3-a4f1-4cdd-9155-e6fbe4a49d1b"},"vehicle_type_id":"4","last_reported":1728025726,"current_range_meters":26000,"station_id":"ce4bh412rcd13ifvqdr0","pricing_plan_id":"cebpf4jnsgd1na2vs0mg"},{"bike_id":"086b36b2-8fa9-4a21-a966-d0afeb3875cc","system_id":"levelo_inurba_marseille","lat":43.30155,"lon":5.38089,"is_reserved":false,"is_disabled":false,"rental_uris":{"android":"levelo://app?vid=086b36b2-8fa9-4a21-a966-d0afeb3875cc","ios":"levelo://app?vid=086b36b2-8fa9-4a21-a966-d0afeb3875cc"},"vehicle_type_id":"4","last_reported":1728025726,"current_range_meters":36800,"station_id":"ce4bgjp2rcd13ifvqbh0","pricing_plan_id":"cebpf4jnsgd1na2vs0mg"},{"bike_id":"8ca22dee-0f94-4629-af04-8bbe3303795c","system_id":"levelo_inurba_marseille","lat":43.24088,"lon":5.37746,"is_reserved":false,"is_disabled":false,"rental_uris":{"android":"levelo://app?vid=8ca22dee-0f94-4629-af04-8bbe3303795c","ios":"levelo://app?vid=8ca22dee-0f94-4629-af04-8bbe3303795c"},"vehicle_type_id":"4","last_reported":1728025726,"current_range_meters":22000,"station_id":"ce4bhnp2rcd13ifvqgvg","pricing_plan_id":"cebpf4jnsgd1na2vs0mg"},{"bike_id":"37ab7eeb-5394-4ff8-9547-016ed179c2b1","system_id":"levelo_inurba_marseille","lat":43.30475,"lon":5.37906,"is_reserved":false,"is_disabled":false,"rental_uris":{"android":"levelo://app?vid=37ab7eeb-5394-4ff8-9547-016ed179c2b1","ios":"levelo://app?vid=37ab7eeb-5394-4ff8-9547-016ed179c2b1"},"vehicle_type_id":"4","last_reported":1728025726,"current_range_meters":36400,"station_id":"ce4bgup2rcd13ifvqcn0","pricing_plan_id":"cebpf4jnsgd1na2vs0mg"},{"bike_id":"75b808a8-3e4e-4929-a3df-3685cc3fd84c","system_id":"levelo_inurba_marseille","lat":43.30458,"lon":5.37873,"is_reserved":false,"is_disabled":false,"rental_uris":{"android":"levelo://app?vid=75b808a8-3e4e-4929-a3df-3685cc3fd84c","ios":"levelo://app?vid=75b808a8-3e4e-4929-a3df-3685cc3fd84c"},"vehicle_type_id":"4","last_reported":1728025726,"current_range_meters":23200,"station_id":"ce4bgup2rcd13ifvqcn0","pricing_plan_id":"cebpf4jnsgd1na2vs0mg"},{"bike_id":"3e12fd42-4797-410d-b0b1-3ac9471063b4","system_id":"levelo_inurba_marseille","lat":43.29196,"lon":5.35814,"is_reserved":false,"is_disabled":false,"rental_uris":{"android":"levelo://app?vid=3e12fd42-4797-410d-b0b1-3ac9471063b4","ios":"levelo://app?vid=3e12fd42-4797-410d-b0b1-3ac9471063b4"},"vehicle_type_id":"4","last_reported":1728025726,"current_range_meters":36800,"station_id":"ce4bhb12rcd13ifvqel0","pricing_plan_id":"cebpf4jnsgd1na2vs0mg"},{"bike_id":"6ccba172-7b90-4c62-a5a9-3dde03fd3a03","system_id":"levelo_inurba_marseille","lat":43.26678,"lon":5.38265,"is_reserved":false,"is_disabled":false,"rental_uris":{"android":"levelo://app?vid=6ccba172-7b90-4c62-a5a9-3dde03fd3a03","ios":"levelo://app?vid=6ccba172-7b90-4c62-a5a9-3dde03fd3a03"},"vehicle_type_id":"4","last_reported":1728025726,"current_range_meters":32800,"station_id":"ce4bhg92rcd13ifvqf90","pricing_plan_id":"cebpf4jnsgd1na2vs0mg"},{"bike_id":"86398195-9834-4659-b8f5-8139a78118a0","system_id":"levelo_inurba_marseille","lat":43.27491,"lon":5.42457,"is_reserved":false,"is_disabled":false,"rental_uris":{"android":"levelo://app?vid=86398195-9834-4659-b8f5-8139a78118a0","ios":"levelo://app?vid=86398195-9834-4659-b8f5-8139a78118a0"},"vehicle_type_id":"4","last_reported":1728025726,"current_range_meters":22800,"station_id":"ce4bhn92rcd13ifvqgrg","pricing_plan_id":"cebpf4jnsgd1na2vs0mg"},{"bike_id":"64a659c6-2785-4065-bcfd-e445d21e780f","system_id":"levelo_inurba_marseille","lat":43.297,"lon":5.36836,"is_reserved":false,"is_disabled":false,"rental_uris":{"android":"levelo://app?vid=64a659c6-2785-4065-bcfd-e445d21e780f","ios":"levelo://app?vid=64a659c6-2785-4065-bcfd-e445d21e780f"},"vehicle_type_id":"4","last_reported":1728025726,"current_range_meters":13600,"station_id":"ce4bh512rcd13ifvqe2g","pricing_plan_id":"cebpf4jnsgd1na2vs0mg"},{"bike_id":"756088e4-bd38-4606-aa6f-cbbf1461af00","system_id":"levelo_inurba_marseille","lat":43.22937,"lon":5.3538,"is_reserved":false,"is_disabled":false,"rental_uris":{"android":"levelo://app?vid=756088e4-bd38-4606-aa6f-cbbf1461af00","ios":"levelo://app?vid=756088e4-bd38-4606-aa6f-cbbf1461af00"},"vehicle_type_id":"4","last_reported":1728025726,"current_range_meters":14000,"station_id":"cpo3532slgdg3j2ikp40","pricing_plan_id":"cebpf4jnsgd1na2vs0mg"},{"bike_id":"a2e67e3c-7061-41ef-b621-c916bfea005c","system_id":"levelo_inurba_marseille","lat":43.265,"lon":5.3956,"is_reserved":false,"is_disabled":false,"rental_uris":{"android":"levelo://app?vid=a2e67e3c-7061-41ef-b621-c916bfea005c","ios":"levelo://app?vid=a2e67e3c-7061-41ef-b621-c916bfea005c"},"vehicle_type_id":"4","last_reported":1728025726,"current_range_meters":28800,"station_id":"ce4bhi12rcd13ifvqfq0","pricing_plan_id":"cebpf4jnsgd1na2vs0mg"},{"bike_id":"1693ff41-8c99-41ae-8a32-22d707069ab7","system_id":"levelo_inurba_marseille","lat":43.3053,"lon":5.36531,"is_reserved":false,"is_disabled":false,"rental_uris":{"android":"levelo://app?vid=1693ff41-8c99-41ae-8a32-22d707069ab7","ios":"levelo://app?vid=1693ff41-8c99-41ae-8a32-22d707069ab7"},"vehicle_type_id":"4","last_reported":1728025726,"current_range_meters":32400,"station_id":"ce4bgs12rcd13ifvqcag","pricing_plan_id":"cebpf4jnsgd1na2vs0mg"},{"bike_id":"bc41810d-3fc6-4e9c-bcc1-3b1d7bce3ce2","system_id":"levelo_inurba_marseille","lat":43.231853,"lon":5.399823,"is_reserved":false,"is_disabled":false,"rental_uris":{"android":"levelo://app?vid=bc41810d-3fc6-4e9c-bcc1-3b1d7bce3ce2","ios":"levelo://app?vid=bc41810d-3fc6-4e9c-bcc1-3b1d7bce3ce2"},"vehicle_type_id":"4","last_reported":1728025726,"current_range_meters":19600,"station_id":"ce4bhn12rcd13ifvqgqg","pricing_plan_id":"cebpf4jnsgd1na2vs0mg"},{"bike_id":"35eebff6-a2c7-4129-b152-f6ff4f7c5b52","system_id":"levelo_inurba_marseille","lat":43.269506,"lon":5.386269,"is_reserved":false,"is_disabled":false,"rental_uris":{"android":"levelo://app?vid=35eebff6-a2c7-4129-b152-f6ff4f7c5b52","ios":"levelo://app?vid=35eebff6-a2c7-4129-b152-f6ff4f7c5b52"},"vehicle_type_id":"4","last_reported":1728025726,"current_range_meters":20800,"station_id":"ce4bgl92rcd13ifvqbq0","pricing_plan_id":"cebpf4jnsgd1na2vs0mg"},{"bike_id":"13587175-b312-4cf0-abda-2f049baac68e","system_id":"levelo_inurba_marseille","lat":43.27495,"lon":5.4245,"is_reserved":false,"is_disabled":false,"rental_uris":{"android":"levelo://app?vid=13587175-b312-4cf0-abda-2f049baac68e","ios":"levelo://app?vid=13587175-b312-4cf0-abda-2f049baac68e"},"vehicle_type_id":"4","last_reported":1728025726,"current_range_meters":35600,"station_id":"ce4bhn92rcd13ifvqgrg","pricing_plan_id":"cebpf4jnsgd1na2vs0mg"},{"bike_id":"1df98d1b-733d-49e5-901e-f02f9b77eb98","system_id":"levelo_inurba_marseille","lat":43.24077,"lon":5.37755,"is_reserved":false,"is_disabled":false,"rental_uris":{"android":"levelo://app?vid=1df98d1b-733d-49e5-901e-f02f9b77eb98","ios":"levelo://app?vid=1df98d1b-733d-49e5-901e-f02f9b77eb98"},"vehicle_type_id":"4","last_reported":1728025726,"current_range_meters":19600,"station_id":"ce4bhnp2rcd13ifvqgvg","pricing_plan_id":"cebpf4jnsgd1na2vs0mg"},{"bike_id":"770a8285-9a6c-4c9a-a1aa-f67aa58702fc","system_id":"levelo_inurba_marseille","lat":43.30961,"lon":5.39044,"is_reserved":false,"is_disabled":false,"rental_uris":{"android":"levelo://app?vid=770a8285-9a6c-4c9a-a1aa-f67aa58702fc","ios":"levelo://app?vid=770a8285-9a6c-4c9a-a1aa-f67aa58702fc"},"vehicle_type_id":"4","last_reported":1728025726,"current_range_meters":28400,"station_id":"ce4bgup2rcd13ifvqco0","pricing_plan_id":"cebpf4jnsgd1na2vs0mg"},{"bike_id":"48b7b995-6a83-4b3e-aae7-c1d3b600ba6f","system_id":"levelo_inurba_marseille","lat":43.29268,"lon":5.40116,"is_reserved":false,"is_disabled":false,"rental_uris":{"android":"levelo://app?vid=48b7b995-6a83-4b3e-aae7-c1d3b600ba6f","ios":"levelo://app?vid=48b7b995-6a83-4b3e-aae7-c1d3b600ba6f"},"vehicle_type_id":"4","last_reported":1728025726,"current_range_meters":38400,"station_id":"ce4bh312rcd13ifvqdk0","pricing_plan_id":"cebpf4jnsgd1na2vs0mg"},{"bike_id":"3b589aac-4fd1-4ea6-ad98-ea782ca4874b","system_id":"levelo_inurba_marseille","lat":43.27493,"lon":5.42451,"is_reserved":false,"is_disabled":false,"rental_uris":{"android":"levelo://app?vid=3b589aac-4fd1-4ea6-ad98-ea782ca4874b","ios":"levelo://app?vid=3b589aac-4fd1-4ea6-ad98-ea782ca4874b"},"vehicle_type_id":"4","last_reported":1728025726,"current_range_meters":35600,"station_id":"ce4bhn92rcd13ifvqgrg","pricing_plan_id":"cebpf4jnsgd1na2vs0mg"},{"bike_id":"017cda0a-0a95-4d65-bee2-04516ecb5b7e","system_id":"levelo_inurba_marseille","lat":43.26953,"lon":5.38636,"is_reserved":false,"is_disabled":false,"rental_uris":{"android":"levelo://app?vid=017cda0a-0a95-4d65-bee2-04516ecb5b7e","ios":"levelo://app?vid=017cda0a-0a95-4d65-bee2-04516ecb5b7e"},"vehicle_type_id":"4","last_reported":1728025726,"current_range_meters":38400,"station_id":"ce4bhh92rcd13ifvqfh0","pricing_plan_id":"cebpf4jnsgd1na2vs0mg"},{"bike_id":"ea7648e6-a16f-4f91-89d0-6b1e7f51963f","system_id":"levelo_inurba_marseille","lat":43.32532,"lon":5.36676,"is_reserved":false,"is_disabled":false,"rental_uris":{"android":"levelo://app?vid=ea7648e6-a16f-4f91-89d0-6b1e7f51963f","ios":"levelo://app?vid=ea7648e6-a16f-4f91-89d0-6b1e7f51963f"},"vehicle_type_id":"4","last_reported":1728025726,"current_range_meters":14800,"station_id":"ce4bhs12rcd13ifvqhvg","pricing_plan_id":"cebpf4jnsgd1na2vs0mg"},{"bike_id":"760f817b-0dcf-43cb-b6ec-2651e65ad3d9","system_id":"levelo_inurba_marseille","lat":43.27495,"lon":5.42448,"is_reserved":false,"is_disabled":false,"rental_uris":{"android":"levelo://app?vid=760f817b-0dcf-43cb-b6ec-2651e65ad3d9","ios":"levelo://app?vid=760f817b-0dcf-43cb-b6ec-2651e65ad3d9"},"vehicle_type_id":"4","last_reported":1728025726,"current_range_meters":34000,"station_id":"ce4bhn92rcd13ifvqgrg","pricing_plan_id":"cebpf4jnsgd1na2vs0mg"},{"bike_id":"a99e0887-fb66-4880-8761-33fdb36b8615","system_id":"levelo_inurba_marseille","lat":43.23182,"lon":5.39999,"is_reserved":false,"is_disabled":false,"rental_uris":{"android":"levelo://app?vid=a99e0887-fb66-4880-8761-33fdb36b8615","ios":"levelo://app?vid=a99e0887-fb66-4880-8761-33fdb36b8615"},"vehicle_type_id":"4","last_reported":1728025726,"current_range_meters":11200,"station_id":"ce4bhn12rcd13ifvqgqg","pricing_plan_id":"cebpf4jnsgd1na2vs0mg"},{"bike_id":"f3631753-5139-4224-9384-5a824b796c0f","system_id":"levelo_inurba_marseille","lat":43.28351,"lon":5.38089,"is_reserved":false,"is_disabled":false,"rental_uris":{"android":"levelo://app?vid=f3631753-5139-4224-9384-5a824b796c0f","ios":"levelo://app?vid=f3631753-5139-4224-9384-5a824b796c0f"},"vehicle_type_id":"4","last_reported":1728025726,"current_range_meters":38800,"station_id":"ce4bh412rcd13ifvqdr0","pricing_plan_id":"cebpf4jnsgd1na2vs0mg"},{"bike_id":"c935898e-42f4-4e38-9af0-1ff107d37ba3","system_id":"levelo_inurba_marseille","lat":43.29045,"lon":5.39949,"is_reserved":false,"is_disabled":false,"rental_uris":{"android":"levelo://app?vid=c935898e-42f4-4e38-9af0-1ff107d37ba3","ios":"levelo://app?vid=c935898e-42f4-4e38-9af0-1ff107d37ba3"},"vehicle_type_id":"4","last_reported":1728025726,"current_range_meters":32800,"station_id":"ce4bh392rcd13ifvqdm0","pricing_plan_id":"cebpf4jnsgd1na2vs0mg"},{"bike_id":"82cfab68-33d5-4fab-8f3d-dd3eca6bf1e4","system_id":"levelo_inurba_marseille","lat":43.24068,"lon":5.37763,"is_reserved":false,"is_disabled":false,"rental_uris":{"android":"levelo://app?vid=82cfab68-33d5-4fab-8f3d-dd3eca6bf1e4","ios":"levelo://app?vid=82cfab68-33d5-4fab-8f3d-dd3eca6bf1e4"},"vehicle_type_id":"4","last_reported":1728025726,"current_range_meters":27200,"station_id":"ce4bhnp2rcd13ifvqgvg","pricing_plan_id":"cebpf4jnsgd1na2vs0mg"},{"bike_id":"52096d77-66ea-46b9-9561-0c0cb4a0146e","system_id":"levelo_inurba_marseille","lat":43.3122,"lon":5.36857,"is_reserved":false,"is_disabled":false,"rental_uris":{"android":"levelo://app?vid=52096d77-66ea-46b9-9561-0c0cb4a0146e","ios":"levelo://app?vid=52096d77-66ea-46b9-9561-0c0cb4a0146e"},"vehicle_type_id":"4","last_reported":1728025726,"current_range_meters":8400,"station_id":"ce4bgl92rcd13ifvqbq0","pricing_plan_id":"cebpf4jnsgd1na2vs0mg"},{"bike_id":"ac261e06-b444-4163-8bb1-84867a0f7890","system_id":"levelo_inurba_marseille","lat":43.32539,"lon":5.41437,"is_reserved":false,"is_disabled":false,"rental_uris":{"android":"levelo://app?vid=ac261e06-b444-4163-8bb1-84867a0f7890","ios":"levelo://app?vid=ac261e06-b444-4163-8bb1-84867a0f7890"},"vehicle_type_id":"4","last_reported":1728025726,"current_range_meters":30400,"station_id":"ce4bhq12rcd13ifvqhhg","pricing_plan_id":"cebpf4jnsgd1na2vs0mg"},{"bike_id":"dc790a0f-240b-4bc4-9e7d-a755fc0f2315","system_id":"levelo_inurba_marseille","lat":43.2719,"lon":5.40991,"is_reserved":false,"is_disabled":false,"rental_uris":{"android":"levelo://app?vid=dc790a0f-240b-4bc4-9e7d-a755fc0f2315","ios":"levelo://app?vid=dc790a0f-240b-4bc4-9e7d-a755fc0f2315"},"vehicle_type_id":"4","last_reported":1728025726,"current_range_meters":38800,"station_id":"ce4bhl12rcd13ifvqgf0","pricing_plan_id":"cebpf4jnsgd1na2vs0mg"},{"bike_id":"5ecc5b2a-dab3-43ca-af64-4e7ec1264bbd","system_id":"levelo_inurba_marseille","lat":43.29563,"lon":5.37529,"is_reserved":false,"is_disabled":false,"rental_uris":{"android":"levelo://app?vid=5ecc5b2a-dab3-43ca-af64-4e7ec1264bbd","ios":"levelo://app?vid=5ecc5b2a-dab3-43ca-af64-4e7ec1264bbd"},"vehicle_type_id":"4","last_reported":1728025726,"current_range_meters":38800,"station_id":"ce4bgh92rcd13ifvqb50","pricing_plan_id":"cebpf4jnsgd1na2vs0mg"},{"bike_id":"bbe16d9f-1398-4ae8-9389-fdd330196eb0","system_id":"levelo_inurba_marseille","lat":43.28426,"lon":5.34978,"is_reserved":false,"is_disabled":false,"rental_uris":{"android":"levelo://app?vid=bbe16d9f-1398-4ae8-9389-fdd330196eb0","ios":"levelo://app?vid=bbe16d9f-1398-4ae8-9389-fdd330196eb0"},"vehicle_type_id":"4","last_reported":1728025726,"current_range_meters":31200,"station_id":"ce4bhbh2rcd13ifvqepg","pricing_plan_id":"cebpf4jnsgd1na2vs0mg"},{"bike_id":"e6b2df58-b4a0-4aec-933d-a62e42f34d34","system_id":"levelo_inurba_marseille","lat":43.33721,"lon":5.39197,"is_reserved":false,"is_disabled":false,"rental_uris":{"android":"levelo://app?vid=e6b2df58-b4a0-4aec-933d-a62e42f34d34","ios":"levelo://app?vid=e6b2df58-b4a0-4aec-933d-a62e42f34d34"},"vehicle_type_id":"4","last_reported":1728025726,"current_range_meters":22000,"station_id":"ce4bhr92rcd13ifvqhsg","pricing_plan_id":"cebpf4jnsgd1na2vs0mg"},{"bike_id":"403b9a65-80d1-462a-86d2-ae897d65bc96","system_id":"levelo_inurba_marseille","lat":43.30156,"lon":5.38074,"is_reserved":false,"is_disabled":false,"rental_uris":{"android":"levelo://app?vid=403b9a65-80d1-462a-86d2-ae897d65bc96","ios":"levelo://app?vid=403b9a65-80d1-462a-86d2-ae897d65bc96"},"vehicle_type_id":"4","last_reported":1728025726,"current_range_meters":6400,"station_id":"ce4bgjp2rcd13ifvqbh0","pricing_plan_id":"cebpf4jnsgd1na2vs0mg"},{"bike_id":"10d70a0a-c463-4885-8424-18970b50178b","system_id":"levelo_inurba_marseille","lat":43.31507,"lon":5.373,"is_reserved":false,"is_disabled":false,"rental_uris":{"android":"levelo://app?vid=10d70a0a-c463-4885-8424-18970b50178b","ios":"levelo://app?vid=10d70a0a-c463-4885-8424-18970b50178b"},"vehicle_type_id":"4","last_reported":1728025726,"current_range_meters":20000,"station_id":"ce4bgt12rcd13ifvqcd0","pricing_plan_id":"cebpf4jnsgd1na2vs0mg"},{"bike_id":"c00c9ef6-cf00-49a1-a796-fe4347be471c","system_id":"levelo_inurba_marseille","lat":43.34136,"lon":5.40901,"is_reserved":false,"is_disabled":false,"rental_uris":{"android":"levelo://app?vid=c00c9ef6-cf00-49a1-a796-fe4347be471c","ios":"levelo://app?vid=c00c9ef6-cf00-49a1-a796-fe4347be471c"},"vehicle_type_id":"4","last_reported":1728025726,"current_range_meters":30400,"station_id":"ce4bhqh2rcd13ifvqhlg","pricing_plan_id":"cebpf4jnsgd1na2vs0mg"},{"bike_id":"240aabb2-d30a-4816-bf39-1f44da7634a0","system_id":"levelo_inurba_marseille","lat":43.30918,"lon":5.36852,"is_reserved":false,"is_disabled":false,"rental_uris":{"android":"levelo://app?vid=240aabb2-d30a-4816-bf39-1f44da7634a0","ios":"levelo://app?vid=240aabb2-d30a-4816-bf39-1f44da7634a0"},"vehicle_type_id":"4","last_reported":1728025726,"current_range_meters":39200,"station_id":"ce4bgn92rcd13ifvqbvg","pricing_plan_id":"cebpf4jnsgd1na2vs0mg"},{"bike_id":"566a9cf0-f209-4c9f-9e1e-a43a024de395","system_id":"levelo_inurba_marseille","lat":43.27383,"lon":5.36252,"is_reserved":false,"is_disabled":false,"rental_uris":{"android":"levelo://app?vid=566a9cf0-f209-4c9f-9e1e-a43a024de395","ios":"levelo://app?vid=566a9cf0-f209-4c9f-9e1e-a43a024de395"},"vehicle_type_id":"4","last_reported":1728025726,"current_range_meters":27200,"station_id":"ce4bhbh2rcd13ifvqeo0","pricing_plan_id":"cebpf4jnsgd1na2vs0mg"},{"bike_id":"b73551f1-4737-42f3-8efd-5f2fca843848","system_id":"levelo_inurba_marseille","lat":43.29898,"lon":5.43668,"is_reserved":false,"is_disabled":false,"rental_uris":{"android":"levelo://app?vid=b73551f1-4737-42f3-8efd-5f2fca843848","ios":"levelo://app?vid=b73551f1-4737-42f3-8efd-5f2fca843848"},"vehicle_type_id":"4","last_reported":1728025726,"current_range_meters":18800,"station_id":"ce4bhpp2rcd13ifvqhfg","pricing_plan_id":"cebpf4jnsgd1na2vs0mg"},{"bike_id":"1d21fea5-2427-4550-95ba-96e800380226","system_id":"levelo_inurba_marseille","lat":43.24085,"lon":5.37754,"is_reserved":false,"is_disabled":false,"rental_uris":{"android":"levelo://app?vid=1d21fea5-2427-4550-95ba-96e800380226","ios":"levelo://app?vid=1d21fea5-2427-4550-95ba-96e800380226"},"vehicle_type_id":"4","last_reported":1728025726,"current_range_meters":36800,"station_id":"ce4bhnp2rcd13ifvqgvg","pricing_plan_id":"cebpf4jnsgd1na2vs0mg"},{"bike_id":"ffb8f4cb-436b-4df9-8ba5-f1a983895587","system_id":"levelo_inurba_marseille","lat":43.297,"lon":5.37703,"is_reserved":false,"is_disabled":false,"rental_uris":{"android":"levelo://app?vid=ffb8f4cb-436b-4df9-8ba5-f1a983895587","ios":"levelo://app?vid=ffb8f4cb-436b-4df9-8ba5-f1a983895587"},"vehicle_type_id":"4","last_reported":1728025726,"current_range_meters":34000,"station_id":"ce4bgkh2rcd13ifvqbl0","pricing_plan_id":"cebpf4jnsgd1na2vs0mg"},{"bike_id":"87b82762-d75d-4221-a799-30aa397393ab","system_id":"levelo_inurba_marseille","lat":43.27493,"lon":5.42451,"is_reserved":false,"is_disabled":false,"rental_uris":{"android":"levelo://app?vid=87b82762-d75d-4221-a799-30aa397393ab","ios":"levelo://app?vid=87b82762-d75d-4221-a799-30aa397393ab"},"vehicle_type_id":"4","last_reported":1728025726,"current_range_meters":28000,"station_id":"ce4bhn92rcd13ifvqgrg","pricing_plan_id":"cebpf4jnsgd1na2vs0mg"},{"bike_id":"1d2f50f0-a92b-4cc3-8df7-4e1465139892","system_id":"levelo_inurba_marseille","lat":43.25579,"lon":5.38237,"is_reserved":false,"is_disabled":false,"rental_uris":{"android":"levelo://app?vid=1d2f50f0-a92b-4cc3-8df7-4e1465139892","ios":"levelo://app?vid=1d2f50f0-a92b-4cc3-8df7-4e1465139892"},"vehicle_type_id":"4","last_reported":1728025726,"current_range_meters":39200,"station_id":"ce4bhih2rcd13ifvqfs0","pricing_plan_id":"cebpf4jnsgd1na2vs0mg"},{"bike_id":"437efef6-ee24-442c-93f2-446ad8da25bb","system_id":"levelo_inurba_marseille","lat":43.25579,"lon":5.38235,"is_reserved":false,"is_disabled":false,"rental_uris":{"android":"levelo://app?vid=437efef6-ee24-442c-93f2-446ad8da25bb","ios":"levelo://app?vid=437efef6-ee24-442c-93f2-446ad8da25bb"},"vehicle_type_id":"4","last_reported":1728025726,"current_range_meters":30400,"station_id":"ce4bhih2rcd13ifvqfs0","pricing_plan_id":"cebpf4jnsgd1na2vs0mg"},{"bike_id":"6de3a85c-b810-4536-8f14-5c71c81c7c55","system_id":"levelo_inurba_marseille","lat":43.30542,"lon":5.3842,"is_reserved":false,"is_disabled":false,"rental_uris":{"android":"levelo://app?vid=6de3a85c-b810-4536-8f14-5c71c81c7c55","ios":"levelo://app?vid=6de3a85c-b810-4536-8f14-5c71c81c7c55"},"vehicle_type_id":"4","last_reported":1728025726,"current_range_meters":20000,"station_id":"ce4bgg92rcd13ifvqb30","pricing_plan_id":"cebpf4jnsgd1na2vs0mg"},{"bike_id":"6323c3ea-75d7-47ca-8873-1f720d264584","system_id":"levelo_inurba_marseille","lat":43.25499,"lon":5.37653,"is_reserved":false,"is_disabled":false,"rental_uris":{"android":"levelo://app?vid=6323c3ea-75d7-47ca-8873-1f720d264584","ios":"levelo://app?vid=6323c3ea-75d7-47ca-8873-1f720d264584"},"vehicle_type_id":"4","last_reported":1728025726,"current_range_meters":38800,"station_id":"ce4bhh12rcd13ifvqff0","pricing_plan_id":"cebpf4jnsgd1na2vs0mg"},{"bike_id":"81f3a759-d8a0-44d0-869f-4f5235db3695","system_id":"levelo_inurba_marseille","lat":43.24081,"lon":5.37759,"is_reserved":false,"is_disabled":false,"rental_uris":{"android":"levelo://app?vid=81f3a759-d8a0-44d0-869f-4f5235db3695","ios":"levelo://app?vid=81f3a759-d8a0-44d0-869f-4f5235db3695"},"vehicle_type_id":"4","last_reported":1728025726,"current_range_meters":30000,"station_id":"ce4bhnp2rcd13ifvqgvg","pricing_plan_id":"cebpf4jnsgd1na2vs0mg"},{"bike_id":"f76589c4-f42f-4707-84f0-2229bcf2f96a","system_id":"levelo_inurba_marseille","lat":43.23963,"lon":5.36625,"is_reserved":false,"is_disabled":false,"rental_uris":{"android":"levelo://app?vid=f76589c4-f42f-4707-84f0-2229bcf2f96a","ios":"levelo://app?vid=f76589c4-f42f-4707-84f0-2229bcf2f96a"},"vehicle_type_id":"4","last_reported":1728025726,"current_range_meters":7200,"station_id":"ce4bhi12rcd13ifvqfp0","pricing_plan_id":"cebpf4jnsgd1na2vs0mg"},{"bike_id":"f15749ef-8afe-4d39-89e7-4e320961fb28","system_id":"levelo_inurba_marseille","lat":43.24066,"lon":5.3776,"is_reserved":false,"is_disabled":false,"rental_uris":{"android":"levelo://app?vid=f15749ef-8afe-4d39-89e7-4e320961fb28","ios":"levelo://app?vid=f15749ef-8afe-4d39-89e7-4e320961fb28"},"vehicle_type_id":"4","last_reported":1728025726,"current_range_meters":11200,"station_id":"ce4bhnp2rcd13ifvqgvg","pricing_plan_id":"cebpf4jnsgd1na2vs0mg"},{"bike_id":"86a59fdf-5419-4bd8-a9ed-c91c60731103","system_id":"levelo_inurba_marseille","lat":43.30291,"lon":5.37949,"is_reserved":false,"is_disabled":false,"rental_uris":{"android":"levelo://app?vid=86a59fdf-5419-4bd8-a9ed-c91c60731103","ios":"levelo://app?vid=86a59fdf-5419-4bd8-a9ed-c91c60731103"},"vehicle_type_id":"4","last_reported":1728025726,"current_range_meters":19200,"station_id":"","pricing_plan_id":"cebpf4jnsgd1na2vs0mg"},{"bike_id":"a15df9d2-ff4d-4100-911c-f1e3b67e4ecd","system_id":"levelo_inurba_marseille","lat":43.30918,"lon":5.36849,"is_reserved":false,"is_disabled":false,"rental_uris":{"android":"levelo://app?vid=a15df9d2-ff4d-4100-911c-f1e3b67e4ecd","ios":"levelo://app?vid=a15df9d2-ff4d-4100-911c-f1e3b67e4ecd"},"vehicle_type_id":"4","last_reported":1728025726,"current_range_meters":35600,"station_id":"ce4bgn92rcd13ifvqbvg","pricing_plan_id":"cebpf4jnsgd1na2vs0mg"},{"bike_id":"1a1e5e11-9958-419e-a69a-a32565d8d10c","system_id":"levelo_inurba_marseille","lat":43.28943,"lon":5.38181,"is_reserved":false,"is_disabled":false,"rental_uris":{"android":"levelo://app?vid=1a1e5e11-9958-419e-a69a-a32565d8d10c","ios":"levelo://app?vid=1a1e5e11-9958-419e-a69a-a32565d8d10c"},"vehicle_type_id":"4","last_reported":1728025726,"current_range_meters":12800,"station_id":"","pricing_plan_id":"cebpf4jnsgd1na2vs0mg"},{"bike_id":"f6139423-9a75-4754-aa4b-50bb61259845","system_id":"levelo_inurba_marseille","lat":43.31714,"lon":5.40471,"is_reserved":false,"is_disabled":false,"rental_uris":{"android":"levelo://app?vid=f6139423-9a75-4754-aa4b-50bb61259845","ios":"levelo://app?vid=f6139423-9a75-4754-aa4b-50bb61259845"},"vehicle_type_id":"4","last_reported":1728025726,"current_range_meters":26000,"station_id":"ce4bh012rcd13ifvqd00","pricing_plan_id":"cebpf4jnsgd1na2vs0mg"},{"bike_id":"0f49be9b-dea8-4072-a936-e4af7b56b73f","system_id":"levelo_inurba_marseille","lat":43.26569,"lon":5.39006,"is_reserved":false,"is_disabled":false,"rental_uris":{"android":"levelo://app?vid=0f49be9b-dea8-4072-a936-e4af7b56b73f","ios":"levelo://app?vid=0f49be9b-dea8-4072-a936-e4af7b56b73f"},"vehicle_type_id":"4","last_reported":1728025726,"current_range_meters":27600,"station_id":"ce4bhe12rcd13ifvqf30","pricing_plan_id":"cebpf4jnsgd1na2vs0mg"},{"bike_id":"7641a29f-8cc4-44e9-9fa1-75487af08917","system_id":"levelo_inurba_marseille","lat":43.2594,"lon":5.409,"is_reserved":false,"is_disabled":false,"rental_uris":{"android":"levelo://app?vid=7641a29f-8cc4-44e9-9fa1-75487af08917","ios":"levelo://app?vid=7641a29f-8cc4-44e9-9fa1-75487af08917"},"vehicle_type_id":"4","last_reported":1728025726,"current_range_meters":35200,"station_id":"ce4bhm92rcd13ifvqglg","pricing_plan_id":"cebpf4jnsgd1na2vs0mg"},{"bike_id":"ad9d6e94-a639-469e-9892-0c7fed511f97","system_id":"levelo_inurba_marseille","lat":43.26553,"lon":5.3729,"is_reserved":false,"is_disabled":false,"rental_uris":{"android":"levelo://app?vid=ad9d6e94-a639-469e-9892-0c7fed511f97","ios":"levelo://app?vid=ad9d6e94-a639-469e-9892-0c7fed511f97"},"vehicle_type_id":"4","last_reported":1728025726,"current_range_meters":16400,"station_id":"ce4bhg12rcd13ifvqf70","pricing_plan_id":"cebpf4jnsgd1na2vs0mg"},{"bike_id":"26e9ac8f-418b-4362-8231-79836aae8ec3","system_id":"levelo_inurba_marseille","lat":43.30891,"lon":5.36831,"is_reserved":false,"is_disabled":false,"rental_uris":{"android":"levelo://app?vid=26e9ac8f-418b-4362-8231-79836aae8ec3","ios":"levelo://app?vid=26e9ac8f-418b-4362-8231-79836aae8ec3"},"vehicle_type_id":"4","last_reported":1728025726,"current_range_meters":22000,"station_id":"ce4bgn92rcd13ifvqbvg","pricing_plan_id":"cebpf4jnsgd1na2vs0mg"},{"bike_id":"e659d4ba-a618-47a8-b57e-bd88c131a0ca","system_id":"levelo_inurba_marseille","lat":43.26929,"lon":5.38918,"is_reserved":false,"is_disabled":false,"rental_uris":{"android":"levelo://app?vid=e659d4ba-a618-47a8-b57e-bd88c131a0ca","ios":"levelo://app?vid=e659d4ba-a618-47a8-b57e-bd88c131a0ca"},"vehicle_type_id":"4","last_reported":1728025726,"current_range_meters":36400,"station_id":"ce4bhhh2rcd13ifvqfl0","pricing_plan_id":"cebpf4jnsgd1na2vs0mg"},{"bike_id":"e0565007-e099-4360-85ee-352bc1a52261","system_id":"levelo_inurba_marseille","lat":43.27488,"lon":5.42455,"is_reserved":false,"is_disabled":false,"rental_uris":{"android":"levelo://app?vid=e0565007-e099-4360-85ee-352bc1a52261","ios":"levelo://app?vid=e0565007-e099-4360-85ee-352bc1a52261"},"vehicle_type_id":"4","last_reported":1728025726,"current_range_meters":20400,"station_id":"ce4bhn92rcd13ifvqgrg","pricing_plan_id":"cebpf4jnsgd1na2vs0mg"},{"bike_id":"9e510002-bc2e-4eff-8d5d-287714d2b85d","system_id":"levelo_inurba_marseille","lat":43.28471,"lon":5.38413,"is_reserved":false,"is_disabled":false,"rental_uris":{"android":"levelo://app?vid=9e510002-bc2e-4eff-8d5d-287714d2b85d","ios":"levelo://app?vid=9e510002-bc2e-4eff-8d5d-287714d2b85d"},"vehicle_type_id":"4","last_reported":1728025726,"current_range_meters":37600,"station_id":"ce4bh512rcd13ifvqe3g","pricing_plan_id":"cebpf4jnsgd1na2vs0mg"},{"bike_id":"6c612d46-36b3-4c42-a988-8fe9c456f752","system_id":"levelo_inurba_marseille","lat":43.30468,"lon":5.37898,"is_reserved":false,"is_disabled":false,"rental_uris":{"android":"levelo://app?vid=6c612d46-36b3-4c42-a988-8fe9c456f752","ios":"levelo://app?vid=6c612d46-36b3-4c42-a988-8fe9c456f752"},"vehicle_type_id":"4","last_reported":1728025726,"current_range_meters":28000,"station_id":"ce4bgup2rcd13ifvqcn0","pricing_plan_id":"cebpf4jnsgd1na2vs0mg"},{"bike_id":"dcd727b3-f9c1-4311-b079-85f7e54ffe8d","system_id":"levelo_inurba_marseille","lat":43.24076,"lon":5.37752,"is_reserved":false,"is_disabled":false,"rental_uris":{"android":"levelo://app?vid=dcd727b3-f9c1-4311-b079-85f7e54ffe8d","ios":"levelo://app?vid=dcd727b3-f9c1-4311-b079-85f7e54ffe8d"},"vehicle_type_id":"4","last_reported":1728025726,"current_range_meters":30400,"station_id":"ce4bhnp2rcd13ifvqgvg","pricing_plan_id":"cebpf4jnsgd1na2vs0mg"},{"bike_id":"d07ee1a2-8049-46fd-9baa-b462a77e6391","system_id":"levelo_inurba_marseille","lat":43.30145,"lon":5.37423,"is_reserved":false,"is_disabled":false,"rental_uris":{"android":"levelo://app?vid=d07ee1a2-8049-46fd-9baa-b462a77e6391","ios":"levelo://app?vid=d07ee1a2-8049-46fd-9baa-b462a77e6391"},"vehicle_type_id":"4","last_reported":1728025726,"current_range_meters":3600,"station_id":"ce4bgs92rcd13ifvqcc0","pricing_plan_id":"cebpf4jnsgd1na2vs0mg"},{"bike_id":"2abc33c5-5934-4cf6-a1e5-6f26fe87d8e9","system_id":"levelo_inurba_marseille","lat":43.28614,"lon":5.35093,"is_reserved":false,"is_disabled":false,"rental_uris":{"android":"levelo://app?vid=2abc33c5-5934-4cf6-a1e5-6f26fe87d8e9","ios":"levelo://app?vid=2abc33c5-5934-4cf6-a1e5-6f26fe87d8e9"},"vehicle_type_id":"4","last_reported":1728025726,"current_range_meters":8000,"station_id":"ce4bhch2rcd13ifvqeug","pricing_plan_id":"cebpf4jnsgd1na2vs0mg"},{"bike_id":"6492f35d-2ead-4863-985e-e92ad62cabbd","system_id":"levelo_inurba_marseille","lat":43.27183,"lon":5.40989,"is_reserved":false,"is_disabled":false,"rental_uris":{"android":"levelo://app?vid=6492f35d-2ead-4863-985e-e92ad62cabbd","ios":"levelo://app?vid=6492f35d-2ead-4863-985e-e92ad62cabbd"},"vehicle_type_id":"4","last_reported":1728025726,"current_range_meters":29600,"station_id":"ce4bhl12rcd13ifvqgf0","pricing_plan_id":"cebpf4jnsgd1na2vs0mg"},{"bike_id":"7b148408-8b54-4675-906c-183089e46e7c","system_id":"levelo_inurba_marseille","lat":43.25581,"lon":5.38228,"is_reserved":false,"is_disabled":false,"rental_uris":{"android":"levelo://app?vid=7b148408-8b54-4675-906c-183089e46e7c","ios":"levelo://app?vid=7b148408-8b54-4675-906c-183089e46e7c"},"vehicle_type_id":"4","last_reported":1728025726,"current_range_meters":35200,"station_id":"ce4bhih2rcd13ifvqfs0","pricing_plan_id":"cebpf4jnsgd1na2vs0mg"},{"bike_id":"0fc7ae8d-9102-4d20-8337-a47ebec4b5f1","system_id":"levelo_inurba_marseille","lat":43.32538,"lon":5.4143,"is_reserved":false,"is_disabled":false,"rental_uris":{"android":"levelo://app?vid=0fc7ae8d-9102-4d20-8337-a47ebec4b5f1","ios":"levelo://app?vid=0fc7ae8d-9102-4d20-8337-a47ebec4b5f1"},"vehicle_type_id":"4","last_reported":1728025726,"current_range_meters":39200,"station_id":"ce4bhq12rcd13ifvqhhg","pricing_plan_id":"cebpf4jnsgd1na2vs0mg"},{"bike_id":"886dafb8-aa80-4737-85fe-d6470b801da8","system_id":"levelo_inurba_marseille","lat":43.26684,"lon":5.38269,"is_reserved":false,"is_disabled":false,"rental_uris":{"android":"levelo://app?vid=886dafb8-aa80-4737-85fe-d6470b801da8","ios":"levelo://app?vid=886dafb8-aa80-4737-85fe-d6470b801da8"},"vehicle_type_id":"4","last_reported":1728025726,"current_range_meters":10800,"station_id":"ce4bhg92rcd13ifvqf90","pricing_plan_id":"cebpf4jnsgd1na2vs0mg"},{"bike_id":"20f46fa5-d31d-4e13-b537-640ef08752d8","system_id":"levelo_inurba_marseille","lat":43.29032,"lon":5.37558,"is_reserved":false,"is_disabled":false,"rental_uris":{"android":"levelo://app?vid=20f46fa5-d31d-4e13-b537-640ef08752d8","ios":"levelo://app?vid=20f46fa5-d31d-4e13-b537-640ef08752d8"},"vehicle_type_id":"4","last_reported":1728025726,"current_range_meters":25200,"station_id":"ce4bh692rcd13ifvqe90","pricing_plan_id":"cebpf4jnsgd1na2vs0mg"},{"bike_id":"9ae1ee60-dc31-4641-b81c-ed7d70d2769a","system_id":"levelo_inurba_marseille","lat":43.30152,"lon":5.38077,"is_reserved":false,"is_disabled":false,"rental_uris":{"android":"levelo://app?vid=9ae1ee60-dc31-4641-b81c-ed7d70d2769a","ios":"levelo://app?vid=9ae1ee60-dc31-4641-b81c-ed7d70d2769a"},"vehicle_type_id":"4","last_reported":1728025726,"current_range_meters":19600,"station_id":"ce4bgjp2rcd13ifvqbh0","pricing_plan_id":"cebpf4jnsgd1na2vs0mg"},{"bike_id":"970dfa6f-96dd-4258-9aa9-971943a08a16","system_id":"levelo_inurba_marseille","lat":43.32535,"lon":5.41419,"is_reserved":false,"is_disabled":false,"rental_uris":{"android":"levelo://app?vid=970dfa6f-96dd-4258-9aa9-971943a08a16","ios":"levelo://app?vid=970dfa6f-96dd-4258-9aa9-971943a08a16"},"vehicle_type_id":"4","last_reported":1728025726,"current_range_meters":22800,"station_id":"ce4bhq12rcd13ifvqhhg","pricing_plan_id":"cebpf4jnsgd1na2vs0mg"},{"bike_id":"85a60867-0292-479f-99a9-23810b153b98","system_id":"levelo_inurba_marseille","lat":43.27064,"lon":5.42275,"is_reserved":false,"is_disabled":false,"rental_uris":{"android":"levelo://app?vid=85a60867-0292-479f-99a9-23810b153b98","ios":"levelo://app?vid=85a60867-0292-479f-99a9-23810b153b98"},"vehicle_type_id":"4","last_reported":1728025726,"current_range_meters":9600,"station_id":"ce4bhk92rcd13ifvqgb0","pricing_plan_id":"cebpf4jnsgd1na2vs0mg"},{"bike_id":"fa3d6ca4-2f87-4548-92ec-46dd58791c3a","system_id":"levelo_inurba_marseille","lat":43.2315,"lon":5.43716,"is_reserved":false,"is_disabled":false,"rental_uris":{"android":"levelo://app?vid=fa3d6ca4-2f87-4548-92ec-46dd58791c3a","ios":"levelo://app?vid=fa3d6ca4-2f87-4548-92ec-46dd58791c3a"},"vehicle_type_id":"4","last_reported":1728025726,"current_range_meters":9200,"station_id":"ce4bhmp2rcd13ifvqgog","pricing_plan_id":"cebpf4jnsgd1na2vs0mg"},{"bike_id":"5c8970c0-3ceb-465a-9f61-48e90dd5c290","system_id":"levelo_inurba_marseille","lat":43.24998,"lon":5.38918,"is_reserved":false,"is_disabled":false,"rental_uris":{"android":"levelo://app?vid=5c8970c0-3ceb-465a-9f61-48e90dd5c290","ios":"levelo://app?vid=5c8970c0-3ceb-465a-9f61-48e90dd5c290"},"vehicle_type_id":"4","last_reported":1728025726,"current_range_meters":27600,"station_id":"ce4bhgp2rcd13ifvqfd0","pricing_plan_id":"cebpf4jnsgd1na2vs0mg"},{"bike_id":"7f329304-c627-4196-8d0f-ef29b0434bf7","system_id":"levelo_inurba_marseille","lat":43.28616,"lon":5.35107,"is_reserved":false,"is_disabled":false,"rental_uris":{"android":"levelo://app?vid=7f329304-c627-4196-8d0f-ef29b0434bf7","ios":"levelo://app?vid=7f329304-c627-4196-8d0f-ef29b0434bf7"},"vehicle_type_id":"4","last_reported":1728025726,"current_range_meters":38800,"station_id":"ce4bhch2rcd13ifvqeug","pricing_plan_id":"cebpf4jnsgd1na2vs0mg"},{"bike_id":"e3b7cefd-ab27-4631-b8e2-a1afdc89538e","system_id":"levelo_inurba_marseille","lat":43.30146,"lon":5.38053,"is_reserved":false,"is_disabled":false,"rental_uris":{"android":"levelo://app?vid=e3b7cefd-ab27-4631-b8e2-a1afdc89538e","ios":"levelo://app?vid=e3b7cefd-ab27-4631-b8e2-a1afdc89538e"},"vehicle_type_id":"4","last_reported":1728025726,"current_range_meters":20000,"station_id":"ce4bgjp2rcd13ifvqbh0","pricing_plan_id":"cebpf4jnsgd1na2vs0mg"},{"bike_id":"09183c48-4366-4528-8414-00ff55312167","system_id":"levelo_inurba_marseille","lat":43.27425,"lon":5.3941,"is_reserved":false,"is_disabled":false,"rental_uris":{"android":"levelo://app?vid=09183c48-4366-4528-8414-00ff55312167","ios":"levelo://app?vid=09183c48-4366-4528-8414-00ff55312167"},"vehicle_type_id":"4","last_reported":1728025726,"current_range_meters":37600,"station_id":"ce4bhdp2rcd13ifvqf20","pricing_plan_id":"cebpf4jnsgd1na2vs0mg"},{"bike_id":"49a3403f-5a93-443e-8052-24eba6f7e6a3","system_id":"levelo_inurba_marseille","lat":43.30538,"lon":5.36534,"is_reserved":false,"is_disabled":false,"rental_uris":{"android":"levelo://app?vid=49a3403f-5a93-443e-8052-24eba6f7e6a3","ios":"levelo://app?vid=49a3403f-5a93-443e-8052-24eba6f7e6a3"},"vehicle_type_id":"4","last_reported":1728025726,"current_range_meters":36800,"station_id":"ce4bgs12rcd13ifvqcag","pricing_plan_id":"cebpf4jnsgd1na2vs0mg"},{"bike_id":"faba9af0-feba-4de4-9b4d-49810f210892","system_id":"levelo_inurba_marseille","lat":43.29864,"lon":5.39728,"is_reserved":false,"is_disabled":false,"rental_uris":{"android":"levelo://app?vid=faba9af0-feba-4de4-9b4d-49810f210892","ios":"levelo://app?vid=faba9af0-feba-4de4-9b4d-49810f210892"},"vehicle_type_id":"4","last_reported":1728025726,"current_range_meters":10000,"station_id":"ce4bh0h2rcd13ifvqd50","pricing_plan_id":"cebpf4jnsgd1na2vs0mg"},{"bike_id":"3320a0c3-f756-4a1a-83c4-a091c4d89b13","system_id":"levelo_inurba_marseille","lat":43.25823,"lon":5.39437,"is_reserved":false,"is_disabled":false,"rental_uris":{"android":"levelo://app?vid=3320a0c3-f756-4a1a-83c4-a091c4d89b13","ios":"levelo://app?vid=3320a0c3-f756-4a1a-83c4-a091c4d89b13"},"vehicle_type_id":"4","last_reported":1728025726,"current_range_meters":28000,"station_id":"ce4bhip2rcd13ifvqft0","pricing_plan_id":"cebpf4jnsgd1na2vs0mg"},{"bike_id":"71a6012d-cbe4-457d-b564-5f3031d94857","system_id":"levelo_inurba_marseille","lat":43.29548,"lon":5.42289,"is_reserved":false,"is_disabled":false,"rental_uris":{"android":"levelo://app?vid=71a6012d-cbe4-457d-b564-5f3031d94857","ios":"levelo://app?vid=71a6012d-cbe4-457d-b564-5f3031d94857"},"vehicle_type_id":"4","last_reported":1728025726,"current_range_meters":26800,"station_id":"ce4bhph2rcd13ifvqhdg","pricing_plan_id":"cebpf4jnsgd1na2vs0mg"},{"bike_id":"12014e5f-9061-4078-ba17-f5b4421eab0c","system_id":"levelo_inurba_marseille","lat":43.23151,"lon":5.43723,"is_reserved":false,"is_disabled":false,"rental_uris":{"android":"levelo://app?vid=12014e5f-9061-4078-ba17-f5b4421eab0c","ios":"levelo://app?vid=12014e5f-9061-4078-ba17-f5b4421eab0c"},"vehicle_type_id":"4","last_reported":1728025726,"current_range_meters":20800,"station_id":"ce4bhmp2rcd13ifvqgog","pricing_plan_id":"cebpf4jnsgd1na2vs0mg"},{"bike_id":"1e7c5976-aef1-4b44-93b5-9c21b7e1cd86","system_id":"levelo_inurba_marseille","lat":43.30467,"lon":5.37898,"is_reserved":false,"is_disabled":false,"rental_uris":{"android":"levelo://app?vid=1e7c5976-aef1-4b44-93b5-9c21b7e1cd86","ios":"levelo://app?vid=1e7c5976-aef1-4b44-93b5-9c21b7e1cd86"},"vehicle_type_id":"4","last_reported":1728025726,"current_range_meters":24800,"station_id":"ce4bgup2rcd13ifvqcn0","pricing_plan_id":"cebpf4jnsgd1na2vs0mg"},{"bike_id":"60133598-3403-4260-b670-4e2957166424","system_id":"levelo_inurba_marseille","lat":43.2408,"lon":5.37754,"is_reserved":false,"is_disabled":false,"rental_uris":{"android":"levelo://app?vid=60133598-3403-4260-b670-4e2957166424","ios":"levelo://app?vid=60133598-3403-4260-b670-4e2957166424"},"vehicle_type_id":"4","last_reported":1728025726,"current_range_meters":23200,"station_id":"ce4bhnp2rcd13ifvqgvg","pricing_plan_id":"cebpf4jnsgd1na2vs0mg"},{"bike_id":"81e8cc45-48f2-4c87-93fc-0c1be54258cf","system_id":"levelo_inurba_marseille","lat":43.28618,"lon":5.37056,"is_reserved":false,"is_disabled":false,"rental_uris":{"android":"levelo://app?vid=81e8cc45-48f2-4c87-93fc-0c1be54258cf","ios":"levelo://app?vid=81e8cc45-48f2-4c87-93fc-0c1be54258cf"},"vehicle_type_id":"4","last_reported":1728025726,"current_range_meters":38800,"station_id":"ce4bht12rcd13ifvqi60","pricing_plan_id":"cebpf4jnsgd1na2vs0mg"},{"bike_id":"b9ec2ea0-2f03-42ef-b8d7-df638da4c795","system_id":"levelo_inurba_marseille","lat":43.30918,"lon":5.36861,"is_reserved":false,"is_disabled":false,"rental_uris":{"android":"levelo://app?vid=b9ec2ea0-2f03-42ef-b8d7-df638da4c795","ios":"levelo://app?vid=b9ec2ea0-2f03-42ef-b8d7-df638da4c795"},"vehicle_type_id":"4","last_reported":1728025726,"current_range_meters":38000,"station_id":"ce4bgn92rcd13ifvqbvg","pricing_plan_id":"cebpf4jnsgd1na2vs0mg"},{"bike_id":"781757d6-91df-4aa1-afd2-cfd41967db46","system_id":"levelo_inurba_marseille","lat":43.25001,"lon":5.38924,"is_reserved":false,"is_disabled":false,"rental_uris":{"android":"levelo://app?vid=781757d6-91df-4aa1-afd2-cfd41967db46","ios":"levelo://app?vid=781757d6-91df-4aa1-afd2-cfd41967db46"},"vehicle_type_id":"4","last_reported":1728025726,"current_range_meters":38800,"station_id":"ce4bhgp2rcd13ifvqfd0","pricing_plan_id":"cebpf4jnsgd1na2vs0mg"},{"bike_id":"1aa073ee-e2b1-4bc6-8f0a-1770982b4b95","system_id":"levelo_inurba_marseille","lat":43.32536,"lon":5.41423,"is_reserved":false,"is_disabled":false,"rental_uris":{"android":"levelo://app?vid=1aa073ee-e2b1-4bc6-8f0a-1770982b4b95","ios":"levelo://app?vid=1aa073ee-e2b1-4bc6-8f0a-1770982b4b95"},"vehicle_type_id":"4","last_reported":1728025726,"current_range_meters":33600,"station_id":"ce4bhq12rcd13ifvqhhg","pricing_plan_id":"cebpf4jnsgd1na2vs0mg"},{"bike_id":"9181e386-52a4-43f5-88fc-86f3e1d7a3a6","system_id":"levelo_inurba_marseille","lat":43.34136,"lon":5.40905,"is_reserved":false,"is_disabled":false,"rental_uris":{"android":"levelo://app?vid=9181e386-52a4-43f5-88fc-86f3e1d7a3a6","ios":"levelo://app?vid=9181e386-52a4-43f5-88fc-86f3e1d7a3a6"},"vehicle_type_id":"4","last_reported":1728025726,"current_range_meters":27600,"station_id":"ce4bhqh2rcd13ifvqhlg","pricing_plan_id":"cebpf4jnsgd1na2vs0mg"},{"bike_id":"6e3d8af3-726e-43e4-9ee9-230f2ce8d10b","system_id":"levelo_inurba_marseille","lat":43.26943,"lon":5.38628,"is_reserved":false,"is_disabled":false,"rental_uris":{"android":"levelo://app?vid=6e3d8af3-726e-43e4-9ee9-230f2ce8d10b","ios":"levelo://app?vid=6e3d8af3-726e-43e4-9ee9-230f2ce8d10b"},"vehicle_type_id":"4","last_reported":1728025726,"current_range_meters":36400,"station_id":"ce4bhh92rcd13ifvqfh0","pricing_plan_id":"cebpf4jnsgd1na2vs0mg"},{"bike_id":"d569267f-419a-4d36-a732-0ebbc564ff43","system_id":"levelo_inurba_marseille","lat":43.26206,"lon":5.37919,"is_reserved":false,"is_disabled":false,"rental_uris":{"android":"levelo://app?vid=d569267f-419a-4d36-a732-0ebbc564ff43","ios":"levelo://app?vid=d569267f-419a-4d36-a732-0ebbc564ff43"},"vehicle_type_id":"4","last_reported":1728025726,"current_range_meters":38000,"station_id":"ce4bhjp2rcd13ifvqg90","pricing_plan_id":"cebpf4jnsgd1na2vs0mg"},{"bike_id":"fd872ba7-9877-4e67-9269-d8995abba644","system_id":"levelo_inurba_marseille","lat":43.22936,"lon":5.35379,"is_reserved":false,"is_disabled":false,"rental_uris":{"android":"levelo://app?vid=fd872ba7-9877-4e67-9269-d8995abba644","ios":"levelo://app?vid=fd872ba7-9877-4e67-9269-d8995abba644"},"vehicle_type_id":"4","last_reported":1728025726,"current_range_meters":22000,"station_id":"cpo3532slgdg3j2ikp40","pricing_plan_id":"cebpf4jnsgd1na2vs0mg"},{"bike_id":"2fcabd95-acf2-4bbf-b03c-4279bce42f10","system_id":"levelo_inurba_marseille","lat":43.30454,"lon":5.37895,"is_reserved":false,"is_disabled":false,"rental_uris":{"android":"levelo://app?vid=2fcabd95-acf2-4bbf-b03c-4279bce42f10","ios":"levelo://app?vid=2fcabd95-acf2-4bbf-b03c-4279bce42f10"},"vehicle_type_id":"4","last_reported":1728025726,"current_range_meters":30800,"station_id":"ce4bgup2rcd13ifvqcn0","pricing_plan_id":"cebpf4jnsgd1na2vs0mg"},{"bike_id":"e2e710fa-18d1-4640-8843-7ba0cc5f8fd8","system_id":"levelo_inurba_marseille","lat":43.29573,"lon":5.39963,"is_reserved":false,"is_disabled":false,"rental_uris":{"android":"levelo://app?vid=e2e710fa-18d1-4640-8843-7ba0cc5f8fd8","ios":"levelo://app?vid=e2e710fa-18d1-4640-8843-7ba0cc5f8fd8"},"vehicle_type_id":"4","last_reported":1728025726,"current_range_meters":38800,"station_id":"ce4bh312rcd13ifvqdj0","pricing_plan_id":"cebpf4jnsgd1na2vs0mg"},{"bike_id":"c1b845b1-b148-48e3-b795-440066e77ead","system_id":"levelo_inurba_marseille","lat":43.30552,"lon":5.36709,"is_reserved":false,"is_disabled":false,"rental_uris":{"android":"levelo://app?vid=c1b845b1-b148-48e3-b795-440066e77ead","ios":"levelo://app?vid=c1b845b1-b148-48e3-b795-440066e77ead"},"vehicle_type_id":"4","last_reported":1728025726,"current_range_meters":38800,"station_id":"ce4bgrp2rcd13ifvqc9g","pricing_plan_id":"cebpf4jnsgd1na2vs0mg"},{"bike_id":"550e08ad-2e16-412d-b9fc-ef72bf5bc2e0","system_id":"levelo_inurba_marseille","lat":43.24662,"lon":5.38162,"is_reserved":false,"is_disabled":false,"rental_uris":{"android":"levelo://app?vid=550e08ad-2e16-412d-b9fc-ef72bf5bc2e0","ios":"levelo://app?vid=550e08ad-2e16-412d-b9fc-ef72bf5bc2e0"},"vehicle_type_id":"4","last_reported":1728025726,"current_range_meters":38800,"station_id":"ce4bhih2rcd13ifvqfr0","pricing_plan_id":"cebpf4jnsgd1na2vs0mg"},{"bike_id":"39d78331-ffb1-4053-a8d1-327bafc76313","system_id":"levelo_inurba_marseille","lat":43.2988,"lon":5.41334,"is_reserved":false,"is_disabled":false,"rental_uris":{"android":"levelo://app?vid=39d78331-ffb1-4053-a8d1-327bafc76313","ios":"levelo://app?vid=39d78331-ffb1-4053-a8d1-327bafc76313"},"vehicle_type_id":"4","last_reported":1728025726,"current_range_meters":18000,"station_id":"","pricing_plan_id":"cebpf4jnsgd1na2vs0mg"},{"bike_id":"2f0e98b8-40e8-49e8-bfb4-ce45e2c6c864","system_id":"levelo_inurba_marseille","lat":43.30156,"lon":5.38082,"is_reserved":false,"is_disabled":false,"rental_uris":{"android":"levelo://app?vid=2f0e98b8-40e8-49e8-bfb4-ce45e2c6c864","ios":"levelo://app?vid=2f0e98b8-40e8-49e8-bfb4-ce45e2c6c864"},"vehicle_type_id":"4","last_reported":1728025726,"current_range_meters":35600,"station_id":"ce4bgjp2rcd13ifvqbh0","pricing_plan_id":"cebpf4jnsgd1na2vs0mg"},{"bike_id":"b1dfe2ea-3738-4edc-8582-6d3008fb75bb","system_id":"levelo_inurba_marseille","lat":43.26948,"lon":5.38635,"is_reserved":false,"is_disabled":false,"rental_uris":{"android":"levelo://app?vid=b1dfe2ea-3738-4edc-8582-6d3008fb75bb","ios":"levelo://app?vid=b1dfe2ea-3738-4edc-8582-6d3008fb75bb"},"vehicle_type_id":"4","last_reported":1728025726,"current_range_meters":37600,"station_id":"ce4bhh92rcd13ifvqfh0","pricing_plan_id":"cebpf4jnsgd1na2vs0mg"},{"bike_id":"ff322790-1afb-4807-92f3-178dbd6ba6ab","system_id":"levelo_inurba_marseille","lat":43.27074,"lon":5.39223,"is_reserved":false,"is_disabled":false,"rental_uris":{"android":"levelo://app?vid=ff322790-1afb-4807-92f3-178dbd6ba6ab","ios":"levelo://app?vid=ff322790-1afb-4807-92f3-178dbd6ba6ab"},"vehicle_type_id":"4","last_reported":1728025726,"current_range_meters":30000,"station_id":"","pricing_plan_id":"cebpf4jnsgd1na2vs0mg"},{"bike_id":"3c12f06e-bd86-43ae-a5d0-3f6a16b16b13","system_id":"levelo_inurba_marseille","lat":43.29842,"lon":5.36265,"is_reserved":false,"is_disabled":false,"rental_uris":{"android":"levelo://app?vid=3c12f06e-bd86-43ae-a5d0-3f6a16b16b13","ios":"levelo://app?vid=3c12f06e-bd86-43ae-a5d0-3f6a16b16b13"},"vehicle_type_id":"4","last_reported":1728025726,"current_range_meters":10800,"station_id":"ce4bgpp2rcd13ifvqc3g","pricing_plan_id":"cebpf4jnsgd1na2vs0mg"},{"bike_id":"68d1a591-7a71-4266-84f4-892a9256b118","system_id":"levelo_inurba_marseille","lat":43.29705,"lon":5.37709,"is_reserved":false,"is_disabled":false,"rental_uris":{"android":"levelo://app?vid=68d1a591-7a71-4266-84f4-892a9256b118","ios":"levelo://app?vid=68d1a591-7a71-4266-84f4-892a9256b118"},"vehicle_type_id":"4","last_reported":1728025726,"current_range_meters":27600,"station_id":"ce4bgkh2rcd13ifvqbl0","pricing_plan_id":"cebpf4jnsgd1na2vs0mg"},{"bike_id":"663587cd-b36d-4243-ae9a-0edc908d5d86","system_id":"levelo_inurba_marseille","lat":43.27655,"lon":5.38881,"is_reserved":false,"is_disabled":false,"rental_uris":{"android":"levelo://app?vid=663587cd-b36d-4243-ae9a-0edc908d5d86","ios":"levelo://app?vid=663587cd-b36d-4243-ae9a-0edc908d5d86"},"vehicle_type_id":"4","last_reported":1728025726,"current_range_meters":24800,"station_id":"ce4bhi12rcd13ifvqfo0","pricing_plan_id":"cebpf4jnsgd1na2vs0mg"},{"bike_id":"966dc3da-7026-4371-8b66-d75b3d11ef05","system_id":"levelo_inurba_marseille","lat":43.24382,"lon":5.37046,"is_reserved":false,"is_disabled":false,"rental_uris":{"android":"levelo://app?vid=966dc3da-7026-4371-8b66-d75b3d11ef05","ios":"levelo://app?vid=966dc3da-7026-4371-8b66-d75b3d11ef05"},"vehicle_type_id":"4","last_reported":1728025726,"current_range_meters":38000,"station_id":"ce4bhhh2rcd13ifvqfk0","pricing_plan_id":"cebpf4jnsgd1na2vs0mg"},{"bike_id":"a1a35de6-b731-415c-b437-6aafc406c091","system_id":"levelo_inurba_marseille","lat":43.30536,"lon":5.36546,"is_reserved":false,"is_disabled":false,"rental_uris":{"android":"levelo://app?vid=a1a35de6-b731-415c-b437-6aafc406c091","ios":"levelo://app?vid=a1a35de6-b731-415c-b437-6aafc406c091"},"vehicle_type_id":"4","last_reported":1728025726,"current_range_meters":33600,"station_id":"ce4bgs12rcd13ifvqcag","pricing_plan_id":"cebpf4jnsgd1na2vs0mg"},{"bike_id":"d2826c66-de88-44b9-a80e-8ce24e8503f8","system_id":"levelo_inurba_marseille","lat":43.31232,"lon":5.36849,"is_reserved":false,"is_disabled":false,"rental_uris":{"android":"levelo://app?vid=d2826c66-de88-44b9-a80e-8ce24e8503f8","ios":"levelo://app?vid=d2826c66-de88-44b9-a80e-8ce24e8503f8"},"vehicle_type_id":"4","last_reported":1728025726,"current_range_meters":38800,"station_id":"ce4bgl92rcd13ifvqbq0","pricing_plan_id":"cebpf4jnsgd1na2vs0mg"},{"bike_id":"e21b5cde-2991-49e1-81a5-a4d27a8959f1","system_id":"levelo_inurba_marseille","lat":43.28937,"lon":5.39632,"is_reserved":false,"is_disabled":false,"rental_uris":{"android":"levelo://app?vid=e21b5cde-2991-49e1-81a5-a4d27a8959f1","ios":"levelo://app?vid=e21b5cde-2991-49e1-81a5-a4d27a8959f1"},"vehicle_type_id":"4","last_reported":1728025726,"current_range_meters":27600,"station_id":"ce4bh3h2rcd13ifvqdn0","pricing_plan_id":"cebpf4jnsgd1na2vs0mg"},{"bike_id":"d2837eff-1fe3-4dad-833e-63f38367d961","system_id":"levelo_inurba_marseille","lat":43.28843,"lon":5.35856,"is_reserved":false,"is_disabled":false,"rental_uris":{"android":"levelo://app?vid=d2837eff-1fe3-4dad-833e-63f38367d961","ios":"levelo://app?vid=d2837eff-1fe3-4dad-833e-63f38367d961"},"vehicle_type_id":"4","last_reported":1728025726,"current_range_meters":38000,"station_id":"ce4bhb12rcd13ifvqem0","pricing_plan_id":"cebpf4jnsgd1na2vs0mg"},{"bike_id":"47a3293c-1ddd-4454-a41a-80712a0e08c8","system_id":"levelo_inurba_marseille","lat":43.31365,"lon":5.36707,"is_reserved":false,"is_disabled":false,"rental_uris":{"android":"levelo://app?vid=47a3293c-1ddd-4454-a41a-80712a0e08c8","ios":"levelo://app?vid=47a3293c-1ddd-4454-a41a-80712a0e08c8"},"vehicle_type_id":"4","last_reported":1728025726,"current_range_meters":38800,"station_id":"ce4bgr92rcd13ifvqc6g","pricing_plan_id":"cebpf4jnsgd1na2vs0mg"},{"bike_id":"d388ea53-b68b-46d1-8097-c8043378c09e","system_id":"levelo_inurba_marseille","lat":43.30294,"lon":5.36919,"is_reserved":false,"is_disabled":false,"rental_uris":{"android":"levelo://app?vid=d388ea53-b68b-46d1-8097-c8043378c09e","ios":"levelo://app?vid=d388ea53-b68b-46d1-8097-c8043378c09e"},"vehicle_type_id":"4","last_reported":1728025726,"current_range_meters":34800,"station_id":"ce4bgqh2rcd13ifvqc5g","pricing_plan_id":"cebpf4jnsgd1na2vs0mg"},{"bike_id":"4061a425-0fa8-4b85-ba2e-dd23d5b416e9","system_id":"levelo_inurba_marseille","lat":43.28873,"lon":5.35848,"is_reserved":false,"is_disabled":false,"rental_uris":{"android":"levelo://app?vid=4061a425-0fa8-4b85-ba2e-dd23d5b416e9","ios":"levelo://app?vid=4061a425-0fa8-4b85-ba2e-dd23d5b416e9"},"vehicle_type_id":"4","last_reported":1728025726,"current_range_meters":33600,"station_id":"ce4bhb12rcd13ifvqem0","pricing_plan_id":"cebpf4jnsgd1na2vs0mg"},{"bike_id":"525e851f-b6fd-4226-b024-d76bd655edd1","system_id":"levelo_inurba_marseille","lat":43.23188,"lon":5.3999,"is_reserved":false,"is_disabled":false,"rental_uris":{"android":"levelo://app?vid=525e851f-b6fd-4226-b024-d76bd655edd1","ios":"levelo://app?vid=525e851f-b6fd-4226-b024-d76bd655edd1"},"vehicle_type_id":"4","last_reported":1728025726,"current_range_meters":30000,"station_id":"ce4bhn12rcd13ifvqgqg","pricing_plan_id":"cebpf4jnsgd1na2vs0mg"},{"bike_id":"43f2900c-6697-4097-baa3-ea663f36dd68","system_id":"levelo_inurba_marseille","lat":43.2984,"lon":5.36265,"is_reserved":false,"is_disabled":false,"rental_uris":{"android":"levelo://app?vid=43f2900c-6697-4097-baa3-ea663f36dd68","ios":"levelo://app?vid=43f2900c-6697-4097-baa3-ea663f36dd68"},"vehicle_type_id":"4","last_reported":1728025726,"current_range_meters":32800,"station_id":"ce4bgpp2rcd13ifvqc3g","pricing_plan_id":"cebpf4jnsgd1na2vs0mg"},{"bike_id":"e70a8dcf-8e87-4e58-9537-4724f90baf56","system_id":"levelo_inurba_marseille","lat":43.29918,"lon":5.37471,"is_reserved":false,"is_disabled":false,"rental_uris":{"android":"levelo://app?vid=e70a8dcf-8e87-4e58-9537-4724f90baf56","ios":"levelo://app?vid=e70a8dcf-8e87-4e58-9537-4724f90baf56"},"vehicle_type_id":"4","last_reported":1728025726,"current_range_meters":12800,"station_id":"ce4bgjh2rcd13ifvqbg0","pricing_plan_id":"cebpf4jnsgd1na2vs0mg"},{"bike_id":"05cb9737-2ee0-438b-954c-d9ce84654f18","system_id":"levelo_inurba_marseille","lat":43.290028,"lon":5.356119,"is_reserved":false,"is_disabled":false,"rental_uris":{"android":"levelo://app?vid=05cb9737-2ee0-438b-954c-d9ce84654f18","ios":"levelo://app?vid=05cb9737-2ee0-438b-954c-d9ce84654f18"},"vehicle_type_id":"4","last_reported":1728025726,"current_range_meters":32400,"station_id":"","pricing_plan_id":"cebpf4jnsgd1na2vs0mg"},{"bike_id":"82bf1695-2088-4d9c-859a-1ac40db53ee2","system_id":"levelo_inurba_marseille","lat":43.27492,"lon":5.42453,"is_reserved":false,"is_disabled":false,"rental_uris":{"android":"levelo://app?vid=82bf1695-2088-4d9c-859a-1ac40db53ee2","ios":"levelo://app?vid=82bf1695-2088-4d9c-859a-1ac40db53ee2"},"vehicle_type_id":"4","last_reported":1728025726,"current_range_meters":31200,"station_id":"ce4bhn92rcd13ifvqgrg","pricing_plan_id":"cebpf4jnsgd1na2vs0mg"},{"bike_id":"16a50fa2-597a-4294-a3d5-c35e56ef70a0","system_id":"levelo_inurba_marseille","lat":43.3254,"lon":5.41428,"is_reserved":false,"is_disabled":false,"rental_uris":{"android":"levelo://app?vid=16a50fa2-597a-4294-a3d5-c35e56ef70a0","ios":"levelo://app?vid=16a50fa2-597a-4294-a3d5-c35e56ef70a0"},"vehicle_type_id":"4","last_reported":1728025726,"current_range_meters":38800,"station_id":"ce4bhq12rcd13ifvqhhg","pricing_plan_id":"cebpf4jnsgd1na2vs0mg"},{"bike_id":"464707c1-fc3e-436a-b1dc-daa35ae81e76","system_id":"levelo_inurba_marseille","lat":43.28155,"lon":5.42642,"is_reserved":false,"is_disabled":false,"rental_uris":{"android":"levelo://app?vid=464707c1-fc3e-436a-b1dc-daa35ae81e76","ios":"levelo://app?vid=464707c1-fc3e-436a-b1dc-daa35ae81e76"},"vehicle_type_id":"4","last_reported":1728025726,"current_range_meters":39200,"station_id":"ce4bhnh2rcd13ifvqgug","pricing_plan_id":"cebpf4jnsgd1na2vs0mg"},{"bike_id":"f8ed13ba-0f92-4c24-a66c-ce1d50a499a4","system_id":"levelo_inurba_marseille","lat":43.30902,"lon":5.36828,"is_reserved":false,"is_disabled":false,"rental_uris":{"android":"levelo://app?vid=f8ed13ba-0f92-4c24-a66c-ce1d50a499a4","ios":"levelo://app?vid=f8ed13ba-0f92-4c24-a66c-ce1d50a499a4"},"vehicle_type_id":"4","last_reported":1728025726,"current_range_meters":10000,"station_id":"ce4bgn92rcd13ifvqbvg","pricing_plan_id":"cebpf4jnsgd1na2vs0mg"},{"bike_id":"53c6fe7a-c5f0-4c29-bdb6-08c6c7db5c71","system_id":"levelo_inurba_marseille","lat":43.32102,"lon":5.36774,"is_reserved":false,"is_disabled":false,"rental_uris":{"android":"levelo://app?vid=53c6fe7a-c5f0-4c29-bdb6-08c6c7db5c71","ios":"levelo://app?vid=53c6fe7a-c5f0-4c29-bdb6-08c6c7db5c71"},"vehicle_type_id":"4","last_reported":1728025726,"current_range_meters":6800,"station_id":"ce4bhrh2rcd13ifvqhug","pricing_plan_id":"cebpf4jnsgd1na2vs0mg"},{"bike_id":"6ce60676-3f86-4aaa-a5df-572436c32ad4","system_id":"levelo_inurba_marseille","lat":43.23194,"lon":5.35543,"is_reserved":false,"is_disabled":false,"rental_uris":{"android":"levelo://app?vid=6ce60676-3f86-4aaa-a5df-572436c32ad4","ios":"levelo://app?vid=6ce60676-3f86-4aaa-a5df-572436c32ad4"},"vehicle_type_id":"4","last_reported":1728025726,"current_range_meters":16400,"station_id":"ce4bhu92rcd13ifvqi70","pricing_plan_id":"cebpf4jnsgd1na2vs0mg"},{"bike_id":"bb1d45c3-f50a-4ba0-9942-1edc9ffd3ed6","system_id":"levelo_inurba_marseille","lat":43.25,"lon":5.38922,"is_reserved":false,"is_disabled":false,"rental_uris":{"android":"levelo://app?vid=bb1d45c3-f50a-4ba0-9942-1edc9ffd3ed6","ios":"levelo://app?vid=bb1d45c3-f50a-4ba0-9942-1edc9ffd3ed6"},"vehicle_type_id":"4","last_reported":1728025726,"current_range_meters":36000,"station_id":"ce4bhgp2rcd13ifvqfd0","pricing_plan_id":"cebpf4jnsgd1na2vs0mg"},{"bike_id":"c59a62a2-ad87-4538-8860-42039acb6fe1","system_id":"levelo_inurba_marseille","lat":43.30475,"lon":5.37893,"is_reserved":false,"is_disabled":false,"rental_uris":{"android":"levelo://app?vid=c59a62a2-ad87-4538-8860-42039acb6fe1","ios":"levelo://app?vid=c59a62a2-ad87-4538-8860-42039acb6fe1"},"vehicle_type_id":"4","last_reported":1728025726,"current_range_meters":25600,"station_id":"ce4bgup2rcd13ifvqcn0","pricing_plan_id":"cebpf4jnsgd1na2vs0mg"},{"bike_id":"5013c09a-3b43-40a8-800f-933c0132f8b8","system_id":"levelo_inurba_marseille","lat":43.30245,"lon":5.39035,"is_reserved":false,"is_disabled":false,"rental_uris":{"android":"levelo://app?vid=5013c09a-3b43-40a8-800f-933c0132f8b8","ios":"levelo://app?vid=5013c09a-3b43-40a8-800f-933c0132f8b8"},"vehicle_type_id":"4","last_reported":1728025726,"current_range_meters":38000,"station_id":"ce4bh692rcd13ifvqe90","pricing_plan_id":"cebpf4jnsgd1na2vs0mg"},{"bike_id":"93106a67-b122-459c-a4ea-31e43ee0cb9a","system_id":"levelo_inurba_marseille","lat":43.28618,"lon":5.35104,"is_reserved":false,"is_disabled":false,"rental_uris":{"android":"levelo://app?vid=93106a67-b122-459c-a4ea-31e43ee0cb9a","ios":"levelo://app?vid=93106a67-b122-459c-a4ea-31e43ee0cb9a"},"vehicle_type_id":"4","last_reported":1728025726,"current_range_meters":38400,"station_id":"ce4bhch2rcd13ifvqeug","pricing_plan_id":"cebpf4jnsgd1na2vs0mg"},{"bike_id":"692016e9-7433-4271-b50b-034a78dc7faf","system_id":"levelo_inurba_marseille","lat":43.29042,"lon":5.39956,"is_reserved":false,"is_disabled":false,"rental_uris":{"android":"levelo://app?vid=692016e9-7433-4271-b50b-034a78dc7faf","ios":"levelo://app?vid=692016e9-7433-4271-b50b-034a78dc7faf"},"vehicle_type_id":"4","last_reported":1728025726,"current_range_meters":4000,"station_id":"ce4bhr12rcd13ifvqhqg","pricing_plan_id":"cebpf4jnsgd1na2vs0mg"},{"bike_id":"5b114f52-2a10-435f-b441-0a67a0f2a321","system_id":"levelo_inurba_marseille","lat":43.2836,"lon":5.38629,"is_reserved":false,"is_disabled":false,"rental_uris":{"android":"levelo://app?vid=5b114f52-2a10-435f-b441-0a67a0f2a321","ios":"levelo://app?vid=5b114f52-2a10-435f-b441-0a67a0f2a321"},"vehicle_type_id":"4","last_reported":1728025726,"current_range_meters":27200,"station_id":"ce4bh492rcd13ifvqdvg","pricing_plan_id":"cebpf4jnsgd1na2vs0mg"},{"bike_id":"6c1fab82-0700-47a0-87ba-67572c98e120","system_id":"levelo_inurba_marseille","lat":43.28985,"lon":5.37833,"is_reserved":false,"is_disabled":false,"rental_uris":{"android":"levelo://app?vid=6c1fab82-0700-47a0-87ba-67572c98e120","ios":"levelo://app?vid=6c1fab82-0700-47a0-87ba-67572c98e120"},"vehicle_type_id":"4","last_reported":1728025726,"current_range_meters":9600,"station_id":"ce4bh9p2rcd13ifvqed0","pricing_plan_id":"cebpf4jnsgd1na2vs0mg"},{"bike_id":"ac491eed-1fef-4832-b4ca-d42b5b54f337","system_id":"levelo_inurba_marseille","lat":43.284165,"lon":5.349841,"is_reserved":false,"is_disabled":false,"rental_uris":{"android":"levelo://app?vid=ac491eed-1fef-4832-b4ca-d42b5b54f337","ios":"levelo://app?vid=ac491eed-1fef-4832-b4ca-d42b5b54f337"},"vehicle_type_id":"4","last_reported":1728025726,"current_range_meters":37600,"station_id":"ce4bhbh2rcd13ifvqepg","pricing_plan_id":"cebpf4jnsgd1na2vs0mg"},{"bike_id":"935c9f0d-15fe-4023-8833-9663e9b78050","system_id":"levelo_inurba_marseille","lat":43.30951,"lon":5.39036,"is_reserved":false,"is_disabled":false,"rental_uris":{"android":"levelo://app?vid=935c9f0d-15fe-4023-8833-9663e9b78050","ios":"levelo://app?vid=935c9f0d-15fe-4023-8833-9663e9b78050"},"vehicle_type_id":"4","last_reported":1728025726,"current_range_meters":22400,"station_id":"ce4bgup2rcd13ifvqco0","pricing_plan_id":"cebpf4jnsgd1na2vs0mg"},{"bike_id":"a9769d7e-78b3-4a63-99f8-b5947c144457","system_id":"levelo_inurba_marseille","lat":43.272095,"lon":5.391598,"is_reserved":false,"is_disabled":false,"rental_uris":{"android":"levelo://app?vid=a9769d7e-78b3-4a63-99f8-b5947c144457","ios":"levelo://app?vid=a9769d7e-78b3-4a63-99f8-b5947c144457"},"vehicle_type_id":"4","last_reported":1728025726,"current_range_meters":32800,"station_id":"ce4bhhp2rcd13ifvqfm0","pricing_plan_id":"cebpf4jnsgd1na2vs0mg"},{"bike_id":"7fed4edd-fced-4cac-8f5a-8f088e4cd963","system_id":"levelo_inurba_marseille","lat":43.2655,"lon":5.3728,"is_reserved":false,"is_disabled":false,"rental_uris":{"android":"levelo://app?vid=7fed4edd-fced-4cac-8f5a-8f088e4cd963","ios":"levelo://app?vid=7fed4edd-fced-4cac-8f5a-8f088e4cd963"},"vehicle_type_id":"4","last_reported":1728025726,"current_range_meters":3200,"station_id":"ce4bhg12rcd13ifvqf70","pricing_plan_id":"cebpf4jnsgd1na2vs0mg"},{"bike_id":"a6692f1f-5525-4523-bd49-a7c219bc26c1","system_id":"levelo_inurba_marseille","lat":43.26556,"lon":5.37287,"is_reserved":false,"is_disabled":false,"rental_uris":{"android":"levelo://app?vid=a6692f1f-5525-4523-bd49-a7c219bc26c1","ios":"levelo://app?vid=a6692f1f-5525-4523-bd49-a7c219bc26c1"},"vehicle_type_id":"4","last_reported":1728025726,"current_range_meters":34000,"station_id":"ce4bhg12rcd13ifvqf70","pricing_plan_id":"cebpf4jnsgd1na2vs0mg"},{"bike_id":"bc5b6b8b-2f37-4b19-8353-cfb94dcc03bd","system_id":"levelo_inurba_marseille","lat":43.24078,"lon":5.37756,"is_reserved":false,"is_disabled":false,"rental_uris":{"android":"levelo://app?vid=bc5b6b8b-2f37-4b19-8353-cfb94dcc03bd","ios":"levelo://app?vid=bc5b6b8b-2f37-4b19-8353-cfb94dcc03bd"},"vehicle_type_id":"4","last_reported":1728025726,"current_range_meters":32000,"station_id":"ce4bhnp2rcd13ifvqgvg","pricing_plan_id":"cebpf4jnsgd1na2vs0mg"},{"bike_id":"eae44af6-b70b-487c-a92e-e52edcafa9ca","system_id":"levelo_inurba_marseille","lat":43.26202,"lon":5.37928,"is_reserved":false,"is_disabled":false,"rental_uris":{"android":"levelo://app?vid=eae44af6-b70b-487c-a92e-e52edcafa9ca","ios":"levelo://app?vid=eae44af6-b70b-487c-a92e-e52edcafa9ca"},"vehicle_type_id":"4","last_reported":1728025726,"current_range_meters":32000,"station_id":"ce4bhjp2rcd13ifvqg90","pricing_plan_id":"cebpf4jnsgd1na2vs0mg"},{"bike_id":"f28532ab-2844-4c68-acee-baaa073b03fa","system_id":"levelo_inurba_marseille","lat":43.32479,"lon":5.36564,"is_reserved":false,"is_disabled":false,"rental_uris":{"android":"levelo://app?vid=f28532ab-2844-4c68-acee-baaa073b03fa","ios":"levelo://app?vid=f28532ab-2844-4c68-acee-baaa073b03fa"},"vehicle_type_id":"4","last_reported":1728025726,"current_range_meters":38000,"station_id":"ce4bhs12rcd13ifvqhvg","pricing_plan_id":"cebpf4jnsgd1na2vs0mg"},{"bike_id":"54e09145-1750-4aa2-8a8b-2fd06a4134f7","system_id":"levelo_inurba_marseille","lat":43.26951,"lon":5.38618,"is_reserved":false,"is_disabled":false,"rental_uris":{"android":"levelo://app?vid=54e09145-1750-4aa2-8a8b-2fd06a4134f7","ios":"levelo://app?vid=54e09145-1750-4aa2-8a8b-2fd06a4134f7"},"vehicle_type_id":"4","last_reported":1728025726,"current_range_meters":17200,"station_id":"ce4bhh92rcd13ifvqfh0","pricing_plan_id":"cebpf4jnsgd1na2vs0mg"},{"bike_id":"e6975fa4-8c2d-44a9-bd89-925e626d603d","system_id":"levelo_inurba_marseille","lat":43.30154,"lon":5.38077,"is_reserved":false,"is_disabled":false,"rental_uris":{"android":"levelo://app?vid=e6975fa4-8c2d-44a9-bd89-925e626d603d","ios":"levelo://app?vid=e6975fa4-8c2d-44a9-bd89-925e626d603d"},"vehicle_type_id":"4","last_reported":1728025726,"current_range_meters":26000,"station_id":"ce4bgjp2rcd13ifvqbh0","pricing_plan_id":"cebpf4jnsgd1na2vs0mg"},{"bike_id":"e5c27dcf-3d6e-41a5-8a35-01e9d92ac648","system_id":"levelo_inurba_marseille","lat":43.27487,"lon":5.42452,"is_reserved":false,"is_disabled":false,"rental_uris":{"android":"levelo://app?vid=e5c27dcf-3d6e-41a5-8a35-01e9d92ac648","ios":"levelo://app?vid=e5c27dcf-3d6e-41a5-8a35-01e9d92ac648"},"vehicle_type_id":"4","last_reported":1728025726,"current_range_meters":35600,"station_id":"ce4bhn92rcd13ifvqgrg","pricing_plan_id":"cebpf4jnsgd1na2vs0mg"},{"bike_id":"9363a3ed-04aa-4db1-a469-d13548c8d111","system_id":"levelo_inurba_marseille","lat":43.255,"lon":5.37647,"is_reserved":false,"is_disabled":false,"rental_uris":{"android":"levelo://app?vid=9363a3ed-04aa-4db1-a469-d13548c8d111","ios":"levelo://app?vid=9363a3ed-04aa-4db1-a469-d13548c8d111"},"vehicle_type_id":"4","last_reported":1728025726,"current_range_meters":23200,"station_id":"ce4bhh12rcd13ifvqff0","pricing_plan_id":"cebpf4jnsgd1na2vs0mg"},{"bike_id":"4aa2d78a-2df8-40f1-b44e-a41cc0b2e120","system_id":"levelo_inurba_marseille","lat":43.30523,"lon":5.36713,"is_reserved":false,"is_disabled":false,"rental_uris":{"android":"levelo://app?vid=4aa2d78a-2df8-40f1-b44e-a41cc0b2e120","ios":"levelo://app?vid=4aa2d78a-2df8-40f1-b44e-a41cc0b2e120"},"vehicle_type_id":"4","last_reported":1728025726,"current_range_meters":4400,"station_id":"ce4bgrp2rcd13ifvqc9g","pricing_plan_id":"cebpf4jnsgd1na2vs0mg"},{"bike_id":"1920a3ac-caad-4a8f-8a37-eed6ec12c888","system_id":"levelo_inurba_marseille","lat":43.25491,"lon":5.37647,"is_reserved":false,"is_disabled":false,"rental_uris":{"android":"levelo://app?vid=1920a3ac-caad-4a8f-8a37-eed6ec12c888","ios":"levelo://app?vid=1920a3ac-caad-4a8f-8a37-eed6ec12c888"},"vehicle_type_id":"4","last_reported":1728025726,"current_range_meters":36000,"station_id":"ce4bhh12rcd13ifvqff0","pricing_plan_id":"cebpf4jnsgd1na2vs0mg"},{"bike_id":"a4fafd05-5eef-445c-9445-1c0b9ed485cd","system_id":"levelo_inurba_marseille","lat":43.31344,"lon":5.36722,"is_reserved":false,"is_disabled":false,"rental_uris":{"android":"levelo://app?vid=a4fafd05-5eef-445c-9445-1c0b9ed485cd","ios":"levelo://app?vid=a4fafd05-5eef-445c-9445-1c0b9ed485cd"},"vehicle_type_id":"4","last_reported":1728025726,"current_range_meters":28800,"station_id":"ce4bgr92rcd13ifvqc6g","pricing_plan_id":"cebpf4jnsgd1na2vs0mg"},{"bike_id":"0f0865d8-479b-4168-830f-f34426c6f80f","system_id":"levelo_inurba_marseille","lat":43.33717,"lon":5.39185,"is_reserved":false,"is_disabled":false,"rental_uris":{"android":"levelo://app?vid=0f0865d8-479b-4168-830f-f34426c6f80f","ios":"levelo://app?vid=0f0865d8-479b-4168-830f-f34426c6f80f"},"vehicle_type_id":"4","last_reported":1728025726,"current_range_meters":19200,"station_id":"ce4bhr92rcd13ifvqhsg","pricing_plan_id":"cebpf4jnsgd1na2vs0mg"},{"bike_id":"c8e4ff73-620c-4248-92f7-758d5098242c","system_id":"levelo_inurba_marseille","lat":43.22931,"lon":5.35376,"is_reserved":false,"is_disabled":false,"rental_uris":{"android":"levelo://app?vid=c8e4ff73-620c-4248-92f7-758d5098242c","ios":"levelo://app?vid=c8e4ff73-620c-4248-92f7-758d5098242c"},"vehicle_type_id":"4","last_reported":1728025726,"current_range_meters":23200,"station_id":"cpo3532slgdg3j2ikp40","pricing_plan_id":"cebpf4jnsgd1na2vs0mg"},{"bike_id":"583eb2a3-c703-4842-8648-2706b2b88008","system_id":"levelo_inurba_marseille","lat":43.28153,"lon":5.4263,"is_reserved":false,"is_disabled":false,"rental_uris":{"android":"levelo://app?vid=583eb2a3-c703-4842-8648-2706b2b88008","ios":"levelo://app?vid=583eb2a3-c703-4842-8648-2706b2b88008"},"vehicle_type_id":"4","last_reported":1728025726,"current_range_meters":6400,"station_id":"ce4bhnh2rcd13ifvqgug","pricing_plan_id":"cebpf4jnsgd1na2vs0mg"},{"bike_id":"3db40b64-84d3-461f-bb9e-f1cb066e2e4f","system_id":"levelo_inurba_marseille","lat":43.29271,"lon":5.38443,"is_reserved":false,"is_disabled":false,"rental_uris":{"android":"levelo://app?vid=3db40b64-84d3-461f-bb9e-f1cb066e2e4f","ios":"levelo://app?vid=3db40b64-84d3-461f-bb9e-f1cb066e2e4f"},"vehicle_type_id":"4","last_reported":1728025726,"current_range_meters":2800,"station_id":"ce4bh692rcd13ifvqea0","pricing_plan_id":"cebpf4jnsgd1na2vs0mg"},{"bike_id":"0946268e-451b-4eae-9c53-f76e2b977f3f","system_id":"levelo_inurba_marseille","lat":43.32478,"lon":5.36556,"is_reserved":false,"is_disabled":false,"rental_uris":{"android":"levelo://app?vid=0946268e-451b-4eae-9c53-f76e2b977f3f","ios":"levelo://app?vid=0946268e-451b-4eae-9c53-f76e2b977f3f"},"vehicle_type_id":"4","last_reported":1728025726,"current_range_meters":24800,"station_id":"ce4bhs12rcd13ifvqhvg","pricing_plan_id":"cebpf4jnsgd1na2vs0mg"},{"bike_id":"5e778da9-2d39-4031-8ebb-5990fbc1004d","system_id":"levelo_inurba_marseille","lat":43.28344,"lon":5.38093,"is_reserved":false,"is_disabled":false,"rental_uris":{"android":"levelo://app?vid=5e778da9-2d39-4031-8ebb-5990fbc1004d","ios":"levelo://app?vid=5e778da9-2d39-4031-8ebb-5990fbc1004d"},"vehicle_type_id":"4","last_reported":1728025726,"current_range_meters":9200,"station_id":"ce4bh412rcd13ifvqdr0","pricing_plan_id":"cebpf4jnsgd1na2vs0mg"},{"bike_id":"b67f520a-86f7-4c50-b590-59cc8da3a691","system_id":"levelo_inurba_marseille","lat":43.24076,"lon":5.37755,"is_reserved":false,"is_disabled":false,"rental_uris":{"android":"levelo://app?vid=b67f520a-86f7-4c50-b590-59cc8da3a691","ios":"levelo://app?vid=b67f520a-86f7-4c50-b590-59cc8da3a691"},"vehicle_type_id":"4","last_reported":1728025726,"current_range_meters":12400,"station_id":"ce4bhnp2rcd13ifvqgvg","pricing_plan_id":"cebpf4jnsgd1na2vs0mg"},{"bike_id":"ab4fc410-142a-4ff8-be7c-056eaa1a54af","system_id":"levelo_inurba_marseille","lat":43.29278,"lon":5.4013,"is_reserved":false,"is_disabled":false,"rental_uris":{"android":"levelo://app?vid=ab4fc410-142a-4ff8-be7c-056eaa1a54af","ios":"levelo://app?vid=ab4fc410-142a-4ff8-be7c-056eaa1a54af"},"vehicle_type_id":"4","last_reported":1728025726,"current_range_meters":38800,"station_id":"ce4bh312rcd13ifvqdk0","pricing_plan_id":"cebpf4jnsgd1na2vs0mg"},{"bike_id":"0f43fa7e-6e3b-4783-957d-f563724a368f","system_id":"levelo_inurba_marseille","lat":43.3091,"lon":5.36855,"is_reserved":false,"is_disabled":false,"rental_uris":{"android":"levelo://app?vid=0f43fa7e-6e3b-4783-957d-f563724a368f","ios":"levelo://app?vid=0f43fa7e-6e3b-4783-957d-f563724a368f"},"vehicle_type_id":"4","last_reported":1728025726,"current_range_meters":36800,"station_id":"ce4bgn92rcd13ifvqbvg","pricing_plan_id":"cebpf4jnsgd1na2vs0mg"},{"bike_id":"9ea91f6a-6916-466f-a2e3-ae74f9e950f6","system_id":"levelo_inurba_marseille","lat":43.23148,"lon":5.43715,"is_reserved":false,"is_disabled":false,"rental_uris":{"android":"levelo://app?vid=9ea91f6a-6916-466f-a2e3-ae74f9e950f6","ios":"levelo://app?vid=9ea91f6a-6916-466f-a2e3-ae74f9e950f6"},"vehicle_type_id":"4","last_reported":1728025726,"current_range_meters":24800,"station_id":"ce4bhmp2rcd13ifvqgog","pricing_plan_id":"cebpf4jnsgd1na2vs0mg"},{"bike_id":"9111912f-5f92-4e01-9623-79e0ea71aff6","system_id":"levelo_inurba_marseille","lat":43.32276,"lon":5.38254,"is_reserved":false,"is_disabled":false,"rental_uris":{"android":"levelo://app?vid=9111912f-5f92-4e01-9623-79e0ea71aff6","ios":"levelo://app?vid=9111912f-5f92-4e01-9623-79e0ea71aff6"},"vehicle_type_id":"4","last_reported":1728025726,"current_range_meters":33600,"station_id":"ce4bhr12rcd13ifvqhqg","pricing_plan_id":"cebpf4jnsgd1na2vs0mg"},{"bike_id":"09648bcd-aff3-4e5d-a358-b65c5d88ce54","system_id":"levelo_inurba_marseille","lat":43.24995,"lon":5.38923,"is_reserved":false,"is_disabled":false,"rental_uris":{"android":"levelo://app?vid=09648bcd-aff3-4e5d-a358-b65c5d88ce54","ios":"levelo://app?vid=09648bcd-aff3-4e5d-a358-b65c5d88ce54"},"vehicle_type_id":"4","last_reported":1728025726,"current_range_meters":35600,"station_id":"ce4bhgp2rcd13ifvqfd0","pricing_plan_id":"cebpf4jnsgd1na2vs0mg"},{"bike_id":"20bb280f-049e-4119-a946-f328cc7dd0af","system_id":"levelo_inurba_marseille","lat":43.28941,"lon":5.3663,"is_reserved":false,"is_disabled":false,"rental_uris":{"android":"levelo://app?vid=20bb280f-049e-4119-a946-f328cc7dd0af","ios":"levelo://app?vid=20bb280f-049e-4119-a946-f328cc7dd0af"},"vehicle_type_id":"4","last_reported":1728025726,"current_range_meters":9600,"station_id":"ce4bhap2rcd13ifvqek0","pricing_plan_id":"cebpf4jnsgd1na2vs0mg"},{"bike_id":"178c762e-7366-46b0-b460-28987156e29f","system_id":"levelo_inurba_marseille","lat":43.31074,"lon":5.42431,"is_reserved":false,"is_disabled":false,"rental_uris":{"android":"levelo://app?vid=178c762e-7366-46b0-b460-28987156e29f","ios":"levelo://app?vid=178c762e-7366-46b0-b460-28987156e29f"},"vehicle_type_id":"4","last_reported":1728025726,"current_range_meters":27200,"station_id":"ce4bhp92rcd13ifvqhag","pricing_plan_id":"cebpf4jnsgd1na2vs0mg"},{"bike_id":"c84cab9d-edf4-4776-bc11-7217aac13348","system_id":"levelo_inurba_marseille","lat":43.302153,"lon":5.3947,"is_reserved":false,"is_disabled":false,"rental_uris":{"android":"levelo://app?vid=c84cab9d-edf4-4776-bc11-7217aac13348","ios":"levelo://app?vid=c84cab9d-edf4-4776-bc11-7217aac13348"},"vehicle_type_id":"4","last_reported":1728025726,"current_range_meters":4800,"station_id":"ce4bh0p2rcd13ifvqd70","pricing_plan_id":"cebpf4jnsgd1na2vs0mg"},{"bike_id":"71a85321-cdd0-4b0c-9a38-c490afade47c","system_id":"levelo_inurba_marseille","lat":43.29224,"lon":5.36053,"is_reserved":false,"is_disabled":false,"rental_uris":{"android":"levelo://app?vid=71a85321-cdd0-4b0c-9a38-c490afade47c","ios":"levelo://app?vid=71a85321-cdd0-4b0c-9a38-c490afade47c"},"vehicle_type_id":"4","last_reported":1728025726,"current_range_meters":38400,"station_id":"ce4bhbh2rcd13ifvqeqg","pricing_plan_id":"cebpf4jnsgd1na2vs0mg"},{"bike_id":"8f3fcedd-a76a-461f-b8f5-11384773d138","system_id":"levelo_inurba_marseille","lat":43.28341,"lon":5.38113,"is_reserved":false,"is_disabled":false,"rental_uris":{"android":"levelo://app?vid=8f3fcedd-a76a-461f-b8f5-11384773d138","ios":"levelo://app?vid=8f3fcedd-a76a-461f-b8f5-11384773d138"},"vehicle_type_id":"4","last_reported":1728025726,"current_range_meters":6000,"station_id":"ce4bh412rcd13ifvqdr0","pricing_plan_id":"cebpf4jnsgd1na2vs0mg"},{"bike_id":"55909299-71f6-4879-b28a-2d28fae91c6d","system_id":"levelo_inurba_marseille","lat":43.33614,"lon":5.41036,"is_reserved":false,"is_disabled":false,"rental_uris":{"android":"levelo://app?vid=55909299-71f6-4879-b28a-2d28fae91c6d","ios":"levelo://app?vid=55909299-71f6-4879-b28a-2d28fae91c6d"},"vehicle_type_id":"4","last_reported":1728025726,"current_range_meters":21600,"station_id":"ce4bhqh2rcd13ifvqhmg","pricing_plan_id":"cebpf4jnsgd1na2vs0mg"},{"bike_id":"690c1146-a8cd-495f-94f6-c94b70c09ae9","system_id":"levelo_inurba_marseille","lat":43.26685,"lon":5.38274,"is_reserved":false,"is_disabled":false,"rental_uris":{"android":"levelo://app?vid=690c1146-a8cd-495f-94f6-c94b70c09ae9","ios":"levelo://app?vid=690c1146-a8cd-495f-94f6-c94b70c09ae9"},"vehicle_type_id":"4","last_reported":1728025726,"current_range_meters":38400,"station_id":"ce4bhg92rcd13ifvqf90","pricing_plan_id":"cebpf4jnsgd1na2vs0mg"},{"bike_id":"030e3a63-64cb-4cc5-9518-4b9dee8accde","system_id":"levelo_inurba_marseille","lat":43.2749,"lon":5.42445,"is_reserved":false,"is_disabled":false,"rental_uris":{"android":"levelo://app?vid=030e3a63-64cb-4cc5-9518-4b9dee8accde","ios":"levelo://app?vid=030e3a63-64cb-4cc5-9518-4b9dee8accde"},"vehicle_type_id":"4","last_reported":1728025726,"current_range_meters":30000,"station_id":"ce4bhn92rcd13ifvqgrg","pricing_plan_id":"cebpf4jnsgd1na2vs0mg"},{"bike_id":"eda89c2c-5a37-4983-a687-2bb8a28d05fc","system_id":"levelo_inurba_marseille","lat":43.24082,"lon":5.37749,"is_reserved":false,"is_disabled":false,"rental_uris":{"android":"levelo://app?vid=eda89c2c-5a37-4983-a687-2bb8a28d05fc","ios":"levelo://app?vid=eda89c2c-5a37-4983-a687-2bb8a28d05fc"},"vehicle_type_id":"4","last_reported":1728025726,"current_range_meters":21600,"station_id":"ce4bhnp2rcd13ifvqgvg","pricing_plan_id":"cebpf4jnsgd1na2vs0mg"},{"bike_id":"fdb68aa5-0a31-4ff3-9837-ee5d5fa5bae6","system_id":"levelo_inurba_marseille","lat":43.23152,"lon":5.43702,"is_reserved":false,"is_disabled":false,"rental_uris":{"android":"levelo://app?vid=fdb68aa5-0a31-4ff3-9837-ee5d5fa5bae6","ios":"levelo://app?vid=fdb68aa5-0a31-4ff3-9837-ee5d5fa5bae6"},"vehicle_type_id":"4","last_reported":1728025726,"current_range_meters":37600,"station_id":"ce4bhmp2rcd13ifvqgog","pricing_plan_id":"cebpf4jnsgd1na2vs0mg"},{"bike_id":"01933f8e-ab3d-4a50-87e1-a540b46ae5f1","system_id":"levelo_inurba_marseille","lat":43.336169,"lon":5.410327,"is_reserved":false,"is_disabled":false,"rental_uris":{"android":"levelo://app?vid=01933f8e-ab3d-4a50-87e1-a540b46ae5f1","ios":"levelo://app?vid=01933f8e-ab3d-4a50-87e1-a540b46ae5f1"},"vehicle_type_id":"4","last_reported":1728025726,"current_range_meters":36000,"station_id":"ce4bhqh2rcd13ifvqhmg","pricing_plan_id":"cebpf4jnsgd1na2vs0mg"},{"bike_id":"b3996fc3-6dc3-4d34-9f9a-1b076a9249fa","system_id":"levelo_inurba_marseille","lat":43.24387,"lon":5.37059,"is_reserved":false,"is_disabled":false,"rental_uris":{"android":"levelo://app?vid=b3996fc3-6dc3-4d34-9f9a-1b076a9249fa","ios":"levelo://app?vid=b3996fc3-6dc3-4d34-9f9a-1b076a9249fa"},"vehicle_type_id":"4","last_reported":1728025726,"current_range_meters":8800,"station_id":"ce4bhhh2rcd13ifvqfk0","pricing_plan_id":"cebpf4jnsgd1na2vs0mg"},{"bike_id":"ec15d814-ee9e-4140-9be4-5f754c0b8f6b","system_id":"levelo_inurba_marseille","lat":43.32541,"lon":5.41445,"is_reserved":false,"is_disabled":false,"rental_uris":{"android":"levelo://app?vid=ec15d814-ee9e-4140-9be4-5f754c0b8f6b","ios":"levelo://app?vid=ec15d814-ee9e-4140-9be4-5f754c0b8f6b"},"vehicle_type_id":"4","last_reported":1728025726,"current_range_meters":24400,"station_id":"ce4bhq12rcd13ifvqhhg","pricing_plan_id":"cebpf4jnsgd1na2vs0mg"},{"bike_id":"f6f3cd9d-3f1c-4bed-a45f-db81df7fe153","system_id":"levelo_inurba_marseille","lat":43.23185,"lon":5.39977,"is_reserved":false,"is_disabled":false,"rental_uris":{"android":"levelo://app?vid=f6f3cd9d-3f1c-4bed-a45f-db81df7fe153","ios":"levelo://app?vid=f6f3cd9d-3f1c-4bed-a45f-db81df7fe153"},"vehicle_type_id":"4","last_reported":1728025726,"current_range_meters":3200,"station_id":"ce4bhn12rcd13ifvqgqg","pricing_plan_id":"cebpf4jnsgd1na2vs0mg"},{"bike_id":"c4af35bc-b4dc-41c7-81cc-485bac23cea7","system_id":"levelo_inurba_marseille","lat":43.24087,"lon":5.37746,"is_reserved":false,"is_disabled":false,"rental_uris":{"android":"levelo://app?vid=c4af35bc-b4dc-41c7-81cc-485bac23cea7","ios":"levelo://app?vid=c4af35bc-b4dc-41c7-81cc-485bac23cea7"},"vehicle_type_id":"4","last_reported":1728025726,"current_range_meters":6800,"station_id":"ce4bhnp2rcd13ifvqgvg","pricing_plan_id":"cebpf4jnsgd1na2vs0mg"},{"bike_id":"4317c8e5-984f-4071-9b79-4453eb3b1c72","system_id":"levelo_inurba_marseille","lat":43.3121,"lon":5.36831,"is_reserved":false,"is_disabled":false,"rental_uris":{"android":"levelo://app?vid=4317c8e5-984f-4071-9b79-4453eb3b1c72","ios":"levelo://app?vid=4317c8e5-984f-4071-9b79-4453eb3b1c72"},"vehicle_type_id":"4","last_reported":1728025726,"current_range_meters":39200,"station_id":"ce4bgl92rcd13ifvqbq0","pricing_plan_id":"cebpf4jnsgd1na2vs0mg"},{"bike_id":"7211bed2-8514-4169-9df5-9ea6b7b446bf","system_id":"levelo_inurba_marseille","lat":43.28615,"lon":5.35104,"is_reserved":false,"is_disabled":false,"rental_uris":{"android":"levelo://app?vid=7211bed2-8514-4169-9df5-9ea6b7b446bf","ios":"levelo://app?vid=7211bed2-8514-4169-9df5-9ea6b7b446bf"},"vehicle_type_id":"4","last_reported":1728025726,"current_range_meters":9200,"station_id":"ce4bhch2rcd13ifvqeug","pricing_plan_id":"cebpf4jnsgd1na2vs0mg"},{"bike_id":"7bb40733-07f3-4f57-a275-dc3036702990","system_id":"levelo_inurba_marseille","lat":43.2749,"lon":5.4245,"is_reserved":false,"is_disabled":false,"rental_uris":{"android":"levelo://app?vid=7bb40733-07f3-4f57-a275-dc3036702990","ios":"levelo://app?vid=7bb40733-07f3-4f57-a275-dc3036702990"},"vehicle_type_id":"4","last_reported":1728025726,"current_range_meters":36000,"station_id":"ce4bhn92rcd13ifvqgrg","pricing_plan_id":"cebpf4jnsgd1na2vs0mg"},{"bike_id":"3ece9deb-d376-400c-997a-ff5945157fa0","system_id":"levelo_inurba_marseille","lat":43.29005,"lon":5.35616,"is_reserved":false,"is_disabled":false,"rental_uris":{"android":"levelo://app?vid=3ece9deb-d376-400c-997a-ff5945157fa0","ios":"levelo://app?vid=3ece9deb-d376-400c-997a-ff5945157fa0"},"vehicle_type_id":"4","last_reported":1728025726,"current_range_meters":32800,"station_id":"ce4bhb92rcd13ifvqen0","pricing_plan_id":"cebpf4jnsgd1na2vs0mg"},{"bike_id":"0fe5dd14-3bf7-41c4-8bf0-6fc6624c2399","system_id":"levelo_inurba_marseille","lat":43.27486,"lon":5.4245,"is_reserved":false,"is_disabled":false,"rental_uris":{"android":"levelo://app?vid=0fe5dd14-3bf7-41c4-8bf0-6fc6624c2399","ios":"levelo://app?vid=0fe5dd14-3bf7-41c4-8bf0-6fc6624c2399"},"vehicle_type_id":"4","last_reported":1728025726,"current_range_meters":34800,"station_id":"ce4bhn92rcd13ifvqgrg","pricing_plan_id":"cebpf4jnsgd1na2vs0mg"},{"bike_id":"b1de2d2c-06c8-4cd3-a9c2-6a5c17f5b3bb","system_id":"levelo_inurba_marseille","lat":43.32207,"lon":5.38551,"is_reserved":false,"is_disabled":false,"rental_uris":{"android":"levelo://app?vid=b1de2d2c-06c8-4cd3-a9c2-6a5c17f5b3bb","ios":"levelo://app?vid=b1de2d2c-06c8-4cd3-a9c2-6a5c17f5b3bb"},"vehicle_type_id":"4","last_reported":1728025726,"current_range_meters":12800,"station_id":"","pricing_plan_id":"cebpf4jnsgd1na2vs0mg"},{"bike_id":"ed0db05c-7ead-4cb3-b68f-851526467de3","system_id":"levelo_inurba_marseille","lat":43.26555,"lon":5.37282,"is_reserved":false,"is_disabled":false,"rental_uris":{"android":"levelo://app?vid=ed0db05c-7ead-4cb3-b68f-851526467de3","ios":"levelo://app?vid=ed0db05c-7ead-4cb3-b68f-851526467de3"},"vehicle_type_id":"4","last_reported":1728025726,"current_range_meters":14800,"station_id":"ce4bhg12rcd13ifvqf70","pricing_plan_id":"cebpf4jnsgd1na2vs0mg"},{"bike_id":"87314cf9-2d53-4727-b4ed-6240ceba9d13","system_id":"levelo_inurba_marseille","lat":43.25574,"lon":5.38226,"is_reserved":false,"is_disabled":false,"rental_uris":{"android":"levelo://app?vid=87314cf9-2d53-4727-b4ed-6240ceba9d13","ios":"levelo://app?vid=87314cf9-2d53-4727-b4ed-6240ceba9d13"},"vehicle_type_id":"4","last_reported":1728025726,"current_range_meters":28000,"station_id":"ce4bhih2rcd13ifvqfs0","pricing_plan_id":"cebpf4jnsgd1na2vs0mg"},{"bike_id":"a96309a8-d98b-438b-9cd2-6571084efabf","system_id":"levelo_inurba_marseille","lat":43.2594,"lon":5.409,"is_reserved":false,"is_disabled":false,"rental_uris":{"android":"levelo://app?vid=a96309a8-d98b-438b-9cd2-6571084efabf","ios":"levelo://app?vid=a96309a8-d98b-438b-9cd2-6571084efabf"},"vehicle_type_id":"4","last_reported":1728025726,"current_range_meters":30800,"station_id":"ce4bhm92rcd13ifvqglg","pricing_plan_id":"cebpf4jnsgd1na2vs0mg"},{"bike_id":"73254cd6-94f1-493a-8a21-1ce968830ab3","system_id":"levelo_inurba_marseille","lat":43.26197,"lon":5.37927,"is_reserved":false,"is_disabled":false,"rental_uris":{"android":"levelo://app?vid=73254cd6-94f1-493a-8a21-1ce968830ab3","ios":"levelo://app?vid=73254cd6-94f1-493a-8a21-1ce968830ab3"},"vehicle_type_id":"4","last_reported":1728025726,"current_range_meters":20000,"station_id":"ce4bhjp2rcd13ifvqg90","pricing_plan_id":"cebpf4jnsgd1na2vs0mg"},{"bike_id":"9bb7dc9b-7ab1-4765-8110-1795fb5a48d1","system_id":"levelo_inurba_marseille","lat":43.23966,"lon":5.3663,"is_reserved":false,"is_disabled":false,"rental_uris":{"android":"levelo://app?vid=9bb7dc9b-7ab1-4765-8110-1795fb5a48d1","ios":"levelo://app?vid=9bb7dc9b-7ab1-4765-8110-1795fb5a48d1"},"vehicle_type_id":"4","last_reported":1728025726,"current_range_meters":12400,"station_id":"ce4bhi12rcd13ifvqfp0","pricing_plan_id":"cebpf4jnsgd1na2vs0mg"},{"bike_id":"1e4b9dd3-b33a-4d2a-8266-ed32618ab5b8","system_id":"levelo_inurba_marseille","lat":43.23151,"lon":5.4372,"is_reserved":false,"is_disabled":false,"rental_uris":{"android":"levelo://app?vid=1e4b9dd3-b33a-4d2a-8266-ed32618ab5b8","ios":"levelo://app?vid=1e4b9dd3-b33a-4d2a-8266-ed32618ab5b8"},"vehicle_type_id":"4","last_reported":1728025726,"current_range_meters":21600,"station_id":"ce4bhmp2rcd13ifvqgog","pricing_plan_id":"cebpf4jnsgd1na2vs0mg"},{"bike_id":"baec53fe-95a4-4a43-978e-8e887fff04b4","system_id":"levelo_inurba_marseille","lat":43.33754,"lon":5.37449,"is_reserved":false,"is_disabled":false,"rental_uris":{"android":"levelo://app?vid=baec53fe-95a4-4a43-978e-8e887fff04b4","ios":"levelo://app?vid=baec53fe-95a4-4a43-978e-8e887fff04b4"},"vehicle_type_id":"4","last_reported":1728025726,"current_range_meters":38000,"station_id":"","pricing_plan_id":"cebpf4jnsgd1na2vs0mg"},{"bike_id":"29dd197f-f1cf-423a-a800-d118b6cda811","system_id":"levelo_inurba_marseille","lat":43.28843,"lon":5.39314,"is_reserved":false,"is_disabled":false,"rental_uris":{"android":"levelo://app?vid=29dd197f-f1cf-423a-a800-d118b6cda811","ios":"levelo://app?vid=29dd197f-f1cf-423a-a800-d118b6cda811"},"vehicle_type_id":"4","last_reported":1728025726,"current_range_meters":38800,"station_id":"ce4bh2p2rcd13ifvqdi0","pricing_plan_id":"cebpf4jnsgd1na2vs0mg"},{"bike_id":"ce0b829a-2254-4204-985d-c93b50c29d74","system_id":"levelo_inurba_marseille","lat":43.31352,"lon":5.367,"is_reserved":false,"is_disabled":false,"rental_uris":{"android":"levelo://app?vid=ce0b829a-2254-4204-985d-c93b50c29d74","ios":"levelo://app?vid=ce0b829a-2254-4204-985d-c93b50c29d74"},"vehicle_type_id":"4","last_reported":1728025726,"current_range_meters":22000,"station_id":"ce4bgr92rcd13ifvqc6g","pricing_plan_id":"cebpf4jnsgd1na2vs0mg"},{"bike_id":"50c629b4-c824-4608-a8d3-dc2c94b579f0","system_id":"levelo_inurba_marseille","lat":43.246189,"lon":5.373682,"is_reserved":false,"is_disabled":false,"rental_uris":{"android":"levelo://app?vid=50c629b4-c824-4608-a8d3-dc2c94b579f0","ios":"levelo://app?vid=50c629b4-c824-4608-a8d3-dc2c94b579f0"},"vehicle_type_id":"4","last_reported":1728025726,"current_range_meters":29600,"station_id":"","pricing_plan_id":"cebpf4jnsgd1na2vs0mg"},{"bike_id":"d7877609-6b5f-4f1b-b1e9-67841d44573b","system_id":"levelo_inurba_marseille","lat":43.29548,"lon":5.42284,"is_reserved":false,"is_disabled":false,"rental_uris":{"android":"levelo://app?vid=d7877609-6b5f-4f1b-b1e9-67841d44573b","ios":"levelo://app?vid=d7877609-6b5f-4f1b-b1e9-67841d44573b"},"vehicle_type_id":"4","last_reported":1728025726,"current_range_meters":22800,"station_id":"ce4bhph2rcd13ifvqhdg","pricing_plan_id":"cebpf4jnsgd1na2vs0mg"},{"bike_id":"411a622e-0c64-4ae7-ab3a-3b4f2603408c","system_id":"levelo_inurba_marseille","lat":43.29899,"lon":5.43657,"is_reserved":false,"is_disabled":false,"rental_uris":{"android":"levelo://app?vid=411a622e-0c64-4ae7-ab3a-3b4f2603408c","ios":"levelo://app?vid=411a622e-0c64-4ae7-ab3a-3b4f2603408c"},"vehicle_type_id":"4","last_reported":1728025726,"current_range_meters":24000,"station_id":"ce4bhpp2rcd13ifvqhfg","pricing_plan_id":"cebpf4jnsgd1na2vs0mg"},{"bike_id":"d9513a24-3235-43a7-b9a5-1c5cfe37603f","system_id":"levelo_inurba_marseille","lat":43.23056,"lon":5.35493,"is_reserved":false,"is_disabled":false,"rental_uris":{"android":"levelo://app?vid=d9513a24-3235-43a7-b9a5-1c5cfe37603f","ios":"levelo://app?vid=d9513a24-3235-43a7-b9a5-1c5cfe37603f"},"vehicle_type_id":"4","last_reported":1728025726,"current_range_meters":26800,"station_id":"cpo3342slgdg3j2ifvpg","pricing_plan_id":"cebpf4jnsgd1na2vs0mg"},{"bike_id":"7bdcdbb9-b52f-4b42-9e65-be051a80cf8b","system_id":"levelo_inurba_marseille","lat":43.32477,"lon":5.36576,"is_reserved":false,"is_disabled":false,"rental_uris":{"android":"levelo://app?vid=7bdcdbb9-b52f-4b42-9e65-be051a80cf8b","ios":"levelo://app?vid=7bdcdbb9-b52f-4b42-9e65-be051a80cf8b"},"vehicle_type_id":"4","last_reported":1728025726,"current_range_meters":8800,"station_id":"ce4bhs12rcd13ifvqhvg","pricing_plan_id":"cebpf4jnsgd1na2vs0mg"},{"bike_id":"1c11bbcc-a0a7-4370-85a5-b6e65f0fcfae","system_id":"levelo_inurba_marseille","lat":43.29047,"lon":5.39944,"is_reserved":false,"is_disabled":false,"rental_uris":{"android":"levelo://app?vid=1c11bbcc-a0a7-4370-85a5-b6e65f0fcfae","ios":"levelo://app?vid=1c11bbcc-a0a7-4370-85a5-b6e65f0fcfae"},"vehicle_type_id":"4","last_reported":1728025726,"current_range_meters":19200,"station_id":"ce4bh392rcd13ifvqdm0","pricing_plan_id":"cebpf4jnsgd1na2vs0mg"},{"bike_id":"fc23a908-1ea6-4f1a-801c-74004e2b7d6b","system_id":"levelo_inurba_marseille","lat":43.24654,"lon":5.38888,"is_reserved":false,"is_disabled":false,"rental_uris":{"android":"levelo://app?vid=fc23a908-1ea6-4f1a-801c-74004e2b7d6b","ios":"levelo://app?vid=fc23a908-1ea6-4f1a-801c-74004e2b7d6b"},"vehicle_type_id":"4","last_reported":1728025726,"current_range_meters":20400,"station_id":"ce4bhg12rcd13ifvqf60","pricing_plan_id":"cebpf4jnsgd1na2vs0mg"},{"bike_id":"4bd008e2-ced4-419f-9986-7bdf08969ddd","system_id":"levelo_inurba_marseille","lat":43.30911,"lon":5.36851,"is_reserved":false,"is_disabled":false,"rental_uris":{"android":"levelo://app?vid=4bd008e2-ced4-419f-9986-7bdf08969ddd","ios":"levelo://app?vid=4bd008e2-ced4-419f-9986-7bdf08969ddd"},"vehicle_type_id":"4","last_reported":1728025726,"current_range_meters":28000,"station_id":"ce4bgn92rcd13ifvqbvg","pricing_plan_id":"cebpf4jnsgd1na2vs0mg"},{"bike_id":"bf84590e-af09-4c2d-a259-827b670920e0","system_id":"levelo_inurba_marseille","lat":43.26953,"lon":5.3864,"is_reserved":false,"is_disabled":false,"rental_uris":{"android":"levelo://app?vid=bf84590e-af09-4c2d-a259-827b670920e0","ios":"levelo://app?vid=bf84590e-af09-4c2d-a259-827b670920e0"},"vehicle_type_id":"4","last_reported":1728025726,"current_range_meters":35200,"station_id":"ce4bhh92rcd13ifvqfh0","pricing_plan_id":"cebpf4jnsgd1na2vs0mg"},{"bike_id":"dc852ba8-32f2-497f-a66a-6178eae58d48","system_id":"levelo_inurba_marseille","lat":43.32484,"lon":5.36568,"is_reserved":false,"is_disabled":false,"rental_uris":{"android":"levelo://app?vid=dc852ba8-32f2-497f-a66a-6178eae58d48","ios":"levelo://app?vid=dc852ba8-32f2-497f-a66a-6178eae58d48"},"vehicle_type_id":"4","last_reported":1728025726,"current_range_meters":20800,"station_id":"ce4bhs12rcd13ifvqhvg","pricing_plan_id":"cebpf4jnsgd1na2vs0mg"},{"bike_id":"2ea0b90a-ee42-42eb-88b7-c289f9e72cb7","system_id":"levelo_inurba_marseille","lat":43.30797,"lon":5.43521,"is_reserved":false,"is_disabled":false,"rental_uris":{"android":"levelo://app?vid=2ea0b90a-ee42-42eb-88b7-c289f9e72cb7","ios":"levelo://app?vid=2ea0b90a-ee42-42eb-88b7-c289f9e72cb7"},"vehicle_type_id":"4","last_reported":1728025726,"current_range_meters":32400,"station_id":"ce4bhph2rcd13ifvqheg","pricing_plan_id":"cebpf4jnsgd1na2vs0mg"},{"bike_id":"d3258b91-23d9-419f-bffb-05f53c9823f2","system_id":"levelo_inurba_marseille","lat":43.27904,"lon":5.38018,"is_reserved":false,"is_disabled":false,"rental_uris":{"android":"levelo://app?vid=d3258b91-23d9-419f-bffb-05f53c9823f2","ios":"levelo://app?vid=d3258b91-23d9-419f-bffb-05f53c9823f2"},"vehicle_type_id":"4","last_reported":1728025726,"current_range_meters":36000,"station_id":"ce4bhf92rcd13ifvqf50","pricing_plan_id":"cebpf4jnsgd1na2vs0mg"},{"bike_id":"99d19bdd-d573-45bb-8357-55436250a5a9","system_id":"levelo_inurba_marseille","lat":43.25937,"lon":5.40901,"is_reserved":false,"is_disabled":false,"rental_uris":{"android":"levelo://app?vid=99d19bdd-d573-45bb-8357-55436250a5a9","ios":"levelo://app?vid=99d19bdd-d573-45bb-8357-55436250a5a9"},"vehicle_type_id":"4","last_reported":1728025726,"current_range_meters":32000,"station_id":"ce4bhm92rcd13ifvqglg","pricing_plan_id":"cebpf4jnsgd1na2vs0mg"},{"bike_id":"8853b16c-0a6a-451b-8f3d-b276dca63080","system_id":"levelo_inurba_marseille","lat":43.309059,"lon":5.368493,"is_reserved":false,"is_disabled":false,"rental_uris":{"android":"levelo://app?vid=8853b16c-0a6a-451b-8f3d-b276dca63080","ios":"levelo://app?vid=8853b16c-0a6a-451b-8f3d-b276dca63080"},"vehicle_type_id":"4","last_reported":1728025726,"current_range_meters":38800,"station_id":"ce4bgn92rcd13ifvqbvg","pricing_plan_id":"cebpf4jnsgd1na2vs0mg"},{"bike_id":"c5fadd6b-8868-4528-80ea-fefd18c4a30e","system_id":"levelo_inurba_marseille","lat":43.27817,"lon":5.40708,"is_reserved":false,"is_disabled":false,"rental_uris":{"android":"levelo://app?vid=c5fadd6b-8868-4528-80ea-fefd18c4a30e","ios":"levelo://app?vid=c5fadd6b-8868-4528-80ea-fefd18c4a30e"},"vehicle_type_id":"4","last_reported":1728025726,"current_range_meters":27600,"station_id":"ce4bhnh2rcd13ifvqgtg","pricing_plan_id":"cebpf4jnsgd1na2vs0mg"},{"bike_id":"42a8545c-db17-44dc-b69f-a4cd294d8c9e","system_id":"levelo_inurba_marseille","lat":43.25938,"lon":5.40906,"is_reserved":false,"is_disabled":false,"rental_uris":{"android":"levelo://app?vid=42a8545c-db17-44dc-b69f-a4cd294d8c9e","ios":"levelo://app?vid=42a8545c-db17-44dc-b69f-a4cd294d8c9e"},"vehicle_type_id":"4","last_reported":1728025726,"current_range_meters":15200,"station_id":"ce4bhm92rcd13ifvqglg","pricing_plan_id":"cebpf4jnsgd1na2vs0mg"},{"bike_id":"e30fc621-1f3e-407a-9698-3d16b2b66984","system_id":"levelo_inurba_marseille","lat":43.29096,"lon":5.38116,"is_reserved":false,"is_disabled":false,"rental_uris":{"android":"levelo://app?vid=e30fc621-1f3e-407a-9698-3d16b2b66984","ios":"levelo://app?vid=e30fc621-1f3e-407a-9698-3d16b2b66984"},"vehicle_type_id":"4","last_reported":1728025726,"current_range_meters":30400,"station_id":"ce4bh512rcd13ifvqe2g","pricing_plan_id":"cebpf4jnsgd1na2vs0mg"},{"bike_id":"86f7eb5d-a0da-493f-9d96-9d7ddd125c86","system_id":"levelo_inurba_marseille","lat":43.2418,"lon":5.39716,"is_reserved":false,"is_disabled":false,"rental_uris":{"android":"levelo://app?vid=86f7eb5d-a0da-493f-9d96-9d7ddd125c86","ios":"levelo://app?vid=86f7eb5d-a0da-493f-9d96-9d7ddd125c86"},"vehicle_type_id":"4","last_reported":1728025726,"current_range_meters":32000,"station_id":"ce4bhn12rcd13ifvqgpg","pricing_plan_id":"cebpf4jnsgd1na2vs0mg"},{"bike_id":"9e1f7405-3cfe-4935-9140-7ce94924505e","system_id":"levelo_inurba_marseille","lat":43.25912,"lon":5.39411,"is_reserved":false,"is_disabled":false,"rental_uris":{"android":"levelo://app?vid=9e1f7405-3cfe-4935-9140-7ce94924505e","ios":"levelo://app?vid=9e1f7405-3cfe-4935-9140-7ce94924505e"},"vehicle_type_id":"4","last_reported":1728025726,"current_range_meters":32400,"station_id":"ce4bhip2rcd13ifvqft0","pricing_plan_id":"cebpf4jnsgd1na2vs0mg"},{"bike_id":"8ff96abe-17ad-4387-a80b-4820cac98c10","system_id":"levelo_inurba_marseille","lat":43.25938,"lon":5.40902,"is_reserved":false,"is_disabled":false,"rental_uris":{"android":"levelo://app?vid=8ff96abe-17ad-4387-a80b-4820cac98c10","ios":"levelo://app?vid=8ff96abe-17ad-4387-a80b-4820cac98c10"},"vehicle_type_id":"4","last_reported":1728025726,"current_range_meters":38400,"station_id":"ce4bhm92rcd13ifvqglg","pricing_plan_id":"cebpf4jnsgd1na2vs0mg"},{"bike_id":"5178730d-40a2-4c66-937e-20f51e4e5bcc","system_id":"levelo_inurba_marseille","lat":43.2512,"lon":5.40312,"is_reserved":false,"is_disabled":false,"rental_uris":{"android":"levelo://app?vid=5178730d-40a2-4c66-937e-20f51e4e5bcc","ios":"levelo://app?vid=5178730d-40a2-4c66-937e-20f51e4e5bcc"},"vehicle_type_id":"4","last_reported":1728025726,"current_range_meters":38800,"station_id":"ce4bhlh2rcd13ifvqgig","pricing_plan_id":"cebpf4jnsgd1na2vs0mg"},{"bike_id":"f860826b-3897-4545-91bb-cb173acbd1f4","system_id":"levelo_inurba_marseille","lat":43.27063,"lon":5.40257,"is_reserved":false,"is_disabled":false,"rental_uris":{"android":"levelo://app?vid=f860826b-3897-4545-91bb-cb173acbd1f4","ios":"levelo://app?vid=f860826b-3897-4545-91bb-cb173acbd1f4"},"vehicle_type_id":"4","last_reported":1728025726,"current_range_meters":4000,"station_id":"ce4bhk92rcd13ifvqgc0","pricing_plan_id":"cebpf4jnsgd1na2vs0mg"},{"bike_id":"eb387d80-1a2b-4338-9dfc-d920fff731e3","system_id":"levelo_inurba_marseille","lat":43.23153,"lon":5.43718,"is_reserved":false,"is_disabled":false,"rental_uris":{"android":"levelo://app?vid=eb387d80-1a2b-4338-9dfc-d920fff731e3","ios":"levelo://app?vid=eb387d80-1a2b-4338-9dfc-d920fff731e3"},"vehicle_type_id":"4","last_reported":1728025726,"current_range_meters":33600,"station_id":"ce4bhmp2rcd13ifvqgog","pricing_plan_id":"cebpf4jnsgd1na2vs0mg"},{"bike_id":"d528e279-8260-4cc1-b0e5-51f71ccd5192","system_id":"levelo_inurba_marseille","lat":43.30141,"lon":5.38064,"is_reserved":false,"is_disabled":false,"rental_uris":{"android":"levelo://app?vid=d528e279-8260-4cc1-b0e5-51f71ccd5192","ios":"levelo://app?vid=d528e279-8260-4cc1-b0e5-51f71ccd5192"},"vehicle_type_id":"4","last_reported":1728025726,"current_range_meters":32000,"station_id":"ce4bgjp2rcd13ifvqbh0","pricing_plan_id":"cebpf4jnsgd1na2vs0mg"},{"bike_id":"e8b037e1-6bbc-4c1a-bf9f-c5ff62ab92dc","system_id":"levelo_inurba_marseille","lat":43.290466,"lon":5.359114,"is_reserved":false,"is_disabled":false,"rental_uris":{"android":"levelo://app?vid=e8b037e1-6bbc-4c1a-bf9f-c5ff62ab92dc","ios":"levelo://app?vid=e8b037e1-6bbc-4c1a-bf9f-c5ff62ab92dc"},"vehicle_type_id":"4","last_reported":1728025726,"current_range_meters":37600,"station_id":"ce4bha92rcd13ifvqeg0","pricing_plan_id":"cebpf4jnsgd1na2vs0mg"},{"bike_id":"beb14ce4-dbe9-4a1a-966c-184150f7ebae","system_id":"levelo_inurba_marseille","lat":43.329895,"lon":5.394454,"is_reserved":false,"is_disabled":false,"rental_uris":{"android":"levelo://app?vid=beb14ce4-dbe9-4a1a-966c-184150f7ebae","ios":"levelo://app?vid=beb14ce4-dbe9-4a1a-966c-184150f7ebae"},"vehicle_type_id":"4","last_reported":1728025726,"current_range_meters":9200,"station_id":"ce4bhr92rcd13ifvqhrg","pricing_plan_id":"cebpf4jnsgd1na2vs0mg"},{"bike_id":"50115991-6619-4361-a39f-dabb0da4bdf1","system_id":"levelo_inurba_marseille","lat":43.30274,"lon":5.37696,"is_reserved":false,"is_disabled":false,"rental_uris":{"android":"levelo://app?vid=50115991-6619-4361-a39f-dabb0da4bdf1","ios":"levelo://app?vid=50115991-6619-4361-a39f-dabb0da4bdf1"},"vehicle_type_id":"4","last_reported":1728025726,"current_range_meters":6400,"station_id":"ce4bguh2rcd13ifvqcj0","pricing_plan_id":"cebpf4jnsgd1na2vs0mg"},{"bike_id":"5a4eacb2-41f6-4697-a119-a1538a7097f5","system_id":"levelo_inurba_marseille","lat":43.26936,"lon":5.38912,"is_reserved":false,"is_disabled":false,"rental_uris":{"android":"levelo://app?vid=5a4eacb2-41f6-4697-a119-a1538a7097f5","ios":"levelo://app?vid=5a4eacb2-41f6-4697-a119-a1538a7097f5"},"vehicle_type_id":"4","last_reported":1728025726,"current_range_meters":17200,"station_id":"ce4bhhh2rcd13ifvqfl0","pricing_plan_id":"cebpf4jnsgd1na2vs0mg"},{"bike_id":"613dddd7-b6d5-4ce7-b0cc-11c99bc21e50","system_id":"levelo_inurba_marseille","lat":43.30549,"lon":5.36698,"is_reserved":false,"is_disabled":false,"rental_uris":{"android":"levelo://app?vid=613dddd7-b6d5-4ce7-b0cc-11c99bc21e50","ios":"levelo://app?vid=613dddd7-b6d5-4ce7-b0cc-11c99bc21e50"},"vehicle_type_id":"4","last_reported":1728025726,"current_range_meters":33600,"station_id":"ce4bgrp2rcd13ifvqc9g","pricing_plan_id":"cebpf4jnsgd1na2vs0mg"},{"bike_id":"abedcaca-ce9a-464c-8437-8a94d42dcb16","system_id":"levelo_inurba_marseille","lat":43.29602,"lon":5.37355,"is_reserved":false,"is_disabled":false,"rental_uris":{"android":"levelo://app?vid=abedcaca-ce9a-464c-8437-8a94d42dcb16","ios":"levelo://app?vid=abedcaca-ce9a-464c-8437-8a94d42dcb16"},"vehicle_type_id":"4","last_reported":1728025726,"current_range_meters":14800,"station_id":"ce4bgpp2rcd13ifvqc3g","pricing_plan_id":"cebpf4jnsgd1na2vs0mg"},{"bike_id":"c451a90f-6544-47ac-b580-b107884fb2f2","system_id":"levelo_inurba_marseille","lat":43.31363,"lon":5.38489,"is_reserved":false,"is_disabled":false,"rental_uris":{"android":"levelo://app?vid=c451a90f-6544-47ac-b580-b107884fb2f2","ios":"levelo://app?vid=c451a90f-6544-47ac-b580-b107884fb2f2"},"vehicle_type_id":"4","last_reported":1728025726,"current_range_meters":9200,"station_id":"ce4bgt92rcd13ifvqcf0","pricing_plan_id":"cebpf4jnsgd1na2vs0mg"},{"bike_id":"ce359a4d-659f-4f52-bfdc-fbeb81b61a34","system_id":"levelo_inurba_marseille","lat":43.28345,"lon":5.38107,"is_reserved":false,"is_disabled":false,"rental_uris":{"android":"levelo://app?vid=ce359a4d-659f-4f52-bfdc-fbeb81b61a34","ios":"levelo://app?vid=ce359a4d-659f-4f52-bfdc-fbeb81b61a34"},"vehicle_type_id":"4","last_reported":1728025726,"current_range_meters":38800,"station_id":"ce4bh412rcd13ifvqdr0","pricing_plan_id":"cebpf4jnsgd1na2vs0mg"},{"bike_id":"f0d5816b-2640-4859-98f4-73eaebbb64bf","system_id":"levelo_inurba_marseille","lat":43.28608,"lon":5.37072,"is_reserved":false,"is_disabled":false,"rental_uris":{"android":"levelo://app?vid=f0d5816b-2640-4859-98f4-73eaebbb64bf","ios":"levelo://app?vid=f0d5816b-2640-4859-98f4-73eaebbb64bf"},"vehicle_type_id":"4","last_reported":1728025726,"current_range_meters":32000,"station_id":"ce4bht12rcd13ifvqi60","pricing_plan_id":"cebpf4jnsgd1na2vs0mg"},{"bike_id":"71088491-253d-469d-92be-f3c76b35a0ca","system_id":"levelo_inurba_marseille","lat":43.29041,"lon":5.39981,"is_reserved":false,"is_disabled":false,"rental_uris":{"android":"levelo://app?vid=71088491-253d-469d-92be-f3c76b35a0ca","ios":"levelo://app?vid=71088491-253d-469d-92be-f3c76b35a0ca"},"vehicle_type_id":"4","last_reported":1728025726,"current_range_meters":35600,"station_id":"ce4bh392rcd13ifvqdm0","pricing_plan_id":"cebpf4jnsgd1na2vs0mg"},{"bike_id":"f0ee3299-6f34-4291-885b-91b308e7806a","system_id":"levelo_inurba_marseille","lat":43.25002,"lon":5.3893,"is_reserved":false,"is_disabled":false,"rental_uris":{"android":"levelo://app?vid=f0ee3299-6f34-4291-885b-91b308e7806a","ios":"levelo://app?vid=f0ee3299-6f34-4291-885b-91b308e7806a"},"vehicle_type_id":"4","last_reported":1728025726,"current_range_meters":33200,"station_id":"ce4bhgp2rcd13ifvqfd0","pricing_plan_id":"cebpf4jnsgd1na2vs0mg"},