{"last_updated":1740078417,"ttl":60,"version":"2.2","data":{"bikes":[{"bike_id":"d933ffda-3d21-44b3-8645-88159cb715e4","system_id":"levelo_inurba_marseille","lat":43.26786,"lon":5.39411,"is_reserved":false,"is_disabled":false,"rental_uris":{"android":"levelo://app?vid=d933ffda-3d21-44b3-8645-88159cb715e4","ios":"levelo://app?vid=d933ffda-3d21-44b3-8645-88159cb715e4"},"vehicle_type_id":"4","last_reported":1740078417,"current_range_meters":2800,"station_id":"ce4bhh12rcd13ifvqfg0","pricing_plan_id":"cebpf4jnsgd1na2vs0mg"},{"bike_id":"ca644f34-d935-4c9f-bc18-bb59c308887c","system_id":"levelo_inurba_marseille","lat":43.292015,"lon":5.358011,"is_reserved":false,"is_disabled":false,"rental_uris":{"android":"levelo://app?vid=ca644f34-d935-4c9f-bc18-bb59c308887c","ios":"levelo://app?vid=ca644f34-d935-4c9f-bc18-bb59c308887c"},"vehicle_type_id":"4","last_reported":1740078417,"current_range_meters":2800,"station_id":"","pricing_plan_id":"cebpf4jnsgd1na2vs0mg"},{"bike_id":"5044071c-40c2-4214-9f51-829d903f922e","system_id":"levelo_inurba_marseille","lat":43.258234,"lon":5.394424,"is_reserved":false,"is_disabled":false,"rental_uris":{"android":"levelo://app?vid=5044071c-40c2-4214-9f51-829d903f922e","ios":"levelo://app?vid=5044071c-40c2-4214-9f51-829d903f922e"},"vehicle_type_id":"4","last_reported":1740078417,"current_range_meters":2800,"station_id":"ce4bhip2rcd13ifvqft0","pricing_plan_id":"cebpf4jnsgd1na2vs0mg"},{"bike_id":"607fee42-f290-472c-803e-8aa3a38ae2e2","system_id":"levelo_inurba_marseille","lat":43.28619,"lon":5.35102,"is_reserved":false,"is_disabled":false,"rental_uris":{"android":"levelo://app?vid=607fee42-f290-472c-803e-8aa3a38ae2e2","ios":"levelo://app?vid=607fee42-f290-472c-803e-8aa3a38ae2e2"},"vehicle_type_id":"4","last_reported":1740078417,"current_range_meters":2800,"station_id":"ce4bhch2rcd13ifvqeug","pricing_plan_id":"cebpf4jnsgd1na2vs0mg"},{"bike_id":"01b7315d-5d0f-4dd1-a01e-2b36cddbe5c5","system_id":"levelo_inurba_marseille","lat":43.29796,"lon":5.39385,"is_reserved":false,"is_disabled":false,"rental_uris":{"android":"levelo://app?vid=01b7315d-5d0f-4dd1-a01e-2b36cddbe5c5","ios":"levelo://app?vid=01b7315d-5d0f-4dd1-a01e-2b36cddbe5c5"},"vehicle_type_id":"4","last_reported":1740078417,"current_range_meters":3200,"station_id":"chh1huq6cuj3fo74tm60","pricing_plan_id":"cebpf4jnsgd1na2vs0mg"},{"bike_id":"c048177d-f9ab-4c30-b1ca-130af5282eb9","system_id":"levelo_inurba_marseille","lat":43.29263,"lon":5.38442,"is_reserved":false,"is_disabled":false,"rental_uris":{"android":"levelo://app?vid=c048177d-f9ab-4c30-b1ca-130af5282eb9","ios":"levelo://app?vid=c048177d-f9ab-4c30-b1ca-130af5282eb9"},"vehicle_type_id":"4","last_reported":1740078417,"current_range_meters":3200,"station_id":"","pricing_plan_id":"cebpf4jnsgd1na2vs0mg"},{"bike_id":"32558e69-4ea5-4cf4-853c-2cf409170132","system_id":"levelo_inurba_marseille","lat":43.28928,"lon":5.36393,"is_reserved":false,"is_disabled":false,"rental_uris":{"android":"levelo://app?vid=32558e69-4ea5-4cf4-853c-2cf409170132","ios":"levelo://app?vid=32558e69-4ea5-4cf4-853c-2cf409170132"},"vehicle_type_id":"4","last_reported":1740078417,"current_range_meters":3200,"station_id":"ce4bhc92rcd13ifvqetg","pricing_plan_id":"cebpf4jnsgd1na2vs0mg"},{"bike_id":"056ed3a0-d139-4dcb-a4fa-f431f2b7fed0","system_id":"levelo_inurba_marseille","lat":43.26554,"lon":5.3729,"is_reserved":false,"is_disabled":false,"rental_uris":{"android":"levelo://app?vid=056ed3a0-d139-4dcb-a4fa-f431f2b7fed0","ios":"levelo://app?vid=056ed3a0-d139-4dcb-a4fa-f431f2b7fed0"},"vehicle_type_id":"4","last_reported":1740078417,"current_range_meters":3200,"station_id":"","pricing_plan_id":"cebpf4jnsgd1na2vs0mg"},{"bike_id":"adb3d6df-7149-4295-84c9-8f4cb47f9c0e","system_id":"levelo_inurba_marseille","lat":43.27274,"lon":5.40676,"is_reserved":false,"is_disabled":true,"rental_uris":{"android":"levelo://app?vid=adb3d6df-7149-4295-84c9-8f4cb47f9c0e","ios":"levelo://app?vid=adb3d6df-7149-4295-84c9-8f4cb47f9c0e"},"vehicle_type_id":"4","last_reported":1740078417,"current_range_meters":3200,"station_id":"","pricing_plan_id":"cebpf4jnsgd1na2vs0mg"},{"bike_id":"5083d9c5-1ba7-478f-b0dd-ab359f16e35f","system_id":"levelo_inurba_marseille","lat":43.32345,"lon":5.36752,"is_reserved":false,"is_disabled":false,"rental_uris":{"android":"levelo://app?vid=5083d9c5-1ba7-478f-b0dd-ab359f16e35f","ios":"levelo://app?vid=5083d9c5-1ba7-478f-b0dd-ab359f16e35f"},"vehicle_type_id":"4","last_reported":1740078417,"current_range_meters":3600,"station_id":"ce4bhsh2rcd13ifvqi2g","pricing_plan_id":"cebpf4jnsgd1na2vs0mg"},{"bike_id":"f500e3f0-7816-4541-ac6b-bae01df5b2c0","system_id":"levelo_inurba_marseille","lat":43.2885,"lon":5.3585,"is_reserved":false,"is_disabled":false,"rental_uris":{"android":"levelo://app?vid=f500e3f0-7816-4541-ac6b-bae01df5b2c0","ios":"levelo://app?vid=f500e3f0-7816-4541-ac6b-bae01df5b2c0"},"vehicle_type_id":"4","last_reported":1740078417,"current_range_meters":3600,"station_id":"ce4bhb12rcd13ifvqem0","pricing_plan_id":"cebpf4jnsgd1na2vs0mg"},{"bike_id":"885ccb29-4c6d-4fe4-87f3-8fb799c3b6c3","system_id":"levelo_inurba_marseille","lat":43.29632,"lon":5.37159,"is_reserved":false,"is_disabled":false,"rental_uris":{"android":"levelo://app?vid=885ccb29-4c6d-4fe4-87f3-8fb799c3b6c3","ios":"levelo://app?vid=885ccb29-4c6d-4fe4-87f3-8fb799c3b6c3"},"vehicle_type_id":"4","last_reported":1740078417,"current_range_meters":3600,"station_id":"ce4bgnh2rcd13ifvqc0g","pricing_plan_id":"cebpf4jnsgd1na2vs0mg"},{"bike_id":"a323a378-b437-427a-8072-80a36b32f22f","system_id":"levelo_inurba_marseille","lat":43.309071,"lon":5.401321,"is_reserved":false,"is_disabled":false,"rental_uris":{"android":"levelo://app?vid=a323a378-b437-427a-8072-80a36b32f22f","ios":"levelo://app?vid=a323a378-b437-427a-8072-80a36b32f22f"},"vehicle_type_id":"4","last_reported":1740078417,"current_range_meters":4000,"station_id":"ce4bh112rcd13ifvqda0","pricing_plan_id":"cebpf4jnsgd1na2vs0mg"},{"bike_id":"c970dbab-b483-4d1e-b8d6-f711723e96a8","system_id":"levelo_inurba_marseille","lat":43.29713,"lon":5.36606,"is_reserved":false,"is_disabled":false,"rental_uris":{"android":"levelo://app?vid=c970dbab-b483-4d1e-b8d6-f711723e96a8","ios":"levelo://app?vid=c970dbab-b483-4d1e-b8d6-f711723e96a8"},"vehicle_type_id":"4","last_reported":1740078417,"current_range_meters":4400,"station_id":"ce4bgn12rcd13ifvqbt0","pricing_plan_id":"cebpf4jnsgd1na2vs0mg"},{"bike_id":"9004e204-70e2-4053-9607-55471aef03be","system_id":"levelo_inurba_marseille","lat":43.28154,"lon":5.35129,"is_reserved":false,"is_disabled":false,"rental_uris":{"android":"levelo://app?vid=9004e204-70e2-4053-9607-55471aef03be","ios":"levelo://app?vid=9004e204-70e2-4053-9607-55471aef03be"},"vehicle_type_id":"4","last_reported":1740078417,"current_range_meters":4800,"station_id":"ce4bhb12rcd13ifvqel0","pricing_plan_id":"cebpf4jnsgd1na2vs0mg"},{"bike_id":"9198c6ef-bd5b-45d9-bd7b-e058d791d44b","system_id":"levelo_inurba_marseille","lat":43.24817,"lon":5.37461,"is_reserved":false,"is_disabled":true,"rental_uris":{"android":"levelo://app?vid=9198c6ef-bd5b-45d9-bd7b-e058d791d44b","ios":"levelo://app?vid=9198c6ef-bd5b-45d9-bd7b-e058d791d44b"},"vehicle_type_id":"4","last_reported":1740078417,"current_range_meters":4800,"station_id":"","pricing_plan_id":"cebpf4jnsgd1na2vs0mg"},{"bike_id":"9a5017fc-e06f-4ecf-bb63-cc9fd29ddf90","system_id":"levelo_inurba_marseille","lat":43.293653,"lon":5.378608,"is_reserved":false,"is_disabled":false,"rental_uris":{"android":"levelo://app?vid=9a5017fc-e06f-4ecf-bb63-cc9fd29ddf90","ios":"levelo://app?vid=9a5017fc-e06f-4ecf-bb63-cc9fd29ddf90"},"vehicle_type_id":"4","last_reported":1740078417,"current_range_meters":4800,"station_id":"","pricing_plan_id":"cebpf4jnsgd1na2vs0mg"},{"bike_id":"7e05100a-9b55-40be-b6b6-e592d4933e52","system_id":"levelo_inurba_marseille","lat":43.23969,"lon":5.36633,"is_reserved":false,"is_disabled":false,"rental_uris":{"android":"levelo://app?vid=7e05100a-9b55-40be-b6b6-e592d4933e52","ios":"levelo://app?vid=7e05100a-9b55-40be-b6b6-e592d4933e52"},"vehicle_type_id":"4","last_reported":1740078417,"current_range_meters":5600,"station_id":"","pricing_plan_id":"cebpf4jnsgd1na2vs0mg"},{"bike_id":"85019284-01e9-438a-9aeb-77cc3e5e74d4","system_id":"levelo_inurba_marseille","lat":43.28151,"lon":5.42621,"is_reserved":false,"is_disabled":false,"rental_uris":{"android":"levelo://app?vid=85019284-01e9-438a-9aeb-77cc3e5e74d4","ios":"levelo://app?vid=85019284-01e9-438a-9aeb-77cc3e5e74d4"},"vehicle_type_id":"4","last_reported":1740078417,"current_range_meters":5600,"station_id":"ce4bhnh2rcd13ifvqgug","pricing_plan_id":"cebpf4jnsgd1na2vs0mg"},{"bike_id":"6b3b24e8-cb47-4766-ab5b-680983d32dbd","system_id":"levelo_inurba_marseille","lat":43.310876,"lon":5.388863,"is_reserved":false,"is_disabled":false,"rental_uris":{"android":"levelo://app?vid=6b3b24e8-cb47-4766-ab5b-680983d32dbd","ios":"levelo://app?vid=6b3b24e8-cb47-4766-ab5b-680983d32dbd"},"vehicle_type_id":"4","last_reported":1740078417,"current_range_meters":5600,"station_id":"ce4bh0h2rcd13ifvqd40","pricing_plan_id":"cebpf4jnsgd1na2vs0mg"},{"bike_id":"43748242-f6c0-4fa0-93fe-60606c0e9299","system_id":"levelo_inurba_marseille","lat":43.30131,"lon":5.38789,"is_reserved":false,"is_disabled":false,"rental_uris":{"android":"levelo://app?vid=43748242-f6c0-4fa0-93fe-60606c0e9299","ios":"levelo://app?vid=43748242-f6c0-4fa0-93fe-60606c0e9299"},"vehicle_type_id":"4","last_reported":1740078417,"current_range_meters":5600,"station_id":"ce4bghh2rcd13ifvqb60","pricing_plan_id":"cebpf4jnsgd1na2vs0mg"},{"bike_id":"39644f4c-7452-4653-8df7-9c7cef84e13d","system_id":"levelo_inurba_marseille","lat":43.2567,"lon":5.39402,"is_reserved":false,"is_disabled":true,"rental_uris":{"android":"levelo://app?vid=39644f4c-7452-4653-8df7-9c7cef84e13d","ios":"levelo://app?vid=39644f4c-7452-4653-8df7-9c7cef84e13d"},"vehicle_type_id":"4","last_reported":1740078417,"current_range_meters":5600,"station_id":"ce4bhh92rcd13ifvqfj0","pricing_plan_id":"cebpf4jnsgd1na2vs0mg"},{"bike_id":"03ec2e9f-fe3b-44e4-9988-3c39b2ef386f","system_id":"levelo_inurba_marseille","lat":43.293187,"lon":5.371467,"is_reserved":false,"is_disabled":false,"rental_uris":{"android":"levelo://app?vid=03ec2e9f-fe3b-44e4-9988-3c39b2ef386f","ios":"levelo://app?vid=03ec2e9f-fe3b-44e4-9988-3c39b2ef386f"},"vehicle_type_id":"4","last_reported":1740078417,"current_range_meters":6000,"station_id":"ce4bh192rcd13ifvqdd0","pricing_plan_id":"cebpf4jnsgd1na2vs0mg"},{"bike_id":"2ddb5ee2-89f8-4dd1-ae9a-821c7a25395b","system_id":"levelo_inurba_marseille","lat":43.29298,"lon":5.37444,"is_reserved":false,"is_disabled":false,"rental_uris":{"android":"levelo://app?vid=2ddb5ee2-89f8-4dd1-ae9a-821c7a25395b","ios":"levelo://app?vid=2ddb5ee2-89f8-4dd1-ae9a-821c7a25395b"},"vehicle_type_id":"4","last_reported":1740078417,"current_range_meters":6000,"station_id":"ce4bgi12rcd13ifvqb70","pricing_plan_id":"cebpf4jnsgd1na2vs0mg"},{"bike_id":"8868ad0d-1ea7-4f61-8358-37612de33f2a","system_id":"levelo_inurba_marseille","lat":43.29198,"lon":5.35818,"is_reserved":false,"is_disabled":false,"rental_uris":{"android":"levelo://app?vid=8868ad0d-1ea7-4f61-8358-37612de33f2a","ios":"levelo://app?vid=8868ad0d-1ea7-4f61-8358-37612de33f2a"},"vehicle_type_id":"4","last_reported":1740078417,"current_range_meters":6000,"station_id":"ce4bhb12rcd13ifvqel0","pricing_plan_id":"cebpf4jnsgd1na2vs0mg"},{"bike_id":"d7572f81-75f1-4718-bb88-ba47c48db4e5","system_id":"levelo_inurba_marseille","lat":43.27813,"lon":5.40709,"is_reserved":false,"is_disabled":false,"rental_uris":{"android":"levelo://app?vid=d7572f81-75f1-4718-bb88-ba47c48db4e5","ios":"levelo://app?vid=d7572f81-75f1-4718-bb88-ba47c48db4e5"},"vehicle_type_id":"4","last_reported":1740078417,"current_range_meters":6000,"station_id":"","pricing_plan_id":"cebpf4jnsgd1na2vs0mg"},{"bike_id":"f9736a1c-ddd2-48e9-b3bd-a74f192dc74e","system_id":"levelo_inurba_marseille","lat":43.31222,"lon":5.36857,"is_reserved":false,"is_disabled":false,"rental_uris":{"android":"levelo://app?vid=f9736a1c-ddd2-48e9-b3bd-a74f192dc74e","ios":"levelo://app?vid=f9736a1c-ddd2-48e9-b3bd-a74f192dc74e"},"vehicle_type_id":"4","last_reported":1740078417,"current_range_meters":6000,"station_id":"ce4bgl92rcd13ifvqbq0","pricing_plan_id":"cebpf4jnsgd1na2vs0mg"},{"bike_id":"120a1038-be58-4361-80b4-0796eba705fb","system_id":"levelo_inurba_marseille","lat":43.26813,"lon":5.4027,"is_reserved":false,"is_disabled":false,"rental_uris":{"android":"levelo://app?vid=120a1038-be58-4361-80b4-0796eba705fb","ios":"levelo://app?vid=120a1038-be58-4361-80b4-0796eba705fb"},"vehicle_type_id":"4","last_reported":1740078417,"current_range_meters":6000,"station_id":"ce501612rcd8frsf0b60","pricing_plan_id":"cebpf4jnsgd1na2vs0mg"},{"bike_id":"1e826498-95b9-4b40-b6a5-e63a70e9e100","system_id":"levelo_inurba_marseille","lat":43.29788,"lon":5.38094,"is_reserved":false,"is_disabled":false,"rental_uris":{"android":"levelo://app?vid=1e826498-95b9-4b40-b6a5-e63a70e9e100","ios":"levelo://app?vid=1e826498-95b9-4b40-b6a5-e63a70e9e100"},"vehicle_type_id":"4","last_reported":1740078417,"current_range_meters":6400,"station_id":"","pricing_plan_id":"cebpf4jnsgd1na2vs0mg"},{"bike_id":"ffb40259-4e01-44cd-be01-06b97771aa20","system_id":"levelo_inurba_marseille","lat":43.24812,"lon":5.37455,"is_reserved":false,"is_disabled":false,"rental_uris":{"android":"levelo://app?vid=ffb40259-4e01-44cd-be01-06b97771aa20","ios":"levelo://app?vid=ffb40259-4e01-44cd-be01-06b97771aa20"},"vehicle_type_id":"4","last_reported":1740078417,"current_range_meters":6400,"station_id":"","pricing_plan_id":"cebpf4jnsgd1na2vs0mg"},{"bike_id":"419ee3f8-8696-494a-867b-b9d6041d1da7","system_id":"levelo_inurba_marseille","lat":43.2925,"lon":5.38434,"is_reserved":false,"is_disabled":false,"rental_uris":{"android":"levelo://app?vid=419ee3f8-8696-494a-867b-b9d6041d1da7","ios":"levelo://app?vid=419ee3f8-8696-494a-867b-b9d6041d1da7"},"vehicle_type_id":"4","last_reported":1740078417,"current_range_meters":6400,"station_id":"ce4bh692rcd13ifvqea0","pricing_plan_id":"cebpf4jnsgd1na2vs0mg"},{"bike_id":"8d9ffb85-8011-478e-846e-93493b1494a6","system_id":"levelo_inurba_marseille","lat":43.251157,"lon":5.403123,"is_reserved":false,"is_disabled":false,"rental_uris":{"android":"levelo://app?vid=8d9ffb85-8011-478e-846e-93493b1494a6","ios":"levelo://app?vid=8d9ffb85-8011-478e-846e-93493b1494a6"},"vehicle_type_id":"4","last_reported":1740078417,"current_range_meters":6400,"station_id":"ce4bhlh2rcd13ifvqgig","pricing_plan_id":"cebpf4jnsgd1na2vs0mg"},{"bike_id":"071d380f-647a-44d0-bf40-dced64038ac2","system_id":"levelo_inurba_marseille","lat":43.299,"lon":5.43669,"is_reserved":false,"is_disabled":false,"rental_uris":{"android":"levelo://app?vid=071d380f-647a-44d0-bf40-dced64038ac2","ios":"levelo://app?vid=071d380f-647a-44d0-bf40-dced64038ac2"},"vehicle_type_id":"4","last_reported":1740078417,"current_range_meters":6400,"station_id":"ce4bhpp2rcd13ifvqhfg","pricing_plan_id":"cebpf4jnsgd1na2vs0mg"},{"bike_id":"4a808a73-93a5-430e-af77-2d4dd396417c","system_id":"levelo_inurba_marseille","lat":43.29602,"lon":5.38109,"is_reserved":false,"is_disabled":false,"rental_uris":{"android":"levelo://app?vid=4a808a73-93a5-430e-af77-2d4dd396417c","ios":"levelo://app?vid=4a808a73-93a5-430e-af77-2d4dd396417c"},"vehicle_type_id":"4","last_reported":1740078417,"current_range_meters":6800,"station_id":"ce4bgl12rcd13ifvqbo0","pricing_plan_id":"cebpf4jnsgd1na2vs0mg"},{"bike_id":"26402195-cc5c-44fb-9785-5f3ebabfb569","system_id":"levelo_inurba_marseille","lat":43.26487,"lon":5.39552,"is_reserved":false,"is_disabled":false,"rental_uris":{"android":"levelo://app?vid=26402195-cc5c-44fb-9785-5f3ebabfb569","ios":"levelo://app?vid=26402195-cc5c-44fb-9785-5f3ebabfb569"},"vehicle_type_id":"4","last_reported":1740078417,"current_range_meters":6800,"station_id":"ce4bhi12rcd13ifvqfq0","pricing_plan_id":"cebpf4jnsgd1na2vs0mg"},{"bike_id":"ab84dbbf-6c53-481f-8523-7f2e10cec44b","system_id":"levelo_inurba_marseille","lat":43.2952,"lon":5.39041,"is_reserved":false,"is_disabled":false,"rental_uris":{"android":"levelo://app?vid=ab84dbbf-6c53-481f-8523-7f2e10cec44b","ios":"levelo://app?vid=ab84dbbf-6c53-481f-8523-7f2e10cec44b"},"vehicle_type_id":"4","last_reported":1740078417,"current_range_meters":6800,"station_id":"ce4bh3p2rcd13ifvqdp0","pricing_plan_id":"cebpf4jnsgd1na2vs0mg"},{"bike_id":"52f424fd-9081-4951-9324-694ed161d0a1","system_id":"levelo_inurba_marseille","lat":43.2587,"lon":5.399,"is_reserved":false,"is_disabled":false,"rental_uris":{"android":"levelo://app?vid=52f424fd-9081-4951-9324-694ed161d0a1","ios":"levelo://app?vid=52f424fd-9081-4951-9324-694ed161d0a1"},"vehicle_type_id":"4","last_reported":1740078417,"current_range_meters":6800,"station_id":"ce4bhl92rcd13ifvqghg","pricing_plan_id":"cebpf4jnsgd1na2vs0mg"},{"bike_id":"1098daf4-7788-40b0-9db9-df60c5db824d","system_id":"levelo_inurba_marseille","lat":43.31709,"lon":5.43705,"is_reserved":false,"is_disabled":false,"rental_uris":{"android":"levelo://app?vid=1098daf4-7788-40b0-9db9-df60c5db824d","ios":"levelo://app?vid=1098daf4-7788-40b0-9db9-df60c5db824d"},"vehicle_type_id":"4","last_reported":1740078417,"current_range_meters":6800,"station_id":"ce4bhp92rcd13ifvqhcg","pricing_plan_id":"cebpf4jnsgd1na2vs0mg"},{"bike_id":"816e3e7b-b107-4001-b79f-e380ada67102","system_id":"levelo_inurba_marseille","lat":43.24147,"lon":5.36405,"is_reserved":false,"is_disabled":false,"rental_uris":{"android":"levelo://app?vid=816e3e7b-b107-4001-b79f-e380ada67102","ios":"levelo://app?vid=816e3e7b-b107-4001-b79f-e380ada67102"},"vehicle_type_id":"4","last_reported":1740078417,"current_range_meters":6800,"station_id":"cpo36qri1sfpv3e86is0","pricing_plan_id":"cebpf4jnsgd1na2vs0mg"},{"bike_id":"dfa9ed66-c1f1-47c2-b428-7ab56a14a8cd","system_id":"levelo_inurba_marseille","lat":43.29579,"lon":5.36732,"is_reserved":false,"is_disabled":false,"rental_uris":{"android":"levelo://app?vid=dfa9ed66-c1f1-47c2-b428-7ab56a14a8cd","ios":"levelo://app?vid=dfa9ed66-c1f1-47c2-b428-7ab56a14a8cd"},"vehicle_type_id":"4","last_reported":1740078417,"current_range_meters":6800,"station_id":"ce4bgph2rcd13ifvqc2g","pricing_plan_id":"cebpf4jnsgd1na2vs0mg"},{"bike_id":"f8a1eefe-5190-4327-95c3-8138f343fe57","system_id":"levelo_inurba_marseille","lat":43.31174,"lon":5.39298,"is_reserved":false,"is_disabled":false,"rental_uris":{"android":"levelo://app?vid=f8a1eefe-5190-4327-95c3-8138f343fe57","ios":"levelo://app?vid=f8a1eefe-5190-4327-95c3-8138f343fe57"},"vehicle_type_id":"4","last_reported":1740078417,"current_range_meters":6800,"station_id":"ce4bgqh2rcd13ifvqc4g","pricing_plan_id":"cebpf4jnsgd1na2vs0mg"},{"bike_id":"ca0fe855-bfbc-4a8d-a426-e190a1b955b2","system_id":"levelo_inurba_marseille","lat":43.31691,"lon":5.40465,"is_reserved":false,"is_disabled":false,"rental_uris":{"android":"levelo://app?vid=ca0fe855-bfbc-4a8d-a426-e190a1b955b2","ios":"levelo://app?vid=ca0fe855-bfbc-4a8d-a426-e190a1b955b2"},"vehicle_type_id":"4","last_reported":1740078417,"current_range_meters":7200,"station_id":"ce4bh012rcd13ifvqd00","pricing_plan_id":"cebpf4jnsgd1na2vs0mg"},{"bike_id":"61a4b8ab-bf26-459d-acd2-bb273fc7e49a","system_id":"levelo_inurba_marseille","lat":43.28983,"lon":5.37828,"is_reserved":false,"is_disabled":false,"rental_uris":{"android":"levelo://app?vid=61a4b8ab-bf26-459d-acd2-bb273fc7e49a","ios":"levelo://app?vid=61a4b8ab-bf26-459d-acd2-bb273fc7e49a"},"vehicle_type_id":"4","last_reported":1740078417,"current_range_meters":7200,"station_id":"ce4bh9p2rcd13ifvqed0","pricing_plan_id":"cebpf4jnsgd1na2vs0mg"},{"bike_id":"093d36c4-f304-46a9-8792-5d9e19e468fc","system_id":"levelo_inurba_marseille","lat":43.298934,"lon":5.436512,"is_reserved":false,"is_disabled":false,"rental_uris":{"android":"levelo://app?vid=093d36c4-f304-46a9-8792-5d9e19e468fc","ios":"levelo://app?vid=093d36c4-f304-46a9-8792-5d9e19e468fc"},"vehicle_type_id":"4","last_reported":1740078417,"current_range_meters":7200,"station_id":"ce4bhpp2rcd13ifvqhfg","pricing_plan_id":"cebpf4jnsgd1na2vs0mg"},{"bike_id":"3fa131c8-d3bf-4fb9-b400-1daf371dcaa7","system_id":"levelo_inurba_marseille","lat":43.27197,"lon":5.41005,"is_reserved":false,"is_disabled":false,"rental_uris":{"android":"levelo://app?vid=3fa131c8-d3bf-4fb9-b400-1daf371dcaa7","ios":"levelo://app?vid=3fa131c8-d3bf-4fb9-b400-1daf371dcaa7"},"vehicle_type_id":"4","last_reported":1740078417,"current_range_meters":7200,"station_id":"ce4bhl12rcd13ifvqgf0","pricing_plan_id":"cebpf4jnsgd1na2vs0mg"},{"bike_id":"ff902a7c-aed4-4f41-9f3e-4f77b693c898","system_id":"levelo_inurba_marseille","lat":43.29247,"lon":5.38421,"is_reserved":false,"is_disabled":false,"rental_uris":{"android":"levelo://app?vid=ff902a7c-aed4-4f41-9f3e-4f77b693c898","ios":"levelo://app?vid=ff902a7c-aed4-4f41-9f3e-4f77b693c898"},"vehicle_type_id":"4","last_reported":1740078417,"current_range_meters":7200,"station_id":"ce4bh692rcd13ifvqea0","pricing_plan_id":"cebpf4jnsgd1na2vs0mg"},{"bike_id":"2bceaa46-a01c-4534-a11a-af860b2e903f","system_id":"levelo_inurba_marseille","lat":43.28483,"lon":5.38419,"is_reserved":false,"is_disabled":false,"rental_uris":{"android":"levelo://app?vid=2bceaa46-a01c-4534-a11a-af860b2e903f","ios":"levelo://app?vid=2bceaa46-a01c-4534-a11a-af860b2e903f"},"vehicle_type_id":"4","last_reported":1740078417,"current_range_meters":7200,"station_id":"ce4bh512rcd13ifvqe3g","pricing_plan_id":"cebpf4jnsgd1na2vs0mg"},{"bike_id":"f027fe38-3f5d-42fa-b16a-68ca60104c09","system_id":"levelo_inurba_marseille","lat":43.24164,"lon":5.36409,"is_reserved":false,"is_disabled":false,"rental_uris":{"android":"levelo://app?vid=f027fe38-3f5d-42fa-b16a-68ca60104c09","ios":"levelo://app?vid=f027fe38-3f5d-42fa-b16a-68ca60104c09"},"vehicle_type_id":"4","last_reported":1740078417,"current_range_meters":7200,"station_id":"","pricing_plan_id":"cebpf4jnsgd1na2vs0mg"},{"bike_id":"215a37fc-5734-4edf-922c-6b00eff4560b","system_id":"levelo_inurba_marseille","lat":43.29606,"lon":5.38097,"is_reserved":false,"is_disabled":false,"rental_uris":{"android":"levelo://app?vid=215a37fc-5734-4edf-922c-6b00eff4560b","ios":"levelo://app?vid=215a37fc-5734-4edf-922c-6b00eff4560b"},"vehicle_type_id":"4","last_reported":1740078417,"current_range_meters":7200,"station_id":"ce4bgl12rcd13ifvqbo0","pricing_plan_id":"cebpf4jnsgd1na2vs0mg"},{"bike_id":"cec9431c-060a-43e3-a6ae-f2d51ee12324","system_id":"levelo_inurba_marseille","lat":43.29852,"lon":5.362738,"is_reserved":false,"is_disabled":false,"rental_uris":{"android":"levelo://app?vid=cec9431c-060a-43e3-a6ae-f2d51ee12324","ios":"levelo://app?vid=cec9431c-060a-43e3-a6ae-f2d51ee12324"},"vehicle_type_id":"4","last_reported":1740078417,"current_range_meters":8000,"station_id":"ce4bgpp2rcd13ifvqc3g","pricing_plan_id":"cebpf4jnsgd1na2vs0mg"},{"bike_id":"72108fed-3215-41fb-b9c1-3e03b1835c07","system_id":"levelo_inurba_marseille","lat":43.29898,"lon":5.43653,"is_reserved":false,"is_disabled":false,"rental_uris":{"android":"levelo://app?vid=72108fed-3215-41fb-b9c1-3e03b1835c07","ios":"levelo://app?vid=72108fed-3215-41fb-b9c1-3e03b1835c07"},"vehicle_type_id":"4","last_reported":1740078417,"current_range_meters":8000,"station_id":"ce4bhpp2rcd13ifvqhfg","pricing_plan_id":"cebpf4jnsgd1na2vs0mg"},{"bike_id":"d5173bbe-86f4-4afc-a8e0-76d62e3a8b83","system_id":"levelo_inurba_marseille","lat":43.23955,"lon":5.36646,"is_reserved":false,"is_disabled":false,"rental_uris":{"android":"levelo://app?vid=d5173bbe-86f4-4afc-a8e0-76d62e3a8b83","ios":"levelo://app?vid=d5173bbe-86f4-4afc-a8e0-76d62e3a8b83"},"vehicle_type_id":"4","last_reported":1740078417,"current_range_meters":8000,"station_id":"ce4bhi12rcd13ifvqfp0","pricing_plan_id":"cebpf4jnsgd1na2vs0mg"},{"bike_id":"63c4cf47-dbff-4d5e-a88a-080b99df99de","system_id":"levelo_inurba_marseille","lat":43.29518,"lon":5.38909,"is_reserved":false,"is_disabled":true,"rental_uris":{"android":"levelo://app?vid=63c4cf47-dbff-4d5e-a88a-080b99df99de","ios":"levelo://app?vid=63c4cf47-dbff-4d5e-a88a-080b99df99de"},"vehicle_type_id":"4","last_reported":1740078417,"current_range_meters":8000,"station_id":"","pricing_plan_id":"cebpf4jnsgd1na2vs0mg"},{"bike_id":"a00fb5cd-e0d2-4f96-befb-5275c0df0c87","system_id":"levelo_inurba_marseille","lat":43.27982,"lon":5.4166,"is_reserved":false,"is_disabled":false,"rental_uris":{"android":"levelo://app?vid=a00fb5cd-e0d2-4f96-befb-5275c0df0c87","ios":"levelo://app?vid=a00fb5cd-e0d2-4f96-befb-5275c0df0c87"},"vehicle_type_id":"4","last_reported":1740078417,"current_range_meters":8000,"station_id":"ce4bho12rcd13ifvqh1g","pricing_plan_id":"cebpf4jnsgd1na2vs0mg"},{"bike_id":"34d14ec0-9a1d-4d07-8158-52ff5d0c0371","system_id":"levelo_inurba_marseille","lat":43.29437,"lon":5.38042,"is_reserved":false,"is_disabled":false,"rental_uris":{"android":"levelo://app?vid=34d14ec0-9a1d-4d07-8158-52ff5d0c0371","ios":"levelo://app?vid=34d14ec0-9a1d-4d07-8158-52ff5d0c0371"},"vehicle_type_id":"4","last_reported":1740078417,"current_range_meters":8000,"station_id":"","pricing_plan_id":"cebpf4jnsgd1na2vs0mg"},{"bike_id":"c17b7898-6573-47f3-bf46-316cc5c99a8a","system_id":"levelo_inurba_marseille","lat":43.28,"lon":5.40006,"is_reserved":false,"is_disabled":false,"rental_uris":{"android":"levelo://app?vid=c17b7898-6573-47f3-bf46-316cc5c99a8a","ios":"levelo://app?vid=c17b7898-6573-47f3-bf46-316cc5c99a8a"},"vehicle_type_id":"4","last_reported":1740078417,"current_range_meters":8000,"station_id":"","pricing_plan_id":"cebpf4jnsgd1na2vs0mg"},{"bike_id":"4b81ad09-8e5a-4edd-8cab-1cbc89bbb9a4","system_id":"levelo_inurba_marseille","lat":43.28,"lon":5.41658,"is_reserved":false,"is_disabled":false,"rental_uris":{"android":"levelo://app?vid=4b81ad09-8e5a-4edd-8cab-1cbc89bbb9a4","ios":"levelo://app?vid=4b81ad09-8e5a-4edd-8cab-1cbc89bbb9a4"},"vehicle_type_id":"4","last_reported":1740078417,"current_range_meters":8000,"station_id":"ce4bho12rcd13ifvqh1g","pricing_plan_id":"cebpf4jnsgd1na2vs0mg"},{"bike_id":"6a42c576-5a0f-4382-9cda-da4678b65ca1","system_id":"levelo_inurba_marseille","lat":43.29785,"lon":5.38098,"is_reserved":false,"is_disabled":false,"rental_uris":{"android":"levelo://app?vid=6a42c576-5a0f-4382-9cda-da4678b65ca1","ios":"levelo://app?vid=6a42c576-5a0f-4382-9cda-da4678b65ca1"},"vehicle_type_id":"4","last_reported":1740078417,"current_range_meters":8000,"station_id":"","pricing_plan_id":"cebpf4jnsgd1na2vs0mg"},{"bike_id":"fc971b16-bef3-4b6d-813c-ffc8ffa48842","system_id":"levelo_inurba_marseille","lat":43.2841,"lon":5.34986,"is_reserved":false,"is_disabled":true,"rental_uris":{"android":"levelo://app?vid=fc971b16-bef3-4b6d-813c-ffc8ffa48842","ios":"levelo://app?vid=fc971b16-bef3-4b6d-813c-ffc8ffa48842"},"vehicle_type_id":"4","last_reported":1740078417,"current_range_meters":8000,"station_id":"","pricing_plan_id":"cebpf4jnsgd1na2vs0mg"},{"bike_id":"c000902f-c5f9-4784-8f8c-254f920ace9e","system_id":"levelo_inurba_marseille","lat":43.33744,"lon":5.39199,"is_reserved":false,"is_disabled":false,"rental_uris":{"android":"levelo://app?vid=c000902f-c5f9-4784-8f8c-254f920ace9e","ios":"levelo://app?vid=c000902f-c5f9-4784-8f8c-254f920ace9e"},"vehicle_type_id":"4","last_reported":1740078417,"current_range_meters":8000,"station_id":"ce4bhr92rcd13ifvqhsg","pricing_plan_id":"cebpf4jnsgd1na2vs0mg"},{"bike_id":"ff906b17-3532-4bbb-94e7-10785b2dff42","system_id":"levelo_inurba_marseille","lat":43.28462,"lon":5.35881,"is_reserved":false,"is_disabled":false,"rental_uris":{"android":"levelo://app?vid=ff906b17-3532-4bbb-94e7-10785b2dff42","ios":"levelo://app?vid=ff906b17-3532-4bbb-94e7-10785b2dff42"},"vehicle_type_id":"4","last_reported":1740078417,"current_range_meters":8000,"station_id":"ce4bhah2rcd13ifvqei0","pricing_plan_id":"cebpf4jnsgd1na2vs0mg"},{"bike_id":"efb865db-3aa9-4dd6-84a9-4445fc4da131","system_id":"levelo_inurba_marseille","lat":43.25584,"lon":5.38231,"is_reserved":false,"is_disabled":false,"rental_uris":{"android":"levelo://app?vid=efb865db-3aa9-4dd6-84a9-4445fc4da131","ios":"levelo://app?vid=efb865db-3aa9-4dd6-84a9-4445fc4da131"},"vehicle_type_id":"4","last_reported":1740078417,"current_range_meters":8000,"station_id":"","pricing_plan_id":"cebpf4jnsgd1na2vs0mg"},{"bike_id":"7bba333f-0ece-4786-b9b4-daaa20fde672","system_id":"levelo_inurba_marseille","lat":43.29265,"lon":5.38438,"is_reserved":false,"is_disabled":false,"rental_uris":{"android":"levelo://app?vid=7bba333f-0ece-4786-b9b4-daaa20fde672","ios":"levelo://app?vid=7bba333f-0ece-4786-b9b4-daaa20fde672"},"vehicle_type_id":"4","last_reported":1740078417,"current_range_meters":8000,"station_id":"","pricing_plan_id":"cebpf4jnsgd1na2vs0mg"},{"bike_id":"b64778c2-2434-4409-b125-e965a1fd469a","system_id":"levelo_inurba_marseille","lat":43.30333,"lon":5.36702,"is_reserved":false,"is_disabled":false,"rental_uris":{"android":"levelo://app?vid=b64778c2-2434-4409-b125-e965a1fd469a","ios":"levelo://app?vid=b64778c2-2434-4409-b125-e965a1fd469a"},"vehicle_type_id":"4","last_reported":1740078417,"current_range_meters":8000,"station_id":"ce4bgs12rcd13ifvqcag","pricing_plan_id":"cebpf4jnsgd1na2vs0mg"},{"bike_id":"5180f318-4948-4085-aaf1-5f3160b57dbe","system_id":"levelo_inurba_marseille","lat":43.276179,"lon":5.361058,"is_reserved":false,"is_disabled":false,"rental_uris":{"android":"levelo://app?vid=5180f318-4948-4085-aaf1-5f3160b57dbe","ios":"levelo://app?vid=5180f318-4948-4085-aaf1-5f3160b57dbe"},"vehicle_type_id":"4","last_reported":1740078417,"current_range_meters":8000,"station_id":"","pricing_plan_id":"cebpf4jnsgd1na2vs0mg"},{"bike_id":"4f1ee591-32fa-4c64-8ff7-e76e1c499a91","system_id":"levelo_inurba_marseille","lat":43.32129,"lon":5.36813,"is_reserved":false,"is_disabled":false,"rental_uris":{"android":"levelo://app?vid=4f1ee591-32fa-4c64-8ff7-e76e1c499a91","ios":"levelo://app?vid=4f1ee591-32fa-4c64-8ff7-e76e1c499a91"},"vehicle_type_id":"4","last_reported":1740078417,"current_range_meters":8400,"station_id":"ce4bhrh2rcd13ifvqhug","pricing_plan_id":"cebpf4jnsgd1na2vs0mg"},{"bike_id":"0159f1ae-6ef2-48d9-aa07-b34ffde8d712","system_id":"levelo_inurba_marseille","lat":43.28352,"lon":5.38107,"is_reserved":false,"is_disabled":false,"rental_uris":{"android":"levelo://app?vid=0159f1ae-6ef2-48d9-aa07-b34ffde8d712","ios":"levelo://app?vid=0159f1ae-6ef2-48d9-aa07-b34ffde8d712"},"vehicle_type_id":"4","last_reported":1740078417,"current_range_meters":8400,"station_id":"","pricing_plan_id":"cebpf4jnsgd1na2vs0mg"},{"bike_id":"8cbf3cfb-7324-4014-94a6-4ce8dc497f9b","system_id":"levelo_inurba_marseille","lat":43.26202,"lon":5.3746,"is_reserved":false,"is_disabled":false,"rental_uris":{"android":"levelo://app?vid=8cbf3cfb-7324-4014-94a6-4ce8dc497f9b","ios":"levelo://app?vid=8cbf3cfb-7324-4014-94a6-4ce8dc497f9b"},"vehicle_type_id":"4","last_reported":1740078417,"current_range_meters":8400,"station_id":"","pricing_plan_id":"cebpf4jnsgd1na2vs0mg"},{"bike_id":"104b15c6-bf74-407c-9a34-de8a1be58e4f","system_id":"levelo_inurba_marseille","lat":43.29206,"lon":5.37311,"is_reserved":false,"is_disabled":false,"rental_uris":{"android":"levelo://app?vid=104b15c6-bf74-407c-9a34-de8a1be58e4f","ios":"levelo://app?vid=104b15c6-bf74-407c-9a34-de8a1be58e4f"},"vehicle_type_id":"4","last_reported":1740078417,"current_range_meters":8400,"station_id":"","pricing_plan_id":"cebpf4jnsgd1na2vs0mg"},{"bike_id":"15f25508-0363-46a9-b0fc-c285bc18de20","system_id":"levelo_inurba_marseille","lat":43.26234,"lon":5.4045,"is_reserved":false,"is_disabled":false,"rental_uris":{"android":"levelo://app?vid=15f25508-0363-46a9-b0fc-c285bc18de20","ios":"levelo://app?vid=15f25508-0363-46a9-b0fc-c285bc18de20"},"vehicle_type_id":"4","last_reported":1740078417,"current_range_meters":8400,"station_id":"ce4bhmh2rcd13ifvqgmg","pricing_plan_id":"cebpf4jnsgd1na2vs0mg"},{"bike_id":"c4b0225f-a1a0-4044-9416-6acbefc25490","system_id":"levelo_inurba_marseille","lat":43.28854,"lon":5.35859,"is_reserved":false,"is_disabled":false,"rental_uris":{"android":"levelo://app?vid=c4b0225f-a1a0-4044-9416-6acbefc25490","ios":"levelo://app?vid=c4b0225f-a1a0-4044-9416-6acbefc25490"},"vehicle_type_id":"4","last_reported":1740078417,"current_range_meters":8400,"station_id":"ce4bhb12rcd13ifvqem0","pricing_plan_id":"cebpf4jnsgd1na2vs0mg"},{"bike_id":"2ff9c241-f571-4d7b-b294-391e7b4adde1","system_id":"levelo_inurba_marseille","lat":43.27984,"lon":5.41666,"is_reserved":false,"is_disabled":false,"rental_uris":{"android":"levelo://app?vid=2ff9c241-f571-4d7b-b294-391e7b4adde1","ios":"levelo://app?vid=2ff9c241-f571-4d7b-b294-391e7b4adde1"},"vehicle_type_id":"4","last_reported":1740078417,"current_range_meters":8800,"station_id":"ce4bho12rcd13ifvqh1g","pricing_plan_id":"cebpf4jnsgd1na2vs0mg"},{"bike_id":"9de1df6b-7268-412e-bc75-0c41db030ab4","system_id":"levelo_inurba_marseille","lat":43.28462,"lon":5.35884,"is_reserved":false,"is_disabled":false,"rental_uris":{"android":"levelo://app?vid=9de1df6b-7268-412e-bc75-0c41db030ab4","ios":"levelo://app?vid=9de1df6b-7268-412e-bc75-0c41db030ab4"},"vehicle_type_id":"4","last_reported":1740078417,"current_range_meters":8400,"station_id":"ce4bhah2rcd13ifvqei0","pricing_plan_id":"cebpf4jnsgd1na2vs0mg"},{"bike_id":"26779595-c177-40e8-a988-d5570ab1009d","system_id":"levelo_inurba_marseille","lat":43.29199,"lon":5.39784,"is_reserved":false,"is_disabled":false,"rental_uris":{"android":"levelo://app?vid=26779595-c177-40e8-a988-d5570ab1009d","ios":"levelo://app?vid=26779595-c177-40e8-a988-d5570ab1009d"},"vehicle_type_id":"4","last_reported":1740078417,"current_range_meters":8800,"station_id":"","pricing_plan_id":"cebpf4jnsgd1na2vs0mg"},{"bike_id":"00c5e219-33d0-415a-8191-c7b6b636975f","system_id":"levelo_inurba_marseille","lat":43.29268,"lon":5.38436,"is_reserved":false,"is_disabled":false,"rental_uris":{"android":"levelo://app?vid=00c5e219-33d0-415a-8191-c7b6b636975f","ios":"levelo://app?vid=00c5e219-33d0-415a-8191-c7b6b636975f"},"vehicle_type_id":"4","last_reported":1740078417,"current_range_meters":8800,"station_id":"","pricing_plan_id":"cebpf4jnsgd1na2vs0mg"},{"bike_id":"5f9ede52-c720-4107-a864-980fb2608395","system_id":"levelo_inurba_marseille","lat":43.2408,"lon":5.38693,"is_reserved":false,"is_disabled":false,"rental_uris":{"android":"levelo://app?vid=5f9ede52-c720-4107-a864-980fb2608395","ios":"levelo://app?vid=5f9ede52-c720-4107-a864-980fb2608395"},"vehicle_type_id":"4","last_reported":1740078417,"current_range_meters":9200,"station_id":"","pricing_plan_id":"cebpf4jnsgd1na2vs0mg"},{"bike_id":"a03e04f7-c937-4c03-9045-a5a2f3227d5a","system_id":"levelo_inurba_marseille","lat":43.31758,"lon":5.39018,"is_reserved":false,"is_disabled":false,"rental_uris":{"android":"levelo://app?vid=a03e04f7-c937-4c03-9045-a5a2f3227d5a","ios":"levelo://app?vid=a03e04f7-c937-4c03-9045-a5a2f3227d5a"},"vehicle_type_id":"4","last_reported":1740078417,"current_range_meters":8800,"station_id":"ce4bhqp2rcd13ifvqhng","pricing_plan_id":"cebpf4jnsgd1na2vs0mg"},{"bike_id":"519499c1-02cb-4389-a009-32ff994757a6","system_id":"levelo_inurba_marseille","lat":43.29265,"lon":5.38434,"is_reserved":false,"is_disabled":false,"rental_uris":{"android":"levelo://app?vid=519499c1-02cb-4389-a009-32ff994757a6","ios":"levelo://app?vid=519499c1-02cb-4389-a009-32ff994757a6"},"vehicle_type_id":"4","last_reported":1740078417,"current_range_meters":9200,"station_id":"","pricing_plan_id":"cebpf4jnsgd1na2vs0mg"},{"bike_id":"4f1afaa9-d3bf-4519-a8be-60178da1a43b","system_id":"levelo_inurba_marseille","lat":43.29813,"lon":5.38082,"is_reserved":false,"is_disabled":false,"rental_uris":{"android":"levelo://app?vid=4f1afaa9-d3bf-4519-a8be-60178da1a43b","ios":"levelo://app?vid=4f1afaa9-d3bf-4519-a8be-60178da1a43b"},"vehicle_type_id":"4","last_reported":1740078417,"current_range_meters":9200,"station_id":"","pricing_plan_id":"cebpf4jnsgd1na2vs0mg"},{"bike_id":"b1393330-1979-46bc-b9d3-a486fb4996ba","system_id":"levelo_inurba_marseille","lat":43.29272,"lon":5.38429,"is_reserved":false,"is_disabled":false,"rental_uris":{"android":"levelo://app?vid=b1393330-1979-46bc-b9d3-a486fb4996ba","ios":"levelo://app?vid=b1393330-1979-46bc-b9d3-a486fb4996ba"},"vehicle_type_id":"4","last_reported":1740078417,"current_range_meters":9200,"station_id":"","pricing_plan_id":"cebpf4jnsgd1na2vs0mg"},{"bike_id":"a924690f-5eaa-41b4-9d8f-51fce574fc50","system_id":"levelo_inurba_marseille","lat":43.275,"lon":5.42451,"is_reserved":false,"is_disabled":false,"rental_uris":{"android":"levelo://app?vid=a924690f-5eaa-41b4-9d8f-51fce574fc50","ios":"levelo://app?vid=a924690f-5eaa-41b4-9d8f-51fce574fc50"},"vehicle_type_id":"4","last_reported":1740078417,"current_range_meters":9200,"station_id":"ce4bhn92rcd13ifvqgrg","pricing_plan_id":"cebpf4jnsgd1na2vs0mg"},{"bike_id":"f95a5649-643a-48c0-a1cd-8a1ae7759c5b","system_id":"levelo_inurba_marseille","lat":43.30646,"lon":5.40062,"is_reserved":false,"is_disabled":false,"rental_uris":{"android":"levelo://app?vid=f95a5649-643a-48c0-a1cd-8a1ae7759c5b","ios":"levelo://app?vid=f95a5649-643a-48c0-a1cd-8a1ae7759c5b"},"vehicle_type_id":"4","last_reported":1740078417,"current_range_meters":9200,"station_id":"ce4bh112rcd13ifvqda0","pricing_plan_id":"cebpf4jnsgd1na2vs0mg"},{"bike_id":"2dfd9711-9dde-4243-9475-26e230bd5f12","system_id":"levelo_inurba_marseille","lat":43.2559,"lon":5.38264,"is_reserved":false,"is_disabled":false,"rental_uris":{"android":"levelo://app?vid=2dfd9711-9dde-4243-9475-26e230bd5f12","ios":"levelo://app?vid=2dfd9711-9dde-4243-9475-26e230bd5f12"},"vehicle_type_id":"4","last_reported":1740078417,"current_range_meters":9200,"station_id":"","pricing_plan_id":"cebpf4jnsgd1na2vs0mg"},{"bike_id":"c7c4e600-f4b4-4e06-9fd6-765cdd2a9955","system_id":"levelo_inurba_marseille","lat":43.29928,"lon":5.36543,"is_reserved":false,"is_disabled":false,"rental_uris":{"android":"levelo://app?vid=c7c4e600-f4b4-4e06-9fd6-765cdd2a9955","ios":"levelo://app?vid=c7c4e600-f4b4-4e06-9fd6-765cdd2a9955"},"vehicle_type_id":"4","last_reported":1740078417,"current_range_meters":9200,"station_id":"ce4bgm92rcd13ifvqbr0","pricing_plan_id":"cebpf4jnsgd1na2vs0mg"},{"bike_id":"d9ed4ce9-95b4-4067-a245-f49daf56af4a","system_id":"levelo_inurba_marseille","lat":43.2683,"lon":5.40301,"is_reserved":false,"is_disabled":false,"rental_uris":{"android":"levelo://app?vid=d9ed4ce9-95b4-4067-a245-f49daf56af4a","ios":"levelo://app?vid=d9ed4ce9-95b4-4067-a245-f49daf56af4a"},"vehicle_type_id":"4","last_reported":1740078417,"current_range_meters":9600,"station_id":"ce501612rcd8frsf0b60","pricing_plan_id":"cebpf4jnsgd1na2vs0mg"},{"bike_id":"77ac049b-6848-4db1-94df-a16d6879e316","system_id":"levelo_inurba_marseille","lat":43.23198,"lon":5.35534,"is_reserved":false,"is_disabled":false,"rental_uris":{"android":"levelo://app?vid=77ac049b-6848-4db1-94df-a16d6879e316","ios":"levelo://app?vid=77ac049b-6848-4db1-94df-a16d6879e316"},"vehicle_type_id":"4","last_reported":1740078417,"current_range_meters":9600,"station_id":"","pricing_plan_id":"cebpf4jnsgd1na2vs0mg"},{"bike_id":"ed56012a-438d-47c3-91d0-6b59e479a8f0","system_id":"levelo_inurba_marseille","lat":43.25081,"lon":5.39509,"is_reserved":false,"is_disabled":false,"rental_uris":{"android":"levelo://app?vid=ed56012a-438d-47c3-91d0-6b59e479a8f0","ios":"levelo://app?vid=ed56012a-438d-47c3-91d0-6b59e479a8f0"},"vehicle_type_id":"4","last_reported":1740078417,"current_range_meters":9600,"station_id":"ce4bhm12rcd13ifvqgkg","pricing_plan_id":"cebpf4jnsgd1na2vs0mg"},{"bike_id":"6d3a1bc9-0168-46a0-8d06-2b755db45b0a","system_id":"levelo_inurba_marseille","lat":43.23063,"lon":5.35491,"is_reserved":false,"is_disabled":false,"rental_uris":{"android":"levelo://app?vid=6d3a1bc9-0168-46a0-8d06-2b755db45b0a","ios":"levelo://app?vid=6d3a1bc9-0168-46a0-8d06-2b755db45b0a"},"vehicle_type_id":"4","last_reported":1740078417,"current_range_meters":9600,"station_id":"cpo3342slgdg3j2ifvpg","pricing_plan_id":"cebpf4jnsgd1na2vs0mg"},{"bike_id":"a0b1e5a4-eafd-403c-8517-4e42055113e1","system_id":"levelo_inurba_marseille","lat":43.28941,"lon":5.36644,"is_reserved":false,"is_disabled":false,"rental_uris":{"android":"levelo://app?vid=a0b1e5a4-eafd-403c-8517-4e42055113e1","ios":"levelo://app?vid=a0b1e5a4-eafd-403c-8517-4e42055113e1"},"vehicle_type_id":"4","last_reported":1740078417,"current_range_meters":9600,"station_id":"ce4bhap2rcd13ifvqek0","pricing_plan_id":"cebpf4jnsgd1na2vs0mg"},{"bike_id":"d90448d0-ec8e-4614-9302-a8184ad50b9a","system_id":"levelo_inurba_marseille","lat":43.2816,"lon":5.42647,"is_reserved":false,"is_disabled":false,"rental_uris":{"android":"levelo://app?vid=d90448d0-ec8e-4614-9302-a8184ad50b9a","ios":"levelo://app?vid=d90448d0-ec8e-4614-9302-a8184ad50b9a"},"vehicle_type_id":"4","last_reported":1740078417,"current_range_meters":9600,"station_id":"ce4bhnh2rcd13ifvqgug","pricing_plan_id":"cebpf4jnsgd1na2vs0mg"},{"bike_id":"0d34eb8c-c749-410b-a515-4800435ee933","system_id":"levelo_inurba_marseille","lat":43.24178,"lon":5.36407,"is_reserved":false,"is_disabled":false,"rental_uris":{"android":"levelo://app?vid=0d34eb8c-c749-410b-a515-4800435ee933","ios":"levelo://app?vid=0d34eb8c-c749-410b-a515-4800435ee933"},"vehicle_type_id":"4","last_reported":1740078417,"current_range_meters":9600,"station_id":"cpo36qri1sfpv3e86is0","pricing_plan_id":"cebpf4jnsgd1na2vs0mg"},{"bike_id":"23c7f17d-4517-4dd4-a3a7-dfe044723d32","system_id":"levelo_inurba_marseille","lat":43.30551,"lon":5.38438,"is_reserved":false,"is_disabled":true,"rental_uris":{"android":"levelo://app?vid=23c7f17d-4517-4dd4-a3a7-dfe044723d32","ios":"levelo://app?vid=23c7f17d-4517-4dd4-a3a7-dfe044723d32"},"vehicle_type_id":"4","last_reported":1740078417,"current_range_meters":9600,"station_id":"ce4bgg92rcd13ifvqb30","pricing_plan_id":"cebpf4jnsgd1na2vs0mg"},{"bike_id":"a593b7ea-4363-4e08-a635-c9cb2a90ebc1","system_id":"levelo_inurba_marseille","lat":43.28419,"lon":5.37513,"is_reserved":false,"is_disabled":false,"rental_uris":{"android":"levelo://app?vid=a593b7ea-4363-4e08-a635-c9cb2a90ebc1","ios":"levelo://app?vid=a593b7ea-4363-4e08-a635-c9cb2a90ebc1"},"vehicle_type_id":"4","last_reported":1740078417,"current_range_meters":9600,"station_id":"","pricing_plan_id":"cebpf4jnsgd1na2vs0mg"},{"bike_id":"c69605a1-be6a-4b23-aab3-ee3b70fffeb3","system_id":"levelo_inurba_marseille","lat":43.27835,"lon":5.39207,"is_reserved":false,"is_disabled":false,"rental_uris":{"android":"levelo://app?vid=c69605a1-be6a-4b23-aab3-ee3b70fffeb3","ios":"levelo://app?vid=c69605a1-be6a-4b23-aab3-ee3b70fffeb3"},"vehicle_type_id":"4","last_reported":1740078417,"current_range_meters":9600,"station_id":"ce4bhjp2rcd13ifvqga0","pricing_plan_id":"cebpf4jnsgd1na2vs0mg"},{"bike_id":"188985ae-9cba-4f2e-aa81-f928630b246b","system_id":"levelo_inurba_marseille","lat":43.29416,"lon":5.38626,"is_reserved":false,"is_disabled":false,"rental_uris":{"android":"levelo://app?vid=188985ae-9cba-4f2e-aa81-f928630b246b","ios":"levelo://app?vid=188985ae-9cba-4f2e-aa81-f928630b246b"},"vehicle_type_id":"4","last_reported":1740078417,"current_range_meters":9600,"station_id":"ce4bh2h2rcd13ifvqdh0","pricing_plan_id":"cebpf4jnsgd1na2vs0mg"},{"bike_id":"ff083d96-1fe8-4388-b1fb-a058bee43b2d","system_id":"levelo_inurba_marseille","lat":43.27173,"lon":5.40998,"is_reserved":false,"is_disabled":false,"rental_uris":{"android":"levelo://app?vid=ff083d96-1fe8-4388-b1fb-a058bee43b2d","ios":"levelo://app?vid=ff083d96-1fe8-4388-b1fb-a058bee43b2d"},"vehicle_type_id":"4","last_reported":1740078417,"current_range_meters":9600,"station_id":"ce4bhl12rcd13ifvqgf0","pricing_plan_id":"cebpf4jnsgd1na2vs0mg"},{"bike_id":"57fe6fca-4b32-46a9-ab09-ed33edc750c6","system_id":"levelo_inurba_marseille","lat":43.26015,"lon":5.37527,"is_reserved":false,"is_disabled":false,"rental_uris":{"android":"levelo://app?vid=57fe6fca-4b32-46a9-ab09-ed33edc750c6","ios":"levelo://app?vid=57fe6fca-4b32-46a9-ab09-ed33edc750c6"},"vehicle_type_id":"4","last_reported":1740078417,"current_range_meters":9600,"station_id":"","pricing_plan_id":"cebpf4jnsgd1na2vs0mg"},{"bike_id":"f87e63fe-8b71-410a-836e-09a0c1957e44","system_id":"levelo_inurba_marseille","lat":43.28272,"lon":5.35058,"is_reserved":false,"is_disabled":false,"rental_uris":{"android":"levelo://app?vid=f87e63fe-8b71-410a-836e-09a0c1957e44","ios":"levelo://app?vid=f87e63fe-8b71-410a-836e-09a0c1957e44"},"vehicle_type_id":"4","last_reported":1740078417,"current_range_meters":9600,"station_id":"ce4bhbp2rcd13ifvqerg","pricing_plan_id":"cebpf4jnsgd1na2vs0mg"},{"bike_id":"6f1abdf2-15fb-4f52-a362-9fc40fcc818d","system_id":"levelo_inurba_marseille","lat":43.30212,"lon":5.39465,"is_reserved":false,"is_disabled":false,"rental_uris":{"android":"levelo://app?vid=6f1abdf2-15fb-4f52-a362-9fc40fcc818d","ios":"levelo://app?vid=6f1abdf2-15fb-4f52-a362-9fc40fcc818d"},"vehicle_type_id":"4","last_reported":1740078417,"current_range_meters":10000,"station_id":"ce4bh0p2rcd13ifvqd70","pricing_plan_id":"cebpf4jnsgd1na2vs0mg"},{"bike_id":"4079cda2-7fb5-4ac9-a6d3-cb818ac7e6b4","system_id":"levelo_inurba_marseille","lat":43.24386,"lon":5.37059,"is_reserved":false,"is_disabled":false,"rental_uris":{"android":"levelo://app?vid=4079cda2-7fb5-4ac9-a6d3-cb818ac7e6b4","ios":"levelo://app?vid=4079cda2-7fb5-4ac9-a6d3-cb818ac7e6b4"},"vehicle_type_id":"4","last_reported":1740078417,"current_range_meters":10000,"station_id":"ce4bhhh2rcd13ifvqfk0","pricing_plan_id":"cebpf4jnsgd1na2vs0mg"},{"bike_id":"6f27ed88-257d-44df-94c6-28849e07fcde","system_id":"levelo_inurba_marseille","lat":43.2926,"lon":5.38434,"is_reserved":false,"is_disabled":false,"rental_uris":{"android":"levelo://app?vid=6f27ed88-257d-44df-94c6-28849e07fcde","ios":"levelo://app?vid=6f27ed88-257d-44df-94c6-28849e07fcde"},"vehicle_type_id":"4","last_reported":1740078417,"current_range_meters":10000,"station_id":"ce4bh692rcd13ifvqea0","pricing_plan_id":"cebpf4jnsgd1na2vs0mg"},{"bike_id":"341bae22-75f3-4766-8fd7-413e8c4a7fee","system_id":"levelo_inurba_marseille","lat":43.26812,"lon":5.40259,"is_reserved":false,"is_disabled":false,"rental_uris":{"android":"levelo://app?vid=341bae22-75f3-4766-8fd7-413e8c4a7fee","ios":"levelo://app?vid=341bae22-75f3-4766-8fd7-413e8c4a7fee"},"vehicle_type_id":"4","last_reported":1740078417,"current_range_meters":10000,"station_id":"ce501612rcd8frsf0b60","pricing_plan_id":"cebpf4jnsgd1na2vs0mg"},{"bike_id":"7b19744e-f24f-4b7d-94e9-2a8fd4a78d0d","system_id":"levelo_inurba_marseille","lat":43.23198,"lon":5.35553,"is_reserved":false,"is_disabled":false,"rental_uris":{"android":"levelo://app?vid=7b19744e-f24f-4b7d-94e9-2a8fd4a78d0d","ios":"levelo://app?vid=7b19744e-f24f-4b7d-94e9-2a8fd4a78d0d"},"vehicle_type_id":"4","last_reported":1740078417,"current_range_meters":10000,"station_id":"","pricing_plan_id":"cebpf4jnsgd1na2vs0mg"},{"bike_id":"473b17b1-142d-4d27-b91c-3781d2e4f5c4","system_id":"levelo_inurba_marseille","lat":43.28563,"lon":5.39482,"is_reserved":false,"is_disabled":false,"rental_uris":{"android":"levelo://app?vid=473b17b1-142d-4d27-b91c-3781d2e4f5c4","ios":"levelo://app?vid=473b17b1-142d-4d27-b91c-3781d2e4f5c4"},"vehicle_type_id":"4","last_reported":1740078417,"current_range_meters":10000,"station_id":"ce4bh292rcd13ifvqdg0","pricing_plan_id":"cebpf4jnsgd1na2vs0mg"},{"bike_id":"a2517ea6-a40b-4901-979b-4128336954ae","system_id":"levelo_inurba_marseille","lat":43.2815,"lon":5.42663,"is_reserved":false,"is_disabled":false,"rental_uris":{"android":"levelo://app?vid=a2517ea6-a40b-4901-979b-4128336954ae","ios":"levelo://app?vid=a2517ea6-a40b-4901-979b-4128336954ae"},"vehicle_type_id":"4","last_reported":1740078417,"current_range_meters":10000,"station_id":"ce4bhnh2rcd13ifvqgug","pricing_plan_id":"cebpf4jnsgd1na2vs0mg"},{"bike_id":"ddb941cb-a36a-4cd3-9b39-5f872e38e6e6","system_id":"levelo_inurba_marseille","lat":43.28703,"lon":5.37384,"is_reserved":false,"is_disabled":false,"rental_uris":{"android":"levelo://app?vid=ddb941cb-a36a-4cd3-9b39-5f872e38e6e6","ios":"levelo://app?vid=ddb941cb-a36a-4cd3-9b39-5f872e38e6e6"},"vehicle_type_id":"4","last_reported":1740078417,"current_range_meters":10800,"station_id":"ce4bh3p2rcd13ifvqdq0","pricing_plan_id":"cebpf4jnsgd1na2vs0mg"},{"bike_id":"635050f9-a2c9-4910-8267-ff5a32e2982d","system_id":"levelo_inurba_marseille","lat":43.24821,"lon":5.37458,"is_reserved":false,"is_disabled":true,"rental_uris":{"android":"levelo://app?vid=635050f9-a2c9-4910-8267-ff5a32e2982d","ios":"levelo://app?vid=635050f9-a2c9-4910-8267-ff5a32e2982d"},"vehicle_type_id":"4","last_reported":1740078417,"current_range_meters":10800,"station_id":"","pricing_plan_id":"cebpf4jnsgd1na2vs0mg"},{"bike_id":"d8dc2332-214f-488b-8389-0e429277c9f8","system_id":"levelo_inurba_marseille","lat":43.26193,"lon":5.37458,"is_reserved":false,"is_disabled":false,"rental_uris":{"android":"levelo://app?vid=d8dc2332-214f-488b-8389-0e429277c9f8","ios":"levelo://app?vid=d8dc2332-214f-488b-8389-0e429277c9f8"},"vehicle_type_id":"4","last_reported":1740078417,"current_range_meters":11200,"station_id":"ce4bhgp2rcd13ifvqfc0","pricing_plan_id":"cebpf4jnsgd1na2vs0mg"},{"bike_id":"601afe4a-25bf-4b56-a5ec-02075de1ee82","system_id":"levelo_inurba_marseille","lat":43.23065,"lon":5.35496,"is_reserved":false,"is_disabled":false,"rental_uris":{"android":"levelo://app?vid=601afe4a-25bf-4b56-a5ec-02075de1ee82","ios":"levelo://app?vid=601afe4a-25bf-4b56-a5ec-02075de1ee82"},"vehicle_type_id":"4","last_reported":1740078417,"current_range_meters":11200,"station_id":"cpo3342slgdg3j2ifvpg","pricing_plan_id":"cebpf4jnsgd1na2vs0mg"},{"bike_id":"978bb6d5-23c4-44bf-b0ea-6ebdb61a85a0","system_id":"levelo_inurba_marseille","lat":43.2943,"lon":5.3861,"is_reserved":false,"is_disabled":false,"rental_uris":{"android":"levelo://app?vid=978bb6d5-23c4-44bf-b0ea-6ebdb61a85a0","ios":"levelo://app?vid=978bb6d5-23c4-44bf-b0ea-6ebdb61a85a0"},"vehicle_type_id":"4","last_reported":1740078417,"current_range_meters":11600,"station_id":"ce4bh2h2rcd13ifvqdh0","pricing_plan_id":"cebpf4jnsgd1na2vs0mg"},{"bike_id":"794ea6b4-e2c7-4bdb-bd2f-671fa26fa3e8","system_id":"levelo_inurba_marseille","lat":43.303986,"lon":5.393044,"is_reserved":false,"is_disabled":false,"rental_uris":{"android":"levelo://app?vid=794ea6b4-e2c7-4bdb-bd2f-671fa26fa3e8","ios":"levelo://app?vid=794ea6b4-e2c7-4bdb-bd2f-671fa26fa3e8"},"vehicle_type_id":"4","last_reported":1740078417,"current_range_meters":11600,"station_id":"ce4bh112rcd13ifvqd90","pricing_plan_id":"cebpf4jnsgd1na2vs0mg"},{"bike_id":"76a127d3-77c2-483d-acf4-d4cd9dcde57d","system_id":"levelo_inurba_marseille","lat":43.2738,"lon":5.36243,"is_reserved":false,"is_disabled":false,"rental_uris":{"android":"levelo://app?vid=76a127d3-77c2-483d-acf4-d4cd9dcde57d","ios":"levelo://app?vid=76a127d3-77c2-483d-acf4-d4cd9dcde57d"},"vehicle_type_id":"4","last_reported":1740078417,"current_range_meters":11600,"station_id":"ce4bhbh2rcd13ifvqeo0","pricing_plan_id":"cebpf4jnsgd1na2vs0mg"},{"bike_id":"e72439bb-8b6d-4bd3-a9c4-c984d973de2a","system_id":"levelo_inurba_marseille","lat":43.29883,"lon":5.38913,"is_reserved":false,"is_disabled":false,"rental_uris":{"android":"levelo://app?vid=e72439bb-8b6d-4bd3-a9c4-c984d973de2a","ios":"levelo://app?vid=e72439bb-8b6d-4bd3-a9c4-c984d973de2a"},"vehicle_type_id":"4","last_reported":1740078417,"current_range_meters":11600,"station_id":"ce4bh392rcd13ifvqdl0","pricing_plan_id":"cebpf4jnsgd1na2vs0mg"},{"bike_id":"9aef2b50-02ae-4a6d-aa26-821348658263","system_id":"levelo_inurba_marseille","lat":43.28178,"lon":5.42628,"is_reserved":false,"is_disabled":false,"rental_uris":{"android":"levelo://app?vid=9aef2b50-02ae-4a6d-aa26-821348658263","ios":"levelo://app?vid=9aef2b50-02ae-4a6d-aa26-821348658263"},"vehicle_type_id":"4","last_reported":1740078417,"current_range_meters":12000,"station_id":"ce4bhnh2rcd13ifvqgug","pricing_plan_id":"cebpf4jnsgd1na2vs0mg"},{"bike_id":"8becd64c-893d-4a08-8876-b1598e031c70","system_id":"levelo_inurba_marseille","lat":43.27963,"lon":5.38691,"is_reserved":false,"is_disabled":true,"rental_uris":{"android":"levelo://app?vid=8becd64c-893d-4a08-8876-b1598e031c70","ios":"levelo://app?vid=8becd64c-893d-4a08-8876-b1598e031c70"},"vehicle_type_id":"4","last_reported":1740078417,"current_range_meters":12000,"station_id":"","pricing_plan_id":"cebpf4jnsgd1na2vs0mg"},{"bike_id":"ae48ce6a-cb3a-4ec2-9d3c-ec942733b445","system_id":"levelo_inurba_marseille","lat":43.2396,"lon":5.36633,"is_reserved":false,"is_disabled":false,"rental_uris":{"android":"levelo://app?vid=ae48ce6a-cb3a-4ec2-9d3c-ec942733b445","ios":"levelo://app?vid=ae48ce6a-cb3a-4ec2-9d3c-ec942733b445"},"vehicle_type_id":"4","last_reported":1740078417,"current_range_meters":12000,"station_id":"ce4bhi12rcd13ifvqfp0","pricing_plan_id":"cebpf4jnsgd1na2vs0mg"},{"bike_id":"04306cbe-57d6-4c2f-86d0-c0525799ae62","system_id":"levelo_inurba_marseille","lat":43.2927,"lon":5.40137,"is_reserved":false,"is_disabled":false,"rental_uris":{"android":"levelo://app?vid=04306cbe-57d6-4c2f-86d0-c0525799ae62","ios":"levelo://app?vid=04306cbe-57d6-4c2f-86d0-c0525799ae62"},"vehicle_type_id":"4","last_reported":1740078417,"current_range_meters":12000,"station_id":"ce4bh312rcd13ifvqdk0","pricing_plan_id":"cebpf4jnsgd1na2vs0mg"},{"bike_id":"bfa1afdd-6221-4a91-82bd-d18819a67e02","system_id":"levelo_inurba_marseille","lat":43.244238,"lon":5.370237,"is_reserved":false,"is_disabled":false,"rental_uris":{"android":"levelo://app?vid=bfa1afdd-6221-4a91-82bd-d18819a67e02","ios":"levelo://app?vid=bfa1afdd-6221-4a91-82bd-d18819a67e02"},"vehicle_type_id":"4","last_reported":1740078417,"current_range_meters":12000,"station_id":"ce4bhnp2rcd13ifvqgvg","pricing_plan_id":"cebpf4jnsgd1na2vs0mg"},{"bike_id":"c17d48e1-60b9-4db3-99fa-3e7c243c8c7a","system_id":"levelo_inurba_marseille","lat":43.29285,"lon":5.3742,"is_reserved":false,"is_disabled":false,"rental_uris":{"android":"levelo://app?vid=c17d48e1-60b9-4db3-99fa-3e7c243c8c7a","ios":"levelo://app?vid=c17d48e1-60b9-4db3-99fa-3e7c243c8c7a"},"vehicle_type_id":"4","last_reported":1740078417,"current_range_meters":12000,"station_id":"ce4bgi12rcd13ifvqb70","pricing_plan_id":"cebpf4jnsgd1na2vs0mg"},{"bike_id":"cb12c915-7081-498c-91c3-a2448243cab0","system_id":"levelo_inurba_marseille","lat":43.28356,"lon":5.38102,"is_reserved":false,"is_disabled":false,"rental_uris":{"android":"levelo://app?vid=cb12c915-7081-498c-91c3-a2448243cab0","ios":"levelo://app?vid=cb12c915-7081-498c-91c3-a2448243cab0"},"vehicle_type_id":"4","last_reported":1740078417,"current_range_meters":12000,"station_id":"ce4bh412rcd13ifvqdr0","pricing_plan_id":"cebpf4jnsgd1na2vs0mg"},{"bike_id":"9f78ff7b-6e57-459f-8197-ad27a2db23a8","system_id":"levelo_inurba_marseille","lat":43.29515,"lon":5.3853,"is_reserved":false,"is_disabled":false,"rental_uris":{"android":"levelo://app?vid=9f78ff7b-6e57-459f-8197-ad27a2db23a8","ios":"levelo://app?vid=9f78ff7b-6e57-459f-8197-ad27a2db23a8"},"vehicle_type_id":"4","last_reported":1740078417,"current_range_meters":12000,"station_id":"ce4bgih2rcd13ifvqba0","pricing_plan_id":"cebpf4jnsgd1na2vs0mg"},{"bike_id":"9965d3fe-7ac4-4c7e-b5b2-8632866e47a8","system_id":"levelo_inurba_marseille","lat":43.29304,"lon":5.37156,"is_reserved":false,"is_disabled":false,"rental_uris":{"android":"levelo://app?vid=9965d3fe-7ac4-4c7e-b5b2-8632866e47a8","ios":"levelo://app?vid=9965d3fe-7ac4-4c7e-b5b2-8632866e47a8"},"vehicle_type_id":"4","last_reported":1740078417,"current_range_meters":12400,"station_id":"","pricing_plan_id":"cebpf4jnsgd1na2vs0mg"},{"bike_id":"46ea4779-3f47-4a8f-bd63-2203bde57210","system_id":"levelo_inurba_marseille","lat":43.28341,"lon":5.38101,"is_reserved":false,"is_disabled":false,"rental_uris":{"android":"levelo://app?vid=46ea4779-3f47-4a8f-bd63-2203bde57210","ios":"levelo://app?vid=46ea4779-3f47-4a8f-bd63-2203bde57210"},"vehicle_type_id":"4","last_reported":1740078417,"current_range_meters":12400,"station_id":"ce4bh412rcd13ifvqdr0","pricing_plan_id":"cebpf4jnsgd1na2vs0mg"},{"bike_id":"74038a5d-e80d-47fe-8a5a-a3b73973f272","system_id":"levelo_inurba_marseille","lat":43.29229,"lon":5.36084,"is_reserved":false,"is_disabled":false,"rental_uris":{"android":"levelo://app?vid=74038a5d-e80d-47fe-8a5a-a3b73973f272","ios":"levelo://app?vid=74038a5d-e80d-47fe-8a5a-a3b73973f272"},"vehicle_type_id":"4","last_reported":1740078417,"current_range_meters":12400,"station_id":"ce4bhbh2rcd13ifvqeqg","pricing_plan_id":"cebpf4jnsgd1na2vs0mg"},{"bike_id":"ca901b68-9a91-4c4d-a945-d2156b0c65f1","system_id":"levelo_inurba_marseille","lat":43.28421,"lon":5.37512,"is_reserved":false,"is_disabled":false,"rental_uris":{"android":"levelo://app?vid=ca901b68-9a91-4c4d-a945-d2156b0c65f1","ios":"levelo://app?vid=ca901b68-9a91-4c4d-a945-d2156b0c65f1"},"vehicle_type_id":"4","last_reported":1740078417,"current_range_meters":12800,"station_id":"ce4bh412rcd13ifvqds0","pricing_plan_id":"cebpf4jnsgd1na2vs0mg"},{"bike_id":"2248a686-da6b-4ef8-880e-8db6a1c23aab","system_id":"levelo_inurba_marseille","lat":43.27392,"lon":5.36248,"is_reserved":false,"is_disabled":false,"rental_uris":{"android":"levelo://app?vid=2248a686-da6b-4ef8-880e-8db6a1c23aab","ios":"levelo://app?vid=2248a686-da6b-4ef8-880e-8db6a1c23aab"},"vehicle_type_id":"4","last_reported":1740078417,"current_range_meters":12800,"station_id":"","pricing_plan_id":"cebpf4jnsgd1na2vs0mg"},{"bike_id":"50df017b-d245-4ca9-8ba2-fd8553e444e3","system_id":"levelo_inurba_marseille","lat":43.28105,"lon":5.3965,"is_reserved":false,"is_disabled":false,"rental_uris":{"android":"levelo://app?vid=50df017b-d245-4ca9-8ba2-fd8553e444e3","ios":"levelo://app?vid=50df017b-d245-4ca9-8ba2-fd8553e444e3"},"vehicle_type_id":"4","last_reported":1740078417,"current_range_meters":12800,"station_id":"ce4bho12rcd13ifvqh2g","pricing_plan_id":"cebpf4jnsgd1na2vs0mg"},{"bike_id":"e53b91c8-67fd-4f40-acea-7f7adf31cf25","system_id":"levelo_inurba_marseille","lat":43.29769,"lon":5.38118,"is_reserved":false,"is_disabled":false,"rental_uris":{"android":"levelo://app?vid=e53b91c8-67fd-4f40-acea-7f7adf31cf25","ios":"levelo://app?vid=e53b91c8-67fd-4f40-acea-7f7adf31cf25"},"vehicle_type_id":"4","last_reported":1740078417,"current_range_meters":12800,"station_id":"","pricing_plan_id":"cebpf4jnsgd1na2vs0mg"},{"bike_id":"d2a1da99-5d1e-4b5d-bb61-522e1356775e","system_id":"levelo_inurba_marseille","lat":43.29364,"lon":5.37826,"is_reserved":false,"is_disabled":false,"rental_uris":{"android":"levelo://app?vid=d2a1da99-5d1e-4b5d-bb61-522e1356775e","ios":"levelo://app?vid=d2a1da99-5d1e-4b5d-bb61-522e1356775e"},"vehicle_type_id":"4","last_reported":1740078417,"current_range_meters":12800,"station_id":"ce4bgjh2rcd13ifvqbf0","pricing_plan_id":"cebpf4jnsgd1na2vs0mg"},{"bike_id":"59985247-919e-4b57-935c-73b2db7d769d","system_id":"levelo_inurba_marseille","lat":43.29519,"lon":5.39396,"is_reserved":false,"is_disabled":false,"rental_uris":{"android":"levelo://app?vid=59985247-919e-4b57-935c-73b2db7d769d","ios":"levelo://app?vid=59985247-919e-4b57-935c-73b2db7d769d"},"vehicle_type_id":"4","last_reported":1740078417,"current_range_meters":13600,"station_id":"ce4bh292rcd13ifvqdf0","pricing_plan_id":"cebpf4jnsgd1na2vs0mg"},{"bike_id":"149d8985-eade-45fb-8852-dcf993418135","system_id":"levelo_inurba_marseille","lat":43.29563,"lon":5.42255,"is_reserved":false,"is_disabled":false,"rental_uris":{"android":"levelo://app?vid=149d8985-eade-45fb-8852-dcf993418135","ios":"levelo://app?vid=149d8985-eade-45fb-8852-dcf993418135"},"vehicle_type_id":"4","last_reported":1740078417,"current_range_meters":13600,"station_id":"","pricing_plan_id":"cebpf4jnsgd1na2vs0mg"},{"bike_id":"2e965ad9-60e1-49a7-b3ef-e51a3c6a9d04","system_id":"levelo_inurba_marseille","lat":43.29534,"lon":5.38543,"is_reserved":false,"is_disabled":false,"rental_uris":{"android":"levelo://app?vid=2e965ad9-60e1-49a7-b3ef-e51a3c6a9d04","ios":"levelo://app?vid=2e965ad9-60e1-49a7-b3ef-e51a3c6a9d04"},"vehicle_type_id":"4","last_reported":1740078417,"current_range_meters":13600,"station_id":"","pricing_plan_id":"cebpf4jnsgd1na2vs0mg"},{"bike_id":"a79cc390-3434-485d-99ae-344c97a34fce","system_id":"levelo_inurba_marseille","lat":43.28154,"lon":5.42657,"is_reserved":false,"is_disabled":false,"rental_uris":{"android":"levelo://app?vid=a79cc390-3434-485d-99ae-344c97a34fce","ios":"levelo://app?vid=a79cc390-3434-485d-99ae-344c97a34fce"},"vehicle_type_id":"4","last_reported":1740078417,"current_range_meters":13600,"station_id":"ce4bhnh2rcd13ifvqgug","pricing_plan_id":"cebpf4jnsgd1na2vs0mg"},{"bike_id":"b7e342d5-b8f5-455e-bbc2-81fd94c6ffdb","system_id":"levelo_inurba_marseille","lat":43.30335,"lon":5.40454,"is_reserved":false,"is_disabled":false,"rental_uris":{"android":"levelo://app?vid=b7e342d5-b8f5-455e-bbc2-81fd94c6ffdb","ios":"levelo://app?vid=b7e342d5-b8f5-455e-bbc2-81fd94c6ffdb"},"vehicle_type_id":"4","last_reported":1740078417,"current_range_meters":13600,"station_id":"ce4bh012rcd13ifvqd10","pricing_plan_id":"cebpf4jnsgd1na2vs0mg"},{"bike_id":"f20e8ef0-9c37-42e7-ad7c-35a91175e3b8","system_id":"levelo_inurba_marseille","lat":43.28936,"lon":5.36404,"is_reserved":false,"is_disabled":false,"rental_uris":{"android":"levelo://app?vid=f20e8ef0-9c37-42e7-ad7c-35a91175e3b8","ios":"levelo://app?vid=f20e8ef0-9c37-42e7-ad7c-35a91175e3b8"},"vehicle_type_id":"4","last_reported":1740078417,"current_range_meters":13600,"station_id":"ce4bhc92rcd13ifvqetg","pricing_plan_id":"cebpf4jnsgd1na2vs0mg"},{"bike_id":"781b7a3c-b1eb-495c-aba8-e32e07c6fa44","system_id":"levelo_inurba_marseille","lat":43.3094,"lon":5.40142,"is_reserved":false,"is_disabled":false,"rental_uris":{"android":"levelo://app?vid=781b7a3c-b1eb-495c-aba8-e32e07c6fa44","ios":"levelo://app?vid=781b7a3c-b1eb-495c-aba8-e32e07c6fa44"},"vehicle_type_id":"4","last_reported":1740078417,"current_range_meters":13600,"station_id":"ce4bgvp2rcd13ifvqct0","pricing_plan_id":"cebpf4jnsgd1na2vs0mg"},{"bike_id":"4a6016bf-5e1f-4b91-9024-4017e880e0f4","system_id":"levelo_inurba_marseille","lat":43.28076,"lon":5.39653,"is_reserved":false,"is_disabled":false,"rental_uris":{"android":"levelo://app?vid=4a6016bf-5e1f-4b91-9024-4017e880e0f4","ios":"levelo://app?vid=4a6016bf-5e1f-4b91-9024-4017e880e0f4"},"vehicle_type_id":"4","last_reported":1740078417,"current_range_meters":13600,"station_id":"ce4bho12rcd13ifvqh2g","pricing_plan_id":"cebpf4jnsgd1na2vs0mg"},{"bike_id":"3447e7b6-f8ed-4872-a45f-cf3cd80ed8ad","system_id":"levelo_inurba_marseille","lat":43.29728,"lon":5.37903,"is_reserved":false,"is_disabled":false,"rental_uris":{"android":"levelo://app?vid=3447e7b6-f8ed-4872-a45f-cf3cd80ed8ad","ios":"levelo://app?vid=3447e7b6-f8ed-4872-a45f-cf3cd80ed8ad"},"vehicle_type_id":"4","last_reported":1740078417,"current_range_meters":14000,"station_id":"ce4bguh2rcd13ifvqckg","pricing_plan_id":"cebpf4jnsgd1na2vs0mg"},{"bike_id":"56aacc54-94cc-4eff-be2f-ed7e05d1961c","system_id":"levelo_inurba_marseille","lat":43.28416,"lon":5.3752,"is_reserved":false,"is_disabled":false,"rental_uris":{"android":"levelo://app?vid=56aacc54-94cc-4eff-be2f-ed7e05d1961c","ios":"levelo://app?vid=56aacc54-94cc-4eff-be2f-ed7e05d1961c"},"vehicle_type_id":"4","last_reported":1740078417,"current_range_meters":14400,"station_id":"","pricing_plan_id":"cebpf4jnsgd1na2vs0mg"},{"bike_id":"0a56f9d1-0a16-443d-8e0e-b767591ef2e6","system_id":"levelo_inurba_marseille","lat":43.26811,"lon":5.40249,"is_reserved":false,"is_disabled":false,"rental_uris":{"android":"levelo://app?vid=0a56f9d1-0a16-443d-8e0e-b767591ef2e6","ios":"levelo://app?vid=0a56f9d1-0a16-443d-8e0e-b767591ef2e6"},"vehicle_type_id":"4","last_reported":1740078417,"current_range_meters":14400,"station_id":"ce501612rcd8frsf0b60","pricing_plan_id":"cebpf4jnsgd1na2vs0mg"},{"bike_id":"20463398-593d-4e39-b885-1b761836b416","system_id":"levelo_inurba_marseille","lat":43.2408,"lon":5.37755,"is_reserved":false,"is_disabled":false,"rental_uris":{"android":"levelo://app?vid=20463398-593d-4e39-b885-1b761836b416","ios":"levelo://app?vid=20463398-593d-4e39-b885-1b761836b416"},"vehicle_type_id":"4","last_reported":1740078417,"current_range_meters":14400,"station_id":"ce4bhnp2rcd13ifvqgvg","pricing_plan_id":"cebpf4jnsgd1na2vs0mg"},{"bike_id":"db18dec7-354f-498d-b09a-7423a8633eb3","system_id":"levelo_inurba_marseille","lat":43.25493,"lon":5.37645,"is_reserved":false,"is_disabled":false,"rental_uris":{"android":"levelo://app?vid=db18dec7-354f-498d-b09a-7423a8633eb3","ios":"levelo://app?vid=db18dec7-354f-498d-b09a-7423a8633eb3"},"vehicle_type_id":"4","last_reported":1740078417,"current_range_meters":14400,"station_id":"","pricing_plan_id":"cebpf4jnsgd1na2vs0mg"},{"bike_id":"1b3381e0-f9e4-493c-bd9e-8bafb7015111","system_id":"levelo_inurba_marseille","lat":43.312748,"lon":5.401736,"is_reserved":false,"is_disabled":false,"rental_uris":{"android":"levelo://app?vid=1b3381e0-f9e4-493c-bd9e-8bafb7015111","ios":"levelo://app?vid=1b3381e0-f9e4-493c-bd9e-8bafb7015111"},"vehicle_type_id":"4","last_reported":1740078417,"current_range_meters":14400,"station_id":"ce4bh092rcd13ifvqd30","pricing_plan_id":"cebpf4jnsgd1na2vs0mg"},{"bike_id":"2c05b014-d74b-41e9-adb0-e2896d0c635e","system_id":"levelo_inurba_marseille","lat":43.26217,"lon":5.37443,"is_reserved":false,"is_disabled":false,"rental_uris":{"android":"levelo://app?vid=2c05b014-d74b-41e9-adb0-e2896d0c635e","ios":"levelo://app?vid=2c05b014-d74b-41e9-adb0-e2896d0c635e"},"vehicle_type_id":"4","last_reported":1740078417,"current_range_meters":14400,"station_id":"","pricing_plan_id":"cebpf4jnsgd1na2vs0mg"},{"bike_id":"d9ed52ff-38c1-4fca-9b98-9bf331ffbe1a","system_id":"levelo_inurba_marseille","lat":43.26937,"lon":5.38913,"is_reserved":false,"is_disabled":false,"rental_uris":{"android":"levelo://app?vid=d9ed52ff-38c1-4fca-9b98-9bf331ffbe1a","ios":"levelo://app?vid=d9ed52ff-38c1-4fca-9b98-9bf331ffbe1a"},"vehicle_type_id":"4","last_reported":1740078417,"current_range_meters":14400,"station_id":"ce4bhhh2rcd13ifvqfl0","pricing_plan_id":"cebpf4jnsgd1na2vs0mg"},{"bike_id":"3e31696d-31de-4731-87c0-846b99bd99a1","system_id":"levelo_inurba_marseille","lat":43.29632,"lon":5.4059,"is_reserved":false,"is_disabled":false,"rental_uris":{"android":"levelo://app?vid=3e31696d-31de-4731-87c0-846b99bd99a1","ios":"levelo://app?vid=3e31696d-31de-4731-87c0-846b99bd99a1"},"vehicle_type_id":"4","last_reported":1740078417,"current_range_meters":14800,"station_id":"ce4bh0h2rcd13ifvqd60","pricing_plan_id":"cebpf4jnsgd1na2vs0mg"},{"bike_id":"9a28e5e0-170b-4170-937a-cd966726dbb7","system_id":"levelo_inurba_marseille","lat":43.293,"lon":5.37168,"is_reserved":false,"is_disabled":false,"rental_uris":{"android":"levelo://app?vid=9a28e5e0-170b-4170-937a-cd966726dbb7","ios":"levelo://app?vid=9a28e5e0-170b-4170-937a-cd966726dbb7"},"vehicle_type_id":"4","last_reported":1740078417,"current_range_meters":14800,"station_id":"","pricing_plan_id":"cebpf4jnsgd1na2vs0mg"},{"bike_id":"ce0caea6-6d1c-48ef-b0eb-fae6199eb4e1","system_id":"levelo_inurba_marseille","lat":43.23066,"lon":5.35508,"is_reserved":false,"is_disabled":false,"rental_uris":{"android":"levelo://app?vid=ce0caea6-6d1c-48ef-b0eb-fae6199eb4e1","ios":"levelo://app?vid=ce0caea6-6d1c-48ef-b0eb-fae6199eb4e1"},"vehicle_type_id":"4","last_reported":1740078417,"current_range_meters":14800,"station_id":"cpo3342slgdg3j2ifvpg","pricing_plan_id":"cebpf4jnsgd1na2vs0mg"},{"bike_id":"c23b4188-1241-46ba-8620-d3048820dfe9","system_id":"levelo_inurba_marseille","lat":43.23157,"lon":5.43705,"is_reserved":false,"is_disabled":false,"rental_uris":{"android":"levelo://app?vid=c23b4188-1241-46ba-8620-d3048820dfe9","ios":"levelo://app?vid=c23b4188-1241-46ba-8620-d3048820dfe9"},"vehicle_type_id":"4","last_reported":1740078417,"current_range_meters":14400,"station_id":"ce4bhmp2rcd13ifvqgog","pricing_plan_id":"cebpf4jnsgd1na2vs0mg"},{"bike_id":"e3bf0413-e73c-4f5e-b5df-f71a2b0c5aa3","system_id":"levelo_inurba_marseille","lat":43.28154,"lon":5.42636,"is_reserved":false,"is_disabled":false,"rental_uris":{"android":"levelo://app?vid=e3bf0413-e73c-4f5e-b5df-f71a2b0c5aa3","ios":"levelo://app?vid=e3bf0413-e73c-4f5e-b5df-f71a2b0c5aa3"},"vehicle_type_id":"4","last_reported":1740078417,"current_range_meters":14800,"station_id":"ce4bhnh2rcd13ifvqgug","pricing_plan_id":"cebpf4jnsgd1na2vs0mg"},{"bike_id":"6106393f-3645-48aa-b132-3d2def6b4674","system_id":"levelo_inurba_marseille","lat":43.30456,"lon":5.38072,"is_reserved":false,"is_disabled":false,"rental_uris":{"android":"levelo://app?vid=6106393f-3645-48aa-b132-3d2def6b4674","ios":"levelo://app?vid=6106393f-3645-48aa-b132-3d2def6b4674"},"vehicle_type_id":"4","last_reported":1740078417,"current_range_meters":14800,"station_id":"ce4bgv92rcd13ifvqcq0","pricing_plan_id":"cebpf4jnsgd1na2vs0mg"},{"bike_id":"e385752e-a969-4716-bfcb-8e46f58b5798","system_id":"levelo_inurba_marseille","lat":43.30218,"lon":5.39461,"is_reserved":false,"is_disabled":false,"rental_uris":{"android":"levelo://app?vid=e385752e-a969-4716-bfcb-8e46f58b5798","ios":"levelo://app?vid=e385752e-a969-4716-bfcb-8e46f58b5798"},"vehicle_type_id":"4","last_reported":1740078417,"current_range_meters":14800,"station_id":"ce4bh0p2rcd13ifvqd70","pricing_plan_id":"cebpf4jnsgd1na2vs0mg"},{"bike_id":"ff92e8e4-245b-4ba3-ae4f-1320f6a270b7","system_id":"levelo_inurba_marseille","lat":43.30134,"lon":5.39848,"is_reserved":false,"is_disabled":false,"rental_uris":{"android":"levelo://app?vid=ff92e8e4-245b-4ba3-ae4f-1320f6a270b7","ios":"levelo://app?vid=ff92e8e4-245b-4ba3-ae4f-1320f6a270b7"},"vehicle_type_id":"4","last_reported":1740078417,"current_range_meters":11600,"station_id":"ce4bh0h2rcd13ifvqd40","pricing_plan_id":"cebpf4jnsgd1na2vs0mg"},{"bike_id":"e2486147-a2a4-4a5f-91d0-44a136b0956a","system_id":"levelo_inurba_marseille","lat":43.27506,"lon":5.4343,"is_reserved":false,"is_disabled":false,"rental_uris":{"android":"levelo://app?vid=e2486147-a2a4-4a5f-91d0-44a136b0956a","ios":"levelo://app?vid=e2486147-a2a4-4a5f-91d0-44a136b0956a"},"vehicle_type_id":"4","last_reported":1740078417,"current_range_meters":15200,"station_id":"","pricing_plan_id":"cebpf4jnsgd1na2vs0mg"},{"bike_id":"7fd6ae63-e7b3-4553-8ba2-57f135372ad7","system_id":"levelo_inurba_marseille","lat":43.25089,"lon":5.39512,"is_reserved":false,"is_disabled":false,"rental_uris":{"android":"levelo://app?vid=7fd6ae63-e7b3-4553-8ba2-57f135372ad7","ios":"levelo://app?vid=7fd6ae63-e7b3-4553-8ba2-57f135372ad7"},"vehicle_type_id":"4","last_reported":1740078417,"current_range_meters":15200,"station_id":"ce4bhm12rcd13ifvqgkg","pricing_plan_id":"cebpf4jnsgd1na2vs0mg"},{"bike_id":"c8ff6340-ee03-4f34-a041-918df40e4ea2","system_id":"levelo_inurba_marseille","lat":43.31364,"lon":5.38481,"is_reserved":false,"is_disabled":false,"rental_uris":{"android":"levelo://app?vid=c8ff6340-ee03-4f34-a041-918df40e4ea2","ios":"levelo://app?vid=c8ff6340-ee03-4f34-a041-918df40e4ea2"},"vehicle_type_id":"4","last_reported":1740078417,"current_range_meters":15200,"station_id":"ce4bgt92rcd13ifvqcf0","pricing_plan_id":"cebpf4jnsgd1na2vs0mg"},{"bike_id":"76a1d742-84f2-439e-8b87-72eb73bf6cb6","system_id":"levelo_inurba_marseille","lat":43.26202,"lon":5.37457,"is_reserved":false,"is_disabled":false,"rental_uris":{"android":"levelo://app?vid=76a1d742-84f2-439e-8b87-72eb73bf6cb6","ios":"levelo://app?vid=76a1d742-84f2-439e-8b87-72eb73bf6cb6"},"vehicle_type_id":"4","last_reported":1740078417,"current_range_meters":15200,"station_id":"ce4bhgp2rcd13ifvqfc0","pricing_plan_id":"cebpf4jnsgd1na2vs0mg"},{"bike_id":"a2e5d19f-5a39-4172-ba2a-08e4d27aa678","system_id":"levelo_inurba_marseille","lat":43.29034,"lon":5.38642,"is_reserved":false,"is_disabled":false,"rental_uris":{"android":"levelo://app?vid=a2e5d19f-5a39-4172-ba2a-08e4d27aa678","ios":"levelo://app?vid=a2e5d19f-5a39-4172-ba2a-08e4d27aa678"},"vehicle_type_id":"4","last_reported":1740078417,"current_range_meters":15200,"station_id":"ce4bh4p2rcd13ifvqe0g","pricing_plan_id":"cebpf4jnsgd1na2vs0mg"},{"bike_id":"369689ea-d4e0-4644-827f-338d55fbc4a9","system_id":"levelo_inurba_marseille","lat":43.31335,"lon":5.39698,"is_reserved":false,"is_disabled":false,"rental_uris":{"android":"levelo://app?vid=369689ea-d4e0-4644-827f-338d55fbc4a9","ios":"levelo://app?vid=369689ea-d4e0-4644-827f-338d55fbc4a9"},"vehicle_type_id":"4","last_reported":1740078417,"current_range_meters":15200,"station_id":"ce4bgvp2rcd13ifvqcu0","pricing_plan_id":"cebpf4jnsgd1na2vs0mg"},{"bike_id":"2a728cc4-f63d-43a0-8393-e5675285ea80","system_id":"levelo_inurba_marseille","lat":43.29785,"lon":5.38093,"is_reserved":false,"is_disabled":false,"rental_uris":{"android":"levelo://app?vid=2a728cc4-f63d-43a0-8393-e5675285ea80","ios":"levelo://app?vid=2a728cc4-f63d-43a0-8393-e5675285ea80"},"vehicle_type_id":"4","last_reported":1740078417,"current_range_meters":16000,"station_id":"","pricing_plan_id":"cebpf4jnsgd1na2vs0mg"},{"bike_id":"3774a75a-f074-4684-b9d3-50abcc849c7b","system_id":"levelo_inurba_marseille","lat":43.28072,"lon":5.39643,"is_reserved":false,"is_disabled":false,"rental_uris":{"android":"levelo://app?vid=3774a75a-f074-4684-b9d3-50abcc849c7b","ios":"levelo://app?vid=3774a75a-f074-4684-b9d3-50abcc849c7b"},"vehicle_type_id":"4","last_reported":1740078417,"current_range_meters":16000,"station_id":"ce4bho12rcd13ifvqh2g","pricing_plan_id":"cebpf4jnsgd1na2vs0mg"},{"bike_id":"b057d0fa-33b6-477d-bbb3-30b06e8791c4","system_id":"levelo_inurba_marseille","lat":43.28432,"lon":5.3754,"is_reserved":false,"is_disabled":false,"rental_uris":{"android":"levelo://app?vid=b057d0fa-33b6-477d-bbb3-30b06e8791c4","ios":"levelo://app?vid=b057d0fa-33b6-477d-bbb3-30b06e8791c4"},"vehicle_type_id":"4","last_reported":1740078417,"current_range_meters":16000,"station_id":"ce4bh412rcd13ifvqds0","pricing_plan_id":"cebpf4jnsgd1na2vs0mg"},{"bike_id":"cc6f2e87-35b3-47bb-8103-9bd75abaf1e9","system_id":"levelo_inurba_marseille","lat":43.24672,"lon":5.38144,"is_reserved":false,"is_disabled":false,"rental_uris":{"android":"levelo://app?vid=cc6f2e87-35b3-47bb-8103-9bd75abaf1e9","ios":"levelo://app?vid=cc6f2e87-35b3-47bb-8103-9bd75abaf1e9"},"vehicle_type_id":"4","last_reported":1740078417,"current_range_meters":16000,"station_id":"ce4bhih2rcd13ifvqfr0","pricing_plan_id":"cebpf4jnsgd1na2vs0mg"},{"bike_id":"1736bdf7-065e-458a-8be8-137efe82e48a","system_id":"levelo_inurba_marseille","lat":43.33097,"lon":5.39055,"is_reserved":false,"is_disabled":false,"rental_uris":{"android":"levelo://app?vid=1736bdf7-065e-458a-8be8-137efe82e48a","ios":"levelo://app?vid=1736bdf7-065e-458a-8be8-137efe82e48a"},"vehicle_type_id":"4","last_reported":1740078417,"current_range_meters":16000,"station_id":"ce4bhqp2rcd13ifvqhog","pricing_plan_id":"cebpf4jnsgd1na2vs0mg"},{"bike_id":"df5ae48a-c324-4b45-93b7-11b77bf7c6f8","system_id":"levelo_inurba_marseille","lat":43.24389,"lon":5.37058,"is_reserved":false,"is_disabled":false,"rental_uris":{"android":"levelo://app?vid=df5ae48a-c324-4b45-93b7-11b77bf7c6f8","ios":"levelo://app?vid=df5ae48a-c324-4b45-93b7-11b77bf7c6f8"},"vehicle_type_id":"4","last_reported":1740078417,"current_range_meters":16000,"station_id":"ce4bhhh2rcd13ifvqfk0","pricing_plan_id":"cebpf4jnsgd1na2vs0mg"},{"bike_id":"08ac09c4-6f5c-4102-9080-551603ba8f2c","system_id":"levelo_inurba_marseille","lat":43.29806,"lon":5.38091,"is_reserved":false,"is_disabled":false,"rental_uris":{"android":"levelo://app?vid=08ac09c4-6f5c-4102-9080-551603ba8f2c","ios":"levelo://app?vid=08ac09c4-6f5c-4102-9080-551603ba8f2c"},"vehicle_type_id":"4","last_reported":1740078417,"current_range_meters":16000,"station_id":"ce4bgip2rcd13ifvqbb0","pricing_plan_id":"cebpf4jnsgd1na2vs0mg"},{"bike_id":"76afc9b6-4c6a-4849-93c9-ca97f3144a1a","system_id":"levelo_inurba_marseille","lat":43.29442,"lon":5.39745,"is_reserved":false,"is_disabled":false,"rental_uris":{"android":"levelo://app?vid=76afc9b6-4c6a-4849-93c9-ca97f3144a1a","ios":"levelo://app?vid=76afc9b6-4c6a-4849-93c9-ca97f3144a1a"},"vehicle_type_id":"4","last_reported":1740078417,"current_range_meters":15200,"station_id":"ce4bh3h2rcd13ifvqdo0","pricing_plan_id":"cebpf4jnsgd1na2vs0mg"},{"bike_id":"a77e18f8-3e91-4d0a-bff8-517eb7077160","system_id":"levelo_inurba_marseille","lat":43.28445,"lon":5.39205,"is_reserved":false,"is_disabled":false,"rental_uris":{"android":"levelo://app?vid=a77e18f8-3e91-4d0a-bff8-517eb7077160","ios":"levelo://app?vid=a77e18f8-3e91-4d0a-bff8-517eb7077160"},"vehicle_type_id":"4","last_reported":1740078417,"current_range_meters":15200,"station_id":"ce4bhoh2rcd13ifvqh5g","pricing_plan_id":"cebpf4jnsgd1na2vs0mg"},{"bike_id":"b253065d-1074-4a51-bc2b-4e15dba86004","system_id":"levelo_inurba_marseille","lat":43.23067,"lon":5.35489,"is_reserved":false,"is_disabled":false,"rental_uris":{"android":"levelo://app?vid=b253065d-1074-4a51-bc2b-4e15dba86004","ios":"levelo://app?vid=b253065d-1074-4a51-bc2b-4e15dba86004"},"vehicle_type_id":"4","last_reported":1740078417,"current_range_meters":16000,"station_id":"cpo3342slgdg3j2ifvpg","pricing_plan_id":"cebpf4jnsgd1na2vs0mg"},{"bike_id":"2c6621b6-bd4f-459c-862c-00c024792fa7","system_id":"levelo_inurba_marseille","lat":43.28616,"lon":5.35087,"is_reserved":false,"is_disabled":false,"rental_uris":{"android":"levelo://app?vid=2c6621b6-bd4f-459c-862c-00c024792fa7","ios":"levelo://app?vid=2c6621b6-bd4f-459c-862c-00c024792fa7"},"vehicle_type_id":"4","last_reported":1740078417,"current_range_meters":16400,"station_id":"ce4bhch2rcd13ifvqeug","pricing_plan_id":"cebpf4jnsgd1na2vs0mg"},{"bike_id":"87891dce-3352-4418-9015-a26c990ecd6e","system_id":"levelo_inurba_marseille","lat":43.23066,"lon":5.35494,"is_reserved":false,"is_disabled":false,"rental_uris":{"android":"levelo://app?vid=87891dce-3352-4418-9015-a26c990ecd6e","ios":"levelo://app?vid=87891dce-3352-4418-9015-a26c990ecd6e"},"vehicle_type_id":"4","last_reported":1740078417,"current_range_meters":16400,"station_id":"cpo3342slgdg3j2ifvpg","pricing_plan_id":"cebpf4jnsgd1na2vs0mg"},{"bike_id":"790b0ff7-55c5-4c35-9f2a-78c4076d7d17","system_id":"levelo_inurba_marseille","lat":43.27948,"lon":5.38494,"is_reserved":false,"is_disabled":false,"rental_uris":{"android":"levelo://app?vid=790b0ff7-55c5-4c35-9f2a-78c4076d7d17","ios":"levelo://app?vid=790b0ff7-55c5-4c35-9f2a-78c4076d7d17"},"vehicle_type_id":"4","last_reported":1740078417,"current_range_meters":16400,"station_id":"","pricing_plan_id":"cebpf4jnsgd1na2vs0mg"},{"bike_id":"a027fda7-1259-458d-a074-e12f2f0cd902","system_id":"levelo_inurba_marseille","lat":43.29573,"lon":5.39963,"is_reserved":false,"is_disabled":false,"rental_uris":{"android":"levelo://app?vid=a027fda7-1259-458d-a074-e12f2f0cd902","ios":"levelo://app?vid=a027fda7-1259-458d-a074-e12f2f0cd902"},"vehicle_type_id":"4","last_reported":1740078417,"current_range_meters":16000,"station_id":"ce4bh312rcd13ifvqdj0","pricing_plan_id":"cebpf4jnsgd1na2vs0mg"},{"bike_id":"19b817e1-b268-47e2-953e-34b4241c6f49","system_id":"levelo_inurba_marseille","lat":43.29267,"lon":5.38439,"is_reserved":false,"is_disabled":false,"rental_uris":{"android":"levelo://app?vid=19b817e1-b268-47e2-953e-34b4241c6f49","ios":"levelo://app?vid=19b817e1-b268-47e2-953e-34b4241c6f49"},"vehicle_type_id":"4","last_reported":1740078417,"current_range_meters":16400,"station_id":"ce4bh692rcd13ifvqea0","pricing_plan_id":"cebpf4jnsgd1na2vs0mg"},{"bike_id":"4347ac42-d6bd-4898-bb54-db9da5fa21c6","system_id":"levelo_inurba_marseille","lat":43.26796,"lon":5.40246,"is_reserved":false,"is_disabled":false,"rental_uris":{"android":"levelo://app?vid=4347ac42-d6bd-4898-bb54-db9da5fa21c6","ios":"levelo://app?vid=4347ac42-d6bd-4898-bb54-db9da5fa21c6"},"vehicle_type_id":"4","last_reported":1740078417,"current_range_meters":16400,"station_id":"ce501612rcd8frsf0b60","pricing_plan_id":"cebpf4jnsgd1na2vs0mg"},{"bike_id":"10030f0f-da1f-4690-9cc0-e6c3a4fbfad4","system_id":"levelo_inurba_marseille","lat":43.30931,"lon":5.40143,"is_reserved":false,"is_disabled":false,"rental_uris":{"android":"levelo://app?vid=10030f0f-da1f-4690-9cc0-e6c3a4fbfad4","ios":"levelo://app?vid=10030f0f-da1f-4690-9cc0-e6c3a4fbfad4"},"vehicle_type_id":"4","last_reported":1740078417,"current_range_meters":16400,"station_id":"","pricing_plan_id":"cebpf4jnsgd1na2vs0mg"},{"bike_id":"2a1e7e6b-2821-4447-8466-b5450172360e","system_id":"levelo_inurba_marseille","lat":43.29765,"lon":5.38077,"is_reserved":false,"is_disabled":false,"rental_uris":{"android":"levelo://app?vid=2a1e7e6b-2821-4447-8466-b5450172360e","ios":"levelo://app?vid=2a1e7e6b-2821-4447-8466-b5450172360e"},"vehicle_type_id":"4","last_reported":1740078417,"current_range_meters":16400,"station_id":"ce4bgip2rcd13ifvqbb0","pricing_plan_id":"cebpf4jnsgd1na2vs0mg"},{"bike_id":"9feb5561-3b2a-4314-b9ba-cf4a9622cf9c","system_id":"levelo_inurba_marseille","lat":43.30914,"lon":5.36845,"is_reserved":false,"is_disabled":false,"rental_uris":{"android":"levelo://app?vid=9feb5561-3b2a-4314-b9ba-cf4a9622cf9c","ios":"levelo://app?vid=9feb5561-3b2a-4314-b9ba-cf4a9622cf9c"},"vehicle_type_id":"4","last_reported":1740078417,"current_range_meters":16400,"station_id":"ce4bgn92rcd13ifvqbvg","pricing_plan_id":"cebpf4jnsgd1na2vs0mg"},{"bike_id":"4e11b30d-0226-4b04-813f-4404772688cd","system_id":"levelo_inurba_marseille","lat":43.29005,"lon":5.37154,"is_reserved":false,"is_disabled":false,"rental_uris":{"android":"levelo://app?vid=4e11b30d-0226-4b04-813f-4404772688cd","ios":"levelo://app?vid=4e11b30d-0226-4b04-813f-4404772688cd"},"vehicle_type_id":"4","last_reported":1740078417,"current_range_meters":16400,"station_id":"","pricing_plan_id":"cebpf4jnsgd1na2vs0mg"},{"bike_id":"ad484dc4-a807-4549-846d-2aa55284d983","system_id":"levelo_inurba_marseille","lat":43.27812,"lon":5.40721,"is_reserved":false,"is_disabled":false,"rental_uris":{"android":"levelo://app?vid=ad484dc4-a807-4549-846d-2aa55284d983","ios":"levelo://app?vid=ad484dc4-a807-4549-846d-2aa55284d983"},"vehicle_type_id":"4","last_reported":1740078417,"current_range_meters":16400,"station_id":"","pricing_plan_id":"cebpf4jnsgd1na2vs0mg"},{"bike_id":"12ef8137-2fe9-49ab-b515-2d8a19e68049","system_id":"levelo_inurba_marseille","lat":43.28839,"lon":5.3586,"is_reserved":false,"is_disabled":false,"rental_uris":{"android":"levelo://app?vid=12ef8137-2fe9-49ab-b515-2d8a19e68049","ios":"levelo://app?vid=12ef8137-2fe9-49ab-b515-2d8a19e68049"},"vehicle_type_id":"4","last_reported":1740078417,"current_range_meters":16800,"station_id":"ce4bhb12rcd13ifvqem0","pricing_plan_id":"cebpf4jnsgd1na2vs0mg"},{"bike_id":"7e0da6c8-7bc9-400b-a11b-694d2fdd997b","system_id":"levelo_inurba_marseille","lat":43.25088,"lon":5.39517,"is_reserved":false,"is_disabled":false,"rental_uris":{"android":"levelo://app?vid=7e0da6c8-7bc9-400b-a11b-694d2fdd997b","ios":"levelo://app?vid=7e0da6c8-7bc9-400b-a11b-694d2fdd997b"},"vehicle_type_id":"4","last_reported":1740078417,"current_range_meters":16800,"station_id":"ce4bhm12rcd13ifvqgkg","pricing_plan_id":"cebpf4jnsgd1na2vs0mg"},{"bike_id":"94b3215c-ea3b-4ff2-905b-12606a360285","system_id":"levelo_inurba_marseille","lat":43.29792,"lon":5.38088,"is_reserved":false,"is_disabled":false,"rental_uris":{"android":"levelo://app?vid=94b3215c-ea3b-4ff2-905b-12606a360285","ios":"levelo://app?vid=94b3215c-ea3b-4ff2-905b-12606a360285"},"vehicle_type_id":"4","last_reported":1740078417,"current_range_meters":16800,"station_id":"ce4bgip2rcd13ifvqbb0","pricing_plan_id":"cebpf4jnsgd1na2vs0mg"},{"bike_id":"f75125da-ebea-4773-a614-c89e1f3d250b","system_id":"levelo_inurba_marseille","lat":43.29872,"lon":5.39732,"is_reserved":false,"is_disabled":false,"rental_uris":{"android":"levelo://app?vid=f75125da-ebea-4773-a614-c89e1f3d250b","ios":"levelo://app?vid=f75125da-ebea-4773-a614-c89e1f3d250b"},"vehicle_type_id":"4","last_reported":1740078417,"current_range_meters":16800,"station_id":"ce4bh692rcd13ifvqea0","pricing_plan_id":"cebpf4jnsgd1na2vs0mg"},{"bike_id":"f800bf4a-a88e-43ea-b4b8-11875d2f53c7","system_id":"levelo_inurba_marseille","lat":43.24824,"lon":5.37437,"is_reserved":false,"is_disabled":true,"rental_uris":{"android":"levelo://app?vid=f800bf4a-a88e-43ea-b4b8-11875d2f53c7","ios":"levelo://app?vid=f800bf4a-a88e-43ea-b4b8-11875d2f53c7"},"vehicle_type_id":"4","last_reported":1740078417,"current_range_meters":16800,"station_id":"","pricing_plan_id":"cebpf4jnsgd1na2vs0mg"},{"bike_id":"3a18a060-43b3-487c-bb23-8493264d5ba4","system_id":"levelo_inurba_marseille","lat":43.2418,"lon":5.36407,"is_reserved":false,"is_disabled":true,"rental_uris":{"android":"levelo://app?vid=3a18a060-43b3-487c-bb23-8493264d5ba4","ios":"levelo://app?vid=3a18a060-43b3-487c-bb23-8493264d5ba4"},"vehicle_type_id":"4","last_reported":1740078417,"current_range_meters":16800,"station_id":"","pricing_plan_id":"cebpf4jnsgd1na2vs0mg"},{"bike_id":"b2dd001c-b166-4275-b390-47823709e60d","system_id":"levelo_inurba_marseille","lat":43.28103,"lon":5.42232,"is_reserved":false,"is_disabled":false,"rental_uris":{"android":"levelo://app?vid=b2dd001c-b166-4275-b390-47823709e60d","ios":"levelo://app?vid=b2dd001c-b166-4275-b390-47823709e60d"},"vehicle_type_id":"4","last_reported":1740078417,"current_range_meters":16800,"station_id":"ce4bhnh2rcd13ifvqgug","pricing_plan_id":"cebpf4jnsgd1na2vs0mg"},{"bike_id":"735b6e72-9c9f-4288-a0b9-3228b405df7c","system_id":"levelo_inurba_marseille","lat":43.27429,"lon":5.39423,"is_reserved":false,"is_disabled":false,"rental_uris":{"android":"levelo://app?vid=735b6e72-9c9f-4288-a0b9-3228b405df7c","ios":"levelo://app?vid=735b6e72-9c9f-4288-a0b9-3228b405df7c"},"vehicle_type_id":"4","last_reported":1740078417,"current_range_meters":16400,"station_id":"ce4bhdp2rcd13ifvqf20","pricing_plan_id":"cebpf4jnsgd1na2vs0mg"},{"bike_id":"6fdc5ece-57bf-4f1c-95b4-d427fab6f722","system_id":"levelo_inurba_marseille","lat":43.28695,"lon":5.37394,"is_reserved":false,"is_disabled":false,"rental_uris":{"android":"levelo://app?vid=6fdc5ece-57bf-4f1c-95b4-d427fab6f722","ios":"levelo://app?vid=6fdc5ece-57bf-4f1c-95b4-d427fab6f722"},"vehicle_type_id":"4","last_reported":1740078417,"current_range_meters":16800,"station_id":"ce4bh3p2rcd13ifvqdq0","pricing_plan_id":"cebpf4jnsgd1na2vs0mg"},{"bike_id":"6e7bc9e4-4f1a-4318-93da-1bc3ecd960b8","system_id":"levelo_inurba_marseille","lat":43.2703,"lon":5.40263,"is_reserved":false,"is_disabled":false,"rental_uris":{"android":"levelo://app?vid=6e7bc9e4-4f1a-4318-93da-1bc3ecd960b8","ios":"levelo://app?vid=6e7bc9e4-4f1a-4318-93da-1bc3ecd960b8"},"vehicle_type_id":"4","last_reported":1740078417,"current_range_meters":17200,"station_id":"cjm6bp8fraef2m0cb0m0","pricing_plan_id":"cebpf4jnsgd1na2vs0mg"},{"bike_id":"187be6de-0096-4154-8b1e-cbb28fc7b5ac","system_id":"levelo_inurba_marseille","lat":43.30309,"lon":5.36894,"is_reserved":false,"is_disabled":false,"rental_uris":{"android":"levelo://app?vid=187be6de-0096-4154-8b1e-cbb28fc7b5ac","ios":"levelo://app?vid=187be6de-0096-4154-8b1e-cbb28fc7b5ac"},"vehicle_type_id":"4","last_reported":1740078417,"current_range_meters":17200,"station_id":"ce4bgqh2rcd13ifvqc5g","pricing_plan_id":"cebpf4jnsgd1na2vs0mg"},{"bike_id":"bbd33905-9854-4060-9b98-8824e999486f","system_id":"levelo_inurba_marseille","lat":43.29711,"lon":5.36617,"is_reserved":false,"is_disabled":false,"rental_uris":{"android":"levelo://app?vid=bbd33905-9854-4060-9b98-8824e999486f","ios":"levelo://app?vid=bbd33905-9854-4060-9b98-8824e999486f"},"vehicle_type_id":"4","last_reported":1740078417,"current_range_meters":17200,"station_id":"ce4bgn12rcd13ifvqbt0","pricing_plan_id":"cebpf4jnsgd1na2vs0mg"},{"bike_id":"98f2df35-cc65-4f97-b7e3-927b3fc66a3e","system_id":"levelo_inurba_marseille","lat":43.30651,"lon":5.40101,"is_reserved":false,"is_disabled":false,"rental_uris":{"android":"levelo://app?vid=98f2df35-cc65-4f97-b7e3-927b3fc66a3e","ios":"levelo://app?vid=98f2df35-cc65-4f97-b7e3-927b3fc66a3e"},"vehicle_type_id":"4","last_reported":1740078417,"current_range_meters":17200,"station_id":"ce4bh112rcd13ifvqda0","pricing_plan_id":"cebpf4jnsgd1na2vs0mg"},{"bike_id":"44e45a0d-80e4-4777-b789-c9ff84761c0c","system_id":"levelo_inurba_marseille","lat":43.2928,"lon":5.3943,"is_reserved":false,"is_disabled":false,"rental_uris":{"android":"levelo://app?vid=44e45a0d-80e4-4777-b789-c9ff84761c0c","ios":"levelo://app?vid=44e45a0d-80e4-4777-b789-c9ff84761c0c"},"vehicle_type_id":"4","last_reported":1740078417,"current_range_meters":17200,"station_id":"","pricing_plan_id":"cebpf4jnsgd1na2vs0mg"},{"bike_id":"6a41d4d5-6ce6-4940-8b60-f1b1f72587c0","system_id":"levelo_inurba_marseille","lat":43.23063,"lon":5.35499,"is_reserved":false,"is_disabled":false,"rental_uris":{"android":"levelo://app?vid=6a41d4d5-6ce6-4940-8b60-f1b1f72587c0","ios":"levelo://app?vid=6a41d4d5-6ce6-4940-8b60-f1b1f72587c0"},"vehicle_type_id":"4","last_reported":1740078417,"current_range_meters":17200,"station_id":"cpo3342slgdg3j2ifvpg","pricing_plan_id":"cebpf4jnsgd1na2vs0mg"},{"bike_id":"39911775-b352-437f-a831-cbaa657f922a","system_id":"levelo_inurba_marseille","lat":43.28701,"lon":5.37386,"is_reserved":false,"is_disabled":false,"rental_uris":{"android":"levelo://app?vid=39911775-b352-437f-a831-cbaa657f922a","ios":"levelo://app?vid=39911775-b352-437f-a831-cbaa657f922a"},"vehicle_type_id":"4","last_reported":1740078417,"current_range_meters":17200,"station_id":"ce4bh3p2rcd13ifvqdq0","pricing_plan_id":"cebpf4jnsgd1na2vs0mg"},{"bike_id":"24eb5cb3-c3ff-4800-862b-cf38a7f403b4","system_id":"levelo_inurba_marseille","lat":43.27566,"lon":5.38421,"is_reserved":false,"is_disabled":false,"rental_uris":{"android":"levelo://app?vid=24eb5cb3-c3ff-4800-862b-cf38a7f403b4","ios":"levelo://app?vid=24eb5cb3-c3ff-4800-862b-cf38a7f403b4"},"vehicle_type_id":"4","last_reported":1740078417,"current_range_meters":16800,"station_id":"ce4bhh92rcd13ifvqfi0","pricing_plan_id":"cebpf4jnsgd1na2vs0mg"},{"bike_id":"926bd933-9aab-49cc-9cc0-5c8b8af72ffb","system_id":"levelo_inurba_marseille","lat":43.26063,"lon":5.39399,"is_reserved":false,"is_disabled":false,"rental_uris":{"android":"levelo://app?vid=926bd933-9aab-49cc-9cc0-5c8b8af72ffb","ios":"levelo://app?vid=926bd933-9aab-49cc-9cc0-5c8b8af72ffb"},"vehicle_type_id":"4","last_reported":1740078417,"current_range_meters":16800,"station_id":"ce4bhh92rcd13ifvqfj0","pricing_plan_id":"cebpf4jnsgd1na2vs0mg"},{"bike_id":"d197c3e2-5cd1-4d93-ab59-1160e04fed3d","system_id":"levelo_inurba_marseille","lat":43.29305,"lon":5.3746,"is_reserved":false,"is_disabled":false,"rental_uris":{"android":"levelo://app?vid=d197c3e2-5cd1-4d93-ab59-1160e04fed3d","ios":"levelo://app?vid=d197c3e2-5cd1-4d93-ab59-1160e04fed3d"},"vehicle_type_id":"4","last_reported":1740078417,"current_range_meters":17200,"station_id":"","pricing_plan_id":"cebpf4jnsgd1na2vs0mg"},{"bike_id":"48bd32f5-5372-4c45-b865-3dbde016939c","system_id":"levelo_inurba_marseille","lat":43.2658,"lon":5.3904,"is_reserved":false,"is_disabled":false,"rental_uris":{"android":"levelo://app?vid=48bd32f5-5372-4c45-b865-3dbde016939c","ios":"levelo://app?vid=48bd32f5-5372-4c45-b865-3dbde016939c"},"vehicle_type_id":"4","last_reported":1740078417,"current_range_meters":17600,"station_id":"ce4bhe12rcd13ifvqf30","pricing_plan_id":"cebpf4jnsgd1na2vs0mg"},{"bike_id":"05c803e1-6bd9-421a-90e0-182fda04ecc7","system_id":"levelo_inurba_marseille","lat":43.279376,"lon":5.410467,"is_reserved":false,"is_disabled":false,"rental_uris":{"android":"levelo://app?vid=05c803e1-6bd9-421a-90e0-182fda04ecc7","ios":"levelo://app?vid=05c803e1-6bd9-421a-90e0-182fda04ecc7"},"vehicle_type_id":"4","last_reported":1740078417,"current_range_meters":17600,"station_id":"ce4bhl12rcd13ifvqgf0","pricing_plan_id":"cebpf4jnsgd1na2vs0mg"},{"bike_id":"426b9ecc-ba5f-4d00-a300-d8a037622108","system_id":"levelo_inurba_marseille","lat":43.29267,"lon":5.38441,"is_reserved":false,"is_disabled":false,"rental_uris":{"android":"levelo://app?vid=426b9ecc-ba5f-4d00-a300-d8a037622108","ios":"levelo://app?vid=426b9ecc-ba5f-4d00-a300-d8a037622108"},"vehicle_type_id":"4","last_reported":1740078417,"current_range_meters":17600,"station_id":"","pricing_plan_id":"cebpf4jnsgd1na2vs0mg"},{"bike_id":"99e8db59-f48c-4d67-9859-2d75762818c4","system_id":"levelo_inurba_marseille","lat":43.2959,"lon":5.38104,"is_reserved":false,"is_disabled":false,"rental_uris":{"android":"levelo://app?vid=99e8db59-f48c-4d67-9859-2d75762818c4","ios":"levelo://app?vid=99e8db59-f48c-4d67-9859-2d75762818c4"},"vehicle_type_id":"4","last_reported":1740078417,"current_range_meters":17600,"station_id":"ce4bgl12rcd13ifvqbo0","pricing_plan_id":"cebpf4jnsgd1na2vs0mg"},{"bike_id":"89fb68ec-1aa9-4c97-8b89-632e005ea687","system_id":"levelo_inurba_marseille","lat":43.337444,"lon":5.374475,"is_reserved":false,"is_disabled":true,"rental_uris":{"android":"levelo://app?vid=89fb68ec-1aa9-4c97-8b89-632e005ea687","ios":"levelo://app?vid=89fb68ec-1aa9-4c97-8b89-632e005ea687"},"vehicle_type_id":"4","last_reported":1740078417,"current_range_meters":17600,"station_id":"","pricing_plan_id":"cebpf4jnsgd1na2vs0mg"},{"bike_id":"7aab3632-37c2-497b-ab19-dde828ce2e03","system_id":"levelo_inurba_marseille","lat":43.32361,"lon":5.38873,"is_reserved":false,"is_disabled":false,"rental_uris":{"android":"levelo://app?vid=7aab3632-37c2-497b-ab19-dde828ce2e03","ios":"levelo://app?vid=7aab3632-37c2-497b-ab19-dde828ce2e03"},"vehicle_type_id":"4","last_reported":1740078417,"current_range_meters":17600,"station_id":"ce4bhqp2rcd13ifvqhog","pricing_plan_id":"cebpf4jnsgd1na2vs0mg"},{"bike_id":"acd3d7d3-667e-491c-a82c-b6e10992569a","system_id":"levelo_inurba_marseille","lat":43.24656,"lon":5.38159,"is_reserved":false,"is_disabled":false,"rental_uris":{"android":"levelo://app?vid=acd3d7d3-667e-491c-a82c-b6e10992569a","ios":"levelo://app?vid=acd3d7d3-667e-491c-a82c-b6e10992569a"},"vehicle_type_id":"4","last_reported":1740078417,"current_range_meters":17600,"station_id":"ce4bhih2rcd13ifvqfr0","pricing_plan_id":"cebpf4jnsgd1na2vs0mg"},{"bike_id":"ba6489af-ff35-458d-ac3f-8b8ae81bc316","system_id":"levelo_inurba_marseille","lat":43.290341,"lon":5.399612,"is_reserved":false,"is_disabled":false,"rental_uris":{"android":"levelo://app?vid=ba6489af-ff35-458d-ac3f-8b8ae81bc316","ios":"levelo://app?vid=ba6489af-ff35-458d-ac3f-8b8ae81bc316"},"vehicle_type_id":"4","last_reported":1740078417,"current_range_meters":18000,"station_id":"ce4bh392rcd13ifvqdm0","pricing_plan_id":"cebpf4jnsgd1na2vs0mg"},{"bike_id":"2adc5cea-c5b1-4244-93fa-680922a7766b","system_id":"levelo_inurba_marseille","lat":43.291992,"lon":5.393255,"is_reserved":false,"is_disabled":false,"rental_uris":{"android":"levelo://app?vid=2adc5cea-c5b1-4244-93fa-680922a7766b","ios":"levelo://app?vid=2adc5cea-c5b1-4244-93fa-680922a7766b"},"vehicle_type_id":"4","last_reported":1740078417,"current_range_meters":18000,"station_id":"ce4bh192rcd13ifvqdd0","pricing_plan_id":"cebpf4jnsgd1na2vs0mg"},{"bike_id":"c881fc38-1885-4ca6-a0de-70d42fe3ae29","system_id":"levelo_inurba_marseille","lat":43.30929,"lon":5.40144,"is_reserved":false,"is_disabled":false,"rental_uris":{"android":"levelo://app?vid=c881fc38-1885-4ca6-a0de-70d42fe3ae29","ios":"levelo://app?vid=c881fc38-1885-4ca6-a0de-70d42fe3ae29"},"vehicle_type_id":"4","last_reported":1740078417,"current_range_meters":18000,"station_id":"ce4bgvp2rcd13ifvqct0","pricing_plan_id":"cebpf4jnsgd1na2vs0mg"},{"bike_id":"a090cefe-6a97-488b-bc7f-442e05ca9c43","system_id":"levelo_inurba_marseille","lat":43.29882,"lon":5.39728,"is_reserved":false,"is_disabled":false,"rental_uris":{"android":"levelo://app?vid=a090cefe-6a97-488b-bc7f-442e05ca9c43","ios":"levelo://app?vid=a090cefe-6a97-488b-bc7f-442e05ca9c43"},"vehicle_type_id":"4","last_reported":1740078417,"current_range_meters":18000,"station_id":"ce4bh0h2rcd13ifvqd50","pricing_plan_id":"cebpf4jnsgd1na2vs0mg"},{"bike_id":"1895f5bf-dad0-484a-9085-c87b22881724","system_id":"levelo_inurba_marseille","lat":43.2947,"lon":5.39406,"is_reserved":false,"is_disabled":false,"rental_uris":{"android":"levelo://app?vid=1895f5bf-dad0-484a-9085-c87b22881724","ios":"levelo://app?vid=1895f5bf-dad0-484a-9085-c87b22881724"},"vehicle_type_id":"4","last_reported":1740078417,"current_range_meters":18000,"station_id":"ce4bh292rcd13ifvqdf0","pricing_plan_id":"cebpf4jnsgd1na2vs0mg"},{"bike_id":"700ba57b-266c-43e6-b9df-dd7077f527b0","system_id":"levelo_inurba_marseille","lat":43.29418,"lon":5.38622,"is_reserved":false,"is_disabled":false,"rental_uris":{"android":"levelo://app?vid=700ba57b-266c-43e6-b9df-dd7077f527b0","ios":"levelo://app?vid=700ba57b-266c-43e6-b9df-dd7077f527b0"},"vehicle_type_id":"4","last_reported":1740078417,"current_range_meters":18000,"station_id":"ce4bh2h2rcd13ifvqdh0","pricing_plan_id":"cebpf4jnsgd1na2vs0mg"},{"bike_id":"4aefe304-65aa-44a0-a904-b764903e36bd","system_id":"levelo_inurba_marseille","lat":43.30135,"lon":5.38783,"is_reserved":false,"is_disabled":true,"rental_uris":{"android":"levelo://app?vid=4aefe304-65aa-44a0-a904-b764903e36bd","ios":"levelo://app?vid=4aefe304-65aa-44a0-a904-b764903e36bd"},"vehicle_type_id":"4","last_reported":1740078417,"current_range_meters":18000,"station_id":"ce4bghh2rcd13ifvqb60","pricing_plan_id":"cebpf4jnsgd1na2vs0mg"},{"bike_id":"4a8772ba-cd0f-42f2-9aa2-df718c044ce9","system_id":"levelo_inurba_marseille","lat":43.30209,"lon":5.39467,"is_reserved":false,"is_disabled":false,"rental_uris":{"android":"levelo://app?vid=4a8772ba-cd0f-42f2-9aa2-df718c044ce9","ios":"levelo://app?vid=4a8772ba-cd0f-42f2-9aa2-df718c044ce9"},"vehicle_type_id":"4","last_reported":1740078417,"current_range_meters":19200,"station_id":"","pricing_plan_id":"cebpf4jnsgd1na2vs0mg"},{"bike_id":"aeccde13-813c-4e1d-9c80-1d1793744437","system_id":"levelo_inurba_marseille","lat":43.28372,"lon":5.38659,"is_reserved":false,"is_disabled":true,"rental_uris":{"android":"levelo://app?vid=aeccde13-813c-4e1d-9c80-1d1793744437","ios":"levelo://app?vid=aeccde13-813c-4e1d-9c80-1d1793744437"},"vehicle_type_id":"4","last_reported":1740078417,"current_range_meters":18000,"station_id":"ce4bh492rcd13ifvqdvg","pricing_plan_id":"cebpf4jnsgd1na2vs0mg"},{"bike_id":"75b5f4fb-0c49-422f-9831-059225f51683","system_id":"levelo_inurba_marseille","lat":43.29616,"lon":5.37727,"is_reserved":false,"is_disabled":false,"rental_uris":{"android":"levelo://app?vid=75b5f4fb-0c49-422f-9831-059225f51683","ios":"levelo://app?vid=75b5f4fb-0c49-422f-9831-059225f51683"},"vehicle_type_id":"4","last_reported":1740078417,"current_range_meters":18000,"station_id":"","pricing_plan_id":"cebpf4jnsgd1na2vs0mg"},{"bike_id":"1773ae1e-c63b-4de8-97f8-67d298e19fcc","system_id":"levelo_inurba_marseille","lat":43.28854,"lon":5.35876,"is_reserved":false,"is_disabled":false,"rental_uris":{"android":"levelo://app?vid=1773ae1e-c63b-4de8-97f8-67d298e19fcc","ios":"levelo://app?vid=1773ae1e-c63b-4de8-97f8-67d298e19fcc"},"vehicle_type_id":"4","last_reported":1740078417,"current_range_meters":18800,"station_id":"ce4bhb12rcd13ifvqem0","pricing_plan_id":"cebpf4jnsgd1na2vs0mg"},{"bike_id":"c52fbed6-bdb8-4f25-8719-fd63022f66d9","system_id":"levelo_inurba_marseille","lat":43.2901,"lon":5.38626,"is_reserved":false,"is_disabled":false,"rental_uris":{"android":"levelo://app?vid=c52fbed6-bdb8-4f25-8719-fd63022f66d9","ios":"levelo://app?vid=c52fbed6-bdb8-4f25-8719-fd63022f66d9"},"vehicle_type_id":"4","last_reported":1740078417,"current_range_meters":18800,"station_id":"ce4bh4p2rcd13ifvqe0g","pricing_plan_id":"cebpf4jnsgd1na2vs0mg"},{"bike_id":"ebe8f273-5739-4753-ba61-e13e57e5e3ea","system_id":"levelo_inurba_marseille","lat":43.265747,"lon":5.390208,"is_reserved":false,"is_disabled":true,"rental_uris":{"android":"levelo://app?vid=ebe8f273-5739-4753-ba61-e13e57e5e3ea","ios":"levelo://app?vid=ebe8f273-5739-4753-ba61-e13e57e5e3ea"},"vehicle_type_id":"4","last_reported":1740078417,"current_range_meters":18800,"station_id":"","pricing_plan_id":"cebpf4jnsgd1na2vs0mg"},{"bike_id":"671309ab-a5cf-485b-aa08-759bb3941eb2","system_id":"levelo_inurba_marseille","lat":43.30939,"lon":5.40137,"is_reserved":false,"is_disabled":false,"rental_uris":{"android":"levelo://app?vid=671309ab-a5cf-485b-aa08-759bb3941eb2","ios":"levelo://app?vid=671309ab-a5cf-485b-aa08-759bb3941eb2"},"vehicle_type_id":"4","last_reported":1740078417,"current_range_meters":18000,"station_id":"ce4bgvp2rcd13ifvqct0","pricing_plan_id":"cebpf4jnsgd1na2vs0mg"},{"bike_id":"a8dd4074-563b-47d4-a1c9-e56ba41bd3d0","system_id":"levelo_inurba_marseille","lat":43.30137,"lon":5.39871,"is_reserved":false,"is_disabled":false,"rental_uris":{"android":"levelo://app?vid=a8dd4074-563b-47d4-a1c9-e56ba41bd3d0","ios":"levelo://app?vid=a8dd4074-563b-47d4-a1c9-e56ba41bd3d0"},"vehicle_type_id":"4","last_reported":1740078417,"current_range_meters":18800,"station_id":"ce4bh0h2rcd13ifvqd40","pricing_plan_id":"cebpf4jnsgd1na2vs0mg"},