{"last_updated":1712599812,"ttl":30,"version":"2.2","data":{"bikes":[{"bike_id":"99a2134b-199d-4c21-acab-0c7a07d6b892","system_id":"levelo_inurba_marseille","lat":43.313547,"lon":5.367227,"is_reserved":false,"is_disabled":false,"rental_uris":{"android":"levelo://app?vid=99a2134b-199d-4c21-acab-0c7a07d6b892","ios":"levelo://app?vid=99a2134b-199d-4c21-acab-0c7a07d6b892"},"vehicle_type_id":"4","last_reported":1712599812,"current_range_meters":0,"station_id":"ce4bgr92rcd13ifvqc6g","pricing_plan_id":"cebpf4jnsgd1na2vs0mg"},{"bike_id":"472833be-8150-407f-9c52-e6640ad37d52","system_id":"levelo_inurba_marseille","lat":43.312239,"lon":5.368562,"is_reserved":false,"is_disabled":false,"rental_uris":{"android":"levelo://app?vid=472833be-8150-407f-9c52-e6640ad37d52","ios":"levelo://app?vid=472833be-8150-407f-9c52-e6640ad37d52"},"vehicle_type_id":"4","last_reported":1712599812,"current_range_meters":0,"station_id":"ce4bgl92rcd13ifvqbq0","pricing_plan_id":"cebpf4jnsgd1na2vs0mg"},{"bike_id":"470f6831-8daf-434c-872a-c1139e3e7343","system_id":"levelo_inurba_marseille","lat":43.275625,"lon":5.384392,"is_reserved":false,"is_disabled":false,"rental_uris":{"android":"levelo://app?vid=470f6831-8daf-434c-872a-c1139e3e7343","ios":"levelo://app?vid=470f6831-8daf-434c-872a-c1139e3e7343"},"vehicle_type_id":"4","last_reported":1712599812,"current_range_meters":11200,"station_id":"ce4bhh92rcd13ifvqfi0","pricing_plan_id":"cebpf4jnsgd1na2vs0mg"},{"bike_id":"bdd6c0cb-7e3f-444f-be2a-b539572c74a7","system_id":"levelo_inurba_marseille","lat":43.313553,"lon":5.371383,"is_reserved":false,"is_disabled":false,"rental_uris":{"android":"levelo://app?vid=bdd6c0cb-7e3f-444f-be2a-b539572c74a7","ios":"levelo://app?vid=bdd6c0cb-7e3f-444f-be2a-b539572c74a7"},"vehicle_type_id":"4","last_reported":1712599812,"current_range_meters":0,"station_id":"","pricing_plan_id":"cebpf4jnsgd1na2vs0mg"},{"bike_id":"73706916-b3f3-4ff0-b068-cec67895e8b1","system_id":"levelo_inurba_marseille","lat":43.308473,"lon":5.367751,"is_reserved":false,"is_disabled":false,"rental_uris":{"android":"levelo://app?vid=73706916-b3f3-4ff0-b068-cec67895e8b1","ios":"levelo://app?vid=73706916-b3f3-4ff0-b068-cec67895e8b1"},"vehicle_type_id":"4","last_reported":1712599812,"current_range_meters":3600,"station_id":"","pricing_plan_id":"cebpf4jnsgd1na2vs0mg"},{"bike_id":"c7756b7d-9b9a-44d6-8ea4-325eafc2c440","system_id":"levelo_inurba_marseille","lat":43.330442,"lon":5.389148,"is_reserved":false,"is_disabled":false,"rental_uris":{"android":"levelo://app?vid=c7756b7d-9b9a-44d6-8ea4-325eafc2c440","ios":"levelo://app?vid=c7756b7d-9b9a-44d6-8ea4-325eafc2c440"},"vehicle_type_id":"4","last_reported":1712599812,"current_range_meters":10800,"station_id":"ce4bhr92rcd13ifvqhrg","pricing_plan_id":"cebpf4jnsgd1na2vs0mg"},{"bike_id":"6f3f4d99-5fdd-4405-ad2b-992f75267070","system_id":"levelo_inurba_marseille","lat":43.301429,"lon":5.37413,"is_reserved":false,"is_disabled":false,"rental_uris":{"android":"levelo://app?vid=6f3f4d99-5fdd-4405-ad2b-992f75267070","ios":"levelo://app?vid=6f3f4d99-5fdd-4405-ad2b-992f75267070"},"vehicle_type_id":"4","last_reported":1712599812,"current_range_meters":0,"station_id":"ce4bgs92rcd13ifvqcc0","pricing_plan_id":"cebpf4jnsgd1na2vs0mg"},{"bike_id":"b8a50ece-bb9c-41fb-bbc6-4e55f29720b4","system_id":"levelo_inurba_marseille","lat":43.299724,"lon":5.371829,"is_reserved":false,"is_disabled":false,"rental_uris":{"android":"levelo://app?vid=b8a50ece-bb9c-41fb-bbc6-4e55f29720b4","ios":"levelo://app?vid=b8a50ece-bb9c-41fb-bbc6-4e55f29720b4"},"vehicle_type_id":"4","last_reported":1712599812,"current_range_meters":11200,"station_id":"ce4bgr92rcd13ifvqc7g","pricing_plan_id":"cebpf4jnsgd1na2vs0mg"},{"bike_id":"a8354ce8-3910-44e8-971f-d508271fc4aa","system_id":"levelo_inurba_marseille","lat":43.309034,"lon":5.371783,"is_reserved":false,"is_disabled":false,"rental_uris":{"android":"levelo://app?vid=a8354ce8-3910-44e8-971f-d508271fc4aa","ios":"levelo://app?vid=a8354ce8-3910-44e8-971f-d508271fc4aa"},"vehicle_type_id":"4","last_reported":1712599812,"current_range_meters":17600,"station_id":"ce4bguh2rcd13ifvqckg","pricing_plan_id":"cebpf4jnsgd1na2vs0mg"},{"bike_id":"59211f08-0990-4089-be8f-5fd37ba0a086","system_id":"levelo_inurba_marseille","lat":43.31587,"lon":5.37467,"is_reserved":false,"is_disabled":false,"rental_uris":{"android":"levelo://app?vid=59211f08-0990-4089-be8f-5fd37ba0a086","ios":"levelo://app?vid=59211f08-0990-4089-be8f-5fd37ba0a086"},"vehicle_type_id":"4","last_reported":1712599812,"current_range_meters":14800,"station_id":"","pricing_plan_id":"cebpf4jnsgd1na2vs0mg"},{"bike_id":"01518799-4760-4e7a-8db3-246191af636c","system_id":"levelo_inurba_marseille","lat":43.30537,"lon":5.367345,"is_reserved":false,"is_disabled":false,"rental_uris":{"android":"levelo://app?vid=01518799-4760-4e7a-8db3-246191af636c","ios":"levelo://app?vid=01518799-4760-4e7a-8db3-246191af636c"},"vehicle_type_id":"4","last_reported":1712599812,"current_range_meters":24800,"station_id":"ce4bgrp2rcd13ifvqc9g","pricing_plan_id":"cebpf4jnsgd1na2vs0mg"},{"bike_id":"0c98d407-33b0-413a-b662-822672b73612","system_id":"levelo_inurba_marseille","lat":43.3054,"lon":5.36537,"is_reserved":false,"is_disabled":false,"rental_uris":{"android":"levelo://app?vid=0c98d407-33b0-413a-b662-822672b73612","ios":"levelo://app?vid=0c98d407-33b0-413a-b662-822672b73612"},"vehicle_type_id":"4","last_reported":1712599812,"current_range_meters":0,"station_id":"ce4bgs12rcd13ifvqcag","pricing_plan_id":"cebpf4jnsgd1na2vs0mg"},{"bike_id":"76c3605c-c107-48f2-87a0-1e28295066fc","system_id":"levelo_inurba_marseille","lat":43.305989,"lon":5.37225,"is_reserved":false,"is_disabled":false,"rental_uris":{"android":"levelo://app?vid=76c3605c-c107-48f2-87a0-1e28295066fc","ios":"levelo://app?vid=76c3605c-c107-48f2-87a0-1e28295066fc"},"vehicle_type_id":"4","last_reported":1712599812,"current_range_meters":9200,"station_id":"ce4bgqh2rcd13ifvqc4g","pricing_plan_id":"cebpf4jnsgd1na2vs0mg"},{"bike_id":"d319db64-9ecf-4cae-9d00-ea9798d8a85a","system_id":"levelo_inurba_marseille","lat":43.305989,"lon":5.37225,"is_reserved":false,"is_disabled":false,"rental_uris":{"android":"levelo://app?vid=d319db64-9ecf-4cae-9d00-ea9798d8a85a","ios":"levelo://app?vid=d319db64-9ecf-4cae-9d00-ea9798d8a85a"},"vehicle_type_id":"4","last_reported":1712599812,"current_range_meters":19600,"station_id":"ce4bgqh2rcd13ifvqc4g","pricing_plan_id":"cebpf4jnsgd1na2vs0mg"},{"bike_id":"a62fe581-7d76-4dc7-a506-9217374ebf12","system_id":"levelo_inurba_marseille","lat":43.31115,"lon":5.37757,"is_reserved":false,"is_disabled":false,"rental_uris":{"android":"levelo://app?vid=a62fe581-7d76-4dc7-a506-9217374ebf12","ios":"levelo://app?vid=a62fe581-7d76-4dc7-a506-9217374ebf12"},"vehicle_type_id":"4","last_reported":1712599812,"current_range_meters":0,"station_id":"ce4bgt92rcd13ifvqcg0","pricing_plan_id":"cebpf4jnsgd1na2vs0mg"},{"bike_id":"f42487ec-df86-4aa6-8d0d-ea611cb43051","system_id":"levelo_inurba_marseille","lat":43.31115,"lon":5.37769,"is_reserved":false,"is_disabled":false,"rental_uris":{"android":"levelo://app?vid=f42487ec-df86-4aa6-8d0d-ea611cb43051","ios":"levelo://app?vid=f42487ec-df86-4aa6-8d0d-ea611cb43051"},"vehicle_type_id":"4","last_reported":1712599812,"current_range_meters":0,"station_id":"ce4bgt92rcd13ifvqcg0","pricing_plan_id":"cebpf4jnsgd1na2vs0mg"},{"bike_id":"67692bcf-b745-42a1-af88-b858c0abbb70","system_id":"levelo_inurba_marseille","lat":43.311125,"lon":5.377624,"is_reserved":false,"is_disabled":false,"rental_uris":{"android":"levelo://app?vid=67692bcf-b745-42a1-af88-b858c0abbb70","ios":"levelo://app?vid=67692bcf-b745-42a1-af88-b858c0abbb70"},"vehicle_type_id":"4","last_reported":1712599812,"current_range_meters":8000,"station_id":"ce4bgt92rcd13ifvqcg0","pricing_plan_id":"cebpf4jnsgd1na2vs0mg"},{"bike_id":"9c216cde-213d-4ed2-87cc-632c6a7c352a","system_id":"levelo_inurba_marseille","lat":43.307945,"lon":5.376487,"is_reserved":false,"is_disabled":false,"rental_uris":{"android":"levelo://app?vid=9c216cde-213d-4ed2-87cc-632c6a7c352a","ios":"levelo://app?vid=9c216cde-213d-4ed2-87cc-632c6a7c352a"},"vehicle_type_id":"4","last_reported":1712599812,"current_range_meters":16000,"station_id":"ce4bgv92rcd13ifvqcq0","pricing_plan_id":"cebpf4jnsgd1na2vs0mg"},{"bike_id":"ac98e0ba-2c51-4089-9115-c16d8a339180","system_id":"levelo_inurba_marseille","lat":43.307868,"lon":5.376478,"is_reserved":false,"is_disabled":false,"rental_uris":{"android":"levelo://app?vid=ac98e0ba-2c51-4089-9115-c16d8a339180","ios":"levelo://app?vid=ac98e0ba-2c51-4089-9115-c16d8a339180"},"vehicle_type_id":"4","last_reported":1712599812,"current_range_meters":0,"station_id":"ce4bgv92rcd13ifvqcq0","pricing_plan_id":"cebpf4jnsgd1na2vs0mg"},{"bike_id":"794e3120-3d20-4c73-b5ff-b310403f6608","system_id":"levelo_inurba_marseille","lat":43.307945,"lon":5.376487,"is_reserved":false,"is_disabled":false,"rental_uris":{"android":"levelo://app?vid=794e3120-3d20-4c73-b5ff-b310403f6608","ios":"levelo://app?vid=794e3120-3d20-4c73-b5ff-b310403f6608"},"vehicle_type_id":"4","last_reported":1712599812,"current_range_meters":2800,"station_id":"ce4bgv92rcd13ifvqcq0","pricing_plan_id":"cebpf4jnsgd1na2vs0mg"},{"bike_id":"2dd924f4-1281-4fbe-952c-a6c414dd23c9","system_id":"levelo_inurba_marseille","lat":43.307945,"lon":5.376487,"is_reserved":false,"is_disabled":false,"rental_uris":{"android":"levelo://app?vid=2dd924f4-1281-4fbe-952c-a6c414dd23c9","ios":"levelo://app?vid=2dd924f4-1281-4fbe-952c-a6c414dd23c9"},"vehicle_type_id":"4","last_reported":1712599812,"current_range_meters":8400,"station_id":"ce4bgv92rcd13ifvqcq0","pricing_plan_id":"cebpf4jnsgd1na2vs0mg"},{"bike_id":"dd6cb6dc-1fe6-4151-962c-98c21d3bcab5","system_id":"levelo_inurba_marseille","lat":43.307945,"lon":5.376487,"is_reserved":false,"is_disabled":false,"rental_uris":{"android":"levelo://app?vid=dd6cb6dc-1fe6-4151-962c-98c21d3bcab5","ios":"levelo://app?vid=dd6cb6dc-1fe6-4151-962c-98c21d3bcab5"},"vehicle_type_id":"4","last_reported":1712599812,"current_range_meters":24800,"station_id":"ce4bgv92rcd13ifvqcq0","pricing_plan_id":"cebpf4jnsgd1na2vs0mg"},{"bike_id":"3a5bf439-0438-48f6-bc41-52a7b10ce1c1","system_id":"levelo_inurba_marseille","lat":43.307945,"lon":5.376487,"is_reserved":false,"is_disabled":false,"rental_uris":{"android":"levelo://app?vid=3a5bf439-0438-48f6-bc41-52a7b10ce1c1","ios":"levelo://app?vid=3a5bf439-0438-48f6-bc41-52a7b10ce1c1"},"vehicle_type_id":"4","last_reported":1712599812,"current_range_meters":2000,"station_id":"ce4bgv92rcd13ifvqcq0","pricing_plan_id":"cebpf4jnsgd1na2vs0mg"},{"bike_id":"9cf8a13d-9f8d-4da9-a513-b23268820872","system_id":"levelo_inurba_marseille","lat":43.30781,"lon":5.37651,"is_reserved":false,"is_disabled":false,"rental_uris":{"android":"levelo://app?vid=9cf8a13d-9f8d-4da9-a513-b23268820872","ios":"levelo://app?vid=9cf8a13d-9f8d-4da9-a513-b23268820872"},"vehicle_type_id":"4","last_reported":1712599812,"current_range_meters":0,"station_id":"ce4bgv92rcd13ifvqcq0","pricing_plan_id":"cebpf4jnsgd1na2vs0mg"},{"bike_id":"a475b751-6b26-4cee-993e-d4f2126067b7","system_id":"levelo_inurba_marseille","lat":43.303046,"lon":5.368981,"is_reserved":false,"is_disabled":false,"rental_uris":{"android":"levelo://app?vid=a475b751-6b26-4cee-993e-d4f2126067b7","ios":"levelo://app?vid=a475b751-6b26-4cee-993e-d4f2126067b7"},"vehicle_type_id":"4","last_reported":1712599812,"current_range_meters":0,"station_id":"ce4bgqh2rcd13ifvqc5g","pricing_plan_id":"cebpf4jnsgd1na2vs0mg"},{"bike_id":"4ae3af19-a6cf-4ab5-a405-806fafcc215d","system_id":"levelo_inurba_marseille","lat":43.30313,"lon":5.36894,"is_reserved":false,"is_disabled":false,"rental_uris":{"android":"levelo://app?vid=4ae3af19-a6cf-4ab5-a405-806fafcc215d","ios":"levelo://app?vid=4ae3af19-a6cf-4ab5-a405-806fafcc215d"},"vehicle_type_id":"4","last_reported":1712599812,"current_range_meters":0,"station_id":"ce4bgqh2rcd13ifvqc5g","pricing_plan_id":"cebpf4jnsgd1na2vs0mg"},{"bike_id":"a3dc977f-758d-4f11-833d-de58e39c83cb","system_id":"levelo_inurba_marseille","lat":43.30307,"lon":5.36898,"is_reserved":false,"is_disabled":false,"rental_uris":{"android":"levelo://app?vid=a3dc977f-758d-4f11-833d-de58e39c83cb","ios":"levelo://app?vid=a3dc977f-758d-4f11-833d-de58e39c83cb"},"vehicle_type_id":"4","last_reported":1712599812,"current_range_meters":0,"station_id":"ce4bgqh2rcd13ifvqc5g","pricing_plan_id":"cebpf4jnsgd1na2vs0mg"},{"bike_id":"5ea81068-1dae-4ed1-993e-5c3037d8fefd","system_id":"levelo_inurba_marseille","lat":43.293259,"lon":5.371586,"is_reserved":false,"is_disabled":false,"rental_uris":{"android":"levelo://app?vid=5ea81068-1dae-4ed1-993e-5c3037d8fefd","ios":"levelo://app?vid=5ea81068-1dae-4ed1-993e-5c3037d8fefd"},"vehicle_type_id":"4","last_reported":1712599812,"current_range_meters":7200,"station_id":"ce4bgh92rcd13ifvqb40","pricing_plan_id":"cebpf4jnsgd1na2vs0mg"},{"bike_id":"aca00e68-699e-4e24-9c3a-ab2674a67277","system_id":"levelo_inurba_marseille","lat":43.303046,"lon":5.368981,"is_reserved":false,"is_disabled":false,"rental_uris":{"android":"levelo://app?vid=aca00e68-699e-4e24-9c3a-ab2674a67277","ios":"levelo://app?vid=aca00e68-699e-4e24-9c3a-ab2674a67277"},"vehicle_type_id":"4","last_reported":1712599812,"current_range_meters":0,"station_id":"ce4bgqh2rcd13ifvqc5g","pricing_plan_id":"cebpf4jnsgd1na2vs0mg"},{"bike_id":"2f8019ea-e221-47c1-9bb5-986f1735b6b1","system_id":"levelo_inurba_marseille","lat":43.315289,"lon":5.380349,"is_reserved":false,"is_disabled":false,"rental_uris":{"android":"levelo://app?vid=2f8019ea-e221-47c1-9bb5-986f1735b6b1","ios":"levelo://app?vid=2f8019ea-e221-47c1-9bb5-986f1735b6b1"},"vehicle_type_id":"4","last_reported":1712599812,"current_range_meters":4000,"station_id":"ce4bhsp2rcd13ifvqi50","pricing_plan_id":"cebpf4jnsgd1na2vs0mg"},{"bike_id":"1b6b84c7-c61f-4757-b40d-35c15119d8b2","system_id":"levelo_inurba_marseille","lat":43.315289,"lon":5.380349,"is_reserved":false,"is_disabled":false,"rental_uris":{"android":"levelo://app?vid=1b6b84c7-c61f-4757-b40d-35c15119d8b2","ios":"levelo://app?vid=1b6b84c7-c61f-4757-b40d-35c15119d8b2"},"vehicle_type_id":"4","last_reported":1712599812,"current_range_meters":1200,"station_id":"ce4bhsp2rcd13ifvqi50","pricing_plan_id":"cebpf4jnsgd1na2vs0mg"},{"bike_id":"a0a446ac-493f-4c63-aa68-0ebe8a4c585a","system_id":"levelo_inurba_marseille","lat":43.315293,"lon":5.380349,"is_reserved":false,"is_disabled":false,"rental_uris":{"android":"levelo://app?vid=a0a446ac-493f-4c63-aa68-0ebe8a4c585a","ios":"levelo://app?vid=a0a446ac-493f-4c63-aa68-0ebe8a4c585a"},"vehicle_type_id":"4","last_reported":1712599812,"current_range_meters":26000,"station_id":"ce4bhsp2rcd13ifvqi50","pricing_plan_id":"cebpf4jnsgd1na2vs0mg"},{"bike_id":"ddeb6228-46e5-41ad-9cd3-ecb0c77726a0","system_id":"levelo_inurba_marseille","lat":43.315289,"lon":5.380349,"is_reserved":false,"is_disabled":false,"rental_uris":{"android":"levelo://app?vid=ddeb6228-46e5-41ad-9cd3-ecb0c77726a0","ios":"levelo://app?vid=ddeb6228-46e5-41ad-9cd3-ecb0c77726a0"},"vehicle_type_id":"4","last_reported":1712599812,"current_range_meters":28000,"station_id":"ce4bhsp2rcd13ifvqi50","pricing_plan_id":"cebpf4jnsgd1na2vs0mg"},{"bike_id":"292c638a-e65a-4ec4-bd5b-be5f36277201","system_id":"levelo_inurba_marseille","lat":43.315293,"lon":5.380349,"is_reserved":false,"is_disabled":false,"rental_uris":{"android":"levelo://app?vid=292c638a-e65a-4ec4-bd5b-be5f36277201","ios":"levelo://app?vid=292c638a-e65a-4ec4-bd5b-be5f36277201"},"vehicle_type_id":"4","last_reported":1712599812,"current_range_meters":17600,"station_id":"ce4bhsp2rcd13ifvqi50","pricing_plan_id":"cebpf4jnsgd1na2vs0mg"},{"bike_id":"fa5c138b-4298-4dad-84ee-41bf4d72c4a8","system_id":"levelo_inurba_marseille","lat":43.301939,"lon":5.366286,"is_reserved":false,"is_disabled":false,"rental_uris":{"android":"levelo://app?vid=fa5c138b-4298-4dad-84ee-41bf4d72c4a8","ios":"levelo://app?vid=fa5c138b-4298-4dad-84ee-41bf4d72c4a8"},"vehicle_type_id":"4","last_reported":1712599812,"current_range_meters":0,"station_id":"ce4bgrh2rcd13ifvqc8g","pricing_plan_id":"cebpf4jnsgd1na2vs0mg"},{"bike_id":"5ee3be71-3d79-41ec-bde7-d7759eaf495f","system_id":"levelo_inurba_marseille","lat":43.308012,"lon":5.381511,"is_reserved":false,"is_disabled":false,"rental_uris":{"android":"levelo://app?vid=5ee3be71-3d79-41ec-bde7-d7759eaf495f","ios":"levelo://app?vid=5ee3be71-3d79-41ec-bde7-d7759eaf495f"},"vehicle_type_id":"4","last_reported":1712599812,"current_range_meters":1600,"station_id":"ce4bgt12rcd13ifvqce0","pricing_plan_id":"cebpf4jnsgd1na2vs0mg"},{"bike_id":"ce4a2f6d-8820-444f-8819-fe3bdf5a9d56","system_id":"levelo_inurba_marseille","lat":43.308012,"lon":5.381511,"is_reserved":false,"is_disabled":false,"rental_uris":{"android":"levelo://app?vid=ce4a2f6d-8820-444f-8819-fe3bdf5a9d56","ios":"levelo://app?vid=ce4a2f6d-8820-444f-8819-fe3bdf5a9d56"},"vehicle_type_id":"4","last_reported":1712599812,"current_range_meters":400,"station_id":"ce4bgt12rcd13ifvqce0","pricing_plan_id":"cebpf4jnsgd1na2vs0mg"},{"bike_id":"92bc7399-da99-45fe-8eda-149893c05416","system_id":"levelo_inurba_marseille","lat":43.30461,"lon":5.37904,"is_reserved":false,"is_disabled":false,"rental_uris":{"android":"levelo://app?vid=92bc7399-da99-45fe-8eda-149893c05416","ios":"levelo://app?vid=92bc7399-da99-45fe-8eda-149893c05416"},"vehicle_type_id":"4","last_reported":1712599812,"current_range_meters":0,"station_id":"ce4bgup2rcd13ifvqcn0","pricing_plan_id":"cebpf4jnsgd1na2vs0mg"},{"bike_id":"82421cb6-8766-432c-ac5a-6eaf7a10d9df","system_id":"levelo_inurba_marseille","lat":43.231562,"lon":5.436933,"is_reserved":false,"is_disabled":false,"rental_uris":{"android":"levelo://app?vid=82421cb6-8766-432c-ac5a-6eaf7a10d9df","ios":"levelo://app?vid=82421cb6-8766-432c-ac5a-6eaf7a10d9df"},"vehicle_type_id":"4","last_reported":1712599812,"current_range_meters":26000,"station_id":"ce4bhmp2rcd13ifvqgog","pricing_plan_id":"cebpf4jnsgd1na2vs0mg"},{"bike_id":"dd1eeaf3-7ce5-435e-b6c8-fd616106d621","system_id":"levelo_inurba_marseille","lat":43.324771,"lon":5.36557,"is_reserved":false,"is_disabled":false,"rental_uris":{"android":"levelo://app?vid=dd1eeaf3-7ce5-435e-b6c8-fd616106d621","ios":"levelo://app?vid=dd1eeaf3-7ce5-435e-b6c8-fd616106d621"},"vehicle_type_id":"4","last_reported":1712599812,"current_range_meters":20400,"station_id":"ce4bhs12rcd13ifvqhvg","pricing_plan_id":"cebpf4jnsgd1na2vs0mg"},{"bike_id":"d12e7c2e-a3f2-4647-9ec1-aad839340afa","system_id":"levelo_inurba_marseille","lat":43.324771,"lon":5.36557,"is_reserved":false,"is_disabled":false,"rental_uris":{"android":"levelo://app?vid=d12e7c2e-a3f2-4647-9ec1-aad839340afa","ios":"levelo://app?vid=d12e7c2e-a3f2-4647-9ec1-aad839340afa"},"vehicle_type_id":"4","last_reported":1712599812,"current_range_meters":15200,"station_id":"ce4bhs12rcd13ifvqhvg","pricing_plan_id":"cebpf4jnsgd1na2vs0mg"},{"bike_id":"d3b996e9-4da1-4b89-87ff-4d5a0f28982e","system_id":"levelo_inurba_marseille","lat":43.324771,"lon":5.36557,"is_reserved":false,"is_disabled":false,"rental_uris":{"android":"levelo://app?vid=d3b996e9-4da1-4b89-87ff-4d5a0f28982e","ios":"levelo://app?vid=d3b996e9-4da1-4b89-87ff-4d5a0f28982e"},"vehicle_type_id":"4","last_reported":1712599812,"current_range_meters":16000,"station_id":"ce4bhs12rcd13ifvqhvg","pricing_plan_id":"cebpf4jnsgd1na2vs0mg"},{"bike_id":"b61f5fce-3370-4eb2-9cfe-757ef3a5f155","system_id":"levelo_inurba_marseille","lat":43.324771,"lon":5.36557,"is_reserved":false,"is_disabled":false,"rental_uris":{"android":"levelo://app?vid=b61f5fce-3370-4eb2-9cfe-757ef3a5f155","ios":"levelo://app?vid=b61f5fce-3370-4eb2-9cfe-757ef3a5f155"},"vehicle_type_id":"4","last_reported":1712599812,"current_range_meters":26000,"station_id":"ce4bhs12rcd13ifvqhvg","pricing_plan_id":"cebpf4jnsgd1na2vs0mg"},{"bike_id":"b7373fc7-088e-4fcb-9af9-2e8e176eee32","system_id":"levelo_inurba_marseille","lat":43.308051,"lon":5.43527,"is_reserved":false,"is_disabled":false,"rental_uris":{"android":"levelo://app?vid=b7373fc7-088e-4fcb-9af9-2e8e176eee32","ios":"levelo://app?vid=b7373fc7-088e-4fcb-9af9-2e8e176eee32"},"vehicle_type_id":"4","last_reported":1712599812,"current_range_meters":2000,"station_id":"ce4bhph2rcd13ifvqheg","pricing_plan_id":"cebpf4jnsgd1na2vs0mg"},{"bike_id":"f2f0a323-f4cf-4d69-bda0-3382b45e92bd","system_id":"levelo_inurba_marseille","lat":43.3248,"lon":5.36578,"is_reserved":false,"is_disabled":false,"rental_uris":{"android":"levelo://app?vid=f2f0a323-f4cf-4d69-bda0-3382b45e92bd","ios":"levelo://app?vid=f2f0a323-f4cf-4d69-bda0-3382b45e92bd"},"vehicle_type_id":"4","last_reported":1712599812,"current_range_meters":10000,"station_id":"ce4bhs12rcd13ifvqhvg","pricing_plan_id":"cebpf4jnsgd1na2vs0mg"},{"bike_id":"93f39419-5cbf-400a-91d0-19b962f1e4df","system_id":"levelo_inurba_marseille","lat":43.324771,"lon":5.36557,"is_reserved":false,"is_disabled":false,"rental_uris":{"android":"levelo://app?vid=93f39419-5cbf-400a-91d0-19b962f1e4df","ios":"levelo://app?vid=93f39419-5cbf-400a-91d0-19b962f1e4df"},"vehicle_type_id":"4","last_reported":1712599812,"current_range_meters":5600,"station_id":"ce4bhs12rcd13ifvqhvg","pricing_plan_id":"cebpf4jnsgd1na2vs0mg"},{"bike_id":"28a60fa5-83d7-47ac-8e02-bbd9305ed0d8","system_id":"levelo_inurba_marseille","lat":43.32481,"lon":5.36572,"is_reserved":false,"is_disabled":false,"rental_uris":{"android":"levelo://app?vid=28a60fa5-83d7-47ac-8e02-bbd9305ed0d8","ios":"levelo://app?vid=28a60fa5-83d7-47ac-8e02-bbd9305ed0d8"},"vehicle_type_id":"4","last_reported":1712599812,"current_range_meters":14400,"station_id":"ce4bhs12rcd13ifvqhvg","pricing_plan_id":"cebpf4jnsgd1na2vs0mg"},{"bike_id":"5cd7436a-1c11-4873-af7d-baa07ac34cd8","system_id":"levelo_inurba_marseille","lat":43.324771,"lon":5.36557,"is_reserved":false,"is_disabled":false,"rental_uris":{"android":"levelo://app?vid=5cd7436a-1c11-4873-af7d-baa07ac34cd8","ios":"levelo://app?vid=5cd7436a-1c11-4873-af7d-baa07ac34cd8"},"vehicle_type_id":"4","last_reported":1712599812,"current_range_meters":22000,"station_id":"ce4bhs12rcd13ifvqhvg","pricing_plan_id":"cebpf4jnsgd1na2vs0mg"},{"bike_id":"d453f5f1-b263-477b-864b-bf2146099cf6","system_id":"levelo_inurba_marseille","lat":43.324771,"lon":5.36557,"is_reserved":false,"is_disabled":false,"rental_uris":{"android":"levelo://app?vid=d453f5f1-b263-477b-864b-bf2146099cf6","ios":"levelo://app?vid=d453f5f1-b263-477b-864b-bf2146099cf6"},"vehicle_type_id":"4","last_reported":1712599812,"current_range_meters":20000,"station_id":"ce4bhs12rcd13ifvqhvg","pricing_plan_id":"cebpf4jnsgd1na2vs0mg"},{"bike_id":"7f1175c4-0172-440d-b61d-b816cff96fbc","system_id":"levelo_inurba_marseille","lat":43.324771,"lon":5.36557,"is_reserved":false,"is_disabled":false,"rental_uris":{"android":"levelo://app?vid=7f1175c4-0172-440d-b61d-b816cff96fbc","ios":"levelo://app?vid=7f1175c4-0172-440d-b61d-b816cff96fbc"},"vehicle_type_id":"4","last_reported":1712599812,"current_range_meters":22000,"station_id":"ce4bhs12rcd13ifvqhvg","pricing_plan_id":"cebpf4jnsgd1na2vs0mg"},{"bike_id":"466fa14b-daa3-4177-b540-e71b4a8e6995","system_id":"levelo_inurba_marseille","lat":43.324771,"lon":5.36557,"is_reserved":false,"is_disabled":false,"rental_uris":{"android":"levelo://app?vid=466fa14b-daa3-4177-b540-e71b4a8e6995","ios":"levelo://app?vid=466fa14b-daa3-4177-b540-e71b4a8e6995"},"vehicle_type_id":"4","last_reported":1712599812,"current_range_meters":21600,"station_id":"ce4bhs12rcd13ifvqhvg","pricing_plan_id":"cebpf4jnsgd1na2vs0mg"},{"bike_id":"58ef712f-8d42-4587-9c74-1d003c156c4f","system_id":"levelo_inurba_marseille","lat":43.310804,"lon":5.38359,"is_reserved":false,"is_disabled":false,"rental_uris":{"android":"levelo://app?vid=58ef712f-8d42-4587-9c74-1d003c156c4f","ios":"levelo://app?vid=58ef712f-8d42-4587-9c74-1d003c156c4f"},"vehicle_type_id":"4","last_reported":1712599812,"current_range_meters":14000,"station_id":"ce4bgv92rcd13ifvqcr0","pricing_plan_id":"cebpf4jnsgd1na2vs0mg"},{"bike_id":"be9e26a7-5402-4fe4-b1da-125cc61242a6","system_id":"levelo_inurba_marseille","lat":43.310804,"lon":5.38359,"is_reserved":false,"is_disabled":false,"rental_uris":{"android":"levelo://app?vid=be9e26a7-5402-4fe4-b1da-125cc61242a6","ios":"levelo://app?vid=be9e26a7-5402-4fe4-b1da-125cc61242a6"},"vehicle_type_id":"4","last_reported":1712599812,"current_range_meters":16800,"station_id":"ce4bgv92rcd13ifvqcr0","pricing_plan_id":"cebpf4jnsgd1na2vs0mg"},{"bike_id":"ab25b299-622e-4ba6-b8de-e3485120b218","system_id":"levelo_inurba_marseille","lat":43.30144,"lon":5.37416,"is_reserved":false,"is_disabled":false,"rental_uris":{"android":"levelo://app?vid=ab25b299-622e-4ba6-b8de-e3485120b218","ios":"levelo://app?vid=ab25b299-622e-4ba6-b8de-e3485120b218"},"vehicle_type_id":"4","last_reported":1712599812,"current_range_meters":0,"station_id":"ce4bgs92rcd13ifvqcc0","pricing_plan_id":"cebpf4jnsgd1na2vs0mg"},{"bike_id":"698d2f39-88b7-4d2b-ae3a-c7162b0d0437","system_id":"levelo_inurba_marseille","lat":43.30143,"lon":5.37413,"is_reserved":false,"is_disabled":false,"rental_uris":{"android":"levelo://app?vid=698d2f39-88b7-4d2b-ae3a-c7162b0d0437","ios":"levelo://app?vid=698d2f39-88b7-4d2b-ae3a-c7162b0d0437"},"vehicle_type_id":"4","last_reported":1712599812,"current_range_meters":10000,"station_id":"ce4bgs92rcd13ifvqcc0","pricing_plan_id":"cebpf4jnsgd1na2vs0mg"},{"bike_id":"401141a2-667a-44ca-8f2a-4842c9040d50","system_id":"levelo_inurba_marseille","lat":43.313571,"lon":5.384829,"is_reserved":false,"is_disabled":false,"rental_uris":{"android":"levelo://app?vid=401141a2-667a-44ca-8f2a-4842c9040d50","ios":"levelo://app?vid=401141a2-667a-44ca-8f2a-4842c9040d50"},"vehicle_type_id":"4","last_reported":1712599812,"current_range_meters":16000,"station_id":"ce4bgt92rcd13ifvqcf0","pricing_plan_id":"cebpf4jnsgd1na2vs0mg"},{"bike_id":"491fd043-da98-43df-b25c-8944bb5a55c0","system_id":"levelo_inurba_marseille","lat":43.313571,"lon":5.384829,"is_reserved":false,"is_disabled":false,"rental_uris":{"android":"levelo://app?vid=491fd043-da98-43df-b25c-8944bb5a55c0","ios":"levelo://app?vid=491fd043-da98-43df-b25c-8944bb5a55c0"},"vehicle_type_id":"4","last_reported":1712599812,"current_range_meters":0,"station_id":"ce4bgt92rcd13ifvqcf0","pricing_plan_id":"cebpf4jnsgd1na2vs0mg"},{"bike_id":"b9e55cd9-cdb3-4740-85aa-080a0936f18f","system_id":"levelo_inurba_marseille","lat":43.313571,"lon":5.384829,"is_reserved":false,"is_disabled":false,"rental_uris":{"android":"levelo://app?vid=b9e55cd9-cdb3-4740-85aa-080a0936f18f","ios":"levelo://app?vid=b9e55cd9-cdb3-4740-85aa-080a0936f18f"},"vehicle_type_id":"4","last_reported":1712599812,"current_range_meters":8000,"station_id":"ce4bgt92rcd13ifvqcf0","pricing_plan_id":"cebpf4jnsgd1na2vs0mg"},{"bike_id":"cb06173a-eeca-4002-8c61-01e9a40d321a","system_id":"levelo_inurba_marseille","lat":43.313571,"lon":5.384829,"is_reserved":false,"is_disabled":false,"rental_uris":{"android":"levelo://app?vid=cb06173a-eeca-4002-8c61-01e9a40d321a","ios":"levelo://app?vid=cb06173a-eeca-4002-8c61-01e9a40d321a"},"vehicle_type_id":"4","last_reported":1712599812,"current_range_meters":19600,"station_id":"ce4bgt92rcd13ifvqcf0","pricing_plan_id":"cebpf4jnsgd1na2vs0mg"},{"bike_id":"ed01d2f4-8ea7-4b18-bec4-b3790eb5f24b","system_id":"levelo_inurba_marseille","lat":43.313571,"lon":5.384829,"is_reserved":false,"is_disabled":false,"rental_uris":{"android":"levelo://app?vid=ed01d2f4-8ea7-4b18-bec4-b3790eb5f24b","ios":"levelo://app?vid=ed01d2f4-8ea7-4b18-bec4-b3790eb5f24b"},"vehicle_type_id":"4","last_reported":1712599812,"current_range_meters":12400,"station_id":"ce4bgt92rcd13ifvqcf0","pricing_plan_id":"cebpf4jnsgd1na2vs0mg"},{"bike_id":"c4054830-584a-4c53-b39c-ce84e2fd8932","system_id":"levelo_inurba_marseille","lat":43.3136,"lon":5.38497,"is_reserved":false,"is_disabled":false,"rental_uris":{"android":"levelo://app?vid=c4054830-584a-4c53-b39c-ce84e2fd8932","ios":"levelo://app?vid=c4054830-584a-4c53-b39c-ce84e2fd8932"},"vehicle_type_id":"4","last_reported":1712599812,"current_range_meters":9200,"station_id":"ce4bgt92rcd13ifvqcf0","pricing_plan_id":"cebpf4jnsgd1na2vs0mg"},{"bike_id":"ede2c4bd-517d-4c71-95b1-57dd75c80529","system_id":"levelo_inurba_marseille","lat":43.299724,"lon":5.371829,"is_reserved":false,"is_disabled":false,"rental_uris":{"android":"levelo://app?vid=ede2c4bd-517d-4c71-95b1-57dd75c80529","ios":"levelo://app?vid=ede2c4bd-517d-4c71-95b1-57dd75c80529"},"vehicle_type_id":"4","last_reported":1712599812,"current_range_meters":16400,"station_id":"ce4bgr92rcd13ifvqc7g","pricing_plan_id":"cebpf4jnsgd1na2vs0mg"},{"bike_id":"ccd911e1-d549-48ad-8c73-b68e61d05020","system_id":"levelo_inurba_marseille","lat":43.29983,"lon":5.37176,"is_reserved":false,"is_disabled":false,"rental_uris":{"android":"levelo://app?vid=ccd911e1-d549-48ad-8c73-b68e61d05020","ios":"levelo://app?vid=ccd911e1-d549-48ad-8c73-b68e61d05020"},"vehicle_type_id":"4","last_reported":1712599812,"current_range_meters":9600,"station_id":"ce4bgr92rcd13ifvqc7g","pricing_plan_id":"cebpf4jnsgd1na2vs0mg"},{"bike_id":"c643b0b2-0702-4688-920d-f7476d171017","system_id":"levelo_inurba_marseille","lat":43.283998,"lon":5.375062,"is_reserved":false,"is_disabled":false,"rental_uris":{"android":"levelo://app?vid=c643b0b2-0702-4688-920d-f7476d171017","ios":"levelo://app?vid=c643b0b2-0702-4688-920d-f7476d171017"},"vehicle_type_id":"4","last_reported":1712599812,"current_range_meters":3200,"station_id":"ce4bh412rcd13ifvqds0","pricing_plan_id":"cebpf4jnsgd1na2vs0mg"},{"bike_id":"25110903-3ac5-4191-a729-7891813e066a","system_id":"levelo_inurba_marseille","lat":43.299724,"lon":5.371829,"is_reserved":false,"is_disabled":false,"rental_uris":{"android":"levelo://app?vid=25110903-3ac5-4191-a729-7891813e066a","ios":"levelo://app?vid=25110903-3ac5-4191-a729-7891813e066a"},"vehicle_type_id":"4","last_reported":1712599812,"current_range_meters":20000,"station_id":"ce4bgr92rcd13ifvqc7g","pricing_plan_id":"cebpf4jnsgd1na2vs0mg"},{"bike_id":"dce3cb38-9f63-4d64-a15a-6ac54fd19631","system_id":"levelo_inurba_marseille","lat":43.299724,"lon":5.371829,"is_reserved":false,"is_disabled":false,"rental_uris":{"android":"levelo://app?vid=dce3cb38-9f63-4d64-a15a-6ac54fd19631","ios":"levelo://app?vid=dce3cb38-9f63-4d64-a15a-6ac54fd19631"},"vehicle_type_id":"4","last_reported":1712599812,"current_range_meters":19200,"station_id":"ce4bgr92rcd13ifvqc7g","pricing_plan_id":"cebpf4jnsgd1na2vs0mg"},{"bike_id":"404265c8-cd88-438b-8303-9a3c83261f07","system_id":"levelo_inurba_marseille","lat":43.299222,"lon":5.365554,"is_reserved":false,"is_disabled":false,"rental_uris":{"android":"levelo://app?vid=404265c8-cd88-438b-8303-9a3c83261f07","ios":"levelo://app?vid=404265c8-cd88-438b-8303-9a3c83261f07"},"vehicle_type_id":"4","last_reported":1712599812,"current_range_meters":9600,"station_id":"ce4bgm92rcd13ifvqbr0","pricing_plan_id":"cebpf4jnsgd1na2vs0mg"},{"bike_id":"14263040-d02f-48e9-b61e-9ab7b8e724af","system_id":"levelo_inurba_marseille","lat":43.299222,"lon":5.365554,"is_reserved":false,"is_disabled":false,"rental_uris":{"android":"levelo://app?vid=14263040-d02f-48e9-b61e-9ab7b8e724af","ios":"levelo://app?vid=14263040-d02f-48e9-b61e-9ab7b8e724af"},"vehicle_type_id":"4","last_reported":1712599812,"current_range_meters":0,"station_id":"ce4bgm92rcd13ifvqbr0","pricing_plan_id":"cebpf4jnsgd1na2vs0mg"},{"bike_id":"2a1d77e2-b4b9-49f5-b284-d0c424d99b57","system_id":"levelo_inurba_marseille","lat":43.299724,"lon":5.371829,"is_reserved":false,"is_disabled":false,"rental_uris":{"android":"levelo://app?vid=2a1d77e2-b4b9-49f5-b284-d0c424d99b57","ios":"levelo://app?vid=2a1d77e2-b4b9-49f5-b284-d0c424d99b57"},"vehicle_type_id":"4","last_reported":1712599812,"current_range_meters":21200,"station_id":"ce4bgr92rcd13ifvqc7g","pricing_plan_id":"cebpf4jnsgd1na2vs0mg"},{"bike_id":"7a21c8a2-6f77-4dfc-bebe-976b37294e3d","system_id":"levelo_inurba_marseille","lat":43.299724,"lon":5.371829,"is_reserved":false,"is_disabled":false,"rental_uris":{"android":"levelo://app?vid=7a21c8a2-6f77-4dfc-bebe-976b37294e3d","ios":"levelo://app?vid=7a21c8a2-6f77-4dfc-bebe-976b37294e3d"},"vehicle_type_id":"4","last_reported":1712599812,"current_range_meters":17200,"station_id":"ce4bgr92rcd13ifvqc7g","pricing_plan_id":"cebpf4jnsgd1na2vs0mg"},{"bike_id":"97b4a3b8-1956-4748-bc41-6e3eea8fa80a","system_id":"levelo_inurba_marseille","lat":43.299724,"lon":5.371829,"is_reserved":false,"is_disabled":false,"rental_uris":{"android":"levelo://app?vid=97b4a3b8-1956-4748-bc41-6e3eea8fa80a","ios":"levelo://app?vid=97b4a3b8-1956-4748-bc41-6e3eea8fa80a"},"vehicle_type_id":"4","last_reported":1712599812,"current_range_meters":0,"station_id":"ce4bgr92rcd13ifvqc7g","pricing_plan_id":"cebpf4jnsgd1na2vs0mg"},{"bike_id":"69bb4292-8164-450b-bcd8-01feb50d2ba4","system_id":"levelo_inurba_marseille","lat":43.305364,"lon":5.384119,"is_reserved":false,"is_disabled":false,"rental_uris":{"android":"levelo://app?vid=69bb4292-8164-450b-bcd8-01feb50d2ba4","ios":"levelo://app?vid=69bb4292-8164-450b-bcd8-01feb50d2ba4"},"vehicle_type_id":"4","last_reported":1712599812,"current_range_meters":5600,"station_id":"ce4bgg92rcd13ifvqb30","pricing_plan_id":"cebpf4jnsgd1na2vs0mg"},{"bike_id":"d31aac9c-ea71-4a29-b01c-6cec2d97a351","system_id":"levelo_inurba_marseille","lat":43.299243,"lon":5.37481,"is_reserved":false,"is_disabled":false,"rental_uris":{"android":"levelo://app?vid=d31aac9c-ea71-4a29-b01c-6cec2d97a351","ios":"levelo://app?vid=d31aac9c-ea71-4a29-b01c-6cec2d97a351"},"vehicle_type_id":"4","last_reported":1712599812,"current_range_meters":0,"station_id":"ce4bgjh2rcd13ifvqbg0","pricing_plan_id":"cebpf4jnsgd1na2vs0mg"},{"bike_id":"4ae15aa0-898e-4ece-b260-1eab1f06f4e8","system_id":"levelo_inurba_marseille","lat":43.311722,"lon":5.387247,"is_reserved":false,"is_disabled":false,"rental_uris":{"android":"levelo://app?vid=4ae15aa0-898e-4ece-b260-1eab1f06f4e8","ios":"levelo://app?vid=4ae15aa0-898e-4ece-b260-1eab1f06f4e8"},"vehicle_type_id":"4","last_reported":1712599812,"current_range_meters":13600,"station_id":"ce4bgv12rcd13ifvqcp0","pricing_plan_id":"cebpf4jnsgd1na2vs0mg"},{"bike_id":"59abbf05-6e0c-4c1a-9b67-7ded6fecd59e","system_id":"levelo_inurba_marseille","lat":43.311722,"lon":5.387247,"is_reserved":false,"is_disabled":false,"rental_uris":{"android":"levelo://app?vid=59abbf05-6e0c-4c1a-9b67-7ded6fecd59e","ios":"levelo://app?vid=59abbf05-6e0c-4c1a-9b67-7ded6fecd59e"},"vehicle_type_id":"4","last_reported":1712599812,"current_range_meters":26000,"station_id":"ce4bgv12rcd13ifvqcp0","pricing_plan_id":"cebpf4jnsgd1na2vs0mg"},{"bike_id":"8c3596cd-836a-4aaa-a653-8f3650a245b9","system_id":"levelo_inurba_marseille","lat":43.299243,"lon":5.37481,"is_reserved":false,"is_disabled":false,"rental_uris":{"android":"levelo://app?vid=8c3596cd-836a-4aaa-a653-8f3650a245b9","ios":"levelo://app?vid=8c3596cd-836a-4aaa-a653-8f3650a245b9"},"vehicle_type_id":"4","last_reported":1712599812,"current_range_meters":8000,"station_id":"ce4bgjh2rcd13ifvqbg0","pricing_plan_id":"cebpf4jnsgd1na2vs0mg"},{"bike_id":"31aac7e7-e240-4ef1-9acd-6d6bde3002af","system_id":"levelo_inurba_marseille","lat":43.311722,"lon":5.387247,"is_reserved":false,"is_disabled":false,"rental_uris":{"android":"levelo://app?vid=31aac7e7-e240-4ef1-9acd-6d6bde3002af","ios":"levelo://app?vid=31aac7e7-e240-4ef1-9acd-6d6bde3002af"},"vehicle_type_id":"4","last_reported":1712599812,"current_range_meters":20000,"station_id":"ce4bgv12rcd13ifvqcp0","pricing_plan_id":"cebpf4jnsgd1na2vs0mg"},{"bike_id":"c7d08f8d-0981-4f8e-9538-97ef78b3ff75","system_id":"levelo_inurba_marseille","lat":43.299243,"lon":5.37481,"is_reserved":false,"is_disabled":false,"rental_uris":{"android":"levelo://app?vid=c7d08f8d-0981-4f8e-9538-97ef78b3ff75","ios":"levelo://app?vid=c7d08f8d-0981-4f8e-9538-97ef78b3ff75"},"vehicle_type_id":"4","last_reported":1712599812,"current_range_meters":20800,"station_id":"ce4bgjh2rcd13ifvqbg0","pricing_plan_id":"cebpf4jnsgd1na2vs0mg"},{"bike_id":"f5dea193-adbf-4640-bce5-06c2f9ec5a2f","system_id":"levelo_inurba_marseille","lat":43.29789,"lon":5.37093,"is_reserved":false,"is_disabled":false,"rental_uris":{"android":"levelo://app?vid=f5dea193-adbf-4640-bce5-06c2f9ec5a2f","ios":"levelo://app?vid=f5dea193-adbf-4640-bce5-06c2f9ec5a2f"},"vehicle_type_id":"4","last_reported":1712599812,"current_range_meters":15200,"station_id":"ce4bgop2rcd13ifvqc1g","pricing_plan_id":"cebpf4jnsgd1na2vs0mg"},{"bike_id":"799925f5-c648-44be-ac82-671650db0f2e","system_id":"levelo_inurba_marseille","lat":43.297794,"lon":5.370888,"is_reserved":false,"is_disabled":false,"rental_uris":{"android":"levelo://app?vid=799925f5-c648-44be-ac82-671650db0f2e","ios":"levelo://app?vid=799925f5-c648-44be-ac82-671650db0f2e"},"vehicle_type_id":"4","last_reported":1712599812,"current_range_meters":2000,"station_id":"ce4bgop2rcd13ifvqc1g","pricing_plan_id":"cebpf4jnsgd1na2vs0mg"},{"bike_id":"4f6a2b4c-6725-485d-83c3-05cad3f78400","system_id":"levelo_inurba_marseille","lat":43.322872,"lon":5.382756,"is_reserved":false,"is_disabled":false,"rental_uris":{"android":"levelo://app?vid=4f6a2b4c-6725-485d-83c3-05cad3f78400","ios":"levelo://app?vid=4f6a2b4c-6725-485d-83c3-05cad3f78400"},"vehicle_type_id":"4","last_reported":1712599812,"current_range_meters":13600,"station_id":"ce4bhr12rcd13ifvqhqg","pricing_plan_id":"cebpf4jnsgd1na2vs0mg"},{"bike_id":"ac63ec27-45a0-478a-8117-f0a1a60b5bef","system_id":"levelo_inurba_marseille","lat":43.322872,"lon":5.382756,"is_reserved":false,"is_disabled":false,"rental_uris":{"android":"levelo://app?vid=ac63ec27-45a0-478a-8117-f0a1a60b5bef","ios":"levelo://app?vid=ac63ec27-45a0-478a-8117-f0a1a60b5bef"},"vehicle_type_id":"4","last_reported":1712599812,"current_range_meters":4400,"station_id":"ce4bhr12rcd13ifvqhqg","pricing_plan_id":"cebpf4jnsgd1na2vs0mg"},{"bike_id":"c6c56787-5af4-461a-a1fb-627309935cd3","system_id":"levelo_inurba_marseille","lat":43.322872,"lon":5.382756,"is_reserved":false,"is_disabled":false,"rental_uris":{"android":"levelo://app?vid=c6c56787-5af4-461a-a1fb-627309935cd3","ios":"levelo://app?vid=c6c56787-5af4-461a-a1fb-627309935cd3"},"vehicle_type_id":"4","last_reported":1712599812,"current_range_meters":22800,"station_id":"ce4bhr12rcd13ifvqhqg","pricing_plan_id":"cebpf4jnsgd1na2vs0mg"},{"bike_id":"ce262d47-6adc-4310-a652-b999cfa2d70d","system_id":"levelo_inurba_marseille","lat":43.322872,"lon":5.382756,"is_reserved":false,"is_disabled":false,"rental_uris":{"android":"levelo://app?vid=ce262d47-6adc-4310-a652-b999cfa2d70d","ios":"levelo://app?vid=ce262d47-6adc-4310-a652-b999cfa2d70d"},"vehicle_type_id":"4","last_reported":1712599812,"current_range_meters":7200,"station_id":"ce4bhr12rcd13ifvqhqg","pricing_plan_id":"cebpf4jnsgd1na2vs0mg"},{"bike_id":"96d52138-ce2e-44bd-be4c-0d59fc28ed5c","system_id":"levelo_inurba_marseille","lat":43.322872,"lon":5.382756,"is_reserved":false,"is_disabled":false,"rental_uris":{"android":"levelo://app?vid=96d52138-ce2e-44bd-be4c-0d59fc28ed5c","ios":"levelo://app?vid=96d52138-ce2e-44bd-be4c-0d59fc28ed5c"},"vehicle_type_id":"4","last_reported":1712599812,"current_range_meters":0,"station_id":"ce4bhr12rcd13ifvqhqg","pricing_plan_id":"cebpf4jnsgd1na2vs0mg"},{"bike_id":"29397e76-5613-4003-8850-c20ebf434ead","system_id":"levelo_inurba_marseille","lat":43.322872,"lon":5.382756,"is_reserved":false,"is_disabled":false,"rental_uris":{"android":"levelo://app?vid=29397e76-5613-4003-8850-c20ebf434ead","ios":"levelo://app?vid=29397e76-5613-4003-8850-c20ebf434ead"},"vehicle_type_id":"4","last_reported":1712599812,"current_range_meters":11600,"station_id":"ce4bhr12rcd13ifvqhqg","pricing_plan_id":"cebpf4jnsgd1na2vs0mg"},{"bike_id":"79a09dc1-a136-4553-b035-ca9b20a658e5","system_id":"levelo_inurba_marseille","lat":43.30181,"lon":5.3818,"is_reserved":false,"is_disabled":false,"rental_uris":{"android":"levelo://app?vid=79a09dc1-a136-4553-b035-ca9b20a658e5","ios":"levelo://app?vid=79a09dc1-a136-4553-b035-ca9b20a658e5"},"vehicle_type_id":"4","last_reported":1712599812,"current_range_meters":0,"station_id":"","pricing_plan_id":"cebpf4jnsgd1na2vs0mg"},{"bike_id":"6e186319-5ac5-4ef5-bab0-b0b2fdc5694b","system_id":"levelo_inurba_marseille","lat":43.297794,"lon":5.370888,"is_reserved":false,"is_disabled":false,"rental_uris":{"android":"levelo://app?vid=6e186319-5ac5-4ef5-bab0-b0b2fdc5694b","ios":"levelo://app?vid=6e186319-5ac5-4ef5-bab0-b0b2fdc5694b"},"vehicle_type_id":"4","last_reported":1712599812,"current_range_meters":0,"station_id":"ce4bgop2rcd13ifvqc1g","pricing_plan_id":"cebpf4jnsgd1na2vs0mg"},{"bike_id":"6ed423b1-be09-49fa-806a-b1fc1e21aa67","system_id":"levelo_inurba_marseille","lat":43.2971,"lon":5.36605,"is_reserved":false,"is_disabled":false,"rental_uris":{"android":"levelo://app?vid=6ed423b1-be09-49fa-806a-b1fc1e21aa67","ios":"levelo://app?vid=6ed423b1-be09-49fa-806a-b1fc1e21aa67"},"vehicle_type_id":"4","last_reported":1712599812,"current_range_meters":31200,"station_id":"ce4bgn12rcd13ifvqbt0","pricing_plan_id":"cebpf4jnsgd1na2vs0mg"},{"bike_id":"7ff1eb5a-c423-4af5-ad19-30b95f6fa57d","system_id":"levelo_inurba_marseille","lat":43.29881,"lon":5.37689,"is_reserved":false,"is_disabled":false,"rental_uris":{"android":"levelo://app?vid=7ff1eb5a-c423-4af5-ad19-30b95f6fa57d","ios":"levelo://app?vid=7ff1eb5a-c423-4af5-ad19-30b95f6fa57d"},"vehicle_type_id":"4","last_reported":1712599812,"current_range_meters":5600,"station_id":"","pricing_plan_id":"cebpf4jnsgd1na2vs0mg"},{"bike_id":"7995b250-e1c2-45d2-b9cf-d3e930477b12","system_id":"levelo_inurba_marseille","lat":43.297163,"lon":5.365866,"is_reserved":false,"is_disabled":false,"rental_uris":{"android":"levelo://app?vid=7995b250-e1c2-45d2-b9cf-d3e930477b12","ios":"levelo://app?vid=7995b250-e1c2-45d2-b9cf-d3e930477b12"},"vehicle_type_id":"4","last_reported":1712599812,"current_range_meters":1600,"station_id":"ce4bgn12rcd13ifvqbt0","pricing_plan_id":"cebpf4jnsgd1na2vs0mg"},{"bike_id":"d44e4084-2160-47b2-8213-66aa5b4802d6","system_id":"levelo_inurba_marseille","lat":43.2968,"lon":5.37291,"is_reserved":false,"is_disabled":false,"rental_uris":{"android":"levelo://app?vid=d44e4084-2160-47b2-8213-66aa5b4802d6","ios":"levelo://app?vid=d44e4084-2160-47b2-8213-66aa5b4802d6"},"vehicle_type_id":"4","last_reported":1712599812,"current_range_meters":25600,"station_id":"ce4bgk12rcd13ifvqbj0","pricing_plan_id":"cebpf4jnsgd1na2vs0mg"},{"bike_id":"a4111219-8fec-42a3-b4ea-4109b8e3f792","system_id":"levelo_inurba_marseille","lat":43.2968,"lon":5.37291,"is_reserved":false,"is_disabled":false,"rental_uris":{"android":"levelo://app?vid=a4111219-8fec-42a3-b4ea-4109b8e3f792","ios":"levelo://app?vid=a4111219-8fec-42a3-b4ea-4109b8e3f792"},"vehicle_type_id":"4","last_reported":1712599812,"current_range_meters":4800,"station_id":"ce4bgk12rcd13ifvqbj0","pricing_plan_id":"cebpf4jnsgd1na2vs0mg"},{"bike_id":"dd692633-99ef-407f-9f10-22ecca086c93","system_id":"levelo_inurba_marseille","lat":43.2968,"lon":5.37291,"is_reserved":false,"is_disabled":false,"rental_uris":{"android":"levelo://app?vid=dd692633-99ef-407f-9f10-22ecca086c93","ios":"levelo://app?vid=dd692633-99ef-407f-9f10-22ecca086c93"},"vehicle_type_id":"4","last_reported":1712599812,"current_range_meters":2000,"station_id":"ce4bgk12rcd13ifvqbj0","pricing_plan_id":"cebpf4jnsgd1na2vs0mg"},{"bike_id":"ac0c4403-49a7-4a49-b1c5-ce2e006c29a3","system_id":"levelo_inurba_marseille","lat":43.296131,"lon":5.370773,"is_reserved":false,"is_disabled":false,"rental_uris":{"android":"levelo://app?vid=ac0c4403-49a7-4a49-b1c5-ce2e006c29a3","ios":"levelo://app?vid=ac0c4403-49a7-4a49-b1c5-ce2e006c29a3"},"vehicle_type_id":"4","last_reported":1712599812,"current_range_meters":26800,"station_id":"ce4bgnh2rcd13ifvqc0g","pricing_plan_id":"cebpf4jnsgd1na2vs0mg"},{"bike_id":"f3261959-6e46-4ad5-955c-b0e72d7a7aa8","system_id":"levelo_inurba_marseille","lat":43.29714,"lon":5.37686,"is_reserved":false,"is_disabled":false,"rental_uris":{"android":"levelo://app?vid=f3261959-6e46-4ad5-955c-b0e72d7a7aa8","ios":"levelo://app?vid=f3261959-6e46-4ad5-955c-b0e72d7a7aa8"},"vehicle_type_id":"4","last_reported":1712599812,"current_range_meters":0,"station_id":"ce4bgkh2rcd13ifvqbl0","pricing_plan_id":"cebpf4jnsgd1na2vs0mg"},{"bike_id":"95acabba-85c6-4ab5-93e4-7fdaeab2d4a7","system_id":"levelo_inurba_marseille","lat":43.299028,"lon":5.381509,"is_reserved":false,"is_disabled":false,"rental_uris":{"android":"levelo://app?vid=95acabba-85c6-4ab5-93e4-7fdaeab2d4a7","ios":"levelo://app?vid=95acabba-85c6-4ab5-93e4-7fdaeab2d4a7"},"vehicle_type_id":"4","last_reported":1712599812,"current_range_meters":0,"station_id":"ce4bgj12rcd13ifvqbc0","pricing_plan_id":"cebpf4jnsgd1na2vs0mg"},{"bike_id":"5cb60bde-c0ea-4e41-8298-d316c2da09fc","system_id":"levelo_inurba_marseille","lat":43.309589,"lon":5.390258,"is_reserved":false,"is_disabled":false,"rental_uris":{"android":"levelo://app?vid=5cb60bde-c0ea-4e41-8298-d316c2da09fc","ios":"levelo://app?vid=5cb60bde-c0ea-4e41-8298-d316c2da09fc"},"vehicle_type_id":"4","last_reported":1712599812,"current_range_meters":19600,"station_id":"ce4bgup2rcd13ifvqco0","pricing_plan_id":"cebpf4jnsgd1na2vs0mg"},{"bike_id":"3aa51378-4a45-4e8c-a155-0ad68c37a88d","system_id":"levelo_inurba_marseille","lat":43.30953,"lon":5.390295,"is_reserved":false,"is_disabled":false,"rental_uris":{"android":"levelo://app?vid=3aa51378-4a45-4e8c-a155-0ad68c37a88d","ios":"levelo://app?vid=3aa51378-4a45-4e8c-a155-0ad68c37a88d"},"vehicle_type_id":"4","last_reported":1712599812,"current_range_meters":0,"station_id":"ce4bgup2rcd13ifvqco0","pricing_plan_id":"cebpf4jnsgd1na2vs0mg"},{"bike_id":"587edd40-7fba-458a-b5bf-a6d7503a44f9","system_id":"levelo_inurba_marseille","lat":43.317557,"lon":5.390173,"is_reserved":false,"is_disabled":false,"rental_uris":{"android":"levelo://app?vid=587edd40-7fba-458a-b5bf-a6d7503a44f9","ios":"levelo://app?vid=587edd40-7fba-458a-b5bf-a6d7503a44f9"},"vehicle_type_id":"4","last_reported":1712599812,"current_range_meters":20000,"station_id":"ce4bhqp2rcd13ifvqhng","pricing_plan_id":"cebpf4jnsgd1na2vs0mg"},{"bike_id":"af06a410-9f8e-4f24-9d3d-fa170e58df09","system_id":"levelo_inurba_marseille","lat":43.317557,"lon":5.390173,"is_reserved":false,"is_disabled":false,"rental_uris":{"android":"levelo://app?vid=af06a410-9f8e-4f24-9d3d-fa170e58df09","ios":"levelo://app?vid=af06a410-9f8e-4f24-9d3d-fa170e58df09"},"vehicle_type_id":"4","last_reported":1712599812,"current_range_meters":14400,"station_id":"ce4bhqp2rcd13ifvqhng","pricing_plan_id":"cebpf4jnsgd1na2vs0mg"},{"bike_id":"f4a95c0f-ef1a-4f66-aa4a-ff3b986d9d8e","system_id":"levelo_inurba_marseille","lat":43.298037,"lon":5.381066,"is_reserved":false,"is_disabled":false,"rental_uris":{"android":"levelo://app?vid=f4a95c0f-ef1a-4f66-aa4a-ff3b986d9d8e","ios":"levelo://app?vid=f4a95c0f-ef1a-4f66-aa4a-ff3b986d9d8e"},"vehicle_type_id":"4","last_reported":1712599812,"current_range_meters":12800,"station_id":"ce4bgip2rcd13ifvqbb0","pricing_plan_id":"cebpf4jnsgd1na2vs0mg"},{"bike_id":"94192563-6e1e-4c9f-b28d-576ac42b79da","system_id":"levelo_inurba_marseille","lat":43.29579,"lon":5.37519,"is_reserved":false,"is_disabled":false,"rental_uris":{"android":"levelo://app?vid=94192563-6e1e-4c9f-b28d-576ac42b79da","ios":"levelo://app?vid=94192563-6e1e-4c9f-b28d-576ac42b79da"},"vehicle_type_id":"4","last_reported":1712599812,"current_range_meters":0,"station_id":"ce4bgh92rcd13ifvqb50","pricing_plan_id":"cebpf4jnsgd1na2vs0mg"},{"bike_id":"2fd42b58-2d89-4eb4-9c52-6e32ffef6faa","system_id":"levelo_inurba_marseille","lat":43.30436,"lon":5.38885,"is_reserved":false,"is_disabled":false,"rental_uris":{"android":"levelo://app?vid=2fd42b58-2d89-4eb4-9c52-6e32ffef6faa","ios":"levelo://app?vid=2fd42b58-2d89-4eb4-9c52-6e32ffef6faa"},"vehicle_type_id":"4","last_reported":1712599812,"current_range_meters":0,"station_id":"ce4bgk12rcd13ifvqbi0","pricing_plan_id":"cebpf4jnsgd1na2vs0mg"},{"bike_id":"b9ae6dcb-5639-403d-9fcd-743f67e523cb","system_id":"levelo_inurba_marseille","lat":43.299724,"lon":5.371829,"is_reserved":false,"is_disabled":false,"rental_uris":{"android":"levelo://app?vid=b9ae6dcb-5639-403d-9fcd-743f67e523cb","ios":"levelo://app?vid=b9ae6dcb-5639-403d-9fcd-743f67e523cb"},"vehicle_type_id":"4","last_reported":1712599812,"current_range_meters":20800,"station_id":"ce4bgr92rcd13ifvqc7g","pricing_plan_id":"cebpf4jnsgd1na2vs0mg"},{"bike_id":"be7e2c0e-e453-4600-a86c-e36fed677e97","system_id":"levelo_inurba_marseille","lat":43.298037,"lon":5.381066,"is_reserved":false,"is_disabled":false,"rental_uris":{"android":"levelo://app?vid=be7e2c0e-e453-4600-a86c-e36fed677e97","ios":"levelo://app?vid=be7e2c0e-e453-4600-a86c-e36fed677e97"},"vehicle_type_id":"4","last_reported":1712599812,"current_range_meters":17200,"station_id":"ce4bgip2rcd13ifvqbb0","pricing_plan_id":"cebpf4jnsgd1na2vs0mg"},{"bike_id":"8cf5643c-5537-4a8b-b2a2-02db61ac7a9e","system_id":"levelo_inurba_marseille","lat":43.30427,"lon":5.38882,"is_reserved":false,"is_disabled":false,"rental_uris":{"android":"levelo://app?vid=8cf5643c-5537-4a8b-b2a2-02db61ac7a9e","ios":"levelo://app?vid=8cf5643c-5537-4a8b-b2a2-02db61ac7a9e"},"vehicle_type_id":"4","last_reported":1712599812,"current_range_meters":21200,"station_id":"ce4bgk12rcd13ifvqbi0","pricing_plan_id":"cebpf4jnsgd1na2vs0mg"},{"bike_id":"727d6e30-ed46-4a87-8a8a-e40ecbba1d85","system_id":"levelo_inurba_marseille","lat":43.29569,"lon":5.37504,"is_reserved":false,"is_disabled":false,"rental_uris":{"android":"levelo://app?vid=727d6e30-ed46-4a87-8a8a-e40ecbba1d85","ios":"levelo://app?vid=727d6e30-ed46-4a87-8a8a-e40ecbba1d85"},"vehicle_type_id":"4","last_reported":1712599812,"current_range_meters":0,"station_id":"ce4bgh92rcd13ifvqb50","pricing_plan_id":"cebpf4jnsgd1na2vs0mg"},{"bike_id":"b84c8f41-2500-4a23-b06d-5f824fa359e2","system_id":"levelo_inurba_marseille","lat":43.30432,"lon":5.38886,"is_reserved":false,"is_disabled":false,"rental_uris":{"android":"levelo://app?vid=b84c8f41-2500-4a23-b06d-5f824fa359e2","ios":"levelo://app?vid=b84c8f41-2500-4a23-b06d-5f824fa359e2"},"vehicle_type_id":"4","last_reported":1712599812,"current_range_meters":0,"station_id":"ce4bgk12rcd13ifvqbi0","pricing_plan_id":"cebpf4jnsgd1na2vs0mg"},{"bike_id":"5d307d47-228a-4d1d-b8e6-12319c1fb7eb","system_id":"levelo_inurba_marseille","lat":43.296277,"lon":5.377108,"is_reserved":false,"is_disabled":false,"rental_uris":{"android":"levelo://app?vid=5d307d47-228a-4d1d-b8e6-12319c1fb7eb","ios":"levelo://app?vid=5d307d47-228a-4d1d-b8e6-12319c1fb7eb"},"vehicle_type_id":"4","last_reported":1712599812,"current_range_meters":0,"station_id":"ce4bgi92rcd13ifvqb90","pricing_plan_id":"cebpf4jnsgd1na2vs0mg"},{"bike_id":"6bf268ec-f7b1-423c-97d5-634bc95a61f6","system_id":"levelo_inurba_marseille","lat":43.296,"lon":5.3766,"is_reserved":false,"is_disabled":false,"rental_uris":{"android":"levelo://app?vid=6bf268ec-f7b1-423c-97d5-634bc95a61f6","ios":"levelo://app?vid=6bf268ec-f7b1-423c-97d5-634bc95a61f6"},"vehicle_type_id":"4","last_reported":1712599812,"current_range_meters":0,"station_id":"","pricing_plan_id":"cebpf4jnsgd1na2vs0mg"},{"bike_id":"b273c6d3-d42f-4840-bacd-cb0e6ebfc406","system_id":"levelo_inurba_marseille","lat":43.304278,"lon":5.388868,"is_reserved":false,"is_disabled":false,"rental_uris":{"android":"levelo://app?vid=b273c6d3-d42f-4840-bacd-cb0e6ebfc406","ios":"levelo://app?vid=b273c6d3-d42f-4840-bacd-cb0e6ebfc406"},"vehicle_type_id":"4","last_reported":1712599812,"current_range_meters":0,"station_id":"ce4bgk12rcd13ifvqbi0","pricing_plan_id":"cebpf4jnsgd1na2vs0mg"},{"bike_id":"5da06e51-5cd1-4743-8c99-5e7883bff94c","system_id":"levelo_inurba_marseille","lat":43.296263,"lon":5.377094,"is_reserved":false,"is_disabled":false,"rental_uris":{"android":"levelo://app?vid=5da06e51-5cd1-4743-8c99-5e7883bff94c","ios":"levelo://app?vid=5da06e51-5cd1-4743-8c99-5e7883bff94c"},"vehicle_type_id":"4","last_reported":1712599812,"current_range_meters":21600,"station_id":"ce4bgi92rcd13ifvqb90","pricing_plan_id":"cebpf4jnsgd1na2vs0mg"},{"bike_id":"52700cac-0bc2-4faa-9735-b1eb0f293fba","system_id":"levelo_inurba_marseille","lat":43.296277,"lon":5.377108,"is_reserved":false,"is_disabled":false,"rental_uris":{"android":"levelo://app?vid=52700cac-0bc2-4faa-9735-b1eb0f293fba","ios":"levelo://app?vid=52700cac-0bc2-4faa-9735-b1eb0f293fba"},"vehicle_type_id":"4","last_reported":1712599812,"current_range_meters":28400,"station_id":"ce4bgi92rcd13ifvqb90","pricing_plan_id":"cebpf4jnsgd1na2vs0mg"},{"bike_id":"61052a03-562e-429d-ac7f-d20375a2c756","system_id":"levelo_inurba_marseille","lat":43.29541,"lon":5.37512,"is_reserved":false,"is_disabled":false,"rental_uris":{"android":"levelo://app?vid=61052a03-562e-429d-ac7f-d20375a2c756","ios":"levelo://app?vid=61052a03-562e-429d-ac7f-d20375a2c756"},"vehicle_type_id":"4","last_reported":1712599812,"current_range_meters":4000,"station_id":"ce4bgkp2rcd13ifvqbmg","pricing_plan_id":"cebpf4jnsgd1na2vs0mg"},{"bike_id":"174aa527-e090-43ea-9bff-3b881e889c11","system_id":"levelo_inurba_marseille","lat":43.29978,"lon":5.38488,"is_reserved":false,"is_disabled":false,"rental_uris":{"android":"levelo://app?vid=174aa527-e090-43ea-9bff-3b881e889c11","ios":"levelo://app?vid=174aa527-e090-43ea-9bff-3b881e889c11"},"vehicle_type_id":"4","last_reported":1712599812,"current_range_meters":0,"station_id":"ce4bgj92rcd13ifvqbd0","pricing_plan_id":"cebpf4jnsgd1na2vs0mg"},{"bike_id":"9f0db5cc-edfc-4e18-920e-bc4c0be3e8b8","system_id":"levelo_inurba_marseille","lat":43.299707,"lon":5.384859,"is_reserved":false,"is_disabled":false,"rental_uris":{"android":"levelo://app?vid=9f0db5cc-edfc-4e18-920e-bc4c0be3e8b8","ios":"levelo://app?vid=9f0db5cc-edfc-4e18-920e-bc4c0be3e8b8"},"vehicle_type_id":"4","last_reported":1712599812,"current_range_meters":0,"station_id":"ce4bgj92rcd13ifvqbd0","pricing_plan_id":"cebpf4jnsgd1na2vs0mg"},{"bike_id":"dec90b39-65f2-4db1-b247-ab59f24e154c","system_id":"levelo_inurba_marseille","lat":43.29525,"lon":5.37501,"is_reserved":false,"is_disabled":false,"rental_uris":{"android":"levelo://app?vid=dec90b39-65f2-4db1-b247-ab59f24e154c","ios":"levelo://app?vid=dec90b39-65f2-4db1-b247-ab59f24e154c"},"vehicle_type_id":"4","last_reported":1712599812,"current_range_meters":9200,"station_id":"","pricing_plan_id":"cebpf4jnsgd1na2vs0mg"},{"bike_id":"fa0d53da-368a-4453-b781-535466e9b8df","system_id":"levelo_inurba_marseille","lat":43.29976,"lon":5.38496,"is_reserved":false,"is_disabled":false,"rental_uris":{"android":"levelo://app?vid=fa0d53da-368a-4453-b781-535466e9b8df","ios":"levelo://app?vid=fa0d53da-368a-4453-b781-535466e9b8df"},"vehicle_type_id":"4","last_reported":1712599812,"current_range_meters":0,"station_id":"ce4bgj92rcd13ifvqbd0","pricing_plan_id":"cebpf4jnsgd1na2vs0mg"},{"bike_id":"4778c562-dde3-4904-916b-ddd9ee349cd0","system_id":"levelo_inurba_marseille","lat":43.299724,"lon":5.371829,"is_reserved":false,"is_disabled":false,"rental_uris":{"android":"levelo://app?vid=4778c562-dde3-4904-916b-ddd9ee349cd0","ios":"levelo://app?vid=4778c562-dde3-4904-916b-ddd9ee349cd0"},"vehicle_type_id":"4","last_reported":1712599812,"current_range_meters":2000,"station_id":"ce4bgr92rcd13ifvqc7g","pricing_plan_id":"cebpf4jnsgd1na2vs0mg"},{"bike_id":"c499be3d-9b9a-4218-866b-358714c3c35b","system_id":"levelo_inurba_marseille","lat":43.2997,"lon":5.38508,"is_reserved":false,"is_disabled":false,"rental_uris":{"android":"levelo://app?vid=c499be3d-9b9a-4218-866b-358714c3c35b","ios":"levelo://app?vid=c499be3d-9b9a-4218-866b-358714c3c35b"},"vehicle_type_id":"4","last_reported":1712599812,"current_range_meters":0,"station_id":"ce4bgj92rcd13ifvqbd0","pricing_plan_id":"cebpf4jnsgd1na2vs0mg"},{"bike_id":"cf7c3a65-a9a3-4c0e-8772-1185ce5182f1","system_id":"levelo_inurba_marseille","lat":43.29966,"lon":5.38504,"is_reserved":false,"is_disabled":false,"rental_uris":{"android":"levelo://app?vid=cf7c3a65-a9a3-4c0e-8772-1185ce5182f1","ios":"levelo://app?vid=cf7c3a65-a9a3-4c0e-8772-1185ce5182f1"},"vehicle_type_id":"4","last_reported":1712599812,"current_range_meters":0,"station_id":"ce4bgj92rcd13ifvqbd0","pricing_plan_id":"cebpf4jnsgd1na2vs0mg"},{"bike_id":"94b3ea6d-4c7b-4cdf-8b9b-dff69ae0d5c3","system_id":"levelo_inurba_marseille","lat":43.29962,"lon":5.38502,"is_reserved":false,"is_disabled":false,"rental_uris":{"android":"levelo://app?vid=94b3ea6d-4c7b-4cdf-8b9b-dff69ae0d5c3","ios":"levelo://app?vid=94b3ea6d-4c7b-4cdf-8b9b-dff69ae0d5c3"},"vehicle_type_id":"4","last_reported":1712599812,"current_range_meters":0,"station_id":"ce4bgj92rcd13ifvqbd0","pricing_plan_id":"cebpf4jnsgd1na2vs0mg"},{"bike_id":"aad2cb04-de95-4178-bf68-90cf1fad8a74","system_id":"levelo_inurba_marseille","lat":43.32367,"lon":5.388836,"is_reserved":false,"is_disabled":false,"rental_uris":{"android":"levelo://app?vid=aad2cb04-de95-4178-bf68-90cf1fad8a74","ios":"levelo://app?vid=aad2cb04-de95-4178-bf68-90cf1fad8a74"},"vehicle_type_id":"4","last_reported":1712599812,"current_range_meters":0,"station_id":"ce4bhqp2rcd13ifvqhog","pricing_plan_id":"cebpf4jnsgd1na2vs0mg"},{"bike_id":"9f441b43-073d-4751-84a7-21ae295fba2c","system_id":"levelo_inurba_marseille","lat":43.32367,"lon":5.388836,"is_reserved":false,"is_disabled":false,"rental_uris":{"android":"levelo://app?vid=9f441b43-073d-4751-84a7-21ae295fba2c","ios":"levelo://app?vid=9f441b43-073d-4751-84a7-21ae295fba2c"},"vehicle_type_id":"4","last_reported":1712599812,"current_range_meters":0,"station_id":"ce4bhqp2rcd13ifvqhog","pricing_plan_id":"cebpf4jnsgd1na2vs0mg"},{"bike_id":"dcd69add-925b-484b-978b-109fcb780328","system_id":"levelo_inurba_marseille","lat":43.32367,"lon":5.388836,"is_reserved":false,"is_disabled":false,"rental_uris":{"android":"levelo://app?vid=dcd69add-925b-484b-978b-109fcb780328","ios":"levelo://app?vid=dcd69add-925b-484b-978b-109fcb780328"},"vehicle_type_id":"4","last_reported":1712599812,"current_range_meters":14000,"station_id":"ce4bhqp2rcd13ifvqhog","pricing_plan_id":"cebpf4jnsgd1na2vs0mg"},{"bike_id":"79ac4474-b669-4542-8fc8-a6d0381c92c0","system_id":"levelo_inurba_marseille","lat":43.32367,"lon":5.388836,"is_reserved":false,"is_disabled":false,"rental_uris":{"android":"levelo://app?vid=79ac4474-b669-4542-8fc8-a6d0381c92c0","ios":"levelo://app?vid=79ac4474-b669-4542-8fc8-a6d0381c92c0"},"vehicle_type_id":"4","last_reported":1712599812,"current_range_meters":0,"station_id":"ce4bhqp2rcd13ifvqhog","pricing_plan_id":"cebpf4jnsgd1na2vs0mg"},{"bike_id":"1f1b903e-cf22-444a-b1de-aebf4807bebd","system_id":"levelo_inurba_marseille","lat":43.29602,"lon":5.381084,"is_reserved":false,"is_disabled":false,"rental_uris":{"android":"levelo://app?vid=1f1b903e-cf22-444a-b1de-aebf4807bebd","ios":"levelo://app?vid=1f1b903e-cf22-444a-b1de-aebf4807bebd"},"vehicle_type_id":"4","last_reported":1712599812,"current_range_meters":3600,"station_id":"ce4bgl12rcd13ifvqbo0","pricing_plan_id":"cebpf4jnsgd1na2vs0mg"},{"bike_id":"e0227968-a14e-43ac-b7d6-ecd922e7e186","system_id":"levelo_inurba_marseille","lat":43.31412,"lon":5.39418,"is_reserved":false,"is_disabled":false,"rental_uris":{"android":"levelo://app?vid=e0227968-a14e-43ac-b7d6-ecd922e7e186","ios":"levelo://app?vid=e0227968-a14e-43ac-b7d6-ecd922e7e186"},"vehicle_type_id":"4","last_reported":1712599812,"current_range_meters":29600,"station_id":"","pricing_plan_id":"cebpf4jnsgd1na2vs0mg"},{"bike_id":"726ccfb5-b449-4154-8249-7dbcc719921e","system_id":"levelo_inurba_marseille","lat":43.293259,"lon":5.371586,"is_reserved":false,"is_disabled":false,"rental_uris":{"android":"levelo://app?vid=726ccfb5-b449-4154-8249-7dbcc719921e","ios":"levelo://app?vid=726ccfb5-b449-4154-8249-7dbcc719921e"},"vehicle_type_id":"4","last_reported":1712599812,"current_range_meters":0,"station_id":"ce4bgh92rcd13ifvqb40","pricing_plan_id":"cebpf4jnsgd1na2vs0mg"},{"bike_id":"642c66f6-de16-4339-a1d0-15b8d68f8684","system_id":"levelo_inurba_marseille","lat":43.29305,"lon":5.37175,"is_reserved":false,"is_disabled":false,"rental_uris":{"android":"levelo://app?vid=642c66f6-de16-4339-a1d0-15b8d68f8684","ios":"levelo://app?vid=642c66f6-de16-4339-a1d0-15b8d68f8684"},"vehicle_type_id":"4","last_reported":1712599812,"current_range_meters":0,"station_id":"ce4bgh92rcd13ifvqb40","pricing_plan_id":"cebpf4jnsgd1na2vs0mg"},{"bike_id":"631ed5ba-119a-4c1e-8ac2-c0b49a3ce3ff","system_id":"levelo_inurba_marseille","lat":43.29272,"lon":5.36839,"is_reserved":false,"is_disabled":false,"rental_uris":{"android":"levelo://app?vid=631ed5ba-119a-4c1e-8ac2-c0b49a3ce3ff","ios":"levelo://app?vid=631ed5ba-119a-4c1e-8ac2-c0b49a3ce3ff"},"vehicle_type_id":"4","last_reported":1712599812,"current_range_meters":0,"station_id":"ce4bhbp2rcd13ifvqesg","pricing_plan_id":"cebpf4jnsgd1na2vs0mg"},{"bike_id":"de4a28c7-37a9-4737-97f1-d2494e5e82bd","system_id":"levelo_inurba_marseille","lat":43.292749,"lon":5.368402,"is_reserved":false,"is_disabled":false,"rental_uris":{"android":"levelo://app?vid=de4a28c7-37a9-4737-97f1-d2494e5e82bd","ios":"levelo://app?vid=de4a28c7-37a9-4737-97f1-d2494e5e82bd"},"vehicle_type_id":"4","last_reported":1712599812,"current_range_meters":0,"station_id":"ce4bhbp2rcd13ifvqesg","pricing_plan_id":"cebpf4jnsgd1na2vs0mg"},{"bike_id":"ef018fde-33e1-4fba-a006-15d5c0d6ecd1","system_id":"levelo_inurba_marseille","lat":43.29303,"lon":5.37455,"is_reserved":false,"is_disabled":false,"rental_uris":{"android":"levelo://app?vid=ef018fde-33e1-4fba-a006-15d5c0d6ecd1","ios":"levelo://app?vid=ef018fde-33e1-4fba-a006-15d5c0d6ecd1"},"vehicle_type_id":"4","last_reported":1712599812,"current_range_meters":0,"station_id":"ce4bgi12rcd13ifvqb70","pricing_plan_id":"cebpf4jnsgd1na2vs0mg"},{"bike_id":"1bac67cf-ff65-4498-8de5-3c4c51dd7226","system_id":"levelo_inurba_marseille","lat":43.305994,"lon":5.393687,"is_reserved":false,"is_disabled":false,"rental_uris":{"android":"levelo://app?vid=1bac67cf-ff65-4498-8de5-3c4c51dd7226","ios":"levelo://app?vid=1bac67cf-ff65-4498-8de5-3c4c51dd7226"},"vehicle_type_id":"4","last_reported":1712599812,"current_range_meters":0,"station_id":"ce4bh0p2rcd13ifvqd80","pricing_plan_id":"cebpf4jnsgd1na2vs0mg"},{"bike_id":"7637eef5-b93a-4559-b23e-f5a6c57e3852","system_id":"levelo_inurba_marseille","lat":43.29298,"lon":5.37457,"is_reserved":false,"is_disabled":false,"rental_uris":{"android":"levelo://app?vid=7637eef5-b93a-4559-b23e-f5a6c57e3852","ios":"levelo://app?vid=7637eef5-b93a-4559-b23e-f5a6c57e3852"},"vehicle_type_id":"4","last_reported":1712599812,"current_range_meters":0,"station_id":"ce4bgi12rcd13ifvqb70","pricing_plan_id":"cebpf4jnsgd1na2vs0mg"},{"bike_id":"5473dfee-5bd7-402a-ba6d-203690827309","system_id":"levelo_inurba_marseille","lat":43.302992,"lon":5.392136,"is_reserved":false,"is_disabled":false,"rental_uris":{"android":"levelo://app?vid=5473dfee-5bd7-402a-ba6d-203690827309","ios":"levelo://app?vid=5473dfee-5bd7-402a-ba6d-203690827309"},"vehicle_type_id":"4","last_reported":1712599812,"current_range_meters":800,"station_id":"ce4bgkh2rcd13ifvqbk0","pricing_plan_id":"cebpf4jnsgd1na2vs0mg"},{"bike_id":"2741bb6c-4cb2-443d-8918-037c435ebc61","system_id":"levelo_inurba_marseille","lat":43.303002,"lon":5.392142,"is_reserved":false,"is_disabled":false,"rental_uris":{"android":"levelo://app?vid=2741bb6c-4cb2-443d-8918-037c435ebc61","ios":"levelo://app?vid=2741bb6c-4cb2-443d-8918-037c435ebc61"},"vehicle_type_id":"4","last_reported":1712599812,"current_range_meters":24000,"station_id":"ce4bgkh2rcd13ifvqbk0","pricing_plan_id":"cebpf4jnsgd1na2vs0mg"},{"bike_id":"000b7d7c-6156-4252-b75e-9431596c1361","system_id":"levelo_inurba_marseille","lat":43.297946,"lon":5.404063,"is_reserved":false,"is_disabled":false,"rental_uris":{"android":"levelo://app?vid=000b7d7c-6156-4252-b75e-9431596c1361","ios":"levelo://app?vid=000b7d7c-6156-4252-b75e-9431596c1361"},"vehicle_type_id":"4","last_reported":1712599812,"current_range_meters":0,"station_id":"ce4bh112rcd13ifvqd90","pricing_plan_id":"cebpf4jnsgd1na2vs0mg"},{"bike_id":"b2e7a531-f96b-4bdb-a8e7-6e58cf2de5e8","system_id":"levelo_inurba_marseille","lat":43.302992,"lon":5.392136,"is_reserved":false,"is_disabled":false,"rental_uris":{"android":"levelo://app?vid=b2e7a531-f96b-4bdb-a8e7-6e58cf2de5e8","ios":"levelo://app?vid=b2e7a531-f96b-4bdb-a8e7-6e58cf2de5e8"},"vehicle_type_id":"4","last_reported":1712599812,"current_range_meters":5200,"station_id":"ce4bgkh2rcd13ifvqbk0","pricing_plan_id":"cebpf4jnsgd1na2vs0mg"},{"bike_id":"f3952e01-0027-44f9-b99b-a8c1036b64b2","system_id":"levelo_inurba_marseille","lat":43.302992,"lon":5.392136,"is_reserved":false,"is_disabled":false,"rental_uris":{"android":"levelo://app?vid=f3952e01-0027-44f9-b99b-a8c1036b64b2","ios":"levelo://app?vid=f3952e01-0027-44f9-b99b-a8c1036b64b2"},"vehicle_type_id":"4","last_reported":1712599812,"current_range_meters":5200,"station_id":"ce4bgkh2rcd13ifvqbk0","pricing_plan_id":"cebpf4jnsgd1na2vs0mg"},{"bike_id":"5df5b54d-750e-4e71-a626-bb8723e67b03","system_id":"levelo_inurba_marseille","lat":43.30298,"lon":5.39209,"is_reserved":false,"is_disabled":false,"rental_uris":{"android":"levelo://app?vid=5df5b54d-750e-4e71-a626-bb8723e67b03","ios":"levelo://app?vid=5df5b54d-750e-4e71-a626-bb8723e67b03"},"vehicle_type_id":"4","last_reported":1712599812,"current_range_meters":0,"station_id":"ce4bgkh2rcd13ifvqbk0","pricing_plan_id":"cebpf4jnsgd1na2vs0mg"},{"bike_id":"5bc166ae-0383-47ec-b497-a5e5792d717b","system_id":"levelo_inurba_marseille","lat":43.302935,"lon":5.392098,"is_reserved":false,"is_disabled":false,"rental_uris":{"android":"levelo://app?vid=5bc166ae-0383-47ec-b497-a5e5792d717b","ios":"levelo://app?vid=5bc166ae-0383-47ec-b497-a5e5792d717b"},"vehicle_type_id":"4","last_reported":1712599812,"current_range_meters":0,"station_id":"ce4bgkh2rcd13ifvqbk0","pricing_plan_id":"cebpf4jnsgd1na2vs0mg"},{"bike_id":"5257aac5-829e-4dcc-ab82-71f5b13cb2ef","system_id":"levelo_inurba_marseille","lat":43.30298,"lon":5.39229,"is_reserved":false,"is_disabled":false,"rental_uris":{"android":"levelo://app?vid=5257aac5-829e-4dcc-ab82-71f5b13cb2ef","ios":"levelo://app?vid=5257aac5-829e-4dcc-ab82-71f5b13cb2ef"},"vehicle_type_id":"4","last_reported":1712599812,"current_range_meters":0,"station_id":"ce4bgkh2rcd13ifvqbk0","pricing_plan_id":"cebpf4jnsgd1na2vs0mg"},{"bike_id":"20803829-8354-4abc-aaca-9219874b534b","system_id":"levelo_inurba_marseille","lat":43.30091,"lon":5.39082,"is_reserved":false,"is_disabled":false,"rental_uris":{"android":"levelo://app?vid=20803829-8354-4abc-aaca-9219874b534b","ios":"levelo://app?vid=20803829-8354-4abc-aaca-9219874b534b"},"vehicle_type_id":"4","last_reported":1712599812,"current_range_meters":0,"station_id":"ce4bh192rcd13ifvqdb0","pricing_plan_id":"cebpf4jnsgd1na2vs0mg"},{"bike_id":"09e4dc26-0355-4cde-a4b4-830ca4996c0f","system_id":"levelo_inurba_marseille","lat":43.29222,"lon":5.36059,"is_reserved":false,"is_disabled":false,"rental_uris":{"android":"levelo://app?vid=09e4dc26-0355-4cde-a4b4-830ca4996c0f","ios":"levelo://app?vid=09e4dc26-0355-4cde-a4b4-830ca4996c0f"},"vehicle_type_id":"4","last_reported":1712599812,"current_range_meters":4400,"station_id":"cki0cbj6b192h4jlfktg","pricing_plan_id":"cebpf4jnsgd1na2vs0mg"},{"bike_id":"0946bab6-3858-4300-80df-6eebff4752fc","system_id":"levelo_inurba_marseille","lat":43.29224,"lon":5.36046,"is_reserved":false,"is_disabled":false,"rental_uris":{"android":"levelo://app?vid=0946bab6-3858-4300-80df-6eebff4752fc","ios":"levelo://app?vid=0946bab6-3858-4300-80df-6eebff4752fc"},"vehicle_type_id":"4","last_reported":1712599812,"current_range_meters":29600,"station_id":"ce4bhbh2rcd13ifvqeqg","pricing_plan_id":"cebpf4jnsgd1na2vs0mg"},{"bike_id":"fc116ca2-13b1-49d0-9547-dbbdc86666ab","system_id":"levelo_inurba_marseille","lat":43.2988,"lon":5.389,"is_reserved":false,"is_disabled":false,"rental_uris":{"android":"levelo://app?vid=fc116ca2-13b1-49d0-9547-dbbdc86666ab","ios":"levelo://app?vid=fc116ca2-13b1-49d0-9547-dbbdc86666ab"},"vehicle_type_id":"4","last_reported":1712599812,"current_range_meters":0,"station_id":"ce4bh392rcd13ifvqdl0","pricing_plan_id":"cebpf4jnsgd1na2vs0mg"},{"bike_id":"af8dd9ac-26b5-4278-9692-b144b0a2f6d3","system_id":"levelo_inurba_marseille","lat":43.298764,"lon":5.388973,"is_reserved":false,"is_disabled":false,"rental_uris":{"android":"levelo://app?vid=af8dd9ac-26b5-4278-9692-b144b0a2f6d3","ios":"levelo://app?vid=af8dd9ac-26b5-4278-9692-b144b0a2f6d3"},"vehicle_type_id":"4","last_reported":1712599812,"current_range_meters":0,"station_id":"ce4bh392rcd13ifvqdl0","pricing_plan_id":"cebpf4jnsgd1na2vs0mg"},{"bike_id":"80295071-4a1d-45ba-98bb-db5811f947ec","system_id":"levelo_inurba_marseille","lat":43.298655,"lon":5.389044,"is_reserved":false,"is_disabled":false,"rental_uris":{"android":"levelo://app?vid=80295071-4a1d-45ba-98bb-db5811f947ec","ios":"levelo://app?vid=80295071-4a1d-45ba-98bb-db5811f947ec"},"vehicle_type_id":"4","last_reported":1712599812,"current_range_meters":0,"station_id":"ce4bh392rcd13ifvqdl0","pricing_plan_id":"cebpf4jnsgd1na2vs0mg"},{"bike_id":"3e315390-0ceb-4817-9bf5-631366151c39","system_id":"levelo_inurba_marseille","lat":43.29866,"lon":5.38905,"is_reserved":false,"is_disabled":false,"rental_uris":{"android":"levelo://app?vid=3e315390-0ceb-4817-9bf5-631366151c39","ios":"levelo://app?vid=3e315390-0ceb-4817-9bf5-631366151c39"},"vehicle_type_id":"4","last_reported":1712599812,"current_range_meters":0,"station_id":"ce4bh392rcd13ifvqdl0","pricing_plan_id":"cebpf4jnsgd1na2vs0mg"},{"bike_id":"1d4bb2a6-0297-4311-8e65-a23b372657b5","system_id":"levelo_inurba_marseille","lat":43.30287,"lon":5.393003,"is_reserved":false,"is_disabled":false,"rental_uris":{"android":"levelo://app?vid=1d4bb2a6-0297-4311-8e65-a23b372657b5","ios":"levelo://app?vid=1d4bb2a6-0297-4311-8e65-a23b372657b5"},"vehicle_type_id":"4","last_reported":1712599812,"current_range_meters":28000,"station_id":"","pricing_plan_id":"cebpf4jnsgd1na2vs0mg"},{"bike_id":"444cddd7-2f95-4814-835c-2e817bf5fac0","system_id":"levelo_inurba_marseille","lat":43.29201,"lon":5.35782,"is_reserved":false,"is_disabled":false,"rental_uris":{"android":"levelo://app?vid=444cddd7-2f95-4814-835c-2e817bf5fac0","ios":"levelo://app?vid=444cddd7-2f95-4814-835c-2e817bf5fac0"},"vehicle_type_id":"4","last_reported":1712599812,"current_range_meters":0,"station_id":"ce4bhb12rcd13ifvqel0","pricing_plan_id":"cebpf4jnsgd1na2vs0mg"},{"bike_id":"071e913d-0d11-4420-ae0a-99cf6ad44387","system_id":"levelo_inurba_marseille","lat":43.291994,"lon":5.357886,"is_reserved":false,"is_disabled":false,"rental_uris":{"android":"levelo://app?vid=071e913d-0d11-4420-ae0a-99cf6ad44387","ios":"levelo://app?vid=071e913d-0d11-4420-ae0a-99cf6ad44387"},"vehicle_type_id":"4","last_reported":1712599812,"current_range_meters":11600,"station_id":"ce4bhb12rcd13ifvqel0","pricing_plan_id":"cebpf4jnsgd1na2vs0mg"},{"bike_id":"6aa6b6a0-81d1-47d4-b889-dbb19115fffb","system_id":"levelo_inurba_marseille","lat":43.309038,"lon":5.396546,"is_reserved":false,"is_disabled":false,"rental_uris":{"android":"levelo://app?vid=6aa6b6a0-81d1-47d4-b889-dbb19115fffb","ios":"levelo://app?vid=6aa6b6a0-81d1-47d4-b889-dbb19115fffb"},"vehicle_type_id":"4","last_reported":1712599812,"current_range_meters":8000,"station_id":"ce4bh012rcd13ifvqcv0","pricing_plan_id":"cebpf4jnsgd1na2vs0mg"},{"bike_id":"5633848a-14ef-4026-8e6b-df5baa139935","system_id":"levelo_inurba_marseille","lat":43.313291,"lon":5.396838,"is_reserved":false,"is_disabled":false,"rental_uris":{"android":"levelo://app?vid=5633848a-14ef-4026-8e6b-df5baa139935","ios":"levelo://app?vid=5633848a-14ef-4026-8e6b-df5baa139935"},"vehicle_type_id":"4","last_reported":1712599812,"current_range_meters":10000,"station_id":"ce4bgvp2rcd13ifvqcu0","pricing_plan_id":"cebpf4jnsgd1na2vs0mg"},{"bike_id":"3118be01-d314-4a1c-b937-b4fd183478e2","system_id":"levelo_inurba_marseille","lat":43.31326,"lon":5.39693,"is_reserved":false,"is_disabled":false,"rental_uris":{"android":"levelo://app?vid=3118be01-d314-4a1c-b937-b4fd183478e2","ios":"levelo://app?vid=3118be01-d314-4a1c-b937-b4fd183478e2"},"vehicle_type_id":"4","last_reported":1712599812,"current_range_meters":0,"station_id":"ce4bgvp2rcd13ifvqcu0","pricing_plan_id":"cebpf4jnsgd1na2vs0mg"},{"bike_id":"ed048514-7055-49f9-8b76-754cde3f3e05","system_id":"levelo_inurba_marseille","lat":43.31327,"lon":5.396933,"is_reserved":false,"is_disabled":false,"rental_uris":{"android":"levelo://app?vid=ed048514-7055-49f9-8b76-754cde3f3e05","ios":"levelo://app?vid=ed048514-7055-49f9-8b76-754cde3f3e05"},"vehicle_type_id":"4","last_reported":1712599812,"current_range_meters":2400,"station_id":"ce4bgvp2rcd13ifvqcu0","pricing_plan_id":"cebpf4jnsgd1na2vs0mg"},{"bike_id":"14260c90-f692-4e72-8ff4-d59e9ff4b4e6","system_id":"levelo_inurba_marseille","lat":43.291994,"lon":5.357886,"is_reserved":false,"is_disabled":false,"rental_uris":{"android":"levelo://app?vid=14260c90-f692-4e72-8ff4-d59e9ff4b4e6","ios":"levelo://app?vid=14260c90-f692-4e72-8ff4-d59e9ff4b4e6"},"vehicle_type_id":"4","last_reported":1712599812,"current_range_meters":11200,"station_id":"ce4bhb12rcd13ifvqel0","pricing_plan_id":"cebpf4jnsgd1na2vs0mg"},{"bike_id":"5433ff46-cfad-4b96-8ee3-fe4d50175ad7","system_id":"levelo_inurba_marseille","lat":43.297946,"lon":5.404063,"is_reserved":false,"is_disabled":false,"rental_uris":{"android":"levelo://app?vid=5433ff46-cfad-4b96-8ee3-fe4d50175ad7","ios":"levelo://app?vid=5433ff46-cfad-4b96-8ee3-fe4d50175ad7"},"vehicle_type_id":"4","last_reported":1712599812,"current_range_meters":0,"station_id":"ce4bh112rcd13ifvqd90","pricing_plan_id":"cebpf4jnsgd1na2vs0mg"},{"bike_id":"093a4445-8fa9-4769-a22f-fc3ff883f0a4","system_id":"levelo_inurba_marseille","lat":43.309038,"lon":5.396546,"is_reserved":false,"is_disabled":false,"rental_uris":{"android":"levelo://app?vid=093a4445-8fa9-4769-a22f-fc3ff883f0a4","ios":"levelo://app?vid=093a4445-8fa9-4769-a22f-fc3ff883f0a4"},"vehicle_type_id":"4","last_reported":1712599812,"current_range_meters":16400,"station_id":"ce4bh012rcd13ifvqcv0","pricing_plan_id":"cebpf4jnsgd1na2vs0mg"},{"bike_id":"667e46be-0222-4e1b-b2fc-4066e77011c5","system_id":"levelo_inurba_marseille","lat":43.295194,"lon":5.39397,"is_reserved":false,"is_disabled":false,"rental_uris":{"android":"levelo://app?vid=667e46be-0222-4e1b-b2fc-4066e77011c5","ios":"levelo://app?vid=667e46be-0222-4e1b-b2fc-4066e77011c5"},"vehicle_type_id":"4","last_reported":1712599812,"current_range_meters":5200,"station_id":"ce4bh292rcd13ifvqdf0","pricing_plan_id":"cebpf4jnsgd1na2vs0mg"},{"bike_id":"4d6a1fed-c56e-484a-a372-79da3b282752","system_id":"levelo_inurba_marseille","lat":43.309038,"lon":5.396546,"is_reserved":false,"is_disabled":false,"rental_uris":{"android":"levelo://app?vid=4d6a1fed-c56e-484a-a372-79da3b282752","ios":"levelo://app?vid=4d6a1fed-c56e-484a-a372-79da3b282752"},"vehicle_type_id":"4","last_reported":1712599812,"current_range_meters":30400,"station_id":"ce4bh012rcd13ifvqcv0","pricing_plan_id":"cebpf4jnsgd1na2vs0mg"},{"bike_id":"6ff720dc-122c-4fca-ad9f-94d334bc67ec","system_id":"levelo_inurba_marseille","lat":43.309038,"lon":5.396546,"is_reserved":false,"is_disabled":false,"rental_uris":{"android":"levelo://app?vid=6ff720dc-122c-4fca-ad9f-94d334bc67ec","ios":"levelo://app?vid=6ff720dc-122c-4fca-ad9f-94d334bc67ec"},"vehicle_type_id":"4","last_reported":1712599812,"current_range_meters":0,"station_id":"ce4bh012rcd13ifvqcv0","pricing_plan_id":"cebpf4jnsgd1na2vs0mg"},{"bike_id":"5158a80f-34db-476e-a3e5-992fb46c5cae","system_id":"levelo_inurba_marseille","lat":43.29529,"lon":5.385581,"is_reserved":false,"is_disabled":false,"rental_uris":{"android":"levelo://app?vid=5158a80f-34db-476e-a3e5-992fb46c5cae","ios":"levelo://app?vid=5158a80f-34db-476e-a3e5-992fb46c5cae"},"vehicle_type_id":"4","last_reported":1712599812,"current_range_meters":1200,"station_id":"ce4bgih2rcd13ifvqba0","pricing_plan_id":"cebpf4jnsgd1na2vs0mg"},{"bike_id":"7e6173e1-c51b-4dbf-84d7-39df2473f4ad","system_id":"levelo_inurba_marseille","lat":43.302008,"lon":5.394694,"is_reserved":false,"is_disabled":false,"rental_uris":{"android":"levelo://app?vid=7e6173e1-c51b-4dbf-84d7-39df2473f4ad","ios":"levelo://app?vid=7e6173e1-c51b-4dbf-84d7-39df2473f4ad"},"vehicle_type_id":"4","last_reported":1712599812,"current_range_meters":2800,"station_id":"ce4bh0p2rcd13ifvqd70","pricing_plan_id":"cebpf4jnsgd1na2vs0mg"},{"bike_id":"419d9f4a-100d-4617-950c-37f40b25a077","system_id":"levelo_inurba_marseille","lat":43.29529,"lon":5.385581,"is_reserved":false,"is_disabled":false,"rental_uris":{"android":"levelo://app?vid=419d9f4a-100d-4617-950c-37f40b25a077","ios":"levelo://app?vid=419d9f4a-100d-4617-950c-37f40b25a077"},"vehicle_type_id":"4","last_reported":1712599812,"current_range_meters":12000,"station_id":"ce4bgih2rcd13ifvqba0","pricing_plan_id":"cebpf4jnsgd1na2vs0mg"},{"bike_id":"01d00f02-b381-438d-8b8b-8872ed99b58d","system_id":"levelo_inurba_marseille","lat":43.29529,"lon":5.385581,"is_reserved":false,"is_disabled":false,"rental_uris":{"android":"levelo://app?vid=01d00f02-b381-438d-8b8b-8872ed99b58d","ios":"levelo://app?vid=01d00f02-b381-438d-8b8b-8872ed99b58d"},"vehicle_type_id":"4","last_reported":1712599812,"current_range_meters":800,"station_id":"ce4bgih2rcd13ifvqba0","pricing_plan_id":"cebpf4jnsgd1na2vs0mg"},{"bike_id":"274dda10-72c3-4875-ac2f-dd717e04e6dc","system_id":"levelo_inurba_marseille","lat":43.293551,"lon":5.382252,"is_reserved":false,"is_disabled":false,"rental_uris":{"android":"levelo://app?vid=274dda10-72c3-4875-ac2f-dd717e04e6dc","ios":"levelo://app?vid=274dda10-72c3-4875-ac2f-dd717e04e6dc"},"vehicle_type_id":"4","last_reported":1712599812,"current_range_meters":20800,"station_id":"","pricing_plan_id":"cebpf4jnsgd1na2vs0mg"},{"bike_id":"ebae679c-d7a6-4d2b-b94b-98d888b1c1cb","system_id":"levelo_inurba_marseille","lat":43.290779,"lon":5.371482,"is_reserved":false,"is_disabled":false,"rental_uris":{"android":"levelo://app?vid=ebae679c-d7a6-4d2b-b94b-98d888b1c1cb","ios":"levelo://app?vid=ebae679c-d7a6-4d2b-b94b-98d888b1c1cb"},"vehicle_type_id":"4","last_reported":1712599812,"current_range_meters":4800,"station_id":"ce4bh5p2rcd13ifvqe4g","pricing_plan_id":"cebpf4jnsgd1na2vs0mg"},{"bike_id":"4c87b1a3-1438-4332-83c6-307732a9c93e","system_id":"levelo_inurba_marseille","lat":43.30212,"lon":5.39452,"is_reserved":false,"is_disabled":false,"rental_uris":{"android":"levelo://app?vid=4c87b1a3-1438-4332-83c6-307732a9c93e","ios":"levelo://app?vid=4c87b1a3-1438-4332-83c6-307732a9c93e"},"vehicle_type_id":"4","last_reported":1712599812,"current_range_meters":0,"station_id":"ce4bh0p2rcd13ifvqd70","pricing_plan_id":"cebpf4jnsgd1na2vs0mg"},{"bike_id":"bcf49f17-a1c5-410b-bdbd-284068257f19","system_id":"levelo_inurba_marseille","lat":43.302008,"lon":5.394694,"is_reserved":false,"is_disabled":false,"rental_uris":{"android":"levelo://app?vid=bcf49f17-a1c5-410b-bdbd-284068257f19","ios":"levelo://app?vid=bcf49f17-a1c5-410b-bdbd-284068257f19"},"vehicle_type_id":"4","last_reported":1712599812,"current_range_meters":0,"station_id":"ce4bh0p2rcd13ifvqd70","pricing_plan_id":"cebpf4jnsgd1na2vs0mg"},{"bike_id":"b3f19d9c-e499-4cc4-a7cc-57b46614f619","system_id":"levelo_inurba_marseille","lat":43.302008,"lon":5.394694,"is_reserved":false,"is_disabled":false,"rental_uris":{"android":"levelo://app?vid=b3f19d9c-e499-4cc4-a7cc-57b46614f619","ios":"levelo://app?vid=b3f19d9c-e499-4cc4-a7cc-57b46614f619"},"vehicle_type_id":"4","last_reported":1712599812,"current_range_meters":7200,"station_id":"ce4bh0p2rcd13ifvqd70","pricing_plan_id":"cebpf4jnsgd1na2vs0mg"},{"bike_id":"555e8cab-ca60-4dbe-8f6e-035996ecaa81","system_id":"levelo_inurba_marseille","lat":43.302008,"lon":5.394694,"is_reserved":false,"is_disabled":false,"rental_uris":{"android":"levelo://app?vid=555e8cab-ca60-4dbe-8f6e-035996ecaa81","ios":"levelo://app?vid=555e8cab-ca60-4dbe-8f6e-035996ecaa81"},"vehicle_type_id":"4","last_reported":1712599812,"current_range_meters":6800,"station_id":"ce4bh0p2rcd13ifvqd70","pricing_plan_id":"cebpf4jnsgd1na2vs0mg"},{"bike_id":"56c5d986-e3ef-40f1-a44b-585c062dd327","system_id":"levelo_inurba_marseille","lat":43.302008,"lon":5.394694,"is_reserved":false,"is_disabled":false,"rental_uris":{"android":"levelo://app?vid=56c5d986-e3ef-40f1-a44b-585c062dd327","ios":"levelo://app?vid=56c5d986-e3ef-40f1-a44b-585c062dd327"},"vehicle_type_id":"4","last_reported":1712599812,"current_range_meters":5200,"station_id":"ce4bh0p2rcd13ifvqd70","pricing_plan_id":"cebpf4jnsgd1na2vs0mg"},{"bike_id":"77f57f05-b98d-4657-84e3-6cb8111e6525","system_id":"levelo_inurba_marseille","lat":43.302008,"lon":5.394694,"is_reserved":false,"is_disabled":false,"rental_uris":{"android":"levelo://app?vid=77f57f05-b98d-4657-84e3-6cb8111e6525","ios":"levelo://app?vid=77f57f05-b98d-4657-84e3-6cb8111e6525"},"vehicle_type_id":"4","last_reported":1712599812,"current_range_meters":8000,"station_id":"ce4bh0p2rcd13ifvqd70","pricing_plan_id":"cebpf4jnsgd1na2vs0mg"},{"bike_id":"1931621c-0351-4169-bc8a-0c417ed94aeb","system_id":"levelo_inurba_marseille","lat":43.302008,"lon":5.394694,"is_reserved":false,"is_disabled":false,"rental_uris":{"android":"levelo://app?vid=1931621c-0351-4169-bc8a-0c417ed94aeb","ios":"levelo://app?vid=1931621c-0351-4169-bc8a-0c417ed94aeb"},"vehicle_type_id":"4","last_reported":1712599812,"current_range_meters":14800,"station_id":"ce4bh0p2rcd13ifvqd70","pricing_plan_id":"cebpf4jnsgd1na2vs0mg"},{"bike_id":"1b7a2cd3-a445-4d89-af9c-c0fa8425d43a","system_id":"levelo_inurba_marseille","lat":43.302008,"lon":5.394694,"is_reserved":false,"is_disabled":false,"rental_uris":{"android":"levelo://app?vid=1b7a2cd3-a445-4d89-af9c-c0fa8425d43a","ios":"levelo://app?vid=1b7a2cd3-a445-4d89-af9c-c0fa8425d43a"},"vehicle_type_id":"4","last_reported":1712599812,"current_range_meters":3200,"station_id":"ce4bh0p2rcd13ifvqd70","pricing_plan_id":"cebpf4jnsgd1na2vs0mg"},{"bike_id":"ab6ffd5a-334f-4a75-a471-8e5e1bd8fef8","system_id":"levelo_inurba_marseille","lat":43.302008,"lon":5.394694,"is_reserved":false,"is_disabled":false,"rental_uris":{"android":"levelo://app?vid=ab6ffd5a-334f-4a75-a471-8e5e1bd8fef8","ios":"levelo://app?vid=ab6ffd5a-334f-4a75-a471-8e5e1bd8fef8"},"vehicle_type_id":"4","last_reported":1712599812,"current_range_meters":2000,"station_id":"ce4bh0p2rcd13ifvqd70","pricing_plan_id":"cebpf4jnsgd1na2vs0mg"},{"bike_id":"f418e5aa-3064-4293-9a53-27f2819b98cc","system_id":"levelo_inurba_marseille","lat":43.302008,"lon":5.394694,"is_reserved":false,"is_disabled":false,"rental_uris":{"android":"levelo://app?vid=f418e5aa-3064-4293-9a53-27f2819b98cc","ios":"levelo://app?vid=f418e5aa-3064-4293-9a53-27f2819b98cc"},"vehicle_type_id":"4","last_reported":1712599812,"current_range_meters":6400,"station_id":"ce4bh0p2rcd13ifvqd70","pricing_plan_id":"cebpf4jnsgd1na2vs0mg"},{"bike_id":"eb61a74a-e18d-49b0-8cbc-50243481f9c6","system_id":"levelo_inurba_marseille","lat":43.290451,"lon":5.359168,"is_reserved":false,"is_disabled":false,"rental_uris":{"android":"levelo://app?vid=eb61a74a-e18d-49b0-8cbc-50243481f9c6","ios":"levelo://app?vid=eb61a74a-e18d-49b0-8cbc-50243481f9c6"},"vehicle_type_id":"4","last_reported":1712599812,"current_range_meters":0,"station_id":"ce4bha92rcd13ifvqeg0","pricing_plan_id":"cebpf4jnsgd1na2vs0mg"},{"bike_id":"88997815-330c-43db-be80-20007b3a0166","system_id":"levelo_inurba_marseille","lat":43.299724,"lon":5.384848,"is_reserved":false,"is_disabled":false,"rental_uris":{"android":"levelo://app?vid=88997815-330c-43db-be80-20007b3a0166","ios":"levelo://app?vid=88997815-330c-43db-be80-20007b3a0166"},"vehicle_type_id":"4","last_reported":1712599812,"current_range_meters":12400,"station_id":"ce4bgj92rcd13ifvqbd0","pricing_plan_id":"cebpf4jnsgd1na2vs0mg"},{"bike_id":"bde8acf2-c297-451a-b68b-532a6991d30c","system_id":"levelo_inurba_marseille","lat":43.294153,"lon":5.386305,"is_reserved":false,"is_disabled":false,"rental_uris":{"android":"levelo://app?vid=bde8acf2-c297-451a-b68b-532a6991d30c","ios":"levelo://app?vid=bde8acf2-c297-451a-b68b-532a6991d30c"},"vehicle_type_id":"4","last_reported":1712599812,"current_range_meters":0,"station_id":"ce4bh2h2rcd13ifvqdh0","pricing_plan_id":"cebpf4jnsgd1na2vs0mg"},{"bike_id":"524c9230-8add-422f-848c-5252721d9a2b","system_id":"levelo_inurba_marseille","lat":43.289383,"lon":5.366387,"is_reserved":false,"is_disabled":false,"rental_uris":{"android":"levelo://app?vid=524c9230-8add-422f-848c-5252721d9a2b","ios":"levelo://app?vid=524c9230-8add-422f-848c-5252721d9a2b"},"vehicle_type_id":"4","last_reported":1712599812,"current_range_meters":2000,"station_id":"ce4bhap2rcd13ifvqek0","pricing_plan_id":"cebpf4jnsgd1na2vs0mg"},{"bike_id":"1d0ee22d-e451-438f-a27b-9c37d9f52489","system_id":"levelo_inurba_marseille","lat":43.28937,"lon":5.36643,"is_reserved":false,"is_disabled":false,"rental_uris":{"android":"levelo://app?vid=1d0ee22d-e451-438f-a27b-9c37d9f52489","ios":"levelo://app?vid=1d0ee22d-e451-438f-a27b-9c37d9f52489"},"vehicle_type_id":"4","last_reported":1712599812,"current_range_meters":1200,"station_id":"ce4bhap2rcd13ifvqek0","pricing_plan_id":"cebpf4jnsgd1na2vs0mg"},{"bike_id":"39cb5ce1-e527-4ae9-927e-cafd658fa45d","system_id":"levelo_inurba_marseille","lat":43.289468,"lon":5.363719,"is_reserved":false,"is_disabled":false,"rental_uris":{"android":"levelo://app?vid=39cb5ce1-e527-4ae9-927e-cafd658fa45d","ios":"levelo://app?vid=39cb5ce1-e527-4ae9-927e-cafd658fa45d"},"vehicle_type_id":"4","last_reported":1712599812,"current_range_meters":800,"station_id":"ce4bhc92rcd13ifvqetg","pricing_plan_id":"cebpf4jnsgd1na2vs0mg"},{"bike_id":"71c06bb1-c306-48b5-b093-b8e1fd44a278","system_id":"levelo_inurba_marseille","lat":43.289184,"lon":5.366408,"is_reserved":false,"is_disabled":false,"rental_uris":{"android":"levelo://app?vid=71c06bb1-c306-48b5-b093-b8e1fd44a278","ios":"levelo://app?vid=71c06bb1-c306-48b5-b093-b8e1fd44a278"},"vehicle_type_id":"4","last_reported":1712599812,"current_range_meters":10400,"station_id":"ce4bhap2rcd13ifvqek0","pricing_plan_id":"cebpf4jnsgd1na2vs0mg"},{"bike_id":"f8e27adb-0a1a-4d3d-a8e2-5910215c0b1b","system_id":"levelo_inurba_marseille","lat":43.289184,"lon":5.366408,"is_reserved":false,"is_disabled":false,"rental_uris":{"android":"levelo://app?vid=f8e27adb-0a1a-4d3d-a8e2-5910215c0b1b","ios":"levelo://app?vid=f8e27adb-0a1a-4d3d-a8e2-5910215c0b1b"},"vehicle_type_id":"4","last_reported":1712599812,"current_range_meters":10800,"station_id":"ce4bhap2rcd13ifvqek0","pricing_plan_id":"cebpf4jnsgd1na2vs0mg"},{"bike_id":"63ac70dc-2f69-4dda-8998-887a5cd6ad5f","system_id":"levelo_inurba_marseille","lat":43.289468,"lon":5.363719,"is_reserved":false,"is_disabled":false,"rental_uris":{"android":"levelo://app?vid=63ac70dc-2f69-4dda-8998-887a5cd6ad5f","ios":"levelo://app?vid=63ac70dc-2f69-4dda-8998-887a5cd6ad5f"},"vehicle_type_id":"4","last_reported":1712599812,"current_range_meters":0,"station_id":"ce4bhc92rcd13ifvqetg","pricing_plan_id":"cebpf4jnsgd1na2vs0mg"},{"bike_id":"0ca518de-0c17-4372-be23-1a3dbacd103a","system_id":"levelo_inurba_marseille","lat":43.29408,"lon":5.38635,"is_reserved":false,"is_disabled":false,"rental_uris":{"android":"levelo://app?vid=0ca518de-0c17-4372-be23-1a3dbacd103a","ios":"levelo://app?vid=0ca518de-0c17-4372-be23-1a3dbacd103a"},"vehicle_type_id":"4","last_reported":1712599812,"current_range_meters":0,"station_id":"ce4bh2h2rcd13ifvqdh0","pricing_plan_id":"cebpf4jnsgd1na2vs0mg"},{"bike_id":"f3ad1dec-cf6a-41bf-877d-6bc9ec01145e","system_id":"levelo_inurba_marseille","lat":43.289184,"lon":5.366408,"is_reserved":false,"is_disabled":false,"rental_uris":{"android":"levelo://app?vid=f3ad1dec-cf6a-41bf-877d-6bc9ec01145e","ios":"levelo://app?vid=f3ad1dec-cf6a-41bf-877d-6bc9ec01145e"},"vehicle_type_id":"4","last_reported":1712599812,"current_range_meters":10400,"station_id":"ce4bhap2rcd13ifvqek0","pricing_plan_id":"cebpf4jnsgd1na2vs0mg"},{"bike_id":"2b4ae900-7bfa-4a79-a072-acc54c50dbb8","system_id":"levelo_inurba_marseille","lat":43.289184,"lon":5.366408,"is_reserved":false,"is_disabled":false,"rental_uris":{"android":"levelo://app?vid=2b4ae900-7bfa-4a79-a072-acc54c50dbb8","ios":"levelo://app?vid=2b4ae900-7bfa-4a79-a072-acc54c50dbb8"},"vehicle_type_id":"4","last_reported":1712599812,"current_range_meters":0,"station_id":"ce4bhap2rcd13ifvqek0","pricing_plan_id":"cebpf4jnsgd1na2vs0mg"},{"bike_id":"5cc5c4cc-484b-4f74-b803-6658b9539f92","system_id":"levelo_inurba_marseille","lat":43.28931,"lon":5.36629,"is_reserved":false,"is_disabled":false,"rental_uris":{"android":"levelo://app?vid=5cc5c4cc-484b-4f74-b803-6658b9539f92","ios":"levelo://app?vid=5cc5c4cc-484b-4f74-b803-6658b9539f92"},"vehicle_type_id":"4","last_reported":1712599812,"current_range_meters":0,"station_id":"ce4bhap2rcd13ifvqek0","pricing_plan_id":"cebpf4jnsgd1na2vs0mg"},{"bike_id":"f8efb249-7aff-4cf1-a88c-203d681a3112","system_id":"levelo_inurba_marseille","lat":43.2894,"lon":5.364004,"is_reserved":false,"is_disabled":false,"rental_uris":{"android":"levelo://app?vid=f8efb249-7aff-4cf1-a88c-203d681a3112","ios":"levelo://app?vid=f8efb249-7aff-4cf1-a88c-203d681a3112"},"vehicle_type_id":"4","last_reported":1712599812,"current_range_meters":0,"station_id":"ce4bhc92rcd13ifvqetg","pricing_plan_id":"cebpf4jnsgd1na2vs0mg"},{"bike_id":"6c9cb723-1b92-434c-a304-9ab7ff29bbc2","system_id":"levelo_inurba_marseille","lat":43.289468,"lon":5.363719,"is_reserved":false,"is_disabled":false,"rental_uris":{"android":"levelo://app?vid=6c9cb723-1b92-434c-a304-9ab7ff29bbc2","ios":"levelo://app?vid=6c9cb723-1b92-434c-a304-9ab7ff29bbc2"},"vehicle_type_id":"4","last_reported":1712599812,"current_range_meters":2800,"station_id":"ce4bhc92rcd13ifvqetg","pricing_plan_id":"cebpf4jnsgd1na2vs0mg"},{"bike_id":"bbd1934b-b700-4571-b740-d76143490722","system_id":"levelo_inurba_marseille","lat":43.28935,"lon":5.36396,"is_reserved":false,"is_disabled":false,"rental_uris":{"android":"levelo://app?vid=bbd1934b-b700-4571-b740-d76143490722","ios":"levelo://app?vid=bbd1934b-b700-4571-b740-d76143490722"},"vehicle_type_id":"4","last_reported":1712599812,"current_range_meters":0,"station_id":"ce4bhc92rcd13ifvqetg","pricing_plan_id":"cebpf4jnsgd1na2vs0mg"},{"bike_id":"903870ec-4aee-4411-9bf4-7dba342e5076","system_id":"levelo_inurba_marseille","lat":43.304274,"lon":5.397513,"is_reserved":false,"is_disabled":false,"rental_uris":{"android":"levelo://app?vid=903870ec-4aee-4411-9bf4-7dba342e5076","ios":"levelo://app?vid=903870ec-4aee-4411-9bf4-7dba342e5076"},"vehicle_type_id":"4","last_reported":1712599812,"current_range_meters":26400,"station_id":"ce4bh092rcd13ifvqd20","pricing_plan_id":"cebpf4jnsgd1na2vs0mg"},{"bike_id":"56522278-18f7-47d9-b206-6b1ff0cd588f","system_id":"levelo_inurba_marseille","lat":43.304296,"lon":5.397513,"is_reserved":false,"is_disabled":false,"rental_uris":{"android":"levelo://app?vid=56522278-18f7-47d9-b206-6b1ff0cd588f","ios":"levelo://app?vid=56522278-18f7-47d9-b206-6b1ff0cd588f"},"vehicle_type_id":"4","last_reported":1712599812,"current_range_meters":12000,"station_id":"ce4bh092rcd13ifvqd20","pricing_plan_id":"cebpf4jnsgd1na2vs0mg"},{"bike_id":"64e82244-0ea1-4319-8137-23ee1fad6489","system_id":"levelo_inurba_marseille","lat":43.292567,"lon":5.384387,"is_reserved":false,"is_disabled":false,"rental_uris":{"android":"levelo://app?vid=64e82244-0ea1-4319-8137-23ee1fad6489","ios":"levelo://app?vid=64e82244-0ea1-4319-8137-23ee1fad6489"},"vehicle_type_id":"4","last_reported":1712599812,"current_range_meters":0,"station_id":"ce4bh692rcd13ifvqea0","pricing_plan_id":"cebpf4jnsgd1na2vs0mg"},{"bike_id":"a2ee9f8d-ff7e-4ca6-a539-fc331e4b7481","system_id":"levelo_inurba_marseille","lat":43.290104,"lon":5.356111,"is_reserved":false,"is_disabled":false,"rental_uris":{"android":"levelo://app?vid=a2ee9f8d-ff7e-4ca6-a539-fc331e4b7481","ios":"levelo://app?vid=a2ee9f8d-ff7e-4ca6-a539-fc331e4b7481"},"vehicle_type_id":"4","last_reported":1712599812,"current_range_meters":8800,"station_id":"ce4bhb92rcd13ifvqen0","pricing_plan_id":"cebpf4jnsgd1na2vs0mg"},{"bike_id":"f9aba8d0-bfd2-400c-86b1-7f49a77a1eac","system_id":"levelo_inurba_marseille","lat":43.290995,"lon":5.381361,"is_reserved":false,"is_disabled":false,"rental_uris":{"android":"levelo://app?vid=f9aba8d0-bfd2-400c-86b1-7f49a77a1eac","ios":"levelo://app?vid=f9aba8d0-bfd2-400c-86b1-7f49a77a1eac"},"vehicle_type_id":"4","last_reported":1712599812,"current_range_meters":0,"station_id":"ce4bh512rcd13ifvqe2g","pricing_plan_id":"cebpf4jnsgd1na2vs0mg"},{"bike_id":"603703af-5208-455e-8ce1-282ec94e3e77","system_id":"levelo_inurba_marseille","lat":43.29536,"lon":5.39026,"is_reserved":false,"is_disabled":false,"rental_uris":{"android":"levelo://app?vid=603703af-5208-455e-8ce1-282ec94e3e77","ios":"levelo://app?vid=603703af-5208-455e-8ce1-282ec94e3e77"},"vehicle_type_id":"4","last_reported":1712599812,"current_range_meters":0,"station_id":"ce4bh3p2rcd13ifvqdp0","pricing_plan_id":"cebpf4jnsgd1na2vs0mg"},{"bike_id":"2446d8d9-2b44-443b-84b5-05905276e91b","system_id":"levelo_inurba_marseille","lat":43.295169,"lon":5.390426,"is_reserved":false,"is_disabled":false,"rental_uris":{"android":"levelo://app?vid=2446d8d9-2b44-443b-84b5-05905276e91b","ios":"levelo://app?vid=2446d8d9-2b44-443b-84b5-05905276e91b"},"vehicle_type_id":"4","last_reported":1712599812,"current_range_meters":0,"station_id":"ce4bh3p2rcd13ifvqdp0","pricing_plan_id":"cebpf4jnsgd1na2vs0mg"},{"bike_id":"53d0d9de-7436-43e5-868c-5adbc9bd4da0","system_id":"levelo_inurba_marseille","lat":43.297815,"lon":5.393548,"is_reserved":false,"is_disabled":false,"rental_uris":{"android":"levelo://app?vid=53d0d9de-7436-43e5-868c-5adbc9bd4da0","ios":"levelo://app?vid=53d0d9de-7436-43e5-868c-5adbc9bd4da0"},"vehicle_type_id":"4","last_reported":1712599812,"current_range_meters":21600,"station_id":"chh1huq6cuj3fo74tm60","pricing_plan_id":"cebpf4jnsgd1na2vs0mg"},{"bike_id":"5e31d99c-cf82-413d-8493-a58bd719f97b","system_id":"levelo_inurba_marseille","lat":43.2979,"lon":5.39338,"is_reserved":false,"is_disabled":false,"rental_uris":{"android":"levelo://app?vid=5e31d99c-cf82-413d-8493-a58bd719f97b","ios":"levelo://app?vid=5e31d99c-cf82-413d-8493-a58bd719f97b"},"vehicle_type_id":"4","last_reported":1712599812,"current_range_meters":0,"station_id":"chh1huq6cuj3fo74tm60","pricing_plan_id":"cebpf4jnsgd1na2vs0mg"},{"bike_id":"82d5c063-5b06-44e8-b101-a1220db0361b","system_id":"levelo_inurba_marseille","lat":43.295169,"lon":5.390426,"is_reserved":false,"is_disabled":false,"rental_uris":{"android":"levelo://app?vid=82d5c063-5b06-44e8-b101-a1220db0361b","ios":"levelo://app?vid=82d5c063-5b06-44e8-b101-a1220db0361b"},"vehicle_type_id":"4","last_reported":1712599812,"current_range_meters":800,"station_id":"ce4bh3p2rcd13ifvqdp0","pricing_plan_id":"cebpf4jnsgd1na2vs0mg"},{"bike_id":"4e6abbb4-813e-40d4-86f5-616e618951d5","system_id":"levelo_inurba_marseille","lat":43.29795,"lon":5.39349,"is_reserved":false,"is_disabled":false,"rental_uris":{"android":"levelo://app?vid=4e6abbb4-813e-40d4-86f5-616e618951d5","ios":"levelo://app?vid=4e6abbb4-813e-40d4-86f5-616e618951d5"},"vehicle_type_id":"4","last_reported":1712599812,"current_range_meters":0,"station_id":"","pricing_plan_id":"cebpf4jnsgd1na2vs0mg"},{"bike_id":"c3529814-9e58-4e14-ab8a-2813545f9713","system_id":"levelo_inurba_marseille","lat":43.29784,"lon":5.39349,"is_reserved":false,"is_disabled":false,"rental_uris":{"android":"levelo://app?vid=c3529814-9e58-4e14-ab8a-2813545f9713","ios":"levelo://app?vid=c3529814-9e58-4e14-ab8a-2813545f9713"},"vehicle_type_id":"4","last_reported":1712599812,"current_range_meters":12000,"station_id":"chh1huq6cuj3fo74tm60","pricing_plan_id":"cebpf4jnsgd1na2vs0mg"},{"bike_id":"45c69e9f-1abe-43cf-9814-6cd7e31d3b3c","system_id":"levelo_inurba_marseille","lat":43.295169,"lon":5.390426,"is_reserved":false,"is_disabled":false,"rental_uris":{"android":"levelo://app?vid=45c69e9f-1abe-43cf-9814-6cd7e31d3b3c","ios":"levelo://app?vid=45c69e9f-1abe-43cf-9814-6cd7e31d3b3c"},"vehicle_type_id":"4","last_reported":1712599812,"current_range_meters":10800,"station_id":"ce4bh3p2rcd13ifvqdp0","pricing_plan_id":"cebpf4jnsgd1na2vs0mg"},{"bike_id":"d844d631-661f-445e-9004-ea71ddecdcb4","system_id":"levelo_inurba_marseille","lat":43.330442,"lon":5.389148,"is_reserved":false,"is_disabled":false,"rental_uris":{"android":"levelo://app?vid=d844d631-661f-445e-9004-ea71ddecdcb4","ios":"levelo://app?vid=d844d631-661f-445e-9004-ea71ddecdcb4"},"vehicle_type_id":"4","last_reported":1712599812,"current_range_meters":10000,"station_id":"ce4bhr92rcd13ifvqhrg","pricing_plan_id":"cebpf4jnsgd1na2vs0mg"},{"bike_id":"87f9f66e-8dcd-4600-a2ec-f5cbc8639142","system_id":"levelo_inurba_marseille","lat":43.295169,"lon":5.390426,"is_reserved":false,"is_disabled":false,"rental_uris":{"android":"levelo://app?vid=87f9f66e-8dcd-4600-a2ec-f5cbc8639142","ios":"levelo://app?vid=87f9f66e-8dcd-4600-a2ec-f5cbc8639142"},"vehicle_type_id":"4","last_reported":1712599812,"current_range_meters":8400,"station_id":"ce4bh3p2rcd13ifvqdp0","pricing_plan_id":"cebpf4jnsgd1na2vs0mg"},{"bike_id":"736ead59-4476-48c1-b4b1-2d186d41e456","system_id":"levelo_inurba_marseille","lat":43.295169,"lon":5.390426,"is_reserved":false,"is_disabled":false,"rental_uris":{"android":"levelo://app?vid=736ead59-4476-48c1-b4b1-2d186d41e456","ios":"levelo://app?vid=736ead59-4476-48c1-b4b1-2d186d41e456"},"vehicle_type_id":"4","last_reported":1712599812,"current_range_meters":20800,"station_id":"ce4bh3p2rcd13ifvqdp0","pricing_plan_id":"cebpf4jnsgd1na2vs0mg"},{"bike_id":"947df8f3-dc66-4447-8f27-8045bb3c8b36","system_id":"levelo_inurba_marseille","lat":43.330442,"lon":5.389148,"is_reserved":false,"is_disabled":false,"rental_uris":{"android":"levelo://app?vid=947df8f3-dc66-4447-8f27-8045bb3c8b36","ios":"levelo://app?vid=947df8f3-dc66-4447-8f27-8045bb3c8b36"},"vehicle_type_id":"4","last_reported":1712599812,"current_range_meters":31600,"station_id":"ce4bhr92rcd13ifvqhrg","pricing_plan_id":"cebpf4jnsgd1na2vs0mg"},{"bike_id":"26e67832-7195-4c60-a634-8c1555d164e9","system_id":"levelo_inurba_marseille","lat":43.295227,"lon":5.39035,"is_reserved":false,"is_disabled":false,"rental_uris":{"android":"levelo://app?vid=26e67832-7195-4c60-a634-8c1555d164e9","ios":"levelo://app?vid=26e67832-7195-4c60-a634-8c1555d164e9"},"vehicle_type_id":"4","last_reported":1712599812,"current_range_meters":21600,"station_id":"ce4bh3p2rcd13ifvqdp0","pricing_plan_id":"cebpf4jnsgd1na2vs0mg"},{"bike_id":"6644b7ff-a469-4d8f-b1cf-77d9f1528d46","system_id":"levelo_inurba_marseille","lat":43.33025,"lon":5.3904,"is_reserved":false,"is_disabled":false,"rental_uris":{"android":"levelo://app?vid=6644b7ff-a469-4d8f-b1cf-77d9f1528d46","ios":"levelo://app?vid=6644b7ff-a469-4d8f-b1cf-77d9f1528d46"},"vehicle_type_id":"4","last_reported":1712599812,"current_range_meters":21200,"station_id":"ce4bhr92rcd13ifvqhrg","pricing_plan_id":"cebpf4jnsgd1na2vs0mg"},{"bike_id":"7d80a595-9b5b-43c3-a409-ee5a6e0581c4","system_id":"levelo_inurba_marseille","lat":43.28974,"lon":5.37837,"is_reserved":false,"is_disabled":false,"rental_uris":{"android":"levelo://app?vid=7d80a595-9b5b-43c3-a409-ee5a6e0581c4","ios":"levelo://app?vid=7d80a595-9b5b-43c3-a409-ee5a6e0581c4"},"vehicle_type_id":"4","last_reported":1712599812,"current_range_meters":0,"station_id":"ce4bh9p2rcd13ifvqed0","pricing_plan_id":"cebpf4jnsgd1na2vs0mg"},{"bike_id":"3e127a67-d8ff-4fcc-a7de-47f56b7bc850","system_id":"levelo_inurba_marseille","lat":43.295169,"lon":5.390426,"is_reserved":false,"is_disabled":false,"rental_uris":{"android":"levelo://app?vid=3e127a67-d8ff-4fcc-a7de-47f56b7bc850","ios":"levelo://app?vid=3e127a67-d8ff-4fcc-a7de-47f56b7bc850"},"vehicle_type_id":"4","last_reported":1712599812,"current_range_meters":22800,"station_id":"ce4bh3p2rcd13ifvqdp0","pricing_plan_id":"cebpf4jnsgd1na2vs0mg"},{"bike_id":"9f6562ba-def4-4fa3-9075-558dd025cfed","system_id":"levelo_inurba_marseille","lat":43.330442,"lon":5.389148,"is_reserved":false,"is_disabled":false,"rental_uris":{"android":"levelo://app?vid=9f6562ba-def4-4fa3-9075-558dd025cfed","ios":"levelo://app?vid=9f6562ba-def4-4fa3-9075-558dd025cfed"},"vehicle_type_id":"4","last_reported":1712599812,"current_range_meters":20800,"station_id":"ce4bhr92rcd13ifvqhrg","pricing_plan_id":"cebpf4jnsgd1na2vs0mg"},{"bike_id":"ab53ab35-ca1b-48c3-8517-9b396b7ab134","system_id":"levelo_inurba_marseille","lat":43.33025,"lon":5.39043,"is_reserved":false,"is_disabled":false,"rental_uris":{"android":"levelo://app?vid=ab53ab35-ca1b-48c3-8517-9b396b7ab134","ios":"levelo://app?vid=ab53ab35-ca1b-48c3-8517-9b396b7ab134"},"vehicle_type_id":"4","last_reported":1712599812,"current_range_meters":4400,"station_id":"ce4bhr92rcd13ifvqhrg","pricing_plan_id":"cebpf4jnsgd1na2vs0mg"},