{"last_updated":1684879598,"ttl":30,"version":"2.2","data":{"bikes":[{"bike_id":"a9051c4c-5466-452f-b57d-88d35b3823e7","system_id":"levelo_inurba_marseille","lat":43.312239,"lon":5.368562,"is_reserved":false,"is_disabled":false,"rental_uris":{"android":"levelo://app?vid=a9051c4c-5466-452f-b57d-88d35b3823e7","ios":"levelo://app?vid=a9051c4c-5466-452f-b57d-88d35b3823e7"},"vehicle_type_id":"4","last_reported":1684879599,"current_range_meters":0,"station_id":"ce4bgl92rcd13ifvqbq0","pricing_plan_id":"free"},{"bike_id":"51d799d3-359d-446e-bbbe-e29c92e6ef68","system_id":"levelo_inurba_marseille","lat":43.312239,"lon":5.368562,"is_reserved":false,"is_disabled":false,"rental_uris":{"android":"levelo://app?vid=51d799d3-359d-446e-bbbe-e29c92e6ef68","ios":"levelo://app?vid=51d799d3-359d-446e-bbbe-e29c92e6ef68"},"vehicle_type_id":"4","last_reported":1684879599,"current_range_meters":31200,"station_id":"ce4bgl92rcd13ifvqbq0","pricing_plan_id":"free"},{"bike_id":"41892a07-6a1f-4061-ab05-7c3547d27e02","system_id":"levelo_inurba_marseille","lat":43.312239,"lon":5.368562,"is_reserved":false,"is_disabled":false,"rental_uris":{"android":"levelo://app?vid=41892a07-6a1f-4061-ab05-7c3547d27e02","ios":"levelo://app?vid=41892a07-6a1f-4061-ab05-7c3547d27e02"},"vehicle_type_id":"4","last_reported":1684879599,"current_range_meters":31200,"station_id":"ce4bgl92rcd13ifvqbq0","pricing_plan_id":"free"},{"bike_id":"d6ced96e-b91b-4c22-a606-0e34bb2bf11f","system_id":"levelo_inurba_marseille","lat":43.309076,"lon":5.368465,"is_reserved":false,"is_disabled":false,"rental_uris":{"android":"levelo://app?vid=d6ced96e-b91b-4c22-a606-0e34bb2bf11f","ios":"levelo://app?vid=d6ced96e-b91b-4c22-a606-0e34bb2bf11f"},"vehicle_type_id":"4","last_reported":1684879599,"current_range_meters":15600,"station_id":"ce4bgn92rcd13ifvqbvg","pricing_plan_id":"free"},{"bike_id":"a2b21186-f638-45c9-a495-f0c43c3485fc","system_id":"levelo_inurba_marseille","lat":43.309076,"lon":5.368465,"is_reserved":false,"is_disabled":false,"rental_uris":{"android":"levelo://app?vid=a2b21186-f638-45c9-a495-f0c43c3485fc","ios":"levelo://app?vid=a2b21186-f638-45c9-a495-f0c43c3485fc"},"vehicle_type_id":"4","last_reported":1684879599,"current_range_meters":31200,"station_id":"ce4bgn92rcd13ifvqbvg","pricing_plan_id":"free"},{"bike_id":"0b6458c0-6e6c-437b-b130-36e5a10ead77","system_id":"levelo_inurba_marseille","lat":43.309076,"lon":5.368465,"is_reserved":false,"is_disabled":false,"rental_uris":{"android":"levelo://app?vid=0b6458c0-6e6c-437b-b130-36e5a10ead77","ios":"levelo://app?vid=0b6458c0-6e6c-437b-b130-36e5a10ead77"},"vehicle_type_id":"4","last_reported":1684879599,"current_range_meters":16400,"station_id":"ce4bgn92rcd13ifvqbvg","pricing_plan_id":"free"},{"bike_id":"4169a825-70c6-495f-9ab6-197ec0dfb25b","system_id":"levelo_inurba_marseille","lat":43.314811,"lon":5.373104,"is_reserved":false,"is_disabled":false,"rental_uris":{"android":"levelo://app?vid=4169a825-70c6-495f-9ab6-197ec0dfb25b","ios":"levelo://app?vid=4169a825-70c6-495f-9ab6-197ec0dfb25b"},"vehicle_type_id":"4","last_reported":1684879599,"current_range_meters":27600,"station_id":"ce4bgt12rcd13ifvqcd0","pricing_plan_id":"free"},{"bike_id":"7ccc6a1f-df64-43ec-98f0-5d838069ecc9","system_id":"levelo_inurba_marseille","lat":43.308614,"lon":5.372098,"is_reserved":false,"is_disabled":false,"rental_uris":{"android":"levelo://app?vid=7ccc6a1f-df64-43ec-98f0-5d838069ecc9","ios":"levelo://app?vid=7ccc6a1f-df64-43ec-98f0-5d838069ecc9"},"vehicle_type_id":"4","last_reported":1684879599,"current_range_meters":18000,"station_id":"ce4bguh2rcd13ifvqckg","pricing_plan_id":"free"},{"bike_id":"7d1c63c6-2694-4de9-b813-bdd9259db552","system_id":"levelo_inurba_marseille","lat":43.308614,"lon":5.372098,"is_reserved":false,"is_disabled":false,"rental_uris":{"android":"levelo://app?vid=7d1c63c6-2694-4de9-b813-bdd9259db552","ios":"levelo://app?vid=7d1c63c6-2694-4de9-b813-bdd9259db552"},"vehicle_type_id":"4","last_reported":1684879599,"current_range_meters":14400,"station_id":"ce4bguh2rcd13ifvqckg","pricing_plan_id":"free"},{"bike_id":"e52fa197-a55c-42ad-80cd-d0868906299c","system_id":"levelo_inurba_marseille","lat":43.30546,"lon":5.367,"is_reserved":false,"is_disabled":false,"rental_uris":{"android":"levelo://app?vid=e52fa197-a55c-42ad-80cd-d0868906299c","ios":"levelo://app?vid=e52fa197-a55c-42ad-80cd-d0868906299c"},"vehicle_type_id":"4","last_reported":1684879599,"current_range_meters":0,"station_id":"","pricing_plan_id":"free"},{"bike_id":"413d004c-5102-4cf5-8683-0c96c07e19b8","system_id":"levelo_inurba_marseille","lat":43.305989,"lon":5.37225,"is_reserved":false,"is_disabled":false,"rental_uris":{"android":"levelo://app?vid=413d004c-5102-4cf5-8683-0c96c07e19b8","ios":"levelo://app?vid=413d004c-5102-4cf5-8683-0c96c07e19b8"},"vehicle_type_id":"4","last_reported":1684879599,"current_range_meters":0,"station_id":"ce4bgqh2rcd13ifvqc4g","pricing_plan_id":"free"},{"bike_id":"2d0b9321-a326-4fbc-a58b-f7c917f18b52","system_id":"levelo_inurba_marseille","lat":43.305989,"lon":5.37225,"is_reserved":false,"is_disabled":false,"rental_uris":{"android":"levelo://app?vid=2d0b9321-a326-4fbc-a58b-f7c917f18b52","ios":"levelo://app?vid=2d0b9321-a326-4fbc-a58b-f7c917f18b52"},"vehicle_type_id":"4","last_reported":1684879599,"current_range_meters":28400,"station_id":"ce4bgqh2rcd13ifvqc4g","pricing_plan_id":"free"},{"bike_id":"8bf7e63b-d3ed-4408-b973-18f8f102c700","system_id":"levelo_inurba_marseille","lat":43.305989,"lon":5.37225,"is_reserved":false,"is_disabled":false,"rental_uris":{"android":"levelo://app?vid=8bf7e63b-d3ed-4408-b973-18f8f102c700","ios":"levelo://app?vid=8bf7e63b-d3ed-4408-b973-18f8f102c700"},"vehicle_type_id":"4","last_reported":1684879599,"current_range_meters":28000,"station_id":"ce4bgqh2rcd13ifvqc4g","pricing_plan_id":"free"},{"bike_id":"d33c259f-cf50-4bb6-84d1-8201883bfa4b","system_id":"levelo_inurba_marseille","lat":43.305989,"lon":5.37225,"is_reserved":false,"is_disabled":false,"rental_uris":{"android":"levelo://app?vid=d33c259f-cf50-4bb6-84d1-8201883bfa4b","ios":"levelo://app?vid=d33c259f-cf50-4bb6-84d1-8201883bfa4b"},"vehicle_type_id":"4","last_reported":1684879599,"current_range_meters":4400,"station_id":"ce4bgqh2rcd13ifvqc4g","pricing_plan_id":"free"},{"bike_id":"6441523b-160d-4587-b1c4-e1f5af9b4264","system_id":"levelo_inurba_marseille","lat":43.305989,"lon":5.37225,"is_reserved":false,"is_disabled":false,"rental_uris":{"android":"levelo://app?vid=6441523b-160d-4587-b1c4-e1f5af9b4264","ios":"levelo://app?vid=6441523b-160d-4587-b1c4-e1f5af9b4264"},"vehicle_type_id":"4","last_reported":1684879599,"current_range_meters":2000,"station_id":"ce4bgqh2rcd13ifvqc4g","pricing_plan_id":"free"},{"bike_id":"cf181879-b182-4216-9335-90ca07f1917a","system_id":"levelo_inurba_marseille","lat":43.31123,"lon":5.37774,"is_reserved":false,"is_disabled":false,"rental_uris":{"android":"levelo://app?vid=cf181879-b182-4216-9335-90ca07f1917a","ios":"levelo://app?vid=cf181879-b182-4216-9335-90ca07f1917a"},"vehicle_type_id":"4","last_reported":1684879599,"current_range_meters":22800,"station_id":"ce4bgt92rcd13ifvqcg0","pricing_plan_id":"free"},{"bike_id":"91733e52-2da5-440a-b8c3-275cf67a5b98","system_id":"levelo_inurba_marseille","lat":43.317075,"lon":5.377367,"is_reserved":false,"is_disabled":false,"rental_uris":{"android":"levelo://app?vid=91733e52-2da5-440a-b8c3-275cf67a5b98","ios":"levelo://app?vid=91733e52-2da5-440a-b8c3-275cf67a5b98"},"vehicle_type_id":"4","last_reported":1684879599,"current_range_meters":30000,"station_id":"ce4bgth2rcd13ifvqch0","pricing_plan_id":"free"},{"bike_id":"725fdaf0-d18a-4817-82e7-216b57da6c3f","system_id":"levelo_inurba_marseille","lat":43.317075,"lon":5.377367,"is_reserved":false,"is_disabled":false,"rental_uris":{"android":"levelo://app?vid=725fdaf0-d18a-4817-82e7-216b57da6c3f","ios":"levelo://app?vid=725fdaf0-d18a-4817-82e7-216b57da6c3f"},"vehicle_type_id":"4","last_reported":1684879599,"current_range_meters":31200,"station_id":"ce4bgth2rcd13ifvqch0","pricing_plan_id":"free"},{"bike_id":"793c83ee-be81-439f-89ca-c0b492d22eae","system_id":"levelo_inurba_marseille","lat":43.303046,"lon":5.368981,"is_reserved":false,"is_disabled":false,"rental_uris":{"android":"levelo://app?vid=793c83ee-be81-439f-89ca-c0b492d22eae","ios":"levelo://app?vid=793c83ee-be81-439f-89ca-c0b492d22eae"},"vehicle_type_id":"4","last_reported":1684879599,"current_range_meters":0,"station_id":"ce4bgqh2rcd13ifvqc5g","pricing_plan_id":"free"},{"bike_id":"9981b6fc-335a-4f43-9748-2e5cdafab690","system_id":"levelo_inurba_marseille","lat":43.30304,"lon":5.368987,"is_reserved":false,"is_disabled":false,"rental_uris":{"android":"levelo://app?vid=9981b6fc-335a-4f43-9748-2e5cdafab690","ios":"levelo://app?vid=9981b6fc-335a-4f43-9748-2e5cdafab690"},"vehicle_type_id":"4","last_reported":1684879599,"current_range_meters":6800,"station_id":"ce4bgqh2rcd13ifvqc5g","pricing_plan_id":"free"},{"bike_id":"c9461532-81ed-4526-b6ba-b7bd13132531","system_id":"levelo_inurba_marseille","lat":43.315289,"lon":5.380349,"is_reserved":false,"is_disabled":false,"rental_uris":{"android":"levelo://app?vid=c9461532-81ed-4526-b6ba-b7bd13132531","ios":"levelo://app?vid=c9461532-81ed-4526-b6ba-b7bd13132531"},"vehicle_type_id":"4","last_reported":1684879599,"current_range_meters":15200,"station_id":"ce4bhsp2rcd13ifvqi50","pricing_plan_id":"free"},{"bike_id":"e4ddf4c1-6177-4538-8b58-75117487e999","system_id":"levelo_inurba_marseille","lat":43.315293,"lon":5.380349,"is_reserved":false,"is_disabled":false,"rental_uris":{"android":"levelo://app?vid=e4ddf4c1-6177-4538-8b58-75117487e999","ios":"levelo://app?vid=e4ddf4c1-6177-4538-8b58-75117487e999"},"vehicle_type_id":"4","last_reported":1684879599,"current_range_meters":28400,"station_id":"ce4bhsp2rcd13ifvqi50","pricing_plan_id":"free"},{"bike_id":"790119bb-79b7-4ba9-805d-a80ff92b80f0","system_id":"levelo_inurba_marseille","lat":43.315289,"lon":5.380349,"is_reserved":false,"is_disabled":false,"rental_uris":{"android":"levelo://app?vid=790119bb-79b7-4ba9-805d-a80ff92b80f0","ios":"levelo://app?vid=790119bb-79b7-4ba9-805d-a80ff92b80f0"},"vehicle_type_id":"4","last_reported":1684879599,"current_range_meters":9600,"station_id":"ce4bhsp2rcd13ifvqi50","pricing_plan_id":"free"},{"bike_id":"72e28966-4b1a-43d0-99a8-c5eda1fe672d","system_id":"levelo_inurba_marseille","lat":43.301939,"lon":5.366286,"is_reserved":false,"is_disabled":false,"rental_uris":{"android":"levelo://app?vid=72e28966-4b1a-43d0-99a8-c5eda1fe672d","ios":"levelo://app?vid=72e28966-4b1a-43d0-99a8-c5eda1fe672d"},"vehicle_type_id":"4","last_reported":1684879599,"current_range_meters":18000,"station_id":"ce4bgrh2rcd13ifvqc8g","pricing_plan_id":"free"},{"bike_id":"9bae9840-ed93-44fb-a5d4-fae1df29a1de","system_id":"levelo_inurba_marseille","lat":43.31031,"lon":5.38183,"is_reserved":false,"is_disabled":false,"rental_uris":{"android":"levelo://app?vid=9bae9840-ed93-44fb-a5d4-fae1df29a1de","ios":"levelo://app?vid=9bae9840-ed93-44fb-a5d4-fae1df29a1de"},"vehicle_type_id":"4","last_reported":1684879599,"current_range_meters":18400,"station_id":"","pricing_plan_id":"free"},{"bike_id":"2b9609be-b78f-46ae-9db4-1a09714445a5","system_id":"levelo_inurba_marseille","lat":43.308012,"lon":5.381511,"is_reserved":false,"is_disabled":false,"rental_uris":{"android":"levelo://app?vid=2b9609be-b78f-46ae-9db4-1a09714445a5","ios":"levelo://app?vid=2b9609be-b78f-46ae-9db4-1a09714445a5"},"vehicle_type_id":"4","last_reported":1684879599,"current_range_meters":10000,"station_id":"ce4bgt12rcd13ifvqce0","pricing_plan_id":"free"},{"bike_id":"03734b14-3e8f-4949-b94d-f1f7892900d4","system_id":"levelo_inurba_marseille","lat":43.304606,"lon":5.379026,"is_reserved":false,"is_disabled":false,"rental_uris":{"android":"levelo://app?vid=03734b14-3e8f-4949-b94d-f1f7892900d4","ios":"levelo://app?vid=03734b14-3e8f-4949-b94d-f1f7892900d4"},"vehicle_type_id":"4","last_reported":1684879599,"current_range_meters":16800,"station_id":"ce4bgup2rcd13ifvqcn0","pricing_plan_id":"free"},{"bike_id":"11526fb9-e742-43b2-b7bd-7c3ad2f2f42a","system_id":"levelo_inurba_marseille","lat":43.30454,"lon":5.37902,"is_reserved":false,"is_disabled":false,"rental_uris":{"android":"levelo://app?vid=11526fb9-e742-43b2-b7bd-7c3ad2f2f42a","ios":"levelo://app?vid=11526fb9-e742-43b2-b7bd-7c3ad2f2f42a"},"vehicle_type_id":"4","last_reported":1684879599,"current_range_meters":23200,"station_id":"ce4bgup2rcd13ifvqcn0","pricing_plan_id":"free"},{"bike_id":"88f12904-38c1-4846-a8f0-f5a4b40f9f65","system_id":"levelo_inurba_marseille","lat":43.304608,"lon":5.379136,"is_reserved":false,"is_disabled":false,"rental_uris":{"android":"levelo://app?vid=88f12904-38c1-4846-a8f0-f5a4b40f9f65","ios":"levelo://app?vid=88f12904-38c1-4846-a8f0-f5a4b40f9f65"},"vehicle_type_id":"4","last_reported":1684879599,"current_range_meters":24400,"station_id":"","pricing_plan_id":"free"},{"bike_id":"bd819eea-25e9-43ea-8400-f6e1076fe7bc","system_id":"levelo_inurba_marseille","lat":43.30051,"lon":5.37001,"is_reserved":false,"is_disabled":false,"rental_uris":{"android":"levelo://app?vid=bd819eea-25e9-43ea-8400-f6e1076fe7bc","ios":"levelo://app?vid=bd819eea-25e9-43ea-8400-f6e1076fe7bc"},"vehicle_type_id":"4","last_reported":1684879599,"current_range_meters":3600,"station_id":"","pricing_plan_id":"free"},{"bike_id":"fe86a46d-67b3-4aa0-afa4-77047d9713e8","system_id":"levelo_inurba_marseille","lat":43.30144,"lon":5.37415,"is_reserved":false,"is_disabled":false,"rental_uris":{"android":"levelo://app?vid=fe86a46d-67b3-4aa0-afa4-77047d9713e8","ios":"levelo://app?vid=fe86a46d-67b3-4aa0-afa4-77047d9713e8"},"vehicle_type_id":"4","last_reported":1684879599,"current_range_meters":19600,"station_id":"","pricing_plan_id":"free"},{"bike_id":"4bdc3ba6-87ef-41d2-8f67-88669efaedb9","system_id":"levelo_inurba_marseille","lat":43.319935,"lon":5.381699,"is_reserved":false,"is_disabled":false,"rental_uris":{"android":"levelo://app?vid=4bdc3ba6-87ef-41d2-8f67-88669efaedb9","ios":"levelo://app?vid=4bdc3ba6-87ef-41d2-8f67-88669efaedb9"},"vehicle_type_id":"4","last_reported":1684879599,"current_range_meters":18800,"station_id":"ce4bhr12rcd13ifvqhpg","pricing_plan_id":"free"},{"bike_id":"48670c4a-356f-4324-89be-9dcf58d3306a","system_id":"levelo_inurba_marseille","lat":43.31998,"lon":5.38152,"is_reserved":false,"is_disabled":false,"rental_uris":{"android":"levelo://app?vid=48670c4a-356f-4324-89be-9dcf58d3306a","ios":"levelo://app?vid=48670c4a-356f-4324-89be-9dcf58d3306a"},"vehicle_type_id":"4","last_reported":1684879599,"current_range_meters":17200,"station_id":"ce4bhr12rcd13ifvqhpg","pricing_plan_id":"free"},{"bike_id":"e13f48db-f4f6-48c2-8df8-a752fcd43e65","system_id":"levelo_inurba_marseille","lat":43.319935,"lon":5.381699,"is_reserved":false,"is_disabled":false,"rental_uris":{"android":"levelo://app?vid=e13f48db-f4f6-48c2-8df8-a752fcd43e65","ios":"levelo://app?vid=e13f48db-f4f6-48c2-8df8-a752fcd43e65"},"vehicle_type_id":"4","last_reported":1684879599,"current_range_meters":11200,"station_id":"ce4bhr12rcd13ifvqhpg","pricing_plan_id":"free"},{"bike_id":"30a37701-e3b4-4434-93c2-13ebaedcd785","system_id":"levelo_inurba_marseille","lat":43.319935,"lon":5.381699,"is_reserved":false,"is_disabled":false,"rental_uris":{"android":"levelo://app?vid=30a37701-e3b4-4434-93c2-13ebaedcd785","ios":"levelo://app?vid=30a37701-e3b4-4434-93c2-13ebaedcd785"},"vehicle_type_id":"4","last_reported":1684879599,"current_range_meters":12800,"station_id":"ce4bhr12rcd13ifvqhpg","pricing_plan_id":"free"},{"bike_id":"dbfcb96a-7e19-49cf-a280-31141e1b1585","system_id":"levelo_inurba_marseille","lat":43.313571,"lon":5.384829,"is_reserved":false,"is_disabled":false,"rental_uris":{"android":"levelo://app?vid=dbfcb96a-7e19-49cf-a280-31141e1b1585","ios":"levelo://app?vid=dbfcb96a-7e19-49cf-a280-31141e1b1585"},"vehicle_type_id":"4","last_reported":1684879599,"current_range_meters":21200,"station_id":"ce4bgt92rcd13ifvqcf0","pricing_plan_id":"free"},{"bike_id":"230b1831-d669-4c7b-86ec-946d59f20e2e","system_id":"levelo_inurba_marseille","lat":43.313571,"lon":5.384829,"is_reserved":false,"is_disabled":false,"rental_uris":{"android":"levelo://app?vid=230b1831-d669-4c7b-86ec-946d59f20e2e","ios":"levelo://app?vid=230b1831-d669-4c7b-86ec-946d59f20e2e"},"vehicle_type_id":"4","last_reported":1684879599,"current_range_meters":10000,"station_id":"ce4bgt92rcd13ifvqcf0","pricing_plan_id":"free"},{"bike_id":"d0e98860-8d94-44fa-8198-af5870fb4eb5","system_id":"levelo_inurba_marseille","lat":43.313571,"lon":5.384829,"is_reserved":false,"is_disabled":false,"rental_uris":{"android":"levelo://app?vid=d0e98860-8d94-44fa-8198-af5870fb4eb5","ios":"levelo://app?vid=d0e98860-8d94-44fa-8198-af5870fb4eb5"},"vehicle_type_id":"4","last_reported":1684879599,"current_range_meters":19200,"station_id":"ce4bgt92rcd13ifvqcf0","pricing_plan_id":"free"},{"bike_id":"a690fbb0-a61c-401c-9489-5da2f0b05254","system_id":"levelo_inurba_marseille","lat":43.313571,"lon":5.384829,"is_reserved":false,"is_disabled":false,"rental_uris":{"android":"levelo://app?vid=a690fbb0-a61c-401c-9489-5da2f0b05254","ios":"levelo://app?vid=a690fbb0-a61c-401c-9489-5da2f0b05254"},"vehicle_type_id":"4","last_reported":1684879599,"current_range_meters":24000,"station_id":"ce4bgt92rcd13ifvqcf0","pricing_plan_id":"free"},{"bike_id":"e86d6283-8d92-4567-8c84-dd1b9f66f001","system_id":"levelo_inurba_marseille","lat":43.313571,"lon":5.384829,"is_reserved":false,"is_disabled":false,"rental_uris":{"android":"levelo://app?vid=e86d6283-8d92-4567-8c84-dd1b9f66f001","ios":"levelo://app?vid=e86d6283-8d92-4567-8c84-dd1b9f66f001"},"vehicle_type_id":"4","last_reported":1684879599,"current_range_meters":22000,"station_id":"ce4bgt92rcd13ifvqcf0","pricing_plan_id":"free"},{"bike_id":"acf20d30-2c0c-4d96-bb32-3843daf91dd3","system_id":"levelo_inurba_marseille","lat":43.313571,"lon":5.384829,"is_reserved":false,"is_disabled":false,"rental_uris":{"android":"levelo://app?vid=acf20d30-2c0c-4d96-bb32-3843daf91dd3","ios":"levelo://app?vid=acf20d30-2c0c-4d96-bb32-3843daf91dd3"},"vehicle_type_id":"4","last_reported":1684879599,"current_range_meters":31200,"station_id":"ce4bgt92rcd13ifvqcf0","pricing_plan_id":"free"},{"bike_id":"d0695cbb-de3a-42ba-a878-ff6ab70822fc","system_id":"levelo_inurba_marseille","lat":43.313571,"lon":5.384829,"is_reserved":false,"is_disabled":false,"rental_uris":{"android":"levelo://app?vid=d0695cbb-de3a-42ba-a878-ff6ab70822fc","ios":"levelo://app?vid=d0695cbb-de3a-42ba-a878-ff6ab70822fc"},"vehicle_type_id":"4","last_reported":1684879599,"current_range_meters":15200,"station_id":"ce4bgt92rcd13ifvqcf0","pricing_plan_id":"free"},{"bike_id":"e2b09657-3223-45c0-8972-f51487d9add9","system_id":"levelo_inurba_marseille","lat":43.313571,"lon":5.384829,"is_reserved":false,"is_disabled":false,"rental_uris":{"android":"levelo://app?vid=e2b09657-3223-45c0-8972-f51487d9add9","ios":"levelo://app?vid=e2b09657-3223-45c0-8972-f51487d9add9"},"vehicle_type_id":"4","last_reported":1684879599,"current_range_meters":31200,"station_id":"ce4bgt92rcd13ifvqcf0","pricing_plan_id":"free"},{"bike_id":"89aee25a-d04e-43dd-bf69-a808b7abe903","system_id":"levelo_inurba_marseille","lat":43.31369,"lon":5.38514,"is_reserved":false,"is_disabled":false,"rental_uris":{"android":"levelo://app?vid=89aee25a-d04e-43dd-bf69-a808b7abe903","ios":"levelo://app?vid=89aee25a-d04e-43dd-bf69-a808b7abe903"},"vehicle_type_id":"4","last_reported":1684879599,"current_range_meters":11600,"station_id":"","pricing_plan_id":"free"},{"bike_id":"5551988d-f528-474c-957b-1b37d3f9e661","system_id":"levelo_inurba_marseille","lat":43.298433,"lon":5.362774,"is_reserved":false,"is_disabled":false,"rental_uris":{"android":"levelo://app?vid=5551988d-f528-474c-957b-1b37d3f9e661","ios":"levelo://app?vid=5551988d-f528-474c-957b-1b37d3f9e661"},"vehicle_type_id":"4","last_reported":1684879599,"current_range_meters":13200,"station_id":"ce4bgpp2rcd13ifvqc3g","pricing_plan_id":"free"},{"bike_id":"a195ae5e-867b-4c97-93e8-de69899301aa","system_id":"levelo_inurba_marseille","lat":43.299243,"lon":5.374807,"is_reserved":false,"is_disabled":false,"rental_uris":{"android":"levelo://app?vid=a195ae5e-867b-4c97-93e8-de69899301aa","ios":"levelo://app?vid=a195ae5e-867b-4c97-93e8-de69899301aa"},"vehicle_type_id":"4","last_reported":1684879599,"current_range_meters":17200,"station_id":"ce4bgjh2rcd13ifvqbg0","pricing_plan_id":"free"},{"bike_id":"384c7232-ad86-4d69-91dc-26de656d0302","system_id":"levelo_inurba_marseille","lat":43.311722,"lon":5.387247,"is_reserved":false,"is_disabled":false,"rental_uris":{"android":"levelo://app?vid=384c7232-ad86-4d69-91dc-26de656d0302","ios":"levelo://app?vid=384c7232-ad86-4d69-91dc-26de656d0302"},"vehicle_type_id":"4","last_reported":1684879599,"current_range_meters":0,"station_id":"ce4bgv12rcd13ifvqcp0","pricing_plan_id":"free"},{"bike_id":"efae48bd-16f7-43b2-a04d-5b6164536a73","system_id":"levelo_inurba_marseille","lat":43.297794,"lon":5.370888,"is_reserved":false,"is_disabled":false,"rental_uris":{"android":"levelo://app?vid=efae48bd-16f7-43b2-a04d-5b6164536a73","ios":"levelo://app?vid=efae48bd-16f7-43b2-a04d-5b6164536a73"},"vehicle_type_id":"4","last_reported":1684879599,"current_range_meters":29600,"station_id":"ce4bgop2rcd13ifvqc1g","pricing_plan_id":"free"},{"bike_id":"57e6de5d-67d3-46bf-9b10-ebba718b1b0e","system_id":"levelo_inurba_marseille","lat":43.297774,"lon":5.370875,"is_reserved":false,"is_disabled":false,"rental_uris":{"android":"levelo://app?vid=57e6de5d-67d3-46bf-9b10-ebba718b1b0e","ios":"levelo://app?vid=57e6de5d-67d3-46bf-9b10-ebba718b1b0e"},"vehicle_type_id":"4","last_reported":1684879599,"current_range_meters":13600,"station_id":"ce4bgop2rcd13ifvqc1g","pricing_plan_id":"free"},{"bike_id":"f72d76cd-c685-414f-9a58-06a867b7174a","system_id":"levelo_inurba_marseille","lat":43.297794,"lon":5.370888,"is_reserved":false,"is_disabled":false,"rental_uris":{"android":"levelo://app?vid=f72d76cd-c685-414f-9a58-06a867b7174a","ios":"levelo://app?vid=f72d76cd-c685-414f-9a58-06a867b7174a"},"vehicle_type_id":"4","last_reported":1684879599,"current_range_meters":12400,"station_id":"ce4bgop2rcd13ifvqc1g","pricing_plan_id":"free"},{"bike_id":"bb2ddc77-29f6-4c3d-aea5-0e24e086521d","system_id":"levelo_inurba_marseille","lat":43.2987,"lon":5.37647,"is_reserved":false,"is_disabled":false,"rental_uris":{"android":"levelo://app?vid=bb2ddc77-29f6-4c3d-aea5-0e24e086521d","ios":"levelo://app?vid=bb2ddc77-29f6-4c3d-aea5-0e24e086521d"},"vehicle_type_id":"4","last_reported":1684879599,"current_range_meters":18400,"station_id":"","pricing_plan_id":"free"},{"bike_id":"0022c8e0-b57f-4a16-94cb-1fbd25366096","system_id":"levelo_inurba_marseille","lat":43.29626,"lon":5.37153,"is_reserved":false,"is_disabled":false,"rental_uris":{"android":"levelo://app?vid=0022c8e0-b57f-4a16-94cb-1fbd25366096","ios":"levelo://app?vid=0022c8e0-b57f-4a16-94cb-1fbd25366096"},"vehicle_type_id":"4","last_reported":1684879599,"current_range_meters":29600,"station_id":"ce4bgk12rcd13ifvqbj0","pricing_plan_id":"free"},{"bike_id":"180e6017-13bf-4199-9a7c-dac5ad0ca494","system_id":"levelo_inurba_marseille","lat":43.29573,"lon":5.367355,"is_reserved":false,"is_disabled":false,"rental_uris":{"android":"levelo://app?vid=180e6017-13bf-4199-9a7c-dac5ad0ca494","ios":"levelo://app?vid=180e6017-13bf-4199-9a7c-dac5ad0ca494"},"vehicle_type_id":"4","last_reported":1684879599,"current_range_meters":10000,"station_id":"ce4bgph2rcd13ifvqc2g","pricing_plan_id":"free"},{"bike_id":"4dd12e1a-131c-4b48-865b-f24828c5e015","system_id":"levelo_inurba_marseille","lat":43.309589,"lon":5.390258,"is_reserved":false,"is_disabled":false,"rental_uris":{"android":"levelo://app?vid=4dd12e1a-131c-4b48-865b-f24828c5e015","ios":"levelo://app?vid=4dd12e1a-131c-4b48-865b-f24828c5e015"},"vehicle_type_id":"4","last_reported":1684879599,"current_range_meters":9600,"station_id":"ce4bgup2rcd13ifvqco0","pricing_plan_id":"free"},{"bike_id":"4c746c0f-f656-401e-bff7-14de6c1228b0","system_id":"levelo_inurba_marseille","lat":43.309589,"lon":5.390258,"is_reserved":false,"is_disabled":false,"rental_uris":{"android":"levelo://app?vid=4c746c0f-f656-401e-bff7-14de6c1228b0","ios":"levelo://app?vid=4c746c0f-f656-401e-bff7-14de6c1228b0"},"vehicle_type_id":"4","last_reported":1684879599,"current_range_meters":14400,"station_id":"ce4bgup2rcd13ifvqco0","pricing_plan_id":"free"},{"bike_id":"57927a99-8484-4848-aa55-81084d7c1d22","system_id":"levelo_inurba_marseille","lat":43.309589,"lon":5.390258,"is_reserved":false,"is_disabled":false,"rental_uris":{"android":"levelo://app?vid=57927a99-8484-4848-aa55-81084d7c1d22","ios":"levelo://app?vid=57927a99-8484-4848-aa55-81084d7c1d22"},"vehicle_type_id":"4","last_reported":1684879599,"current_range_meters":13200,"station_id":"ce4bgup2rcd13ifvqco0","pricing_plan_id":"free"},{"bike_id":"c79bf59d-a4c4-4a1d-9c89-6f9737efa96f","system_id":"levelo_inurba_marseille","lat":43.295763,"lon":5.375157,"is_reserved":false,"is_disabled":false,"rental_uris":{"android":"levelo://app?vid=c79bf59d-a4c4-4a1d-9c89-6f9737efa96f","ios":"levelo://app?vid=c79bf59d-a4c4-4a1d-9c89-6f9737efa96f"},"vehicle_type_id":"4","last_reported":1684879599,"current_range_meters":5200,"station_id":"ce4bgh92rcd13ifvqb50","pricing_plan_id":"free"},{"bike_id":"8c6c241d-3c0b-418b-8fdf-a71a9f275b86","system_id":"levelo_inurba_marseille","lat":43.299707,"lon":5.384859,"is_reserved":false,"is_disabled":false,"rental_uris":{"android":"levelo://app?vid=8c6c241d-3c0b-418b-8fdf-a71a9f275b86","ios":"levelo://app?vid=8c6c241d-3c0b-418b-8fdf-a71a9f275b86"},"vehicle_type_id":"4","last_reported":1684879599,"current_range_meters":400,"station_id":"ce4bgj92rcd13ifvqbd0","pricing_plan_id":"free"},{"bike_id":"d3394d32-74ed-4eee-8db5-07bf5a1a1ee2","system_id":"levelo_inurba_marseille","lat":43.299717,"lon":5.384845,"is_reserved":false,"is_disabled":false,"rental_uris":{"android":"levelo://app?vid=d3394d32-74ed-4eee-8db5-07bf5a1a1ee2","ios":"levelo://app?vid=d3394d32-74ed-4eee-8db5-07bf5a1a1ee2"},"vehicle_type_id":"4","last_reported":1684879599,"current_range_meters":24400,"station_id":"ce4bgj92rcd13ifvqbd0","pricing_plan_id":"free"},{"bike_id":"53408fb5-1f47-4558-a2f6-514b5fc0a8ba","system_id":"levelo_inurba_marseille","lat":43.299717,"lon":5.384845,"is_reserved":false,"is_disabled":false,"rental_uris":{"android":"levelo://app?vid=53408fb5-1f47-4558-a2f6-514b5fc0a8ba","ios":"levelo://app?vid=53408fb5-1f47-4558-a2f6-514b5fc0a8ba"},"vehicle_type_id":"4","last_reported":1684879599,"current_range_meters":28800,"station_id":"ce4bgj92rcd13ifvqbd0","pricing_plan_id":"free"},{"bike_id":"830aafb8-1d24-4630-8075-4a0b8844b8e3","system_id":"levelo_inurba_marseille","lat":43.299717,"lon":5.384845,"is_reserved":false,"is_disabled":false,"rental_uris":{"android":"levelo://app?vid=830aafb8-1d24-4630-8075-4a0b8844b8e3","ios":"levelo://app?vid=830aafb8-1d24-4630-8075-4a0b8844b8e3"},"vehicle_type_id":"4","last_reported":1684879599,"current_range_meters":19600,"station_id":"ce4bgj92rcd13ifvqbd0","pricing_plan_id":"free"},{"bike_id":"52397041-b117-4135-a640-982478062aa9","system_id":"levelo_inurba_marseille","lat":43.299707,"lon":5.384859,"is_reserved":false,"is_disabled":false,"rental_uris":{"android":"levelo://app?vid=52397041-b117-4135-a640-982478062aa9","ios":"levelo://app?vid=52397041-b117-4135-a640-982478062aa9"},"vehicle_type_id":"4","last_reported":1684879599,"current_range_meters":13200,"station_id":"ce4bgj92rcd13ifvqbd0","pricing_plan_id":"free"},{"bike_id":"7f396b23-1904-4bbb-a603-9c7c25188e65","system_id":"levelo_inurba_marseille","lat":43.299707,"lon":5.384859,"is_reserved":false,"is_disabled":false,"rental_uris":{"android":"levelo://app?vid=7f396b23-1904-4bbb-a603-9c7c25188e65","ios":"levelo://app?vid=7f396b23-1904-4bbb-a603-9c7c25188e65"},"vehicle_type_id":"4","last_reported":1684879599,"current_range_meters":6800,"station_id":"ce4bgj92rcd13ifvqbd0","pricing_plan_id":"free"},{"bike_id":"b2239e09-41dc-4cde-9b2f-b27fe7d0a355","system_id":"levelo_inurba_marseille","lat":43.32367,"lon":5.388836,"is_reserved":false,"is_disabled":false,"rental_uris":{"android":"levelo://app?vid=b2239e09-41dc-4cde-9b2f-b27fe7d0a355","ios":"levelo://app?vid=b2239e09-41dc-4cde-9b2f-b27fe7d0a355"},"vehicle_type_id":"4","last_reported":1684879599,"current_range_meters":20000,"station_id":"ce4bhqp2rcd13ifvqhog","pricing_plan_id":"free"},{"bike_id":"6e929eea-ce83-4051-9199-c8d1e6f83d61","system_id":"levelo_inurba_marseille","lat":43.32362,"lon":5.38882,"is_reserved":false,"is_disabled":false,"rental_uris":{"android":"levelo://app?vid=6e929eea-ce83-4051-9199-c8d1e6f83d61","ios":"levelo://app?vid=6e929eea-ce83-4051-9199-c8d1e6f83d61"},"vehicle_type_id":"4","last_reported":1684879599,"current_range_meters":12000,"station_id":"ce4bhqp2rcd13ifvqhog","pricing_plan_id":"free"},{"bike_id":"f2371f63-e4eb-48fe-aaa9-64cb538c1f31","system_id":"levelo_inurba_marseille","lat":43.32361,"lon":5.38884,"is_reserved":false,"is_disabled":false,"rental_uris":{"android":"levelo://app?vid=f2371f63-e4eb-48fe-aaa9-64cb538c1f31","ios":"levelo://app?vid=f2371f63-e4eb-48fe-aaa9-64cb538c1f31"},"vehicle_type_id":"4","last_reported":1684879599,"current_range_meters":28400,"station_id":"ce4bhqp2rcd13ifvqhog","pricing_plan_id":"free"},{"bike_id":"3f8c51b1-976c-4389-91e4-6aba882bdcd1","system_id":"levelo_inurba_marseille","lat":43.32364,"lon":5.38883,"is_reserved":false,"is_disabled":false,"rental_uris":{"android":"levelo://app?vid=3f8c51b1-976c-4389-91e4-6aba882bdcd1","ios":"levelo://app?vid=3f8c51b1-976c-4389-91e4-6aba882bdcd1"},"vehicle_type_id":"4","last_reported":1684879599,"current_range_meters":14000,"station_id":"ce4bhqp2rcd13ifvqhog","pricing_plan_id":"free"},{"bike_id":"fedfefbd-f4ac-4628-9143-199cd82a31c7","system_id":"levelo_inurba_marseille","lat":43.32367,"lon":5.388836,"is_reserved":false,"is_disabled":false,"rental_uris":{"android":"levelo://app?vid=fedfefbd-f4ac-4628-9143-199cd82a31c7","ios":"levelo://app?vid=fedfefbd-f4ac-4628-9143-199cd82a31c7"},"vehicle_type_id":"4","last_reported":1684879599,"current_range_meters":17600,"station_id":"ce4bhqp2rcd13ifvqhog","pricing_plan_id":"free"},{"bike_id":"01d401da-ad68-4b2e-a4ac-24f3f8771d91","system_id":"levelo_inurba_marseille","lat":43.32367,"lon":5.388836,"is_reserved":false,"is_disabled":false,"rental_uris":{"android":"levelo://app?vid=01d401da-ad68-4b2e-a4ac-24f3f8771d91","ios":"levelo://app?vid=01d401da-ad68-4b2e-a4ac-24f3f8771d91"},"vehicle_type_id":"4","last_reported":1684879599,"current_range_meters":25600,"station_id":"ce4bhqp2rcd13ifvqhog","pricing_plan_id":"free"},{"bike_id":"435efeae-a7e4-48dc-9ebe-ef72d32dbddd","system_id":"levelo_inurba_marseille","lat":43.32369,"lon":5.38885,"is_reserved":false,"is_disabled":false,"rental_uris":{"android":"levelo://app?vid=435efeae-a7e4-48dc-9ebe-ef72d32dbddd","ios":"levelo://app?vid=435efeae-a7e4-48dc-9ebe-ef72d32dbddd"},"vehicle_type_id":"4","last_reported":1684879599,"current_range_meters":21200,"station_id":"ce4bhqp2rcd13ifvqhog","pricing_plan_id":"free"},{"bike_id":"278cf516-bd46-4a4e-b2c7-90ce64b42f33","system_id":"levelo_inurba_marseille","lat":43.32367,"lon":5.388836,"is_reserved":false,"is_disabled":false,"rental_uris":{"android":"levelo://app?vid=278cf516-bd46-4a4e-b2c7-90ce64b42f33","ios":"levelo://app?vid=278cf516-bd46-4a4e-b2c7-90ce64b42f33"},"vehicle_type_id":"4","last_reported":1684879599,"current_range_meters":15200,"station_id":"ce4bhqp2rcd13ifvqhog","pricing_plan_id":"free"},{"bike_id":"9631174c-1f9b-430c-97c8-767e40d5a032","system_id":"levelo_inurba_marseille","lat":43.29353,"lon":5.37146,"is_reserved":false,"is_disabled":false,"rental_uris":{"android":"levelo://app?vid=9631174c-1f9b-430c-97c8-767e40d5a032","ios":"levelo://app?vid=9631174c-1f9b-430c-97c8-767e40d5a032"},"vehicle_type_id":"4","last_reported":1684879599,"current_range_meters":26400,"station_id":"","pricing_plan_id":"free"},{"bike_id":"d8208083-5cc4-4471-8188-ae08303ce21b","system_id":"levelo_inurba_marseille","lat":43.302992,"lon":5.392136,"is_reserved":false,"is_disabled":false,"rental_uris":{"android":"levelo://app?vid=d8208083-5cc4-4471-8188-ae08303ce21b","ios":"levelo://app?vid=d8208083-5cc4-4471-8188-ae08303ce21b"},"vehicle_type_id":"4","last_reported":1684879599,"current_range_meters":21600,"station_id":"ce4bgkh2rcd13ifvqbk0","pricing_plan_id":"free"},{"bike_id":"4e14a536-7fc4-480d-9291-a5ca79a3abba","system_id":"levelo_inurba_marseille","lat":43.302992,"lon":5.392136,"is_reserved":false,"is_disabled":false,"rental_uris":{"android":"levelo://app?vid=4e14a536-7fc4-480d-9291-a5ca79a3abba","ios":"levelo://app?vid=4e14a536-7fc4-480d-9291-a5ca79a3abba"},"vehicle_type_id":"4","last_reported":1684879599,"current_range_meters":24800,"station_id":"ce4bgkh2rcd13ifvqbk0","pricing_plan_id":"free"},{"bike_id":"e3a036cf-6a79-4c85-87dd-a4b377aa5cb7","system_id":"levelo_inurba_marseille","lat":43.2936,"lon":5.37835,"is_reserved":false,"is_disabled":false,"rental_uris":{"android":"levelo://app?vid=e3a036cf-6a79-4c85-87dd-a4b377aa5cb7","ios":"levelo://app?vid=e3a036cf-6a79-4c85-87dd-a4b377aa5cb7"},"vehicle_type_id":"4","last_reported":1684879599,"current_range_meters":8000,"station_id":"ce4bgjh2rcd13ifvqbf0","pricing_plan_id":"free"},{"bike_id":"e539a1a7-92dd-462c-a978-b23f2fc2975f","system_id":"levelo_inurba_marseille","lat":43.298764,"lon":5.388973,"is_reserved":false,"is_disabled":false,"rental_uris":{"android":"levelo://app?vid=e539a1a7-92dd-462c-a978-b23f2fc2975f","ios":"levelo://app?vid=e539a1a7-92dd-462c-a978-b23f2fc2975f"},"vehicle_type_id":"4","last_reported":1684879599,"current_range_meters":27200,"station_id":"ce4bh392rcd13ifvqdl0","pricing_plan_id":"free"},{"bike_id":"fe00416b-1966-4de2-b452-511c8fa50c96","system_id":"levelo_inurba_marseille","lat":43.298764,"lon":5.388973,"is_reserved":false,"is_disabled":false,"rental_uris":{"android":"levelo://app?vid=fe00416b-1966-4de2-b452-511c8fa50c96","ios":"levelo://app?vid=fe00416b-1966-4de2-b452-511c8fa50c96"},"vehicle_type_id":"4","last_reported":1684879599,"current_range_meters":13600,"station_id":"ce4bh392rcd13ifvqdl0","pricing_plan_id":"free"},{"bike_id":"8e66f702-2d69-4cdb-93d5-8dc77327e039","system_id":"levelo_inurba_marseille","lat":43.298764,"lon":5.388973,"is_reserved":false,"is_disabled":false,"rental_uris":{"android":"levelo://app?vid=8e66f702-2d69-4cdb-93d5-8dc77327e039","ios":"levelo://app?vid=8e66f702-2d69-4cdb-93d5-8dc77327e039"},"vehicle_type_id":"4","last_reported":1684879599,"current_range_meters":0,"station_id":"ce4bh392rcd13ifvqdl0","pricing_plan_id":"free"},{"bike_id":"c5acdd90-7174-48da-bf24-dce574cabd8f","system_id":"levelo_inurba_marseille","lat":43.309038,"lon":5.396546,"is_reserved":false,"is_disabled":false,"rental_uris":{"android":"levelo://app?vid=c5acdd90-7174-48da-bf24-dce574cabd8f","ios":"levelo://app?vid=c5acdd90-7174-48da-bf24-dce574cabd8f"},"vehicle_type_id":"4","last_reported":1684879599,"current_range_meters":12000,"station_id":"ce4bh012rcd13ifvqcv0","pricing_plan_id":"free"},{"bike_id":"8abb052a-54d7-406c-ab0f-a49d41527023","system_id":"levelo_inurba_marseille","lat":43.313291,"lon":5.396838,"is_reserved":false,"is_disabled":false,"rental_uris":{"android":"levelo://app?vid=8abb052a-54d7-406c-ab0f-a49d41527023","ios":"levelo://app?vid=8abb052a-54d7-406c-ab0f-a49d41527023"},"vehicle_type_id":"4","last_reported":1684879599,"current_range_meters":4000,"station_id":"ce4bgvp2rcd13ifvqcu0","pricing_plan_id":"free"},{"bike_id":"689d641b-e2d6-421d-a1a4-1aed3ab15277","system_id":"levelo_inurba_marseille","lat":43.313291,"lon":5.396838,"is_reserved":false,"is_disabled":false,"rental_uris":{"android":"levelo://app?vid=689d641b-e2d6-421d-a1a4-1aed3ab15277","ios":"levelo://app?vid=689d641b-e2d6-421d-a1a4-1aed3ab15277"},"vehicle_type_id":"4","last_reported":1684879599,"current_range_meters":14000,"station_id":"ce4bgvp2rcd13ifvqcu0","pricing_plan_id":"free"},{"bike_id":"3e7c7ecc-c6fa-450b-90f1-23fcfce19293","system_id":"levelo_inurba_marseille","lat":43.31333,"lon":5.39693,"is_reserved":false,"is_disabled":false,"rental_uris":{"android":"levelo://app?vid=3e7c7ecc-c6fa-450b-90f1-23fcfce19293","ios":"levelo://app?vid=3e7c7ecc-c6fa-450b-90f1-23fcfce19293"},"vehicle_type_id":"4","last_reported":1684879599,"current_range_meters":1200,"station_id":"ce4bgvp2rcd13ifvqcu0","pricing_plan_id":"free"},{"bike_id":"2c665ebf-313d-4e9d-b836-a6b59fda5c98","system_id":"levelo_inurba_marseille","lat":43.313291,"lon":5.396838,"is_reserved":false,"is_disabled":false,"rental_uris":{"android":"levelo://app?vid=2c665ebf-313d-4e9d-b836-a6b59fda5c98","ios":"levelo://app?vid=2c665ebf-313d-4e9d-b836-a6b59fda5c98"},"vehicle_type_id":"4","last_reported":1684879599,"current_range_meters":1600,"station_id":"ce4bgvp2rcd13ifvqcu0","pricing_plan_id":"free"},{"bike_id":"dc23d398-a0e1-4c1e-b3e2-79924dcb61c1","system_id":"levelo_inurba_marseille","lat":43.313291,"lon":5.396838,"is_reserved":false,"is_disabled":false,"rental_uris":{"android":"levelo://app?vid=dc23d398-a0e1-4c1e-b3e2-79924dcb61c1","ios":"levelo://app?vid=dc23d398-a0e1-4c1e-b3e2-79924dcb61c1"},"vehicle_type_id":"4","last_reported":1684879599,"current_range_meters":4000,"station_id":"ce4bgvp2rcd13ifvqcu0","pricing_plan_id":"free"},{"bike_id":"4c1e3b57-92b1-4105-b6ab-3cfb2eef35ca","system_id":"levelo_inurba_marseille","lat":43.313109,"lon":5.396952,"is_reserved":false,"is_disabled":false,"rental_uris":{"android":"levelo://app?vid=4c1e3b57-92b1-4105-b6ab-3cfb2eef35ca","ios":"levelo://app?vid=4c1e3b57-92b1-4105-b6ab-3cfb2eef35ca"},"vehicle_type_id":"4","last_reported":1684879599,"current_range_meters":400,"station_id":"","pricing_plan_id":"free"},{"bike_id":"44cb98f5-1dd5-4085-9d37-159ebf1bc69c","system_id":"levelo_inurba_marseille","lat":43.313291,"lon":5.396838,"is_reserved":false,"is_disabled":false,"rental_uris":{"android":"levelo://app?vid=44cb98f5-1dd5-4085-9d37-159ebf1bc69c","ios":"levelo://app?vid=44cb98f5-1dd5-4085-9d37-159ebf1bc69c"},"vehicle_type_id":"4","last_reported":1684879599,"current_range_meters":12800,"station_id":"ce4bgvp2rcd13ifvqcu0","pricing_plan_id":"free"},{"bike_id":"54c6f172-54d1-46b0-a9c1-bc128b7d13ec","system_id":"levelo_inurba_marseille","lat":43.309038,"lon":5.396546,"is_reserved":false,"is_disabled":false,"rental_uris":{"android":"levelo://app?vid=54c6f172-54d1-46b0-a9c1-bc128b7d13ec","ios":"levelo://app?vid=54c6f172-54d1-46b0-a9c1-bc128b7d13ec"},"vehicle_type_id":"4","last_reported":1684879599,"current_range_meters":7200,"station_id":"ce4bh012rcd13ifvqcv0","pricing_plan_id":"free"},{"bike_id":"4a74cade-446d-4477-8c3b-839cd9ca8bff","system_id":"levelo_inurba_marseille","lat":43.313291,"lon":5.396838,"is_reserved":false,"is_disabled":false,"rental_uris":{"android":"levelo://app?vid=4a74cade-446d-4477-8c3b-839cd9ca8bff","ios":"levelo://app?vid=4a74cade-446d-4477-8c3b-839cd9ca8bff"},"vehicle_type_id":"4","last_reported":1684879599,"current_range_meters":2000,"station_id":"ce4bgvp2rcd13ifvqcu0","pricing_plan_id":"free"},{"bike_id":"718b8cb7-16bb-499e-b558-848e606ef8ac","system_id":"levelo_inurba_marseille","lat":43.313291,"lon":5.396838,"is_reserved":false,"is_disabled":false,"rental_uris":{"android":"levelo://app?vid=718b8cb7-16bb-499e-b558-848e606ef8ac","ios":"levelo://app?vid=718b8cb7-16bb-499e-b558-848e606ef8ac"},"vehicle_type_id":"4","last_reported":1684879599,"current_range_meters":19600,"station_id":"ce4bgvp2rcd13ifvqcu0","pricing_plan_id":"free"},{"bike_id":"e51623fe-c624-4c27-8da1-76f132393614","system_id":"levelo_inurba_marseille","lat":43.30884,"lon":5.39657,"is_reserved":false,"is_disabled":false,"rental_uris":{"android":"levelo://app?vid=e51623fe-c624-4c27-8da1-76f132393614","ios":"levelo://app?vid=e51623fe-c624-4c27-8da1-76f132393614"},"vehicle_type_id":"4","last_reported":1684879599,"current_range_meters":11600,"station_id":"ce4bh012rcd13ifvqcv0","pricing_plan_id":"free"},{"bike_id":"4f7c8bed-1bf8-4a63-8c02-f7954328d701","system_id":"levelo_inurba_marseille","lat":43.30889,"lon":5.39659,"is_reserved":false,"is_disabled":false,"rental_uris":{"android":"levelo://app?vid=4f7c8bed-1bf8-4a63-8c02-f7954328d701","ios":"levelo://app?vid=4f7c8bed-1bf8-4a63-8c02-f7954328d701"},"vehicle_type_id":"4","last_reported":1684879599,"current_range_meters":12400,"station_id":"ce4bh012rcd13ifvqcv0","pricing_plan_id":"free"},{"bike_id":"78173b35-9e73-4b21-94fe-66c134b5a868","system_id":"levelo_inurba_marseille","lat":43.313291,"lon":5.396838,"is_reserved":false,"is_disabled":false,"rental_uris":{"android":"levelo://app?vid=78173b35-9e73-4b21-94fe-66c134b5a868","ios":"levelo://app?vid=78173b35-9e73-4b21-94fe-66c134b5a868"},"vehicle_type_id":"4","last_reported":1684879599,"current_range_meters":16800,"station_id":"ce4bgvp2rcd13ifvqcu0","pricing_plan_id":"free"},{"bike_id":"b560a874-b6d8-42aa-b435-940d477b03c2","system_id":"levelo_inurba_marseille","lat":43.302008,"lon":5.394694,"is_reserved":false,"is_disabled":false,"rental_uris":{"android":"levelo://app?vid=b560a874-b6d8-42aa-b435-940d477b03c2","ios":"levelo://app?vid=b560a874-b6d8-42aa-b435-940d477b03c2"},"vehicle_type_id":"4","last_reported":1684879599,"current_range_meters":10000,"station_id":"ce4bh0p2rcd13ifvqd70","pricing_plan_id":"free"},{"bike_id":"c00c10ba-bf1c-4884-9085-ab49342c17cc","system_id":"levelo_inurba_marseille","lat":43.31024,"lon":5.39816,"is_reserved":false,"is_disabled":false,"rental_uris":{"android":"levelo://app?vid=c00c10ba-bf1c-4884-9085-ab49342c17cc","ios":"levelo://app?vid=c00c10ba-bf1c-4884-9085-ab49342c17cc"},"vehicle_type_id":"4","last_reported":1684879599,"current_range_meters":27200,"station_id":"","pricing_plan_id":"free"},{"bike_id":"ae5a3a83-fd34-46b0-b676-43df5adc9e80","system_id":"levelo_inurba_marseille","lat":43.290631,"lon":5.359244,"is_reserved":false,"is_disabled":false,"rental_uris":{"android":"levelo://app?vid=ae5a3a83-fd34-46b0-b676-43df5adc9e80","ios":"levelo://app?vid=ae5a3a83-fd34-46b0-b676-43df5adc9e80"},"vehicle_type_id":"4","last_reported":1684879599,"current_range_meters":27200,"station_id":"ce4bha92rcd13ifvqeg0","pricing_plan_id":"free"},{"bike_id":"3cced574-d168-4c7b-b220-d01918e41774","system_id":"levelo_inurba_marseille","lat":43.290624,"lon":5.359245,"is_reserved":false,"is_disabled":false,"rental_uris":{"android":"levelo://app?vid=3cced574-d168-4c7b-b220-d01918e41774","ios":"levelo://app?vid=3cced574-d168-4c7b-b220-d01918e41774"},"vehicle_type_id":"4","last_reported":1684879599,"current_range_meters":27200,"station_id":"ce4bha92rcd13ifvqeg0","pricing_plan_id":"free"},{"bike_id":"2cf5b966-401f-4954-a903-6a881c8c984b","system_id":"levelo_inurba_marseille","lat":43.29047,"lon":5.35911,"is_reserved":false,"is_disabled":false,"rental_uris":{"android":"levelo://app?vid=2cf5b966-401f-4954-a903-6a881c8c984b","ios":"levelo://app?vid=2cf5b966-401f-4954-a903-6a881c8c984b"},"vehicle_type_id":"4","last_reported":1684879599,"current_range_meters":26400,"station_id":"","pricing_plan_id":"free"},{"bike_id":"1642125e-f634-49ff-8312-210f51505601","system_id":"levelo_inurba_marseille","lat":43.290631,"lon":5.359244,"is_reserved":false,"is_disabled":false,"rental_uris":{"android":"levelo://app?vid=1642125e-f634-49ff-8312-210f51505601","ios":"levelo://app?vid=1642125e-f634-49ff-8312-210f51505601"},"vehicle_type_id":"4","last_reported":1684879599,"current_range_meters":22400,"station_id":"ce4bha92rcd13ifvqeg0","pricing_plan_id":"free"},{"bike_id":"7d98a2a3-0803-4c01-935d-35d45d96ba94","system_id":"levelo_inurba_marseille","lat":43.290631,"lon":5.359244,"is_reserved":false,"is_disabled":false,"rental_uris":{"android":"levelo://app?vid=7d98a2a3-0803-4c01-935d-35d45d96ba94","ios":"levelo://app?vid=7d98a2a3-0803-4c01-935d-35d45d96ba94"},"vehicle_type_id":"4","last_reported":1684879599,"current_range_meters":16800,"station_id":"ce4bha92rcd13ifvqeg0","pricing_plan_id":"free"},{"bike_id":"2a8952b5-14aa-4abd-90f2-aae39ed2ebe1","system_id":"levelo_inurba_marseille","lat":43.290631,"lon":5.359244,"is_reserved":false,"is_disabled":false,"rental_uris":{"android":"levelo://app?vid=2a8952b5-14aa-4abd-90f2-aae39ed2ebe1","ios":"levelo://app?vid=2a8952b5-14aa-4abd-90f2-aae39ed2ebe1"},"vehicle_type_id":"4","last_reported":1684879599,"current_range_meters":22000,"station_id":"ce4bha92rcd13ifvqeg0","pricing_plan_id":"free"},{"bike_id":"56e94820-f617-4855-9919-8342083fc49e","system_id":"levelo_inurba_marseille","lat":43.290319,"lon":5.375732,"is_reserved":false,"is_disabled":false,"rental_uris":{"android":"levelo://app?vid=56e94820-f617-4855-9919-8342083fc49e","ios":"levelo://app?vid=56e94820-f617-4855-9919-8342083fc49e"},"vehicle_type_id":"4","last_reported":1684879599,"current_range_meters":29200,"station_id":"ce4bh692rcd13ifvqe90","pricing_plan_id":"free"},{"bike_id":"e65cb25c-ab0e-4160-9964-9586a04606af","system_id":"levelo_inurba_marseille","lat":43.289468,"lon":5.363719,"is_reserved":false,"is_disabled":false,"rental_uris":{"android":"levelo://app?vid=e65cb25c-ab0e-4160-9964-9586a04606af","ios":"levelo://app?vid=e65cb25c-ab0e-4160-9964-9586a04606af"},"vehicle_type_id":"4","last_reported":1684879599,"current_range_meters":22000,"station_id":"ce4bhc92rcd13ifvqetg","pricing_plan_id":"free"},{"bike_id":"0f0ab681-7ad9-4c0f-8c44-e8270ec03fce","system_id":"levelo_inurba_marseille","lat":43.290327,"lon":5.375711,"is_reserved":false,"is_disabled":false,"rental_uris":{"android":"levelo://app?vid=0f0ab681-7ad9-4c0f-8c44-e8270ec03fce","ios":"levelo://app?vid=0f0ab681-7ad9-4c0f-8c44-e8270ec03fce"},"vehicle_type_id":"4","last_reported":1684879599,"current_range_meters":17600,"station_id":"ce4bh692rcd13ifvqe90","pricing_plan_id":"free"},{"bike_id":"c2c9218e-b7a4-44bb-950c-f9106bfa52ed","system_id":"levelo_inurba_marseille","lat":43.289468,"lon":5.363719,"is_reserved":false,"is_disabled":false,"rental_uris":{"android":"levelo://app?vid=c2c9218e-b7a4-44bb-950c-f9106bfa52ed","ios":"levelo://app?vid=c2c9218e-b7a4-44bb-950c-f9106bfa52ed"},"vehicle_type_id":"4","last_reported":1684879599,"current_range_meters":3600,"station_id":"ce4bhc92rcd13ifvqetg","pricing_plan_id":"free"},{"bike_id":"bb14ce23-c6e2-46e8-8ac4-eb8aae13c7a7","system_id":"levelo_inurba_marseille","lat":43.29272,"lon":5.384302,"is_reserved":false,"is_disabled":false,"rental_uris":{"android":"levelo://app?vid=bb14ce23-c6e2-46e8-8ac4-eb8aae13c7a7","ios":"levelo://app?vid=bb14ce23-c6e2-46e8-8ac4-eb8aae13c7a7"},"vehicle_type_id":"4","last_reported":1684879599,"current_range_meters":24800,"station_id":"ce4bh692rcd13ifvqea0","pricing_plan_id":"free"},{"bike_id":"a155d997-325e-4279-9919-3e0c88f82eb9","system_id":"levelo_inurba_marseille","lat":43.294162,"lon":5.386292,"is_reserved":false,"is_disabled":false,"rental_uris":{"android":"levelo://app?vid=a155d997-325e-4279-9919-3e0c88f82eb9","ios":"levelo://app?vid=a155d997-325e-4279-9919-3e0c88f82eb9"},"vehicle_type_id":"4","last_reported":1684879599,"current_range_meters":800,"station_id":"ce4bh2h2rcd13ifvqdh0","pricing_plan_id":"free"},{"bike_id":"57b8c5a1-2ebd-4e1a-9c80-0a6fce7f9d09","system_id":"levelo_inurba_marseille","lat":43.292644,"lon":5.384257,"is_reserved":false,"is_disabled":false,"rental_uris":{"android":"levelo://app?vid=57b8c5a1-2ebd-4e1a-9c80-0a6fce7f9d09","ios":"levelo://app?vid=57b8c5a1-2ebd-4e1a-9c80-0a6fce7f9d09"},"vehicle_type_id":"4","last_reported":1684879599,"current_range_meters":24400,"station_id":"ce4bh692rcd13ifvqea0","pricing_plan_id":"free"},{"bike_id":"cb1bfab7-b011-40b0-bb7c-8bb1bae6a9bc","system_id":"levelo_inurba_marseille","lat":43.292644,"lon":5.384257,"is_reserved":false,"is_disabled":false,"rental_uris":{"android":"levelo://app?vid=cb1bfab7-b011-40b0-bb7c-8bb1bae6a9bc","ios":"levelo://app?vid=cb1bfab7-b011-40b0-bb7c-8bb1bae6a9bc"},"vehicle_type_id":"4","last_reported":1684879599,"current_range_meters":14000,"station_id":"ce4bh692rcd13ifvqea0","pricing_plan_id":"free"},{"bike_id":"3adf8e5c-286a-4182-b7b0-67c891443512","system_id":"levelo_inurba_marseille","lat":43.304274,"lon":5.397513,"is_reserved":false,"is_disabled":false,"rental_uris":{"android":"levelo://app?vid=3adf8e5c-286a-4182-b7b0-67c891443512","ios":"levelo://app?vid=3adf8e5c-286a-4182-b7b0-67c891443512"},"vehicle_type_id":"4","last_reported":1684879599,"current_range_meters":11600,"station_id":"ce4bh092rcd13ifvqd20","pricing_plan_id":"free"},{"bike_id":"1185e6ef-9bac-40e6-8b2a-ad5b72702c2f","system_id":"levelo_inurba_marseille","lat":43.3043,"lon":5.39748,"is_reserved":false,"is_disabled":false,"rental_uris":{"android":"levelo://app?vid=1185e6ef-9bac-40e6-8b2a-ad5b72702c2f","ios":"levelo://app?vid=1185e6ef-9bac-40e6-8b2a-ad5b72702c2f"},"vehicle_type_id":"4","last_reported":1684879599,"current_range_meters":12000,"station_id":"ce4bh092rcd13ifvqd20","pricing_plan_id":"free"},{"bike_id":"9d2110f3-0eb1-4d2f-b117-be8d96fb475c","system_id":"levelo_inurba_marseille","lat":43.292644,"lon":5.384257,"is_reserved":false,"is_disabled":false,"rental_uris":{"android":"levelo://app?vid=9d2110f3-0eb1-4d2f-b117-be8d96fb475c","ios":"levelo://app?vid=9d2110f3-0eb1-4d2f-b117-be8d96fb475c"},"vehicle_type_id":"4","last_reported":1684879599,"current_range_meters":800,"station_id":"ce4bh692rcd13ifvqea0","pricing_plan_id":"free"},{"bike_id":"18d95485-f0c6-4aa8-8383-16c87a3a57e1","system_id":"levelo_inurba_marseille","lat":43.30436,"lon":5.39758,"is_reserved":false,"is_disabled":false,"rental_uris":{"android":"levelo://app?vid=18d95485-f0c6-4aa8-8383-16c87a3a57e1","ios":"levelo://app?vid=18d95485-f0c6-4aa8-8383-16c87a3a57e1"},"vehicle_type_id":"4","last_reported":1684879599,"current_range_meters":6400,"station_id":"ce4bh092rcd13ifvqd20","pricing_plan_id":"free"},{"bike_id":"649048bb-3e9b-48e2-8ce7-87a550e114e9","system_id":"levelo_inurba_marseille","lat":43.304274,"lon":5.397513,"is_reserved":false,"is_disabled":false,"rental_uris":{"android":"levelo://app?vid=649048bb-3e9b-48e2-8ce7-87a550e114e9","ios":"levelo://app?vid=649048bb-3e9b-48e2-8ce7-87a550e114e9"},"vehicle_type_id":"4","last_reported":1684879599,"current_range_meters":4400,"station_id":"ce4bh092rcd13ifvqd20","pricing_plan_id":"free"},{"bike_id":"5be9e55d-723c-4686-bba5-7790c5ed9d51","system_id":"levelo_inurba_marseille","lat":43.304274,"lon":5.397513,"is_reserved":false,"is_disabled":false,"rental_uris":{"android":"levelo://app?vid=5be9e55d-723c-4686-bba5-7790c5ed9d51","ios":"levelo://app?vid=5be9e55d-723c-4686-bba5-7790c5ed9d51"},"vehicle_type_id":"4","last_reported":1684879599,"current_range_meters":19200,"station_id":"ce4bh092rcd13ifvqd20","pricing_plan_id":"free"},{"bike_id":"7903c7d5-3fb3-4112-bcab-7146c5db279b","system_id":"levelo_inurba_marseille","lat":43.304274,"lon":5.397513,"is_reserved":false,"is_disabled":false,"rental_uris":{"android":"levelo://app?vid=7903c7d5-3fb3-4112-bcab-7146c5db279b","ios":"levelo://app?vid=7903c7d5-3fb3-4112-bcab-7146c5db279b"},"vehicle_type_id":"4","last_reported":1684879599,"current_range_meters":20800,"station_id":"ce4bh092rcd13ifvqd20","pricing_plan_id":"free"},{"bike_id":"888e22a2-99d9-4fc1-abcd-75c70d66bbbe","system_id":"levelo_inurba_marseille","lat":43.3044,"lon":5.39766,"is_reserved":false,"is_disabled":false,"rental_uris":{"android":"levelo://app?vid=888e22a2-99d9-4fc1-abcd-75c70d66bbbe","ios":"levelo://app?vid=888e22a2-99d9-4fc1-abcd-75c70d66bbbe"},"vehicle_type_id":"4","last_reported":1684879599,"current_range_meters":31200,"station_id":"ce4bh092rcd13ifvqd20","pricing_plan_id":"free"},{"bike_id":"10173f54-ce03-47c2-aa4d-d9bd41a6cd92","system_id":"levelo_inurba_marseille","lat":43.30425,"lon":5.3976,"is_reserved":false,"is_disabled":false,"rental_uris":{"android":"levelo://app?vid=10173f54-ce03-47c2-aa4d-d9bd41a6cd92","ios":"levelo://app?vid=10173f54-ce03-47c2-aa4d-d9bd41a6cd92"},"vehicle_type_id":"4","last_reported":1684879599,"current_range_meters":13200,"station_id":"ce4bh092rcd13ifvqd20","pricing_plan_id":"free"},{"bike_id":"96712b4a-6e3e-4157-920b-b8141c678f09","system_id":"levelo_inurba_marseille","lat":43.33043,"lon":5.38916,"is_reserved":false,"is_disabled":false,"rental_uris":{"android":"levelo://app?vid=96712b4a-6e3e-4157-920b-b8141c678f09","ios":"levelo://app?vid=96712b4a-6e3e-4157-920b-b8141c678f09"},"vehicle_type_id":"4","last_reported":1684879599,"current_range_meters":16400,"station_id":"ce4bhr92rcd13ifvqhrg","pricing_plan_id":"free"},{"bike_id":"89436d2a-e1c6-4c5d-8c21-4f5ddca0c3e6","system_id":"levelo_inurba_marseille","lat":43.33046,"lon":5.38913,"is_reserved":false,"is_disabled":false,"rental_uris":{"android":"levelo://app?vid=89436d2a-e1c6-4c5d-8c21-4f5ddca0c3e6","ios":"levelo://app?vid=89436d2a-e1c6-4c5d-8c21-4f5ddca0c3e6"},"vehicle_type_id":"4","last_reported":1684879599,"current_range_meters":19200,"station_id":"ce4bhr92rcd13ifvqhrg","pricing_plan_id":"free"},{"bike_id":"c90adfb5-6daf-417e-a007-b698a6f2f093","system_id":"levelo_inurba_marseille","lat":43.33047,"lon":5.38914,"is_reserved":false,"is_disabled":false,"rental_uris":{"android":"levelo://app?vid=c90adfb5-6daf-417e-a007-b698a6f2f093","ios":"levelo://app?vid=c90adfb5-6daf-417e-a007-b698a6f2f093"},"vehicle_type_id":"4","last_reported":1684879599,"current_range_meters":0,"station_id":"ce4bhr92rcd13ifvqhrg","pricing_plan_id":"free"},{"bike_id":"44751f6c-f3eb-45e1-b024-f70ba1609ebc","system_id":"levelo_inurba_marseille","lat":43.297814,"lon":5.393513,"is_reserved":false,"is_disabled":false,"rental_uris":{"android":"levelo://app?vid=44751f6c-f3eb-45e1-b024-f70ba1609ebc","ios":"levelo://app?vid=44751f6c-f3eb-45e1-b024-f70ba1609ebc"},"vehicle_type_id":"4","last_reported":1684879599,"current_range_meters":16400,"station_id":"chh1huq6cuj3fo74tm60","pricing_plan_id":"free"},{"bike_id":"742554e0-24ec-40b6-95a1-6131d001c9e8","system_id":"levelo_inurba_marseille","lat":43.297814,"lon":5.393513,"is_reserved":false,"is_disabled":false,"rental_uris":{"android":"levelo://app?vid=742554e0-24ec-40b6-95a1-6131d001c9e8","ios":"levelo://app?vid=742554e0-24ec-40b6-95a1-6131d001c9e8"},"vehicle_type_id":"4","last_reported":1684879599,"current_range_meters":0,"station_id":"chh1huq6cuj3fo74tm60","pricing_plan_id":"free"},{"bike_id":"5bdfcb69-a712-4fdb-aaca-35c9a327a274","system_id":"levelo_inurba_marseille","lat":43.297814,"lon":5.393513,"is_reserved":false,"is_disabled":false,"rental_uris":{"android":"levelo://app?vid=5bdfcb69-a712-4fdb-aaca-35c9a327a274","ios":"levelo://app?vid=5bdfcb69-a712-4fdb-aaca-35c9a327a274"},"vehicle_type_id":"4","last_reported":1684879599,"current_range_meters":12800,"station_id":"chh1huq6cuj3fo74tm60","pricing_plan_id":"free"},{"bike_id":"a8c2a71d-69f0-4c6d-93e1-eef8300d6764","system_id":"levelo_inurba_marseille","lat":43.289741,"lon":5.378306,"is_reserved":false,"is_disabled":false,"rental_uris":{"android":"levelo://app?vid=a8c2a71d-69f0-4c6d-93e1-eef8300d6764","ios":"levelo://app?vid=a8c2a71d-69f0-4c6d-93e1-eef8300d6764"},"vehicle_type_id":"4","last_reported":1684879599,"current_range_meters":8000,"station_id":"ce4bh9p2rcd13ifvqed0","pricing_plan_id":"free"},{"bike_id":"9ca55a1a-45e1-4c7f-869c-04ac7a31ad46","system_id":"levelo_inurba_marseille","lat":43.289741,"lon":5.378306,"is_reserved":false,"is_disabled":false,"rental_uris":{"android":"levelo://app?vid=9ca55a1a-45e1-4c7f-869c-04ac7a31ad46","ios":"levelo://app?vid=9ca55a1a-45e1-4c7f-869c-04ac7a31ad46"},"vehicle_type_id":"4","last_reported":1684879599,"current_range_meters":19200,"station_id":"ce4bh9p2rcd13ifvqed0","pricing_plan_id":"free"},{"bike_id":"a0a1c474-66e3-43e4-b55a-12f399fe2eaa","system_id":"levelo_inurba_marseille","lat":43.289741,"lon":5.378306,"is_reserved":false,"is_disabled":false,"rental_uris":{"android":"levelo://app?vid=a0a1c474-66e3-43e4-b55a-12f399fe2eaa","ios":"levelo://app?vid=a0a1c474-66e3-43e4-b55a-12f399fe2eaa"},"vehicle_type_id":"4","last_reported":1684879599,"current_range_meters":24000,"station_id":"ce4bh9p2rcd13ifvqed0","pricing_plan_id":"free"},{"bike_id":"38264f19-5fce-48f9-a17c-463d0196a92d","system_id":"levelo_inurba_marseille","lat":43.2952,"lon":5.3904,"is_reserved":false,"is_disabled":false,"rental_uris":{"android":"levelo://app?vid=38264f19-5fce-48f9-a17c-463d0196a92d","ios":"levelo://app?vid=38264f19-5fce-48f9-a17c-463d0196a92d"},"vehicle_type_id":"4","last_reported":1684879599,"current_range_meters":29200,"station_id":"ce4bh3p2rcd13ifvqdp0","pricing_plan_id":"free"},{"bike_id":"0d8c4fb3-6bde-4045-b2c4-65d6ccf0b6c6","system_id":"levelo_inurba_marseille","lat":43.295169,"lon":5.390426,"is_reserved":false,"is_disabled":false,"rental_uris":{"android":"levelo://app?vid=0d8c4fb3-6bde-4045-b2c4-65d6ccf0b6c6","ios":"levelo://app?vid=0d8c4fb3-6bde-4045-b2c4-65d6ccf0b6c6"},"vehicle_type_id":"4","last_reported":1684879599,"current_range_meters":16400,"station_id":"ce4bh3p2rcd13ifvqdp0","pricing_plan_id":"free"},{"bike_id":"73310a1e-cac0-4da4-9705-f695f836b455","system_id":"levelo_inurba_marseille","lat":43.295169,"lon":5.390426,"is_reserved":false,"is_disabled":false,"rental_uris":{"android":"levelo://app?vid=73310a1e-cac0-4da4-9705-f695f836b455","ios":"levelo://app?vid=73310a1e-cac0-4da4-9705-f695f836b455"},"vehicle_type_id":"4","last_reported":1684879599,"current_range_meters":18800,"station_id":"ce4bh3p2rcd13ifvqdp0","pricing_plan_id":"free"},{"bike_id":"15fccb34-0fd0-40bc-9ad7-813c39209fa1","system_id":"levelo_inurba_marseille","lat":43.295169,"lon":5.390426,"is_reserved":false,"is_disabled":false,"rental_uris":{"android":"levelo://app?vid=15fccb34-0fd0-40bc-9ad7-813c39209fa1","ios":"levelo://app?vid=15fccb34-0fd0-40bc-9ad7-813c39209fa1"},"vehicle_type_id":"4","last_reported":1684879599,"current_range_meters":17200,"station_id":"ce4bh3p2rcd13ifvqdp0","pricing_plan_id":"free"},{"bike_id":"95151d67-901b-413e-b179-f8a416ec40c3","system_id":"levelo_inurba_marseille","lat":43.30514,"lon":5.39935,"is_reserved":false,"is_disabled":false,"rental_uris":{"android":"levelo://app?vid=95151d67-901b-413e-b179-f8a416ec40c3","ios":"levelo://app?vid=95151d67-901b-413e-b179-f8a416ec40c3"},"vehicle_type_id":"4","last_reported":1684879599,"current_range_meters":3600,"station_id":"","pricing_plan_id":"free"},{"bike_id":"35a2f220-0902-4dae-9d78-359ae91e22b8","system_id":"levelo_inurba_marseille","lat":43.2901,"lon":5.381269,"is_reserved":false,"is_disabled":false,"rental_uris":{"android":"levelo://app?vid=35a2f220-0902-4dae-9d78-359ae91e22b8","ios":"levelo://app?vid=35a2f220-0902-4dae-9d78-359ae91e22b8"},"vehicle_type_id":"4","last_reported":1684879599,"current_range_meters":19200,"station_id":"ce4bh4p2rcd13ifvqe1g","pricing_plan_id":"free"},{"bike_id":"a7598fbb-ae0c-4598-a217-dc812df9046a","system_id":"levelo_inurba_marseille","lat":43.29022,"lon":5.38132,"is_reserved":false,"is_disabled":false,"rental_uris":{"android":"levelo://app?vid=a7598fbb-ae0c-4598-a217-dc812df9046a","ios":"levelo://app?vid=a7598fbb-ae0c-4598-a217-dc812df9046a"},"vehicle_type_id":"4","last_reported":1684879599,"current_range_meters":1200,"station_id":"ce4bh4p2rcd13ifvqe1g","pricing_plan_id":"free"},{"bike_id":"bc9523b0-cc60-4700-8839-0ebefe662995","system_id":"levelo_inurba_marseille","lat":43.28856,"lon":5.358371,"is_reserved":false,"is_disabled":false,"rental_uris":{"android":"levelo://app?vid=bc9523b0-cc60-4700-8839-0ebefe662995","ios":"levelo://app?vid=bc9523b0-cc60-4700-8839-0ebefe662995"},"vehicle_type_id":"4","last_reported":1684879599,"current_range_meters":0,"station_id":"ce4bhb12rcd13ifvqem0","pricing_plan_id":"free"},{"bike_id":"6c0a4d9b-5a94-4e51-b059-4b459ad653bc","system_id":"levelo_inurba_marseille","lat":43.2885,"lon":5.35848,"is_reserved":false,"is_disabled":false,"rental_uris":{"android":"levelo://app?vid=6c0a4d9b-5a94-4e51-b059-4b459ad653bc","ios":"levelo://app?vid=6c0a4d9b-5a94-4e51-b059-4b459ad653bc"},"vehicle_type_id":"4","last_reported":1684879599,"current_range_meters":6000,"station_id":"ce4bhb12rcd13ifvqem0","pricing_plan_id":"free"},{"bike_id":"c079649d-6e21-4aec-9e98-d4123192d026","system_id":"levelo_inurba_marseille","lat":43.2479,"lon":5.374457,"is_reserved":false,"is_disabled":false,"rental_uris":{"android":"levelo://app?vid=c079649d-6e21-4aec-9e98-d4123192d026","ios":"levelo://app?vid=c079649d-6e21-4aec-9e98-d4123192d026"},"vehicle_type_id":"4","last_reported":1684879599,"current_range_meters":14000,"station_id":"ce4bhgh2rcd13ifvqfb0","pricing_plan_id":"free"},{"bike_id":"920f04cf-6011-406c-9304-c415ecb6e1ed","system_id":"levelo_inurba_marseille","lat":43.30642,"lon":5.401031,"is_reserved":false,"is_disabled":false,"rental_uris":{"android":"levelo://app?vid=920f04cf-6011-406c-9304-c415ecb6e1ed","ios":"levelo://app?vid=920f04cf-6011-406c-9304-c415ecb6e1ed"},"vehicle_type_id":"4","last_reported":1684879599,"current_range_meters":20800,"station_id":"ce4bh112rcd13ifvqda0","pricing_plan_id":"free"},{"bike_id":"8b89341e-b439-4b8b-abce-366165733ffa","system_id":"levelo_inurba_marseille","lat":43.30642,"lon":5.401031,"is_reserved":false,"is_disabled":false,"rental_uris":{"android":"levelo://app?vid=8b89341e-b439-4b8b-abce-366165733ffa","ios":"levelo://app?vid=8b89341e-b439-4b8b-abce-366165733ffa"},"vehicle_type_id":"4","last_reported":1684879599,"current_range_meters":9200,"station_id":"ce4bh112rcd13ifvqda0","pricing_plan_id":"free"},{"bike_id":"c8a6a57f-cf6f-47a9-b295-a6917843e52c","system_id":"levelo_inurba_marseille","lat":43.33754,"lon":5.37456,"is_reserved":false,"is_disabled":false,"rental_uris":{"android":"levelo://app?vid=c8a6a57f-cf6f-47a9-b295-a6917843e52c","ios":"levelo://app?vid=c8a6a57f-cf6f-47a9-b295-a6917843e52c"},"vehicle_type_id":"4","last_reported":1684879599,"current_range_meters":1200,"station_id":"","pricing_plan_id":"free"},{"bike_id":"fa8aa980-3d66-469a-9738-e2e7d6b7aad7","system_id":"levelo_inurba_marseille","lat":43.33758,"lon":5.37434,"is_reserved":false,"is_disabled":false,"rental_uris":{"android":"levelo://app?vid=fa8aa980-3d66-469a-9738-e2e7d6b7aad7","ios":"levelo://app?vid=fa8aa980-3d66-469a-9738-e2e7d6b7aad7"},"vehicle_type_id":"4","last_reported":1684879599,"current_range_meters":31200,"station_id":"","pricing_plan_id":"free"},{"bike_id":"c4a5185a-3a53-47d1-96ae-3197849b49ff","system_id":"levelo_inurba_marseille","lat":43.30642,"lon":5.401031,"is_reserved":false,"is_disabled":false,"rental_uris":{"android":"levelo://app?vid=c4a5185a-3a53-47d1-96ae-3197849b49ff","ios":"levelo://app?vid=c4a5185a-3a53-47d1-96ae-3197849b49ff"},"vehicle_type_id":"4","last_reported":1684879599,"current_range_meters":20400,"station_id":"ce4bh112rcd13ifvqda0","pricing_plan_id":"free"},{"bike_id":"45506292-f55c-467e-bcf7-ca72fe20e71c","system_id":"levelo_inurba_marseille","lat":43.30645,"lon":5.40083,"is_reserved":false,"is_disabled":false,"rental_uris":{"android":"levelo://app?vid=45506292-f55c-467e-bcf7-ca72fe20e71c","ios":"levelo://app?vid=45506292-f55c-467e-bcf7-ca72fe20e71c"},"vehicle_type_id":"4","last_reported":1684879599,"current_range_meters":14400,"station_id":"ce4bh112rcd13ifvqda0","pricing_plan_id":"free"},{"bike_id":"42fe6271-5913-42a0-810f-21eec146368b","system_id":"levelo_inurba_marseille","lat":43.30642,"lon":5.401031,"is_reserved":false,"is_disabled":false,"rental_uris":{"android":"levelo://app?vid=42fe6271-5913-42a0-810f-21eec146368b","ios":"levelo://app?vid=42fe6271-5913-42a0-810f-21eec146368b"},"vehicle_type_id":"4","last_reported":1684879599,"current_range_meters":17600,"station_id":"ce4bh112rcd13ifvqda0","pricing_plan_id":"free"},{"bike_id":"7df7a62c-f249-4aee-a961-7f8771c1e324","system_id":"levelo_inurba_marseille","lat":43.33765,"lon":5.37447,"is_reserved":false,"is_disabled":false,"rental_uris":{"android":"levelo://app?vid=7df7a62c-f249-4aee-a961-7f8771c1e324","ios":"levelo://app?vid=7df7a62c-f249-4aee-a961-7f8771c1e324"},"vehicle_type_id":"4","last_reported":1684879599,"current_range_meters":27600,"station_id":"","pricing_plan_id":"free"},{"bike_id":"e123cd43-562a-427d-b741-98d33ce5dea2","system_id":"levelo_inurba_marseille","lat":43.33772,"lon":5.37437,"is_reserved":false,"is_disabled":false,"rental_uris":{"android":"levelo://app?vid=e123cd43-562a-427d-b741-98d33ce5dea2","ios":"levelo://app?vid=e123cd43-562a-427d-b741-98d33ce5dea2"},"vehicle_type_id":"4","last_reported":1684879599,"current_range_meters":31200,"station_id":"","pricing_plan_id":"free"},{"bike_id":"c3b66989-b85e-4172-b369-d5cd98ae4ea7","system_id":"levelo_inurba_marseille","lat":43.33769,"lon":5.37463,"is_reserved":false,"is_disabled":false,"rental_uris":{"android":"levelo://app?vid=c3b66989-b85e-4172-b369-d5cd98ae4ea7","ios":"levelo://app?vid=c3b66989-b85e-4172-b369-d5cd98ae4ea7"},"vehicle_type_id":"4","last_reported":1684879599,"current_range_meters":0,"station_id":"","pricing_plan_id":"free"},{"bike_id":"6ea911b6-4686-4cf5-aed7-5d80594fa9bc","system_id":"levelo_inurba_marseille","lat":43.30642,"lon":5.401031,"is_reserved":false,"is_disabled":false,"rental_uris":{"android":"levelo://app?vid=6ea911b6-4686-4cf5-aed7-5d80594fa9bc","ios":"levelo://app?vid=6ea911b6-4686-4cf5-aed7-5d80594fa9bc"},"vehicle_type_id":"4","last_reported":1684879599,"current_range_meters":26400,"station_id":"ce4bh112rcd13ifvqda0","pricing_plan_id":"free"},{"bike_id":"67751db1-d909-45bd-9e47-d32a4fef5f76","system_id":"levelo_inurba_marseille","lat":43.33779,"lon":5.37454,"is_reserved":false,"is_disabled":false,"rental_uris":{"android":"levelo://app?vid=67751db1-d909-45bd-9e47-d32a4fef5f76","ios":"levelo://app?vid=67751db1-d909-45bd-9e47-d32a4fef5f76"},"vehicle_type_id":"4","last_reported":1684879599,"current_range_meters":29200,"station_id":"","pricing_plan_id":"free"},{"bike_id":"ada03108-7606-4103-9816-bcfead2b09b7","system_id":"levelo_inurba_marseille","lat":43.30436,"lon":5.40087,"is_reserved":false,"is_disabled":false,"rental_uris":{"android":"levelo://app?vid=ada03108-7606-4103-9816-bcfead2b09b7","ios":"levelo://app?vid=ada03108-7606-4103-9816-bcfead2b09b7"},"vehicle_type_id":"4","last_reported":1684879599,"current_range_meters":23600,"station_id":"","pricing_plan_id":"free"},{"bike_id":"10499af1-2806-4e28-a7c5-e4dc26aef808","system_id":"levelo_inurba_marseille","lat":43.30434,"lon":5.40088,"is_reserved":false,"is_disabled":false,"rental_uris":{"android":"levelo://app?vid=10499af1-2806-4e28-a7c5-e4dc26aef808","ios":"levelo://app?vid=10499af1-2806-4e28-a7c5-e4dc26aef808"},"vehicle_type_id":"4","last_reported":1684879599,"current_range_meters":9600,"station_id":"","pricing_plan_id":"free"},{"bike_id":"f88821db-c576-4401-b7b3-13289cb9d77e","system_id":"levelo_inurba_marseille","lat":43.286591,"lon":5.363346,"is_reserved":false,"is_disabled":false,"rental_uris":{"android":"levelo://app?vid=f88821db-c576-4401-b7b3-13289cb9d77e","ios":"levelo://app?vid=f88821db-c576-4401-b7b3-13289cb9d77e"},"vehicle_type_id":"4","last_reported":1684879599,"current_range_meters":14800,"station_id":"ce4bhah2rcd13ifvqej0","pricing_plan_id":"free"},{"bike_id":"abbb07c1-ed9e-4b09-8541-a088bb42b6a6","system_id":"levelo_inurba_marseille","lat":43.286591,"lon":5.363346,"is_reserved":false,"is_disabled":false,"rental_uris":{"android":"levelo://app?vid=abbb07c1-ed9e-4b09-8541-a088bb42b6a6","ios":"levelo://app?vid=abbb07c1-ed9e-4b09-8541-a088bb42b6a6"},"vehicle_type_id":"4","last_reported":1684879599,"current_range_meters":24800,"station_id":"ce4bhah2rcd13ifvqej0","pricing_plan_id":"free"},{"bike_id":"5913b661-430e-4b79-947b-67fc67f7f40b","system_id":"levelo_inurba_marseille","lat":43.286591,"lon":5.363346,"is_reserved":false,"is_disabled":false,"rental_uris":{"android":"levelo://app?vid=5913b661-430e-4b79-947b-67fc67f7f40b","ios":"levelo://app?vid=5913b661-430e-4b79-947b-67fc67f7f40b"},"vehicle_type_id":"4","last_reported":1684879599,"current_range_meters":30800,"station_id":"ce4bhah2rcd13ifvqej0","pricing_plan_id":"free"},{"bike_id":"20f8981e-69e2-475d-b416-11457ff35fc0","system_id":"levelo_inurba_marseille","lat":43.286591,"lon":5.363346,"is_reserved":false,"is_disabled":false,"rental_uris":{"android":"levelo://app?vid=20f8981e-69e2-475d-b416-11457ff35fc0","ios":"levelo://app?vid=20f8981e-69e2-475d-b416-11457ff35fc0"},"vehicle_type_id":"4","last_reported":1684879599,"current_range_meters":31200,"station_id":"ce4bhah2rcd13ifvqej0","pricing_plan_id":"free"},{"bike_id":"651f95b8-bd06-43e6-a773-2bed2468d127","system_id":"levelo_inurba_marseille","lat":43.28662,"lon":5.36361,"is_reserved":false,"is_disabled":false,"rental_uris":{"android":"levelo://app?vid=651f95b8-bd06-43e6-a773-2bed2468d127","ios":"levelo://app?vid=651f95b8-bd06-43e6-a773-2bed2468d127"},"vehicle_type_id":"4","last_reported":1684879599,"current_range_meters":19200,"station_id":"ce4bhah2rcd13ifvqej0","pricing_plan_id":"free"},{"bike_id":"1532a28d-24fd-4a7f-9258-baaa3b063c49","system_id":"levelo_inurba_marseille","lat":43.286591,"lon":5.363346,"is_reserved":false,"is_disabled":false,"rental_uris":{"android":"levelo://app?vid=1532a28d-24fd-4a7f-9258-baaa3b063c49","ios":"levelo://app?vid=1532a28d-24fd-4a7f-9258-baaa3b063c49"},"vehicle_type_id":"4","last_reported":1684879599,"current_range_meters":18000,"station_id":"ce4bhah2rcd13ifvqej0","pricing_plan_id":"free"},{"bike_id":"8c3e0d6f-395a-42bc-b3d4-134beb35fe06","system_id":"levelo_inurba_marseille","lat":43.298681,"lon":5.397225,"is_reserved":false,"is_disabled":false,"rental_uris":{"android":"levelo://app?vid=8c3e0d6f-395a-42bc-b3d4-134beb35fe06","ios":"levelo://app?vid=8c3e0d6f-395a-42bc-b3d4-134beb35fe06"},"vehicle_type_id":"4","last_reported":1684879599,"current_range_meters":27200,"station_id":"ce4bh0h2rcd13ifvqd50","pricing_plan_id":"free"},{"bike_id":"69b9a307-3679-4251-af69-c2a8f0a206cb","system_id":"levelo_inurba_marseille","lat":43.286591,"lon":5.363346,"is_reserved":false,"is_disabled":false,"rental_uris":{"android":"levelo://app?vid=69b9a307-3679-4251-af69-c2a8f0a206cb","ios":"levelo://app?vid=69b9a307-3679-4251-af69-c2a8f0a206cb"},"vehicle_type_id":"4","last_reported":1684879599,"current_range_meters":6000,"station_id":"ce4bhah2rcd13ifvqej0","pricing_plan_id":"free"},{"bike_id":"3362af25-67fb-47fb-a341-945f2e7e8abf","system_id":"levelo_inurba_marseille","lat":43.286593,"lon":5.363346,"is_reserved":false,"is_disabled":false,"rental_uris":{"android":"levelo://app?vid=3362af25-67fb-47fb-a341-945f2e7e8abf","ios":"levelo://app?vid=3362af25-67fb-47fb-a341-945f2e7e8abf"},"vehicle_type_id":"4","last_reported":1684879599,"current_range_meters":0,"station_id":"ce4bhah2rcd13ifvqej0","pricing_plan_id":"free"},{"bike_id":"be01e501-4ce7-4020-ac6a-90047ed27e2c","system_id":"levelo_inurba_marseille","lat":43.286593,"lon":5.363346,"is_reserved":false,"is_disabled":false,"rental_uris":{"android":"levelo://app?vid=be01e501-4ce7-4020-ac6a-90047ed27e2c","ios":"levelo://app?vid=be01e501-4ce7-4020-ac6a-90047ed27e2c"},"vehicle_type_id":"4","last_reported":1684879599,"current_range_meters":31600,"station_id":"ce4bhah2rcd13ifvqej0","pricing_plan_id":"free"},{"bike_id":"b4b80226-83c8-4c7f-916b-33846d482e4e","system_id":"levelo_inurba_marseille","lat":43.286593,"lon":5.363346,"is_reserved":false,"is_disabled":false,"rental_uris":{"android":"levelo://app?vid=b4b80226-83c8-4c7f-916b-33846d482e4e","ios":"levelo://app?vid=b4b80226-83c8-4c7f-916b-33846d482e4e"},"vehicle_type_id":"4","last_reported":1684879599,"current_range_meters":31200,"station_id":"ce4bhah2rcd13ifvqej0","pricing_plan_id":"free"},{"bike_id":"70fe74c8-2580-4e8e-8f74-5bea4c0e210c","system_id":"levelo_inurba_marseille","lat":43.28654,"lon":5.36364,"is_reserved":false,"is_disabled":false,"rental_uris":{"android":"levelo://app?vid=70fe74c8-2580-4e8e-8f74-5bea4c0e210c","ios":"levelo://app?vid=70fe74c8-2580-4e8e-8f74-5bea4c0e210c"},"vehicle_type_id":"4","last_reported":1684879599,"current_range_meters":4800,"station_id":"ce4bhah2rcd13ifvqej0","pricing_plan_id":"free"},{"bike_id":"3a29b847-bd20-4c7c-8ff3-eed8d544d374","system_id":"levelo_inurba_marseille","lat":43.29528,"lon":5.39399,"is_reserved":false,"is_disabled":false,"rental_uris":{"android":"levelo://app?vid=3a29b847-bd20-4c7c-8ff3-eed8d544d374","ios":"levelo://app?vid=3a29b847-bd20-4c7c-8ff3-eed8d544d374"},"vehicle_type_id":"4","last_reported":1684879599,"current_range_meters":6000,"station_id":"ce4bh292rcd13ifvqdf0","pricing_plan_id":"free"},{"bike_id":"e7eb36cb-42ee-4011-9f68-40f4e74c7f41","system_id":"levelo_inurba_marseille","lat":43.295194,"lon":5.39397,"is_reserved":false,"is_disabled":false,"rental_uris":{"android":"levelo://app?vid=e7eb36cb-42ee-4011-9f68-40f4e74c7f41","ios":"levelo://app?vid=e7eb36cb-42ee-4011-9f68-40f4e74c7f41"},"vehicle_type_id":"4","last_reported":1684879599,"current_range_meters":20800,"station_id":"ce4bh292rcd13ifvqdf0","pricing_plan_id":"free"},{"bike_id":"f903c3cc-29eb-4276-982b-545a16905b8e","system_id":"levelo_inurba_marseille","lat":43.295194,"lon":5.39397,"is_reserved":false,"is_disabled":false,"rental_uris":{"android":"levelo://app?vid=f903c3cc-29eb-4276-982b-545a16905b8e","ios":"levelo://app?vid=f903c3cc-29eb-4276-982b-545a16905b8e"},"vehicle_type_id":"4","last_reported":1684879599,"current_range_meters":1200,"station_id":"ce4bh292rcd13ifvqdf0","pricing_plan_id":"free"},{"bike_id":"7318173a-2d98-4c42-ae79-ff14898807e1","system_id":"levelo_inurba_marseille","lat":43.295194,"lon":5.39397,"is_reserved":false,"is_disabled":false,"rental_uris":{"android":"levelo://app?vid=7318173a-2d98-4c42-ae79-ff14898807e1","ios":"levelo://app?vid=7318173a-2d98-4c42-ae79-ff14898807e1"},"vehicle_type_id":"4","last_reported":1684879599,"current_range_meters":3200,"station_id":"ce4bh292rcd13ifvqdf0","pricing_plan_id":"free"},{"bike_id":"5cbad4ca-8a87-4c05-9272-3a4bbeac04a1","system_id":"levelo_inurba_marseille","lat":43.295194,"lon":5.39397,"is_reserved":false,"is_disabled":false,"rental_uris":{"android":"levelo://app?vid=5cbad4ca-8a87-4c05-9272-3a4bbeac04a1","ios":"levelo://app?vid=5cbad4ca-8a87-4c05-9272-3a4bbeac04a1"},"vehicle_type_id":"4","last_reported":1684879599,"current_range_meters":16400,"station_id":"ce4bh292rcd13ifvqdf0","pricing_plan_id":"free"},{"bike_id":"b23466db-046d-4f59-88b6-ebdc5cb24e88","system_id":"levelo_inurba_marseille","lat":43.295194,"lon":5.39397,"is_reserved":false,"is_disabled":false,"rental_uris":{"android":"levelo://app?vid=b23466db-046d-4f59-88b6-ebdc5cb24e88","ios":"levelo://app?vid=b23466db-046d-4f59-88b6-ebdc5cb24e88"},"vehicle_type_id":"4","last_reported":1684879599,"current_range_meters":0,"station_id":"ce4bh292rcd13ifvqdf0","pricing_plan_id":"free"},{"bike_id":"68855b71-ae00-4605-a3a8-f12886ec2de7","system_id":"levelo_inurba_marseille","lat":43.290336,"lon":5.386425,"is_reserved":false,"is_disabled":false,"rental_uris":{"android":"levelo://app?vid=68855b71-ae00-4605-a3a8-f12886ec2de7","ios":"levelo://app?vid=68855b71-ae00-4605-a3a8-f12886ec2de7"},"vehicle_type_id":"4","last_reported":1684879599,"current_range_meters":28000,"station_id":"ce4bh4p2rcd13ifvqe0g","pricing_plan_id":"free"},{"bike_id":"fe9420fe-19ad-41cb-b0e0-a3199e478bd6","system_id":"levelo_inurba_marseille","lat":43.30262,"lon":5.40067,"is_reserved":false,"is_disabled":false,"rental_uris":{"android":"levelo://app?vid=fe9420fe-19ad-41cb-b0e0-a3199e478bd6","ios":"levelo://app?vid=fe9420fe-19ad-41cb-b0e0-a3199e478bd6"},"vehicle_type_id":"4","last_reported":1684879599,"current_range_meters":25600,"station_id":"ce4bgvh2rcd13ifvqcs0","pricing_plan_id":"free"},{"bike_id":"d65d0dd7-7721-4b13-889f-d0b99c4d1962","system_id":"levelo_inurba_marseille","lat":43.290336,"lon":5.386425,"is_reserved":false,"is_disabled":false,"rental_uris":{"android":"levelo://app?vid=d65d0dd7-7721-4b13-889f-d0b99c4d1962","ios":"levelo://app?vid=d65d0dd7-7721-4b13-889f-d0b99c4d1962"},"vehicle_type_id":"4","last_reported":1684879599,"current_range_meters":28000,"station_id":"ce4bh4p2rcd13ifvqe0g","pricing_plan_id":"free"},{"bike_id":"3df5dd1c-ea6b-45dc-a388-49f38425337c","system_id":"levelo_inurba_marseille","lat":43.290336,"lon":5.386425,"is_reserved":false,"is_disabled":false,"rental_uris":{"android":"levelo://app?vid=3df5dd1c-ea6b-45dc-a388-49f38425337c","ios":"levelo://app?vid=3df5dd1c-ea6b-45dc-a388-49f38425337c"},"vehicle_type_id":"4","last_reported":1684879599,"current_range_meters":2800,"station_id":"ce4bh4p2rcd13ifvqe0g","pricing_plan_id":"free"},{"bike_id":"5edb502a-0769-4cd1-8afe-f88478153ee0","system_id":"levelo_inurba_marseille","lat":43.290336,"lon":5.386425,"is_reserved":false,"is_disabled":false,"rental_uris":{"android":"levelo://app?vid=5edb502a-0769-4cd1-8afe-f88478153ee0","ios":"levelo://app?vid=5edb502a-0769-4cd1-8afe-f88478153ee0"},"vehicle_type_id":"4","last_reported":1684879599,"current_range_meters":800,"station_id":"ce4bh4p2rcd13ifvqe0g","pricing_plan_id":"free"},{"bike_id":"e19e95b7-240a-42ca-87b3-b8c78e12f193","system_id":"levelo_inurba_marseille","lat":43.290336,"lon":5.386425,"is_reserved":false,"is_disabled":false,"rental_uris":{"android":"levelo://app?vid=e19e95b7-240a-42ca-87b3-b8c78e12f193","ios":"levelo://app?vid=e19e95b7-240a-42ca-87b3-b8c78e12f193"},"vehicle_type_id":"4","last_reported":1684879599,"current_range_meters":18400,"station_id":"ce4bh4p2rcd13ifvqe0g","pricing_plan_id":"free"},{"bike_id":"f43ebb5c-b258-469e-9e0c-c9f555a8855c","system_id":"levelo_inurba_marseille","lat":43.30261,"lon":5.4007,"is_reserved":false,"is_disabled":false,"rental_uris":{"android":"levelo://app?vid=f43ebb5c-b258-469e-9e0c-c9f555a8855c","ios":"levelo://app?vid=f43ebb5c-b258-469e-9e0c-c9f555a8855c"},"vehicle_type_id":"4","last_reported":1684879599,"current_range_meters":20400,"station_id":"ce4bgvh2rcd13ifvqcs0","pricing_plan_id":"free"},{"bike_id":"af926450-6d95-4d09-b194-c57574b473e3","system_id":"levelo_inurba_marseille","lat":43.290336,"lon":5.386425,"is_reserved":false,"is_disabled":false,"rental_uris":{"android":"levelo://app?vid=af926450-6d95-4d09-b194-c57574b473e3","ios":"levelo://app?vid=af926450-6d95-4d09-b194-c57574b473e3"},"vehicle_type_id":"4","last_reported":1684879599,"current_range_meters":30800,"station_id":"ce4bh4p2rcd13ifvqe0g","pricing_plan_id":"free"},{"bike_id":"f2c4288d-0771-4498-ae73-8eddb47b28b3","system_id":"levelo_inurba_marseille","lat":43.302759,"lon":5.400793,"is_reserved":false,"is_disabled":false,"rental_uris":{"android":"levelo://app?vid=f2c4288d-0771-4498-ae73-8eddb47b28b3","ios":"levelo://app?vid=f2c4288d-0771-4498-ae73-8eddb47b28b3"},"vehicle_type_id":"4","last_reported":1684879599,"current_range_meters":16400,"station_id":"ce4bgvh2rcd13ifvqcs0","pricing_plan_id":"free"},{"bike_id":"d7bb18c1-11cf-44bd-a074-3d8567e14bba","system_id":"levelo_inurba_marseille","lat":43.286039,"lon":5.370679,"is_reserved":false,"is_disabled":false,"rental_uris":{"android":"levelo://app?vid=d7bb18c1-11cf-44bd-a074-3d8567e14bba","ios":"levelo://app?vid=d7bb18c1-11cf-44bd-a074-3d8567e14bba"},"vehicle_type_id":"4","last_reported":1684879599,"current_range_meters":31200,"station_id":"ce4bht12rcd13ifvqi60","pricing_plan_id":"free"},{"bike_id":"27fe7851-4d49-4a82-adb8-01ed3ac9bfd2","system_id":"levelo_inurba_marseille","lat":43.286039,"lon":5.370679,"is_reserved":false,"is_disabled":false,"rental_uris":{"android":"levelo://app?vid=27fe7851-4d49-4a82-adb8-01ed3ac9bfd2","ios":"levelo://app?vid=27fe7851-4d49-4a82-adb8-01ed3ac9bfd2"},"vehicle_type_id":"4","last_reported":1684879599,"current_range_meters":27200,"station_id":"ce4bht12rcd13ifvqi60","pricing_plan_id":"free"},{"bike_id":"e0a9c2a4-91f7-49a9-bbb9-511d30be07ef","system_id":"levelo_inurba_marseille","lat":43.286039,"lon":5.370679,"is_reserved":false,"is_disabled":false,"rental_uris":{"android":"levelo://app?vid=e0a9c2a4-91f7-49a9-bbb9-511d30be07ef","ios":"levelo://app?vid=e0a9c2a4-91f7-49a9-bbb9-511d30be07ef"},"vehicle_type_id":"4","last_reported":1684879599,"current_range_meters":8800,"station_id":"ce4bht12rcd13ifvqi60","pricing_plan_id":"free"},{"bike_id":"0dda87a3-a992-4dcc-ba58-e0b1af84287f","system_id":"levelo_inurba_marseille","lat":43.28607,"lon":5.37059,"is_reserved":false,"is_disabled":false,"rental_uris":{"android":"levelo://app?vid=0dda87a3-a992-4dcc-ba58-e0b1af84287f","ios":"levelo://app?vid=0dda87a3-a992-4dcc-ba58-e0b1af84287f"},"vehicle_type_id":"4","last_reported":1684879599,"current_range_meters":2000,"station_id":"ce4bht12rcd13ifvqi60","pricing_plan_id":"free"},{"bike_id":"2b98a86c-82f6-4f76-bc37-de03cc56a2bb","system_id":"levelo_inurba_marseille","lat":43.287184,"lon":5.37937,"is_reserved":false,"is_disabled":false,"rental_uris":{"android":"levelo://app?vid=2b98a86c-82f6-4f76-bc37-de03cc56a2bb","ios":"levelo://app?vid=2b98a86c-82f6-4f76-bc37-de03cc56a2bb"},"vehicle_type_id":"4","last_reported":1684879599,"current_range_meters":31200,"station_id":"ce4bh9p2rcd13ifvqec0","pricing_plan_id":"free"},{"bike_id":"df33b3a4-f376-4743-8817-cf1221c21c34","system_id":"levelo_inurba_marseille","lat":43.287184,"lon":5.37937,"is_reserved":false,"is_disabled":false,"rental_uris":{"android":"levelo://app?vid=df33b3a4-f376-4743-8817-cf1221c21c34","ios":"levelo://app?vid=df33b3a4-f376-4743-8817-cf1221c21c34"},"vehicle_type_id":"4","last_reported":1684879599,"current_range_meters":26800,"station_id":"ce4bh9p2rcd13ifvqec0","pricing_plan_id":"free"},{"bike_id":"53278427-cff7-4539-8def-4f1a9cd5e6b4","system_id":"levelo_inurba_marseille","lat":43.287184,"lon":5.37937,"is_reserved":false,"is_disabled":false,"rental_uris":{"android":"levelo://app?vid=53278427-cff7-4539-8def-4f1a9cd5e6b4","ios":"levelo://app?vid=53278427-cff7-4539-8def-4f1a9cd5e6b4"},"vehicle_type_id":"4","last_reported":1684879599,"current_range_meters":14800,"station_id":"ce4bh9p2rcd13ifvqec0","pricing_plan_id":"free"},{"bike_id":"3040fa13-36c4-4b1b-a9ab-734c6e85cab0","system_id":"levelo_inurba_marseille","lat":43.287185,"lon":5.379373,"is_reserved":false,"is_disabled":false,"rental_uris":{"android":"levelo://app?vid=3040fa13-36c4-4b1b-a9ab-734c6e85cab0","ios":"levelo://app?vid=3040fa13-36c4-4b1b-a9ab-734c6e85cab0"},"vehicle_type_id":"4","last_reported":1684879599,"current_range_meters":14000,"station_id":"ce4bh9p2rcd13ifvqec0","pricing_plan_id":"free"},{"bike_id":"76121621-4191-47a6-a793-670335ead76e","system_id":"levelo_inurba_marseille","lat":43.287185,"lon":5.379373,"is_reserved":false,"is_disabled":false,"rental_uris":{"android":"levelo://app?vid=76121621-4191-47a6-a793-670335ead76e","ios":"levelo://app?vid=76121621-4191-47a6-a793-670335ead76e"},"vehicle_type_id":"4","last_reported":1684879599,"current_range_meters":5200,"station_id":"ce4bh9p2rcd13ifvqec0","pricing_plan_id":"free"},{"bike_id":"b9b26779-1976-4328-8e58-e93776ea1f1a","system_id":"levelo_inurba_marseille","lat":43.287185,"lon":5.379373,"is_reserved":false,"is_disabled":false,"rental_uris":{"android":"levelo://app?vid=b9b26779-1976-4328-8e58-e93776ea1f1a","ios":"levelo://app?vid=b9b26779-1976-4328-8e58-e93776ea1f1a"},"vehicle_type_id":"4","last_reported":1684879599,"current_range_meters":0,"station_id":"ce4bh9p2rcd13ifvqec0","pricing_plan_id":"free"},{"bike_id":"62d5ded5-8dea-41ee-8574-dc187e707a81","system_id":"levelo_inurba_marseille","lat":43.28802,"lon":5.38252,"is_reserved":false,"is_disabled":false,"rental_uris":{"android":"levelo://app?vid=62d5ded5-8dea-41ee-8574-dc187e707a81","ios":"levelo://app?vid=62d5ded5-8dea-41ee-8574-dc187e707a81"},"vehicle_type_id":"4","last_reported":1684879599,"current_range_meters":7200,"station_id":"","pricing_plan_id":"free"},{"bike_id":"f6bb3437-b286-4c33-915b-1c49035622a8","system_id":"levelo_inurba_marseille","lat":43.31644,"lon":5.40434,"is_reserved":false,"is_disabled":false,"rental_uris":{"android":"levelo://app?vid=f6bb3437-b286-4c33-915b-1c49035622a8","ios":"levelo://app?vid=f6bb3437-b286-4c33-915b-1c49035622a8"},"vehicle_type_id":"4","last_reported":1684879599,"current_range_meters":25200,"station_id":"ce4bh012rcd13ifvqd00","pricing_plan_id":"free"},{"bike_id":"9bca0271-d2ec-49ba-a6d9-a406c9cdab05","system_id":"levelo_inurba_marseille","lat":43.316517,"lon":5.404375,"is_reserved":false,"is_disabled":false,"rental_uris":{"android":"levelo://app?vid=9bca0271-d2ec-49ba-a6d9-a406c9cdab05","ios":"levelo://app?vid=9bca0271-d2ec-49ba-a6d9-a406c9cdab05"},"vehicle_type_id":"4","last_reported":1684879599,"current_range_meters":4400,"station_id":"ce4bh012rcd13ifvqd00","pricing_plan_id":"free"},{"bike_id":"cb8e2cf5-8da3-457b-8d07-99f139cd3802","system_id":"levelo_inurba_marseille","lat":43.316517,"lon":5.404375,"is_reserved":false,"is_disabled":false,"rental_uris":{"android":"levelo://app?vid=cb8e2cf5-8da3-457b-8d07-99f139cd3802","ios":"levelo://app?vid=cb8e2cf5-8da3-457b-8d07-99f139cd3802"},"vehicle_type_id":"4","last_reported":1684879599,"current_range_meters":10800,"station_id":"ce4bh012rcd13ifvqd00","pricing_plan_id":"free"},{"bike_id":"d2626e12-92ef-4e8b-98f7-f7f7d8432194","system_id":"levelo_inurba_marseille","lat":43.29187,"lon":5.39306,"is_reserved":false,"is_disabled":false,"rental_uris":{"android":"levelo://app?vid=d2626e12-92ef-4e8b-98f7-f7f7d8432194","ios":"levelo://app?vid=d2626e12-92ef-4e8b-98f7-f7f7d8432194"},"vehicle_type_id":"4","last_reported":1684879599,"current_range_meters":2400,"station_id":"ce4bh192rcd13ifvqdd0","pricing_plan_id":"free"},{"bike_id":"e4361c12-fb94-4064-8e13-c075d1c1851a","system_id":"levelo_inurba_marseille","lat":43.291994,"lon":5.392907,"is_reserved":false,"is_disabled":false,"rental_uris":{"android":"levelo://app?vid=e4361c12-fb94-4064-8e13-c075d1c1851a","ios":"levelo://app?vid=e4361c12-fb94-4064-8e13-c075d1c1851a"},"vehicle_type_id":"4","last_reported":1684879599,"current_range_meters":2400,"station_id":"ce4bh192rcd13ifvqdd0","pricing_plan_id":"free"},{"bike_id":"fbf5927b-921b-4f1f-9c4e-64b4bea86076","system_id":"levelo_inurba_marseille","lat":43.291994,"lon":5.392907,"is_reserved":false,"is_disabled":false,"rental_uris":{"android":"levelo://app?vid=fbf5927b-921b-4f1f-9c4e-64b4bea86076","ios":"levelo://app?vid=fbf5927b-921b-4f1f-9c4e-64b4bea86076"},"vehicle_type_id":"4","last_reported":1684879599,"current_range_meters":26800,"station_id":"ce4bh192rcd13ifvqdd0","pricing_plan_id":"free"},{"bike_id":"91baa219-7894-4665-a987-b982ab33a75b","system_id":"levelo_inurba_marseille","lat":43.291994,"lon":5.392907,"is_reserved":false,"is_disabled":false,"rental_uris":{"android":"levelo://app?vid=91baa219-7894-4665-a987-b982ab33a75b","ios":"levelo://app?vid=91baa219-7894-4665-a987-b982ab33a75b"},"vehicle_type_id":"4","last_reported":1684879599,"current_range_meters":2800,"station_id":"ce4bh192rcd13ifvqdd0","pricing_plan_id":"free"},{"bike_id":"f8c8e9b7-6dc7-418d-b9ca-0805bbcf11be","system_id":"levelo_inurba_marseille","lat":43.284534,"lon":5.358662,"is_reserved":false,"is_disabled":false,"rental_uris":{"android":"levelo://app?vid=f8c8e9b7-6dc7-418d-b9ca-0805bbcf11be","ios":"levelo://app?vid=f8c8e9b7-6dc7-418d-b9ca-0805bbcf11be"},"vehicle_type_id":"4","last_reported":1684879599,"current_range_meters":22400,"station_id":"ce4bhah2rcd13ifvqei0","pricing_plan_id":"free"},{"bike_id":"ac4b2d97-6056-4503-b313-5d6ea8837e76","system_id":"levelo_inurba_marseille","lat":43.284534,"lon":5.358662,"is_reserved":false,"is_disabled":false,"rental_uris":{"android":"levelo://app?vid=ac4b2d97-6056-4503-b313-5d6ea8837e76","ios":"levelo://app?vid=ac4b2d97-6056-4503-b313-5d6ea8837e76"},"vehicle_type_id":"4","last_reported":1684879599,"current_range_meters":14800,"station_id":"ce4bhah2rcd13ifvqei0","pricing_plan_id":"free"},{"bike_id":"1919365d-fbbc-493a-b24e-5fd61202b101","system_id":"levelo_inurba_marseille","lat":43.284534,"lon":5.358662,"is_reserved":false,"is_disabled":false,"rental_uris":{"android":"levelo://app?vid=1919365d-fbbc-493a-b24e-5fd61202b101","ios":"levelo://app?vid=1919365d-fbbc-493a-b24e-5fd61202b101"},"vehicle_type_id":"4","last_reported":1684879599,"current_range_meters":0,"station_id":"ce4bhah2rcd13ifvqei0","pricing_plan_id":"free"},{"bike_id":"e65acaa8-3a82-4724-a9c5-e2993b01818f","system_id":"levelo_inurba_marseille","lat":43.284534,"lon":5.358662,"is_reserved":false,"is_disabled":false,"rental_uris":{"android":"levelo://app?vid=e65acaa8-3a82-4724-a9c5-e2993b01818f","ios":"levelo://app?vid=e65acaa8-3a82-4724-a9c5-e2993b01818f"},"vehicle_type_id":"4","last_reported":1684879599,"current_range_meters":6000,"station_id":"ce4bhah2rcd13ifvqei0","pricing_plan_id":"free"},{"bike_id":"59e35aed-2436-4ff7-a3f6-cb7e03bdb2e5","system_id":"levelo_inurba_marseille","lat":43.28462,"lon":5.35893,"is_reserved":false,"is_disabled":false,"rental_uris":{"android":"levelo://app?vid=59e35aed-2436-4ff7-a3f6-cb7e03bdb2e5","ios":"levelo://app?vid=59e35aed-2436-4ff7-a3f6-cb7e03bdb2e5"},"vehicle_type_id":"4","last_reported":1684879599,"current_range_meters":0,"station_id":"ce4bhah2rcd13ifvqei0","pricing_plan_id":"free"},{"bike_id":"1b95c390-f78b-4c4d-b02a-107b3d641731","system_id":"levelo_inurba_marseille","lat":43.28461,"lon":5.35889,"is_reserved":false,"is_disabled":false,"rental_uris":{"android":"levelo://app?vid=1b95c390-f78b-4c4d-b02a-107b3d641731","ios":"levelo://app?vid=1b95c390-f78b-4c4d-b02a-107b3d641731"},"vehicle_type_id":"4","last_reported":1684879599,"current_range_meters":20000,"station_id":"ce4bhah2rcd13ifvqei0","pricing_plan_id":"free"},{"bike_id":"154056b9-33f7-4a84-98e1-b1ecf7fa098e","system_id":"levelo_inurba_marseille","lat":43.284534,"lon":5.358662,"is_reserved":false,"is_disabled":false,"rental_uris":{"android":"levelo://app?vid=154056b9-33f7-4a84-98e1-b1ecf7fa098e","ios":"levelo://app?vid=154056b9-33f7-4a84-98e1-b1ecf7fa098e"},"vehicle_type_id":"4","last_reported":1684879599,"current_range_meters":10800,"station_id":"ce4bhah2rcd13ifvqei0","pricing_plan_id":"free"},{"bike_id":"0c741552-92a1-4218-9bc1-2717ff546887","system_id":"levelo_inurba_marseille","lat":43.284534,"lon":5.358662,"is_reserved":false,"is_disabled":false,"rental_uris":{"android":"levelo://app?vid=0c741552-92a1-4218-9bc1-2717ff546887","ios":"levelo://app?vid=0c741552-92a1-4218-9bc1-2717ff546887"},"vehicle_type_id":"4","last_reported":1684879599,"current_range_meters":0,"station_id":"ce4bhah2rcd13ifvqei0","pricing_plan_id":"free"},{"bike_id":"1e2d7091-9927-4f62-9087-bfb3d6cdce85","system_id":"levelo_inurba_marseille","lat":43.284534,"lon":5.358662,"is_reserved":false,"is_disabled":false,"rental_uris":{"android":"levelo://app?vid=1e2d7091-9927-4f62-9087-bfb3d6cdce85","ios":"levelo://app?vid=1e2d7091-9927-4f62-9087-bfb3d6cdce85"},"vehicle_type_id":"4","last_reported":1684879599,"current_range_meters":16000,"station_id":"ce4bhah2rcd13ifvqei0","pricing_plan_id":"free"},{"bike_id":"b38f96ad-d3ac-44e1-9b51-82cf52bf7778","system_id":"levelo_inurba_marseille","lat":43.284534,"lon":5.358662,"is_reserved":false,"is_disabled":false,"rental_uris":{"android":"levelo://app?vid=b38f96ad-d3ac-44e1-9b51-82cf52bf7778","ios":"levelo://app?vid=b38f96ad-d3ac-44e1-9b51-82cf52bf7778"},"vehicle_type_id":"4","last_reported":1684879599,"current_range_meters":17200,"station_id":"ce4bhah2rcd13ifvqei0","pricing_plan_id":"free"},{"bike_id":"cbde816a-eb28-46a5-83be-89fae6918151","system_id":"levelo_inurba_marseille","lat":43.284534,"lon":5.358662,"is_reserved":false,"is_disabled":false,"rental_uris":{"android":"levelo://app?vid=cbde816a-eb28-46a5-83be-89fae6918151","ios":"levelo://app?vid=cbde816a-eb28-46a5-83be-89fae6918151"},"vehicle_type_id":"4","last_reported":1684879599,"current_range_meters":27200,"station_id":"ce4bhah2rcd13ifvqei0","pricing_plan_id":"free"},{"bike_id":"ae4a9f70-99d5-4d86-8781-4cc643fdb0cb","system_id":"levelo_inurba_marseille","lat":43.284534,"lon":5.358662,"is_reserved":false,"is_disabled":false,"rental_uris":{"android":"levelo://app?vid=ae4a9f70-99d5-4d86-8781-4cc643fdb0cb","ios":"levelo://app?vid=ae4a9f70-99d5-4d86-8781-4cc643fdb0cb"},"vehicle_type_id":"4","last_reported":1684879599,"current_range_meters":18800,"station_id":"ce4bhah2rcd13ifvqei0","pricing_plan_id":"free"},{"bike_id":"8610fff9-e716-4928-a90b-3c5730670c79","system_id":"levelo_inurba_marseille","lat":43.284534,"lon":5.358662,"is_reserved":false,"is_disabled":false,"rental_uris":{"android":"levelo://app?vid=8610fff9-e716-4928-a90b-3c5730670c79","ios":"levelo://app?vid=8610fff9-e716-4928-a90b-3c5730670c79"},"vehicle_type_id":"4","last_reported":1684879599,"current_range_meters":1200,"station_id":"ce4bhah2rcd13ifvqei0","pricing_plan_id":"free"},{"bike_id":"3415e769-f57a-450d-9811-c59e759d8d6c","system_id":"levelo_inurba_marseille","lat":43.284534,"lon":5.358662,"is_reserved":false,"is_disabled":false,"rental_uris":{"android":"levelo://app?vid=3415e769-f57a-450d-9811-c59e759d8d6c","ios":"levelo://app?vid=3415e769-f57a-450d-9811-c59e759d8d6c"},"vehicle_type_id":"4","last_reported":1684879599,"current_range_meters":0,"station_id":"ce4bhah2rcd13ifvqei0","pricing_plan_id":"free"},{"bike_id":"54df7ffb-7202-4fdb-9eb4-4c01031807e2","system_id":"levelo_inurba_marseille","lat":43.284534,"lon":5.358662,"is_reserved":false,"is_disabled":false,"rental_uris":{"android":"levelo://app?vid=54df7ffb-7202-4fdb-9eb4-4c01031807e2","ios":"levelo://app?vid=54df7ffb-7202-4fdb-9eb4-4c01031807e2"},"vehicle_type_id":"4","last_reported":1684879599,"current_range_meters":20800,"station_id":"ce4bhah2rcd13ifvqei0","pricing_plan_id":"free"},{"bike_id":"3ab430b9-35e4-440a-9289-df17dedebaf0","system_id":"levelo_inurba_marseille","lat":43.284534,"lon":5.358662,"is_reserved":false,"is_disabled":false,"rental_uris":{"android":"levelo://app?vid=3ab430b9-35e4-440a-9289-df17dedebaf0","ios":"levelo://app?vid=3ab430b9-35e4-440a-9289-df17dedebaf0"},"vehicle_type_id":"4","last_reported":1684879599,"current_range_meters":26000,"station_id":"ce4bhah2rcd13ifvqei0","pricing_plan_id":"free"},{"bike_id":"3f2d1e4b-b301-45c2-8c99-be1bae6f5d82","system_id":"levelo_inurba_marseille","lat":43.284534,"lon":5.358662,"is_reserved":false,"is_disabled":false,"rental_uris":{"android":"levelo://app?vid=3f2d1e4b-b301-45c2-8c99-be1bae6f5d82","ios":"levelo://app?vid=3f2d1e4b-b301-45c2-8c99-be1bae6f5d82"},"vehicle_type_id":"4","last_reported":1684879599,"current_range_meters":18400,"station_id":"ce4bhah2rcd13ifvqei0","pricing_plan_id":"free"},{"bike_id":"4c2785e9-83b7-46c0-90a8-c9d272e8556e","system_id":"levelo_inurba_marseille","lat":43.284534,"lon":5.358662,"is_reserved":false,"is_disabled":false,"rental_uris":{"android":"levelo://app?vid=4c2785e9-83b7-46c0-90a8-c9d272e8556e","ios":"levelo://app?vid=4c2785e9-83b7-46c0-90a8-c9d272e8556e"},"vehicle_type_id":"4","last_reported":1684879599,"current_range_meters":13600,"station_id":"ce4bhah2rcd13ifvqei0","pricing_plan_id":"free"},{"bike_id":"246310d4-111c-466a-a242-a80b7e0325dd","system_id":"levelo_inurba_marseille","lat":43.284534,"lon":5.358662,"is_reserved":false,"is_disabled":false,"rental_uris":{"android":"levelo://app?vid=246310d4-111c-466a-a242-a80b7e0325dd","ios":"levelo://app?vid=246310d4-111c-466a-a242-a80b7e0325dd"},"vehicle_type_id":"4","last_reported":1684879599,"current_range_meters":25200,"station_id":"ce4bhah2rcd13ifvqei0","pricing_plan_id":"free"},{"bike_id":"b30fecd7-0390-4300-8b2a-d8089641a0cc","system_id":"levelo_inurba_marseille","lat":43.284534,"lon":5.358662,"is_reserved":false,"is_disabled":false,"rental_uris":{"android":"levelo://app?vid=b30fecd7-0390-4300-8b2a-d8089641a0cc","ios":"levelo://app?vid=b30fecd7-0390-4300-8b2a-d8089641a0cc"},"vehicle_type_id":"4","last_reported":1684879599,"current_range_meters":15600,"station_id":"ce4bhah2rcd13ifvqei0","pricing_plan_id":"free"},{"bike_id":"a0c19ad0-e657-4cfd-a81b-2a096e6fac1b","system_id":"levelo_inurba_marseille","lat":43.28456,"lon":5.35892,"is_reserved":false,"is_disabled":false,"rental_uris":{"android":"levelo://app?vid=a0c19ad0-e657-4cfd-a81b-2a096e6fac1b","ios":"levelo://app?vid=a0c19ad0-e657-4cfd-a81b-2a096e6fac1b"},"vehicle_type_id":"4","last_reported":1684879599,"current_range_meters":11600,"station_id":"ce4bhah2rcd13ifvqei0","pricing_plan_id":"free"},{"bike_id":"218976a2-047c-46c9-b969-9a9fb079e238","system_id":"levelo_inurba_marseille","lat":43.284534,"lon":5.358662,"is_reserved":false,"is_disabled":false,"rental_uris":{"android":"levelo://app?vid=218976a2-047c-46c9-b969-9a9fb079e238","ios":"levelo://app?vid=218976a2-047c-46c9-b969-9a9fb079e238"},"vehicle_type_id":"4","last_reported":1684879599,"current_range_meters":25200,"station_id":"ce4bhah2rcd13ifvqei0","pricing_plan_id":"free"},{"bike_id":"f0715a0b-c17b-4ca4-92bf-6e38cc839bfa","system_id":"levelo_inurba_marseille","lat":43.284534,"lon":5.358662,"is_reserved":false,"is_disabled":false,"rental_uris":{"android":"levelo://app?vid=f0715a0b-c17b-4ca4-92bf-6e38cc839bfa","ios":"levelo://app?vid=f0715a0b-c17b-4ca4-92bf-6e38cc839bfa"},"vehicle_type_id":"4","last_reported":1684879599,"current_range_meters":0,"station_id":"ce4bhah2rcd13ifvqei0","pricing_plan_id":"free"},{"bike_id":"d543ca0d-8f0f-41dc-9e91-f701dfec7883","system_id":"levelo_inurba_marseille","lat":43.284534,"lon":5.358662,"is_reserved":false,"is_disabled":false,"rental_uris":{"android":"levelo://app?vid=d543ca0d-8f0f-41dc-9e91-f701dfec7883","ios":"levelo://app?vid=d543ca0d-8f0f-41dc-9e91-f701dfec7883"},"vehicle_type_id":"4","last_reported":1684879599,"current_range_meters":6400,"station_id":"ce4bhah2rcd13ifvqei0","pricing_plan_id":"free"},{"bike_id":"24a9f437-3f10-4ec5-811e-48a2ceb23afc","system_id":"levelo_inurba_marseille","lat":43.284534,"lon":5.358662,"is_reserved":false,"is_disabled":false,"rental_uris":{"android":"levelo://app?vid=24a9f437-3f10-4ec5-811e-48a2ceb23afc","ios":"levelo://app?vid=24a9f437-3f10-4ec5-811e-48a2ceb23afc"},"vehicle_type_id":"4","last_reported":1684879599,"current_range_meters":16800,"station_id":"ce4bhah2rcd13ifvqei0","pricing_plan_id":"free"},{"bike_id":"c54e99c2-d9e8-4a32-abb0-e74299061968","system_id":"levelo_inurba_marseille","lat":43.284534,"lon":5.358662,"is_reserved":false,"is_disabled":false,"rental_uris":{"android":"levelo://app?vid=c54e99c2-d9e8-4a32-abb0-e74299061968","ios":"levelo://app?vid=c54e99c2-d9e8-4a32-abb0-e74299061968"},"vehicle_type_id":"4","last_reported":1684879599,"current_range_meters":0,"station_id":"ce4bhah2rcd13ifvqei0","pricing_plan_id":"free"},{"bike_id":"43ee0f7c-0953-4722-9e40-7ed749c743f3","system_id":"levelo_inurba_marseille","lat":43.284534,"lon":5.358662,"is_reserved":false,"is_disabled":false,"rental_uris":{"android":"levelo://app?vid=43ee0f7c-0953-4722-9e40-7ed749c743f3","ios":"levelo://app?vid=43ee0f7c-0953-4722-9e40-7ed749c743f3"},"vehicle_type_id":"4","last_reported":1684879599,"current_range_meters":4800,"station_id":"ce4bhah2rcd13ifvqei0","pricing_plan_id":"free"},{"bike_id":"52c9d581-f07a-49c2-9635-16cd2386147d","system_id":"levelo_inurba_marseille","lat":43.284534,"lon":5.358662,"is_reserved":false,"is_disabled":false,"rental_uris":{"android":"levelo://app?vid=52c9d581-f07a-49c2-9635-16cd2386147d","ios":"levelo://app?vid=52c9d581-f07a-49c2-9635-16cd2386147d"},"vehicle_type_id":"4","last_reported":1684879599,"current_range_meters":14000,"station_id":"ce4bhah2rcd13ifvqei0","pricing_plan_id":"free"},{"bike_id":"da5bad9a-7da4-44f5-b7cc-17e8365b3e35","system_id":"levelo_inurba_marseille","lat":43.284534,"lon":5.358662,"is_reserved":false,"is_disabled":false,"rental_uris":{"android":"levelo://app?vid=da5bad9a-7da4-44f5-b7cc-17e8365b3e35","ios":"levelo://app?vid=da5bad9a-7da4-44f5-b7cc-17e8365b3e35"},"vehicle_type_id":"4","last_reported":1684879599,"current_range_meters":16000,"station_id":"ce4bhah2rcd13ifvqei0","pricing_plan_id":"free"},{"bike_id":"6cae2970-5f70-4528-8712-86f221272f8c","system_id":"levelo_inurba_marseille","lat":43.28624,"lon":5.35106,"is_reserved":false,"is_disabled":false,"rental_uris":{"android":"levelo://app?vid=6cae2970-5f70-4528-8712-86f221272f8c","ios":"levelo://app?vid=6cae2970-5f70-4528-8712-86f221272f8c"},"vehicle_type_id":"4","last_reported":1684879599,"current_range_meters":22800,"station_id":"","pricing_plan_id":"free"},{"bike_id":"f245fa5b-7a24-4b3e-9310-f725f0f2eec1","system_id":"levelo_inurba_marseille","lat":43.28619,"lon":5.35104,"is_reserved":false,"is_disabled":false,"rental_uris":{"android":"levelo://app?vid=f245fa5b-7a24-4b3e-9310-f725f0f2eec1","ios":"levelo://app?vid=f245fa5b-7a24-4b3e-9310-f725f0f2eec1"},"vehicle_type_id":"4","last_reported":1684879599,"current_range_meters":2000,"station_id":"","pricing_plan_id":"free"},{"bike_id":"c550d9ed-d1ba-4319-9132-9452267f20c0","system_id":"levelo_inurba_marseille","lat":43.28618,"lon":5.351,"is_reserved":false,"is_disabled":false,"rental_uris":{"android":"levelo://app?vid=c550d9ed-d1ba-4319-9132-9452267f20c0","ios":"levelo://app?vid=c550d9ed-d1ba-4319-9132-9452267f20c0"},"vehicle_type_id":"4","last_reported":1684879599,"current_range_meters":13600,"station_id":"","pricing_plan_id":"free"},