{"last_updated":1733307066,"ttl":60,"version":"2.2","data":{"bikes":[{"bike_id":"898b27da-5320-4afd-adf2-6fa4595de308","system_id":"levelo_inurba_marseille","lat":43.272035,"lon":5.390282,"is_reserved":false,"is_disabled":false,"rental_uris":{"android":"levelo://app?vid=898b27da-5320-4afd-adf2-6fa4595de308","ios":"levelo://app?vid=898b27da-5320-4afd-adf2-6fa4595de308"},"vehicle_type_id":"4","last_reported":1733307066,"current_range_meters":34800,"station_id":"","pricing_plan_id":"cebpf4jnsgd1na2vs0mg"},{"bike_id":"c7c9b1ea-ff41-428b-948e-6be817148a30","system_id":"levelo_inurba_marseille","lat":43.27495,"lon":5.42446,"is_reserved":false,"is_disabled":false,"rental_uris":{"android":"levelo://app?vid=c7c9b1ea-ff41-428b-948e-6be817148a30","ios":"levelo://app?vid=c7c9b1ea-ff41-428b-948e-6be817148a30"},"vehicle_type_id":"4","last_reported":1733307066,"current_range_meters":27200,"station_id":"ce4bhn92rcd13ifvqgrg","pricing_plan_id":"cebpf4jnsgd1na2vs0mg"},{"bike_id":"a8c54cdd-59b5-425d-a6a5-7b45b1e88baa","system_id":"levelo_inurba_marseille","lat":43.3055,"lon":5.3655,"is_reserved":false,"is_disabled":false,"rental_uris":{"android":"levelo://app?vid=a8c54cdd-59b5-425d-a6a5-7b45b1e88baa","ios":"levelo://app?vid=a8c54cdd-59b5-425d-a6a5-7b45b1e88baa"},"vehicle_type_id":"4","last_reported":1733307066,"current_range_meters":24800,"station_id":"ce4bgs12rcd13ifvqcag","pricing_plan_id":"cebpf4jnsgd1na2vs0mg"},{"bike_id":"d77e9780-89c4-4f0b-badc-5aeacd4cea34","system_id":"levelo_inurba_marseille","lat":43.33602,"lon":5.41031,"is_reserved":false,"is_disabled":false,"rental_uris":{"android":"levelo://app?vid=d77e9780-89c4-4f0b-badc-5aeacd4cea34","ios":"levelo://app?vid=d77e9780-89c4-4f0b-badc-5aeacd4cea34"},"vehicle_type_id":"4","last_reported":1733307066,"current_range_meters":36800,"station_id":"ce4bhqh2rcd13ifvqhmg","pricing_plan_id":"cebpf4jnsgd1na2vs0mg"},{"bike_id":"df479c2c-35ac-44ad-b9d6-81c89ed769ce","system_id":"levelo_inurba_marseille","lat":43.29699,"lon":5.37054,"is_reserved":false,"is_disabled":true,"rental_uris":{"android":"levelo://app?vid=df479c2c-35ac-44ad-b9d6-81c89ed769ce","ios":"levelo://app?vid=df479c2c-35ac-44ad-b9d6-81c89ed769ce"},"vehicle_type_id":"4","last_reported":1733307066,"current_range_meters":0,"station_id":"","pricing_plan_id":"cebpf4jnsgd1na2vs0mg"},{"bike_id":"8e029eaf-e104-4c5d-858d-6cd39de73d09","system_id":"levelo_inurba_marseille","lat":43.24167,"lon":5.36406,"is_reserved":false,"is_disabled":false,"rental_uris":{"android":"levelo://app?vid=8e029eaf-e104-4c5d-858d-6cd39de73d09","ios":"levelo://app?vid=8e029eaf-e104-4c5d-858d-6cd39de73d09"},"vehicle_type_id":"4","last_reported":1733307066,"current_range_meters":9600,"station_id":"cpo36qri1sfpv3e86is0","pricing_plan_id":"cebpf4jnsgd1na2vs0mg"},{"bike_id":"fd85f247-bc9f-4512-8957-89e7641ccdee","system_id":"levelo_inurba_marseille","lat":43.32476,"lon":5.36575,"is_reserved":false,"is_disabled":false,"rental_uris":{"android":"levelo://app?vid=fd85f247-bc9f-4512-8957-89e7641ccdee","ios":"levelo://app?vid=fd85f247-bc9f-4512-8957-89e7641ccdee"},"vehicle_type_id":"4","last_reported":1733307066,"current_range_meters":35200,"station_id":"ce4bhs12rcd13ifvqhvg","pricing_plan_id":"cebpf4jnsgd1na2vs0mg"},{"bike_id":"4701f84a-2e66-4f8e-b13b-3ea643c199cc","system_id":"levelo_inurba_marseille","lat":43.28468,"lon":5.38416,"is_reserved":false,"is_disabled":false,"rental_uris":{"android":"levelo://app?vid=4701f84a-2e66-4f8e-b13b-3ea643c199cc","ios":"levelo://app?vid=4701f84a-2e66-4f8e-b13b-3ea643c199cc"},"vehicle_type_id":"4","last_reported":1733307066,"current_range_meters":31200,"station_id":"ce4bh512rcd13ifvqe3g","pricing_plan_id":"cebpf4jnsgd1na2vs0mg"},{"bike_id":"759ec0f9-7c00-4343-91dd-be7b6e2cf7e0","system_id":"levelo_inurba_marseille","lat":43.2767,"lon":5.38913,"is_reserved":false,"is_disabled":true,"rental_uris":{"android":"levelo://app?vid=759ec0f9-7c00-4343-91dd-be7b6e2cf7e0","ios":"levelo://app?vid=759ec0f9-7c00-4343-91dd-be7b6e2cf7e0"},"vehicle_type_id":"4","last_reported":1733307066,"current_range_meters":29600,"station_id":"ce4bhi12rcd13ifvqfo0","pricing_plan_id":"cebpf4jnsgd1na2vs0mg"},{"bike_id":"51b51fa2-c31e-4579-91e7-095efd534359","system_id":"levelo_inurba_marseille","lat":43.23198,"lon":5.35546,"is_reserved":false,"is_disabled":false,"rental_uris":{"android":"levelo://app?vid=51b51fa2-c31e-4579-91e7-095efd534359","ios":"levelo://app?vid=51b51fa2-c31e-4579-91e7-095efd534359"},"vehicle_type_id":"4","last_reported":1733307066,"current_range_meters":39200,"station_id":"ce4bhu92rcd13ifvqi70","pricing_plan_id":"cebpf4jnsgd1na2vs0mg"},{"bike_id":"31b47460-bf33-4d09-b754-f091cb99243f","system_id":"levelo_inurba_marseille","lat":43.337444,"lon":5.374475,"is_reserved":false,"is_disabled":false,"rental_uris":{"android":"levelo://app?vid=31b47460-bf33-4d09-b754-f091cb99243f","ios":"levelo://app?vid=31b47460-bf33-4d09-b754-f091cb99243f"},"vehicle_type_id":"4","last_reported":1733307066,"current_range_meters":35600,"station_id":"ce4bh0h2rcd13ifvqd40","pricing_plan_id":"cebpf4jnsgd1na2vs0mg"},{"bike_id":"db1d9d27-cde8-497f-a062-ffddb34ba0c7","system_id":"levelo_inurba_marseille","lat":43.27497,"lon":5.42447,"is_reserved":false,"is_disabled":false,"rental_uris":{"android":"levelo://app?vid=db1d9d27-cde8-497f-a062-ffddb34ba0c7","ios":"levelo://app?vid=db1d9d27-cde8-497f-a062-ffddb34ba0c7"},"vehicle_type_id":"4","last_reported":1733307066,"current_range_meters":28800,"station_id":"ce4bhn92rcd13ifvqgrg","pricing_plan_id":"cebpf4jnsgd1na2vs0mg"},{"bike_id":"be407bbe-d1ce-48de-8db2-09114af9efd7","system_id":"levelo_inurba_marseille","lat":43.32364,"lon":5.36759,"is_reserved":false,"is_disabled":false,"rental_uris":{"android":"levelo://app?vid=be407bbe-d1ce-48de-8db2-09114af9efd7","ios":"levelo://app?vid=be407bbe-d1ce-48de-8db2-09114af9efd7"},"vehicle_type_id":"4","last_reported":1733307066,"current_range_meters":35600,"station_id":"ce4bhsh2rcd13ifvqi2g","pricing_plan_id":"cebpf4jnsgd1na2vs0mg"},{"bike_id":"cb16add6-7784-4ce1-9466-336edf1b5cce","system_id":"levelo_inurba_marseille","lat":43.28151,"lon":5.42639,"is_reserved":false,"is_disabled":false,"rental_uris":{"android":"levelo://app?vid=cb16add6-7784-4ce1-9466-336edf1b5cce","ios":"levelo://app?vid=cb16add6-7784-4ce1-9466-336edf1b5cce"},"vehicle_type_id":"4","last_reported":1733307066,"current_range_meters":12400,"station_id":"ce4bhnh2rcd13ifvqgug","pricing_plan_id":"cebpf4jnsgd1na2vs0mg"},{"bike_id":"d7d56744-7933-4a02-bc9c-ae58ef8af206","system_id":"levelo_inurba_marseille","lat":43.27487,"lon":5.42391,"is_reserved":false,"is_disabled":false,"rental_uris":{"android":"levelo://app?vid=d7d56744-7933-4a02-bc9c-ae58ef8af206","ios":"levelo://app?vid=d7d56744-7933-4a02-bc9c-ae58ef8af206"},"vehicle_type_id":"4","last_reported":1733307066,"current_range_meters":25200,"station_id":"","pricing_plan_id":"cebpf4jnsgd1na2vs0mg"},{"bike_id":"d76f373c-5481-4f77-ae13-19df7179eaba","system_id":"levelo_inurba_marseille","lat":43.28078,"lon":5.39667,"is_reserved":false,"is_disabled":false,"rental_uris":{"android":"levelo://app?vid=d76f373c-5481-4f77-ae13-19df7179eaba","ios":"levelo://app?vid=d76f373c-5481-4f77-ae13-19df7179eaba"},"vehicle_type_id":"4","last_reported":1733307066,"current_range_meters":24400,"station_id":"ce4bho12rcd13ifvqh2g","pricing_plan_id":"cebpf4jnsgd1na2vs0mg"},{"bike_id":"8bd642b2-0279-44c7-9ee2-fc3b57332c83","system_id":"levelo_inurba_marseille","lat":43.27455,"lon":5.40073,"is_reserved":false,"is_disabled":true,"rental_uris":{"android":"levelo://app?vid=8bd642b2-0279-44c7-9ee2-fc3b57332c83","ios":"levelo://app?vid=8bd642b2-0279-44c7-9ee2-fc3b57332c83"},"vehicle_type_id":"4","last_reported":1733307066,"current_range_meters":0,"station_id":"","pricing_plan_id":"cebpf4jnsgd1na2vs0mg"},{"bike_id":"89f919dd-b8d9-494a-9905-2bd18ebf9587","system_id":"levelo_inurba_marseille","lat":43.27053,"lon":5.40256,"is_reserved":false,"is_disabled":false,"rental_uris":{"android":"levelo://app?vid=89f919dd-b8d9-494a-9905-2bd18ebf9587","ios":"levelo://app?vid=89f919dd-b8d9-494a-9905-2bd18ebf9587"},"vehicle_type_id":"4","last_reported":1733307066,"current_range_meters":38400,"station_id":"ce4bhk92rcd13ifvqgc0","pricing_plan_id":"cebpf4jnsgd1na2vs0mg"},{"bike_id":"377cecde-5a62-4012-96f6-a6c6965bd36e","system_id":"levelo_inurba_marseille","lat":43.30913,"lon":5.36852,"is_reserved":false,"is_disabled":false,"rental_uris":{"android":"levelo://app?vid=377cecde-5a62-4012-96f6-a6c6965bd36e","ios":"levelo://app?vid=377cecde-5a62-4012-96f6-a6c6965bd36e"},"vehicle_type_id":"4","last_reported":1733307066,"current_range_meters":27200,"station_id":"ce4bgn92rcd13ifvqbvg","pricing_plan_id":"cebpf4jnsgd1na2vs0mg"},{"bike_id":"485ad83a-2d40-4e3b-87a1-88db7dd77a34","system_id":"levelo_inurba_marseille","lat":43.28618,"lon":5.351,"is_reserved":false,"is_disabled":false,"rental_uris":{"android":"levelo://app?vid=485ad83a-2d40-4e3b-87a1-88db7dd77a34","ios":"levelo://app?vid=485ad83a-2d40-4e3b-87a1-88db7dd77a34"},"vehicle_type_id":"4","last_reported":1733307066,"current_range_meters":14000,"station_id":"ce4bhch2rcd13ifvqeug","pricing_plan_id":"cebpf4jnsgd1na2vs0mg"},{"bike_id":"c53376c8-34e0-4c40-b6c0-aa18806ec7de","system_id":"levelo_inurba_marseille","lat":43.26959,"lon":5.3863,"is_reserved":false,"is_disabled":false,"rental_uris":{"android":"levelo://app?vid=c53376c8-34e0-4c40-b6c0-aa18806ec7de","ios":"levelo://app?vid=c53376c8-34e0-4c40-b6c0-aa18806ec7de"},"vehicle_type_id":"4","last_reported":1733307066,"current_range_meters":36400,"station_id":"ce4bhh92rcd13ifvqfh0","pricing_plan_id":"cebpf4jnsgd1na2vs0mg"},{"bike_id":"ab4ec4be-9f6e-4c60-97d8-25eb522e5410","system_id":"levelo_inurba_marseille","lat":43.25938,"lon":5.40901,"is_reserved":false,"is_disabled":false,"rental_uris":{"android":"levelo://app?vid=ab4ec4be-9f6e-4c60-97d8-25eb522e5410","ios":"levelo://app?vid=ab4ec4be-9f6e-4c60-97d8-25eb522e5410"},"vehicle_type_id":"4","last_reported":1733307066,"current_range_meters":32800,"station_id":"ce4bhm92rcd13ifvqglg","pricing_plan_id":"cebpf4jnsgd1na2vs0mg"},{"bike_id":"60455433-2e10-4db3-afb0-e7815633fb4f","system_id":"levelo_inurba_marseille","lat":43.26679,"lon":5.38256,"is_reserved":false,"is_disabled":false,"rental_uris":{"android":"levelo://app?vid=60455433-2e10-4db3-afb0-e7815633fb4f","ios":"levelo://app?vid=60455433-2e10-4db3-afb0-e7815633fb4f"},"vehicle_type_id":"4","last_reported":1733307066,"current_range_meters":38000,"station_id":"ce4bhg92rcd13ifvqf90","pricing_plan_id":"cebpf4jnsgd1na2vs0mg"},{"bike_id":"44ac11e8-a50b-4e42-a8b5-6ab41e27650d","system_id":"levelo_inurba_marseille","lat":43.26952,"lon":5.38626,"is_reserved":false,"is_disabled":false,"rental_uris":{"android":"levelo://app?vid=44ac11e8-a50b-4e42-a8b5-6ab41e27650d","ios":"levelo://app?vid=44ac11e8-a50b-4e42-a8b5-6ab41e27650d"},"vehicle_type_id":"4","last_reported":1733307066,"current_range_meters":19600,"station_id":"ce4bhh92rcd13ifvqfh0","pricing_plan_id":"cebpf4jnsgd1na2vs0mg"},{"bike_id":"8f490f2f-b0ca-46b2-bdf9-7844263bb7a4","system_id":"levelo_inurba_marseille","lat":43.30912,"lon":5.36841,"is_reserved":false,"is_disabled":false,"rental_uris":{"android":"levelo://app?vid=8f490f2f-b0ca-46b2-bdf9-7844263bb7a4","ios":"levelo://app?vid=8f490f2f-b0ca-46b2-bdf9-7844263bb7a4"},"vehicle_type_id":"4","last_reported":1733307066,"current_range_meters":32000,"station_id":"ce4bgn92rcd13ifvqbvg","pricing_plan_id":"cebpf4jnsgd1na2vs0mg"},{"bike_id":"dac5e254-1536-4087-a738-b9cdc35c9c7f","system_id":"levelo_inurba_marseille","lat":43.30552,"lon":5.36536,"is_reserved":false,"is_disabled":false,"rental_uris":{"android":"levelo://app?vid=dac5e254-1536-4087-a738-b9cdc35c9c7f","ios":"levelo://app?vid=dac5e254-1536-4087-a738-b9cdc35c9c7f"},"vehicle_type_id":"4","last_reported":1733307066,"current_range_meters":17200,"station_id":"ce4bgs12rcd13ifvqcag","pricing_plan_id":"cebpf4jnsgd1na2vs0mg"},{"bike_id":"669073d8-0935-4fb5-bd53-79ff79a850f3","system_id":"levelo_inurba_marseille","lat":43.29789,"lon":5.38087,"is_reserved":false,"is_disabled":false,"rental_uris":{"android":"levelo://app?vid=669073d8-0935-4fb5-bd53-79ff79a850f3","ios":"levelo://app?vid=669073d8-0935-4fb5-bd53-79ff79a850f3"},"vehicle_type_id":"4","last_reported":1733307066,"current_range_meters":37600,"station_id":"ce4bgip2rcd13ifvqbb0","pricing_plan_id":"cebpf4jnsgd1na2vs0mg"},{"bike_id":"28b52837-d828-49e4-b4be-cfbac010c328","system_id":"levelo_inurba_marseille","lat":43.33728,"lon":5.39186,"is_reserved":false,"is_disabled":false,"rental_uris":{"android":"levelo://app?vid=28b52837-d828-49e4-b4be-cfbac010c328","ios":"levelo://app?vid=28b52837-d828-49e4-b4be-cfbac010c328"},"vehicle_type_id":"4","last_reported":1733307066,"current_range_meters":36800,"station_id":"ce4bhr92rcd13ifvqhsg","pricing_plan_id":"cebpf4jnsgd1na2vs0mg"},{"bike_id":"b3f478ac-3b05-4edf-bdbf-76399090f8e9","system_id":"levelo_inurba_marseille","lat":43.29994,"lon":5.37639,"is_reserved":false,"is_disabled":true,"rental_uris":{"android":"levelo://app?vid=b3f478ac-3b05-4edf-bdbf-76399090f8e9","ios":"levelo://app?vid=b3f478ac-3b05-4edf-bdbf-76399090f8e9"},"vehicle_type_id":"4","last_reported":1733307066,"current_range_meters":0,"station_id":"","pricing_plan_id":"cebpf4jnsgd1na2vs0mg"},{"bike_id":"c3587c28-5435-41c6-a9b7-aa468e6b19aa","system_id":"levelo_inurba_marseille","lat":43.29746,"lon":5.37916,"is_reserved":false,"is_disabled":true,"rental_uris":{"android":"levelo://app?vid=c3587c28-5435-41c6-a9b7-aa468e6b19aa","ios":"levelo://app?vid=c3587c28-5435-41c6-a9b7-aa468e6b19aa"},"vehicle_type_id":"4","last_reported":1733307066,"current_range_meters":0,"station_id":"","pricing_plan_id":"cebpf4jnsgd1na2vs0mg"},{"bike_id":"75c4f34a-89f4-4145-a2e2-7dafbc1cdf90","system_id":"levelo_inurba_marseille","lat":43.29002,"lon":5.37251,"is_reserved":false,"is_disabled":true,"rental_uris":{"android":"levelo://app?vid=75c4f34a-89f4-4145-a2e2-7dafbc1cdf90","ios":"levelo://app?vid=75c4f34a-89f4-4145-a2e2-7dafbc1cdf90"},"vehicle_type_id":"4","last_reported":1733307066,"current_range_meters":0,"station_id":"","pricing_plan_id":"cebpf4jnsgd1na2vs0mg"},{"bike_id":"9f203353-623e-4a8e-891c-de4a2cfb786e","system_id":"levelo_inurba_marseille","lat":43.26201,"lon":5.37923,"is_reserved":false,"is_disabled":false,"rental_uris":{"android":"levelo://app?vid=9f203353-623e-4a8e-891c-de4a2cfb786e","ios":"levelo://app?vid=9f203353-623e-4a8e-891c-de4a2cfb786e"},"vehicle_type_id":"4","last_reported":1733307066,"current_range_meters":39200,"station_id":"ce4bhjp2rcd13ifvqg90","pricing_plan_id":"cebpf4jnsgd1na2vs0mg"},{"bike_id":"0691df20-0cb5-41e2-92d2-1a048a719b38","system_id":"levelo_inurba_marseille","lat":43.31883,"lon":5.40735,"is_reserved":false,"is_disabled":false,"rental_uris":{"android":"levelo://app?vid=0691df20-0cb5-41e2-92d2-1a048a719b38","ios":"levelo://app?vid=0691df20-0cb5-41e2-92d2-1a048a719b38"},"vehicle_type_id":"4","last_reported":1733307066,"current_range_meters":38800,"station_id":"ce4bhq12rcd13ifvqhig","pricing_plan_id":"cebpf4jnsgd1na2vs0mg"},{"bike_id":"e8d9fcd3-6c4c-4c2e-a87e-41c5e4dfa6d0","system_id":"levelo_inurba_marseille","lat":43.25438,"lon":5.38158,"is_reserved":false,"is_disabled":true,"rental_uris":{"android":"levelo://app?vid=e8d9fcd3-6c4c-4c2e-a87e-41c5e4dfa6d0","ios":"levelo://app?vid=e8d9fcd3-6c4c-4c2e-a87e-41c5e4dfa6d0"},"vehicle_type_id":"4","last_reported":1733307066,"current_range_meters":0,"station_id":"","pricing_plan_id":"cebpf4jnsgd1na2vs0mg"},{"bike_id":"e7c2b082-ef91-42b1-9ef0-9e4329cee9cb","system_id":"levelo_inurba_marseille","lat":43.2992,"lon":5.40347,"is_reserved":false,"is_disabled":true,"rental_uris":{"android":"levelo://app?vid=e7c2b082-ef91-42b1-9ef0-9e4329cee9cb","ios":"levelo://app?vid=e7c2b082-ef91-42b1-9ef0-9e4329cee9cb"},"vehicle_type_id":"4","last_reported":1733307066,"current_range_meters":0,"station_id":"","pricing_plan_id":"cebpf4jnsgd1na2vs0mg"},{"bike_id":"b0fd6e58-89f4-4e96-8d88-2bdfbaeed00e","system_id":"levelo_inurba_marseille","lat":43.32485,"lon":5.36566,"is_reserved":false,"is_disabled":false,"rental_uris":{"android":"levelo://app?vid=b0fd6e58-89f4-4e96-8d88-2bdfbaeed00e","ios":"levelo://app?vid=b0fd6e58-89f4-4e96-8d88-2bdfbaeed00e"},"vehicle_type_id":"4","last_reported":1733307066,"current_range_meters":27600,"station_id":"ce4bhs12rcd13ifvqhvg","pricing_plan_id":"cebpf4jnsgd1na2vs0mg"},{"bike_id":"5043b99f-fb77-4fd9-8e62-ebdeb7035a22","system_id":"levelo_inurba_marseille","lat":43.27373,"lon":5.3626,"is_reserved":false,"is_disabled":false,"rental_uris":{"android":"levelo://app?vid=5043b99f-fb77-4fd9-8e62-ebdeb7035a22","ios":"levelo://app?vid=5043b99f-fb77-4fd9-8e62-ebdeb7035a22"},"vehicle_type_id":"4","last_reported":1733307066,"current_range_meters":36400,"station_id":"ce4bhbh2rcd13ifvqeo0","pricing_plan_id":"cebpf4jnsgd1na2vs0mg"},{"bike_id":"80b9d113-61bd-447e-a184-7f2dab68b845","system_id":"levelo_inurba_marseille","lat":43.27208,"lon":5.39172,"is_reserved":false,"is_disabled":false,"rental_uris":{"android":"levelo://app?vid=80b9d113-61bd-447e-a184-7f2dab68b845","ios":"levelo://app?vid=80b9d113-61bd-447e-a184-7f2dab68b845"},"vehicle_type_id":"4","last_reported":1733307066,"current_range_meters":25200,"station_id":"ce4bhhp2rcd13ifvqfm0","pricing_plan_id":"cebpf4jnsgd1na2vs0mg"},{"bike_id":"c6b083b4-fa7e-462c-8ad0-abeffc85410a","system_id":"levelo_inurba_marseille","lat":43.26199,"lon":5.37933,"is_reserved":false,"is_disabled":false,"rental_uris":{"android":"levelo://app?vid=c6b083b4-fa7e-462c-8ad0-abeffc85410a","ios":"levelo://app?vid=c6b083b4-fa7e-462c-8ad0-abeffc85410a"},"vehicle_type_id":"4","last_reported":1733307066,"current_range_meters":36400,"station_id":"ce4bhjp2rcd13ifvqg90","pricing_plan_id":"cebpf4jnsgd1na2vs0mg"},{"bike_id":"6e63cede-d90f-4523-9b4c-d40156007a90","system_id":"levelo_inurba_marseille","lat":43.26949,"lon":5.38633,"is_reserved":false,"is_disabled":false,"rental_uris":{"android":"levelo://app?vid=6e63cede-d90f-4523-9b4c-d40156007a90","ios":"levelo://app?vid=6e63cede-d90f-4523-9b4c-d40156007a90"},"vehicle_type_id":"4","last_reported":1733307066,"current_range_meters":39200,"station_id":"ce4bhh92rcd13ifvqfh0","pricing_plan_id":"cebpf4jnsgd1na2vs0mg"},{"bike_id":"f4bb9bd4-eab6-413e-91d9-165ec94231f9","system_id":"levelo_inurba_marseille","lat":43.24075,"lon":5.37755,"is_reserved":false,"is_disabled":false,"rental_uris":{"android":"levelo://app?vid=f4bb9bd4-eab6-413e-91d9-165ec94231f9","ios":"levelo://app?vid=f4bb9bd4-eab6-413e-91d9-165ec94231f9"},"vehicle_type_id":"4","last_reported":1733307066,"current_range_meters":32400,"station_id":"ce4bhnp2rcd13ifvqgvg","pricing_plan_id":"cebpf4jnsgd1na2vs0mg"},{"bike_id":"23ec25c2-2bbe-44ce-bcff-21eb1c09301e","system_id":"levelo_inurba_marseille","lat":43.2668,"lon":5.38267,"is_reserved":false,"is_disabled":false,"rental_uris":{"android":"levelo://app?vid=23ec25c2-2bbe-44ce-bcff-21eb1c09301e","ios":"levelo://app?vid=23ec25c2-2bbe-44ce-bcff-21eb1c09301e"},"vehicle_type_id":"4","last_reported":1733307066,"current_range_meters":29600,"station_id":"ce4bhg92rcd13ifvqf90","pricing_plan_id":"cebpf4jnsgd1na2vs0mg"},{"bike_id":"0996ed95-fbc9-4d9b-9fc5-2dde5d170126","system_id":"levelo_inurba_marseille","lat":43.24077,"lon":5.37755,"is_reserved":false,"is_disabled":false,"rental_uris":{"android":"levelo://app?vid=0996ed95-fbc9-4d9b-9fc5-2dde5d170126","ios":"levelo://app?vid=0996ed95-fbc9-4d9b-9fc5-2dde5d170126"},"vehicle_type_id":"4","last_reported":1733307066,"current_range_meters":28400,"station_id":"ce4bhnp2rcd13ifvqgvg","pricing_plan_id":"cebpf4jnsgd1na2vs0mg"},{"bike_id":"6fda6399-1abd-4ae3-8925-126c93ee0147","system_id":"levelo_inurba_marseille","lat":43.3107,"lon":5.38341,"is_reserved":false,"is_disabled":false,"rental_uris":{"android":"levelo://app?vid=6fda6399-1abd-4ae3-8925-126c93ee0147","ios":"levelo://app?vid=6fda6399-1abd-4ae3-8925-126c93ee0147"},"vehicle_type_id":"4","last_reported":1733307066,"current_range_meters":28000,"station_id":"ce4bgv92rcd13ifvqcr0","pricing_plan_id":"cebpf4jnsgd1na2vs0mg"},{"bike_id":"47820ca6-64a6-415d-adf8-491c0c5fa185","system_id":"levelo_inurba_marseille","lat":43.29914,"lon":5.37479,"is_reserved":false,"is_disabled":false,"rental_uris":{"android":"levelo://app?vid=47820ca6-64a6-415d-adf8-491c0c5fa185","ios":"levelo://app?vid=47820ca6-64a6-415d-adf8-491c0c5fa185"},"vehicle_type_id":"4","last_reported":1733307066,"current_range_meters":38800,"station_id":"ce4bgjh2rcd13ifvqbg0","pricing_plan_id":"cebpf4jnsgd1na2vs0mg"},{"bike_id":"e12bdda5-dc2c-4545-bb40-fff311effa17","system_id":"levelo_inurba_marseille","lat":43.2979,"lon":5.38105,"is_reserved":false,"is_disabled":true,"rental_uris":{"android":"levelo://app?vid=e12bdda5-dc2c-4545-bb40-fff311effa17","ios":"levelo://app?vid=e12bdda5-dc2c-4545-bb40-fff311effa17"},"vehicle_type_id":"4","last_reported":1733307066,"current_range_meters":0,"station_id":"","pricing_plan_id":"cebpf4jnsgd1na2vs0mg"},{"bike_id":"2f3968e7-9336-4ee4-ba78-8e92c0a818cc","system_id":"levelo_inurba_marseille","lat":43.31322,"lon":5.36647,"is_reserved":false,"is_disabled":true,"rental_uris":{"android":"levelo://app?vid=2f3968e7-9336-4ee4-ba78-8e92c0a818cc","ios":"levelo://app?vid=2f3968e7-9336-4ee4-ba78-8e92c0a818cc"},"vehicle_type_id":"4","last_reported":1733307066,"current_range_meters":3600,"station_id":"","pricing_plan_id":"cebpf4jnsgd1na2vs0mg"},{"bike_id":"2587f2a5-fbf3-4600-9924-06fab018ca56","system_id":"levelo_inurba_marseille","lat":43.302763,"lon":5.37696,"is_reserved":false,"is_disabled":false,"rental_uris":{"android":"levelo://app?vid=2587f2a5-fbf3-4600-9924-06fab018ca56","ios":"levelo://app?vid=2587f2a5-fbf3-4600-9924-06fab018ca56"},"vehicle_type_id":"4","last_reported":1733307066,"current_range_meters":39200,"station_id":"ce4bguh2rcd13ifvqcj0","pricing_plan_id":"cebpf4jnsgd1na2vs0mg"},{"bike_id":"16bea42d-3248-41fd-8b51-39fb3d7ec2c4","system_id":"levelo_inurba_marseille","lat":43.26471,"lon":5.38525,"is_reserved":false,"is_disabled":true,"rental_uris":{"android":"levelo://app?vid=16bea42d-3248-41fd-8b51-39fb3d7ec2c4","ios":"levelo://app?vid=16bea42d-3248-41fd-8b51-39fb3d7ec2c4"},"vehicle_type_id":"4","last_reported":1733307066,"current_range_meters":0,"station_id":"","pricing_plan_id":"cebpf4jnsgd1na2vs0mg"},{"bike_id":"54660884-8ef8-4b30-aaba-82ac6b4a18bd","system_id":"levelo_inurba_marseille","lat":43.32481,"lon":5.36566,"is_reserved":false,"is_disabled":false,"rental_uris":{"android":"levelo://app?vid=54660884-8ef8-4b30-aaba-82ac6b4a18bd","ios":"levelo://app?vid=54660884-8ef8-4b30-aaba-82ac6b4a18bd"},"vehicle_type_id":"4","last_reported":1733307066,"current_range_meters":38800,"station_id":"ce4bhs12rcd13ifvqhvg","pricing_plan_id":"cebpf4jnsgd1na2vs0mg"},{"bike_id":"8aa77435-38a9-471a-8b27-546833cee6d3","system_id":"levelo_inurba_marseille","lat":43.26061,"lon":5.39384,"is_reserved":false,"is_disabled":true,"rental_uris":{"android":"levelo://app?vid=8aa77435-38a9-471a-8b27-546833cee6d3","ios":"levelo://app?vid=8aa77435-38a9-471a-8b27-546833cee6d3"},"vehicle_type_id":"4","last_reported":1733307066,"current_range_meters":10800,"station_id":"ce4bhh92rcd13ifvqfj0","pricing_plan_id":"cebpf4jnsgd1na2vs0mg"},{"bike_id":"7810630d-c08c-47ca-b983-107dbc0d9458","system_id":"levelo_inurba_marseille","lat":43.24547,"lon":5.39519,"is_reserved":false,"is_disabled":false,"rental_uris":{"android":"levelo://app?vid=7810630d-c08c-47ca-b983-107dbc0d9458","ios":"levelo://app?vid=7810630d-c08c-47ca-b983-107dbc0d9458"},"vehicle_type_id":"4","last_reported":1733307066,"current_range_meters":28000,"station_id":"ce4bhlp2rcd13ifvqgjg","pricing_plan_id":"cebpf4jnsgd1na2vs0mg"},{"bike_id":"821691cd-59d3-4afe-b792-90aa565a871f","system_id":"levelo_inurba_marseille","lat":43.27063,"lon":5.40255,"is_reserved":false,"is_disabled":false,"rental_uris":{"android":"levelo://app?vid=821691cd-59d3-4afe-b792-90aa565a871f","ios":"levelo://app?vid=821691cd-59d3-4afe-b792-90aa565a871f"},"vehicle_type_id":"4","last_reported":1733307066,"current_range_meters":25600,"station_id":"ce4bhk92rcd13ifvqgc0","pricing_plan_id":"cebpf4jnsgd1na2vs0mg"},{"bike_id":"571b5aaf-134a-4ac8-b3e6-7a15c89e8a3c","system_id":"levelo_inurba_marseille","lat":43.31361,"lon":5.36729,"is_reserved":false,"is_disabled":false,"rental_uris":{"android":"levelo://app?vid=571b5aaf-134a-4ac8-b3e6-7a15c89e8a3c","ios":"levelo://app?vid=571b5aaf-134a-4ac8-b3e6-7a15c89e8a3c"},"vehicle_type_id":"4","last_reported":1733307066,"current_range_meters":38800,"station_id":"ce4bgr92rcd13ifvqc6g","pricing_plan_id":"cebpf4jnsgd1na2vs0mg"},{"bike_id":"ff100802-4e32-43d9-aea4-c718a448c9dc","system_id":"levelo_inurba_marseille","lat":43.24079,"lon":5.37756,"is_reserved":false,"is_disabled":false,"rental_uris":{"android":"levelo://app?vid=ff100802-4e32-43d9-aea4-c718a448c9dc","ios":"levelo://app?vid=ff100802-4e32-43d9-aea4-c718a448c9dc"},"vehicle_type_id":"4","last_reported":1733307066,"current_range_meters":39200,"station_id":"ce4bhnp2rcd13ifvqgvg","pricing_plan_id":"cebpf4jnsgd1na2vs0mg"},{"bike_id":"d8f4df0f-575d-431b-9578-812b271ae647","system_id":"levelo_inurba_marseille","lat":43.28497,"lon":5.38459,"is_reserved":false,"is_disabled":false,"rental_uris":{"android":"levelo://app?vid=d8f4df0f-575d-431b-9578-812b271ae647","ios":"levelo://app?vid=d8f4df0f-575d-431b-9578-812b271ae647"},"vehicle_type_id":"4","last_reported":1733307066,"current_range_meters":30800,"station_id":"ce4bh512rcd13ifvqe3g","pricing_plan_id":"cebpf4jnsgd1na2vs0mg"},{"bike_id":"146a3b2d-72be-4f9c-a7f8-04adccaef506","system_id":"levelo_inurba_marseille","lat":43.27502,"lon":5.42448,"is_reserved":false,"is_disabled":false,"rental_uris":{"android":"levelo://app?vid=146a3b2d-72be-4f9c-a7f8-04adccaef506","ios":"levelo://app?vid=146a3b2d-72be-4f9c-a7f8-04adccaef506"},"vehicle_type_id":"4","last_reported":1733307066,"current_range_meters":29600,"station_id":"ce4bhn92rcd13ifvqgrg","pricing_plan_id":"cebpf4jnsgd1na2vs0mg"},{"bike_id":"496af5e0-8a45-47a1-8cc7-1aee2405846d","system_id":"levelo_inurba_marseille","lat":43.27831,"lon":5.39202,"is_reserved":false,"is_disabled":false,"rental_uris":{"android":"levelo://app?vid=496af5e0-8a45-47a1-8cc7-1aee2405846d","ios":"levelo://app?vid=496af5e0-8a45-47a1-8cc7-1aee2405846d"},"vehicle_type_id":"4","last_reported":1733307066,"current_range_meters":4800,"station_id":"","pricing_plan_id":"cebpf4jnsgd1na2vs0mg"},{"bike_id":"7a0b75c4-d43d-4938-8dcd-c77f8e25878e","system_id":"levelo_inurba_marseille","lat":43.27055,"lon":5.40259,"is_reserved":false,"is_disabled":false,"rental_uris":{"android":"levelo://app?vid=7a0b75c4-d43d-4938-8dcd-c77f8e25878e","ios":"levelo://app?vid=7a0b75c4-d43d-4938-8dcd-c77f8e25878e"},"vehicle_type_id":"4","last_reported":1733307066,"current_range_meters":28800,"station_id":"ce4bhk92rcd13ifvqgc0","pricing_plan_id":"cebpf4jnsgd1na2vs0mg"},{"bike_id":"5a50557a-331c-47f8-82cc-e12807c908db","system_id":"levelo_inurba_marseille","lat":43.33021,"lon":5.39039,"is_reserved":false,"is_disabled":false,"rental_uris":{"android":"levelo://app?vid=5a50557a-331c-47f8-82cc-e12807c908db","ios":"levelo://app?vid=5a50557a-331c-47f8-82cc-e12807c908db"},"vehicle_type_id":"4","last_reported":1733307066,"current_range_meters":24400,"station_id":"ce4bhr92rcd13ifvqhrg","pricing_plan_id":"cebpf4jnsgd1na2vs0mg"},{"bike_id":"47185a4c-7d7b-46e4-a46f-d8e6ec87723e","system_id":"levelo_inurba_marseille","lat":43.2593,"lon":5.40897,"is_reserved":false,"is_disabled":false,"rental_uris":{"android":"levelo://app?vid=47185a4c-7d7b-46e4-a46f-d8e6ec87723e","ios":"levelo://app?vid=47185a4c-7d7b-46e4-a46f-d8e6ec87723e"},"vehicle_type_id":"4","last_reported":1733307066,"current_range_meters":29600,"station_id":"ce4bhm92rcd13ifvqglg","pricing_plan_id":"cebpf4jnsgd1na2vs0mg"},{"bike_id":"305a1697-f162-4bd9-b306-beba9c71727d","system_id":"levelo_inurba_marseille","lat":43.27496,"lon":5.42452,"is_reserved":false,"is_disabled":false,"rental_uris":{"android":"levelo://app?vid=305a1697-f162-4bd9-b306-beba9c71727d","ios":"levelo://app?vid=305a1697-f162-4bd9-b306-beba9c71727d"},"vehicle_type_id":"4","last_reported":1733307066,"current_range_meters":22800,"station_id":"ce4bhn92rcd13ifvqgrg","pricing_plan_id":"cebpf4jnsgd1na2vs0mg"},{"bike_id":"4f31323a-70b1-4e02-866d-8df759bbdec2","system_id":"levelo_inurba_marseille","lat":43.29806,"lon":5.38087,"is_reserved":false,"is_disabled":false,"rental_uris":{"android":"levelo://app?vid=4f31323a-70b1-4e02-866d-8df759bbdec2","ios":"levelo://app?vid=4f31323a-70b1-4e02-866d-8df759bbdec2"},"vehicle_type_id":"4","last_reported":1733307066,"current_range_meters":26000,"station_id":"ce4bgip2rcd13ifvqbb0","pricing_plan_id":"cebpf4jnsgd1na2vs0mg"},{"bike_id":"ef8dccf7-5c02-4648-910c-2c64ce488a65","system_id":"levelo_inurba_marseille","lat":43.28147,"lon":5.42787,"is_reserved":false,"is_disabled":false,"rental_uris":{"android":"levelo://app?vid=ef8dccf7-5c02-4648-910c-2c64ce488a65","ios":"levelo://app?vid=ef8dccf7-5c02-4648-910c-2c64ce488a65"},"vehicle_type_id":"4","last_reported":1733307066,"current_range_meters":11200,"station_id":"","pricing_plan_id":"cebpf4jnsgd1na2vs0mg"},{"bike_id":"499878d2-3908-4e17-aedf-67d92ebfbcdd","system_id":"levelo_inurba_marseille","lat":43.30953,"lon":5.39025,"is_reserved":false,"is_disabled":false,"rental_uris":{"android":"levelo://app?vid=499878d2-3908-4e17-aedf-67d92ebfbcdd","ios":"levelo://app?vid=499878d2-3908-4e17-aedf-67d92ebfbcdd"},"vehicle_type_id":"4","last_reported":1733307066,"current_range_meters":24400,"station_id":"ce4bgup2rcd13ifvqco0","pricing_plan_id":"cebpf4jnsgd1na2vs0mg"},{"bike_id":"b73386f2-fa04-4fae-98be-ff0e17efea9c","system_id":"levelo_inurba_marseille","lat":43.32366,"lon":5.38874,"is_reserved":false,"is_disabled":false,"rental_uris":{"android":"levelo://app?vid=b73386f2-fa04-4fae-98be-ff0e17efea9c","ios":"levelo://app?vid=b73386f2-fa04-4fae-98be-ff0e17efea9c"},"vehicle_type_id":"4","last_reported":1733307066,"current_range_meters":8000,"station_id":"ce4bhqp2rcd13ifvqhog","pricing_plan_id":"cebpf4jnsgd1na2vs0mg"},{"bike_id":"3928df03-15c8-4b0d-a8d4-0b84a58b1e5b","system_id":"levelo_inurba_marseille","lat":43.26953,"lon":5.38631,"is_reserved":false,"is_disabled":false,"rental_uris":{"android":"levelo://app?vid=3928df03-15c8-4b0d-a8d4-0b84a58b1e5b","ios":"levelo://app?vid=3928df03-15c8-4b0d-a8d4-0b84a58b1e5b"},"vehicle_type_id":"4","last_reported":1733307066,"current_range_meters":38800,"station_id":"ce4bhh92rcd13ifvqfh0","pricing_plan_id":"cebpf4jnsgd1na2vs0mg"},{"bike_id":"3ea7e42b-9d99-4d0f-b485-adf3e62fd2f3","system_id":"levelo_inurba_marseille","lat":43.24073,"lon":5.37756,"is_reserved":false,"is_disabled":false,"rental_uris":{"android":"levelo://app?vid=3ea7e42b-9d99-4d0f-b485-adf3e62fd2f3","ios":"levelo://app?vid=3ea7e42b-9d99-4d0f-b485-adf3e62fd2f3"},"vehicle_type_id":"4","last_reported":1733307066,"current_range_meters":28400,"station_id":"ce4bhnp2rcd13ifvqgvg","pricing_plan_id":"cebpf4jnsgd1na2vs0mg"},{"bike_id":"45ff3798-a743-4ffc-962c-fbce8ce4e073","system_id":"levelo_inurba_marseille","lat":43.23151,"lon":5.43715,"is_reserved":false,"is_disabled":false,"rental_uris":{"android":"levelo://app?vid=45ff3798-a743-4ffc-962c-fbce8ce4e073","ios":"levelo://app?vid=45ff3798-a743-4ffc-962c-fbce8ce4e073"},"vehicle_type_id":"4","last_reported":1733307066,"current_range_meters":39200,"station_id":"ce4bhmp2rcd13ifvqgog","pricing_plan_id":"cebpf4jnsgd1na2vs0mg"},{"bike_id":"a183cac1-604d-4a80-9b65-f9ec9b210937","system_id":"levelo_inurba_marseille","lat":43.26195,"lon":5.3793,"is_reserved":false,"is_disabled":false,"rental_uris":{"android":"levelo://app?vid=a183cac1-604d-4a80-9b65-f9ec9b210937","ios":"levelo://app?vid=a183cac1-604d-4a80-9b65-f9ec9b210937"},"vehicle_type_id":"4","last_reported":1733307066,"current_range_meters":14400,"station_id":"ce4bhjp2rcd13ifvqg90","pricing_plan_id":"cebpf4jnsgd1na2vs0mg"},{"bike_id":"d0ae8c17-172c-441e-ae1e-c77931c183bd","system_id":"levelo_inurba_marseille","lat":43.24177,"lon":5.39727,"is_reserved":false,"is_disabled":false,"rental_uris":{"android":"levelo://app?vid=d0ae8c17-172c-441e-ae1e-c77931c183bd","ios":"levelo://app?vid=d0ae8c17-172c-441e-ae1e-c77931c183bd"},"vehicle_type_id":"4","last_reported":1733307066,"current_range_meters":27600,"station_id":"ce4bhn12rcd13ifvqgpg","pricing_plan_id":"cebpf4jnsgd1na2vs0mg"},{"bike_id":"8afb2c6b-2ac1-4bd9-bd4b-f614642b0e17","system_id":"levelo_inurba_marseille","lat":43.30556,"lon":5.36684,"is_reserved":false,"is_disabled":false,"rental_uris":{"android":"levelo://app?vid=8afb2c6b-2ac1-4bd9-bd4b-f614642b0e17","ios":"levelo://app?vid=8afb2c6b-2ac1-4bd9-bd4b-f614642b0e17"},"vehicle_type_id":"4","last_reported":1733307066,"current_range_meters":39200,"station_id":"ce4bgrp2rcd13ifvqc9g","pricing_plan_id":"cebpf4jnsgd1na2vs0mg"},{"bike_id":"cdfe6590-4984-4014-86c8-6dd70747c27a","system_id":"levelo_inurba_marseille","lat":43.29737,"lon":5.37434,"is_reserved":false,"is_disabled":true,"rental_uris":{"android":"levelo://app?vid=cdfe6590-4984-4014-86c8-6dd70747c27a","ios":"levelo://app?vid=cdfe6590-4984-4014-86c8-6dd70747c27a"},"vehicle_type_id":"4","last_reported":1733307066,"current_range_meters":0,"station_id":"","pricing_plan_id":"cebpf4jnsgd1na2vs0mg"},{"bike_id":"e3ce015b-8256-4482-8102-dd089f29efd4","system_id":"levelo_inurba_marseille","lat":43.26802,"lon":5.40265,"is_reserved":false,"is_disabled":false,"rental_uris":{"android":"levelo://app?vid=e3ce015b-8256-4482-8102-dd089f29efd4","ios":"levelo://app?vid=e3ce015b-8256-4482-8102-dd089f29efd4"},"vehicle_type_id":"4","last_reported":1733307066,"current_range_meters":34800,"station_id":"ce501612rcd8frsf0b60","pricing_plan_id":"cebpf4jnsgd1na2vs0mg"},{"bike_id":"fa2a601e-6d44-4e96-8642-2a3c1def0a94","system_id":"levelo_inurba_marseille","lat":43.33612,"lon":5.41033,"is_reserved":false,"is_disabled":false,"rental_uris":{"android":"levelo://app?vid=fa2a601e-6d44-4e96-8642-2a3c1def0a94","ios":"levelo://app?vid=fa2a601e-6d44-4e96-8642-2a3c1def0a94"},"vehicle_type_id":"4","last_reported":1733307066,"current_range_meters":29600,"station_id":"ce4bhqh2rcd13ifvqhmg","pricing_plan_id":"cebpf4jnsgd1na2vs0mg"},{"bike_id":"a597326f-3194-416f-870a-bb660333f9fc","system_id":"levelo_inurba_marseille","lat":43.33721,"lon":5.39183,"is_reserved":false,"is_disabled":false,"rental_uris":{"android":"levelo://app?vid=a597326f-3194-416f-870a-bb660333f9fc","ios":"levelo://app?vid=a597326f-3194-416f-870a-bb660333f9fc"},"vehicle_type_id":"4","last_reported":1733307066,"current_range_meters":38800,"station_id":"ce4bhr92rcd13ifvqhsg","pricing_plan_id":"cebpf4jnsgd1na2vs0mg"},{"bike_id":"0a9295df-0090-4b13-af97-8f7151eb66d8","system_id":"levelo_inurba_marseille","lat":43.24081,"lon":5.37749,"is_reserved":false,"is_disabled":false,"rental_uris":{"android":"levelo://app?vid=0a9295df-0090-4b13-af97-8f7151eb66d8","ios":"levelo://app?vid=0a9295df-0090-4b13-af97-8f7151eb66d8"},"vehicle_type_id":"4","last_reported":1733307066,"current_range_meters":29600,"station_id":"ce4bhnp2rcd13ifvqgvg","pricing_plan_id":"cebpf4jnsgd1na2vs0mg"},{"bike_id":"987a5ab4-d60c-480c-94b6-7cab38975402","system_id":"levelo_inurba_marseille","lat":43.29748,"lon":5.37971,"is_reserved":false,"is_disabled":true,"rental_uris":{"android":"levelo://app?vid=987a5ab4-d60c-480c-94b6-7cab38975402","ios":"levelo://app?vid=987a5ab4-d60c-480c-94b6-7cab38975402"},"vehicle_type_id":"4","last_reported":1733307066,"current_range_meters":0,"station_id":"","pricing_plan_id":"cebpf4jnsgd1na2vs0mg"},{"bike_id":"eda7f0fa-fe68-4f35-8acf-80fa9fefd41c","system_id":"levelo_inurba_marseille","lat":43.29222,"lon":5.36053,"is_reserved":false,"is_disabled":true,"rental_uris":{"android":"levelo://app?vid=eda7f0fa-fe68-4f35-8acf-80fa9fefd41c","ios":"levelo://app?vid=eda7f0fa-fe68-4f35-8acf-80fa9fefd41c"},"vehicle_type_id":"4","last_reported":1733307066,"current_range_meters":19200,"station_id":"ce4bhbh2rcd13ifvqeqg","pricing_plan_id":"cebpf4jnsgd1na2vs0mg"},{"bike_id":"2c4596ad-0ad9-4016-b92b-0093349de2b4","system_id":"levelo_inurba_marseille","lat":43.30755,"lon":5.38187,"is_reserved":false,"is_disabled":true,"rental_uris":{"android":"levelo://app?vid=2c4596ad-0ad9-4016-b92b-0093349de2b4","ios":"levelo://app?vid=2c4596ad-0ad9-4016-b92b-0093349de2b4"},"vehicle_type_id":"4","last_reported":1733307066,"current_range_meters":0,"station_id":"","pricing_plan_id":"cebpf4jnsgd1na2vs0mg"},{"bike_id":"4c50cfef-44f5-4acf-845e-6e627fcc246e","system_id":"levelo_inurba_marseille","lat":43.26685,"lon":5.38267,"is_reserved":false,"is_disabled":false,"rental_uris":{"android":"levelo://app?vid=4c50cfef-44f5-4acf-845e-6e627fcc246e","ios":"levelo://app?vid=4c50cfef-44f5-4acf-845e-6e627fcc246e"},"vehicle_type_id":"4","last_reported":1733307066,"current_range_meters":38800,"station_id":"ce4bhg92rcd13ifvqf90","pricing_plan_id":"cebpf4jnsgd1na2vs0mg"},{"bike_id":"1f28300c-d8be-4d08-b5ea-d3aadf1e301d","system_id":"levelo_inurba_marseille","lat":43.2626,"lon":5.42127,"is_reserved":false,"is_disabled":false,"rental_uris":{"android":"levelo://app?vid=1f28300c-d8be-4d08-b5ea-d3aadf1e301d","ios":"levelo://app?vid=1f28300c-d8be-4d08-b5ea-d3aadf1e301d"},"vehicle_type_id":"4","last_reported":1733307066,"current_range_meters":14000,"station_id":"","pricing_plan_id":"cebpf4jnsgd1na2vs0mg"},{"bike_id":"b7ab8c01-033f-4395-8276-23c850ad3d02","system_id":"levelo_inurba_marseille","lat":43.30329,"lon":5.36607,"is_reserved":false,"is_disabled":true,"rental_uris":{"android":"levelo://app?vid=b7ab8c01-033f-4395-8276-23c850ad3d02","ios":"levelo://app?vid=b7ab8c01-033f-4395-8276-23c850ad3d02"},"vehicle_type_id":"4","last_reported":1733307066,"current_range_meters":0,"station_id":"","pricing_plan_id":"cebpf4jnsgd1na2vs0mg"},{"bike_id":"1f47baec-2cb9-4756-b011-a6ad764aff05","system_id":"levelo_inurba_marseille","lat":43.27206,"lon":5.39179,"is_reserved":false,"is_disabled":false,"rental_uris":{"android":"levelo://app?vid=1f47baec-2cb9-4756-b011-a6ad764aff05","ios":"levelo://app?vid=1f47baec-2cb9-4756-b011-a6ad764aff05"},"vehicle_type_id":"4","last_reported":1733307066,"current_range_meters":18800,"station_id":"ce4bhhp2rcd13ifvqfm0","pricing_plan_id":"cebpf4jnsgd1na2vs0mg"},{"bike_id":"071ce7a4-69cb-4975-b68b-00ebf04131da","system_id":"levelo_inurba_marseille","lat":43.32364,"lon":5.38888,"is_reserved":false,"is_disabled":false,"rental_uris":{"android":"levelo://app?vid=071ce7a4-69cb-4975-b68b-00ebf04131da","ios":"levelo://app?vid=071ce7a4-69cb-4975-b68b-00ebf04131da"},"vehicle_type_id":"4","last_reported":1733307066,"current_range_meters":7200,"station_id":"ce4bhqp2rcd13ifvqhog","pricing_plan_id":"cebpf4jnsgd1na2vs0mg"},{"bike_id":"62039b2b-e25c-4eb7-a7b5-63675d853e8e","system_id":"levelo_inurba_marseille","lat":43.31707,"lon":5.37652,"is_reserved":false,"is_disabled":false,"rental_uris":{"android":"levelo://app?vid=62039b2b-e25c-4eb7-a7b5-63675d853e8e","ios":"levelo://app?vid=62039b2b-e25c-4eb7-a7b5-63675d853e8e"},"vehicle_type_id":"4","last_reported":1733307066,"current_range_meters":26800,"station_id":"","pricing_plan_id":"cebpf4jnsgd1na2vs0mg"},{"bike_id":"157f2edb-6b05-4592-b54a-e2b9f9a18ced","system_id":"levelo_inurba_marseille","lat":43.27497,"lon":5.42446,"is_reserved":false,"is_disabled":false,"rental_uris":{"android":"levelo://app?vid=157f2edb-6b05-4592-b54a-e2b9f9a18ced","ios":"levelo://app?vid=157f2edb-6b05-4592-b54a-e2b9f9a18ced"},"vehicle_type_id":"4","last_reported":1733307066,"current_range_meters":13600,"station_id":"ce4bhn92rcd13ifvqgrg","pricing_plan_id":"cebpf4jnsgd1na2vs0mg"},{"bike_id":"a9b4d1ac-a528-4323-9d6e-64bee0899bdb","system_id":"levelo_inurba_marseille","lat":43.24075,"lon":5.37755,"is_reserved":false,"is_disabled":false,"rental_uris":{"android":"levelo://app?vid=a9b4d1ac-a528-4323-9d6e-64bee0899bdb","ios":"levelo://app?vid=a9b4d1ac-a528-4323-9d6e-64bee0899bdb"},"vehicle_type_id":"4","last_reported":1733307066,"current_range_meters":38000,"station_id":"ce4bhnp2rcd13ifvqgvg","pricing_plan_id":"cebpf4jnsgd1na2vs0mg"},{"bike_id":"7bcf2e76-c8e8-41e9-b106-adf1159da4f8","system_id":"levelo_inurba_marseille","lat":43.28155,"lon":5.42644,"is_reserved":false,"is_disabled":false,"rental_uris":{"android":"levelo://app?vid=7bcf2e76-c8e8-41e9-b106-adf1159da4f8","ios":"levelo://app?vid=7bcf2e76-c8e8-41e9-b106-adf1159da4f8"},"vehicle_type_id":"4","last_reported":1733307066,"current_range_meters":25200,"station_id":"ce4bhnh2rcd13ifvqgug","pricing_plan_id":"cebpf4jnsgd1na2vs0mg"},{"bike_id":"6cc6805f-c0ca-4585-bdf1-b5a0339762b0","system_id":"levelo_inurba_marseille","lat":43.29024,"lon":5.42803,"is_reserved":false,"is_disabled":true,"rental_uris":{"android":"levelo://app?vid=6cc6805f-c0ca-4585-bdf1-b5a0339762b0","ios":"levelo://app?vid=6cc6805f-c0ca-4585-bdf1-b5a0339762b0"},"vehicle_type_id":"4","last_reported":1733307066,"current_range_meters":0,"station_id":"","pricing_plan_id":"cebpf4jnsgd1na2vs0mg"},{"bike_id":"56662269-bc43-4cb2-ba68-22bb9599dfb0","system_id":"levelo_inurba_marseille","lat":43.30538,"lon":5.38428,"is_reserved":false,"is_disabled":true,"rental_uris":{"android":"levelo://app?vid=56662269-bc43-4cb2-ba68-22bb9599dfb0","ios":"levelo://app?vid=56662269-bc43-4cb2-ba68-22bb9599dfb0"},"vehicle_type_id":"4","last_reported":1733307066,"current_range_meters":0,"station_id":"ce4bgg92rcd13ifvqb30","pricing_plan_id":"cebpf4jnsgd1na2vs0mg"},{"bike_id":"136155a8-b0e3-406b-abe6-c8bda028127e","system_id":"levelo_inurba_marseille","lat":43.29547,"lon":5.4228,"is_reserved":false,"is_disabled":false,"rental_uris":{"android":"levelo://app?vid=136155a8-b0e3-406b-abe6-c8bda028127e","ios":"levelo://app?vid=136155a8-b0e3-406b-abe6-c8bda028127e"},"vehicle_type_id":"4","last_reported":1733307066,"current_range_meters":38800,"station_id":"ce4bhph2rcd13ifvqhdg","pricing_plan_id":"cebpf4jnsgd1na2vs0mg"},{"bike_id":"8d1c8b92-79bb-4181-b0d2-5e94db1a14d0","system_id":"levelo_inurba_marseille","lat":43.30013,"lon":5.38263,"is_reserved":false,"is_disabled":true,"rental_uris":{"android":"levelo://app?vid=8d1c8b92-79bb-4181-b0d2-5e94db1a14d0","ios":"levelo://app?vid=8d1c8b92-79bb-4181-b0d2-5e94db1a14d0"},"vehicle_type_id":"4","last_reported":1733307066,"current_range_meters":0,"station_id":"","pricing_plan_id":"cebpf4jnsgd1na2vs0mg"},{"bike_id":"9ce77ab6-d985-4c67-b0a5-56a892314fed","system_id":"levelo_inurba_marseille","lat":43.32483,"lon":5.36565,"is_reserved":false,"is_disabled":false,"rental_uris":{"android":"levelo://app?vid=9ce77ab6-d985-4c67-b0a5-56a892314fed","ios":"levelo://app?vid=9ce77ab6-d985-4c67-b0a5-56a892314fed"},"vehicle_type_id":"4","last_reported":1733307066,"current_range_meters":14400,"station_id":"ce4bhs12rcd13ifvqhvg","pricing_plan_id":"cebpf4jnsgd1na2vs0mg"},{"bike_id":"1b210be9-92d0-42b1-bce2-502ffc9da963","system_id":"levelo_inurba_marseille","lat":43.30432,"lon":5.39754,"is_reserved":false,"is_disabled":true,"rental_uris":{"android":"levelo://app?vid=1b210be9-92d0-42b1-bce2-502ffc9da963","ios":"levelo://app?vid=1b210be9-92d0-42b1-bce2-502ffc9da963"},"vehicle_type_id":"4","last_reported":1733307066,"current_range_meters":0,"station_id":"ce4bh092rcd13ifvqd20","pricing_plan_id":"cebpf4jnsgd1na2vs0mg"},{"bike_id":"20389cd2-88e9-448b-b56e-c1f80ac229c5","system_id":"levelo_inurba_marseille","lat":43.27835,"lon":5.39212,"is_reserved":false,"is_disabled":false,"rental_uris":{"android":"levelo://app?vid=20389cd2-88e9-448b-b56e-c1f80ac229c5","ios":"levelo://app?vid=20389cd2-88e9-448b-b56e-c1f80ac229c5"},"vehicle_type_id":"4","last_reported":1733307066,"current_range_meters":27200,"station_id":"ce4bhjp2rcd13ifvqga0","pricing_plan_id":"cebpf4jnsgd1na2vs0mg"},{"bike_id":"37976add-b2de-4fcd-9280-dedaa466917d","system_id":"levelo_inurba_marseille","lat":43.30954,"lon":5.39036,"is_reserved":false,"is_disabled":false,"rental_uris":{"android":"levelo://app?vid=37976add-b2de-4fcd-9280-dedaa466917d","ios":"levelo://app?vid=37976add-b2de-4fcd-9280-dedaa466917d"},"vehicle_type_id":"4","last_reported":1733307066,"current_range_meters":20000,"station_id":"ce4bgup2rcd13ifvqco0","pricing_plan_id":"cebpf4jnsgd1na2vs0mg"},{"bike_id":"b75462a6-c7e9-4b91-bba7-d4d00e72cd2d","system_id":"levelo_inurba_marseille","lat":43.29622,"lon":5.37165,"is_reserved":false,"is_disabled":false,"rental_uris":{"android":"levelo://app?vid=b75462a6-c7e9-4b91-bba7-d4d00e72cd2d","ios":"levelo://app?vid=b75462a6-c7e9-4b91-bba7-d4d00e72cd2d"},"vehicle_type_id":"4","last_reported":1733307066,"current_range_meters":38800,"station_id":"ce4bgnh2rcd13ifvqc0g","pricing_plan_id":"cebpf4jnsgd1na2vs0mg"},{"bike_id":"fc5487e4-5ea2-4f86-9b4e-be3ec08dba94","system_id":"levelo_inurba_marseille","lat":43.26196,"lon":5.37931,"is_reserved":false,"is_disabled":false,"rental_uris":{"android":"levelo://app?vid=fc5487e4-5ea2-4f86-9b4e-be3ec08dba94","ios":"levelo://app?vid=fc5487e4-5ea2-4f86-9b4e-be3ec08dba94"},"vehicle_type_id":"4","last_reported":1733307066,"current_range_meters":19200,"station_id":"ce4bhjp2rcd13ifvqg90","pricing_plan_id":"cebpf4jnsgd1na2vs0mg"},{"bike_id":"5e439a20-535c-4153-8600-3710c2cf6c32","system_id":"levelo_inurba_marseille","lat":43.265,"lon":5.39545,"is_reserved":false,"is_disabled":false,"rental_uris":{"android":"levelo://app?vid=5e439a20-535c-4153-8600-3710c2cf6c32","ios":"levelo://app?vid=5e439a20-535c-4153-8600-3710c2cf6c32"},"vehicle_type_id":"4","last_reported":1733307066,"current_range_meters":12800,"station_id":"ce4bhi12rcd13ifvqfq0","pricing_plan_id":"cebpf4jnsgd1na2vs0mg"},{"bike_id":"c9a4a5a9-7de7-4484-96b8-d51e221c4dd9","system_id":"levelo_inurba_marseille","lat":43.26679,"lon":5.38264,"is_reserved":false,"is_disabled":false,"rental_uris":{"android":"levelo://app?vid=c9a4a5a9-7de7-4484-96b8-d51e221c4dd9","ios":"levelo://app?vid=c9a4a5a9-7de7-4484-96b8-d51e221c4dd9"},"vehicle_type_id":"4","last_reported":1733307066,"current_range_meters":36800,"station_id":"ce4bhg92rcd13ifvqf90","pricing_plan_id":"cebpf4jnsgd1na2vs0mg"},{"bike_id":"3ef54e73-ad7e-45c2-b80e-d6d7539f7adf","system_id":"levelo_inurba_marseille","lat":43.3122,"lon":5.36851,"is_reserved":false,"is_disabled":false,"rental_uris":{"android":"levelo://app?vid=3ef54e73-ad7e-45c2-b80e-d6d7539f7adf","ios":"levelo://app?vid=3ef54e73-ad7e-45c2-b80e-d6d7539f7adf"},"vehicle_type_id":"4","last_reported":1733307066,"current_range_meters":38800,"station_id":"ce4bgl92rcd13ifvqbq0","pricing_plan_id":"cebpf4jnsgd1na2vs0mg"},{"bike_id":"1ca0aca0-4ca4-4bf8-9b1d-054345c3a341","system_id":"levelo_inurba_marseille","lat":43.28884,"lon":5.39997,"is_reserved":false,"is_disabled":false,"rental_uris":{"android":"levelo://app?vid=1ca0aca0-4ca4-4bf8-9b1d-054345c3a341","ios":"levelo://app?vid=1ca0aca0-4ca4-4bf8-9b1d-054345c3a341"},"vehicle_type_id":"4","last_reported":1733307066,"current_range_meters":28800,"station_id":"","pricing_plan_id":"cebpf4jnsgd1na2vs0mg"},{"bike_id":"5c0300e4-5fe4-49d9-9e3f-39794756f4d9","system_id":"levelo_inurba_marseille","lat":43.32054,"lon":5.41539,"is_reserved":false,"is_disabled":false,"rental_uris":{"android":"levelo://app?vid=5c0300e4-5fe4-49d9-9e3f-39794756f4d9","ios":"levelo://app?vid=5c0300e4-5fe4-49d9-9e3f-39794756f4d9"},"vehicle_type_id":"4","last_reported":1733307066,"current_range_meters":38000,"station_id":"ce4bhq92rcd13ifvqhkg","pricing_plan_id":"cebpf4jnsgd1na2vs0mg"},{"bike_id":"1f4af703-ccfd-48bd-b4f8-5dd214f910ce","system_id":"levelo_inurba_marseille","lat":43.23152,"lon":5.43705,"is_reserved":false,"is_disabled":false,"rental_uris":{"android":"levelo://app?vid=1f4af703-ccfd-48bd-b4f8-5dd214f910ce","ios":"levelo://app?vid=1f4af703-ccfd-48bd-b4f8-5dd214f910ce"},"vehicle_type_id":"4","last_reported":1733307066,"current_range_meters":39200,"station_id":"ce4bhmp2rcd13ifvqgog","pricing_plan_id":"cebpf4jnsgd1na2vs0mg"},{"bike_id":"1a1835e4-d5d5-488d-8b05-634caea58fd1","system_id":"levelo_inurba_marseille","lat":43.26681,"lon":5.38267,"is_reserved":false,"is_disabled":true,"rental_uris":{"android":"levelo://app?vid=1a1835e4-d5d5-488d-8b05-634caea58fd1","ios":"levelo://app?vid=1a1835e4-d5d5-488d-8b05-634caea58fd1"},"vehicle_type_id":"4","last_reported":1733307066,"current_range_meters":33200,"station_id":"ce4bhg92rcd13ifvqf90","pricing_plan_id":"cebpf4jnsgd1na2vs0mg"},{"bike_id":"6d3a8a42-5044-43eb-ac76-5a069db92939","system_id":"levelo_inurba_marseille","lat":43.29722,"lon":5.37696,"is_reserved":false,"is_disabled":false,"rental_uris":{"android":"levelo://app?vid=6d3a8a42-5044-43eb-ac76-5a069db92939","ios":"levelo://app?vid=6d3a8a42-5044-43eb-ac76-5a069db92939"},"vehicle_type_id":"4","last_reported":1733307066,"current_range_meters":38800,"station_id":"ce4bgkh2rcd13ifvqbl0","pricing_plan_id":"cebpf4jnsgd1na2vs0mg"},{"bike_id":"d2c28698-e177-4ec3-804c-ede2349774ad","system_id":"levelo_inurba_marseille","lat":43.26037,"lon":5.37539,"is_reserved":false,"is_disabled":false,"rental_uris":{"android":"levelo://app?vid=d2c28698-e177-4ec3-804c-ede2349774ad","ios":"levelo://app?vid=d2c28698-e177-4ec3-804c-ede2349774ad"},"vehicle_type_id":"4","last_reported":1733307066,"current_range_meters":9600,"station_id":"ce4bhgh2rcd13ifvqfa0","pricing_plan_id":"cebpf4jnsgd1na2vs0mg"},{"bike_id":"ecc23403-95c6-493d-9b95-18537286dca1","system_id":"levelo_inurba_marseille","lat":43.31079,"lon":5.38353,"is_reserved":false,"is_disabled":false,"rental_uris":{"android":"levelo://app?vid=ecc23403-95c6-493d-9b95-18537286dca1","ios":"levelo://app?vid=ecc23403-95c6-493d-9b95-18537286dca1"},"vehicle_type_id":"4","last_reported":1733307066,"current_range_meters":15200,"station_id":"ce4bgv92rcd13ifvqcr0","pricing_plan_id":"cebpf4jnsgd1na2vs0mg"},{"bike_id":"f6b74fd4-e209-48f4-be28-d9333ff4d677","system_id":"levelo_inurba_marseille","lat":43.27495,"lon":5.42449,"is_reserved":false,"is_disabled":false,"rental_uris":{"android":"levelo://app?vid=f6b74fd4-e209-48f4-be28-d9333ff4d677","ios":"levelo://app?vid=f6b74fd4-e209-48f4-be28-d9333ff4d677"},"vehicle_type_id":"4","last_reported":1733307066,"current_range_meters":16400,"station_id":"ce4bhn92rcd13ifvqgrg","pricing_plan_id":"cebpf4jnsgd1na2vs0mg"},{"bike_id":"f97a7499-62cf-4968-93df-dddf550d4df2","system_id":"levelo_inurba_marseille","lat":43.255849,"lon":5.38246,"is_reserved":false,"is_disabled":false,"rental_uris":{"android":"levelo://app?vid=f97a7499-62cf-4968-93df-dddf550d4df2","ios":"levelo://app?vid=f97a7499-62cf-4968-93df-dddf550d4df2"},"vehicle_type_id":"4","last_reported":1733307066,"current_range_meters":38800,"station_id":"ce4bhih2rcd13ifvqfs0","pricing_plan_id":"cebpf4jnsgd1na2vs0mg"},{"bike_id":"9c77a68d-2e99-44e9-b903-950fb6644d35","system_id":"levelo_inurba_marseille","lat":43.25265,"lon":5.39465,"is_reserved":false,"is_disabled":true,"rental_uris":{"android":"levelo://app?vid=9c77a68d-2e99-44e9-b903-950fb6644d35","ios":"levelo://app?vid=9c77a68d-2e99-44e9-b903-950fb6644d35"},"vehicle_type_id":"4","last_reported":1733307066,"current_range_meters":0,"station_id":"","pricing_plan_id":"cebpf4jnsgd1na2vs0mg"},{"bike_id":"31407874-5722-499e-a393-8ac04d973b9f","system_id":"levelo_inurba_marseille","lat":43.30211,"lon":5.39464,"is_reserved":false,"is_disabled":false,"rental_uris":{"android":"levelo://app?vid=31407874-5722-499e-a393-8ac04d973b9f","ios":"levelo://app?vid=31407874-5722-499e-a393-8ac04d973b9f"},"vehicle_type_id":"4","last_reported":1733307066,"current_range_meters":11200,"station_id":"ce4bh0p2rcd13ifvqd70","pricing_plan_id":"cebpf4jnsgd1na2vs0mg"},{"bike_id":"f26b1f9d-d513-447d-a0cd-b3ed96942caf","system_id":"levelo_inurba_marseille","lat":43.295517,"lon":5.42274,"is_reserved":false,"is_disabled":false,"rental_uris":{"android":"levelo://app?vid=f26b1f9d-d513-447d-a0cd-b3ed96942caf","ios":"levelo://app?vid=f26b1f9d-d513-447d-a0cd-b3ed96942caf"},"vehicle_type_id":"4","last_reported":1733307066,"current_range_meters":14400,"station_id":"ce4bhph2rcd13ifvqhdg","pricing_plan_id":"cebpf4jnsgd1na2vs0mg"},{"bike_id":"730bc638-560e-49fe-921f-52f129ddf37e","system_id":"levelo_inurba_marseille","lat":43.25576,"lon":5.38221,"is_reserved":false,"is_disabled":false,"rental_uris":{"android":"levelo://app?vid=730bc638-560e-49fe-921f-52f129ddf37e","ios":"levelo://app?vid=730bc638-560e-49fe-921f-52f129ddf37e"},"vehicle_type_id":"4","last_reported":1733307066,"current_range_meters":9600,"station_id":"ce4bhih2rcd13ifvqfs0","pricing_plan_id":"cebpf4jnsgd1na2vs0mg"},{"bike_id":"2c968a74-c62d-4787-a380-887aee01e71f","system_id":"levelo_inurba_marseille","lat":43.31888,"lon":5.40726,"is_reserved":false,"is_disabled":false,"rental_uris":{"android":"levelo://app?vid=2c968a74-c62d-4787-a380-887aee01e71f","ios":"levelo://app?vid=2c968a74-c62d-4787-a380-887aee01e71f"},"vehicle_type_id":"4","last_reported":1733307066,"current_range_meters":24800,"station_id":"ce4bhq12rcd13ifvqhig","pricing_plan_id":"cebpf4jnsgd1na2vs0mg"},{"bike_id":"f90ecb10-01e4-439b-b822-1864650200a3","system_id":"levelo_inurba_marseille","lat":43.26932,"lon":5.3892,"is_reserved":false,"is_disabled":false,"rental_uris":{"android":"levelo://app?vid=f90ecb10-01e4-439b-b822-1864650200a3","ios":"levelo://app?vid=f90ecb10-01e4-439b-b822-1864650200a3"},"vehicle_type_id":"4","last_reported":1733307066,"current_range_meters":16000,"station_id":"ce4bhhh2rcd13ifvqfl0","pricing_plan_id":"cebpf4jnsgd1na2vs0mg"},{"bike_id":"83985555-c848-4b28-808f-8a7e7cf8519e","system_id":"levelo_inurba_marseille","lat":43.28125,"lon":5.43991,"is_reserved":false,"is_disabled":true,"rental_uris":{"android":"levelo://app?vid=83985555-c848-4b28-808f-8a7e7cf8519e","ios":"levelo://app?vid=83985555-c848-4b28-808f-8a7e7cf8519e"},"vehicle_type_id":"4","last_reported":1733307066,"current_range_meters":0,"station_id":"","pricing_plan_id":"cebpf4jnsgd1na2vs0mg"},{"bike_id":"84e2a0c7-5d51-40d4-ab15-f6c9eabb75e9","system_id":"levelo_inurba_marseille","lat":43.27496,"lon":5.42452,"is_reserved":false,"is_disabled":false,"rental_uris":{"android":"levelo://app?vid=84e2a0c7-5d51-40d4-ab15-f6c9eabb75e9","ios":"levelo://app?vid=84e2a0c7-5d51-40d4-ab15-f6c9eabb75e9"},"vehicle_type_id":"4","last_reported":1733307066,"current_range_meters":36000,"station_id":"ce4bhn92rcd13ifvqgrg","pricing_plan_id":"cebpf4jnsgd1na2vs0mg"},{"bike_id":"1be62913-8a8f-472b-bf7b-3981eb37562d","system_id":"levelo_inurba_marseille","lat":43.31487,"lon":5.37297,"is_reserved":false,"is_disabled":false,"rental_uris":{"android":"levelo://app?vid=1be62913-8a8f-472b-bf7b-3981eb37562d","ios":"levelo://app?vid=1be62913-8a8f-472b-bf7b-3981eb37562d"},"vehicle_type_id":"4","last_reported":1733307066,"current_range_meters":28800,"station_id":"ce4bgt12rcd13ifvqcd0","pricing_plan_id":"cebpf4jnsgd1na2vs0mg"},{"bike_id":"903ec8f1-f4c3-441f-a117-ff7454fcb959","system_id":"levelo_inurba_marseille","lat":43.294643,"lon":5.394034,"is_reserved":false,"is_disabled":true,"rental_uris":{"android":"levelo://app?vid=903ec8f1-f4c3-441f-a117-ff7454fcb959","ios":"levelo://app?vid=903ec8f1-f4c3-441f-a117-ff7454fcb959"},"vehicle_type_id":"4","last_reported":1733307066,"current_range_meters":0,"station_id":"","pricing_plan_id":"cebpf4jnsgd1na2vs0mg"},{"bike_id":"07a60b7f-80b7-470a-9515-22fa33d21dee","system_id":"levelo_inurba_marseille","lat":43.30285,"lon":5.39648,"is_reserved":false,"is_disabled":true,"rental_uris":{"android":"levelo://app?vid=07a60b7f-80b7-470a-9515-22fa33d21dee","ios":"levelo://app?vid=07a60b7f-80b7-470a-9515-22fa33d21dee"},"vehicle_type_id":"4","last_reported":1733307066,"current_range_meters":0,"station_id":"","pricing_plan_id":"cebpf4jnsgd1na2vs0mg"},{"bike_id":"5c2cdfd1-36f1-4001-b89f-b15c57c2cce9","system_id":"levelo_inurba_marseille","lat":43.29291,"lon":5.37463,"is_reserved":false,"is_disabled":false,"rental_uris":{"android":"levelo://app?vid=5c2cdfd1-36f1-4001-b89f-b15c57c2cce9","ios":"levelo://app?vid=5c2cdfd1-36f1-4001-b89f-b15c57c2cce9"},"vehicle_type_id":"4","last_reported":1733307066,"current_range_meters":32400,"station_id":"ce4bgi12rcd13ifvqb70","pricing_plan_id":"cebpf4jnsgd1na2vs0mg"},{"bike_id":"941eeae1-8936-4a86-b31a-ea87d84b2048","system_id":"levelo_inurba_marseille","lat":43.28059,"lon":5.35634,"is_reserved":false,"is_disabled":true,"rental_uris":{"android":"levelo://app?vid=941eeae1-8936-4a86-b31a-ea87d84b2048","ios":"levelo://app?vid=941eeae1-8936-4a86-b31a-ea87d84b2048"},"vehicle_type_id":"4","last_reported":1733307066,"current_range_meters":1200,"station_id":"","pricing_plan_id":"cebpf4jnsgd1na2vs0mg"},{"bike_id":"cb405331-5424-4e39-a835-9a9e9242f34c","system_id":"levelo_inurba_marseille","lat":43.30537,"lon":5.36527,"is_reserved":false,"is_disabled":false,"rental_uris":{"android":"levelo://app?vid=cb405331-5424-4e39-a835-9a9e9242f34c","ios":"levelo://app?vid=cb405331-5424-4e39-a835-9a9e9242f34c"},"vehicle_type_id":"4","last_reported":1733307066,"current_range_meters":27200,"station_id":"ce4bgs12rcd13ifvqcag","pricing_plan_id":"cebpf4jnsgd1na2vs0mg"},{"bike_id":"736804a0-d604-4593-9605-60df46271ddd","system_id":"levelo_inurba_marseille","lat":43.313586,"lon":5.367091,"is_reserved":false,"is_disabled":false,"rental_uris":{"android":"levelo://app?vid=736804a0-d604-4593-9605-60df46271ddd","ios":"levelo://app?vid=736804a0-d604-4593-9605-60df46271ddd"},"vehicle_type_id":"4","last_reported":1733307066,"current_range_meters":16000,"station_id":"ce4bgr92rcd13ifvqc6g","pricing_plan_id":"cebpf4jnsgd1na2vs0mg"},{"bike_id":"0ab48915-bbe2-40c6-92b0-a7f6e5577183","system_id":"levelo_inurba_marseille","lat":43.3149,"lon":5.37308,"is_reserved":false,"is_disabled":false,"rental_uris":{"android":"levelo://app?vid=0ab48915-bbe2-40c6-92b0-a7f6e5577183","ios":"levelo://app?vid=0ab48915-bbe2-40c6-92b0-a7f6e5577183"},"vehicle_type_id":"4","last_reported":1733307066,"current_range_meters":38000,"station_id":"ce4bgt12rcd13ifvqcd0","pricing_plan_id":"cebpf4jnsgd1na2vs0mg"},{"bike_id":"f9e732c2-dd63-456c-ba19-4b46d2f76009","system_id":"levelo_inurba_marseille","lat":43.3044,"lon":5.38894,"is_reserved":false,"is_disabled":true,"rental_uris":{"android":"levelo://app?vid=f9e732c2-dd63-456c-ba19-4b46d2f76009","ios":"levelo://app?vid=f9e732c2-dd63-456c-ba19-4b46d2f76009"},"vehicle_type_id":"4","last_reported":1733307066,"current_range_meters":35200,"station_id":"ce4bgk12rcd13ifvqbi0","pricing_plan_id":"cebpf4jnsgd1na2vs0mg"},{"bike_id":"1bd1c699-ba65-485a-b414-b399564feb34","system_id":"levelo_inurba_marseille","lat":43.2621,"lon":5.37433,"is_reserved":false,"is_disabled":false,"rental_uris":{"android":"levelo://app?vid=1bd1c699-ba65-485a-b414-b399564feb34","ios":"levelo://app?vid=1bd1c699-ba65-485a-b414-b399564feb34"},"vehicle_type_id":"4","last_reported":1733307066,"current_range_meters":32800,"station_id":"ce4bhgp2rcd13ifvqfc0","pricing_plan_id":"cebpf4jnsgd1na2vs0mg"},{"bike_id":"226ace33-aedf-419a-bd44-93e1457e3589","system_id":"levelo_inurba_marseille","lat":43.302241,"lon":5.394834,"is_reserved":false,"is_disabled":false,"rental_uris":{"android":"levelo://app?vid=226ace33-aedf-419a-bd44-93e1457e3589","ios":"levelo://app?vid=226ace33-aedf-419a-bd44-93e1457e3589"},"vehicle_type_id":"4","last_reported":1733307066,"current_range_meters":28000,"station_id":"ce4bhb12rcd13ifvqel0","pricing_plan_id":"cebpf4jnsgd1na2vs0mg"},{"bike_id":"d968385f-de2b-44eb-96a8-54efc707caa9","system_id":"levelo_inurba_marseille","lat":43.23201,"lon":5.35542,"is_reserved":false,"is_disabled":false,"rental_uris":{"android":"levelo://app?vid=d968385f-de2b-44eb-96a8-54efc707caa9","ios":"levelo://app?vid=d968385f-de2b-44eb-96a8-54efc707caa9"},"vehicle_type_id":"4","last_reported":1733307066,"current_range_meters":39200,"station_id":"ce4bhu92rcd13ifvqi70","pricing_plan_id":"cebpf4jnsgd1na2vs0mg"},{"bike_id":"081a8591-542e-49e8-9f34-aa4400ceacb3","system_id":"levelo_inurba_marseille","lat":43.29836,"lon":5.36258,"is_reserved":false,"is_disabled":false,"rental_uris":{"android":"levelo://app?vid=081a8591-542e-49e8-9f34-aa4400ceacb3","ios":"levelo://app?vid=081a8591-542e-49e8-9f34-aa4400ceacb3"},"vehicle_type_id":"4","last_reported":1733307066,"current_range_meters":38800,"station_id":"ce4bgpp2rcd13ifvqc3g","pricing_plan_id":"cebpf4jnsgd1na2vs0mg"},{"bike_id":"e218f52a-3c8a-490a-99d9-5af7196625b0","system_id":"levelo_inurba_marseille","lat":43.23195,"lon":5.35545,"is_reserved":false,"is_disabled":false,"rental_uris":{"android":"levelo://app?vid=e218f52a-3c8a-490a-99d9-5af7196625b0","ios":"levelo://app?vid=e218f52a-3c8a-490a-99d9-5af7196625b0"},"vehicle_type_id":"4","last_reported":1733307066,"current_range_meters":39200,"station_id":"ce4bhu92rcd13ifvqi70","pricing_plan_id":"cebpf4jnsgd1na2vs0mg"},{"bike_id":"506c09f4-6c9b-4fb3-996c-4c7f86dd75a8","system_id":"levelo_inurba_marseille","lat":43.25494,"lon":5.3764,"is_reserved":false,"is_disabled":true,"rental_uris":{"android":"levelo://app?vid=506c09f4-6c9b-4fb3-996c-4c7f86dd75a8","ios":"levelo://app?vid=506c09f4-6c9b-4fb3-996c-4c7f86dd75a8"},"vehicle_type_id":"4","last_reported":1733307066,"current_range_meters":0,"station_id":"","pricing_plan_id":"cebpf4jnsgd1na2vs0mg"},{"bike_id":"fd0f5468-0b07-4fb4-a17c-422c3034ac71","system_id":"levelo_inurba_marseille","lat":43.32076,"lon":5.41543,"is_reserved":false,"is_disabled":false,"rental_uris":{"android":"levelo://app?vid=fd0f5468-0b07-4fb4-a17c-422c3034ac71","ios":"levelo://app?vid=fd0f5468-0b07-4fb4-a17c-422c3034ac71"},"vehicle_type_id":"4","last_reported":1733307066,"current_range_meters":38800,"station_id":"","pricing_plan_id":"cebpf4jnsgd1na2vs0mg"},{"bike_id":"9202c63e-372c-4469-a5c1-8e35757d1940","system_id":"levelo_inurba_marseille","lat":43.30053,"lon":5.38832,"is_reserved":false,"is_disabled":true,"rental_uris":{"android":"levelo://app?vid=9202c63e-372c-4469-a5c1-8e35757d1940","ios":"levelo://app?vid=9202c63e-372c-4469-a5c1-8e35757d1940"},"vehicle_type_id":"4","last_reported":1733307066,"current_range_meters":0,"station_id":"","pricing_plan_id":"cebpf4jnsgd1na2vs0mg"},{"bike_id":"238a9584-1ddb-4e83-99a1-2480e465351c","system_id":"levelo_inurba_marseille","lat":43.33601,"lon":5.4103,"is_reserved":false,"is_disabled":false,"rental_uris":{"android":"levelo://app?vid=238a9584-1ddb-4e83-99a1-2480e465351c","ios":"levelo://app?vid=238a9584-1ddb-4e83-99a1-2480e465351c"},"vehicle_type_id":"4","last_reported":1733307066,"current_range_meters":22000,"station_id":"ce4bhqh2rcd13ifvqhmg","pricing_plan_id":"cebpf4jnsgd1na2vs0mg"},{"bike_id":"6e35a628-141c-4055-81a3-e64bed2ed5b9","system_id":"levelo_inurba_marseille","lat":43.30533,"lon":5.36723,"is_reserved":false,"is_disabled":false,"rental_uris":{"android":"levelo://app?vid=6e35a628-141c-4055-81a3-e64bed2ed5b9","ios":"levelo://app?vid=6e35a628-141c-4055-81a3-e64bed2ed5b9"},"vehicle_type_id":"4","last_reported":1733307066,"current_range_meters":39200,"station_id":"ce4bgrp2rcd13ifvqc9g","pricing_plan_id":"cebpf4jnsgd1na2vs0mg"},{"bike_id":"4cbdf730-6d1d-444f-b66f-8d33315f729b","system_id":"levelo_inurba_marseille","lat":43.26777,"lon":5.39418,"is_reserved":false,"is_disabled":false,"rental_uris":{"android":"levelo://app?vid=4cbdf730-6d1d-444f-b66f-8d33315f729b","ios":"levelo://app?vid=4cbdf730-6d1d-444f-b66f-8d33315f729b"},"vehicle_type_id":"4","last_reported":1733307066,"current_range_meters":38800,"station_id":"ce4bhh12rcd13ifvqfg0","pricing_plan_id":"cebpf4jnsgd1na2vs0mg"},{"bike_id":"3297dc17-ad0d-4af9-95bb-d2968a0e3b8f","system_id":"levelo_inurba_marseille","lat":43.30549,"lon":5.36523,"is_reserved":false,"is_disabled":false,"rental_uris":{"android":"levelo://app?vid=3297dc17-ad0d-4af9-95bb-d2968a0e3b8f","ios":"levelo://app?vid=3297dc17-ad0d-4af9-95bb-d2968a0e3b8f"},"vehicle_type_id":"4","last_reported":1733307066,"current_range_meters":27200,"station_id":"ce4bgs12rcd13ifvqcag","pricing_plan_id":"cebpf4jnsgd1na2vs0mg"},{"bike_id":"cf3e6ea0-09ff-406c-b357-28a6a6117f94","system_id":"levelo_inurba_marseille","lat":43.22932,"lon":5.35376,"is_reserved":false,"is_disabled":false,"rental_uris":{"android":"levelo://app?vid=cf3e6ea0-09ff-406c-b357-28a6a6117f94","ios":"levelo://app?vid=cf3e6ea0-09ff-406c-b357-28a6a6117f94"},"vehicle_type_id":"4","last_reported":1733307066,"current_range_meters":38000,"station_id":"cpo3532slgdg3j2ikp40","pricing_plan_id":"cebpf4jnsgd1na2vs0mg"},{"bike_id":"fa2480ed-4a82-4d24-b711-b8712ed3e4fc","system_id":"levelo_inurba_marseille","lat":43.28151,"lon":5.42641,"is_reserved":false,"is_disabled":false,"rental_uris":{"android":"levelo://app?vid=fa2480ed-4a82-4d24-b711-b8712ed3e4fc","ios":"levelo://app?vid=fa2480ed-4a82-4d24-b711-b8712ed3e4fc"},"vehicle_type_id":"4","last_reported":1733307066,"current_range_meters":37600,"station_id":"ce4bhnh2rcd13ifvqgug","pricing_plan_id":"cebpf4jnsgd1na2vs0mg"},{"bike_id":"33b6defc-0259-40c1-8c7c-b5f4200fa144","system_id":"levelo_inurba_marseille","lat":43.23964,"lon":5.36633,"is_reserved":false,"is_disabled":false,"rental_uris":{"android":"levelo://app?vid=33b6defc-0259-40c1-8c7c-b5f4200fa144","ios":"levelo://app?vid=33b6defc-0259-40c1-8c7c-b5f4200fa144"},"vehicle_type_id":"4","last_reported":1733307066,"current_range_meters":14400,"station_id":"ce4bhi12rcd13ifvqfp0","pricing_plan_id":"cebpf4jnsgd1na2vs0mg"},{"bike_id":"66ac9341-b94a-4082-a9d6-1bfcd193bc67","system_id":"levelo_inurba_marseille","lat":43.30532,"lon":5.36528,"is_reserved":false,"is_disabled":false,"rental_uris":{"android":"levelo://app?vid=66ac9341-b94a-4082-a9d6-1bfcd193bc67","ios":"levelo://app?vid=66ac9341-b94a-4082-a9d6-1bfcd193bc67"},"vehicle_type_id":"4","last_reported":1733307066,"current_range_meters":31200,"station_id":"ce4bgs12rcd13ifvqcag","pricing_plan_id":"cebpf4jnsgd1na2vs0mg"},{"bike_id":"73dfd467-b0be-45e6-b5d7-aa4e4e9f8450","system_id":"levelo_inurba_marseille","lat":43.3055,"lon":5.38434,"is_reserved":false,"is_disabled":false,"rental_uris":{"android":"levelo://app?vid=73dfd467-b0be-45e6-b5d7-aa4e4e9f8450","ios":"levelo://app?vid=73dfd467-b0be-45e6-b5d7-aa4e4e9f8450"},"vehicle_type_id":"4","last_reported":1733307066,"current_range_meters":11600,"station_id":"ce4bgg92rcd13ifvqb30","pricing_plan_id":"cebpf4jnsgd1na2vs0mg"},{"bike_id":"719e509a-25e4-4b1b-9830-f708d85d7593","system_id":"levelo_inurba_marseille","lat":43.29283,"lon":5.37397,"is_reserved":false,"is_disabled":true,"rental_uris":{"android":"levelo://app?vid=719e509a-25e4-4b1b-9830-f708d85d7593","ios":"levelo://app?vid=719e509a-25e4-4b1b-9830-f708d85d7593"},"vehicle_type_id":"4","last_reported":1733307066,"current_range_meters":0,"station_id":"","pricing_plan_id":"cebpf4jnsgd1na2vs0mg"},{"bike_id":"34990873-3196-4058-b006-4ffbc0216fdf","system_id":"levelo_inurba_marseille","lat":43.23189,"lon":5.3554,"is_reserved":false,"is_disabled":false,"rental_uris":{"android":"levelo://app?vid=34990873-3196-4058-b006-4ffbc0216fdf","ios":"levelo://app?vid=34990873-3196-4058-b006-4ffbc0216fdf"},"vehicle_type_id":"4","last_reported":1733307066,"current_range_meters":39200,"station_id":"ce4bhu92rcd13ifvqi70","pricing_plan_id":"cebpf4jnsgd1na2vs0mg"},{"bike_id":"235e4433-937e-41f8-a4d6-6889c27bd8c1","system_id":"levelo_inurba_marseille","lat":43.31072,"lon":5.38343,"is_reserved":false,"is_disabled":false,"rental_uris":{"android":"levelo://app?vid=235e4433-937e-41f8-a4d6-6889c27bd8c1","ios":"levelo://app?vid=235e4433-937e-41f8-a4d6-6889c27bd8c1"},"vehicle_type_id":"4","last_reported":1733307066,"current_range_meters":20400,"station_id":"ce4bgv92rcd13ifvqcr0","pricing_plan_id":"cebpf4jnsgd1na2vs0mg"},{"bike_id":"33d0b348-2dab-43d8-bee5-0b33e3cb1601","system_id":"levelo_inurba_marseille","lat":43.28944,"lon":5.36636,"is_reserved":false,"is_disabled":false,"rental_uris":{"android":"levelo://app?vid=33d0b348-2dab-43d8-bee5-0b33e3cb1601","ios":"levelo://app?vid=33d0b348-2dab-43d8-bee5-0b33e3cb1601"},"vehicle_type_id":"4","last_reported":1733307066,"current_range_meters":25200,"station_id":"ce4bhap2rcd13ifvqek0","pricing_plan_id":"cebpf4jnsgd1na2vs0mg"},{"bike_id":"622a611a-3962-4797-b293-bf816aaa8d27","system_id":"levelo_inurba_marseille","lat":43.24077,"lon":5.37754,"is_reserved":false,"is_disabled":false,"rental_uris":{"android":"levelo://app?vid=622a611a-3962-4797-b293-bf816aaa8d27","ios":"levelo://app?vid=622a611a-3962-4797-b293-bf816aaa8d27"},"vehicle_type_id":"4","last_reported":1733307066,"current_range_meters":26800,"station_id":"ce4bhnp2rcd13ifvqgvg","pricing_plan_id":"cebpf4jnsgd1na2vs0mg"},{"bike_id":"c0b0668b-9f20-44f3-b7e1-3963df177deb","system_id":"levelo_inurba_marseille","lat":43.26029,"lon":5.3755,"is_reserved":false,"is_disabled":false,"rental_uris":{"android":"levelo://app?vid=c0b0668b-9f20-44f3-b7e1-3963df177deb","ios":"levelo://app?vid=c0b0668b-9f20-44f3-b7e1-3963df177deb"},"vehicle_type_id":"4","last_reported":1733307066,"current_range_meters":38800,"station_id":"ce4bhgh2rcd13ifvqfa0","pricing_plan_id":"cebpf4jnsgd1na2vs0mg"},{"bike_id":"7eeb5ac6-a3ab-4724-a0d1-17bed7e385e6","system_id":"levelo_inurba_marseille","lat":43.27984,"lon":5.41655,"is_reserved":false,"is_disabled":false,"rental_uris":{"android":"levelo://app?vid=7eeb5ac6-a3ab-4724-a0d1-17bed7e385e6","ios":"levelo://app?vid=7eeb5ac6-a3ab-4724-a0d1-17bed7e385e6"},"vehicle_type_id":"4","last_reported":1733307066,"current_range_meters":23200,"station_id":"ce4bho12rcd13ifvqh1g","pricing_plan_id":"cebpf4jnsgd1na2vs0mg"},{"bike_id":"48f7fad5-9736-4854-ad66-3ac0235f4d2f","system_id":"levelo_inurba_marseille","lat":43.27062,"lon":5.40235,"is_reserved":false,"is_disabled":false,"rental_uris":{"android":"levelo://app?vid=48f7fad5-9736-4854-ad66-3ac0235f4d2f","ios":"levelo://app?vid=48f7fad5-9736-4854-ad66-3ac0235f4d2f"},"vehicle_type_id":"4","last_reported":1733307066,"current_range_meters":18800,"station_id":"ce4bhk92rcd13ifvqgc0","pricing_plan_id":"cebpf4jnsgd1na2vs0mg"},{"bike_id":"e623e7dc-9b49-45c8-ad86-90432817ae38","system_id":"levelo_inurba_marseille","lat":43.25723,"lon":5.41105,"is_reserved":false,"is_disabled":false,"rental_uris":{"android":"levelo://app?vid=e623e7dc-9b49-45c8-ad86-90432817ae38","ios":"levelo://app?vid=e623e7dc-9b49-45c8-ad86-90432817ae38"},"vehicle_type_id":"4","last_reported":1733307066,"current_range_meters":11200,"station_id":"ce4bhkp2rcd13ifvqgd0","pricing_plan_id":"cebpf4jnsgd1na2vs0mg"},{"bike_id":"3d8b8cc0-bc86-4be5-b1b3-97410f835a6f","system_id":"levelo_inurba_marseille","lat":43.3055,"lon":5.36684,"is_reserved":false,"is_disabled":false,"rental_uris":{"android":"levelo://app?vid=3d8b8cc0-bc86-4be5-b1b3-97410f835a6f","ios":"levelo://app?vid=3d8b8cc0-bc86-4be5-b1b3-97410f835a6f"},"vehicle_type_id":"4","last_reported":1733307066,"current_range_meters":19600,"station_id":"ce4bgrp2rcd13ifvqc9g","pricing_plan_id":"cebpf4jnsgd1na2vs0mg"},{"bike_id":"814933d9-932f-45d3-812e-11edfcc3f9c1","system_id":"levelo_inurba_marseille","lat":43.29623,"lon":5.37714,"is_reserved":false,"is_disabled":false,"rental_uris":{"android":"levelo://app?vid=814933d9-932f-45d3-812e-11edfcc3f9c1","ios":"levelo://app?vid=814933d9-932f-45d3-812e-11edfcc3f9c1"},"vehicle_type_id":"4","last_reported":1733307066,"current_range_meters":35200,"station_id":"ce4bgi92rcd13ifvqb90","pricing_plan_id":"cebpf4jnsgd1na2vs0mg"},{"bike_id":"a4ece437-9873-450e-b010-4c17889e67f4","system_id":"levelo_inurba_marseille","lat":43.28938,"lon":5.39619,"is_reserved":false,"is_disabled":false,"rental_uris":{"android":"levelo://app?vid=a4ece437-9873-450e-b010-4c17889e67f4","ios":"levelo://app?vid=a4ece437-9873-450e-b010-4c17889e67f4"},"vehicle_type_id":"4","last_reported":1733307066,"current_range_meters":35600,"station_id":"ce4bh3h2rcd13ifvqdn0","pricing_plan_id":"cebpf4jnsgd1na2vs0mg"},{"bike_id":"8c1de2a4-b0d2-43fd-bc67-26ce49932606","system_id":"levelo_inurba_marseille","lat":43.30559,"lon":5.3844,"is_reserved":false,"is_disabled":false,"rental_uris":{"android":"levelo://app?vid=8c1de2a4-b0d2-43fd-bc67-26ce49932606","ios":"levelo://app?vid=8c1de2a4-b0d2-43fd-bc67-26ce49932606"},"vehicle_type_id":"4","last_reported":1733307066,"current_range_meters":36400,"station_id":"ce4bgg92rcd13ifvqb30","pricing_plan_id":"cebpf4jnsgd1na2vs0mg"},{"bike_id":"38c9802a-44d4-43b4-a98f-381ac535f302","system_id":"levelo_inurba_marseille","lat":43.32481,"lon":5.36561,"is_reserved":false,"is_disabled":false,"rental_uris":{"android":"levelo://app?vid=38c9802a-44d4-43b4-a98f-381ac535f302","ios":"levelo://app?vid=38c9802a-44d4-43b4-a98f-381ac535f302"},"vehicle_type_id":"4","last_reported":1733307066,"current_range_meters":35600,"station_id":"ce4bhs12rcd13ifvqhvg","pricing_plan_id":"cebpf4jnsgd1na2vs0mg"},{"bike_id":"85738504-4b02-4b23-9e1a-606c13a5f776","system_id":"levelo_inurba_marseille","lat":43.30151,"lon":5.38097,"is_reserved":false,"is_disabled":false,"rental_uris":{"android":"levelo://app?vid=85738504-4b02-4b23-9e1a-606c13a5f776","ios":"levelo://app?vid=85738504-4b02-4b23-9e1a-606c13a5f776"},"vehicle_type_id":"4","last_reported":1733307066,"current_range_meters":27600,"station_id":"ce4bgjp2rcd13ifvqbh0","pricing_plan_id":"cebpf4jnsgd1na2vs0mg"},{"bike_id":"0b0ff45f-b0f5-43d3-944d-7ce6714713b4","system_id":"levelo_inurba_marseille","lat":43.33759,"lon":5.37408,"is_reserved":false,"is_disabled":false,"rental_uris":{"android":"levelo://app?vid=0b0ff45f-b0f5-43d3-944d-7ce6714713b4","ios":"levelo://app?vid=0b0ff45f-b0f5-43d3-944d-7ce6714713b4"},"vehicle_type_id":"4","last_reported":1733307066,"current_range_meters":36800,"station_id":"","pricing_plan_id":"cebpf4jnsgd1na2vs0mg"},{"bike_id":"04acd6cf-39e7-4978-a379-93c734ba69f3","system_id":"levelo_inurba_marseille","lat":43.31654,"lon":5.38196,"is_reserved":false,"is_disabled":false,"rental_uris":{"android":"levelo://app?vid=04acd6cf-39e7-4978-a379-93c734ba69f3","ios":"levelo://app?vid=04acd6cf-39e7-4978-a379-93c734ba69f3"},"vehicle_type_id":"4","last_reported":1733307066,"current_range_meters":38400,"station_id":"","pricing_plan_id":"cebpf4jnsgd1na2vs0mg"},{"bike_id":"3647332a-9aff-427a-b253-a9b387f4293e","system_id":"levelo_inurba_marseille","lat":43.3205,"lon":5.41539,"is_reserved":false,"is_disabled":false,"rental_uris":{"android":"levelo://app?vid=3647332a-9aff-427a-b253-a9b387f4293e","ios":"levelo://app?vid=3647332a-9aff-427a-b253-a9b387f4293e"},"vehicle_type_id":"4","last_reported":1733307066,"current_range_meters":39200,"station_id":"ce4bhq92rcd13ifvqhkg","pricing_plan_id":"cebpf4jnsgd1na2vs0mg"},{"bike_id":"695f4e15-8bd4-4b44-b887-a89a5ce808bd","system_id":"levelo_inurba_marseille","lat":43.24077,"lon":5.37751,"is_reserved":false,"is_disabled":false,"rental_uris":{"android":"levelo://app?vid=695f4e15-8bd4-4b44-b887-a89a5ce808bd","ios":"levelo://app?vid=695f4e15-8bd4-4b44-b887-a89a5ce808bd"},"vehicle_type_id":"4","last_reported":1733307066,"current_range_meters":28800,"station_id":"ce4bhnp2rcd13ifvqgvg","pricing_plan_id":"cebpf4jnsgd1na2vs0mg"},{"bike_id":"b783909c-27b8-4431-a756-117c46c390fd","system_id":"levelo_inurba_marseille","lat":43.30189,"lon":5.366,"is_reserved":false,"is_disabled":false,"rental_uris":{"android":"levelo://app?vid=b783909c-27b8-4431-a756-117c46c390fd","ios":"levelo://app?vid=b783909c-27b8-4431-a756-117c46c390fd"},"vehicle_type_id":"4","last_reported":1733307066,"current_range_meters":26800,"station_id":"ce4bgrh2rcd13ifvqc8g","pricing_plan_id":"cebpf4jnsgd1na2vs0mg"},{"bike_id":"4dcb1794-855f-4c85-92af-a3fc2e870555","system_id":"levelo_inurba_marseille","lat":43.29021,"lon":5.38129,"is_reserved":false,"is_disabled":false,"rental_uris":{"android":"levelo://app?vid=4dcb1794-855f-4c85-92af-a3fc2e870555","ios":"levelo://app?vid=4dcb1794-855f-4c85-92af-a3fc2e870555"},"vehicle_type_id":"4","last_reported":1733307066,"current_range_meters":28800,"station_id":"ce4bh4p2rcd13ifvqe1g","pricing_plan_id":"cebpf4jnsgd1na2vs0mg"},{"bike_id":"79c8ea6d-5102-4a1e-b941-afdabc095945","system_id":"levelo_inurba_marseille","lat":43.29056,"lon":5.38321,"is_reserved":false,"is_disabled":true,"rental_uris":{"android":"levelo://app?vid=79c8ea6d-5102-4a1e-b941-afdabc095945","ios":"levelo://app?vid=79c8ea6d-5102-4a1e-b941-afdabc095945"},"vehicle_type_id":"4","last_reported":1733307066,"current_range_meters":20800,"station_id":"","pricing_plan_id":"cebpf4jnsgd1na2vs0mg"},{"bike_id":"84a2915d-c6ef-4af0-8c6d-2fcd615fa6c7","system_id":"levelo_inurba_marseille","lat":43.32057,"lon":5.41573,"is_reserved":false,"is_disabled":true,"rental_uris":{"android":"levelo://app?vid=84a2915d-c6ef-4af0-8c6d-2fcd615fa6c7","ios":"levelo://app?vid=84a2915d-c6ef-4af0-8c6d-2fcd615fa6c7"},"vehicle_type_id":"4","last_reported":1733307066,"current_range_meters":2000,"station_id":"ce4bhq92rcd13ifvqhkg","pricing_plan_id":"cebpf4jnsgd1na2vs0mg"},{"bike_id":"82366f5e-8ef5-48c0-b7e7-af98e44f9fea","system_id":"levelo_inurba_marseille","lat":43.31483,"lon":5.37305,"is_reserved":false,"is_disabled":false,"rental_uris":{"android":"levelo://app?vid=82366f5e-8ef5-48c0-b7e7-af98e44f9fea","ios":"levelo://app?vid=82366f5e-8ef5-48c0-b7e7-af98e44f9fea"},"vehicle_type_id":"4","last_reported":1733307066,"current_range_meters":24000,"station_id":"ce4bgt12rcd13ifvqcd0","pricing_plan_id":"cebpf4jnsgd1na2vs0mg"},{"bike_id":"617629dc-94d5-488c-bdb3-2641b11a2136","system_id":"levelo_inurba_marseille","lat":43.31713,"lon":5.43694,"is_reserved":false,"is_disabled":true,"rental_uris":{"android":"levelo://app?vid=617629dc-94d5-488c-bdb3-2641b11a2136","ios":"levelo://app?vid=617629dc-94d5-488c-bdb3-2641b11a2136"},"vehicle_type_id":"4","last_reported":1733307066,"current_range_meters":27600,"station_id":"ce4bhp92rcd13ifvqhcg","pricing_plan_id":"cebpf4jnsgd1na2vs0mg"},{"bike_id":"c4b369ea-85f0-47aa-a8c7-7688ab4e53ce","system_id":"levelo_inurba_marseille","lat":43.27202,"lon":5.39186,"is_reserved":false,"is_disabled":false,"rental_uris":{"android":"levelo://app?vid=c4b369ea-85f0-47aa-a8c7-7688ab4e53ce","ios":"levelo://app?vid=c4b369ea-85f0-47aa-a8c7-7688ab4e53ce"},"vehicle_type_id":"4","last_reported":1733307066,"current_range_meters":38000,"station_id":"ce4bhhp2rcd13ifvqfm0","pricing_plan_id":"cebpf4jnsgd1na2vs0mg"},{"bike_id":"1f3491f0-7911-4ef6-949b-178332ea511b","system_id":"levelo_inurba_marseille","lat":43.27941,"lon":5.38786,"is_reserved":false,"is_disabled":true,"rental_uris":{"android":"levelo://app?vid=1f3491f0-7911-4ef6-949b-178332ea511b","ios":"levelo://app?vid=1f3491f0-7911-4ef6-949b-178332ea511b"},"vehicle_type_id":"4","last_reported":1733307066,"current_range_meters":19600,"station_id":"","pricing_plan_id":"cebpf4jnsgd1na2vs0mg"},{"bike_id":"c4ef6f3a-f148-43d1-9b52-59f7e4c91d19","system_id":"levelo_inurba_marseille","lat":43.28943,"lon":5.36374,"is_reserved":false,"is_disabled":false,"rental_uris":{"android":"levelo://app?vid=c4ef6f3a-f148-43d1-9b52-59f7e4c91d19","ios":"levelo://app?vid=c4ef6f3a-f148-43d1-9b52-59f7e4c91d19"},"vehicle_type_id":"4","last_reported":1733307066,"current_range_meters":17600,"station_id":"ce4bhc92rcd13ifvqetg","pricing_plan_id":"cebpf4jnsgd1na2vs0mg"},{"bike_id":"4364f563-d5ac-4797-b43e-4519ca8b19a8","system_id":"levelo_inurba_marseille","lat":43.30535,"lon":5.36713,"is_reserved":false,"is_disabled":false,"rental_uris":{"android":"levelo://app?vid=4364f563-d5ac-4797-b43e-4519ca8b19a8","ios":"levelo://app?vid=4364f563-d5ac-4797-b43e-4519ca8b19a8"},"vehicle_type_id":"4","last_reported":1733307066,"current_range_meters":32400,"station_id":"ce4bgrp2rcd13ifvqc9g","pricing_plan_id":"cebpf4jnsgd1na2vs0mg"},{"bike_id":"427d7497-fe79-4531-b7d6-69d2614ceec1","system_id":"levelo_inurba_marseille","lat":43.29176,"lon":5.38492,"is_reserved":false,"is_disabled":true,"rental_uris":{"android":"levelo://app?vid=427d7497-fe79-4531-b7d6-69d2614ceec1","ios":"levelo://app?vid=427d7497-fe79-4531-b7d6-69d2614ceec1"},"vehicle_type_id":"4","last_reported":1733307066,"current_range_meters":6000,"station_id":"","pricing_plan_id":"cebpf4jnsgd1na2vs0mg"},{"bike_id":"5ecf7364-2bad-450c-8536-214f937acc52","system_id":"levelo_inurba_marseille","lat":43.320356,"lon":5.415682,"is_reserved":false,"is_disabled":false,"rental_uris":{"android":"levelo://app?vid=5ecf7364-2bad-450c-8536-214f937acc52","ios":"levelo://app?vid=5ecf7364-2bad-450c-8536-214f937acc52"},"vehicle_type_id":"4","last_reported":1733307066,"current_range_meters":27600,"station_id":"ce4bhq92rcd13ifvqhkg","pricing_plan_id":"cebpf4jnsgd1na2vs0mg"},{"bike_id":"d08cbdef-fa5f-4eaa-9a1b-d4e2d436791f","system_id":"levelo_inurba_marseille","lat":43.32481,"lon":5.36556,"is_reserved":false,"is_disabled":false,"rental_uris":{"android":"levelo://app?vid=d08cbdef-fa5f-4eaa-9a1b-d4e2d436791f","ios":"levelo://app?vid=d08cbdef-fa5f-4eaa-9a1b-d4e2d436791f"},"vehicle_type_id":"4","last_reported":1733307066,"current_range_meters":38800,"station_id":"ce4bhs12rcd13ifvqhvg","pricing_plan_id":"cebpf4jnsgd1na2vs0mg"},{"bike_id":"174deacd-8ffe-4209-88d4-4e00ca6a1a10","system_id":"levelo_inurba_marseille","lat":43.27839,"lon":5.39208,"is_reserved":false,"is_disabled":false,"rental_uris":{"android":"levelo://app?vid=174deacd-8ffe-4209-88d4-4e00ca6a1a10","ios":"levelo://app?vid=174deacd-8ffe-4209-88d4-4e00ca6a1a10"},"vehicle_type_id":"4","last_reported":1733307066,"current_range_meters":10800,"station_id":"ce4bhjp2rcd13ifvqga0","pricing_plan_id":"cebpf4jnsgd1na2vs0mg"},{"bike_id":"a4b9e425-64b8-4ce2-a5ab-5fcc5d1230a4","system_id":"levelo_inurba_marseille","lat":43.32101,"lon":5.36772,"is_reserved":false,"is_disabled":false,"rental_uris":{"android":"levelo://app?vid=a4b9e425-64b8-4ce2-a5ab-5fcc5d1230a4","ios":"levelo://app?vid=a4b9e425-64b8-4ce2-a5ab-5fcc5d1230a4"},"vehicle_type_id":"4","last_reported":1733307066,"current_range_meters":38800,"station_id":"ce4bhrh2rcd13ifvqhug","pricing_plan_id":"cebpf4jnsgd1na2vs0mg"},{"bike_id":"c8382b14-cd3f-4b33-b9fe-141a4758bc67","system_id":"levelo_inurba_marseille","lat":43.30275,"lon":5.37698,"is_reserved":false,"is_disabled":false,"rental_uris":{"android":"levelo://app?vid=c8382b14-cd3f-4b33-b9fe-141a4758bc67","ios":"levelo://app?vid=c8382b14-cd3f-4b33-b9fe-141a4758bc67"},"vehicle_type_id":"4","last_reported":1733307066,"current_range_meters":33600,"station_id":"ce4bguh2rcd13ifvqcj0","pricing_plan_id":"cebpf4jnsgd1na2vs0mg"},{"bike_id":"3abebed7-0396-4197-8537-118f812c5e7e","system_id":"levelo_inurba_marseille","lat":43.28409,"lon":5.375,"is_reserved":false,"is_disabled":true,"rental_uris":{"android":"levelo://app?vid=3abebed7-0396-4197-8537-118f812c5e7e","ios":"levelo://app?vid=3abebed7-0396-4197-8537-118f812c5e7e"},"vehicle_type_id":"4","last_reported":1733307066,"current_range_meters":800,"station_id":"ce4bh412rcd13ifvqds0","pricing_plan_id":"cebpf4jnsgd1na2vs0mg"},{"bike_id":"943aab40-751a-499b-93a5-9e42c71722d8","system_id":"levelo_inurba_marseille","lat":43.24071,"lon":5.37764,"is_reserved":false,"is_disabled":false,"rental_uris":{"android":"levelo://app?vid=943aab40-751a-499b-93a5-9e42c71722d8","ios":"levelo://app?vid=943aab40-751a-499b-93a5-9e42c71722d8"},"vehicle_type_id":"4","last_reported":1733307066,"current_range_meters":39200,"station_id":"ce4bhnp2rcd13ifvqgvg","pricing_plan_id":"cebpf4jnsgd1na2vs0mg"},{"bike_id":"cb0ee622-a38e-4618-a23a-98fa77b1f815","system_id":"levelo_inurba_marseille","lat":43.25577,"lon":5.38224,"is_reserved":false,"is_disabled":false,"rental_uris":{"android":"levelo://app?vid=cb0ee622-a38e-4618-a23a-98fa77b1f815","ios":"levelo://app?vid=cb0ee622-a38e-4618-a23a-98fa77b1f815"},"vehicle_type_id":"4","last_reported":1733307066,"current_range_meters":10800,"station_id":"ce4bhih2rcd13ifvqfs0","pricing_plan_id":"cebpf4jnsgd1na2vs0mg"},{"bike_id":"124e256b-6755-4adb-956b-3d5fbbcf671d","system_id":"levelo_inurba_marseille","lat":43.2979,"lon":5.39339,"is_reserved":false,"is_disabled":true,"rental_uris":{"android":"levelo://app?vid=124e256b-6755-4adb-956b-3d5fbbcf671d","ios":"levelo://app?vid=124e256b-6755-4adb-956b-3d5fbbcf671d"},"vehicle_type_id":"4","last_reported":1733307066,"current_range_meters":0,"station_id":"chh1huq6cuj3fo74tm60","pricing_plan_id":"cebpf4jnsgd1na2vs0mg"},{"bike_id":"2ff33279-7bc5-4201-bbb4-369f33a86de5","system_id":"levelo_inurba_marseille","lat":43.32662,"lon":5.40994,"is_reserved":false,"is_disabled":false,"rental_uris":{"android":"levelo://app?vid=2ff33279-7bc5-4201-bbb4-369f33a86de5","ios":"levelo://app?vid=2ff33279-7bc5-4201-bbb4-369f33a86de5"},"vehicle_type_id":"4","last_reported":1733307066,"current_range_meters":35200,"station_id":"ce4bhpp2rcd13ifvqhgg","pricing_plan_id":"cebpf4jnsgd1na2vs0mg"},{"bike_id":"c2d8a1c2-d166-4a36-b32f-beec95c93bd5","system_id":"levelo_inurba_marseille","lat":43.33756,"lon":5.37459,"is_reserved":false,"is_disabled":false,"rental_uris":{"android":"levelo://app?vid=c2d8a1c2-d166-4a36-b32f-beec95c93bd5","ios":"levelo://app?vid=c2d8a1c2-d166-4a36-b32f-beec95c93bd5"},"vehicle_type_id":"4","last_reported":1733307066,"current_range_meters":14400,"station_id":"","pricing_plan_id":"cebpf4jnsgd1na2vs0mg"},{"bike_id":"61dcea1a-3c27-40d1-bd1c-89d60bb804cc","system_id":"levelo_inurba_marseille","lat":43.27978,"lon":5.38749,"is_reserved":false,"is_disabled":false,"rental_uris":{"android":"levelo://app?vid=61dcea1a-3c27-40d1-bd1c-89d60bb804cc","ios":"levelo://app?vid=61dcea1a-3c27-40d1-bd1c-89d60bb804cc"},"vehicle_type_id":"4","last_reported":1733307066,"current_range_meters":17200,"station_id":"ce4bhg12rcd13ifvqf80","pricing_plan_id":"cebpf4jnsgd1na2vs0mg"},{"bike_id":"f60cd7eb-4c08-47cb-b7a6-71cc99eeeda7","system_id":"levelo_inurba_marseille","lat":43.25004,"lon":5.38915,"is_reserved":false,"is_disabled":true,"rental_uris":{"android":"levelo://app?vid=f60cd7eb-4c08-47cb-b7a6-71cc99eeeda7","ios":"levelo://app?vid=f60cd7eb-4c08-47cb-b7a6-71cc99eeeda7"},"vehicle_type_id":"4","last_reported":1733307066,"current_range_meters":0,"station_id":"ce4bhgp2rcd13ifvqfd0","pricing_plan_id":"cebpf4jnsgd1na2vs0mg"},{"bike_id":"8830c08f-c268-499b-b7a5-e0504b24aab5","system_id":"levelo_inurba_marseille","lat":43.32461,"lon":5.36556,"is_reserved":false,"is_disabled":false,"rental_uris":{"android":"levelo://app?vid=8830c08f-c268-499b-b7a5-e0504b24aab5","ios":"levelo://app?vid=8830c08f-c268-499b-b7a5-e0504b24aab5"},"vehicle_type_id":"4","last_reported":1733307066,"current_range_meters":25600,"station_id":"ce4bhs12rcd13ifvqhvg","pricing_plan_id":"cebpf4jnsgd1na2vs0mg"},{"bike_id":"4d423fd5-9ac6-4dc1-a151-fec8cb0ea8c7","system_id":"levelo_inurba_marseille","lat":43.27501,"lon":5.42448,"is_reserved":false,"is_disabled":false,"rental_uris":{"android":"levelo://app?vid=4d423fd5-9ac6-4dc1-a151-fec8cb0ea8c7","ios":"levelo://app?vid=4d423fd5-9ac6-4dc1-a151-fec8cb0ea8c7"},"vehicle_type_id":"4","last_reported":1733307066,"current_range_meters":31200,"station_id":"ce4bhn92rcd13ifvqgrg","pricing_plan_id":"cebpf4jnsgd1na2vs0mg"},{"bike_id":"24600995-f56a-4983-b79c-f1ce0133ba43","system_id":"levelo_inurba_marseille","lat":43.30906,"lon":5.36842,"is_reserved":false,"is_disabled":false,"rental_uris":{"android":"levelo://app?vid=24600995-f56a-4983-b79c-f1ce0133ba43","ios":"levelo://app?vid=24600995-f56a-4983-b79c-f1ce0133ba43"},"vehicle_type_id":"4","last_reported":1733307066,"current_range_meters":39200,"station_id":"ce4bgn92rcd13ifvqbvg","pricing_plan_id":"cebpf4jnsgd1na2vs0mg"},{"bike_id":"427fa3fc-0864-41b7-bfd2-cc1592bc074f","system_id":"levelo_inurba_marseille","lat":43.31489,"lon":5.37301,"is_reserved":false,"is_disabled":false,"rental_uris":{"android":"levelo://app?vid=427fa3fc-0864-41b7-bfd2-cc1592bc074f","ios":"levelo://app?vid=427fa3fc-0864-41b7-bfd2-cc1592bc074f"},"vehicle_type_id":"4","last_reported":1733307066,"current_range_meters":38800,"station_id":"ce4bgt12rcd13ifvqcd0","pricing_plan_id":"cebpf4jnsgd1na2vs0mg"},{"bike_id":"77a9ae3f-f49b-490e-bc0d-4fabf83debf7","system_id":"levelo_inurba_marseille","lat":43.30419,"lon":5.41291,"is_reserved":false,"is_disabled":false,"rental_uris":{"android":"levelo://app?vid=77a9ae3f-f49b-490e-bc0d-4fabf83debf7","ios":"levelo://app?vid=77a9ae3f-f49b-490e-bc0d-4fabf83debf7"},"vehicle_type_id":"4","last_reported":1733307066,"current_range_meters":15200,"station_id":"ce4bhop2rcd13ifvqh8g","pricing_plan_id":"cebpf4jnsgd1na2vs0mg"},{"bike_id":"57e0f190-7f16-4931-934d-384b1700b76f","system_id":"levelo_inurba_marseille","lat":43.33092,"lon":5.36222,"is_reserved":false,"is_disabled":true,"rental_uris":{"android":"levelo://app?vid=57e0f190-7f16-4931-934d-384b1700b76f","ios":"levelo://app?vid=57e0f190-7f16-4931-934d-384b1700b76f"},"vehicle_type_id":"4","last_reported":1733307066,"current_range_meters":0,"station_id":"","pricing_plan_id":"cebpf4jnsgd1na2vs0mg"},{"bike_id":"5e160b8e-5c83-4423-b051-bd2cf577003d","system_id":"levelo_inurba_marseille","lat":43.23193,"lon":5.35542,"is_reserved":false,"is_disabled":false,"rental_uris":{"android":"levelo://app?vid=5e160b8e-5c83-4423-b051-bd2cf577003d","ios":"levelo://app?vid=5e160b8e-5c83-4423-b051-bd2cf577003d"},"vehicle_type_id":"4","last_reported":1733307066,"current_range_meters":39200,"station_id":"ce4bhu92rcd13ifvqi70","pricing_plan_id":"cebpf4jnsgd1na2vs0mg"},{"bike_id":"fe22b0f1-4409-493b-92e7-efe79b2e56cf","system_id":"levelo_inurba_marseille","lat":43.27068,"lon":5.42274,"is_reserved":false,"is_disabled":false,"rental_uris":{"android":"levelo://app?vid=fe22b0f1-4409-493b-92e7-efe79b2e56cf","ios":"levelo://app?vid=fe22b0f1-4409-493b-92e7-efe79b2e56cf"},"vehicle_type_id":"4","last_reported":1733307066,"current_range_meters":38800,"station_id":"ce4bhk92rcd13ifvqgb0","pricing_plan_id":"cebpf4jnsgd1na2vs0mg"},{"bike_id":"0b115fbc-2a1c-4284-9549-50ec6c5705b3","system_id":"levelo_inurba_marseille","lat":43.33024,"lon":5.39037,"is_reserved":false,"is_disabled":false,"rental_uris":{"android":"levelo://app?vid=0b115fbc-2a1c-4284-9549-50ec6c5705b3","ios":"levelo://app?vid=0b115fbc-2a1c-4284-9549-50ec6c5705b3"},"vehicle_type_id":"4","last_reported":1733307066,"current_range_meters":38800,"station_id":"ce4bhr92rcd13ifvqhrg","pricing_plan_id":"cebpf4jnsgd1na2vs0mg"},{"bike_id":"048859ad-73bc-4543-85c7-770c3e901a86","system_id":"levelo_inurba_marseille","lat":43.2695,"lon":5.38629,"is_reserved":false,"is_disabled":false,"rental_uris":{"android":"levelo://app?vid=048859ad-73bc-4543-85c7-770c3e901a86","ios":"levelo://app?vid=048859ad-73bc-4543-85c7-770c3e901a86"},"vehicle_type_id":"4","last_reported":1733307066,"current_range_meters":26800,"station_id":"ce4bhh92rcd13ifvqfh0","pricing_plan_id":"cebpf4jnsgd1na2vs0mg"},{"bike_id":"109ccf2f-3634-446c-b0d2-16817b2d75c9","system_id":"levelo_inurba_marseille","lat":43.30209,"lon":5.39467,"is_reserved":false,"is_disabled":false,"rental_uris":{"android":"levelo://app?vid=109ccf2f-3634-446c-b0d2-16817b2d75c9","ios":"levelo://app?vid=109ccf2f-3634-446c-b0d2-16817b2d75c9"},"vehicle_type_id":"4","last_reported":1733307066,"current_range_meters":16000,"station_id":"ce4bh0p2rcd13ifvqd70","pricing_plan_id":"cebpf4jnsgd1na2vs0mg"},{"bike_id":"6adf327d-9f32-4f7b-82b4-34627f90c9f4","system_id":"levelo_inurba_marseille","lat":43.2586,"lon":5.39913,"is_reserved":false,"is_disabled":false,"rental_uris":{"android":"levelo://app?vid=6adf327d-9f32-4f7b-82b4-34627f90c9f4","ios":"levelo://app?vid=6adf327d-9f32-4f7b-82b4-34627f90c9f4"},"vehicle_type_id":"4","last_reported":1733307066,"current_range_meters":13600,"station_id":"ce4bhl92rcd13ifvqghg","pricing_plan_id":"cebpf4jnsgd1na2vs0mg"},{"bike_id":"40ccdb7c-f2aa-4789-ae08-2d416ef863c4","system_id":"levelo_inurba_marseille","lat":43.29267,"lon":5.36835,"is_reserved":false,"is_disabled":true,"rental_uris":{"android":"levelo://app?vid=40ccdb7c-f2aa-4789-ae08-2d416ef863c4","ios":"levelo://app?vid=40ccdb7c-f2aa-4789-ae08-2d416ef863c4"},"vehicle_type_id":"4","last_reported":1733307066,"current_range_meters":18000,"station_id":"ce4bhbp2rcd13ifvqesg","pricing_plan_id":"cebpf4jnsgd1na2vs0mg"},{"bike_id":"1cf1ab79-3e56-4f6b-9a0a-ec97516b276b","system_id":"levelo_inurba_marseille","lat":43.27999,"lon":5.40015,"is_reserved":false,"is_disabled":false,"rental_uris":{"android":"levelo://app?vid=1cf1ab79-3e56-4f6b-9a0a-ec97516b276b","ios":"levelo://app?vid=1cf1ab79-3e56-4f6b-9a0a-ec97516b276b"},"vehicle_type_id":"4","last_reported":1733307066,"current_range_meters":12000,"station_id":"ce4bho92rcd13ifvqh4g","pricing_plan_id":"cebpf4jnsgd1na2vs0mg"},{"bike_id":"ce6a429f-4825-4c63-b948-e0dfdaaab389","system_id":"levelo_inurba_marseille","lat":43.29221,"lon":5.36049,"is_reserved":false,"is_disabled":true,"rental_uris":{"android":"levelo://app?vid=ce6a429f-4825-4c63-b948-e0dfdaaab389","ios":"levelo://app?vid=ce6a429f-4825-4c63-b948-e0dfdaaab389"},"vehicle_type_id":"4","last_reported":1733307066,"current_range_meters":36400,"station_id":"ce4bhbh2rcd13ifvqeqg","pricing_plan_id":"cebpf4jnsgd1na2vs0mg"},{"bike_id":"a13e45b5-3d49-49bc-af49-fbd12d53a877","system_id":"levelo_inurba_marseille","lat":43.3053,"lon":5.36527,"is_reserved":false,"is_disabled":false,"rental_uris":{"android":"levelo://app?vid=a13e45b5-3d49-49bc-af49-fbd12d53a877","ios":"levelo://app?vid=a13e45b5-3d49-49bc-af49-fbd12d53a877"},"vehicle_type_id":"4","last_reported":1733307066,"current_range_meters":19600,"station_id":"ce4bgs12rcd13ifvqcag","pricing_plan_id":"cebpf4jnsgd1na2vs0mg"},{"bike_id":"d2cacea6-dc09-4bb5-9e24-b3f0026fab56","system_id":"levelo_inurba_marseille","lat":43.30541,"lon":5.36697,"is_reserved":false,"is_disabled":false,"rental_uris":{"android":"levelo://app?vid=d2cacea6-dc09-4bb5-9e24-b3f0026fab56","ios":"levelo://app?vid=d2cacea6-dc09-4bb5-9e24-b3f0026fab56"},"vehicle_type_id":"4","last_reported":1733307066,"current_range_meters":30400,"station_id":"ce4bgrp2rcd13ifvqc9g","pricing_plan_id":"cebpf4jnsgd1na2vs0mg"},{"bike_id":"f8bcc820-9a1c-492a-9f26-6a6b26934b17","system_id":"levelo_inurba_marseille","lat":43.28605,"lon":5.3706,"is_reserved":false,"is_disabled":true,"rental_uris":{"android":"levelo://app?vid=f8bcc820-9a1c-492a-9f26-6a6b26934b17","ios":"levelo://app?vid=f8bcc820-9a1c-492a-9f26-6a6b26934b17"},"vehicle_type_id":"4","last_reported":1733307066,"current_range_meters":39200,"station_id":"ce4bht12rcd13ifvqi60","pricing_plan_id":"cebpf4jnsgd1na2vs0mg"},{"bike_id":"0200e8cc-e042-486d-8ed9-f6ea0404ef95","system_id":"levelo_inurba_marseille","lat":43.30955,"lon":5.39035,"is_reserved":false,"is_disabled":false,"rental_uris":{"android":"levelo://app?vid=0200e8cc-e042-486d-8ed9-f6ea0404ef95","ios":"levelo://app?vid=0200e8cc-e042-486d-8ed9-f6ea0404ef95"},"vehicle_type_id":"4","last_reported":1733307066,"current_range_meters":32000,"station_id":"ce4bgup2rcd13ifvqco0","pricing_plan_id":"cebpf4jnsgd1na2vs0mg"},{"bike_id":"f13ccf34-34de-4eba-9c2e-108df28d336e","system_id":"levelo_inurba_marseille","lat":43.30867,"lon":5.37206,"is_reserved":false,"is_disabled":false,"rental_uris":{"android":"levelo://app?vid=f13ccf34-34de-4eba-9c2e-108df28d336e","ios":"levelo://app?vid=f13ccf34-34de-4eba-9c2e-108df28d336e"},"vehicle_type_id":"4","last_reported":1733307066,"current_range_meters":28000,"station_id":"ce4bguh2rcd13ifvqckg","pricing_plan_id":"cebpf4jnsgd1na2vs0mg"},{"bike_id":"3a9149f3-357c-4d0a-859b-18382ef024a5","system_id":"levelo_inurba_marseille","lat":43.32111,"lon":5.3678,"is_reserved":false,"is_disabled":false,"rental_uris":{"android":"levelo://app?vid=3a9149f3-357c-4d0a-859b-18382ef024a5","ios":"levelo://app?vid=3a9149f3-357c-4d0a-859b-18382ef024a5"},"vehicle_type_id":"4","last_reported":1733307066,"current_range_meters":28400,"station_id":"ce4bhrh2rcd13ifvqhug","pricing_plan_id":"cebpf4jnsgd1na2vs0mg"},{"bike_id":"cba4e405-5f98-4b9e-871f-cc4713f22644","system_id":"levelo_inurba_marseille","lat":43.27489,"lon":5.42454,"is_reserved":false,"is_disabled":false,"rental_uris":{"android":"levelo://app?vid=cba4e405-5f98-4b9e-871f-cc4713f22644","ios":"levelo://app?vid=cba4e405-5f98-4b9e-871f-cc4713f22644"},"vehicle_type_id":"4","last_reported":1733307066,"current_range_meters":24000,"station_id":"ce4bhn92rcd13ifvqgrg","pricing_plan_id":"cebpf4jnsgd1na2vs0mg"},{"bike_id":"a0bf9c3c-c2fb-4686-a84f-97e8d1a81faf","system_id":"levelo_inurba_marseille","lat":43.26204,"lon":5.37924,"is_reserved":false,"is_disabled":false,"rental_uris":{"android":"levelo://app?vid=a0bf9c3c-c2fb-4686-a84f-97e8d1a81faf","ios":"levelo://app?vid=a0bf9c3c-c2fb-4686-a84f-97e8d1a81faf"},"vehicle_type_id":"4","last_reported":1733307066,"current_range_meters":35200,"station_id":"ce4bhjp2rcd13ifvqg90","pricing_plan_id":"cebpf4jnsgd1na2vs0mg"},{"bike_id":"4b1425b3-d14e-4b37-978d-05ce07410545","system_id":"levelo_inurba_marseille","lat":43.33782,"lon":5.37437,"is_reserved":false,"is_disabled":false,"rental_uris":{"android":"levelo://app?vid=4b1425b3-d14e-4b37-978d-05ce07410545","ios":"levelo://app?vid=4b1425b3-d14e-4b37-978d-05ce07410545"},"vehicle_type_id":"4","last_reported":1733307066,"current_range_meters":37600,"station_id":"","pricing_plan_id":"cebpf4jnsgd1na2vs0mg"},{"bike_id":"8ed65e6c-4bd7-425c-b3b6-6b20614b3f1a","system_id":"levelo_inurba_marseille","lat":43.32479,"lon":5.36562,"is_reserved":false,"is_disabled":false,"rental_uris":{"android":"levelo://app?vid=8ed65e6c-4bd7-425c-b3b6-6b20614b3f1a","ios":"levelo://app?vid=8ed65e6c-4bd7-425c-b3b6-6b20614b3f1a"},"vehicle_type_id":"4","last_reported":1733307066,"current_range_meters":38000,"station_id":"ce4bhs12rcd13ifvqhvg","pricing_plan_id":"cebpf4jnsgd1na2vs0mg"},{"bike_id":"1da40f7b-f262-4823-8145-7d1f8783e30f","system_id":"levelo_inurba_marseille","lat":43.33608,"lon":5.41021,"is_reserved":false,"is_disabled":false,"rental_uris":{"android":"levelo://app?vid=1da40f7b-f262-4823-8145-7d1f8783e30f","ios":"levelo://app?vid=1da40f7b-f262-4823-8145-7d1f8783e30f"},"vehicle_type_id":"4","last_reported":1733307066,"current_range_meters":28400,"station_id":"ce4bhqh2rcd13ifvqhmg","pricing_plan_id":"cebpf4jnsgd1na2vs0mg"},{"bike_id":"da6a7a1d-e653-4950-af8c-8137b06f7d40","system_id":"levelo_inurba_marseille","lat":43.3004,"lon":5.37551,"is_reserved":false,"is_disabled":true,"rental_uris":{"android":"levelo://app?vid=da6a7a1d-e653-4950-af8c-8137b06f7d40","ios":"levelo://app?vid=da6a7a1d-e653-4950-af8c-8137b06f7d40"},"vehicle_type_id":"4","last_reported":1733307066,"current_range_meters":0,"station_id":"","pricing_plan_id":"cebpf4jnsgd1na2vs0mg"},{"bike_id":"f08bee3a-32f4-4c65-aeaf-d34b548f8c1b","system_id":"levelo_inurba_marseille","lat":43.31755,"lon":5.39012,"is_reserved":false,"is_disabled":false,"rental_uris":{"android":"levelo://app?vid=f08bee3a-32f4-4c65-aeaf-d34b548f8c1b","ios":"levelo://app?vid=f08bee3a-32f4-4c65-aeaf-d34b548f8c1b"},"vehicle_type_id":"4","last_reported":1733307066,"current_range_meters":28000,"station_id":"ce4bhqp2rcd13ifvqhng","pricing_plan_id":"cebpf4jnsgd1na2vs0mg"},{"bike_id":"fd105c82-4171-4291-9f54-b4a492c8122c","system_id":"levelo_inurba_marseille","lat":43.25937,"lon":5.409,"is_reserved":false,"is_disabled":false,"rental_uris":{"android":"levelo://app?vid=fd105c82-4171-4291-9f54-b4a492c8122c","ios":"levelo://app?vid=fd105c82-4171-4291-9f54-b4a492c8122c"},"vehicle_type_id":"4","last_reported":1733307066,"current_range_meters":24000,"station_id":"ce4bhm92rcd13ifvqglg","pricing_plan_id":"cebpf4jnsgd1na2vs0mg"},{"bike_id":"1bcab1ec-4bfe-429d-ab1d-2bf64e5af055","system_id":"levelo_inurba_marseille","lat":43.30212,"lon":5.39465,"is_reserved":false,"is_disabled":false,"rental_uris":{"android":"levelo://app?vid=1bcab1ec-4bfe-429d-ab1d-2bf64e5af055","ios":"levelo://app?vid=1bcab1ec-4bfe-429d-ab1d-2bf64e5af055"},"vehicle_type_id":"4","last_reported":1733307066,"current_range_meters":21600,"station_id":"ce4bhf92rcd13ifvqf50","pricing_plan_id":"cebpf4jnsgd1na2vs0mg"},{"bike_id":"7ab26df3-581f-4927-b8df-f74f48acb7cd","system_id":"levelo_inurba_marseille","lat":43.28444,"lon":5.39192,"is_reserved":false,"is_disabled":true,"rental_uris":{"android":"levelo://app?vid=7ab26df3-581f-4927-b8df-f74f48acb7cd","ios":"levelo://app?vid=7ab26df3-581f-4927-b8df-f74f48acb7cd"},"vehicle_type_id":"4","last_reported":1733307066,"current_range_meters":14400,"station_id":"ce4bhoh2rcd13ifvqh5g","pricing_plan_id":"cebpf4jnsgd1na2vs0mg"},{"bike_id":"068a0591-fb8b-4f0d-8d64-a714980101d9","system_id":"levelo_inurba_marseille","lat":43.30211,"lon":5.39454,"is_reserved":false,"is_disabled":false,"rental_uris":{"android":"levelo://app?vid=068a0591-fb8b-4f0d-8d64-a714980101d9","ios":"levelo://app?vid=068a0591-fb8b-4f0d-8d64-a714980101d9"},"vehicle_type_id":"4","last_reported":1733307066,"current_range_meters":37600,"station_id":"ce4bh0p2rcd13ifvqd70","pricing_plan_id":"cebpf4jnsgd1na2vs0mg"},{"bike_id":"b314e948-2a77-40d4-be0f-5b067a6c2769","system_id":"levelo_inurba_marseille","lat":43.32488,"lon":5.36568,"is_reserved":false,"is_disabled":false,"rental_uris":{"android":"levelo://app?vid=b314e948-2a77-40d4-be0f-5b067a6c2769","ios":"levelo://app?vid=b314e948-2a77-40d4-be0f-5b067a6c2769"},