{"last_updated":1762524669,"ttl":60,"version":"2.2","data":{"bikes":[{"bike_id":"4ae8e825-224e-4e85-b395-3832df6b4820","system_id":"levelo_inurba_marseille","lat":43.30882,"lon":5.39634,"is_reserved":false,"is_disabled":false,"rental_uris":{"android":"levelo://app?vid=4ae8e825-224e-4e85-b395-3832df6b4820","ios":"levelo://app?vid=4ae8e825-224e-4e85-b395-3832df6b4820"},"vehicle_type_id":"4","last_reported":1762524670,"current_range_meters":2800,"station_id":"ce4bh012rcd13ifvqcv0","pricing_plan_id":"cebpf4jnsgd1na2vs0mg"},{"bike_id":"874b186c-6ec7-4094-a4dd-a249e7cc9b62","system_id":"levelo_inurba_marseille","lat":43.27718,"lon":5.4269,"is_reserved":false,"is_disabled":false,"rental_uris":{"android":"levelo://app?vid=874b186c-6ec7-4094-a4dd-a249e7cc9b62","ios":"levelo://app?vid=874b186c-6ec7-4094-a4dd-a249e7cc9b62"},"vehicle_type_id":"4","last_reported":1762524670,"current_range_meters":2800,"station_id":"","pricing_plan_id":"cebpf4jnsgd1na2vs0mg"},{"bike_id":"e7a9a900-6256-4d71-a025-3d2cc40a41b1","system_id":"levelo_inurba_marseille","lat":43.30888,"lon":5.39635,"is_reserved":false,"is_disabled":false,"rental_uris":{"android":"levelo://app?vid=e7a9a900-6256-4d71-a025-3d2cc40a41b1","ios":"levelo://app?vid=e7a9a900-6256-4d71-a025-3d2cc40a41b1"},"vehicle_type_id":"4","last_reported":1762524670,"current_range_meters":2800,"station_id":"ce4bh012rcd13ifvqcv0","pricing_plan_id":"cebpf4jnsgd1na2vs0mg"},{"bike_id":"571bd3a6-912b-44a3-9841-50c558a61481","system_id":"levelo_inurba_marseille","lat":43.28085,"lon":5.40572,"is_reserved":false,"is_disabled":false,"rental_uris":{"android":"levelo://app?vid=571bd3a6-912b-44a3-9841-50c558a61481","ios":"levelo://app?vid=571bd3a6-912b-44a3-9841-50c558a61481"},"vehicle_type_id":"4","last_reported":1762524670,"current_range_meters":3200,"station_id":"","pricing_plan_id":"cebpf4jnsgd1na2vs0mg"},{"bike_id":"95bd1a2e-8a58-4be0-b0bd-a9076c7e8a1a","system_id":"levelo_inurba_marseille","lat":43.280383,"lon":5.369428,"is_reserved":false,"is_disabled":false,"rental_uris":{"android":"levelo://app?vid=95bd1a2e-8a58-4be0-b0bd-a9076c7e8a1a","ios":"levelo://app?vid=95bd1a2e-8a58-4be0-b0bd-a9076c7e8a1a"},"vehicle_type_id":"4","last_reported":1762524670,"current_range_meters":3200,"station_id":"ce4bha12rcd13ifvqef0","pricing_plan_id":"cebpf4jnsgd1na2vs0mg"},{"bike_id":"ba8ef908-1c10-4087-965a-2ccb975167f2","system_id":"levelo_inurba_marseille","lat":43.273713,"lon":5.362656,"is_reserved":false,"is_disabled":false,"rental_uris":{"android":"levelo://app?vid=ba8ef908-1c10-4087-965a-2ccb975167f2","ios":"levelo://app?vid=ba8ef908-1c10-4087-965a-2ccb975167f2"},"vehicle_type_id":"4","last_reported":1762524670,"current_range_meters":3200,"station_id":"ce4bhbh2rcd13ifvqeo0","pricing_plan_id":"cebpf4jnsgd1na2vs0mg"},{"bike_id":"258dfe36-0257-4954-851a-e21e90a76077","system_id":"levelo_inurba_marseille","lat":43.25107,"lon":5.4033,"is_reserved":false,"is_disabled":false,"rental_uris":{"android":"levelo://app?vid=258dfe36-0257-4954-851a-e21e90a76077","ios":"levelo://app?vid=258dfe36-0257-4954-851a-e21e90a76077"},"vehicle_type_id":"4","last_reported":1762524670,"current_range_meters":3200,"station_id":"ce4bhlh2rcd13ifvqgig","pricing_plan_id":"cebpf4jnsgd1na2vs0mg"},{"bike_id":"41879435-94bd-4a98-8613-84baa39ae05e","system_id":"levelo_inurba_marseille","lat":43.31159,"lon":5.38719,"is_reserved":false,"is_disabled":false,"rental_uris":{"android":"levelo://app?vid=41879435-94bd-4a98-8613-84baa39ae05e","ios":"levelo://app?vid=41879435-94bd-4a98-8613-84baa39ae05e"},"vehicle_type_id":"4","last_reported":1762524670,"current_range_meters":3200,"station_id":"ce4bgv12rcd13ifvqcp0","pricing_plan_id":"cebpf4jnsgd1na2vs0mg"},{"bike_id":"03d38a6c-a93a-4634-be9b-4e2dab3a5b9b","system_id":"levelo_inurba_marseille","lat":43.2972,"lon":5.37704,"is_reserved":false,"is_disabled":false,"rental_uris":{"android":"levelo://app?vid=03d38a6c-a93a-4634-be9b-4e2dab3a5b9b","ios":"levelo://app?vid=03d38a6c-a93a-4634-be9b-4e2dab3a5b9b"},"vehicle_type_id":"4","last_reported":1762524670,"current_range_meters":3600,"station_id":"ce4bgkh2rcd13ifvqbl0","pricing_plan_id":"cebpf4jnsgd1na2vs0mg"},{"bike_id":"46ea1783-79a5-4ee9-b0e7-3de645166e70","system_id":"levelo_inurba_marseille","lat":43.22568,"lon":5.41622,"is_reserved":false,"is_disabled":false,"rental_uris":{"android":"levelo://app?vid=46ea1783-79a5-4ee9-b0e7-3de645166e70","ios":"levelo://app?vid=46ea1783-79a5-4ee9-b0e7-3de645166e70"},"vehicle_type_id":"4","last_reported":1762524670,"current_range_meters":3600,"station_id":"st_d2o4gvlbi1j2169b742g","pricing_plan_id":"cebpf4jnsgd1na2vs0mg"},{"bike_id":"b0c27ef9-9f87-4afd-b472-3aeb13a83399","system_id":"levelo_inurba_marseille","lat":43.28939,"lon":5.36639,"is_reserved":false,"is_disabled":false,"rental_uris":{"android":"levelo://app?vid=b0c27ef9-9f87-4afd-b472-3aeb13a83399","ios":"levelo://app?vid=b0c27ef9-9f87-4afd-b472-3aeb13a83399"},"vehicle_type_id":"4","last_reported":1762524670,"current_range_meters":3600,"station_id":"ce4bhap2rcd13ifvqek0","pricing_plan_id":"cebpf4jnsgd1na2vs0mg"},{"bike_id":"28acdc45-59c8-465c-9610-94ab4c3c61c9","system_id":"levelo_inurba_marseille","lat":43.284723,"lon":5.484027,"is_reserved":false,"is_disabled":false,"rental_uris":{"android":"levelo://app?vid=28acdc45-59c8-465c-9610-94ab4c3c61c9","ios":"levelo://app?vid=28acdc45-59c8-465c-9610-94ab4c3c61c9"},"vehicle_type_id":"4","last_reported":1762524670,"current_range_meters":4000,"station_id":"st_d3svhcjqgbts73a3dn0g","pricing_plan_id":"cebpf4jnsgd1na2vs0mg"},{"bike_id":"dd76302a-6a3a-4f13-a884-19d9235158aa","system_id":"levelo_inurba_marseille","lat":43.30601,"lon":5.37233,"is_reserved":false,"is_disabled":false,"rental_uris":{"android":"levelo://app?vid=dd76302a-6a3a-4f13-a884-19d9235158aa","ios":"levelo://app?vid=dd76302a-6a3a-4f13-a884-19d9235158aa"},"vehicle_type_id":"4","last_reported":1762524670,"current_range_meters":4000,"station_id":"ce4bgqh2rcd13ifvqc4g","pricing_plan_id":"cebpf4jnsgd1na2vs0mg"},{"bike_id":"4b9cb457-8154-417a-b4df-637c3847425e","system_id":"levelo_inurba_marseille","lat":43.30797,"lon":5.38158,"is_reserved":false,"is_disabled":false,"rental_uris":{"android":"levelo://app?vid=4b9cb457-8154-417a-b4df-637c3847425e","ios":"levelo://app?vid=4b9cb457-8154-417a-b4df-637c3847425e"},"vehicle_type_id":"4","last_reported":1762524670,"current_range_meters":4400,"station_id":"ce4bgt12rcd13ifvqce0","pricing_plan_id":"cebpf4jnsgd1na2vs0mg"},{"bike_id":"4375f039-4fce-4632-a574-bd815a68da8c","system_id":"levelo_inurba_marseille","lat":43.30597,"lon":5.37241,"is_reserved":false,"is_disabled":false,"rental_uris":{"android":"levelo://app?vid=4375f039-4fce-4632-a574-bd815a68da8c","ios":"levelo://app?vid=4375f039-4fce-4632-a574-bd815a68da8c"},"vehicle_type_id":"4","last_reported":1762524670,"current_range_meters":4400,"station_id":"ce4bgqh2rcd13ifvqc4g","pricing_plan_id":"cebpf4jnsgd1na2vs0mg"},{"bike_id":"d3a8c452-bd73-4909-9cfe-f1c0285f3d0c","system_id":"levelo_inurba_marseille","lat":43.2848,"lon":5.48406,"is_reserved":false,"is_disabled":false,"rental_uris":{"android":"levelo://app?vid=d3a8c452-bd73-4909-9cfe-f1c0285f3d0c","ios":"levelo://app?vid=d3a8c452-bd73-4909-9cfe-f1c0285f3d0c"},"vehicle_type_id":"4","last_reported":1762524670,"current_range_meters":4800,"station_id":"","pricing_plan_id":"cebpf4jnsgd1na2vs0mg"},{"bike_id":"6bcca3b7-c769-4ff3-8c60-42c4b35e9965","system_id":"levelo_inurba_marseille","lat":43.28151,"lon":5.42639,"is_reserved":false,"is_disabled":false,"rental_uris":{"android":"levelo://app?vid=6bcca3b7-c769-4ff3-8c60-42c4b35e9965","ios":"levelo://app?vid=6bcca3b7-c769-4ff3-8c60-42c4b35e9965"},"vehicle_type_id":"4","last_reported":1762524670,"current_range_meters":4800,"station_id":"ce4bhnh2rcd13ifvqgug","pricing_plan_id":"cebpf4jnsgd1na2vs0mg"},{"bike_id":"26d0c9ae-55c5-41c2-a401-a729d91221fc","system_id":"levelo_inurba_marseille","lat":43.30544,"lon":5.36562,"is_reserved":false,"is_disabled":false,"rental_uris":{"android":"levelo://app?vid=26d0c9ae-55c5-41c2-a401-a729d91221fc","ios":"levelo://app?vid=26d0c9ae-55c5-41c2-a401-a729d91221fc"},"vehicle_type_id":"4","last_reported":1762524670,"current_range_meters":4800,"station_id":"ce4bgs12rcd13ifvqcag","pricing_plan_id":"cebpf4jnsgd1na2vs0mg"},{"bike_id":"2d5d0220-514e-4fc9-b3d4-681bdc05ae7a","system_id":"levelo_inurba_marseille","lat":43.29276,"lon":5.36852,"is_reserved":false,"is_disabled":false,"rental_uris":{"android":"levelo://app?vid=2d5d0220-514e-4fc9-b3d4-681bdc05ae7a","ios":"levelo://app?vid=2d5d0220-514e-4fc9-b3d4-681bdc05ae7a"},"vehicle_type_id":"4","last_reported":1762524670,"current_range_meters":4800,"station_id":"ce4bhbp2rcd13ifvqesg","pricing_plan_id":"cebpf4jnsgd1na2vs0mg"},{"bike_id":"eb84fe76-7622-4bb8-943f-c232f0131781","system_id":"levelo_inurba_marseille","lat":43.28274,"lon":5.3508,"is_reserved":false,"is_disabled":false,"rental_uris":{"android":"levelo://app?vid=eb84fe76-7622-4bb8-943f-c232f0131781","ios":"levelo://app?vid=eb84fe76-7622-4bb8-943f-c232f0131781"},"vehicle_type_id":"4","last_reported":1762524670,"current_range_meters":5600,"station_id":"ce4bhbp2rcd13ifvqerg","pricing_plan_id":"cebpf4jnsgd1na2vs0mg"},{"bike_id":"b7bacdc8-fe24-419d-a1a7-194cc9df7143","system_id":"levelo_inurba_marseille","lat":43.24996,"lon":5.38933,"is_reserved":false,"is_disabled":false,"rental_uris":{"android":"levelo://app?vid=b7bacdc8-fe24-419d-a1a7-194cc9df7143","ios":"levelo://app?vid=b7bacdc8-fe24-419d-a1a7-194cc9df7143"},"vehicle_type_id":"4","last_reported":1762524670,"current_range_meters":5600,"station_id":"ce4bhgp2rcd13ifvqfd0","pricing_plan_id":"cebpf4jnsgd1na2vs0mg"},{"bike_id":"00065666-b382-40c8-87f2-d52ded706b03","system_id":"levelo_inurba_marseille","lat":43.30212,"lon":5.39184,"is_reserved":false,"is_disabled":false,"rental_uris":{"android":"levelo://app?vid=00065666-b382-40c8-87f2-d52ded706b03","ios":"levelo://app?vid=00065666-b382-40c8-87f2-d52ded706b03"},"vehicle_type_id":"4","last_reported":1762524670,"current_range_meters":6000,"station_id":"","pricing_plan_id":"cebpf4jnsgd1na2vs0mg"},{"bike_id":"085b4bc1-09c4-48dc-b41c-c374ecd2a3ee","system_id":"levelo_inurba_marseille","lat":43.30637,"lon":5.40087,"is_reserved":false,"is_disabled":false,"rental_uris":{"android":"levelo://app?vid=085b4bc1-09c4-48dc-b41c-c374ecd2a3ee","ios":"levelo://app?vid=085b4bc1-09c4-48dc-b41c-c374ecd2a3ee"},"vehicle_type_id":"4","last_reported":1762524670,"current_range_meters":6000,"station_id":"ce4bh112rcd13ifvqda0","pricing_plan_id":"cebpf4jnsgd1na2vs0mg"},{"bike_id":"6e486ee7-c234-4966-b822-6d4394d2a506","system_id":"levelo_inurba_marseille","lat":43.248096,"lon":5.374594,"is_reserved":false,"is_disabled":false,"rental_uris":{"android":"levelo://app?vid=6e486ee7-c234-4966-b822-6d4394d2a506","ios":"levelo://app?vid=6e486ee7-c234-4966-b822-6d4394d2a506"},"vehicle_type_id":"4","last_reported":1762524670,"current_range_meters":6000,"station_id":"ce4bhgh2rcd13ifvqfb0","pricing_plan_id":"cebpf4jnsgd1na2vs0mg"},{"bike_id":"5d531cc9-7743-48ce-a2ff-2c594f221d7e","system_id":"levelo_inurba_marseille","lat":43.27312,"lon":5.39073,"is_reserved":false,"is_disabled":false,"rental_uris":{"android":"levelo://app?vid=5d531cc9-7743-48ce-a2ff-2c594f221d7e","ios":"levelo://app?vid=5d531cc9-7743-48ce-a2ff-2c594f221d7e"},"vehicle_type_id":"4","last_reported":1762524670,"current_range_meters":6000,"station_id":"ce4bhgp2rcd13ifvqfe0","pricing_plan_id":"cebpf4jnsgd1na2vs0mg"},{"bike_id":"17a9fa32-1ad8-4b51-ba38-9e28f69286ff","system_id":"levelo_inurba_marseille","lat":43.31074,"lon":5.38351,"is_reserved":false,"is_disabled":false,"rental_uris":{"android":"levelo://app?vid=17a9fa32-1ad8-4b51-ba38-9e28f69286ff","ios":"levelo://app?vid=17a9fa32-1ad8-4b51-ba38-9e28f69286ff"},"vehicle_type_id":"4","last_reported":1762524670,"current_range_meters":6000,"station_id":"ce4bgv92rcd13ifvqcr0","pricing_plan_id":"cebpf4jnsgd1na2vs0mg"},{"bike_id":"26c0680a-64d7-426a-b6c3-52d24832fd75","system_id":"levelo_inurba_marseille","lat":43.296136,"lon":5.405363,"is_reserved":false,"is_disabled":false,"rental_uris":{"android":"levelo://app?vid=26c0680a-64d7-426a-b6c3-52d24832fd75","ios":"levelo://app?vid=26c0680a-64d7-426a-b6c3-52d24832fd75"},"vehicle_type_id":"4","last_reported":1762524670,"current_range_meters":6000,"station_id":"ce4bh0h2rcd13ifvqd60","pricing_plan_id":"cebpf4jnsgd1na2vs0mg"},{"bike_id":"0f706ae2-8d5f-4395-afb6-fb8bccd91b4b","system_id":"levelo_inurba_marseille","lat":43.30926,"lon":5.401545,"is_reserved":false,"is_disabled":false,"rental_uris":{"android":"levelo://app?vid=0f706ae2-8d5f-4395-afb6-fb8bccd91b4b","ios":"levelo://app?vid=0f706ae2-8d5f-4395-afb6-fb8bccd91b4b"},"vehicle_type_id":"4","last_reported":1762524670,"current_range_meters":6000,"station_id":"ce4bgvp2rcd13ifvqct0","pricing_plan_id":"cebpf4jnsgd1na2vs0mg"},{"bike_id":"1fd7b2ac-2772-429a-a841-c749c47989e2","system_id":"levelo_inurba_marseille","lat":43.28947,"lon":5.36393,"is_reserved":false,"is_disabled":false,"rental_uris":{"android":"levelo://app?vid=1fd7b2ac-2772-429a-a841-c749c47989e2","ios":"levelo://app?vid=1fd7b2ac-2772-429a-a841-c749c47989e2"},"vehicle_type_id":"4","last_reported":1762524670,"current_range_meters":6400,"station_id":"ce4bhc92rcd13ifvqetg","pricing_plan_id":"cebpf4jnsgd1na2vs0mg"},{"bike_id":"64a7e14c-46d0-4d8c-91f0-19fb7c8ad288","system_id":"levelo_inurba_marseille","lat":43.303217,"lon":5.369007,"is_reserved":false,"is_disabled":true,"rental_uris":{"android":"levelo://app?vid=64a7e14c-46d0-4d8c-91f0-19fb7c8ad288","ios":"levelo://app?vid=64a7e14c-46d0-4d8c-91f0-19fb7c8ad288"},"vehicle_type_id":"4","last_reported":1762524670,"current_range_meters":6400,"station_id":"","pricing_plan_id":"cebpf4jnsgd1na2vs0mg"},{"bike_id":"3b1ed0a3-c869-44f7-b8a3-ba779bc68e1e","system_id":"levelo_inurba_marseille","lat":43.30138,"lon":5.39833,"is_reserved":false,"is_disabled":false,"rental_uris":{"android":"levelo://app?vid=3b1ed0a3-c869-44f7-b8a3-ba779bc68e1e","ios":"levelo://app?vid=3b1ed0a3-c869-44f7-b8a3-ba779bc68e1e"},"vehicle_type_id":"4","last_reported":1762524670,"current_range_meters":6400,"station_id":"ce4bh0h2rcd13ifvqd40","pricing_plan_id":"cebpf4jnsgd1na2vs0mg"},{"bike_id":"aeef36c3-4fc9-4d7f-ad59-b016d63a2a2e","system_id":"levelo_inurba_marseille","lat":43.337444,"lon":5.374475,"is_reserved":false,"is_disabled":false,"rental_uris":{"android":"levelo://app?vid=aeef36c3-4fc9-4d7f-ad59-b016d63a2a2e","ios":"levelo://app?vid=aeef36c3-4fc9-4d7f-ad59-b016d63a2a2e"},"vehicle_type_id":"4","last_reported":1762524670,"current_range_meters":6400,"station_id":"ce4bgqh2rcd13ifvqc5g","pricing_plan_id":"cebpf4jnsgd1na2vs0mg"},{"bike_id":"fc06345d-9e23-4d45-b944-958659f69f34","system_id":"levelo_inurba_marseille","lat":43.27052,"lon":5.40263,"is_reserved":false,"is_disabled":false,"rental_uris":{"android":"levelo://app?vid=fc06345d-9e23-4d45-b944-958659f69f34","ios":"levelo://app?vid=fc06345d-9e23-4d45-b944-958659f69f34"},"vehicle_type_id":"4","last_reported":1762524670,"current_range_meters":6400,"station_id":"ce4bhk92rcd13ifvqgc0","pricing_plan_id":"cebpf4jnsgd1na2vs0mg"},{"bike_id":"81dcc136-dea2-46c0-98af-42dbdee92b54","system_id":"levelo_inurba_marseille","lat":43.28473,"lon":5.484,"is_reserved":false,"is_disabled":false,"rental_uris":{"android":"levelo://app?vid=81dcc136-dea2-46c0-98af-42dbdee92b54","ios":"levelo://app?vid=81dcc136-dea2-46c0-98af-42dbdee92b54"},"vehicle_type_id":"4","last_reported":1762524670,"current_range_meters":6400,"station_id":"","pricing_plan_id":"cebpf4jnsgd1na2vs0mg"},{"bike_id":"fc8334d2-8cc7-48bf-93cc-8304409e8292","system_id":"levelo_inurba_marseille","lat":43.21746,"lon":5.34609,"is_reserved":false,"is_disabled":false,"rental_uris":{"android":"levelo://app?vid=fc8334d2-8cc7-48bf-93cc-8304409e8292","ios":"levelo://app?vid=fc8334d2-8cc7-48bf-93cc-8304409e8292"},"vehicle_type_id":"4","last_reported":1762524670,"current_range_meters":6400,"station_id":"","pricing_plan_id":"cebpf4jnsgd1na2vs0mg"},{"bike_id":"6a880c30-0df2-4eb3-8302-37690d32c188","system_id":"levelo_inurba_marseille","lat":43.29198,"lon":5.39323,"is_reserved":false,"is_disabled":false,"rental_uris":{"android":"levelo://app?vid=6a880c30-0df2-4eb3-8302-37690d32c188","ios":"levelo://app?vid=6a880c30-0df2-4eb3-8302-37690d32c188"},"vehicle_type_id":"4","last_reported":1762524670,"current_range_meters":6800,"station_id":"ce4bh192rcd13ifvqdd0","pricing_plan_id":"cebpf4jnsgd1na2vs0mg"},{"bike_id":"faf02dba-a063-4be7-b738-20d510b602ef","system_id":"levelo_inurba_marseille","lat":43.29807,"lon":5.38263,"is_reserved":false,"is_disabled":false,"rental_uris":{"android":"levelo://app?vid=faf02dba-a063-4be7-b738-20d510b602ef","ios":"levelo://app?vid=faf02dba-a063-4be7-b738-20d510b602ef"},"vehicle_type_id":"4","last_reported":1762524670,"current_range_meters":6800,"station_id":"","pricing_plan_id":"cebpf4jnsgd1na2vs0mg"},{"bike_id":"090c9a01-e589-4ff7-b3d9-142303adc065","system_id":"levelo_inurba_marseille","lat":43.25821,"lon":5.39438,"is_reserved":false,"is_disabled":false,"rental_uris":{"android":"levelo://app?vid=090c9a01-e589-4ff7-b3d9-142303adc065","ios":"levelo://app?vid=090c9a01-e589-4ff7-b3d9-142303adc065"},"vehicle_type_id":"4","last_reported":1762524670,"current_range_meters":6800,"station_id":"ce4bhip2rcd13ifvqft0","pricing_plan_id":"cebpf4jnsgd1na2vs0mg"},{"bike_id":"1fce2248-232a-43d8-9653-469f12527375","system_id":"levelo_inurba_marseille","lat":43.30119,"lon":5.38092,"is_reserved":false,"is_disabled":false,"rental_uris":{"android":"levelo://app?vid=1fce2248-232a-43d8-9653-469f12527375","ios":"levelo://app?vid=1fce2248-232a-43d8-9653-469f12527375"},"vehicle_type_id":"4","last_reported":1762524670,"current_range_meters":6800,"station_id":"","pricing_plan_id":"cebpf4jnsgd1na2vs0mg"},{"bike_id":"a0986b7e-5cfa-426f-8c69-c9c870aeebd6","system_id":"levelo_inurba_marseille","lat":43.30253,"lon":5.40076,"is_reserved":false,"is_disabled":false,"rental_uris":{"android":"levelo://app?vid=a0986b7e-5cfa-426f-8c69-c9c870aeebd6","ios":"levelo://app?vid=a0986b7e-5cfa-426f-8c69-c9c870aeebd6"},"vehicle_type_id":"4","last_reported":1762524670,"current_range_meters":7200,"station_id":"ce4bgvh2rcd13ifvqcs0","pricing_plan_id":"cebpf4jnsgd1na2vs0mg"},{"bike_id":"92dafb03-7ec0-4b0b-8d48-f4c7b58e4937","system_id":"levelo_inurba_marseille","lat":43.26201,"lon":5.37915,"is_reserved":false,"is_disabled":false,"rental_uris":{"android":"levelo://app?vid=92dafb03-7ec0-4b0b-8d48-f4c7b58e4937","ios":"levelo://app?vid=92dafb03-7ec0-4b0b-8d48-f4c7b58e4937"},"vehicle_type_id":"4","last_reported":1762524670,"current_range_meters":7200,"station_id":"ce4bhjp2rcd13ifvqg90","pricing_plan_id":"cebpf4jnsgd1na2vs0mg"},{"bike_id":"3818868e-6436-4b3b-abd7-77bf7766f0db","system_id":"levelo_inurba_marseille","lat":43.27983,"lon":5.40001,"is_reserved":false,"is_disabled":false,"rental_uris":{"android":"levelo://app?vid=3818868e-6436-4b3b-abd7-77bf7766f0db","ios":"levelo://app?vid=3818868e-6436-4b3b-abd7-77bf7766f0db"},"vehicle_type_id":"4","last_reported":1762524670,"current_range_meters":7200,"station_id":"ce4bho92rcd13ifvqh4g","pricing_plan_id":"cebpf4jnsgd1na2vs0mg"},{"bike_id":"a8fbecf7-20b3-4635-b9e8-c54f5ea23dc6","system_id":"levelo_inurba_marseille","lat":43.23178,"lon":5.39992,"is_reserved":false,"is_disabled":false,"rental_uris":{"android":"levelo://app?vid=a8fbecf7-20b3-4635-b9e8-c54f5ea23dc6","ios":"levelo://app?vid=a8fbecf7-20b3-4635-b9e8-c54f5ea23dc6"},"vehicle_type_id":"4","last_reported":1762524670,"current_range_meters":7200,"station_id":"ce4bhn12rcd13ifvqgqg","pricing_plan_id":"cebpf4jnsgd1na2vs0mg"},{"bike_id":"74a83f19-4620-4517-be1e-697db6f72f0b","system_id":"levelo_inurba_marseille","lat":43.32353,"lon":5.36748,"is_reserved":false,"is_disabled":false,"rental_uris":{"android":"levelo://app?vid=74a83f19-4620-4517-be1e-697db6f72f0b","ios":"levelo://app?vid=74a83f19-4620-4517-be1e-697db6f72f0b"},"vehicle_type_id":"4","last_reported":1762524670,"current_range_meters":7200,"station_id":"ce4bhsh2rcd13ifvqi2g","pricing_plan_id":"cebpf4jnsgd1na2vs0mg"},{"bike_id":"5819084e-68c2-4eb9-95a5-7c311c7f0ff1","system_id":"levelo_inurba_marseille","lat":43.30778,"lon":5.3766,"is_reserved":false,"is_disabled":false,"rental_uris":{"android":"levelo://app?vid=5819084e-68c2-4eb9-95a5-7c311c7f0ff1","ios":"levelo://app?vid=5819084e-68c2-4eb9-95a5-7c311c7f0ff1"},"vehicle_type_id":"4","last_reported":1762524670,"current_range_meters":8000,"station_id":"ce4bgv92rcd13ifvqcq0","pricing_plan_id":"cebpf4jnsgd1na2vs0mg"},{"bike_id":"478826fe-1144-45a9-915f-8c76bdb88276","system_id":"levelo_inurba_marseille","lat":43.26558,"lon":5.39033,"is_reserved":false,"is_disabled":false,"rental_uris":{"android":"levelo://app?vid=478826fe-1144-45a9-915f-8c76bdb88276","ios":"levelo://app?vid=478826fe-1144-45a9-915f-8c76bdb88276"},"vehicle_type_id":"4","last_reported":1762524670,"current_range_meters":8000,"station_id":"ce4bhe12rcd13ifvqf30","pricing_plan_id":"cebpf4jnsgd1na2vs0mg"},{"bike_id":"05158e55-2ddd-4859-bbe9-dbd2c4b6e0e5","system_id":"levelo_inurba_marseille","lat":43.25861,"lon":5.39904,"is_reserved":false,"is_disabled":false,"rental_uris":{"android":"levelo://app?vid=05158e55-2ddd-4859-bbe9-dbd2c4b6e0e5","ios":"levelo://app?vid=05158e55-2ddd-4859-bbe9-dbd2c4b6e0e5"},"vehicle_type_id":"4","last_reported":1762524670,"current_range_meters":8000,"station_id":"ce4bhl92rcd13ifvqghg","pricing_plan_id":"cebpf4jnsgd1na2vs0mg"},{"bike_id":"71967476-752a-4f5e-b222-99c0eea95f39","system_id":"levelo_inurba_marseille","lat":43.323221,"lon":5.384134,"is_reserved":false,"is_disabled":false,"rental_uris":{"android":"levelo://app?vid=71967476-752a-4f5e-b222-99c0eea95f39","ios":"levelo://app?vid=71967476-752a-4f5e-b222-99c0eea95f39"},"vehicle_type_id":"4","last_reported":1762524670,"current_range_meters":8000,"station_id":"","pricing_plan_id":"cebpf4jnsgd1na2vs0mg"},{"bike_id":"fd264b3e-de5e-46e6-8fbf-e9cac9b2053a","system_id":"levelo_inurba_marseille","lat":43.26571,"lon":5.39024,"is_reserved":false,"is_disabled":false,"rental_uris":{"android":"levelo://app?vid=fd264b3e-de5e-46e6-8fbf-e9cac9b2053a","ios":"levelo://app?vid=fd264b3e-de5e-46e6-8fbf-e9cac9b2053a"},"vehicle_type_id":"4","last_reported":1762524670,"current_range_meters":8000,"station_id":"ce4bhe12rcd13ifvqf30","pricing_plan_id":"cebpf4jnsgd1na2vs0mg"},{"bike_id":"1b1185d4-ba46-4f26-a1fb-75ff209045cf","system_id":"levelo_inurba_marseille","lat":43.27266,"lon":5.39199,"is_reserved":false,"is_disabled":false,"rental_uris":{"android":"levelo://app?vid=1b1185d4-ba46-4f26-a1fb-75ff209045cf","ios":"levelo://app?vid=1b1185d4-ba46-4f26-a1fb-75ff209045cf"},"vehicle_type_id":"4","last_reported":1762524670,"current_range_meters":8400,"station_id":"","pricing_plan_id":"cebpf4jnsgd1na2vs0mg"},{"bike_id":"3ffe2c7b-f27f-49bd-95c3-0ecfbf0880d2","system_id":"levelo_inurba_marseille","lat":43.30664,"lon":5.38518,"is_reserved":false,"is_disabled":false,"rental_uris":{"android":"levelo://app?vid=3ffe2c7b-f27f-49bd-95c3-0ecfbf0880d2","ios":"levelo://app?vid=3ffe2c7b-f27f-49bd-95c3-0ecfbf0880d2"},"vehicle_type_id":"4","last_reported":1762524670,"current_range_meters":8400,"station_id":"","pricing_plan_id":"cebpf4jnsgd1na2vs0mg"},{"bike_id":"50f91aef-71d3-4518-a904-64dd39a8af6b","system_id":"levelo_inurba_marseille","lat":43.245512,"lon":5.42882,"is_reserved":false,"is_disabled":false,"rental_uris":{"android":"levelo://app?vid=50f91aef-71d3-4518-a904-64dd39a8af6b","ios":"levelo://app?vid=50f91aef-71d3-4518-a904-64dd39a8af6b"},"vehicle_type_id":"4","last_reported":1762524670,"current_range_meters":8400,"station_id":"ce4bhn12rcd13ifvqgqg","pricing_plan_id":"cebpf4jnsgd1na2vs0mg"},{"bike_id":"ab3a4d6b-b442-44b9-8f02-c1c222f445ba","system_id":"levelo_inurba_marseille","lat":43.27447,"lon":5.3929,"is_reserved":false,"is_disabled":false,"rental_uris":{"android":"levelo://app?vid=ab3a4d6b-b442-44b9-8f02-c1c222f445ba","ios":"levelo://app?vid=ab3a4d6b-b442-44b9-8f02-c1c222f445ba"},"vehicle_type_id":"4","last_reported":1762524670,"current_range_meters":8800,"station_id":"","pricing_plan_id":"cebpf4jnsgd1na2vs0mg"},{"bike_id":"7a17ec16-f202-4afc-b220-f82a283a0e2f","system_id":"levelo_inurba_marseille","lat":43.30628,"lon":5.40095,"is_reserved":false,"is_disabled":false,"rental_uris":{"android":"levelo://app?vid=7a17ec16-f202-4afc-b220-f82a283a0e2f","ios":"levelo://app?vid=7a17ec16-f202-4afc-b220-f82a283a0e2f"},"vehicle_type_id":"4","last_reported":1762524670,"current_range_meters":8800,"station_id":"ce4bh112rcd13ifvqda0","pricing_plan_id":"cebpf4jnsgd1na2vs0mg"},{"bike_id":"77807b52-a342-4413-b550-e7560c391773","system_id":"levelo_inurba_marseille","lat":43.31267,"lon":5.40172,"is_reserved":false,"is_disabled":false,"rental_uris":{"android":"levelo://app?vid=77807b52-a342-4413-b550-e7560c391773","ios":"levelo://app?vid=77807b52-a342-4413-b550-e7560c391773"},"vehicle_type_id":"4","last_reported":1762524670,"current_range_meters":8800,"station_id":"ce4bh092rcd13ifvqd30","pricing_plan_id":"cebpf4jnsgd1na2vs0mg"},{"bike_id":"998df8e9-33d1-4b64-b43a-09039b5269cb","system_id":"levelo_inurba_marseille","lat":43.33606,"lon":5.41033,"is_reserved":false,"is_disabled":false,"rental_uris":{"android":"levelo://app?vid=998df8e9-33d1-4b64-b43a-09039b5269cb","ios":"levelo://app?vid=998df8e9-33d1-4b64-b43a-09039b5269cb"},"vehicle_type_id":"4","last_reported":1762524670,"current_range_meters":8800,"station_id":"ce4bhqh2rcd13ifvqhmg","pricing_plan_id":"cebpf4jnsgd1na2vs0mg"},{"bike_id":"59b31ef2-3fe3-46e5-b5a5-685f264695ce","system_id":"levelo_inurba_marseille","lat":43.28471,"lon":5.4841,"is_reserved":false,"is_disabled":false,"rental_uris":{"android":"levelo://app?vid=59b31ef2-3fe3-46e5-b5a5-685f264695ce","ios":"levelo://app?vid=59b31ef2-3fe3-46e5-b5a5-685f264695ce"},"vehicle_type_id":"4","last_reported":1762524670,"current_range_meters":8800,"station_id":"","pricing_plan_id":"cebpf4jnsgd1na2vs0mg"},{"bike_id":"a6b5c354-bbc4-46b2-9356-4b84838966f9","system_id":"levelo_inurba_marseille","lat":43.30654,"lon":5.40354,"is_reserved":false,"is_disabled":false,"rental_uris":{"android":"levelo://app?vid=a6b5c354-bbc4-46b2-9356-4b84838966f9","ios":"levelo://app?vid=a6b5c354-bbc4-46b2-9356-4b84838966f9"},"vehicle_type_id":"4","last_reported":1762524670,"current_range_meters":8800,"station_id":"","pricing_plan_id":"cebpf4jnsgd1na2vs0mg"},{"bike_id":"94ea7d3a-469c-4dc8-8dc8-c26153886def","system_id":"levelo_inurba_marseille","lat":43.31756,"lon":5.39014,"is_reserved":false,"is_disabled":false,"rental_uris":{"android":"levelo://app?vid=94ea7d3a-469c-4dc8-8dc8-c26153886def","ios":"levelo://app?vid=94ea7d3a-469c-4dc8-8dc8-c26153886def"},"vehicle_type_id":"4","last_reported":1762524670,"current_range_meters":8800,"station_id":"ce4bhqp2rcd13ifvqhng","pricing_plan_id":"cebpf4jnsgd1na2vs0mg"},{"bike_id":"aa073d3c-91f3-4920-9d1e-90bf82850b1e","system_id":"levelo_inurba_marseille","lat":43.337652,"lon":5.374393,"is_reserved":false,"is_disabled":false,"rental_uris":{"android":"levelo://app?vid=aa073d3c-91f3-4920-9d1e-90bf82850b1e","ios":"levelo://app?vid=aa073d3c-91f3-4920-9d1e-90bf82850b1e"},"vehicle_type_id":"4","last_reported":1762524670,"current_range_meters":8800,"station_id":"","pricing_plan_id":"cebpf4jnsgd1na2vs0mg"},{"bike_id":"bceab136-953a-4f70-8d1b-53de0dc52351","system_id":"levelo_inurba_marseille","lat":43.2315,"lon":5.43725,"is_reserved":false,"is_disabled":false,"rental_uris":{"android":"levelo://app?vid=bceab136-953a-4f70-8d1b-53de0dc52351","ios":"levelo://app?vid=bceab136-953a-4f70-8d1b-53de0dc52351"},"vehicle_type_id":"4","last_reported":1762524670,"current_range_meters":8800,"station_id":"ce4bhmp2rcd13ifvqgog","pricing_plan_id":"cebpf4jnsgd1na2vs0mg"},{"bike_id":"b0732b62-19ca-4ec8-88e7-432d75ca293d","system_id":"levelo_inurba_marseille","lat":43.21745,"lon":5.34603,"is_reserved":false,"is_disabled":false,"rental_uris":{"android":"levelo://app?vid=b0732b62-19ca-4ec8-88e7-432d75ca293d","ios":"levelo://app?vid=b0732b62-19ca-4ec8-88e7-432d75ca293d"},"vehicle_type_id":"4","last_reported":1762524670,"current_range_meters":8800,"station_id":"","pricing_plan_id":"cebpf4jnsgd1na2vs0mg"},{"bike_id":"08eb4246-40e0-4707-8b62-5585e4e6164c","system_id":"levelo_inurba_marseille","lat":43.289517,"lon":5.364144,"is_reserved":false,"is_disabled":false,"rental_uris":{"android":"levelo://app?vid=08eb4246-40e0-4707-8b62-5585e4e6164c","ios":"levelo://app?vid=08eb4246-40e0-4707-8b62-5585e4e6164c"},"vehicle_type_id":"4","last_reported":1762524670,"current_range_meters":9200,"station_id":"ce4bhc92rcd13ifvqetg","pricing_plan_id":"cebpf4jnsgd1na2vs0mg"},{"bike_id":"ba5b5a94-06f7-4132-a90f-eb08199cb4c2","system_id":"levelo_inurba_marseille","lat":43.31492,"lon":5.37312,"is_reserved":false,"is_disabled":false,"rental_uris":{"android":"levelo://app?vid=ba5b5a94-06f7-4132-a90f-eb08199cb4c2","ios":"levelo://app?vid=ba5b5a94-06f7-4132-a90f-eb08199cb4c2"},"vehicle_type_id":"4","last_reported":1762524670,"current_range_meters":9200,"station_id":"ce4bgt12rcd13ifvqcd0","pricing_plan_id":"cebpf4jnsgd1na2vs0mg"},{"bike_id":"237944ee-cf99-4a00-9239-3e50982bb513","system_id":"levelo_inurba_marseille","lat":43.27199,"lon":5.3916,"is_reserved":false,"is_disabled":false,"rental_uris":{"android":"levelo://app?vid=237944ee-cf99-4a00-9239-3e50982bb513","ios":"levelo://app?vid=237944ee-cf99-4a00-9239-3e50982bb513"},"vehicle_type_id":"4","last_reported":1762524670,"current_range_meters":9200,"station_id":"ce4bhhp2rcd13ifvqfm0","pricing_plan_id":"cebpf4jnsgd1na2vs0mg"},{"bike_id":"eb642388-c487-40ff-a017-1b5db5932db5","system_id":"levelo_inurba_marseille","lat":43.25,"lon":5.38929,"is_reserved":false,"is_disabled":false,"rental_uris":{"android":"levelo://app?vid=eb642388-c487-40ff-a017-1b5db5932db5","ios":"levelo://app?vid=eb642388-c487-40ff-a017-1b5db5932db5"},"vehicle_type_id":"4","last_reported":1762524670,"current_range_meters":9200,"station_id":"ce4bhgp2rcd13ifvqfd0","pricing_plan_id":"cebpf4jnsgd1na2vs0mg"},{"bike_id":"32d685f6-b77b-46af-9563-087fd9aff41c","system_id":"levelo_inurba_marseille","lat":43.30426,"lon":5.39752,"is_reserved":false,"is_disabled":false,"rental_uris":{"android":"levelo://app?vid=32d685f6-b77b-46af-9563-087fd9aff41c","ios":"levelo://app?vid=32d685f6-b77b-46af-9563-087fd9aff41c"},"vehicle_type_id":"4","last_reported":1762524670,"current_range_meters":9200,"station_id":"ce4bh092rcd13ifvqd20","pricing_plan_id":"cebpf4jnsgd1na2vs0mg"},{"bike_id":"319ffc4e-7711-40e6-a5bd-4d90d7a995da","system_id":"levelo_inurba_marseille","lat":43.31084,"lon":5.42432,"is_reserved":false,"is_disabled":false,"rental_uris":{"android":"levelo://app?vid=319ffc4e-7711-40e6-a5bd-4d90d7a995da","ios":"levelo://app?vid=319ffc4e-7711-40e6-a5bd-4d90d7a995da"},"vehicle_type_id":"4","last_reported":1762524670,"current_range_meters":9200,"station_id":"ce4bhp92rcd13ifvqhag","pricing_plan_id":"cebpf4jnsgd1na2vs0mg"},{"bike_id":"8776d671-ffe9-476b-b9ef-ae7bad91eeb4","system_id":"levelo_inurba_marseille","lat":43.292817,"lon":5.38475,"is_reserved":false,"is_disabled":false,"rental_uris":{"android":"levelo://app?vid=8776d671-ffe9-476b-b9ef-ae7bad91eeb4","ios":"levelo://app?vid=8776d671-ffe9-476b-b9ef-ae7bad91eeb4"},"vehicle_type_id":"4","last_reported":1762524670,"current_range_meters":9600,"station_id":"ce4bh692rcd13ifvqea0","pricing_plan_id":"cebpf4jnsgd1na2vs0mg"},{"bike_id":"5368198b-d43d-42dc-9d96-75407f2494fe","system_id":"levelo_inurba_marseille","lat":43.246429,"lon":5.388898,"is_reserved":false,"is_disabled":false,"rental_uris":{"android":"levelo://app?vid=5368198b-d43d-42dc-9d96-75407f2494fe","ios":"levelo://app?vid=5368198b-d43d-42dc-9d96-75407f2494fe"},"vehicle_type_id":"4","last_reported":1762524670,"current_range_meters":9600,"station_id":"","pricing_plan_id":"cebpf4jnsgd1na2vs0mg"},{"bike_id":"f9a84438-123e-4caa-9547-9df9964b1ae5","system_id":"levelo_inurba_marseille","lat":43.336,"lon":5.41033,"is_reserved":false,"is_disabled":false,"rental_uris":{"android":"levelo://app?vid=f9a84438-123e-4caa-9547-9df9964b1ae5","ios":"levelo://app?vid=f9a84438-123e-4caa-9547-9df9964b1ae5"},"vehicle_type_id":"4","last_reported":1762524670,"current_range_meters":9600,"station_id":"ce4bhqh2rcd13ifvqhmg","pricing_plan_id":"cebpf4jnsgd1na2vs0mg"},{"bike_id":"2e736a3c-76a0-44ac-bd57-3e8bbc862207","system_id":"levelo_inurba_marseille","lat":43.2695,"lon":5.38653,"is_reserved":false,"is_disabled":false,"rental_uris":{"android":"levelo://app?vid=2e736a3c-76a0-44ac-bd57-3e8bbc862207","ios":"levelo://app?vid=2e736a3c-76a0-44ac-bd57-3e8bbc862207"},"vehicle_type_id":"4","last_reported":1762524670,"current_range_meters":9600,"station_id":"ce4bhh92rcd13ifvqfh0","pricing_plan_id":"cebpf4jnsgd1na2vs0mg"},{"bike_id":"66ef0c6a-8228-4cb7-9402-acadbb4ad521","system_id":"levelo_inurba_marseille","lat":43.23965,"lon":5.36629,"is_reserved":false,"is_disabled":false,"rental_uris":{"android":"levelo://app?vid=66ef0c6a-8228-4cb7-9402-acadbb4ad521","ios":"levelo://app?vid=66ef0c6a-8228-4cb7-9402-acadbb4ad521"},"vehicle_type_id":"4","last_reported":1762524670,"current_range_meters":9600,"station_id":"ce4bhi12rcd13ifvqfp0","pricing_plan_id":"cebpf4jnsgd1na2vs0mg"},{"bike_id":"62b597ad-0183-45ab-83ea-6b1f25540269","system_id":"levelo_inurba_marseille","lat":43.32751,"lon":5.45201,"is_reserved":false,"is_disabled":false,"rental_uris":{"android":"levelo://app?vid=62b597ad-0183-45ab-83ea-6b1f25540269","ios":"levelo://app?vid=62b597ad-0183-45ab-83ea-6b1f25540269"},"vehicle_type_id":"4","last_reported":1762524670,"current_range_meters":9600,"station_id":"","pricing_plan_id":"cebpf4jnsgd1na2vs0mg"},{"bike_id":"3da1a903-6712-4f81-8388-b8c61256d61e","system_id":"levelo_inurba_marseille","lat":43.29893,"lon":5.43671,"is_reserved":false,"is_disabled":false,"rental_uris":{"android":"levelo://app?vid=3da1a903-6712-4f81-8388-b8c61256d61e","ios":"levelo://app?vid=3da1a903-6712-4f81-8388-b8c61256d61e"},"vehicle_type_id":"4","last_reported":1762524670,"current_range_meters":9600,"station_id":"ce4bhpp2rcd13ifvqhfg","pricing_plan_id":"cebpf4jnsgd1na2vs0mg"},{"bike_id":"1c1406c3-ccbf-4c7e-948d-af3d562996c8","system_id":"levelo_inurba_marseille","lat":43.298149,"lon":5.44065,"is_reserved":false,"is_disabled":false,"rental_uris":{"android":"levelo://app?vid=1c1406c3-ccbf-4c7e-948d-af3d562996c8","ios":"levelo://app?vid=1c1406c3-ccbf-4c7e-948d-af3d562996c8"},"vehicle_type_id":"4","last_reported":1762524670,"current_range_meters":10000,"station_id":"st_d3jp68qikq2c7381ktn0","pricing_plan_id":"cebpf4jnsgd1na2vs0mg"},{"bike_id":"8c118d90-d638-4241-afa6-17f188a4e6b6","system_id":"levelo_inurba_marseille","lat":43.337444,"lon":5.374475,"is_reserved":false,"is_disabled":false,"rental_uris":{"android":"levelo://app?vid=8c118d90-d638-4241-afa6-17f188a4e6b6","ios":"levelo://app?vid=8c118d90-d638-4241-afa6-17f188a4e6b6"},"vehicle_type_id":"4","last_reported":1762524670,"current_range_meters":10000,"station_id":"","pricing_plan_id":"cebpf4jnsgd1na2vs0mg"},{"bike_id":"0e20a5d9-0ab3-4e71-a3ef-c9be28fc5551","system_id":"levelo_inurba_marseille","lat":43.28542,"lon":5.44117,"is_reserved":false,"is_disabled":false,"rental_uris":{"android":"levelo://app?vid=0e20a5d9-0ab3-4e71-a3ef-c9be28fc5551","ios":"levelo://app?vid=0e20a5d9-0ab3-4e71-a3ef-c9be28fc5551"},"vehicle_type_id":"4","last_reported":1762524670,"current_range_meters":10000,"station_id":"st_d3j3df2ikq2c7380ej80","pricing_plan_id":"cebpf4jnsgd1na2vs0mg"},{"bike_id":"acd11f1f-a797-4d8a-ac97-7cfd85277af2","system_id":"levelo_inurba_marseille","lat":43.22929,"lon":5.35388,"is_reserved":false,"is_disabled":false,"rental_uris":{"android":"levelo://app?vid=acd11f1f-a797-4d8a-ac97-7cfd85277af2","ios":"levelo://app?vid=acd11f1f-a797-4d8a-ac97-7cfd85277af2"},"vehicle_type_id":"4","last_reported":1762524670,"current_range_meters":10000,"station_id":"cpo3532slgdg3j2ikp40","pricing_plan_id":"cebpf4jnsgd1na2vs0mg"},{"bike_id":"34d2734c-b0c9-4aa8-87b1-6eb23cb35f21","system_id":"levelo_inurba_marseille","lat":43.315198,"lon":5.380267,"is_reserved":false,"is_disabled":false,"rental_uris":{"android":"levelo://app?vid=34d2734c-b0c9-4aa8-87b1-6eb23cb35f21","ios":"levelo://app?vid=34d2734c-b0c9-4aa8-87b1-6eb23cb35f21"},"vehicle_type_id":"4","last_reported":1762524670,"current_range_meters":10000,"station_id":"ce4bhsp2rcd13ifvqi50","pricing_plan_id":"cebpf4jnsgd1na2vs0mg"},{"bike_id":"30837460-32a3-4a23-adca-913b3fa417d9","system_id":"levelo_inurba_marseille","lat":43.2984,"lon":5.36261,"is_reserved":false,"is_disabled":false,"rental_uris":{"android":"levelo://app?vid=30837460-32a3-4a23-adca-913b3fa417d9","ios":"levelo://app?vid=30837460-32a3-4a23-adca-913b3fa417d9"},"vehicle_type_id":"4","last_reported":1762524670,"current_range_meters":10800,"station_id":"ce4bgpp2rcd13ifvqc3g","pricing_plan_id":"cebpf4jnsgd1na2vs0mg"},{"bike_id":"18ecb1ce-0cdd-4f21-8d47-9fd7991a6754","system_id":"levelo_inurba_marseille","lat":43.30138,"lon":5.38071,"is_reserved":false,"is_disabled":false,"rental_uris":{"android":"levelo://app?vid=18ecb1ce-0cdd-4f21-8d47-9fd7991a6754","ios":"levelo://app?vid=18ecb1ce-0cdd-4f21-8d47-9fd7991a6754"},"vehicle_type_id":"4","last_reported":1762524670,"current_range_meters":10800,"station_id":"ce4bgjp2rcd13ifvqbh0","pricing_plan_id":"cebpf4jnsgd1na2vs0mg"},{"bike_id":"fdef9327-beed-4f50-bbb2-578ade70fe76","system_id":"levelo_inurba_marseille","lat":43.297481,"lon":5.427914,"is_reserved":false,"is_disabled":false,"rental_uris":{"android":"levelo://app?vid=fdef9327-beed-4f50-bbb2-578ade70fe76","ios":"levelo://app?vid=fdef9327-beed-4f50-bbb2-578ade70fe76"},"vehicle_type_id":"4","last_reported":1762524670,"current_range_meters":10800,"station_id":"st_d3md5207bmas73dh9klg","pricing_plan_id":"cebpf4jnsgd1na2vs0mg"},{"bike_id":"a2122e86-91c9-470d-9921-ccb7da7ffc5f","system_id":"levelo_inurba_marseille","lat":43.27992,"lon":5.41673,"is_reserved":false,"is_disabled":false,"rental_uris":{"android":"levelo://app?vid=a2122e86-91c9-470d-9921-ccb7da7ffc5f","ios":"levelo://app?vid=a2122e86-91c9-470d-9921-ccb7da7ffc5f"},"vehicle_type_id":"4","last_reported":1762524670,"current_range_meters":10800,"station_id":"ce4bho12rcd13ifvqh1g","pricing_plan_id":"cebpf4jnsgd1na2vs0mg"},{"bike_id":"1429fa01-256c-4037-bf14-f7e4da268e66","system_id":"levelo_inurba_marseille","lat":43.29909,"lon":5.37468,"is_reserved":false,"is_disabled":false,"rental_uris":{"android":"levelo://app?vid=1429fa01-256c-4037-bf14-f7e4da268e66","ios":"levelo://app?vid=1429fa01-256c-4037-bf14-f7e4da268e66"},"vehicle_type_id":"4","last_reported":1762524670,"current_range_meters":11200,"station_id":"ce4bgjh2rcd13ifvqbg0","pricing_plan_id":"cebpf4jnsgd1na2vs0mg"},{"bike_id":"711b5184-06a1-46c6-b1ad-270408b914a4","system_id":"levelo_inurba_marseille","lat":43.29997,"lon":5.40982,"is_reserved":false,"is_disabled":false,"rental_uris":{"android":"levelo://app?vid=711b5184-06a1-46c6-b1ad-270408b914a4","ios":"levelo://app?vid=711b5184-06a1-46c6-b1ad-270408b914a4"},"vehicle_type_id":"4","last_reported":1762524670,"current_range_meters":11200,"station_id":"","pricing_plan_id":"cebpf4jnsgd1na2vs0mg"},{"bike_id":"735af335-66bf-4340-87fb-78f795989dcc","system_id":"levelo_inurba_marseille","lat":43.29931,"lon":5.382389,"is_reserved":false,"is_disabled":false,"rental_uris":{"android":"levelo://app?vid=735af335-66bf-4340-87fb-78f795989dcc","ios":"levelo://app?vid=735af335-66bf-4340-87fb-78f795989dcc"},"vehicle_type_id":"4","last_reported":1762524670,"current_range_meters":11200,"station_id":"","pricing_plan_id":"cebpf4jnsgd1na2vs0mg"},{"bike_id":"a05a4678-c746-45a0-97e5-0a47d9c03695","system_id":"levelo_inurba_marseille","lat":43.29972,"lon":5.3718,"is_reserved":false,"is_disabled":false,"rental_uris":{"android":"levelo://app?vid=a05a4678-c746-45a0-97e5-0a47d9c03695","ios":"levelo://app?vid=a05a4678-c746-45a0-97e5-0a47d9c03695"},"vehicle_type_id":"4","last_reported":1762524670,"current_range_meters":11200,"station_id":"ce4bgr92rcd13ifvqc7g","pricing_plan_id":"cebpf4jnsgd1na2vs0mg"},{"bike_id":"71311121-3414-4a68-b95a-d7343d1d4636","system_id":"levelo_inurba_marseille","lat":43.28845,"lon":5.3932,"is_reserved":false,"is_disabled":false,"rental_uris":{"android":"levelo://app?vid=71311121-3414-4a68-b95a-d7343d1d4636","ios":"levelo://app?vid=71311121-3414-4a68-b95a-d7343d1d4636"},"vehicle_type_id":"4","last_reported":1762524670,"current_range_meters":11200,"station_id":"ce4bh2p2rcd13ifvqdi0","pricing_plan_id":"cebpf4jnsgd1na2vs0mg"},{"bike_id":"b6d6ed38-4c87-427d-b530-709237f9a962","system_id":"levelo_inurba_marseille","lat":43.231477,"lon":5.437079,"is_reserved":false,"is_disabled":false,"rental_uris":{"android":"levelo://app?vid=b6d6ed38-4c87-427d-b530-709237f9a962","ios":"levelo://app?vid=b6d6ed38-4c87-427d-b530-709237f9a962"},"vehicle_type_id":"4","last_reported":1762524670,"current_range_meters":11200,"station_id":"ce4bhmp2rcd13ifvqgog","pricing_plan_id":"cebpf4jnsgd1na2vs0mg"},{"bike_id":"68daa0d8-4d7a-41ac-8af5-d2334cea4447","system_id":"levelo_inurba_marseille","lat":43.23148,"lon":5.43715,"is_reserved":false,"is_disabled":false,"rental_uris":{"android":"levelo://app?vid=68daa0d8-4d7a-41ac-8af5-d2334cea4447","ios":"levelo://app?vid=68daa0d8-4d7a-41ac-8af5-d2334cea4447"},"vehicle_type_id":"4","last_reported":1762524670,"current_range_meters":11200,"station_id":"ce4bhmp2rcd13ifvqgog","pricing_plan_id":"cebpf4jnsgd1na2vs0mg"},{"bike_id":"cac9bd2a-a5fe-49c6-85d1-4ecab2f78de0","system_id":"levelo_inurba_marseille","lat":43.29688,"lon":5.38125,"is_reserved":false,"is_disabled":false,"rental_uris":{"android":"levelo://app?vid=cac9bd2a-a5fe-49c6-85d1-4ecab2f78de0","ios":"levelo://app?vid=cac9bd2a-a5fe-49c6-85d1-4ecab2f78de0"},"vehicle_type_id":"4","last_reported":1762524670,"current_range_meters":11200,"station_id":"","pricing_plan_id":"cebpf4jnsgd1na2vs0mg"},{"bike_id":"8f01e68a-0a05-4db6-b791-b8beaba42366","system_id":"levelo_inurba_marseille","lat":43.297914,"lon":5.381209,"is_reserved":false,"is_disabled":false,"rental_uris":{"android":"levelo://app?vid=8f01e68a-0a05-4db6-b791-b8beaba42366","ios":"levelo://app?vid=8f01e68a-0a05-4db6-b791-b8beaba42366"},"vehicle_type_id":"4","last_reported":1762524670,"current_range_meters":11600,"station_id":"ce4bgip2rcd13ifvqbb0","pricing_plan_id":"cebpf4jnsgd1na2vs0mg"},{"bike_id":"bf54311a-6347-4b36-aaaf-ce1a0ecc323a","system_id":"levelo_inurba_marseille","lat":43.24166,"lon":5.36395,"is_reserved":false,"is_disabled":false,"rental_uris":{"android":"levelo://app?vid=bf54311a-6347-4b36-aaaf-ce1a0ecc323a","ios":"levelo://app?vid=bf54311a-6347-4b36-aaaf-ce1a0ecc323a"},"vehicle_type_id":"4","last_reported":1762524670,"current_range_meters":11600,"station_id":"cpo36qri1sfpv3e86is0","pricing_plan_id":"cebpf4jnsgd1na2vs0mg"},{"bike_id":"5bee8f0f-57fe-4257-a72a-04a4967570b5","system_id":"levelo_inurba_marseille","lat":43.30043,"lon":5.37738,"is_reserved":false,"is_disabled":false,"rental_uris":{"android":"levelo://app?vid=5bee8f0f-57fe-4257-a72a-04a4967570b5","ios":"levelo://app?vid=5bee8f0f-57fe-4257-a72a-04a4967570b5"},"vehicle_type_id":"4","last_reported":1762524670,"current_range_meters":11600,"station_id":"","pricing_plan_id":"cebpf4jnsgd1na2vs0mg"},{"bike_id":"91195dc3-7219-4139-a8eb-8e52bb6d271e","system_id":"levelo_inurba_marseille","lat":43.23172,"lon":5.35586,"is_reserved":false,"is_disabled":false,"rental_uris":{"android":"levelo://app?vid=91195dc3-7219-4139-a8eb-8e52bb6d271e","ios":"levelo://app?vid=91195dc3-7219-4139-a8eb-8e52bb6d271e"},"vehicle_type_id":"4","last_reported":1762524670,"current_range_meters":12000,"station_id":"ce4bhu92rcd13ifvqi70","pricing_plan_id":"cebpf4jnsgd1na2vs0mg"},{"bike_id":"df436567-b5dd-47ff-82cb-66b373039810","system_id":"levelo_inurba_marseille","lat":43.25948,"lon":5.40913,"is_reserved":false,"is_disabled":false,"rental_uris":{"android":"levelo://app?vid=df436567-b5dd-47ff-82cb-66b373039810","ios":"levelo://app?vid=df436567-b5dd-47ff-82cb-66b373039810"},"vehicle_type_id":"4","last_reported":1762524670,"current_range_meters":12000,"station_id":"ce4bhm92rcd13ifvqglg","pricing_plan_id":"cebpf4jnsgd1na2vs0mg"},{"bike_id":"7e50e8da-5299-4aa1-849c-f5ceadbf07e2","system_id":"levelo_inurba_marseille","lat":43.25576,"lon":5.38245,"is_reserved":false,"is_disabled":false,"rental_uris":{"android":"levelo://app?vid=7e50e8da-5299-4aa1-849c-f5ceadbf07e2","ios":"levelo://app?vid=7e50e8da-5299-4aa1-849c-f5ceadbf07e2"},"vehicle_type_id":"4","last_reported":1762524670,"current_range_meters":12000,"station_id":"ce4bhih2rcd13ifvqfs0","pricing_plan_id":"cebpf4jnsgd1na2vs0mg"},{"bike_id":"af255bfe-60d5-4cf4-8358-3b1e9dbf248c","system_id":"levelo_inurba_marseille","lat":43.28851,"lon":5.35867,"is_reserved":false,"is_disabled":false,"rental_uris":{"android":"levelo://app?vid=af255bfe-60d5-4cf4-8358-3b1e9dbf248c","ios":"levelo://app?vid=af255bfe-60d5-4cf4-8358-3b1e9dbf248c"},"vehicle_type_id":"4","last_reported":1762524670,"current_range_meters":12000,"station_id":"ce4bhb12rcd13ifvqem0","pricing_plan_id":"cebpf4jnsgd1na2vs0mg"},{"bike_id":"a2f86c15-6191-425b-a7e7-41a761fa131f","system_id":"levelo_inurba_marseille","lat":43.30137,"lon":5.37409,"is_reserved":false,"is_disabled":false,"rental_uris":{"android":"levelo://app?vid=a2f86c15-6191-425b-a7e7-41a761fa131f","ios":"levelo://app?vid=a2f86c15-6191-425b-a7e7-41a761fa131f"},"vehicle_type_id":"4","last_reported":1762524670,"current_range_meters":12000,"station_id":"ce4bgs92rcd13ifvqcc0","pricing_plan_id":"cebpf4jnsgd1na2vs0mg"},{"bike_id":"ff52e6d2-0126-428b-8241-f19a2cd5a014","system_id":"levelo_inurba_marseille","lat":43.26951,"lon":5.38628,"is_reserved":false,"is_disabled":true,"rental_uris":{"android":"levelo://app?vid=ff52e6d2-0126-428b-8241-f19a2cd5a014","ios":"levelo://app?vid=ff52e6d2-0126-428b-8241-f19a2cd5a014"},"vehicle_type_id":"4","last_reported":1762524670,"current_range_meters":12000,"station_id":"ce4bhh92rcd13ifvqfh0","pricing_plan_id":"cebpf4jnsgd1na2vs0mg"},{"bike_id":"9b9c7b20-5931-4f77-aefa-be26cef28921","system_id":"levelo_inurba_marseille","lat":43.30042,"lon":5.37731,"is_reserved":false,"is_disabled":false,"rental_uris":{"android":"levelo://app?vid=9b9c7b20-5931-4f77-aefa-be26cef28921","ios":"levelo://app?vid=9b9c7b20-5931-4f77-aefa-be26cef28921"},"vehicle_type_id":"4","last_reported":1762524670,"current_range_meters":12000,"station_id":"","pricing_plan_id":"cebpf4jnsgd1na2vs0mg"},{"bike_id":"c541d6c6-d855-480d-9416-ad1e26b18f93","system_id":"levelo_inurba_marseille","lat":43.2951,"lon":5.39405,"is_reserved":false,"is_disabled":true,"rental_uris":{"android":"levelo://app?vid=c541d6c6-d855-480d-9416-ad1e26b18f93","ios":"levelo://app?vid=c541d6c6-d855-480d-9416-ad1e26b18f93"},"vehicle_type_id":"4","last_reported":1762524670,"current_range_meters":12000,"station_id":"ce4bh292rcd13ifvqdf0","pricing_plan_id":"cebpf4jnsgd1na2vs0mg"},{"bike_id":"47fe472a-584f-43c1-989e-cc29d650cbff","system_id":"levelo_inurba_marseille","lat":43.31227,"lon":5.36853,"is_reserved":false,"is_disabled":false,"rental_uris":{"android":"levelo://app?vid=47fe472a-584f-43c1-989e-cc29d650cbff","ios":"levelo://app?vid=47fe472a-584f-43c1-989e-cc29d650cbff"},"vehicle_type_id":"4","last_reported":1762524670,"current_range_meters":12000,"station_id":"ce4bgl92rcd13ifvqbq0","pricing_plan_id":"cebpf4jnsgd1na2vs0mg"},{"bike_id":"aca95969-56a5-4b65-a36a-2f4e683e95bf","system_id":"levelo_inurba_marseille","lat":43.304273,"lon":5.388873,"is_reserved":false,"is_disabled":false,"rental_uris":{"android":"levelo://app?vid=aca95969-56a5-4b65-a36a-2f4e683e95bf","ios":"levelo://app?vid=aca95969-56a5-4b65-a36a-2f4e683e95bf"},"vehicle_type_id":"4","last_reported":1762524670,"current_range_meters":12400,"station_id":"ce4bgk12rcd13ifvqbi0","pricing_plan_id":"cebpf4jnsgd1na2vs0mg"},{"bike_id":"ec44e195-cde1-4252-aadf-701a64256dd7","system_id":"levelo_inurba_marseille","lat":43.24625,"lon":5.43156,"is_reserved":false,"is_disabled":false,"rental_uris":{"android":"levelo://app?vid=ec44e195-cde1-4252-aadf-701a64256dd7","ios":"levelo://app?vid=ec44e195-cde1-4252-aadf-701a64256dd7"},"vehicle_type_id":"4","last_reported":1762524670,"current_range_meters":12400,"station_id":"st_d2m6c4gdas8pm72e190g","pricing_plan_id":"cebpf4jnsgd1na2vs0mg"},{"bike_id":"6e4bad91-18d9-41bd-9258-c48756134cc7","system_id":"levelo_inurba_marseille","lat":43.30145,"lon":5.39833,"is_reserved":false,"is_disabled":false,"rental_uris":{"android":"levelo://app?vid=6e4bad91-18d9-41bd-9258-c48756134cc7","ios":"levelo://app?vid=6e4bad91-18d9-41bd-9258-c48756134cc7"},"vehicle_type_id":"4","last_reported":1762524670,"current_range_meters":12400,"station_id":"ce4bh0h2rcd13ifvqd40","pricing_plan_id":"cebpf4jnsgd1na2vs0mg"},{"bike_id":"49f72977-a3b0-4756-91f7-bfd8da95f1b4","system_id":"levelo_inurba_marseille","lat":43.25935,"lon":5.409,"is_reserved":false,"is_disabled":false,"rental_uris":{"android":"levelo://app?vid=49f72977-a3b0-4756-91f7-bfd8da95f1b4","ios":"levelo://app?vid=49f72977-a3b0-4756-91f7-bfd8da95f1b4"},"vehicle_type_id":"4","last_reported":1762524670,"current_range_meters":12400,"station_id":"ce4bhm92rcd13ifvqglg","pricing_plan_id":"cebpf4jnsgd1na2vs0mg"},{"bike_id":"0dd97e0f-7748-4bcd-82b1-ac034516de1d","system_id":"levelo_inurba_marseille","lat":43.23144,"lon":5.43725,"is_reserved":false,"is_disabled":false,"rental_uris":{"android":"levelo://app?vid=0dd97e0f-7748-4bcd-82b1-ac034516de1d","ios":"levelo://app?vid=0dd97e0f-7748-4bcd-82b1-ac034516de1d"},"vehicle_type_id":"4","last_reported":1762524670,"current_range_meters":12400,"station_id":"ce4bhmp2rcd13ifvqgog","pricing_plan_id":"cebpf4jnsgd1na2vs0mg"},{"bike_id":"5ddd35d6-666b-46ec-b1e3-3ebcac975504","system_id":"levelo_inurba_marseille","lat":43.31233,"lon":5.36834,"is_reserved":false,"is_disabled":false,"rental_uris":{"android":"levelo://app?vid=5ddd35d6-666b-46ec-b1e3-3ebcac975504","ios":"levelo://app?vid=5ddd35d6-666b-46ec-b1e3-3ebcac975504"},"vehicle_type_id":"4","last_reported":1762524670,"current_range_meters":12400,"station_id":"ce4bgl92rcd13ifvqbq0","pricing_plan_id":"cebpf4jnsgd1na2vs0mg"},{"bike_id":"06d8a6d4-cde1-4774-80e5-91004a4fe543","system_id":"levelo_inurba_marseille","lat":43.2982,"lon":5.36299,"is_reserved":false,"is_disabled":false,"rental_uris":{"android":"levelo://app?vid=06d8a6d4-cde1-4774-80e5-91004a4fe543","ios":"levelo://app?vid=06d8a6d4-cde1-4774-80e5-91004a4fe543"},"vehicle_type_id":"4","last_reported":1762524670,"current_range_meters":12800,"station_id":"ce4bgpp2rcd13ifvqc3g","pricing_plan_id":"cebpf4jnsgd1na2vs0mg"},{"bike_id":"ed49f4ad-c6a7-4adb-8b4b-6f49ecc03da9","system_id":"levelo_inurba_marseille","lat":43.2978,"lon":5.37102,"is_reserved":false,"is_disabled":false,"rental_uris":{"android":"levelo://app?vid=ed49f4ad-c6a7-4adb-8b4b-6f49ecc03da9","ios":"levelo://app?vid=ed49f4ad-c6a7-4adb-8b4b-6f49ecc03da9"},"vehicle_type_id":"4","last_reported":1762524670,"current_range_meters":12800,"station_id":"ce4bgop2rcd13ifvqc1g","pricing_plan_id":"cebpf4jnsgd1na2vs0mg"},{"bike_id":"3b350de2-695c-42e3-a80c-fe5d0f1d9920","system_id":"levelo_inurba_marseille","lat":43.25965,"lon":5.40888,"is_reserved":false,"is_disabled":false,"rental_uris":{"android":"levelo://app?vid=3b350de2-695c-42e3-a80c-fe5d0f1d9920","ios":"levelo://app?vid=3b350de2-695c-42e3-a80c-fe5d0f1d9920"},"vehicle_type_id":"4","last_reported":1762524670,"current_range_meters":12800,"station_id":"ce4bhm92rcd13ifvqglg","pricing_plan_id":"cebpf4jnsgd1na2vs0mg"},{"bike_id":"c0b7a471-f70d-437e-b72b-b9a67eac7822","system_id":"levelo_inurba_marseille","lat":43.2622,"lon":5.40459,"is_reserved":false,"is_disabled":false,"rental_uris":{"android":"levelo://app?vid=c0b7a471-f70d-437e-b72b-b9a67eac7822","ios":"levelo://app?vid=c0b7a471-f70d-437e-b72b-b9a67eac7822"},"vehicle_type_id":"4","last_reported":1762524670,"current_range_meters":12800,"station_id":"ce4bhmh2rcd13ifvqgmg","pricing_plan_id":"cebpf4jnsgd1na2vs0mg"},{"bike_id":"2214147d-b2bc-47a5-8262-b29a2f3cbd90","system_id":"levelo_inurba_marseille","lat":43.288636,"lon":5.42512,"is_reserved":false,"is_disabled":false,"rental_uris":{"android":"levelo://app?vid=2214147d-b2bc-47a5-8262-b29a2f3cbd90","ios":"levelo://app?vid=2214147d-b2bc-47a5-8262-b29a2f3cbd90"},"vehicle_type_id":"4","last_reported":1762524670,"current_range_meters":12800,"station_id":"st_d3b462108ojc7389ooeg","pricing_plan_id":"cebpf4jnsgd1na2vs0mg"},{"bike_id":"2e0f5b64-65ed-42b3-9deb-fc4f03eedfcc","system_id":"levelo_inurba_marseille","lat":43.28531,"lon":5.44116,"is_reserved":false,"is_disabled":false,"rental_uris":{"android":"levelo://app?vid=2e0f5b64-65ed-42b3-9deb-fc4f03eedfcc","ios":"levelo://app?vid=2e0f5b64-65ed-42b3-9deb-fc4f03eedfcc"},"vehicle_type_id":"4","last_reported":1762524670,"current_range_meters":12800,"station_id":"st_d3j3df2ikq2c7380ej80","pricing_plan_id":"cebpf4jnsgd1na2vs0mg"},{"bike_id":"2c54771e-bc90-4fcb-a7c7-984aebd4a9b2","system_id":"levelo_inurba_marseille","lat":43.30114,"lon":5.38782,"is_reserved":false,"is_disabled":false,"rental_uris":{"android":"levelo://app?vid=2c54771e-bc90-4fcb-a7c7-984aebd4a9b2","ios":"levelo://app?vid=2c54771e-bc90-4fcb-a7c7-984aebd4a9b2"},"vehicle_type_id":"4","last_reported":1762524670,"current_range_meters":13600,"station_id":"ce4bghh2rcd13ifvqb60","pricing_plan_id":"cebpf4jnsgd1na2vs0mg"},{"bike_id":"a4155ede-55e0-40bb-a340-eab53bb69843","system_id":"levelo_inurba_marseille","lat":43.29945,"lon":5.3747,"is_reserved":false,"is_disabled":false,"rental_uris":{"android":"levelo://app?vid=a4155ede-55e0-40bb-a340-eab53bb69843","ios":"levelo://app?vid=a4155ede-55e0-40bb-a340-eab53bb69843"},"vehicle_type_id":"4","last_reported":1762524670,"current_range_meters":13600,"station_id":"ce4bgjh2rcd13ifvqbg0","pricing_plan_id":"cebpf4jnsgd1na2vs0mg"},{"bike_id":"ada7c068-07f5-4885-8cb5-5c4f9b537ace","system_id":"levelo_inurba_marseille","lat":43.2316,"lon":5.43711,"is_reserved":false,"is_disabled":false,"rental_uris":{"android":"levelo://app?vid=ada7c068-07f5-4885-8cb5-5c4f9b537ace","ios":"levelo://app?vid=ada7c068-07f5-4885-8cb5-5c4f9b537ace"},"vehicle_type_id":"4","last_reported":1762524670,"current_range_meters":13600,"station_id":"ce4bhmp2rcd13ifvqgog","pricing_plan_id":"cebpf4jnsgd1na2vs0mg"},{"bike_id":"96b6456b-63ef-4b54-8d95-79973aeb5078","system_id":"levelo_inurba_marseille","lat":43.301642,"lon":5.366223,"is_reserved":false,"is_disabled":false,"rental_uris":{"android":"levelo://app?vid=96b6456b-63ef-4b54-8d95-79973aeb5078","ios":"levelo://app?vid=96b6456b-63ef-4b54-8d95-79973aeb5078"},"vehicle_type_id":"4","last_reported":1762524670,"current_range_meters":13600,"station_id":"ce4bgrh2rcd13ifvqc8g","pricing_plan_id":"cebpf4jnsgd1na2vs0mg"},{"bike_id":"23d4b732-c785-4a74-a220-93191f06591d","system_id":"levelo_inurba_marseille","lat":43.21184,"lon":5.35076,"is_reserved":false,"is_disabled":true,"rental_uris":{"android":"levelo://app?vid=23d4b732-c785-4a74-a220-93191f06591d","ios":"levelo://app?vid=23d4b732-c785-4a74-a220-93191f06591d"},"vehicle_type_id":"4","last_reported":1762524670,"current_range_meters":13600,"station_id":"st_cvj6sg6p6f1abm77japg","pricing_plan_id":"cebpf4jnsgd1na2vs0mg"},{"bike_id":"aeebc136-8da5-42f8-adb5-e925adf89390","system_id":"levelo_inurba_marseille","lat":43.31689,"lon":5.40465,"is_reserved":false,"is_disabled":false,"rental_uris":{"android":"levelo://app?vid=aeebc136-8da5-42f8-adb5-e925adf89390","ios":"levelo://app?vid=aeebc136-8da5-42f8-adb5-e925adf89390"},"vehicle_type_id":"4","last_reported":1762524670,"current_range_meters":13600,"station_id":"ce4bh012rcd13ifvqd00","pricing_plan_id":"cebpf4jnsgd1na2vs0mg"},{"bike_id":"cbe21f99-b5d8-4bed-8a77-94be666b9c36","system_id":"levelo_inurba_marseille","lat":43.26027,"lon":5.3755,"is_reserved":false,"is_disabled":false,"rental_uris":{"android":"levelo://app?vid=cbe21f99-b5d8-4bed-8a77-94be666b9c36","ios":"levelo://app?vid=cbe21f99-b5d8-4bed-8a77-94be666b9c36"},"vehicle_type_id":"4","last_reported":1762524670,"current_range_meters":14000,"station_id":"ce4bhgh2rcd13ifvqfa0","pricing_plan_id":"cebpf4jnsgd1na2vs0mg"},{"bike_id":"7c392732-2900-41fd-8c6d-e5b49cdf67b5","system_id":"levelo_inurba_marseille","lat":43.29716,"lon":5.38249,"is_reserved":false,"is_disabled":false,"rental_uris":{"android":"levelo://app?vid=7c392732-2900-41fd-8c6d-e5b49cdf67b5","ios":"levelo://app?vid=7c392732-2900-41fd-8c6d-e5b49cdf67b5"},"vehicle_type_id":"4","last_reported":1762524670,"current_range_meters":14000,"station_id":"","pricing_plan_id":"cebpf4jnsgd1na2vs0mg"},{"bike_id":"fbe1980c-28b3-44ff-94bc-1a822c9d6de7","system_id":"levelo_inurba_marseille","lat":43.30928,"lon":5.37319,"is_reserved":false,"is_disabled":false,"rental_uris":{"android":"levelo://app?vid=fbe1980c-28b3-44ff-94bc-1a822c9d6de7","ios":"levelo://app?vid=fbe1980c-28b3-44ff-94bc-1a822c9d6de7"},"vehicle_type_id":"4","last_reported":1762524670,"current_range_meters":14000,"station_id":"","pricing_plan_id":"cebpf4jnsgd1na2vs0mg"},{"bike_id":"e40fc2d8-1589-4f03-b306-e4d52108d5e0","system_id":"levelo_inurba_marseille","lat":43.27998,"lon":5.40014,"is_reserved":false,"is_disabled":false,"rental_uris":{"android":"levelo://app?vid=e40fc2d8-1589-4f03-b306-e4d52108d5e0","ios":"levelo://app?vid=e40fc2d8-1589-4f03-b306-e4d52108d5e0"},"vehicle_type_id":"4","last_reported":1762524670,"current_range_meters":14000,"station_id":"ce4bho92rcd13ifvqh4g","pricing_plan_id":"cebpf4jnsgd1na2vs0mg"},{"bike_id":"18a87bcb-16af-47b7-aa09-00e0f6787532","system_id":"levelo_inurba_marseille","lat":43.30934,"lon":5.40144,"is_reserved":false,"is_disabled":false,"rental_uris":{"android":"levelo://app?vid=18a87bcb-16af-47b7-aa09-00e0f6787532","ios":"levelo://app?vid=18a87bcb-16af-47b7-aa09-00e0f6787532"},"vehicle_type_id":"4","last_reported":1762524670,"current_range_meters":14000,"station_id":"ce4bgvp2rcd13ifvqct0","pricing_plan_id":"cebpf4jnsgd1na2vs0mg"},{"bike_id":"fd56d2bc-6f60-4008-a2cc-ba3081efc60a","system_id":"levelo_inurba_marseille","lat":43.29524,"lon":5.37537,"is_reserved":false,"is_disabled":false,"rental_uris":{"android":"levelo://app?vid=fd56d2bc-6f60-4008-a2cc-ba3081efc60a","ios":"levelo://app?vid=fd56d2bc-6f60-4008-a2cc-ba3081efc60a"},"vehicle_type_id":"4","last_reported":1762524670,"current_range_meters":14400,"station_id":"ce4bgkp2rcd13ifvqbmg","pricing_plan_id":"cebpf4jnsgd1na2vs0mg"},{"bike_id":"1f9cc5ac-195d-4b26-81b2-ae3f8d4810d1","system_id":"levelo_inurba_marseille","lat":43.25806,"lon":5.39445,"is_reserved":false,"is_disabled":false,"rental_uris":{"android":"levelo://app?vid=1f9cc5ac-195d-4b26-81b2-ae3f8d4810d1","ios":"levelo://app?vid=1f9cc5ac-195d-4b26-81b2-ae3f8d4810d1"},"vehicle_type_id":"4","last_reported":1762524670,"current_range_meters":14400,"station_id":"ce4bhip2rcd13ifvqft0","pricing_plan_id":"cebpf4jnsgd1na2vs0mg"},{"bike_id":"a88522c2-7f31-460d-8b59-1c10109fed19","system_id":"levelo_inurba_marseille","lat":43.31441,"lon":5.37601,"is_reserved":false,"is_disabled":false,"rental_uris":{"android":"levelo://app?vid=a88522c2-7f31-460d-8b59-1c10109fed19","ios":"levelo://app?vid=a88522c2-7f31-460d-8b59-1c10109fed19"},"vehicle_type_id":"4","last_reported":1762524670,"current_range_meters":14400,"station_id":"","pricing_plan_id":"cebpf4jnsgd1na2vs0mg"},{"bike_id":"3a6b939b-8483-4a00-8652-d825cdd856d7","system_id":"levelo_inurba_marseille","lat":43.22548,"lon":5.41633,"is_reserved":false,"is_disabled":false,"rental_uris":{"android":"levelo://app?vid=3a6b939b-8483-4a00-8652-d825cdd856d7","ios":"levelo://app?vid=3a6b939b-8483-4a00-8652-d825cdd856d7"},"vehicle_type_id":"4","last_reported":1762524670,"current_range_meters":14400,"station_id":"st_d2o4gvlbi1j2169b742g","pricing_plan_id":"cebpf4jnsgd1na2vs0mg"},{"bike_id":"46609da1-1a56-4a2e-8fd3-da507a08e8ac","system_id":"levelo_inurba_marseille","lat":43.23147,"lon":5.4372,"is_reserved":false,"is_disabled":false,"rental_uris":{"android":"levelo://app?vid=46609da1-1a56-4a2e-8fd3-da507a08e8ac","ios":"levelo://app?vid=46609da1-1a56-4a2e-8fd3-da507a08e8ac"},"vehicle_type_id":"4","last_reported":1762524670,"current_range_meters":14400,"station_id":"ce4bhmp2rcd13ifvqgog","pricing_plan_id":"cebpf4jnsgd1na2vs0mg"},{"bike_id":"d62c68b7-5b72-49e3-88a5-11bf2eacb654","system_id":"levelo_inurba_marseille","lat":43.310724,"lon":5.400963,"is_reserved":false,"is_disabled":false,"rental_uris":{"android":"levelo://app?vid=d62c68b7-5b72-49e3-88a5-11bf2eacb654","ios":"levelo://app?vid=d62c68b7-5b72-49e3-88a5-11bf2eacb654"},"vehicle_type_id":"4","last_reported":1762524670,"current_range_meters":14800,"station_id":"ce4bh092rcd13ifvqd30","pricing_plan_id":"cebpf4jnsgd1na2vs0mg"},{"bike_id":"43cfab9e-f547-4304-9999-4a8329474751","system_id":"levelo_inurba_marseille","lat":43.211707,"lon":5.35097,"is_reserved":false,"is_disabled":false,"rental_uris":{"android":"levelo://app?vid=43cfab9e-f547-4304-9999-4a8329474751","ios":"levelo://app?vid=43cfab9e-f547-4304-9999-4a8329474751"},"vehicle_type_id":"4","last_reported":1762524670,"current_range_meters":14800,"station_id":"st_cvj6sg6p6f1abm77japg","pricing_plan_id":"cebpf4jnsgd1na2vs0mg"},{"bike_id":"0129d5e3-887c-4b82-9486-db9b5dbeeb12","system_id":"levelo_inurba_marseille","lat":43.24645,"lon":5.38896,"is_reserved":false,"is_disabled":false,"rental_uris":{"android":"levelo://app?vid=0129d5e3-887c-4b82-9486-db9b5dbeeb12","ios":"levelo://app?vid=0129d5e3-887c-4b82-9486-db9b5dbeeb12"},"vehicle_type_id":"4","last_reported":1762524670,"current_range_meters":14800,"station_id":"ce4bhg12rcd13ifvqf60","pricing_plan_id":"cebpf4jnsgd1na2vs0mg"},{"bike_id":"e9d93997-7273-488f-8d58-cb606b3ba588","system_id":"levelo_inurba_marseille","lat":43.28672,"lon":5.38652,"is_reserved":false,"is_disabled":false,"rental_uris":{"android":"levelo://app?vid=e9d93997-7273-488f-8d58-cb606b3ba588","ios":"levelo://app?vid=e9d93997-7273-488f-8d58-cb606b3ba588"},"vehicle_type_id":"4","last_reported":1762524670,"current_range_meters":14800,"station_id":"ce4bh492rcd13ifvqdug","pricing_plan_id":"cebpf4jnsgd1na2vs0mg"},{"bike_id":"7d7b26a3-e50e-46da-a936-2990c6881edf","system_id":"levelo_inurba_marseille","lat":43.30487,"lon":5.3789,"is_reserved":false,"is_disabled":false,"rental_uris":{"android":"levelo://app?vid=7d7b26a3-e50e-46da-a936-2990c6881edf","ios":"levelo://app?vid=7d7b26a3-e50e-46da-a936-2990c6881edf"},"vehicle_type_id":"4","last_reported":1762524670,"current_range_meters":15200,"station_id":"ce4bgup2rcd13ifvqcn0","pricing_plan_id":"cebpf4jnsgd1na2vs0mg"},{"bike_id":"310115a0-7bf2-4a4a-9d53-56bf6918e4d0","system_id":"levelo_inurba_marseille","lat":43.28475,"lon":5.48398,"is_reserved":false,"is_disabled":false,"rental_uris":{"android":"levelo://app?vid=310115a0-7bf2-4a4a-9d53-56bf6918e4d0","ios":"levelo://app?vid=310115a0-7bf2-4a4a-9d53-56bf6918e4d0"},"vehicle_type_id":"4","last_reported":1762524670,"current_range_meters":15200,"station_id":"st_d3svhcjqgbts73a3dn0g","pricing_plan_id":"cebpf4jnsgd1na2vs0mg"},{"bike_id":"ab57a438-ae7d-432c-b302-3fda6242e506","system_id":"levelo_inurba_marseille","lat":43.23147,"lon":5.43706,"is_reserved":false,"is_disabled":false,"rental_uris":{"android":"levelo://app?vid=ab57a438-ae7d-432c-b302-3fda6242e506","ios":"levelo://app?vid=ab57a438-ae7d-432c-b302-3fda6242e506"},"vehicle_type_id":"4","last_reported":1762524670,"current_range_meters":15200,"station_id":"ce4bhmp2rcd13ifvqgog","pricing_plan_id":"cebpf4jnsgd1na2vs0mg"},{"bike_id":"42f18eb7-4b1f-482c-82cd-091a445f5847","system_id":"levelo_inurba_marseille","lat":43.292635,"lon":5.376097,"is_reserved":false,"is_disabled":false,"rental_uris":{"android":"levelo://app?vid=42f18eb7-4b1f-482c-82cd-091a445f5847","ios":"levelo://app?vid=42f18eb7-4b1f-482c-82cd-091a445f5847"},"vehicle_type_id":"4","last_reported":1762524670,"current_range_meters":15200,"station_id":"ce4bgi12rcd13ifvqb80","pricing_plan_id":"cebpf4jnsgd1na2vs0mg"},{"bike_id":"7cfd895d-ac07-4659-8cbf-b904095aa855","system_id":"levelo_inurba_marseille","lat":43.28615,"lon":5.35109,"is_reserved":false,"is_disabled":false,"rental_uris":{"android":"levelo://app?vid=7cfd895d-ac07-4659-8cbf-b904095aa855","ios":"levelo://app?vid=7cfd895d-ac07-4659-8cbf-b904095aa855"},"vehicle_type_id":"4","last_reported":1762524670,"current_range_meters":15200,"station_id":"ce4bhch2rcd13ifvqeug","pricing_plan_id":"cebpf4jnsgd1na2vs0mg"},{"bike_id":"3771f242-ebc1-4678-84d4-230be10e9f54","system_id":"levelo_inurba_marseille","lat":43.25334,"lon":5.42161,"is_reserved":false,"is_disabled":false,"rental_uris":{"android":"levelo://app?vid=3771f242-ebc1-4678-84d4-230be10e9f54","ios":"levelo://app?vid=3771f242-ebc1-4678-84d4-230be10e9f54"},"vehicle_type_id":"4","last_reported":1762524670,"current_range_meters":15200,"station_id":"st_d2m65c5bi1j21697t3ng","pricing_plan_id":"cebpf4jnsgd1na2vs0mg"},{"bike_id":"24fd75c4-c608-432c-98bf-9daa957f0b91","system_id":"levelo_inurba_marseille","lat":43.26168,"lon":5.402575,"is_reserved":false,"is_disabled":false,"rental_uris":{"android":"levelo://app?vid=24fd75c4-c608-432c-98bf-9daa957f0b91","ios":"levelo://app?vid=24fd75c4-c608-432c-98bf-9daa957f0b91"},"vehicle_type_id":"4","last_reported":1762524670,"current_range_meters":15200,"station_id":"ce4bhm92rcd13ifvqglg","pricing_plan_id":"cebpf4jnsgd1na2vs0mg"},{"bike_id":"fbdb70f3-d773-4ad3-9b04-01dfdbc682f0","system_id":"levelo_inurba_marseille","lat":43.30153,"lon":5.38094,"is_reserved":false,"is_disabled":false,"rental_uris":{"android":"levelo://app?vid=fbdb70f3-d773-4ad3-9b04-01dfdbc682f0","ios":"levelo://app?vid=fbdb70f3-d773-4ad3-9b04-01dfdbc682f0"},"vehicle_type_id":"4","last_reported":1762524670,"current_range_meters":16000,"station_id":"ce4bgjp2rcd13ifvqbh0","pricing_plan_id":"cebpf4jnsgd1na2vs0mg"},{"bike_id":"ac9b2307-8532-4e5b-acbf-4475959117d2","system_id":"levelo_inurba_marseille","lat":43.25712,"lon":5.41145,"is_reserved":false,"is_disabled":false,"rental_uris":{"android":"levelo://app?vid=ac9b2307-8532-4e5b-acbf-4475959117d2","ios":"levelo://app?vid=ac9b2307-8532-4e5b-acbf-4475959117d2"},"vehicle_type_id":"4","last_reported":1762524670,"current_range_meters":16000,"station_id":"ce4bhkp2rcd13ifvqgd0","pricing_plan_id":"cebpf4jnsgd1na2vs0mg"},{"bike_id":"27b410b1-4f32-446f-b24b-6fd710d540fd","system_id":"levelo_inurba_marseille","lat":43.29259,"lon":5.38442,"is_reserved":false,"is_disabled":false,"rental_uris":{"android":"levelo://app?vid=27b410b1-4f32-446f-b24b-6fd710d540fd","ios":"levelo://app?vid=27b410b1-4f32-446f-b24b-6fd710d540fd"},"vehicle_type_id":"4","last_reported":1762524670,"current_range_meters":16000,"station_id":"ce4bh692rcd13ifvqea0","pricing_plan_id":"cebpf4jnsgd1na2vs0mg"},{"bike_id":"5b03e0a7-e5b7-4bb1-a15f-78dcdc45fd57","system_id":"levelo_inurba_marseille","lat":43.23149,"lon":5.43716,"is_reserved":false,"is_disabled":false,"rental_uris":{"android":"levelo://app?vid=5b03e0a7-e5b7-4bb1-a15f-78dcdc45fd57","ios":"levelo://app?vid=5b03e0a7-e5b7-4bb1-a15f-78dcdc45fd57"},"vehicle_type_id":"4","last_reported":1762524670,"current_range_meters":16000,"station_id":"ce4bhmp2rcd13ifvqgog","pricing_plan_id":"cebpf4jnsgd1na2vs0mg"},{"bike_id":"401209f9-1098-407a-9275-182f209531f6","system_id":"levelo_inurba_marseille","lat":43.29549,"lon":5.4229,"is_reserved":false,"is_disabled":false,"rental_uris":{"android":"levelo://app?vid=401209f9-1098-407a-9275-182f209531f6","ios":"levelo://app?vid=401209f9-1098-407a-9275-182f209531f6"},"vehicle_type_id":"4","last_reported":1762524670,"current_range_meters":16000,"station_id":"ce4bhph2rcd13ifvqhdg","pricing_plan_id":"cebpf4jnsgd1na2vs0mg"},{"bike_id":"2be3f6e6-ba7f-4440-bfac-296573e6d29d","system_id":"levelo_inurba_marseille","lat":43.29001,"lon":5.356,"is_reserved":false,"is_disabled":false,"rental_uris":{"android":"levelo://app?vid=2be3f6e6-ba7f-4440-bfac-296573e6d29d","ios":"levelo://app?vid=2be3f6e6-ba7f-4440-bfac-296573e6d29d"},"vehicle_type_id":"4","last_reported":1762524670,"current_range_meters":16000,"station_id":"ce4bhb92rcd13ifvqen0","pricing_plan_id":"cebpf4jnsgd1na2vs0mg"},{"bike_id":"927746ff-cf50-4962-9e1d-e652ea7d91a4","system_id":"levelo_inurba_marseille","lat":43.2978,"lon":5.37112,"is_reserved":false,"is_disabled":false,"rental_uris":{"android":"levelo://app?vid=927746ff-cf50-4962-9e1d-e652ea7d91a4","ios":"levelo://app?vid=927746ff-cf50-4962-9e1d-e652ea7d91a4"},"vehicle_type_id":"4","last_reported":1762524670,"current_range_meters":16000,"station_id":"ce4bgop2rcd13ifvqc1g","pricing_plan_id":"cebpf4jnsgd1na2vs0mg"},{"bike_id":"3df6bfda-db80-475a-88ab-b10a24ae6e4f","system_id":"levelo_inurba_marseille","lat":43.231813,"lon":5.399803,"is_reserved":false,"is_disabled":false,"rental_uris":{"android":"levelo://app?vid=3df6bfda-db80-475a-88ab-b10a24ae6e4f","ios":"levelo://app?vid=3df6bfda-db80-475a-88ab-b10a24ae6e4f"},"vehicle_type_id":"4","last_reported":1762524670,"current_range_meters":16400,"station_id":"ce4bhn12rcd13ifvqgqg","pricing_plan_id":"cebpf4jnsgd1na2vs0mg"},{"bike_id":"4f0c3306-4d54-4347-bb19-aa2fe877c2b3","system_id":"levelo_inurba_marseille","lat":43.26222,"lon":5.40468,"is_reserved":false,"is_disabled":false,"rental_uris":{"android":"levelo://app?vid=4f0c3306-4d54-4347-bb19-aa2fe877c2b3","ios":"levelo://app?vid=4f0c3306-4d54-4347-bb19-aa2fe877c2b3"},"vehicle_type_id":"4","last_reported":1762524670,"current_range_meters":16400,"station_id":"ce4bhmh2rcd13ifvqgmg","pricing_plan_id":"cebpf4jnsgd1na2vs0mg"},{"bike_id":"c8272fa7-32cb-479a-8c8c-0335cc6173de","system_id":"levelo_inurba_marseille","lat":43.23177,"lon":5.39981,"is_reserved":false,"is_disabled":false,"rental_uris":{"android":"levelo://app?vid=c8272fa7-32cb-479a-8c8c-0335cc6173de","ios":"levelo://app?vid=c8272fa7-32cb-479a-8c8c-0335cc6173de"},"vehicle_type_id":"4","last_reported":1762524670,"current_range_meters":16400,"station_id":"ce4bhn12rcd13ifvqgqg","pricing_plan_id":"cebpf4jnsgd1na2vs0mg"},{"bike_id":"7bb84820-24de-4ce3-8da1-06a034cf437e","system_id":"levelo_inurba_marseille","lat":43.27054,"lon":5.40267,"is_reserved":false,"is_disabled":false,"rental_uris":{"android":"levelo://app?vid=7bb84820-24de-4ce3-8da1-06a034cf437e","ios":"levelo://app?vid=7bb84820-24de-4ce3-8da1-06a034cf437e"},"vehicle_type_id":"4","last_reported":1762524670,"current_range_meters":16400,"station_id":"ce4bhk92rcd13ifvqgc0","pricing_plan_id":"cebpf4jnsgd1na2vs0mg"},{"bike_id":"05c639a2-6660-40ed-a12f-85b485fe188e","system_id":"levelo_inurba_marseille","lat":43.29212,"lon":5.3578,"is_reserved":false,"is_disabled":false,"rental_uris":{"android":"levelo://app?vid=05c639a2-6660-40ed-a12f-85b485fe188e","ios":"levelo://app?vid=05c639a2-6660-40ed-a12f-85b485fe188e"},"vehicle_type_id":"4","last_reported":1762524670,"current_range_meters":16400,"station_id":"ce4bhb12rcd13ifvqel0","pricing_plan_id":"cebpf4jnsgd1na2vs0mg"},{"bike_id":"a24ecaa7-dc5d-4c8e-a910-6021da3d40da","system_id":"levelo_inurba_marseille","lat":43.22558,"lon":5.41645,"is_reserved":false,"is_disabled":false,"rental_uris":{"android":"levelo://app?vid=a24ecaa7-dc5d-4c8e-a910-6021da3d40da","ios":"levelo://app?vid=a24ecaa7-dc5d-4c8e-a910-6021da3d40da"},"vehicle_type_id":"4","last_reported":1762524670,"current_range_meters":16400,"station_id":"st_d2o4gvlbi1j2169b742g","pricing_plan_id":"cebpf4jnsgd1na2vs0mg"},{"bike_id":"48573ff9-2792-4362-a010-c4fc46424d7f","system_id":"levelo_inurba_marseille","lat":43.30244,"lon":5.400537,"is_reserved":false,"is_disabled":false,"rental_uris":{"android":"levelo://app?vid=48573ff9-2792-4362-a010-c4fc46424d7f","ios":"levelo://app?vid=48573ff9-2792-4362-a010-c4fc46424d7f"},"vehicle_type_id":"4","last_reported":1762524670,"current_range_meters":16400,"station_id":"ce4bgvh2rcd13ifvqcs0","pricing_plan_id":"cebpf4jnsgd1na2vs0mg"},{"bike_id":"22918fb7-a391-4f35-8c21-8eb60e2ab03f","system_id":"levelo_inurba_marseille","lat":43.22553,"lon":5.41643,"is_reserved":false,"is_disabled":false,"rental_uris":{"android":"levelo://app?vid=22918fb7-a391-4f35-8c21-8eb60e2ab03f","ios":"levelo://app?vid=22918fb7-a391-4f35-8c21-8eb60e2ab03f"},"vehicle_type_id":"4","last_reported":1762524670,"current_range_meters":16400,"station_id":"st_d2o4gvlbi1j2169b742g","pricing_plan_id":"cebpf4jnsgd1na2vs0mg"},{"bike_id":"9af0687b-3e79-4e11-b844-dd239618aeba","system_id":"levelo_inurba_marseille","lat":43.2886,"lon":5.42523,"is_reserved":false,"is_disabled":false,"rental_uris":{"android":"levelo://app?vid=9af0687b-3e79-4e11-b844-dd239618aeba","ios":"levelo://app?vid=9af0687b-3e79-4e11-b844-dd239618aeba"},"vehicle_type_id":"4","last_reported":1762524670,"current_range_meters":16400,"station_id":"st_d3b462108ojc7389ooeg","pricing_plan_id":"cebpf4jnsgd1na2vs0mg"},{"bike_id":"33fcdbb0-2f2f-418c-a9e2-8bfbd62dc3a5","system_id":"levelo_inurba_marseille","lat":43.30536,"lon":5.36712,"is_reserved":false,"is_disabled":false,"rental_uris":{"android":"levelo://app?vid=33fcdbb0-2f2f-418c-a9e2-8bfbd62dc3a5","ios":"levelo://app?vid=33fcdbb0-2f2f-418c-a9e2-8bfbd62dc3a5"},"vehicle_type_id":"4","last_reported":1762524670,"current_range_meters":16400,"station_id":"ce4bgrp2rcd13ifvqc9g","pricing_plan_id":"cebpf4jnsgd1na2vs0mg"},{"bike_id":"0ee3a2cd-bf73-412d-acd4-59beb849ed7e","system_id":"levelo_inurba_marseille","lat":43.311,"lon":5.3781,"is_reserved":false,"is_disabled":false,"rental_uris":{"android":"levelo://app?vid=0ee3a2cd-bf73-412d-acd4-59beb849ed7e","ios":"levelo://app?vid=0ee3a2cd-bf73-412d-acd4-59beb849ed7e"},"vehicle_type_id":"4","last_reported":1762524670,"current_range_meters":16800,"station_id":"ce4bgt92rcd13ifvqcg0","pricing_plan_id":"cebpf4jnsgd1na2vs0mg"},{"bike_id":"65d83eaf-428a-43cd-a356-ecaed95948ff","system_id":"levelo_inurba_marseille","lat":43.24844,"lon":5.39798,"is_reserved":false,"is_disabled":false,"rental_uris":{"android":"levelo://app?vid=65d83eaf-428a-43cd-a356-ecaed95948ff","ios":"levelo://app?vid=65d83eaf-428a-43cd-a356-ecaed95948ff"},"vehicle_type_id":"4","last_reported":1762524670,"current_range_meters":16800,"station_id":"","pricing_plan_id":"cebpf4jnsgd1na2vs0mg"},{"bike_id":"186fcb9d-62b4-469b-aeed-f46bf2dab772","system_id":"levelo_inurba_marseille","lat":43.299304,"lon":5.375069,"is_reserved":false,"is_disabled":false,"rental_uris":{"android":"levelo://app?vid=186fcb9d-62b4-469b-aeed-f46bf2dab772","ios":"levelo://app?vid=186fcb9d-62b4-469b-aeed-f46bf2dab772"},"vehicle_type_id":"4","last_reported":1762524670,"current_range_meters":16800,"station_id":"ce4bgjh2rcd13ifvqbg0","pricing_plan_id":"cebpf4jnsgd1na2vs0mg"},{"bike_id":"cbaf6e70-be37-4c92-8bb7-677f9be0a37d","system_id":"levelo_inurba_marseille","lat":43.301209,"lon":5.431304,"is_reserved":false,"is_disabled":false,"rental_uris":{"android":"levelo://app?vid=cbaf6e70-be37-4c92-8bb7-677f9be0a37d","ios":"levelo://app?vid=cbaf6e70-be37-4c92-8bb7-677f9be0a37d"},"vehicle_type_id":"4","last_reported":1762524670,"current_range_meters":16800,"station_id":"st_d3js3co5814s73ftftug","pricing_plan_id":"cebpf4jnsgd1na2vs0mg"},{"bike_id":"1bf477b3-55e6-4f59-a7a7-7034928d8403","system_id":"levelo_inurba_marseille","lat":43.25342,"lon":5.42156,"is_reserved":false,"is_disabled":false,"rental_uris":{"android":"levelo://app?vid=1bf477b3-55e6-4f59-a7a7-7034928d8403","ios":"levelo://app?vid=1bf477b3-55e6-4f59-a7a7-7034928d8403"},"vehicle_type_id":"4","last_reported":1762524670,"current_range_meters":16800,"station_id":"st_d2m65c5bi1j21697t3ng","pricing_plan_id":"cebpf4jnsgd1na2vs0mg"},{"bike_id":"80d6028b-d102-4553-996c-40c70fdfb53c","system_id":"levelo_inurba_marseille","lat":43.262017,"lon":5.379356,"is_reserved":false,"is_disabled":false,"rental_uris":{"android":"levelo://app?vid=80d6028b-d102-4553-996c-40c70fdfb53c","ios":"levelo://app?vid=80d6028b-d102-4553-996c-40c70fdfb53c"},"vehicle_type_id":"4","last_reported":1762524670,"current_range_meters":16800,"station_id":"ce4bhjp2rcd13ifvqg90","pricing_plan_id":"cebpf4jnsgd1na2vs0mg"},{"bike_id":"71363b19-bf5d-43d1-b7c7-f9936f9c7692","system_id":"levelo_inurba_marseille","lat":43.304184,"lon":5.412937,"is_reserved":false,"is_disabled":false,"rental_uris":{"android":"levelo://app?vid=71363b19-bf5d-43d1-b7c7-f9936f9c7692","ios":"levelo://app?vid=71363b19-bf5d-43d1-b7c7-f9936f9c7692"},"vehicle_type_id":"4","last_reported":1762524670,"current_range_meters":16800,"station_id":"ce4bhop2rcd13ifvqh8g","pricing_plan_id":"cebpf4jnsgd1na2vs0mg"},{"bike_id":"07d4a740-67e7-417b-9820-14faa44cc7d6","system_id":"levelo_inurba_marseille","lat":43.28862,"lon":5.4253,"is_reserved":false,"is_disabled":false,"rental_uris":{"android":"levelo://app?vid=07d4a740-67e7-417b-9820-14faa44cc7d6","ios":"levelo://app?vid=07d4a740-67e7-417b-9820-14faa44cc7d6"},"vehicle_type_id":"4","last_reported":1762524670,"current_range_meters":16800,"station_id":"st_d3b462108ojc7389ooeg","pricing_plan_id":"cebpf4jnsgd1na2vs0mg"},{"bike_id":"ba671485-3e7f-49ea-a6c6-644d131eb4e4","system_id":"levelo_inurba_marseille","lat":43.276606,"lon":5.388863,"is_reserved":false,"is_disabled":false,"rental_uris":{"android":"levelo://app?vid=ba671485-3e7f-49ea-a6c6-644d131eb4e4","ios":"levelo://app?vid=ba671485-3e7f-49ea-a6c6-644d131eb4e4"},"vehicle_type_id":"4","last_reported":1762524670,"current_range_meters":16800,"station_id":"ce4bhi12rcd13ifvqfo0","pricing_plan_id":"cebpf4jnsgd1na2vs0mg"},{"bike_id":"8b911343-96bc-4cb8-b35b-38140b29406a","system_id":"levelo_inurba_marseille","lat":43.24656,"lon":5.38158,"is_reserved":false,"is_disabled":false,"rental_uris":{"android":"levelo://app?vid=8b911343-96bc-4cb8-b35b-38140b29406a","ios":"levelo://app?vid=8b911343-96bc-4cb8-b35b-38140b29406a"},"vehicle_type_id":"4","last_reported":1762524670,"current_range_meters":17200,"station_id":"ce4bhih2rcd13ifvqfr0","pricing_plan_id":"cebpf4jnsgd1na2vs0mg"},{"bike_id":"6a5ddfdf-eda2-4c9a-bd10-fba552af5b58","system_id":"levelo_inurba_marseille","lat":43.26948,"lon":5.38917,"is_reserved":false,"is_disabled":false,"rental_uris":{"android":"levelo://app?vid=6a5ddfdf-eda2-4c9a-bd10-fba552af5b58","ios":"levelo://app?vid=6a5ddfdf-eda2-4c9a-bd10-fba552af5b58"},"vehicle_type_id":"4","last_reported":1762524670,"current_range_meters":17200,"station_id":"ce4bhhh2rcd13ifvqfl0","pricing_plan_id":"cebpf4jnsgd1na2vs0mg"},{"bike_id":"b42f9b52-51b0-44ec-94b5-5a5bf48a552c","system_id":"levelo_inurba_marseille","lat":43.28998,"lon":5.38139,"is_reserved":false,"is_disabled":false,"rental_uris":{"android":"levelo://app?vid=b42f9b52-51b0-44ec-94b5-5a5bf48a552c","ios":"levelo://app?vid=b42f9b52-51b0-44ec-94b5-5a5bf48a552c"},"vehicle_type_id":"4","last_reported":1762524670,"current_range_meters":17200,"station_id":"ce4bh4p2rcd13ifvqe1g","pricing_plan_id":"cebpf4jnsgd1na2vs0mg"},{"bike_id":"98f1c3f6-1b93-4dd7-b060-0b22062b1d63","system_id":"levelo_inurba_marseille","lat":43.28409,"lon":5.37514,"is_reserved":false,"is_disabled":false,"rental_uris":{"android":"levelo://app?vid=98f1c3f6-1b93-4dd7-b060-0b22062b1d63","ios":"levelo://app?vid=98f1c3f6-1b93-4dd7-b060-0b22062b1d63"},"vehicle_type_id":"4","last_reported":1762524670,"current_range_meters":17200,"station_id":"ce4bh412rcd13ifvqds0","pricing_plan_id":"cebpf4jnsgd1na2vs0mg"},{"bike_id":"035d443b-5e49-44d9-9874-ba5892c1d3c0","system_id":"levelo_inurba_marseille","lat":43.29773,"lon":5.38124,"is_reserved":false,"is_disabled":false,"rental_uris":{"android":"levelo://app?vid=035d443b-5e49-44d9-9874-ba5892c1d3c0","ios":"levelo://app?vid=035d443b-5e49-44d9-9874-ba5892c1d3c0"},"vehicle_type_id":"4","last_reported":1762524670,"current_range_meters":17200,"station_id":"ce4bgip2rcd13ifvqbb0","pricing_plan_id":"cebpf4jnsgd1na2vs0mg"},{"bike_id":"a718cc29-6f54-49e3-862a-351d7a32001f","system_id":"levelo_inurba_marseille","lat":43.28488,"lon":5.484119,"is_reserved":false,"is_disabled":false,"rental_uris":{"android":"levelo://app?vid=a718cc29-6f54-49e3-862a-351d7a32001f","ios":"levelo://app?vid=a718cc29-6f54-49e3-862a-351d7a32001f"},"vehicle_type_id":"4","last_reported":1762524670,"current_range_meters":17200,"station_id":"","pricing_plan_id":"cebpf4jnsgd1na2vs0mg"},{"bike_id":"026711f1-c640-4e28-8a55-fae57096ee2c","system_id":"levelo_inurba_marseille","lat":43.25939,"lon":5.409,"is_reserved":false,"is_disabled":false,"rental_uris":{"android":"levelo://app?vid=026711f1-c640-4e28-8a55-fae57096ee2c","ios":"levelo://app?vid=026711f1-c640-4e28-8a55-fae57096ee2c"},"vehicle_type_id":"4","last_reported":1762524670,"current_range_meters":17200,"station_id":"ce4bhm92rcd13ifvqglg","pricing_plan_id":"cebpf4jnsgd1na2vs0mg"},{"bike_id":"8294fb7c-61b8-46dd-8a0d-07e729b72143","system_id":"levelo_inurba_marseille","lat":43.23151,"lon":5.43711,"is_reserved":false,"is_disabled":false,"rental_uris":{"android":"levelo://app?vid=8294fb7c-61b8-46dd-8a0d-07e729b72143","ios":"levelo://app?vid=8294fb7c-61b8-46dd-8a0d-07e729b72143"},"vehicle_type_id":"4","last_reported":1762524670,"current_range_meters":17200,"station_id":"ce4bhmp2rcd13ifvqgog","pricing_plan_id":"cebpf4jnsgd1na2vs0mg"},{"bike_id":"51ff5fdd-6d7a-4c6d-82f1-53a4b37ae161","system_id":"levelo_inurba_marseille","lat":43.29275,"lon":5.40144,"is_reserved":false,"is_disabled":false,"rental_uris":{"android":"levelo://app?vid=51ff5fdd-6d7a-4c6d-82f1-53a4b37ae161","ios":"levelo://app?vid=51ff5fdd-6d7a-4c6d-82f1-53a4b37ae161"},"vehicle_type_id":"4","last_reported":1762524670,"current_range_meters":17600,"station_id":"ce4bh312rcd13ifvqdk0","pricing_plan_id":"cebpf4jnsgd1na2vs0mg"},{"bike_id":"1cbabf16-3533-47db-b750-87338604e7ba","system_id":"levelo_inurba_marseille","lat":43.30252,"lon":5.40069,"is_reserved":false,"is_disabled":false,"rental_uris":{"android":"levelo://app?vid=1cbabf16-3533-47db-b750-87338604e7ba","ios":"levelo://app?vid=1cbabf16-3533-47db-b750-87338604e7ba"},"vehicle_type_id":"4","last_reported":1762524670,"current_range_meters":17600,"station_id":"ce4bgvh2rcd13ifvqcs0","pricing_plan_id":"cebpf4jnsgd1na2vs0mg"},{"bike_id":"0b789298-ab2b-4177-bc46-b5c7e962856d","system_id":"levelo_inurba_marseille","lat":43.33727,"lon":5.39189,"is_reserved":false,"is_disabled":false,"rental_uris":{"android":"levelo://app?vid=0b789298-ab2b-4177-bc46-b5c7e962856d","ios":"levelo://app?vid=0b789298-ab2b-4177-bc46-b5c7e962856d"},"vehicle_type_id":"4","last_reported":1762524670,"current_range_meters":17600,"station_id":"ce4bhr92rcd13ifvqhsg","pricing_plan_id":"cebpf4jnsgd1na2vs0mg"},{"bike_id":"75d7dc47-dceb-471d-8668-ef13189f4f02","system_id":"levelo_inurba_marseille","lat":43.323324,"lon":5.367219,"is_reserved":false,"is_disabled":false,"rental_uris":{"android":"levelo://app?vid=75d7dc47-dceb-471d-8668-ef13189f4f02","ios":"levelo://app?vid=75d7dc47-dceb-471d-8668-ef13189f4f02"},"vehicle_type_id":"4","last_reported":1762524670,"current_range_meters":17600,"station_id":"ce4bhsh2rcd13ifvqi2g","pricing_plan_id":"cebpf4jnsgd1na2vs0mg"},{"bike_id":"becc05ef-c148-4583-bfb3-696549166a2f","system_id":"levelo_inurba_marseille","lat":43.26949,"lon":5.38633,"is_reserved":false,"is_disabled":false,"rental_uris":{"android":"levelo://app?vid=becc05ef-c148-4583-bfb3-696549166a2f","ios":"levelo://app?vid=becc05ef-c148-4583-bfb3-696549166a2f"},"vehicle_type_id":"4","last_reported":1762524670,"current_range_meters":17600,"station_id":"ce4bhh92rcd13ifvqfh0","pricing_plan_id":"cebpf4jnsgd1na2vs0mg"},{"bike_id":"4da52325-1288-448d-88b3-9e1e5f383137","system_id":"levelo_inurba_marseille","lat":43.23965,"lon":5.36641,"is_reserved":false,"is_disabled":false,"rental_uris":{"android":"levelo://app?vid=4da52325-1288-448d-88b3-9e1e5f383137","ios":"levelo://app?vid=4da52325-1288-448d-88b3-9e1e5f383137"},"vehicle_type_id":"4","last_reported":1762524670,"current_range_meters":17600,"station_id":"ce4bhi12rcd13ifvqfp0","pricing_plan_id":"cebpf4jnsgd1na2vs0mg"},{"bike_id":"6b2f2874-6c02-45c8-a399-eddf5f20fbe8","system_id":"levelo_inurba_marseille","lat":43.298015,"lon":5.380918,"is_reserved":false,"is_disabled":false,"rental_uris":{"android":"levelo://app?vid=6b2f2874-6c02-45c8-a399-eddf5f20fbe8","ios":"levelo://app?vid=6b2f2874-6c02-45c8-a399-eddf5f20fbe8"},"vehicle_type_id":"4","last_reported":1762524670,"current_range_meters":17600,"station_id":"ce4bgip2rcd13ifvqbb0","pricing_plan_id":"cebpf4jnsgd1na2vs0mg"},{"bike_id":"6d50bdc0-5f2c-43b6-bf1d-fa91b1758752","system_id":"levelo_inurba_marseille","lat":43.25919,"lon":5.40921,"is_reserved":false,"is_disabled":false,"rental_uris":{"android":"levelo://app?vid=6d50bdc0-5f2c-43b6-bf1d-fa91b1758752","ios":"levelo://app?vid=6d50bdc0-5f2c-43b6-bf1d-fa91b1758752"},"vehicle_type_id":"4","last_reported":1762524670,"current_range_meters":17600,"station_id":"ce4bhm92rcd13ifvqglg","pricing_plan_id":"cebpf4jnsgd1na2vs0mg"},{"bike_id":"859e0c0f-aa1f-43fe-8c5a-8953e618b51b","system_id":"levelo_inurba_marseille","lat":43.28458,"lon":5.35889,"is_reserved":false,"is_disabled":false,"rental_uris":{"android":"levelo://app?vid=859e0c0f-aa1f-43fe-8c5a-8953e618b51b","ios":"levelo://app?vid=859e0c0f-aa1f-43fe-8c5a-8953e618b51b"},"vehicle_type_id":"4","last_reported":1762524670,"current_range_meters":17600,"station_id":"ce4bhah2rcd13ifvqei0","pricing_plan_id":"cebpf4jnsgd1na2vs0mg"},{"bike_id":"1176fcd6-18d0-4d5b-88d0-78b082d2d63c","system_id":"levelo_inurba_marseille","lat":43.29294,"lon":5.37456,"is_reserved":false,"is_disabled":false,"rental_uris":{"android":"levelo://app?vid=1176fcd6-18d0-4d5b-88d0-78b082d2d63c","ios":"levelo://app?vid=1176fcd6-18d0-4d5b-88d0-78b082d2d63c"},"vehicle_type_id":"4","last_reported":1762524670,"current_range_meters":17600,"station_id":"ce4bgi12rcd13ifvqb70","pricing_plan_id":"cebpf4jnsgd1na2vs0mg"},{"bike_id":"358062f7-33ce-45a4-86ef-84d5667a4369","system_id":"levelo_inurba_marseille","lat":43.29556,"lon":5.39983,"is_reserved":false,"is_disabled":false,"rental_uris":{"android":"levelo://app?vid=358062f7-33ce-45a4-86ef-84d5667a4369","ios":"levelo://app?vid=358062f7-33ce-45a4-86ef-84d5667a4369"},"vehicle_type_id":"4","last_reported":1762524670,"current_range_meters":17600,"station_id":"ce4bh312rcd13ifvqdj0","pricing_plan_id":"cebpf4jnsgd1na2vs0mg"},{"bike_id":"7e2f8f1c-d16c-43c6-b735-214741806923","system_id":"levelo_inurba_marseille","lat":43.273705,"lon":5.362599,"is_reserved":false,"is_disabled":false,"rental_uris":{"android":"levelo://app?vid=7e2f8f1c-d16c-43c6-b735-214741806923","ios":"levelo://app?vid=7e2f8f1c-d16c-43c6-b735-214741806923"},"vehicle_type_id":"4","last_reported":1762524670,"current_range_meters":18000,"station_id":"ce4bhbh2rcd13ifvqeo0","pricing_plan_id":"cebpf4jnsgd1na2vs0mg"},{"bike_id":"5b50fb46-c52f-43c3-8a05-72c857dfc309","system_id":"levelo_inurba_marseille","lat":43.292278,"lon":5.360585,"is_reserved":false,"is_disabled":false,"rental_uris":{"android":"levelo://app?vid=5b50fb46-c52f-43c3-8a05-72c857dfc309","ios":"levelo://app?vid=5b50fb46-c52f-43c3-8a05-72c857dfc309"},"vehicle_type_id":"4","last_reported":1762524670,"current_range_meters":18000,"station_id":"ce4bhbh2rcd13ifvqeqg","pricing_plan_id":"cebpf4jnsgd1na2vs0mg"},{"bike_id":"c448769d-72a1-4a2a-80b2-791ccf525608","system_id":"levelo_inurba_marseille","lat":43.25715,"lon":5.41126,"is_reserved":false,"is_disabled":false,"rental_uris":{"android":"levelo://app?vid=c448769d-72a1-4a2a-80b2-791ccf525608","ios":"levelo://app?vid=c448769d-72a1-4a2a-80b2-791ccf525608"},"vehicle_type_id":"4","last_reported":1762524670,"current_range_meters":18000,"station_id":"ce4bhkp2rcd13ifvqgd0","pricing_plan_id":"cebpf4jnsgd1na2vs0mg"},{"bike_id":"03837dd4-9a35-4463-9134-f815a83c59a4","system_id":"levelo_inurba_marseille","lat":43.3014,"lon":5.37413,"is_reserved":false,"is_disabled":false,"rental_uris":{"android":"levelo://app?vid=03837dd4-9a35-4463-9134-f815a83c59a4","ios":"levelo://app?vid=03837dd4-9a35-4463-9134-f815a83c59a4"},"vehicle_type_id":"4","last_reported":1762524670,"current_range_meters":18000,"station_id":"ce4bgs92rcd13ifvqcc0","pricing_plan_id":"cebpf4jnsgd1na2vs0mg"},{"bike_id":"4267b514-ba5d-4574-adbd-2f1d6552ba83","system_id":"levelo_inurba_marseille","lat":43.29844,"lon":5.36294,"is_reserved":false,"is_disabled":false,"rental_uris":{"android":"levelo://app?vid=4267b514-ba5d-4574-adbd-2f1d6552ba83","ios":"levelo://app?vid=4267b514-ba5d-4574-adbd-2f1d6552ba83"},"vehicle_type_id":"4","last_reported":1762524670,"current_range_meters":18000,"station_id":"ce4bgpp2rcd13ifvqc3g","pricing_plan_id":"cebpf4jnsgd1na2vs0mg"},{"bike_id":"524ec682-9eda-4766-ab30-300116a67d10","system_id":"levelo_inurba_marseille","lat":43.304677,"lon":5.379033,"is_reserved":false,"is_disabled":false,"rental_uris":{"android":"levelo://app?vid=524ec682-9eda-4766-ab30-300116a67d10","ios":"levelo://app?vid=524ec682-9eda-4766-ab30-300116a67d10"},"vehicle_type_id":"4","last_reported":1762524670,"current_range_meters":18000,"station_id":"ce4bgup2rcd13ifvqcn0","pricing_plan_id":"cebpf4jnsgd1na2vs0mg"},{"bike_id":"288d078a-1775-4c75-b6eb-76ffdc66fb34","system_id":"levelo_inurba_marseille","lat":43.28713,"lon":5.37934,"is_reserved":false,"is_disabled":false,"rental_uris":{"android":"levelo://app?vid=288d078a-1775-4c75-b6eb-76ffdc66fb34","ios":"levelo://app?vid=288d078a-1775-4c75-b6eb-76ffdc66fb34"},"vehicle_type_id":"4","last_reported":1762524670,"current_range_meters":18000,"station_id":"ce4bh9p2rcd13ifvqec0","pricing_plan_id":"cebpf4jnsgd1na2vs0mg"},{"bike_id":"c8995931-8a67-4f40-bac5-51856526c586","system_id":"levelo_inurba_marseille","lat":43.23965,"lon":5.36638,"is_reserved":false,"is_disabled":false,"rental_uris":{"android":"levelo://app?vid=c8995931-8a67-4f40-bac5-51856526c586","ios":"levelo://app?vid=c8995931-8a67-4f40-bac5-51856526c586"},"vehicle_type_id":"4","last_reported":1762524670,"current_range_meters":18000,"station_id":"ce4bhi12rcd13ifvqfp0","pricing_plan_id":"cebpf4jnsgd1na2vs0mg"},{"bike_id":"a52e199a-b6c0-46a6-81c2-ed40b23c08f7","system_id":"levelo_inurba_marseille","lat":43.242124,"lon":5.367317,"is_reserved":false,"is_disabled":false,"rental_uris":{"android":"levelo://app?vid=a52e199a-b6c0-46a6-81c2-ed40b23c08f7","ios":"levelo://app?vid=a52e199a-b6c0-46a6-81c2-ed40b23c08f7"},"vehicle_type_id":"4","last_reported":1762524670,"current_range_meters":18000,"station_id":"","pricing_plan_id":"cebpf4jnsgd1na2vs0mg"},{"bike_id":"c508dfa6-c4b6-4cea-a4ec-947e346a8310","system_id":"levelo_inurba_marseille","lat":43.33606,"lon":5.41011,"is_reserved":false,"is_disabled":true,"rental_uris":{"android":"levelo://app?vid=c508dfa6-c4b6-4cea-a4ec-947e346a8310","ios":"levelo://app?vid=c508dfa6-c4b6-4cea-a4ec-947e346a8310"},"vehicle_type_id":"4","last_reported":1762524670,"current_range_meters":18000,"station_id":"ce4bhqh2rcd13ifvqhmg","pricing_plan_id":"cebpf4jnsgd1na2vs0mg"},{"bike_id":"0eb4a793-c64f-4451-b6b0-6adac95d098e","system_id":"levelo_inurba_marseille","lat":43.31324,"lon":5.39694,"is_reserved":false,"is_disabled":false,"rental_uris":{"android":"levelo://app?vid=0eb4a793-c64f-4451-b6b0-6adac95d098e","ios":"levelo://app?vid=0eb4a793-c64f-4451-b6b0-6adac95d098e"},"vehicle_type_id":"4","last_reported":1762524670,"current_range_meters":18000,"station_id":"ce4bgvp2rcd13ifvqcu0","pricing_plan_id":"cebpf4jnsgd1na2vs0mg"},{"bike_id":"5430dbad-1cf4-4aed-b79e-a3de7d44f7f4","system_id":"levelo_inurba_marseille","lat":43.25936,"lon":5.40922,"is_reserved":false,"is_disabled":false,"rental_uris":{"android":"levelo://app?vid=5430dbad-1cf4-4aed-b79e-a3de7d44f7f4","ios":"levelo://app?vid=5430dbad-1cf4-4aed-b79e-a3de7d44f7f4"},"vehicle_type_id":"4","last_reported":1762524670,"current_range_meters":18000,"station_id":"ce4bhm92rcd13ifvqglg","pricing_plan_id":"cebpf4jnsgd1na2vs0mg"},{"bike_id":"9f6ec81b-2246-4666-92ef-add3d889a730","system_id":"levelo_inurba_marseille","lat":43.32323,"lon":5.3852,"is_reserved":false,"is_disabled":false,"rental_uris":{"android":"levelo://app?vid=9f6ec81b-2246-4666-92ef-add3d889a730","ios":"levelo://app?vid=9f6ec81b-2246-4666-92ef-add3d889a730"},"vehicle_type_id":"4","last_reported":1762524670,"current_range_meters":18000,"station_id":"st_d45171o9ee8s73djdqug","pricing_plan_id":"cebpf4jnsgd1na2vs0mg"},{"bike_id":"86eb639d-6e69-45fc-a7c8-87aa321cbed3","system_id":"levelo_inurba_marseille","lat":43.30135,"lon":5.37418,"is_reserved":false,"is_disabled":false,"rental_uris":{"android":"levelo://app?vid=86eb639d-6e69-45fc-a7c8-87aa321cbed3","ios":"levelo://app?vid=86eb639d-6e69-45fc-a7c8-87aa321cbed3"},"vehicle_type_id":"4","last_reported":1762524670,"current_range_meters":18000,"station_id":"ce4bgs92rcd13ifvqcc0","pricing_plan_id":"cebpf4jnsgd1na2vs0mg"},{"bike_id":"74bb8ce2-1ec5-4414-94bf-bc4889d1e14c","system_id":"levelo_inurba_marseille","lat":43.32466,"lon":5.39528,"is_reserved":false,"is_disabled":false,"rental_uris":{"android":"levelo://app?vid=74bb8ce2-1ec5-4414-94bf-bc4889d1e14c","ios":"levelo://app?vid=74bb8ce2-1ec5-4414-94bf-bc4889d1e14c"},"vehicle_type_id":"4","last_reported":1762524670,"current_range_meters":18000,"station_id":"","pricing_plan_id":"cebpf4jnsgd1na2vs0mg"},{"bike_id":"58df984d-f6ad-47ef-818a-7818e887c7c9","system_id":"levelo_inurba_marseille","lat":43.30107,"lon":5.43123,"is_reserved":false,"is_disabled":false,"rental_uris":{"android":"levelo://app?vid=58df984d-f6ad-47ef-818a-7818e887c7c9","ios":"levelo://app?vid=58df984d-f6ad-47ef-818a-7818e887c7c9"},"vehicle_type_id":"4","last_reported":1762524670,"current_range_meters":18800,"station_id":"st_d3js3co5814s73ftftug","pricing_plan_id":"cebpf4jnsgd1na2vs0mg"},{"bike_id":"50d66ef6-eee6-446b-89c0-a013e389d618","system_id":"levelo_inurba_marseille","lat":43.2998,"lon":5.38494,"is_reserved":false,"is_disabled":false,"rental_uris":{"android":"levelo://app?vid=50d66ef6-eee6-446b-89c0-a013e389d618","ios":"levelo://app?vid=50d66ef6-eee6-446b-89c0-a013e389d618"},"vehicle_type_id":"4","last_reported":1762524670,"current_range_meters":18800,"station_id":"ce4bgj92rcd13ifvqbd0","pricing_plan_id":"cebpf4jnsgd1na2vs0mg"},{"bike_id":"e092049f-fa98-4e4f-af8a-c784edacc904","system_id":"levelo_inurba_marseille","lat":43.25569,"lon":5.38256,"is_reserved":false,"is_disabled":false,"rental_uris":{"android":"levelo://app?vid=e092049f-fa98-4e4f-af8a-c784edacc904","ios":"levelo://app?vid=e092049f-fa98-4e4f-af8a-c784edacc904"},"vehicle_type_id":"4","last_reported":1762524670,"current_range_meters":18800,"station_id":"ce4bhih2rcd13ifvqfs0","pricing_plan_id":"cebpf4jnsgd1na2vs0mg"},{"bike_id":"01e19127-993f-431f-ba2a-0c312c9293c3","system_id":"levelo_inurba_marseille","lat":43.31121,"lon":5.37759,"is_reserved":false,"is_disabled":false,"rental_uris":{"android":"levelo://app?vid=01e19127-993f-431f-ba2a-0c312c9293c3","ios":"levelo://app?vid=01e19127-993f-431f-ba2a-0c312c9293c3"},"vehicle_type_id":"4","last_reported":1762524670,"current_range_meters":18800,"station_id":"ce4bgt92rcd13ifvqcg0","pricing_plan_id":"cebpf4jnsgd1na2vs0mg"},{"bike_id":"106efc4b-3629-4c83-a1c4-3f4ee9d12cb6","system_id":"levelo_inurba_marseille","lat":43.30862,"lon":5.37287,"is_reserved":false,"is_disabled":false,"rental_uris":{"android":"levelo://app?vid=106efc4b-3629-4c83-a1c4-3f4ee9d12cb6","ios":"levelo://app?vid=106efc4b-3629-4c83-a1c4-3f4ee9d12cb6"},"vehicle_type_id":"4","last_reported":1762524670,"current_range_meters":18800,"station_id":"","pricing_plan_id":"cebpf4jnsgd1na2vs0mg"},{"bike_id":"51d77b29-5f53-46ec-a314-70229c8d02f2","system_id":"levelo_inurba_marseille","lat":43.30133,"lon":5.38773,"is_reserved":false,"is_disabled":false,"rental_uris":{"android":"levelo://app?vid=51d77b29-5f53-46ec-a314-70229c8d02f2","ios":"levelo://app?vid=51d77b29-5f53-46ec-a314-70229c8d02f2"},"vehicle_type_id":"4","last_reported":1762524670,"current_range_meters":18800,"station_id":"ce4bghh2rcd13ifvqb60","pricing_plan_id":"cebpf4jnsgd1na2vs0mg"},{"bike_id":"528e018f-7e23-4cad-87d7-80d7e67201fb","system_id":"levelo_inurba_marseille","lat":43.28842,"lon":5.39331,"is_reserved":false,"is_disabled":false,"rental_uris":{"android":"levelo://app?vid=528e018f-7e23-4cad-87d7-80d7e67201fb","ios":"levelo://app?vid=528e018f-7e23-4cad-87d7-80d7e67201fb"},"vehicle_type_id":"4","last_reported":1762524670,"current_range_meters":18800,"station_id":"ce4bh2p2rcd13ifvqdi0","pricing_plan_id":"cebpf4jnsgd1na2vs0mg"},{"bike_id":"c104f36c-711b-457d-a589-4c68b559fa84","system_id":"levelo_inurba_marseille","lat":43.30586,"lon":5.37227,"is_reserved":false,"is_disabled":false,"rental_uris":{"android":"levelo://app?vid=c104f36c-711b-457d-a589-4c68b559fa84","ios":"levelo://app?vid=c104f36c-711b-457d-a589-4c68b559fa84"},"vehicle_type_id":"4","last_reported":1762524670,"current_range_meters":18800,"station_id":"ce4bgqh2rcd13ifvqc4g","pricing_plan_id":"cebpf4jnsgd1na2vs0mg"},{"bike_id":"42971e05-5f52-4ddb-be59-802f6451d0de","system_id":"levelo_inurba_marseille","lat":43.23961,"lon":5.36647,"is_reserved":false,"is_disabled":false,"rental_uris":{"android":"levelo://app?vid=42971e05-5f52-4ddb-be59-802f6451d0de","ios":"levelo://app?vid=42971e05-5f52-4ddb-be59-802f6451d0de"},"vehicle_type_id":"4","last_reported":1762524670,"current_range_meters":18800,"station_id":"ce4bhi12rcd13ifvqfp0","pricing_plan_id":"cebpf4jnsgd1na2vs0mg"},{"bike_id":"319af69c-2718-49c9-b8ca-748e2c2258ca","system_id":"levelo_inurba_marseille","lat":43.26796,"lon":5.40259,"is_reserved":false,"is_disabled":false,"rental_uris":{"android":"levelo://app?vid=319af69c-2718-49c9-b8ca-748e2c2258ca","ios":"levelo://app?vid=319af69c-2718-49c9-b8ca-748e2c2258ca"},"vehicle_type_id":"4","last_reported":1762524670,"current_range_meters":19200,"station_id":"ce501612rcd8frsf0b60","pricing_plan_id":"cebpf4jnsgd1na2vs0mg"},{"bike_id":"9cf8ff4a-82e0-480e-b222-a8bd6a8dc4e7","system_id":"levelo_inurba_marseille","lat":43.3093,"lon":5.40147,"is_reserved":false,"is_disabled":false,"rental_uris":{"android":"levelo://app?vid=9cf8ff4a-82e0-480e-b222-a8bd6a8dc4e7","ios":"levelo://app?vid=9cf8ff4a-82e0-480e-b222-a8bd6a8dc4e7"},"vehicle_type_id":"4","last_reported":1762524670,"current_range_meters":19200,"station_id":"ce4bgvp2rcd13ifvqct0","pricing_plan_id":"cebpf4jnsgd1na2vs0mg"},{"bike_id":"878061ad-be07-4023-9441-7225cc46602a","system_id":"levelo_inurba_marseille","lat":43.2928,"lon":5.40146,"is_reserved":false,"is_disabled":false,"rental_uris":{"android":"levelo://app?vid=878061ad-be07-4023-9441-7225cc46602a","ios":"levelo://app?vid=878061ad-be07-4023-9441-7225cc46602a"},"vehicle_type_id":"4","last_reported":1762524670,"current_range_meters":19200,"station_id":"ce4bh312rcd13ifvqdk0","pricing_plan_id":"cebpf4jnsgd1na2vs0mg"},{"bike_id":"adc728c4-7d88-468c-be89-220c19218372","system_id":"levelo_inurba_marseille","lat":43.31594,"lon":5.38357,"is_reserved":false,"is_disabled":false,"rental_uris":{"android":"levelo://app?vid=adc728c4-7d88-468c-be89-220c19218372","ios":"levelo://app?vid=adc728c4-7d88-468c-be89-220c19218372"},"vehicle_type_id":"4","last_reported":1762524670,"current_range_meters":19200,"station_id":"","pricing_plan_id":"cebpf4jnsgd1na2vs0mg"},{"bike_id":"5098c842-5e48-40e2-b457-cc6766f8dfac","system_id":"levelo_inurba_marseille","lat":43.25717,"lon":5.41123,"is_reserved":false,"is_disabled":false,"rental_uris":{"android":"levelo://app?vid=5098c842-5e48-40e2-b457-cc6766f8dfac","ios":"levelo://app?vid=5098c842-5e48-40e2-b457-cc6766f8dfac"},"vehicle_type_id":"4","last_reported":1762524670,"current_range_meters":19200,"station_id":"ce4bhkp2rcd13ifvqgd0","pricing_plan_id":"cebpf4jnsgd1na2vs0mg"},{"bike_id":"a7074784-7394-4575-9b19-f3061e86a019","system_id":"levelo_inurba_marseille","lat":43.25932,"lon":5.40894,"is_reserved":false,"is_disabled":false,"rental_uris":{"android":"levelo://app?vid=a7074784-7394-4575-9b19-f3061e86a019","ios":"levelo://app?vid=a7074784-7394-4575-9b19-f3061e86a019"},"vehicle_type_id":"4","last_reported":1762524670,"current_range_meters":19200,"station_id":"ce4bhm92rcd13ifvqglg","pricing_plan_id":"cebpf4jnsgd1na2vs0mg"},{"bike_id":"8cbdb283-7820-4526-b16a-94db7fdce5f7","system_id":"levelo_inurba_marseille","lat":43.28844,"lon":5.39311,"is_reserved":false,"is_disabled":false,"rental_uris":{"android":"levelo://app?vid=8cbdb283-7820-4526-b16a-94db7fdce5f7","ios":"levelo://app?vid=8cbdb283-7820-4526-b16a-94db7fdce5f7"},"vehicle_type_id":"4","last_reported":1762524670,"current_range_meters":19200,"station_id":"ce4bh2p2rcd13ifvqdi0","pricing_plan_id":"cebpf4jnsgd1na2vs0mg"},{"bike_id":"e2c6f10f-9a39-45e5-b59e-f10053add70c","system_id":"levelo_inurba_marseille","lat":43.34136,"lon":5.40908,"is_reserved":false,"is_disabled":false,"rental_uris":{"android":"levelo://app?vid=e2c6f10f-9a39-45e5-b59e-f10053add70c","ios":"levelo://app?vid=e2c6f10f-9a39-45e5-b59e-f10053add70c"},"vehicle_type_id":"4","last_reported":1762524670,"current_range_meters":19200,"station_id":"ce4bhqh2rcd13ifvqhlg","pricing_plan_id":"cebpf4jnsgd1na2vs0mg"},