{"last_updated":1743610382,"ttl":60,"version":"2.2","data":{"bikes":[{"bike_id":"e18f031d-d90c-40f1-849e-7ddd897e4c25","system_id":"levelo_inurba_marseille","lat":43.2792,"lon":5.39581,"is_reserved":false,"is_disabled":false,"rental_uris":{"android":"levelo://app?vid=e18f031d-d90c-40f1-849e-7ddd897e4c25","ios":"levelo://app?vid=e18f031d-d90c-40f1-849e-7ddd897e4c25"},"vehicle_type_id":"4","last_reported":1743610382,"current_range_meters":2800,"station_id":"ce4bhf92rcd13ifvqf40","pricing_plan_id":"cebpf4jnsgd1na2vs0mg"},{"bike_id":"4733a8e1-975a-4395-ac9b-174cef1d6f64","system_id":"levelo_inurba_marseille","lat":43.29035,"lon":5.35921,"is_reserved":false,"is_disabled":false,"rental_uris":{"android":"levelo://app?vid=4733a8e1-975a-4395-ac9b-174cef1d6f64","ios":"levelo://app?vid=4733a8e1-975a-4395-ac9b-174cef1d6f64"},"vehicle_type_id":"4","last_reported":1743610382,"current_range_meters":2800,"station_id":"ce4bha92rcd13ifvqeg0","pricing_plan_id":"cebpf4jnsgd1na2vs0mg"},{"bike_id":"41edfa05-f109-4443-9d85-9a9c07d3e1a5","system_id":"levelo_inurba_marseille","lat":43.29252,"lon":5.37616,"is_reserved":false,"is_disabled":false,"rental_uris":{"android":"levelo://app?vid=41edfa05-f109-4443-9d85-9a9c07d3e1a5","ios":"levelo://app?vid=41edfa05-f109-4443-9d85-9a9c07d3e1a5"},"vehicle_type_id":"4","last_reported":1743610382,"current_range_meters":2800,"station_id":"ce4bgi12rcd13ifvqb80","pricing_plan_id":"cebpf4jnsgd1na2vs0mg"},{"bike_id":"e4c473ae-4293-4908-9d34-ca7b51f81ac0","system_id":"levelo_inurba_marseille","lat":43.313475,"lon":5.396954,"is_reserved":false,"is_disabled":false,"rental_uris":{"android":"levelo://app?vid=e4c473ae-4293-4908-9d34-ca7b51f81ac0","ios":"levelo://app?vid=e4c473ae-4293-4908-9d34-ca7b51f81ac0"},"vehicle_type_id":"4","last_reported":1743610382,"current_range_meters":2800,"station_id":"ce4bgvp2rcd13ifvqcu0","pricing_plan_id":"cebpf4jnsgd1na2vs0mg"},{"bike_id":"d662608d-504d-43ae-8d4a-6ba237d6c000","system_id":"levelo_inurba_marseille","lat":43.27844,"lon":5.38482,"is_reserved":false,"is_disabled":false,"rental_uris":{"android":"levelo://app?vid=d662608d-504d-43ae-8d4a-6ba237d6c000","ios":"levelo://app?vid=d662608d-504d-43ae-8d4a-6ba237d6c000"},"vehicle_type_id":"4","last_reported":1743610382,"current_range_meters":2800,"station_id":"","pricing_plan_id":"cebpf4jnsgd1na2vs0mg"},{"bike_id":"33fbae15-0fd6-46a9-90bf-8242fcd32483","system_id":"levelo_inurba_marseille","lat":43.31183,"lon":5.38711,"is_reserved":false,"is_disabled":false,"rental_uris":{"android":"levelo://app?vid=33fbae15-0fd6-46a9-90bf-8242fcd32483","ios":"levelo://app?vid=33fbae15-0fd6-46a9-90bf-8242fcd32483"},"vehicle_type_id":"4","last_reported":1743610382,"current_range_meters":2800,"station_id":"ce4bgv12rcd13ifvqcp0","pricing_plan_id":"cebpf4jnsgd1na2vs0mg"},{"bike_id":"d3edc67b-e4a6-4ca4-8c57-2929dfe077aa","system_id":"levelo_inurba_marseille","lat":43.29602,"lon":5.38108,"is_reserved":false,"is_disabled":false,"rental_uris":{"android":"levelo://app?vid=d3edc67b-e4a6-4ca4-8c57-2929dfe077aa","ios":"levelo://app?vid=d3edc67b-e4a6-4ca4-8c57-2929dfe077aa"},"vehicle_type_id":"4","last_reported":1743610382,"current_range_meters":3200,"station_id":"ce4bgl12rcd13ifvqbo0","pricing_plan_id":"cebpf4jnsgd1na2vs0mg"},{"bike_id":"d05e4c5b-dcc7-4d80-9837-9bdcef5812a8","system_id":"levelo_inurba_marseille","lat":43.29986,"lon":5.38505,"is_reserved":false,"is_disabled":false,"rental_uris":{"android":"levelo://app?vid=d05e4c5b-dcc7-4d80-9837-9bdcef5812a8","ios":"levelo://app?vid=d05e4c5b-dcc7-4d80-9837-9bdcef5812a8"},"vehicle_type_id":"4","last_reported":1743610382,"current_range_meters":2800,"station_id":"ce4bgj92rcd13ifvqbd0","pricing_plan_id":"cebpf4jnsgd1na2vs0mg"},{"bike_id":"b27e50e5-5b1f-4fba-a5cb-526148a660ee","system_id":"levelo_inurba_marseille","lat":43.26574,"lon":5.38999,"is_reserved":false,"is_disabled":false,"rental_uris":{"android":"levelo://app?vid=b27e50e5-5b1f-4fba-a5cb-526148a660ee","ios":"levelo://app?vid=b27e50e5-5b1f-4fba-a5cb-526148a660ee"},"vehicle_type_id":"4","last_reported":1743610382,"current_range_meters":3200,"station_id":"ce4bhe12rcd13ifvqf30","pricing_plan_id":"cebpf4jnsgd1na2vs0mg"},{"bike_id":"004a4730-a529-479d-bf7d-142d0531f5d0","system_id":"levelo_inurba_marseille","lat":43.29024,"lon":5.38652,"is_reserved":false,"is_disabled":false,"rental_uris":{"android":"levelo://app?vid=004a4730-a529-479d-bf7d-142d0531f5d0","ios":"levelo://app?vid=004a4730-a529-479d-bf7d-142d0531f5d0"},"vehicle_type_id":"4","last_reported":1743610382,"current_range_meters":3200,"station_id":"ce4bh4p2rcd13ifvqe0g","pricing_plan_id":"cebpf4jnsgd1na2vs0mg"},{"bike_id":"45baae8f-b202-455c-8ce2-457722e79e8c","system_id":"levelo_inurba_marseille","lat":43.27183,"lon":5.4099,"is_reserved":false,"is_disabled":false,"rental_uris":{"android":"levelo://app?vid=45baae8f-b202-455c-8ce2-457722e79e8c","ios":"levelo://app?vid=45baae8f-b202-455c-8ce2-457722e79e8c"},"vehicle_type_id":"4","last_reported":1743610382,"current_range_meters":3200,"station_id":"ce4bhl12rcd13ifvqgf0","pricing_plan_id":"cebpf4jnsgd1na2vs0mg"},{"bike_id":"d42b10c7-8a32-42dc-9440-1fc6a81e994a","system_id":"levelo_inurba_marseille","lat":43.28445,"lon":5.39202,"is_reserved":false,"is_disabled":false,"rental_uris":{"android":"levelo://app?vid=d42b10c7-8a32-42dc-9440-1fc6a81e994a","ios":"levelo://app?vid=d42b10c7-8a32-42dc-9440-1fc6a81e994a"},"vehicle_type_id":"4","last_reported":1743610382,"current_range_meters":3600,"station_id":"","pricing_plan_id":"cebpf4jnsgd1na2vs0mg"},{"bike_id":"1b139b57-015c-4243-83e9-a4288b11763a","system_id":"levelo_inurba_marseille","lat":43.27057,"lon":5.40264,"is_reserved":false,"is_disabled":false,"rental_uris":{"android":"levelo://app?vid=1b139b57-015c-4243-83e9-a4288b11763a","ios":"levelo://app?vid=1b139b57-015c-4243-83e9-a4288b11763a"},"vehicle_type_id":"4","last_reported":1743610382,"current_range_meters":3600,"station_id":"ce4bhk92rcd13ifvqgc0","pricing_plan_id":"cebpf4jnsgd1na2vs0mg"},{"bike_id":"ab3037dc-9152-48ba-aa05-bc477f0db6d8","system_id":"levelo_inurba_marseille","lat":43.2926,"lon":5.38431,"is_reserved":false,"is_disabled":false,"rental_uris":{"android":"levelo://app?vid=ab3037dc-9152-48ba-aa05-bc477f0db6d8","ios":"levelo://app?vid=ab3037dc-9152-48ba-aa05-bc477f0db6d8"},"vehicle_type_id":"4","last_reported":1743610382,"current_range_meters":3600,"station_id":"ce4bh692rcd13ifvqea0","pricing_plan_id":"cebpf4jnsgd1na2vs0mg"},{"bike_id":"5e6c3a84-834c-4d83-a2d3-580b827057a1","system_id":"levelo_inurba_marseille","lat":43.23172,"lon":5.43723,"is_reserved":false,"is_disabled":false,"rental_uris":{"android":"levelo://app?vid=5e6c3a84-834c-4d83-a2d3-580b827057a1","ios":"levelo://app?vid=5e6c3a84-834c-4d83-a2d3-580b827057a1"},"vehicle_type_id":"4","last_reported":1743610382,"current_range_meters":3600,"station_id":"ce4bhmp2rcd13ifvqgog","pricing_plan_id":"cebpf4jnsgd1na2vs0mg"},{"bike_id":"fa7876d0-e5b2-4ce6-9cbc-68f925a4f67e","system_id":"levelo_inurba_marseille","lat":43.28704,"lon":5.37392,"is_reserved":false,"is_disabled":false,"rental_uris":{"android":"levelo://app?vid=fa7876d0-e5b2-4ce6-9cbc-68f925a4f67e","ios":"levelo://app?vid=fa7876d0-e5b2-4ce6-9cbc-68f925a4f67e"},"vehicle_type_id":"4","last_reported":1743610382,"current_range_meters":4000,"station_id":"ce4bh3p2rcd13ifvqdq0","pricing_plan_id":"cebpf4jnsgd1na2vs0mg"},{"bike_id":"2699cba0-b825-47d1-bbb3-c0d09ca934b5","system_id":"levelo_inurba_marseille","lat":43.26793,"lon":5.39412,"is_reserved":false,"is_disabled":false,"rental_uris":{"android":"levelo://app?vid=2699cba0-b825-47d1-bbb3-c0d09ca934b5","ios":"levelo://app?vid=2699cba0-b825-47d1-bbb3-c0d09ca934b5"},"vehicle_type_id":"4","last_reported":1743610382,"current_range_meters":3600,"station_id":"ce4bhh12rcd13ifvqfg0","pricing_plan_id":"cebpf4jnsgd1na2vs0mg"},{"bike_id":"34849f75-9198-46ea-bd74-b4052db61fff","system_id":"levelo_inurba_marseille","lat":43.30372,"lon":5.37366,"is_reserved":false,"is_disabled":false,"rental_uris":{"android":"levelo://app?vid=34849f75-9198-46ea-bd74-b4052db61fff","ios":"levelo://app?vid=34849f75-9198-46ea-bd74-b4052db61fff"},"vehicle_type_id":"4","last_reported":1743610382,"current_range_meters":4400,"station_id":"ce4bguh2rcd13ifvqckg","pricing_plan_id":"cebpf4jnsgd1na2vs0mg"},{"bike_id":"83051876-392c-4972-a29c-5d2a7942b357","system_id":"levelo_inurba_marseille","lat":43.2582,"lon":5.39438,"is_reserved":false,"is_disabled":false,"rental_uris":{"android":"levelo://app?vid=83051876-392c-4972-a29c-5d2a7942b357","ios":"levelo://app?vid=83051876-392c-4972-a29c-5d2a7942b357"},"vehicle_type_id":"4","last_reported":1743610382,"current_range_meters":3600,"station_id":"ce4bhip2rcd13ifvqft0","pricing_plan_id":"cebpf4jnsgd1na2vs0mg"},{"bike_id":"e44ec657-226a-4cb6-83d2-32bc4c061ec1","system_id":"levelo_inurba_marseille","lat":43.30893,"lon":5.37193,"is_reserved":false,"is_disabled":false,"rental_uris":{"android":"levelo://app?vid=e44ec657-226a-4cb6-83d2-32bc4c061ec1","ios":"levelo://app?vid=e44ec657-226a-4cb6-83d2-32bc4c061ec1"},"vehicle_type_id":"4","last_reported":1743610382,"current_range_meters":4000,"station_id":"ce4bguh2rcd13ifvqckg","pricing_plan_id":"cebpf4jnsgd1na2vs0mg"},{"bike_id":"3e9db136-1a24-4497-b58a-6f092c4338d4","system_id":"levelo_inurba_marseille","lat":43.312877,"lon":5.405052,"is_reserved":false,"is_disabled":false,"rental_uris":{"android":"levelo://app?vid=3e9db136-1a24-4497-b58a-6f092c4338d4","ios":"levelo://app?vid=3e9db136-1a24-4497-b58a-6f092c4338d4"},"vehicle_type_id":"4","last_reported":1743610382,"current_range_meters":4400,"station_id":"ce4bh012rcd13ifvqd00","pricing_plan_id":"cebpf4jnsgd1na2vs0mg"},{"bike_id":"d10bd936-2fca-4607-82d0-6e154162cbfd","system_id":"levelo_inurba_marseille","lat":43.30898,"lon":5.3965,"is_reserved":false,"is_disabled":true,"rental_uris":{"android":"levelo://app?vid=d10bd936-2fca-4607-82d0-6e154162cbfd","ios":"levelo://app?vid=d10bd936-2fca-4607-82d0-6e154162cbfd"},"vehicle_type_id":"4","last_reported":1743610382,"current_range_meters":4400,"station_id":"ce4bh012rcd13ifvqcv0","pricing_plan_id":"cebpf4jnsgd1na2vs0mg"},{"bike_id":"a8cf3f92-8f7a-4cb3-90d8-ee02badcd426","system_id":"levelo_inurba_marseille","lat":43.2319,"lon":5.39999,"is_reserved":false,"is_disabled":false,"rental_uris":{"android":"levelo://app?vid=a8cf3f92-8f7a-4cb3-90d8-ee02badcd426","ios":"levelo://app?vid=a8cf3f92-8f7a-4cb3-90d8-ee02badcd426"},"vehicle_type_id":"4","last_reported":1743610382,"current_range_meters":4800,"station_id":"ce4bhn12rcd13ifvqgqg","pricing_plan_id":"cebpf4jnsgd1na2vs0mg"},{"bike_id":"26affcb0-c477-4e74-b76f-7c4c35f59dd0","system_id":"levelo_inurba_marseille","lat":43.29721,"lon":5.37688,"is_reserved":false,"is_disabled":false,"rental_uris":{"android":"levelo://app?vid=26affcb0-c477-4e74-b76f-7c4c35f59dd0","ios":"levelo://app?vid=26affcb0-c477-4e74-b76f-7c4c35f59dd0"},"vehicle_type_id":"4","last_reported":1743610382,"current_range_meters":4400,"station_id":"ce4bgkh2rcd13ifvqbl0","pricing_plan_id":"cebpf4jnsgd1na2vs0mg"},{"bike_id":"a0d61601-5868-4862-9cc7-feb22e24e97e","system_id":"levelo_inurba_marseille","lat":43.29004,"lon":5.35608,"is_reserved":false,"is_disabled":false,"rental_uris":{"android":"levelo://app?vid=a0d61601-5868-4862-9cc7-feb22e24e97e","ios":"levelo://app?vid=a0d61601-5868-4862-9cc7-feb22e24e97e"},"vehicle_type_id":"4","last_reported":1743610382,"current_range_meters":4400,"station_id":"ce4bhb92rcd13ifvqen0","pricing_plan_id":"cebpf4jnsgd1na2vs0mg"},{"bike_id":"89859de9-1fb2-457d-a828-4d5cedc9fba3","system_id":"levelo_inurba_marseille","lat":43.28703,"lon":5.37931,"is_reserved":false,"is_disabled":false,"rental_uris":{"android":"levelo://app?vid=89859de9-1fb2-457d-a828-4d5cedc9fba3","ios":"levelo://app?vid=89859de9-1fb2-457d-a828-4d5cedc9fba3"},"vehicle_type_id":"4","last_reported":1743610382,"current_range_meters":4400,"station_id":"ce4bh9p2rcd13ifvqec0","pricing_plan_id":"cebpf4jnsgd1na2vs0mg"},{"bike_id":"cfe6d173-476a-4db5-94f2-713dde6981df","system_id":"levelo_inurba_marseille","lat":43.31537,"lon":5.38019,"is_reserved":false,"is_disabled":false,"rental_uris":{"android":"levelo://app?vid=cfe6d173-476a-4db5-94f2-713dde6981df","ios":"levelo://app?vid=cfe6d173-476a-4db5-94f2-713dde6981df"},"vehicle_type_id":"4","last_reported":1743610382,"current_range_meters":4400,"station_id":"ce4bhsp2rcd13ifvqi50","pricing_plan_id":"cebpf4jnsgd1na2vs0mg"},{"bike_id":"829aafc7-592d-4beb-8b90-a4d8151323aa","system_id":"levelo_inurba_marseille","lat":43.29182,"lon":5.37155,"is_reserved":false,"is_disabled":false,"rental_uris":{"android":"levelo://app?vid=829aafc7-592d-4beb-8b90-a4d8151323aa","ios":"levelo://app?vid=829aafc7-592d-4beb-8b90-a4d8151323aa"},"vehicle_type_id":"4","last_reported":1743610382,"current_range_meters":4800,"station_id":"ce4bha92rcd13ifvqeh0","pricing_plan_id":"cebpf4jnsgd1na2vs0mg"},{"bike_id":"cae17c09-90e8-45c7-82be-af8a02bc4422","system_id":"levelo_inurba_marseille","lat":43.28358,"lon":5.38632,"is_reserved":false,"is_disabled":false,"rental_uris":{"android":"levelo://app?vid=cae17c09-90e8-45c7-82be-af8a02bc4422","ios":"levelo://app?vid=cae17c09-90e8-45c7-82be-af8a02bc4422"},"vehicle_type_id":"4","last_reported":1743610382,"current_range_meters":4800,"station_id":"ce4bh492rcd13ifvqdvg","pricing_plan_id":"cebpf4jnsgd1na2vs0mg"},{"bike_id":"7549bd43-15b2-4001-a4c7-d590c7fffdef","system_id":"levelo_inurba_marseille","lat":43.32117,"lon":5.36792,"is_reserved":false,"is_disabled":false,"rental_uris":{"android":"levelo://app?vid=7549bd43-15b2-4001-a4c7-d590c7fffdef","ios":"levelo://app?vid=7549bd43-15b2-4001-a4c7-d590c7fffdef"},"vehicle_type_id":"4","last_reported":1743610382,"current_range_meters":4800,"station_id":"ce4bhrh2rcd13ifvqhug","pricing_plan_id":"cebpf4jnsgd1na2vs0mg"},{"bike_id":"eb1c71b5-263d-490c-b1dd-869dd72f6146","system_id":"levelo_inurba_marseille","lat":43.27967,"lon":5.3872,"is_reserved":false,"is_disabled":false,"rental_uris":{"android":"levelo://app?vid=eb1c71b5-263d-490c-b1dd-869dd72f6146","ios":"levelo://app?vid=eb1c71b5-263d-490c-b1dd-869dd72f6146"},"vehicle_type_id":"4","last_reported":1743610382,"current_range_meters":4800,"station_id":"ce4bhg12rcd13ifvqf80","pricing_plan_id":"cebpf4jnsgd1na2vs0mg"},{"bike_id":"718de5db-e0ea-42e2-af01-d5e9f6c817a2","system_id":"levelo_inurba_marseille","lat":43.29898,"lon":5.43668,"is_reserved":false,"is_disabled":false,"rental_uris":{"android":"levelo://app?vid=718de5db-e0ea-42e2-af01-d5e9f6c817a2","ios":"levelo://app?vid=718de5db-e0ea-42e2-af01-d5e9f6c817a2"},"vehicle_type_id":"4","last_reported":1743610382,"current_range_meters":4800,"station_id":"ce4bhpp2rcd13ifvqhfg","pricing_plan_id":"cebpf4jnsgd1na2vs0mg"},{"bike_id":"fa44952a-a68a-4e74-a4b2-d45228ed802c","system_id":"levelo_inurba_marseille","lat":43.29249,"lon":5.40902,"is_reserved":false,"is_disabled":false,"rental_uris":{"android":"levelo://app?vid=fa44952a-a68a-4e74-a4b2-d45228ed802c","ios":"levelo://app?vid=fa44952a-a68a-4e74-a4b2-d45228ed802c"},"vehicle_type_id":"4","last_reported":1743610382,"current_range_meters":4800,"station_id":"ce4bh192rcd13ifvqdc0","pricing_plan_id":"cebpf4jnsgd1na2vs0mg"},{"bike_id":"7af73d17-a44d-4cfc-ad94-bf622c43392a","system_id":"levelo_inurba_marseille","lat":43.28471,"lon":5.35915,"is_reserved":false,"is_disabled":false,"rental_uris":{"android":"levelo://app?vid=7af73d17-a44d-4cfc-ad94-bf622c43392a","ios":"levelo://app?vid=7af73d17-a44d-4cfc-ad94-bf622c43392a"},"vehicle_type_id":"4","last_reported":1743610382,"current_range_meters":4800,"station_id":"ce4bhah2rcd13ifvqei0","pricing_plan_id":"cebpf4jnsgd1na2vs0mg"},{"bike_id":"f53d98b0-5dde-4a02-a89d-a79c748915fa","system_id":"levelo_inurba_marseille","lat":43.30913,"lon":5.40034,"is_reserved":false,"is_disabled":false,"rental_uris":{"android":"levelo://app?vid=f53d98b0-5dde-4a02-a89d-a79c748915fa","ios":"levelo://app?vid=f53d98b0-5dde-4a02-a89d-a79c748915fa"},"vehicle_type_id":"4","last_reported":1743610382,"current_range_meters":5600,"station_id":"","pricing_plan_id":"cebpf4jnsgd1na2vs0mg"},{"bike_id":"23bc084d-7c4f-4959-a1e1-2ef770283134","system_id":"levelo_inurba_marseille","lat":43.29375,"lon":5.37862,"is_reserved":false,"is_disabled":false,"rental_uris":{"android":"levelo://app?vid=23bc084d-7c4f-4959-a1e1-2ef770283134","ios":"levelo://app?vid=23bc084d-7c4f-4959-a1e1-2ef770283134"},"vehicle_type_id":"4","last_reported":1743610382,"current_range_meters":5600,"station_id":"ce4bgjh2rcd13ifvqbf0","pricing_plan_id":"cebpf4jnsgd1na2vs0mg"},{"bike_id":"1167d76f-0701-42ca-9566-e6b8288b4501","system_id":"levelo_inurba_marseille","lat":43.28274,"lon":5.37857,"is_reserved":false,"is_disabled":false,"rental_uris":{"android":"levelo://app?vid=1167d76f-0701-42ca-9566-e6b8288b4501","ios":"levelo://app?vid=1167d76f-0701-42ca-9566-e6b8288b4501"},"vehicle_type_id":"4","last_reported":1743610382,"current_range_meters":5600,"station_id":"","pricing_plan_id":"cebpf4jnsgd1na2vs0mg"},{"bike_id":"12f59c4d-118b-4ac0-af8d-32aadc21e2bf","system_id":"levelo_inurba_marseille","lat":43.26562,"lon":5.39011,"is_reserved":false,"is_disabled":false,"rental_uris":{"android":"levelo://app?vid=12f59c4d-118b-4ac0-af8d-32aadc21e2bf","ios":"levelo://app?vid=12f59c4d-118b-4ac0-af8d-32aadc21e2bf"},"vehicle_type_id":"4","last_reported":1743610382,"current_range_meters":5600,"station_id":"ce4bhe12rcd13ifvqf30","pricing_plan_id":"cebpf4jnsgd1na2vs0mg"},{"bike_id":"ad1a76f6-e3d1-471d-abbd-9de8fbfc538a","system_id":"levelo_inurba_marseille","lat":43.2862,"lon":5.35103,"is_reserved":false,"is_disabled":false,"rental_uris":{"android":"levelo://app?vid=ad1a76f6-e3d1-471d-abbd-9de8fbfc538a","ios":"levelo://app?vid=ad1a76f6-e3d1-471d-abbd-9de8fbfc538a"},"vehicle_type_id":"4","last_reported":1743610382,"current_range_meters":5600,"station_id":"ce4bhch2rcd13ifvqeug","pricing_plan_id":"cebpf4jnsgd1na2vs0mg"},{"bike_id":"a8785ee4-2a3e-4823-aa19-51c304158e5f","system_id":"levelo_inurba_marseille","lat":43.26943,"lon":5.40255,"is_reserved":false,"is_disabled":false,"rental_uris":{"android":"levelo://app?vid=a8785ee4-2a3e-4823-aa19-51c304158e5f","ios":"levelo://app?vid=a8785ee4-2a3e-4823-aa19-51c304158e5f"},"vehicle_type_id":"4","last_reported":1743610382,"current_range_meters":4800,"station_id":"cjm6bp8fraef2m0cb0m0","pricing_plan_id":"cebpf4jnsgd1na2vs0mg"},{"bike_id":"c6c438e8-d3ab-4770-968b-7a1a93e8a8c6","system_id":"levelo_inurba_marseille","lat":43.28925,"lon":5.45878,"is_reserved":false,"is_disabled":false,"rental_uris":{"android":"levelo://app?vid=c6c438e8-d3ab-4770-968b-7a1a93e8a8c6","ios":"levelo://app?vid=c6c438e8-d3ab-4770-968b-7a1a93e8a8c6"},"vehicle_type_id":"4","last_reported":1743610382,"current_range_meters":5600,"station_id":"","pricing_plan_id":"cebpf4jnsgd1na2vs0mg"},{"bike_id":"8248db08-6400-48c0-8f53-3979ba0c9b9e","system_id":"levelo_inurba_marseille","lat":43.32478,"lon":5.36567,"is_reserved":false,"is_disabled":false,"rental_uris":{"android":"levelo://app?vid=8248db08-6400-48c0-8f53-3979ba0c9b9e","ios":"levelo://app?vid=8248db08-6400-48c0-8f53-3979ba0c9b9e"},"vehicle_type_id":"4","last_reported":1743610382,"current_range_meters":6000,"station_id":"ce4bhs12rcd13ifvqhvg","pricing_plan_id":"cebpf4jnsgd1na2vs0mg"},{"bike_id":"b9faf9db-06ac-46f0-bf6e-53c0f5c3cc14","system_id":"levelo_inurba_marseille","lat":43.307892,"lon":5.37641,"is_reserved":false,"is_disabled":false,"rental_uris":{"android":"levelo://app?vid=b9faf9db-06ac-46f0-bf6e-53c0f5c3cc14","ios":"levelo://app?vid=b9faf9db-06ac-46f0-bf6e-53c0f5c3cc14"},"vehicle_type_id":"4","last_reported":1743610382,"current_range_meters":6000,"station_id":"ce4bgv92rcd13ifvqcq0","pricing_plan_id":"cebpf4jnsgd1na2vs0mg"},{"bike_id":"1f343117-30dc-4652-8fb0-4c08932f029e","system_id":"levelo_inurba_marseille","lat":43.29521,"lon":5.39043,"is_reserved":false,"is_disabled":false,"rental_uris":{"android":"levelo://app?vid=1f343117-30dc-4652-8fb0-4c08932f029e","ios":"levelo://app?vid=1f343117-30dc-4652-8fb0-4c08932f029e"},"vehicle_type_id":"4","last_reported":1743610382,"current_range_meters":6000,"station_id":"ce4bh3p2rcd13ifvqdp0","pricing_plan_id":"cebpf4jnsgd1na2vs0mg"},{"bike_id":"46e5321f-1f0e-476d-9557-3a470246f9d4","system_id":"levelo_inurba_marseille","lat":43.2317,"lon":5.43727,"is_reserved":false,"is_disabled":false,"rental_uris":{"android":"levelo://app?vid=46e5321f-1f0e-476d-9557-3a470246f9d4","ios":"levelo://app?vid=46e5321f-1f0e-476d-9557-3a470246f9d4"},"vehicle_type_id":"4","last_reported":1743610382,"current_range_meters":6000,"station_id":"ce4bhmp2rcd13ifvqgog","pricing_plan_id":"cebpf4jnsgd1na2vs0mg"},{"bike_id":"fe34b021-d784-4c87-a5fa-44c177c6bc65","system_id":"levelo_inurba_marseille","lat":43.297899,"lon":5.372731,"is_reserved":false,"is_disabled":false,"rental_uris":{"android":"levelo://app?vid=fe34b021-d784-4c87-a5fa-44c177c6bc65","ios":"levelo://app?vid=fe34b021-d784-4c87-a5fa-44c177c6bc65"},"vehicle_type_id":"4","last_reported":1743610382,"current_range_meters":6000,"station_id":"ce4bh8p2rcd13ifvqeb0","pricing_plan_id":"cebpf4jnsgd1na2vs0mg"},{"bike_id":"f6f33e74-afa9-4bfa-91c5-f057b32d80da","system_id":"levelo_inurba_marseille","lat":43.279214,"lon":5.407651,"is_reserved":false,"is_disabled":false,"rental_uris":{"android":"levelo://app?vid=f6f33e74-afa9-4bfa-91c5-f057b32d80da","ios":"levelo://app?vid=f6f33e74-afa9-4bfa-91c5-f057b32d80da"},"vehicle_type_id":"4","last_reported":1743610382,"current_range_meters":5600,"station_id":"ce4bgjp2rcd13ifvqbh0","pricing_plan_id":"cebpf4jnsgd1na2vs0mg"},{"bike_id":"09fd1c55-3d62-4b9c-97ca-0dcabb20d4e1","system_id":"levelo_inurba_marseille","lat":43.30872,"lon":5.37192,"is_reserved":false,"is_disabled":false,"rental_uris":{"android":"levelo://app?vid=09fd1c55-3d62-4b9c-97ca-0dcabb20d4e1","ios":"levelo://app?vid=09fd1c55-3d62-4b9c-97ca-0dcabb20d4e1"},"vehicle_type_id":"4","last_reported":1743610382,"current_range_meters":6400,"station_id":"ce4bguh2rcd13ifvqckg","pricing_plan_id":"cebpf4jnsgd1na2vs0mg"},{"bike_id":"7f06f746-c8e0-429c-b9e1-b69ae6da62d3","system_id":"levelo_inurba_marseille","lat":43.26032,"lon":5.37553,"is_reserved":false,"is_disabled":false,"rental_uris":{"android":"levelo://app?vid=7f06f746-c8e0-429c-b9e1-b69ae6da62d3","ios":"levelo://app?vid=7f06f746-c8e0-429c-b9e1-b69ae6da62d3"},"vehicle_type_id":"4","last_reported":1743610382,"current_range_meters":6400,"station_id":"ce4bhgh2rcd13ifvqfa0","pricing_plan_id":"cebpf4jnsgd1na2vs0mg"},{"bike_id":"5ef6b633-cf2f-42de-995a-43dea0a55a29","system_id":"levelo_inurba_marseille","lat":43.321,"lon":5.36795,"is_reserved":false,"is_disabled":false,"rental_uris":{"android":"levelo://app?vid=5ef6b633-cf2f-42de-995a-43dea0a55a29","ios":"levelo://app?vid=5ef6b633-cf2f-42de-995a-43dea0a55a29"},"vehicle_type_id":"4","last_reported":1743610382,"current_range_meters":6400,"station_id":"ce4bhrh2rcd13ifvqhug","pricing_plan_id":"cebpf4jnsgd1na2vs0mg"},{"bike_id":"eb35eab7-e28e-4069-ae80-3d717f0ed3ba","system_id":"levelo_inurba_marseille","lat":43.27061,"lon":5.40258,"is_reserved":false,"is_disabled":false,"rental_uris":{"android":"levelo://app?vid=eb35eab7-e28e-4069-ae80-3d717f0ed3ba","ios":"levelo://app?vid=eb35eab7-e28e-4069-ae80-3d717f0ed3ba"},"vehicle_type_id":"4","last_reported":1743610382,"current_range_meters":6400,"station_id":"ce4bhk92rcd13ifvqgc0","pricing_plan_id":"cebpf4jnsgd1na2vs0mg"},{"bike_id":"624f0e15-0938-44f0-89ec-2f7adcb69b3f","system_id":"levelo_inurba_marseille","lat":43.27974,"lon":5.38743,"is_reserved":false,"is_disabled":false,"rental_uris":{"android":"levelo://app?vid=624f0e15-0938-44f0-89ec-2f7adcb69b3f","ios":"levelo://app?vid=624f0e15-0938-44f0-89ec-2f7adcb69b3f"},"vehicle_type_id":"4","last_reported":1743610382,"current_range_meters":6400,"station_id":"ce4bhg12rcd13ifvqf80","pricing_plan_id":"cebpf4jnsgd1na2vs0mg"},{"bike_id":"0a8d07dd-db7d-4bd3-9059-559cb936ec18","system_id":"levelo_inurba_marseille","lat":43.33128,"lon":5.39233,"is_reserved":false,"is_disabled":false,"rental_uris":{"android":"levelo://app?vid=0a8d07dd-db7d-4bd3-9059-559cb936ec18","ios":"levelo://app?vid=0a8d07dd-db7d-4bd3-9059-559cb936ec18"},"vehicle_type_id":"4","last_reported":1743610382,"current_range_meters":6400,"station_id":"","pricing_plan_id":"cebpf4jnsgd1na2vs0mg"},{"bike_id":"abe06724-fdcc-4bc3-a5a4-8e65c2c071ae","system_id":"levelo_inurba_marseille","lat":43.30537,"lon":5.38416,"is_reserved":false,"is_disabled":false,"rental_uris":{"android":"levelo://app?vid=abe06724-fdcc-4bc3-a5a4-8e65c2c071ae","ios":"levelo://app?vid=abe06724-fdcc-4bc3-a5a4-8e65c2c071ae"},"vehicle_type_id":"4","last_reported":1743610382,"current_range_meters":6000,"station_id":"ce4bgg92rcd13ifvqb30","pricing_plan_id":"cebpf4jnsgd1na2vs0mg"},{"bike_id":"e47bc61d-df2d-41b3-b26b-dd94e6e5e301","system_id":"levelo_inurba_marseille","lat":43.26241,"lon":5.42122,"is_reserved":false,"is_disabled":false,"rental_uris":{"android":"levelo://app?vid=e47bc61d-df2d-41b3-b26b-dd94e6e5e301","ios":"levelo://app?vid=e47bc61d-df2d-41b3-b26b-dd94e6e5e301"},"vehicle_type_id":"4","last_reported":1743610382,"current_range_meters":6400,"station_id":"","pricing_plan_id":"cebpf4jnsgd1na2vs0mg"},{"bike_id":"30214c7b-651f-4503-af55-5f4c85b5cd00","system_id":"levelo_inurba_marseille","lat":43.26061,"lon":5.39394,"is_reserved":false,"is_disabled":false,"rental_uris":{"android":"levelo://app?vid=30214c7b-651f-4503-af55-5f4c85b5cd00","ios":"levelo://app?vid=30214c7b-651f-4503-af55-5f4c85b5cd00"},"vehicle_type_id":"4","last_reported":1743610382,"current_range_meters":6400,"station_id":"ce4bhh92rcd13ifvqfj0","pricing_plan_id":"cebpf4jnsgd1na2vs0mg"},{"bike_id":"31c8f7b1-fcc6-4e3a-b624-e873edd23b98","system_id":"levelo_inurba_marseille","lat":43.29158,"lon":5.37157,"is_reserved":false,"is_disabled":false,"rental_uris":{"android":"levelo://app?vid=31c8f7b1-fcc6-4e3a-b624-e873edd23b98","ios":"levelo://app?vid=31c8f7b1-fcc6-4e3a-b624-e873edd23b98"},"vehicle_type_id":"4","last_reported":1743610382,"current_range_meters":6400,"station_id":"ce4bha92rcd13ifvqeh0","pricing_plan_id":"cebpf4jnsgd1na2vs0mg"},{"bike_id":"e09cba19-0f48-4937-bcab-0c2c893bb9bb","system_id":"levelo_inurba_marseille","lat":43.30601,"lon":5.37229,"is_reserved":false,"is_disabled":false,"rental_uris":{"android":"levelo://app?vid=e09cba19-0f48-4937-bcab-0c2c893bb9bb","ios":"levelo://app?vid=e09cba19-0f48-4937-bcab-0c2c893bb9bb"},"vehicle_type_id":"4","last_reported":1743610382,"current_range_meters":6400,"station_id":"ce4bgqh2rcd13ifvqc4g","pricing_plan_id":"cebpf4jnsgd1na2vs0mg"},{"bike_id":"66a6759f-f104-404f-ba35-7dd5d87e6d0b","system_id":"levelo_inurba_marseille","lat":43.30147,"lon":5.37681,"is_reserved":false,"is_disabled":false,"rental_uris":{"android":"levelo://app?vid=66a6759f-f104-404f-ba35-7dd5d87e6d0b","ios":"levelo://app?vid=66a6759f-f104-404f-ba35-7dd5d87e6d0b"},"vehicle_type_id":"4","last_reported":1743610382,"current_range_meters":6400,"station_id":"","pricing_plan_id":"cebpf4jnsgd1na2vs0mg"},{"bike_id":"c4829699-6ebe-4fee-bb96-3fdf071825cb","system_id":"levelo_inurba_marseille","lat":43.29007,"lon":5.35604,"is_reserved":false,"is_disabled":false,"rental_uris":{"android":"levelo://app?vid=c4829699-6ebe-4fee-bb96-3fdf071825cb","ios":"levelo://app?vid=c4829699-6ebe-4fee-bb96-3fdf071825cb"},"vehicle_type_id":"4","last_reported":1743610382,"current_range_meters":6800,"station_id":"ce4bhb92rcd13ifvqen0","pricing_plan_id":"cebpf4jnsgd1na2vs0mg"},{"bike_id":"fdd74cea-2420-4f5e-97f2-a48b67190c4e","system_id":"levelo_inurba_marseille","lat":43.337444,"lon":5.374475,"is_reserved":false,"is_disabled":false,"rental_uris":{"android":"levelo://app?vid=fdd74cea-2420-4f5e-97f2-a48b67190c4e","ios":"levelo://app?vid=fdd74cea-2420-4f5e-97f2-a48b67190c4e"},"vehicle_type_id":"4","last_reported":1743610382,"current_range_meters":6800,"station_id":"","pricing_plan_id":"cebpf4jnsgd1na2vs0mg"},{"bike_id":"4f1fb305-fdac-49af-98f8-e5ebaa4429a4","system_id":"levelo_inurba_marseille","lat":43.22939,"lon":5.35377,"is_reserved":false,"is_disabled":false,"rental_uris":{"android":"levelo://app?vid=4f1fb305-fdac-49af-98f8-e5ebaa4429a4","ios":"levelo://app?vid=4f1fb305-fdac-49af-98f8-e5ebaa4429a4"},"vehicle_type_id":"4","last_reported":1743610382,"current_range_meters":6800,"station_id":"cpo3532slgdg3j2ikp40","pricing_plan_id":"cebpf4jnsgd1na2vs0mg"},{"bike_id":"55d071cc-a0f3-4eaa-9951-c403081674dc","system_id":"levelo_inurba_marseille","lat":43.25581,"lon":5.38247,"is_reserved":false,"is_disabled":false,"rental_uris":{"android":"levelo://app?vid=55d071cc-a0f3-4eaa-9951-c403081674dc","ios":"levelo://app?vid=55d071cc-a0f3-4eaa-9951-c403081674dc"},"vehicle_type_id":"4","last_reported":1743610382,"current_range_meters":6800,"station_id":"ce4bhih2rcd13ifvqfs0","pricing_plan_id":"cebpf4jnsgd1na2vs0mg"},{"bike_id":"7bdf0d60-3026-4723-ac07-ebb25b9cf79f","system_id":"levelo_inurba_marseille","lat":43.28799,"lon":5.38686,"is_reserved":false,"is_disabled":false,"rental_uris":{"android":"levelo://app?vid=7bdf0d60-3026-4723-ac07-ebb25b9cf79f","ios":"levelo://app?vid=7bdf0d60-3026-4723-ac07-ebb25b9cf79f"},"vehicle_type_id":"4","last_reported":1743610382,"current_range_meters":6800,"station_id":"","pricing_plan_id":"cebpf4jnsgd1na2vs0mg"},{"bike_id":"14002097-43aa-40b4-9127-34429fcd091e","system_id":"levelo_inurba_marseille","lat":43.255,"lon":5.37649,"is_reserved":false,"is_disabled":false,"rental_uris":{"android":"levelo://app?vid=14002097-43aa-40b4-9127-34429fcd091e","ios":"levelo://app?vid=14002097-43aa-40b4-9127-34429fcd091e"},"vehicle_type_id":"4","last_reported":1743610382,"current_range_meters":6800,"station_id":"ce4bhh12rcd13ifvqff0","pricing_plan_id":"cebpf4jnsgd1na2vs0mg"},{"bike_id":"55834e17-df2a-4a1a-8818-6e2e87d58d53","system_id":"levelo_inurba_marseille","lat":43.28847,"lon":5.39318,"is_reserved":false,"is_disabled":false,"rental_uris":{"android":"levelo://app?vid=55834e17-df2a-4a1a-8818-6e2e87d58d53","ios":"levelo://app?vid=55834e17-df2a-4a1a-8818-6e2e87d58d53"},"vehicle_type_id":"4","last_reported":1743610382,"current_range_meters":6800,"station_id":"ce4bh2p2rcd13ifvqdi0","pricing_plan_id":"cebpf4jnsgd1na2vs0mg"},{"bike_id":"73a68b60-c420-45eb-b3d0-3daf214cbe9b","system_id":"levelo_inurba_marseille","lat":43.262,"lon":5.37934,"is_reserved":false,"is_disabled":false,"rental_uris":{"android":"levelo://app?vid=73a68b60-c420-45eb-b3d0-3daf214cbe9b","ios":"levelo://app?vid=73a68b60-c420-45eb-b3d0-3daf214cbe9b"},"vehicle_type_id":"4","last_reported":1743610382,"current_range_meters":6800,"station_id":"ce4bhjp2rcd13ifvqg90","pricing_plan_id":"cebpf4jnsgd1na2vs0mg"},{"bike_id":"d4a79d36-bcea-44b7-bf75-1ca1bbe236f7","system_id":"levelo_inurba_marseille","lat":43.32343,"lon":5.4063,"is_reserved":false,"is_disabled":false,"rental_uris":{"android":"levelo://app?vid=d4a79d36-bcea-44b7-bf75-1ca1bbe236f7","ios":"levelo://app?vid=d4a79d36-bcea-44b7-bf75-1ca1bbe236f7"},"vehicle_type_id":"4","last_reported":1743610382,"current_range_meters":7200,"station_id":"ce4bhq92rcd13ifvqhjg","pricing_plan_id":"cebpf4jnsgd1na2vs0mg"},{"bike_id":"f06067fe-c409-49ce-b995-b28658dd37fb","system_id":"levelo_inurba_marseille","lat":43.28689,"lon":5.37401,"is_reserved":false,"is_disabled":true,"rental_uris":{"android":"levelo://app?vid=f06067fe-c409-49ce-b995-b28658dd37fb","ios":"levelo://app?vid=f06067fe-c409-49ce-b995-b28658dd37fb"},"vehicle_type_id":"4","last_reported":1743610382,"current_range_meters":8000,"station_id":"ce4bh3p2rcd13ifvqdq0","pricing_plan_id":"cebpf4jnsgd1na2vs0mg"},{"bike_id":"04556df8-715f-45d8-b288-9c8fd51282f9","system_id":"levelo_inurba_marseille","lat":43.23196,"lon":5.35565,"is_reserved":false,"is_disabled":false,"rental_uris":{"android":"levelo://app?vid=04556df8-715f-45d8-b288-9c8fd51282f9","ios":"levelo://app?vid=04556df8-715f-45d8-b288-9c8fd51282f9"},"vehicle_type_id":"4","last_reported":1743610382,"current_range_meters":8000,"station_id":"ce4bhu92rcd13ifvqi70","pricing_plan_id":"cebpf4jnsgd1na2vs0mg"},{"bike_id":"2db7d400-8255-4523-bf3d-db213550d4ab","system_id":"levelo_inurba_marseille","lat":43.24188,"lon":5.39736,"is_reserved":false,"is_disabled":false,"rental_uris":{"android":"levelo://app?vid=2db7d400-8255-4523-bf3d-db213550d4ab","ios":"levelo://app?vid=2db7d400-8255-4523-bf3d-db213550d4ab"},"vehicle_type_id":"4","last_reported":1743610382,"current_range_meters":8000,"station_id":"ce4bho12rcd13ifvqh1g","pricing_plan_id":"cebpf4jnsgd1na2vs0mg"},{"bike_id":"6aac89d2-18c2-4358-b965-12be08b60b63","system_id":"levelo_inurba_marseille","lat":43.293,"lon":5.37179,"is_reserved":false,"is_disabled":true,"rental_uris":{"android":"levelo://app?vid=6aac89d2-18c2-4358-b965-12be08b60b63","ios":"levelo://app?vid=6aac89d2-18c2-4358-b965-12be08b60b63"},"vehicle_type_id":"4","last_reported":1743610382,"current_range_meters":8000,"station_id":"ce4bgh92rcd13ifvqb40","pricing_plan_id":"cebpf4jnsgd1na2vs0mg"},{"bike_id":"3e5329f3-c0cd-422c-afb1-2f46242590da","system_id":"levelo_inurba_marseille","lat":43.31923,"lon":5.3755,"is_reserved":false,"is_disabled":false,"rental_uris":{"android":"levelo://app?vid=3e5329f3-c0cd-422c-afb1-2f46242590da","ios":"levelo://app?vid=3e5329f3-c0cd-422c-afb1-2f46242590da"},"vehicle_type_id":"4","last_reported":1743610382,"current_range_meters":8000,"station_id":"","pricing_plan_id":"cebpf4jnsgd1na2vs0mg"},{"bike_id":"17c27676-0dff-4985-a252-44101e3aa939","system_id":"levelo_inurba_marseille","lat":43.30546,"lon":5.3655,"is_reserved":false,"is_disabled":false,"rental_uris":{"android":"levelo://app?vid=17c27676-0dff-4985-a252-44101e3aa939","ios":"levelo://app?vid=17c27676-0dff-4985-a252-44101e3aa939"},"vehicle_type_id":"4","last_reported":1743610382,"current_range_meters":6800,"station_id":"ce4bgs12rcd13ifvqcag","pricing_plan_id":"cebpf4jnsgd1na2vs0mg"},{"bike_id":"82abf504-605d-4cbb-9efa-7b57abc54a0c","system_id":"levelo_inurba_marseille","lat":43.30376,"lon":5.42485,"is_reserved":false,"is_disabled":false,"rental_uris":{"android":"levelo://app?vid=82abf504-605d-4cbb-9efa-7b57abc54a0c","ios":"levelo://app?vid=82abf504-605d-4cbb-9efa-7b57abc54a0c"},"vehicle_type_id":"4","last_reported":1743610382,"current_range_meters":8000,"station_id":"ce4bhoh2rcd13ifvqh6g","pricing_plan_id":"cebpf4jnsgd1na2vs0mg"},{"bike_id":"51dde7bf-3a48-48f5-b55a-83160aee0923","system_id":"levelo_inurba_marseille","lat":43.29624,"lon":5.37162,"is_reserved":false,"is_disabled":false,"rental_uris":{"android":"levelo://app?vid=51dde7bf-3a48-48f5-b55a-83160aee0923","ios":"levelo://app?vid=51dde7bf-3a48-48f5-b55a-83160aee0923"},"vehicle_type_id":"4","last_reported":1743610382,"current_range_meters":8400,"station_id":"ce4bgnh2rcd13ifvqc0g","pricing_plan_id":"cebpf4jnsgd1na2vs0mg"},{"bike_id":"998d557f-6dcb-47bf-b253-9af9cfece282","system_id":"levelo_inurba_marseille","lat":43.29764,"lon":5.3811,"is_reserved":false,"is_disabled":false,"rental_uris":{"android":"levelo://app?vid=998d557f-6dcb-47bf-b253-9af9cfece282","ios":"levelo://app?vid=998d557f-6dcb-47bf-b253-9af9cfece282"},"vehicle_type_id":"4","last_reported":1743610382,"current_range_meters":8400,"station_id":"ce4bgip2rcd13ifvqbb0","pricing_plan_id":"cebpf4jnsgd1na2vs0mg"},{"bike_id":"cd22e8f6-4b63-4e00-b2fd-554ac28913f8","system_id":"levelo_inurba_marseille","lat":43.26803,"lon":5.4268,"is_reserved":false,"is_disabled":false,"rental_uris":{"android":"levelo://app?vid=cd22e8f6-4b63-4e00-b2fd-554ac28913f8","ios":"levelo://app?vid=cd22e8f6-4b63-4e00-b2fd-554ac28913f8"},"vehicle_type_id":"4","last_reported":1743610382,"current_range_meters":8400,"station_id":"","pricing_plan_id":"cebpf4jnsgd1na2vs0mg"},{"bike_id":"e16f5083-76eb-46c8-9376-64ef8b158bd2","system_id":"levelo_inurba_marseille","lat":43.28852,"lon":5.39322,"is_reserved":false,"is_disabled":false,"rental_uris":{"android":"levelo://app?vid=e16f5083-76eb-46c8-9376-64ef8b158bd2","ios":"levelo://app?vid=e16f5083-76eb-46c8-9376-64ef8b158bd2"},"vehicle_type_id":"4","last_reported":1743610382,"current_range_meters":8400,"station_id":"ce4bh2p2rcd13ifvqdi0","pricing_plan_id":"cebpf4jnsgd1na2vs0mg"},{"bike_id":"1cc56aae-45a2-4fff-b1a7-9e957e7043f2","system_id":"levelo_inurba_marseille","lat":43.28696,"lon":5.37389,"is_reserved":false,"is_disabled":false,"rental_uris":{"android":"levelo://app?vid=1cc56aae-45a2-4fff-b1a7-9e957e7043f2","ios":"levelo://app?vid=1cc56aae-45a2-4fff-b1a7-9e957e7043f2"},"vehicle_type_id":"4","last_reported":1743610382,"current_range_meters":8400,"station_id":"","pricing_plan_id":"cebpf4jnsgd1na2vs0mg"},{"bike_id":"1f1218d9-ebac-4975-84ee-2ba3e4d4bcb4","system_id":"levelo_inurba_marseille","lat":43.30876,"lon":5.37828,"is_reserved":false,"is_disabled":false,"rental_uris":{"android":"levelo://app?vid=1f1218d9-ebac-4975-84ee-2ba3e4d4bcb4","ios":"levelo://app?vid=1f1218d9-ebac-4975-84ee-2ba3e4d4bcb4"},"vehicle_type_id":"4","last_reported":1743610382,"current_range_meters":8400,"station_id":"","pricing_plan_id":"cebpf4jnsgd1na2vs0mg"},{"bike_id":"2d5b05ab-3fbf-4245-a566-4ad78ee6292a","system_id":"levelo_inurba_marseille","lat":43.24994,"lon":5.38921,"is_reserved":false,"is_disabled":false,"rental_uris":{"android":"levelo://app?vid=2d5b05ab-3fbf-4245-a566-4ad78ee6292a","ios":"levelo://app?vid=2d5b05ab-3fbf-4245-a566-4ad78ee6292a"},"vehicle_type_id":"4","last_reported":1743610382,"current_range_meters":8400,"station_id":"ce4bhgp2rcd13ifvqfd0","pricing_plan_id":"cebpf4jnsgd1na2vs0mg"},{"bike_id":"972d99bc-fab0-405f-96c2-8339fe48e7c0","system_id":"levelo_inurba_marseille","lat":43.297761,"lon":5.393333,"is_reserved":false,"is_disabled":false,"rental_uris":{"android":"levelo://app?vid=972d99bc-fab0-405f-96c2-8339fe48e7c0","ios":"levelo://app?vid=972d99bc-fab0-405f-96c2-8339fe48e7c0"},"vehicle_type_id":"4","last_reported":1743610382,"current_range_meters":8000,"station_id":"chh1huq6cuj3fo74tm60","pricing_plan_id":"cebpf4jnsgd1na2vs0mg"},{"bike_id":"6fd3d18f-c3b5-4d07-8160-12fc5c26448c","system_id":"levelo_inurba_marseille","lat":43.32368,"lon":5.38888,"is_reserved":false,"is_disabled":false,"rental_uris":{"android":"levelo://app?vid=6fd3d18f-c3b5-4d07-8160-12fc5c26448c","ios":"levelo://app?vid=6fd3d18f-c3b5-4d07-8160-12fc5c26448c"},"vehicle_type_id":"4","last_reported":1743610382,"current_range_meters":8400,"station_id":"ce4bhqp2rcd13ifvqhog","pricing_plan_id":"cebpf4jnsgd1na2vs0mg"},{"bike_id":"6f0e3252-fff2-4150-9376-4323f196d152","system_id":"levelo_inurba_marseille","lat":43.28646,"lon":5.35129,"is_reserved":false,"is_disabled":false,"rental_uris":{"android":"levelo://app?vid=6f0e3252-fff2-4150-9376-4323f196d152","ios":"levelo://app?vid=6f0e3252-fff2-4150-9376-4323f196d152"},"vehicle_type_id":"4","last_reported":1743610382,"current_range_meters":8400,"station_id":"ce4bhch2rcd13ifvqeug","pricing_plan_id":"cebpf4jnsgd1na2vs0mg"},{"bike_id":"df2d3bd1-bcf2-49e3-a805-8da363cec307","system_id":"levelo_inurba_marseille","lat":43.29197,"lon":5.35817,"is_reserved":false,"is_disabled":false,"rental_uris":{"android":"levelo://app?vid=df2d3bd1-bcf2-49e3-a805-8da363cec307","ios":"levelo://app?vid=df2d3bd1-bcf2-49e3-a805-8da363cec307"},"vehicle_type_id":"4","last_reported":1743610382,"current_range_meters":8400,"station_id":"ce4bhb12rcd13ifvqel0","pricing_plan_id":"cebpf4jnsgd1na2vs0mg"},{"bike_id":"c3fc5c58-f1ee-49ca-abe7-7a0bcf8e6a4a","system_id":"levelo_inurba_marseille","lat":43.32363,"lon":5.3889,"is_reserved":false,"is_disabled":false,"rental_uris":{"android":"levelo://app?vid=c3fc5c58-f1ee-49ca-abe7-7a0bcf8e6a4a","ios":"levelo://app?vid=c3fc5c58-f1ee-49ca-abe7-7a0bcf8e6a4a"},"vehicle_type_id":"4","last_reported":1743610382,"current_range_meters":8400,"station_id":"ce4bhqp2rcd13ifvqhog","pricing_plan_id":"cebpf4jnsgd1na2vs0mg"},{"bike_id":"3ba6ccff-1eda-46d4-acbd-01dbdd65bb76","system_id":"levelo_inurba_marseille","lat":43.299,"lon":5.43673,"is_reserved":false,"is_disabled":false,"rental_uris":{"android":"levelo://app?vid=3ba6ccff-1eda-46d4-acbd-01dbdd65bb76","ios":"levelo://app?vid=3ba6ccff-1eda-46d4-acbd-01dbdd65bb76"},"vehicle_type_id":"4","last_reported":1743610382,"current_range_meters":8400,"station_id":"ce4bhpp2rcd13ifvqhfg","pricing_plan_id":"cebpf4jnsgd1na2vs0mg"},{"bike_id":"e3d01a26-5542-45dc-8373-1b19a6bf2880","system_id":"levelo_inurba_marseille","lat":43.23224,"lon":5.43721,"is_reserved":false,"is_disabled":false,"rental_uris":{"android":"levelo://app?vid=e3d01a26-5542-45dc-8373-1b19a6bf2880","ios":"levelo://app?vid=e3d01a26-5542-45dc-8373-1b19a6bf2880"},"vehicle_type_id":"4","last_reported":1743610382,"current_range_meters":8800,"station_id":"","pricing_plan_id":"cebpf4jnsgd1na2vs0mg"},{"bike_id":"7aa08c36-ee27-4e8e-996a-fcb4923ecbbb","system_id":"levelo_inurba_marseille","lat":43.28266,"lon":5.35095,"is_reserved":false,"is_disabled":true,"rental_uris":{"android":"levelo://app?vid=7aa08c36-ee27-4e8e-996a-fcb4923ecbbb","ios":"levelo://app?vid=7aa08c36-ee27-4e8e-996a-fcb4923ecbbb"},"vehicle_type_id":"4","last_reported":1743610382,"current_range_meters":8800,"station_id":"ce4bhbp2rcd13ifvqerg","pricing_plan_id":"cebpf4jnsgd1na2vs0mg"},{"bike_id":"84379298-b4bc-45ce-a50b-9a9ebfc49b9f","system_id":"levelo_inurba_marseille","lat":43.26561,"lon":5.37282,"is_reserved":false,"is_disabled":false,"rental_uris":{"android":"levelo://app?vid=84379298-b4bc-45ce-a50b-9a9ebfc49b9f","ios":"levelo://app?vid=84379298-b4bc-45ce-a50b-9a9ebfc49b9f"},"vehicle_type_id":"4","last_reported":1743610382,"current_range_meters":8800,"station_id":"ce4bhg12rcd13ifvqf70","pricing_plan_id":"cebpf4jnsgd1na2vs0mg"},{"bike_id":"edbb5026-7092-42e3-b160-e8af571ca967","system_id":"levelo_inurba_marseille","lat":43.28155,"lon":5.42647,"is_reserved":false,"is_disabled":false,"rental_uris":{"android":"levelo://app?vid=edbb5026-7092-42e3-b160-e8af571ca967","ios":"levelo://app?vid=edbb5026-7092-42e3-b160-e8af571ca967"},"vehicle_type_id":"4","last_reported":1743610382,"current_range_meters":8800,"station_id":"ce4bhnh2rcd13ifvqgug","pricing_plan_id":"cebpf4jnsgd1na2vs0mg"},{"bike_id":"4edd6e19-4ba6-444c-9ed9-10270c120be7","system_id":"levelo_inurba_marseille","lat":43.26496,"lon":5.39537,"is_reserved":false,"is_disabled":false,"rental_uris":{"android":"levelo://app?vid=4edd6e19-4ba6-444c-9ed9-10270c120be7","ios":"levelo://app?vid=4edd6e19-4ba6-444c-9ed9-10270c120be7"},"vehicle_type_id":"4","last_reported":1743610382,"current_range_meters":8800,"station_id":"ce4bhi12rcd13ifvqfq0","pricing_plan_id":"cebpf4jnsgd1na2vs0mg"},{"bike_id":"66240f41-965e-4eb3-824b-37ad298298d5","system_id":"levelo_inurba_marseille","lat":43.25581,"lon":5.3822,"is_reserved":false,"is_disabled":false,"rental_uris":{"android":"levelo://app?vid=66240f41-965e-4eb3-824b-37ad298298d5","ios":"levelo://app?vid=66240f41-965e-4eb3-824b-37ad298298d5"},"vehicle_type_id":"4","last_reported":1743610382,"current_range_meters":8800,"station_id":"ce4bhih2rcd13ifvqfs0","pricing_plan_id":"cebpf4jnsgd1na2vs0mg"},{"bike_id":"1922d091-d80c-4d58-a854-efbad4fbbab2","system_id":"levelo_inurba_marseille","lat":43.32352,"lon":5.40623,"is_reserved":false,"is_disabled":false,"rental_uris":{"android":"levelo://app?vid=1922d091-d80c-4d58-a854-efbad4fbbab2","ios":"levelo://app?vid=1922d091-d80c-4d58-a854-efbad4fbbab2"},"vehicle_type_id":"4","last_reported":1743610382,"current_range_meters":8800,"station_id":"ce4bhq92rcd13ifvqhjg","pricing_plan_id":"cebpf4jnsgd1na2vs0mg"},{"bike_id":"d3345442-2654-4ddc-b869-fce22decea38","system_id":"levelo_inurba_marseille","lat":43.23056,"lon":5.35498,"is_reserved":false,"is_disabled":false,"rental_uris":{"android":"levelo://app?vid=d3345442-2654-4ddc-b869-fce22decea38","ios":"levelo://app?vid=d3345442-2654-4ddc-b869-fce22decea38"},"vehicle_type_id":"4","last_reported":1743610382,"current_range_meters":8800,"station_id":"cpo3342slgdg3j2ifvpg","pricing_plan_id":"cebpf4jnsgd1na2vs0mg"},{"bike_id":"bbd20b86-4fe1-4b97-b22c-451d9ee19d2e","system_id":"levelo_inurba_marseille","lat":43.30238,"lon":5.40058,"is_reserved":false,"is_disabled":false,"rental_uris":{"android":"levelo://app?vid=bbd20b86-4fe1-4b97-b22c-451d9ee19d2e","ios":"levelo://app?vid=bbd20b86-4fe1-4b97-b22c-451d9ee19d2e"},"vehicle_type_id":"4","last_reported":1743610382,"current_range_meters":9200,"station_id":"ce4bgvh2rcd13ifvqcs0","pricing_plan_id":"cebpf4jnsgd1na2vs0mg"},{"bike_id":"d8fbce20-58cd-47cd-a188-a2356ddd5dd9","system_id":"levelo_inurba_marseille","lat":43.30124,"lon":5.3878,"is_reserved":false,"is_disabled":false,"rental_uris":{"android":"levelo://app?vid=d8fbce20-58cd-47cd-a188-a2356ddd5dd9","ios":"levelo://app?vid=d8fbce20-58cd-47cd-a188-a2356ddd5dd9"},"vehicle_type_id":"4","last_reported":1743610382,"current_range_meters":9200,"station_id":"ce4bghh2rcd13ifvqb60","pricing_plan_id":"cebpf4jnsgd1na2vs0mg"},{"bike_id":"2ed9404d-458e-44d9-afcd-e53713075f99","system_id":"levelo_inurba_marseille","lat":43.22932,"lon":5.35372,"is_reserved":false,"is_disabled":false,"rental_uris":{"android":"levelo://app?vid=2ed9404d-458e-44d9-afcd-e53713075f99","ios":"levelo://app?vid=2ed9404d-458e-44d9-afcd-e53713075f99"},"vehicle_type_id":"4","last_reported":1743610382,"current_range_meters":9200,"station_id":"cpo3532slgdg3j2ikp40","pricing_plan_id":"cebpf4jnsgd1na2vs0mg"},{"bike_id":"cfe138ef-0924-43c4-8d05-c9db4d3959a8","system_id":"levelo_inurba_marseille","lat":43.26569,"lon":5.39006,"is_reserved":false,"is_disabled":false,"rental_uris":{"android":"levelo://app?vid=cfe138ef-0924-43c4-8d05-c9db4d3959a8","ios":"levelo://app?vid=cfe138ef-0924-43c4-8d05-c9db4d3959a8"},"vehicle_type_id":"4","last_reported":1743610382,"current_range_meters":9200,"station_id":"ce4bhe12rcd13ifvqf30","pricing_plan_id":"cebpf4jnsgd1na2vs0mg"},{"bike_id":"51ffa659-a870-408e-9bd4-a1a94b10ed96","system_id":"levelo_inurba_marseille","lat":43.28271,"lon":5.3506,"is_reserved":false,"is_disabled":false,"rental_uris":{"android":"levelo://app?vid=51ffa659-a870-408e-9bd4-a1a94b10ed96","ios":"levelo://app?vid=51ffa659-a870-408e-9bd4-a1a94b10ed96"},"vehicle_type_id":"4","last_reported":1743610382,"current_range_meters":9200,"station_id":"ce4bhbp2rcd13ifvqerg","pricing_plan_id":"cebpf4jnsgd1na2vs0mg"},{"bike_id":"8d8b0c8d-6697-4743-9964-dfa8ce35a689","system_id":"levelo_inurba_marseille","lat":43.3078,"lon":5.37658,"is_reserved":false,"is_disabled":false,"rental_uris":{"android":"levelo://app?vid=8d8b0c8d-6697-4743-9964-dfa8ce35a689","ios":"levelo://app?vid=8d8b0c8d-6697-4743-9964-dfa8ce35a689"},"vehicle_type_id":"4","last_reported":1743610382,"current_range_meters":9200,"station_id":"ce4bgv92rcd13ifvqcq0","pricing_plan_id":"cebpf4jnsgd1na2vs0mg"},{"bike_id":"f55695a6-b65f-4a30-99ab-94b2bfa63268","system_id":"levelo_inurba_marseille","lat":43.23192,"lon":5.35543,"is_reserved":false,"is_disabled":false,"rental_uris":{"android":"levelo://app?vid=f55695a6-b65f-4a30-99ab-94b2bfa63268","ios":"levelo://app?vid=f55695a6-b65f-4a30-99ab-94b2bfa63268"},"vehicle_type_id":"4","last_reported":1743610382,"current_range_meters":9200,"station_id":"ce4bhu92rcd13ifvqi70","pricing_plan_id":"cebpf4jnsgd1na2vs0mg"},{"bike_id":"054bd084-de56-414f-9ea4-2892c7a1f3f1","system_id":"levelo_inurba_marseille","lat":43.28161,"lon":5.42636,"is_reserved":false,"is_disabled":false,"rental_uris":{"android":"levelo://app?vid=054bd084-de56-414f-9ea4-2892c7a1f3f1","ios":"levelo://app?vid=054bd084-de56-414f-9ea4-2892c7a1f3f1"},"vehicle_type_id":"4","last_reported":1743610382,"current_range_meters":9200,"station_id":"ce4bhnh2rcd13ifvqgug","pricing_plan_id":"cebpf4jnsgd1na2vs0mg"},{"bike_id":"06d14228-fa60-41d1-9637-2cf90d59c736","system_id":"levelo_inurba_marseille","lat":43.31694,"lon":5.4048,"is_reserved":false,"is_disabled":false,"rental_uris":{"android":"levelo://app?vid=06d14228-fa60-41d1-9637-2cf90d59c736","ios":"levelo://app?vid=06d14228-fa60-41d1-9637-2cf90d59c736"},"vehicle_type_id":"4","last_reported":1743610382,"current_range_meters":9200,"station_id":"ce4bh012rcd13ifvqd00","pricing_plan_id":"cebpf4jnsgd1na2vs0mg"},{"bike_id":"97a96cda-df66-4eab-9235-ed2d2a478c31","system_id":"levelo_inurba_marseille","lat":43.297456,"lon":5.435279,"is_reserved":false,"is_disabled":false,"rental_uris":{"android":"levelo://app?vid=97a96cda-df66-4eab-9235-ed2d2a478c31","ios":"levelo://app?vid=97a96cda-df66-4eab-9235-ed2d2a478c31"},"vehicle_type_id":"4","last_reported":1743610382,"current_range_meters":9200,"station_id":"ce4bhpp2rcd13ifvqhfg","pricing_plan_id":"cebpf4jnsgd1na2vs0mg"},{"bike_id":"a8e50e41-0d15-4377-bcbb-c532d8c41eeb","system_id":"levelo_inurba_marseille","lat":43.26683,"lon":5.38269,"is_reserved":false,"is_disabled":false,"rental_uris":{"android":"levelo://app?vid=a8e50e41-0d15-4377-bcbb-c532d8c41eeb","ios":"levelo://app?vid=a8e50e41-0d15-4377-bcbb-c532d8c41eeb"},"vehicle_type_id":"4","last_reported":1743610382,"current_range_meters":9200,"station_id":"ce4bhg92rcd13ifvqf90","pricing_plan_id":"cebpf4jnsgd1na2vs0mg"},{"bike_id":"824c6c73-35e6-4992-b40c-898ac172d026","system_id":"levelo_inurba_marseille","lat":43.2694,"lon":5.40252,"is_reserved":false,"is_disabled":false,"rental_uris":{"android":"levelo://app?vid=824c6c73-35e6-4992-b40c-898ac172d026","ios":"levelo://app?vid=824c6c73-35e6-4992-b40c-898ac172d026"},"vehicle_type_id":"4","last_reported":1743610382,"current_range_meters":8800,"station_id":"cjm6bp8fraef2m0cb0m0","pricing_plan_id":"cebpf4jnsgd1na2vs0mg"},{"bike_id":"7b869cea-1d61-42d2-b04b-29df5bd7497f","system_id":"levelo_inurba_marseille","lat":43.32103,"lon":5.36795,"is_reserved":false,"is_disabled":false,"rental_uris":{"android":"levelo://app?vid=7b869cea-1d61-42d2-b04b-29df5bd7497f","ios":"levelo://app?vid=7b869cea-1d61-42d2-b04b-29df5bd7497f"},"vehicle_type_id":"4","last_reported":1743610382,"current_range_meters":9600,"station_id":"ce4bhrh2rcd13ifvqhug","pricing_plan_id":"cebpf4jnsgd1na2vs0mg"},{"bike_id":"b80ee275-2592-4659-b2e9-175feb839700","system_id":"levelo_inurba_marseille","lat":43.23195,"lon":5.35554,"is_reserved":false,"is_disabled":false,"rental_uris":{"android":"levelo://app?vid=b80ee275-2592-4659-b2e9-175feb839700","ios":"levelo://app?vid=b80ee275-2592-4659-b2e9-175feb839700"},"vehicle_type_id":"4","last_reported":1743610382,"current_range_meters":9600,"station_id":"ce4bhu92rcd13ifvqi70","pricing_plan_id":"cebpf4jnsgd1na2vs0mg"},{"bike_id":"8c68492a-a0ed-4ba8-ba73-c3e03cff935f","system_id":"levelo_inurba_marseille","lat":43.29633,"lon":5.37739,"is_reserved":false,"is_disabled":false,"rental_uris":{"android":"levelo://app?vid=8c68492a-a0ed-4ba8-ba73-c3e03cff935f","ios":"levelo://app?vid=8c68492a-a0ed-4ba8-ba73-c3e03cff935f"},"vehicle_type_id":"4","last_reported":1743610382,"current_range_meters":9600,"station_id":"ce4bgi92rcd13ifvqb90","pricing_plan_id":"cebpf4jnsgd1na2vs0mg"},{"bike_id":"a37ba079-4ccc-43bf-b918-b876a550e8db","system_id":"levelo_inurba_marseille","lat":43.255847,"lon":5.382607,"is_reserved":false,"is_disabled":false,"rental_uris":{"android":"levelo://app?vid=a37ba079-4ccc-43bf-b918-b876a550e8db","ios":"levelo://app?vid=a37ba079-4ccc-43bf-b918-b876a550e8db"},"vehicle_type_id":"4","last_reported":1743610382,"current_range_meters":9600,"station_id":"ce4bhih2rcd13ifvqfs0","pricing_plan_id":"cebpf4jnsgd1na2vs0mg"},{"bike_id":"6e6a66e5-58ca-4db1-9695-b46ed5c28827","system_id":"levelo_inurba_marseille","lat":43.31803,"lon":5.36814,"is_reserved":false,"is_disabled":false,"rental_uris":{"android":"levelo://app?vid=6e6a66e5-58ca-4db1-9695-b46ed5c28827","ios":"levelo://app?vid=6e6a66e5-58ca-4db1-9695-b46ed5c28827"},"vehicle_type_id":"4","last_reported":1743610382,"current_range_meters":9600,"station_id":"","pricing_plan_id":"cebpf4jnsgd1na2vs0mg"},{"bike_id":"25c9da1a-b5c2-481b-a59e-5c1900e213f6","system_id":"levelo_inurba_marseille","lat":43.25585,"lon":5.38247,"is_reserved":false,"is_disabled":false,"rental_uris":{"android":"levelo://app?vid=25c9da1a-b5c2-481b-a59e-5c1900e213f6","ios":"levelo://app?vid=25c9da1a-b5c2-481b-a59e-5c1900e213f6"},"vehicle_type_id":"4","last_reported":1743610382,"current_range_meters":9600,"station_id":"ce4bhih2rcd13ifvqfs0","pricing_plan_id":"cebpf4jnsgd1na2vs0mg"},{"bike_id":"a112ce08-6f4e-41f2-873e-94895f2e1506","system_id":"levelo_inurba_marseille","lat":43.27681,"lon":5.38933,"is_reserved":false,"is_disabled":true,"rental_uris":{"android":"levelo://app?vid=a112ce08-6f4e-41f2-873e-94895f2e1506","ios":"levelo://app?vid=a112ce08-6f4e-41f2-873e-94895f2e1506"},"vehicle_type_id":"4","last_reported":1743610382,"current_range_meters":9600,"station_id":"ce4bhi12rcd13ifvqfo0","pricing_plan_id":"cebpf4jnsgd1na2vs0mg"},{"bike_id":"49428efe-bbd8-4963-9aaf-ed822fd5c61b","system_id":"levelo_inurba_marseille","lat":43.292079,"lon":5.443779,"is_reserved":false,"is_disabled":false,"rental_uris":{"android":"levelo://app?vid=49428efe-bbd8-4963-9aaf-ed822fd5c61b","ios":"levelo://app?vid=49428efe-bbd8-4963-9aaf-ed822fd5c61b"},"vehicle_type_id":"4","last_reported":1743610382,"current_range_meters":9600,"station_id":"","pricing_plan_id":"cebpf4jnsgd1na2vs0mg"},{"bike_id":"4ac0d9f0-0e6b-4be5-83b3-11ca0b022813","system_id":"levelo_inurba_marseille","lat":43.30139,"lon":5.38771,"is_reserved":false,"is_disabled":false,"rental_uris":{"android":"levelo://app?vid=4ac0d9f0-0e6b-4be5-83b3-11ca0b022813","ios":"levelo://app?vid=4ac0d9f0-0e6b-4be5-83b3-11ca0b022813"},"vehicle_type_id":"4","last_reported":1743610382,"current_range_meters":9600,"station_id":"ce4bghh2rcd13ifvqb60","pricing_plan_id":"cebpf4jnsgd1na2vs0mg"},{"bike_id":"2e1d0491-8046-4a1c-910c-6d230f4ca468","system_id":"levelo_inurba_marseille","lat":43.30665,"lon":5.37365,"is_reserved":false,"is_disabled":false,"rental_uris":{"android":"levelo://app?vid=2e1d0491-8046-4a1c-910c-6d230f4ca468","ios":"levelo://app?vid=2e1d0491-8046-4a1c-910c-6d230f4ca468"},"vehicle_type_id":"4","last_reported":1743610382,"current_range_meters":9600,"station_id":"","pricing_plan_id":"cebpf4jnsgd1na2vs0mg"},{"bike_id":"de9c20a8-75f2-42b8-a46d-838322bce76e","system_id":"levelo_inurba_marseille","lat":43.29199,"lon":5.39318,"is_reserved":false,"is_disabled":false,"rental_uris":{"android":"levelo://app?vid=de9c20a8-75f2-42b8-a46d-838322bce76e","ios":"levelo://app?vid=de9c20a8-75f2-42b8-a46d-838322bce76e"},"vehicle_type_id":"4","last_reported":1743610382,"current_range_meters":10000,"station_id":"ce4bh192rcd13ifvqdd0","pricing_plan_id":"cebpf4jnsgd1na2vs0mg"},{"bike_id":"b52eafbb-0fdc-487b-b3ce-3a3f8cf7e638","system_id":"levelo_inurba_marseille","lat":43.33121,"lon":5.39271,"is_reserved":false,"is_disabled":false,"rental_uris":{"android":"levelo://app?vid=b52eafbb-0fdc-487b-b3ce-3a3f8cf7e638","ios":"levelo://app?vid=b52eafbb-0fdc-487b-b3ce-3a3f8cf7e638"},"vehicle_type_id":"4","last_reported":1743610382,"current_range_meters":10000,"station_id":"","pricing_plan_id":"cebpf4jnsgd1na2vs0mg"},{"bike_id":"d157a8ac-f1ea-480a-a1ee-9ac00962bb01","system_id":"levelo_inurba_marseille","lat":43.29573,"lon":5.42298,"is_reserved":false,"is_disabled":false,"rental_uris":{"android":"levelo://app?vid=d157a8ac-f1ea-480a-a1ee-9ac00962bb01","ios":"levelo://app?vid=d157a8ac-f1ea-480a-a1ee-9ac00962bb01"},"vehicle_type_id":"4","last_reported":1743610382,"current_range_meters":10000,"station_id":"ce4bhph2rcd13ifvqhdg","pricing_plan_id":"cebpf4jnsgd1na2vs0mg"},{"bike_id":"f87e996c-206a-47d9-8697-84a2d463fdc3","system_id":"levelo_inurba_marseille","lat":43.23197,"lon":5.35572,"is_reserved":false,"is_disabled":false,"rental_uris":{"android":"levelo://app?vid=f87e996c-206a-47d9-8697-84a2d463fdc3","ios":"levelo://app?vid=f87e996c-206a-47d9-8697-84a2d463fdc3"},"vehicle_type_id":"4","last_reported":1743610382,"current_range_meters":10000,"station_id":"ce4bhu92rcd13ifvqi70","pricing_plan_id":"cebpf4jnsgd1na2vs0mg"},{"bike_id":"dd3db03f-0f43-4986-9ec8-2a76818fb28c","system_id":"levelo_inurba_marseille","lat":43.23189,"lon":5.35559,"is_reserved":false,"is_disabled":false,"rental_uris":{"android":"levelo://app?vid=dd3db03f-0f43-4986-9ec8-2a76818fb28c","ios":"levelo://app?vid=dd3db03f-0f43-4986-9ec8-2a76818fb28c"},"vehicle_type_id":"4","last_reported":1743610382,"current_range_meters":10000,"station_id":"ce4bhu92rcd13ifvqi70","pricing_plan_id":"cebpf4jnsgd1na2vs0mg"},{"bike_id":"0d69e39c-799f-4ce2-accd-7eda8900df62","system_id":"levelo_inurba_marseille","lat":43.23155,"lon":5.43716,"is_reserved":false,"is_disabled":false,"rental_uris":{"android":"levelo://app?vid=0d69e39c-799f-4ce2-accd-7eda8900df62","ios":"levelo://app?vid=0d69e39c-799f-4ce2-accd-7eda8900df62"},"vehicle_type_id":"4","last_reported":1743610382,"current_range_meters":10000,"station_id":"ce4bhmp2rcd13ifvqgog","pricing_plan_id":"cebpf4jnsgd1na2vs0mg"},{"bike_id":"b885486f-09c3-446b-b1be-b09b7ce5bbf7","system_id":"levelo_inurba_marseille","lat":43.29045,"lon":5.3592,"is_reserved":false,"is_disabled":false,"rental_uris":{"android":"levelo://app?vid=b885486f-09c3-446b-b1be-b09b7ce5bbf7","ios":"levelo://app?vid=b885486f-09c3-446b-b1be-b09b7ce5bbf7"},"vehicle_type_id":"4","last_reported":1743610382,"current_range_meters":10000,"station_id":"ce4bha92rcd13ifvqeg0","pricing_plan_id":"cebpf4jnsgd1na2vs0mg"},{"bike_id":"d044cc17-f95d-4c62-8d87-3de8e64b6fe1","system_id":"levelo_inurba_marseille","lat":43.29708,"lon":5.36612,"is_reserved":false,"is_disabled":false,"rental_uris":{"android":"levelo://app?vid=d044cc17-f95d-4c62-8d87-3de8e64b6fe1","ios":"levelo://app?vid=d044cc17-f95d-4c62-8d87-3de8e64b6fe1"},"vehicle_type_id":"4","last_reported":1743610382,"current_range_meters":10000,"station_id":"ce4bgn12rcd13ifvqbt0","pricing_plan_id":"cebpf4jnsgd1na2vs0mg"},{"bike_id":"d25bcb62-9827-4300-8ac7-9c422056c86a","system_id":"levelo_inurba_marseille","lat":43.29297,"lon":5.3746,"is_reserved":false,"is_disabled":false,"rental_uris":{"android":"levelo://app?vid=d25bcb62-9827-4300-8ac7-9c422056c86a","ios":"levelo://app?vid=d25bcb62-9827-4300-8ac7-9c422056c86a"},"vehicle_type_id":"4","last_reported":1743610382,"current_range_meters":10000,"station_id":"ce4bgi12rcd13ifvqb70","pricing_plan_id":"cebpf4jnsgd1na2vs0mg"},{"bike_id":"f481d0d9-48e6-4b76-a367-f2052f3f3e43","system_id":"levelo_inurba_marseille","lat":43.28581,"lon":5.3949,"is_reserved":false,"is_disabled":false,"rental_uris":{"android":"levelo://app?vid=f481d0d9-48e6-4b76-a367-f2052f3f3e43","ios":"levelo://app?vid=f481d0d9-48e6-4b76-a367-f2052f3f3e43"},"vehicle_type_id":"4","last_reported":1743610382,"current_range_meters":9600,"station_id":"ce4bh292rcd13ifvqdg0","pricing_plan_id":"cebpf4jnsgd1na2vs0mg"},{"bike_id":"1444c070-a7a8-43d0-8864-cfe2304a46ca","system_id":"levelo_inurba_marseille","lat":43.30871,"lon":5.37189,"is_reserved":false,"is_disabled":false,"rental_uris":{"android":"levelo://app?vid=1444c070-a7a8-43d0-8864-cfe2304a46ca","ios":"levelo://app?vid=1444c070-a7a8-43d0-8864-cfe2304a46ca"},"vehicle_type_id":"4","last_reported":1743610382,"current_range_meters":10800,"station_id":"ce4bguh2rcd13ifvqckg","pricing_plan_id":"cebpf4jnsgd1na2vs0mg"},{"bike_id":"8a8648d1-b7bc-4fda-a5be-1e04c04a361a","system_id":"levelo_inurba_marseille","lat":43.25724,"lon":5.41108,"is_reserved":false,"is_disabled":false,"rental_uris":{"android":"levelo://app?vid=8a8648d1-b7bc-4fda-a5be-1e04c04a361a","ios":"levelo://app?vid=8a8648d1-b7bc-4fda-a5be-1e04c04a361a"},"vehicle_type_id":"4","last_reported":1743610382,"current_range_meters":10800,"station_id":"ce4bhkp2rcd13ifvqgd0","pricing_plan_id":"cebpf4jnsgd1na2vs0mg"},{"bike_id":"2d48cd09-9ee2-4630-8cab-be4140a04965","system_id":"levelo_inurba_marseille","lat":43.23191,"lon":5.35553,"is_reserved":false,"is_disabled":false,"rental_uris":{"android":"levelo://app?vid=2d48cd09-9ee2-4630-8cab-be4140a04965","ios":"levelo://app?vid=2d48cd09-9ee2-4630-8cab-be4140a04965"},"vehicle_type_id":"4","last_reported":1743610382,"current_range_meters":10800,"station_id":"ce4bhu92rcd13ifvqi70","pricing_plan_id":"cebpf4jnsgd1na2vs0mg"},{"bike_id":"464fcf7a-2f11-4ce8-9aac-31927804f387","system_id":"levelo_inurba_marseille","lat":43.29278,"lon":5.37648,"is_reserved":false,"is_disabled":false,"rental_uris":{"android":"levelo://app?vid=464fcf7a-2f11-4ce8-9aac-31927804f387","ios":"levelo://app?vid=464fcf7a-2f11-4ce8-9aac-31927804f387"},"vehicle_type_id":"4","last_reported":1743610382,"current_range_meters":10800,"station_id":"ce4bgi12rcd13ifvqb80","pricing_plan_id":"cebpf4jnsgd1na2vs0mg"},{"bike_id":"97602fc2-d4c6-4ba3-adcb-0c70f999465d","system_id":"levelo_inurba_marseille","lat":43.29927,"lon":5.3748,"is_reserved":false,"is_disabled":false,"rental_uris":{"android":"levelo://app?vid=97602fc2-d4c6-4ba3-adcb-0c70f999465d","ios":"levelo://app?vid=97602fc2-d4c6-4ba3-adcb-0c70f999465d"},"vehicle_type_id":"4","last_reported":1743610382,"current_range_meters":10800,"station_id":"ce4bgjh2rcd13ifvqbg0","pricing_plan_id":"cebpf4jnsgd1na2vs0mg"},{"bike_id":"c7ac4f7a-8244-470f-8eaa-4531d0548779","system_id":"levelo_inurba_marseille","lat":43.24545,"lon":5.39527,"is_reserved":false,"is_disabled":false,"rental_uris":{"android":"levelo://app?vid=c7ac4f7a-8244-470f-8eaa-4531d0548779","ios":"levelo://app?vid=c7ac4f7a-8244-470f-8eaa-4531d0548779"},"vehicle_type_id":"4","last_reported":1743610382,"current_range_meters":10800,"station_id":"ce4bhlp2rcd13ifvqgjg","pricing_plan_id":"cebpf4jnsgd1na2vs0mg"},{"bike_id":"75dae32f-059a-4b5b-a5e8-963c6eda2f66","system_id":"levelo_inurba_marseille","lat":43.2752,"lon":5.41047,"is_reserved":false,"is_disabled":false,"rental_uris":{"android":"levelo://app?vid=75dae32f-059a-4b5b-a5e8-963c6eda2f66","ios":"levelo://app?vid=75dae32f-059a-4b5b-a5e8-963c6eda2f66"},"vehicle_type_id":"4","last_reported":1743610382,"current_range_meters":10800,"station_id":"","pricing_plan_id":"cebpf4jnsgd1na2vs0mg"},{"bike_id":"ea464bc9-6baf-477f-8592-2d7142958a22","system_id":"levelo_inurba_marseille","lat":43.26643,"lon":5.38259,"is_reserved":false,"is_disabled":true,"rental_uris":{"android":"levelo://app?vid=ea464bc9-6baf-477f-8592-2d7142958a22","ios":"levelo://app?vid=ea464bc9-6baf-477f-8592-2d7142958a22"},"vehicle_type_id":"4","last_reported":1743610382,"current_range_meters":11200,"station_id":"ce4bhg92rcd13ifvqf90","pricing_plan_id":"cebpf4jnsgd1na2vs0mg"},{"bike_id":"511fdc29-e1b3-4307-9ac9-ca61a89e6c71","system_id":"levelo_inurba_marseille","lat":43.27207,"lon":5.39188,"is_reserved":false,"is_disabled":false,"rental_uris":{"android":"levelo://app?vid=511fdc29-e1b3-4307-9ac9-ca61a89e6c71","ios":"levelo://app?vid=511fdc29-e1b3-4307-9ac9-ca61a89e6c71"},"vehicle_type_id":"4","last_reported":1743610382,"current_range_meters":11200,"station_id":"ce4bhhp2rcd13ifvqfm0","pricing_plan_id":"cebpf4jnsgd1na2vs0mg"},{"bike_id":"1f6bc5dc-7054-4b95-bf7f-a9c705dff9da","system_id":"levelo_inurba_marseille","lat":43.27377,"lon":5.36259,"is_reserved":false,"is_disabled":false,"rental_uris":{"android":"levelo://app?vid=1f6bc5dc-7054-4b95-bf7f-a9c705dff9da","ios":"levelo://app?vid=1f6bc5dc-7054-4b95-bf7f-a9c705dff9da"},"vehicle_type_id":"4","last_reported":1743610382,"current_range_meters":11200,"station_id":"ce4bhbh2rcd13ifvqeo0","pricing_plan_id":"cebpf4jnsgd1na2vs0mg"},{"bike_id":"7dc4a936-1e38-4722-9b53-4b8363c48e7c","system_id":"levelo_inurba_marseille","lat":43.30158,"lon":5.38096,"is_reserved":false,"is_disabled":false,"rental_uris":{"android":"levelo://app?vid=7dc4a936-1e38-4722-9b53-4b8363c48e7c","ios":"levelo://app?vid=7dc4a936-1e38-4722-9b53-4b8363c48e7c"},"vehicle_type_id":"4","last_reported":1743610382,"current_range_meters":11200,"station_id":"ce4bgjp2rcd13ifvqbh0","pricing_plan_id":"cebpf4jnsgd1na2vs0mg"},{"bike_id":"c2e6881a-04a3-4a38-9cc0-75cacf165e78","system_id":"levelo_inurba_marseille","lat":43.28832,"lon":5.364645,"is_reserved":false,"is_disabled":false,"rental_uris":{"android":"levelo://app?vid=c2e6881a-04a3-4a38-9cc0-75cacf165e78","ios":"levelo://app?vid=c2e6881a-04a3-4a38-9cc0-75cacf165e78"},"vehicle_type_id":"4","last_reported":1743610382,"current_range_meters":11600,"station_id":"","pricing_plan_id":"cebpf4jnsgd1na2vs0mg"},{"bike_id":"7e08197b-769b-43c5-b194-19a182180bf2","system_id":"levelo_inurba_marseille","lat":43.27074,"lon":5.42277,"is_reserved":false,"is_disabled":false,"rental_uris":{"android":"levelo://app?vid=7e08197b-769b-43c5-b194-19a182180bf2","ios":"levelo://app?vid=7e08197b-769b-43c5-b194-19a182180bf2"},"vehicle_type_id":"4","last_reported":1743610382,"current_range_meters":11600,"station_id":"ce4bhk92rcd13ifvqgb0","pricing_plan_id":"cebpf4jnsgd1na2vs0mg"},{"bike_id":"b5fa61b4-55c0-4d0f-b518-f0583e71aca3","system_id":"levelo_inurba_marseille","lat":43.2293,"lon":5.3539,"is_reserved":false,"is_disabled":false,"rental_uris":{"android":"levelo://app?vid=b5fa61b4-55c0-4d0f-b518-f0583e71aca3","ios":"levelo://app?vid=b5fa61b4-55c0-4d0f-b518-f0583e71aca3"},"vehicle_type_id":"4","last_reported":1743610382,"current_range_meters":11600,"station_id":"cpo3532slgdg3j2ikp40","pricing_plan_id":"cebpf4jnsgd1na2vs0mg"},{"bike_id":"916a69d9-9a18-44b3-8f64-921e342d8d7a","system_id":"levelo_inurba_marseille","lat":43.29795,"lon":5.39344,"is_reserved":false,"is_disabled":false,"rental_uris":{"android":"levelo://app?vid=916a69d9-9a18-44b3-8f64-921e342d8d7a","ios":"levelo://app?vid=916a69d9-9a18-44b3-8f64-921e342d8d7a"},"vehicle_type_id":"4","last_reported":1743610382,"current_range_meters":11600,"station_id":"chh1huq6cuj3fo74tm60","pricing_plan_id":"cebpf4jnsgd1na2vs0mg"},{"bike_id":"15fda2c7-324a-47c1-98e4-7b6b8dca0361","system_id":"levelo_inurba_marseille","lat":43.28444,"lon":5.39219,"is_reserved":false,"is_disabled":false,"rental_uris":{"android":"levelo://app?vid=15fda2c7-324a-47c1-98e4-7b6b8dca0361","ios":"levelo://app?vid=15fda2c7-324a-47c1-98e4-7b6b8dca0361"},"vehicle_type_id":"4","last_reported":1743610382,"current_range_meters":11200,"station_id":"ce4bhoh2rcd13ifvqh5g","pricing_plan_id":"cebpf4jnsgd1na2vs0mg"},{"bike_id":"b6c83da9-b3c4-4843-9a1d-36871e12515b","system_id":"levelo_inurba_marseille","lat":43.26124,"lon":5.41469,"is_reserved":false,"is_disabled":false,"rental_uris":{"android":"levelo://app?vid=b6c83da9-b3c4-4843-9a1d-36871e12515b","ios":"levelo://app?vid=b6c83da9-b3c4-4843-9a1d-36871e12515b"},"vehicle_type_id":"4","last_reported":1743610382,"current_range_meters":11600,"station_id":"","pricing_plan_id":"cebpf4jnsgd1na2vs0mg"},{"bike_id":"c89f14d9-c4ab-408e-ad23-e7b73656006e","system_id":"levelo_inurba_marseille","lat":43.30377,"lon":5.42485,"is_reserved":false,"is_disabled":false,"rental_uris":{"android":"levelo://app?vid=c89f14d9-c4ab-408e-ad23-e7b73656006e","ios":"levelo://app?vid=c89f14d9-c4ab-408e-ad23-e7b73656006e"},"vehicle_type_id":"4","last_reported":1743610382,"current_range_meters":11600,"station_id":"ce4bhoh2rcd13ifvqh6g","pricing_plan_id":"cebpf4jnsgd1na2vs0mg"},{"bike_id":"0043b90f-3c9c-4239-9e0b-e0bea51b51da","system_id":"levelo_inurba_marseille","lat":43.23536,"lon":5.36062,"is_reserved":false,"is_disabled":false,"rental_uris":{"android":"levelo://app?vid=0043b90f-3c9c-4239-9e0b-e0bea51b51da","ios":"levelo://app?vid=0043b90f-3c9c-4239-9e0b-e0bea51b51da"},"vehicle_type_id":"4","last_reported":1743610382,"current_range_meters":12000,"station_id":"","pricing_plan_id":"cebpf4jnsgd1na2vs0mg"},{"bike_id":"4201d896-f84c-42f2-b587-c1c09ca4491a","system_id":"levelo_inurba_marseille","lat":43.28923,"lon":5.3841,"is_reserved":false,"is_disabled":false,"rental_uris":{"android":"levelo://app?vid=4201d896-f84c-42f2-b587-c1c09ca4491a","ios":"levelo://app?vid=4201d896-f84c-42f2-b587-c1c09ca4491a"},"vehicle_type_id":"4","last_reported":1743610382,"current_range_meters":11600,"station_id":"ce4bh612rcd13ifvqe6g","pricing_plan_id":"cebpf4jnsgd1na2vs0mg"},{"bike_id":"50dbef79-224d-4c02-8fb8-fc0c4cdde583","system_id":"levelo_inurba_marseille","lat":43.28444,"lon":5.39197,"is_reserved":false,"is_disabled":false,"rental_uris":{"android":"levelo://app?vid=50dbef79-224d-4c02-8fb8-fc0c4cdde583","ios":"levelo://app?vid=50dbef79-224d-4c02-8fb8-fc0c4cdde583"},"vehicle_type_id":"4","last_reported":1743610382,"current_range_meters":12000,"station_id":"ce4bhoh2rcd13ifvqh5g","pricing_plan_id":"cebpf4jnsgd1na2vs0mg"},{"bike_id":"77117b80-9afa-4c17-9d40-7e08e33ff58c","system_id":"levelo_inurba_marseille","lat":43.23179,"lon":5.39986,"is_reserved":false,"is_disabled":false,"rental_uris":{"android":"levelo://app?vid=77117b80-9afa-4c17-9d40-7e08e33ff58c","ios":"levelo://app?vid=77117b80-9afa-4c17-9d40-7e08e33ff58c"},"vehicle_type_id":"4","last_reported":1743610382,"current_range_meters":11600,"station_id":"ce4bhn12rcd13ifvqgqg","pricing_plan_id":"cebpf4jnsgd1na2vs0mg"},{"bike_id":"a1e22836-953b-46ed-82e8-ac245dc2ce58","system_id":"levelo_inurba_marseille","lat":43.286595,"lon":5.38666,"is_reserved":false,"is_disabled":false,"rental_uris":{"android":"levelo://app?vid=a1e22836-953b-46ed-82e8-ac245dc2ce58","ios":"levelo://app?vid=a1e22836-953b-46ed-82e8-ac245dc2ce58"},"vehicle_type_id":"4","last_reported":1743610382,"current_range_meters":12000,"station_id":"ce4bh492rcd13ifvqdug","pricing_plan_id":"cebpf4jnsgd1na2vs0mg"},{"bike_id":"7d49898d-4c6e-4131-9fdb-37de62f2c79c","system_id":"levelo_inurba_marseille","lat":43.288973,"lon":5.371302,"is_reserved":false,"is_disabled":false,"rental_uris":{"android":"levelo://app?vid=7d49898d-4c6e-4131-9fdb-37de62f2c79c","ios":"levelo://app?vid=7d49898d-4c6e-4131-9fdb-37de62f2c79c"},"vehicle_type_id":"4","last_reported":1743610382,"current_range_meters":12000,"station_id":"","pricing_plan_id":"cebpf4jnsgd1na2vs0mg"},{"bike_id":"e52d6008-5aa2-4682-a3a4-86a1516a759d","system_id":"levelo_inurba_marseille","lat":43.29424,"lon":5.38617,"is_reserved":false,"is_disabled":false,"rental_uris":{"android":"levelo://app?vid=e52d6008-5aa2-4682-a3a4-86a1516a759d","ios":"levelo://app?vid=e52d6008-5aa2-4682-a3a4-86a1516a759d"},"vehicle_type_id":"4","last_reported":1743610382,"current_range_meters":12000,"station_id":"ce4bh2h2rcd13ifvqdh0","pricing_plan_id":"cebpf4jnsgd1na2vs0mg"},{"bike_id":"c2ddb254-94b9-4479-ae35-280bdce16d3e","system_id":"levelo_inurba_marseille","lat":43.29422,"lon":5.38623,"is_reserved":false,"is_disabled":false,"rental_uris":{"android":"levelo://app?vid=c2ddb254-94b9-4479-ae35-280bdce16d3e","ios":"levelo://app?vid=c2ddb254-94b9-4479-ae35-280bdce16d3e"},"vehicle_type_id":"4","last_reported":1743610382,"current_range_meters":12000,"station_id":"ce4bh2h2rcd13ifvqdh0","pricing_plan_id":"cebpf4jnsgd1na2vs0mg"},{"bike_id":"e1b03b21-5eb0-483c-b4ac-ea8a29304382","system_id":"levelo_inurba_marseille","lat":43.23062,"lon":5.35525,"is_reserved":false,"is_disabled":false,"rental_uris":{"android":"levelo://app?vid=e1b03b21-5eb0-483c-b4ac-ea8a29304382","ios":"levelo://app?vid=e1b03b21-5eb0-483c-b4ac-ea8a29304382"},"vehicle_type_id":"4","last_reported":1743610382,"current_range_meters":12400,"station_id":"cpo3342slgdg3j2ifvpg","pricing_plan_id":"cebpf4jnsgd1na2vs0mg"},{"bike_id":"7ba67d0a-4dd2-434e-9233-c217be617343","system_id":"levelo_inurba_marseille","lat":43.33815,"lon":5.37437,"is_reserved":false,"is_disabled":false,"rental_uris":{"android":"levelo://app?vid=7ba67d0a-4dd2-434e-9233-c217be617343","ios":"levelo://app?vid=7ba67d0a-4dd2-434e-9233-c217be617343"},"vehicle_type_id":"4","last_reported":1743610382,"current_range_meters":12400,"station_id":"","pricing_plan_id":"cebpf4jnsgd1na2vs0mg"},{"bike_id":"441dc5cb-a650-4d42-b623-9fdf0707ad85","system_id":"levelo_inurba_marseille","lat":43.28841,"lon":5.3932,"is_reserved":false,"is_disabled":false,"rental_uris":{"android":"levelo://app?vid=441dc5cb-a650-4d42-b623-9fdf0707ad85","ios":"levelo://app?vid=441dc5cb-a650-4d42-b623-9fdf0707ad85"},"vehicle_type_id":"4","last_reported":1743610382,"current_range_meters":12000,"station_id":"ce4bh2p2rcd13ifvqdi0","pricing_plan_id":"cebpf4jnsgd1na2vs0mg"},{"bike_id":"1b7b7591-4bc5-4372-84ea-14a0f8456685","system_id":"levelo_inurba_marseille","lat":43.23153,"lon":5.43711,"is_reserved":false,"is_disabled":false,"rental_uris":{"android":"levelo://app?vid=1b7b7591-4bc5-4372-84ea-14a0f8456685","ios":"levelo://app?vid=1b7b7591-4bc5-4372-84ea-14a0f8456685"},"vehicle_type_id":"4","last_reported":1743610382,"current_range_meters":12000,"station_id":"ce4bhmp2rcd13ifvqgog","pricing_plan_id":"cebpf4jnsgd1na2vs0mg"},{"bike_id":"ddf4f7bc-b429-4ca6-98cc-3ac180d0ed5f","system_id":"levelo_inurba_marseille","lat":43.23188,"lon":5.35568,"is_reserved":false,"is_disabled":false,"rental_uris":{"android":"levelo://app?vid=ddf4f7bc-b429-4ca6-98cc-3ac180d0ed5f","ios":"levelo://app?vid=ddf4f7bc-b429-4ca6-98cc-3ac180d0ed5f"},"vehicle_type_id":"4","last_reported":1743610382,"current_range_meters":12400,"station_id":"ce4bhu92rcd13ifvqi70","pricing_plan_id":"cebpf4jnsgd1na2vs0mg"},{"bike_id":"b05b8880-44ca-4293-bf65-7b8671c8f465","system_id":"levelo_inurba_marseille","lat":43.31893,"lon":5.40725,"is_reserved":false,"is_disabled":false,"rental_uris":{"android":"levelo://app?vid=b05b8880-44ca-4293-bf65-7b8671c8f465","ios":"levelo://app?vid=b05b8880-44ca-4293-bf65-7b8671c8f465"},"vehicle_type_id":"4","last_reported":1743610382,"current_range_meters":12400,"station_id":"ce4bhq12rcd13ifvqhig","pricing_plan_id":"cebpf4jnsgd1na2vs0mg"},{"bike_id":"6d77d004-8737-4881-8b0e-12e88d8098e0","system_id":"levelo_inurba_marseille","lat":43.292675,"lon":5.38439,"is_reserved":false,"is_disabled":false,"rental_uris":{"android":"levelo://app?vid=6d77d004-8737-4881-8b0e-12e88d8098e0","ios":"levelo://app?vid=6d77d004-8737-4881-8b0e-12e88d8098e0"},"vehicle_type_id":"4","last_reported":1743610382,"current_range_meters":12000,"station_id":"ce4bhlh2rcd13ifvqgig","pricing_plan_id":"cebpf4jnsgd1na2vs0mg"},{"bike_id":"70e5b39f-29e3-4ea9-aa83-5a60a8eec6f8","system_id":"levelo_inurba_marseille","lat":43.25048,"lon":5.41695,"is_reserved":false,"is_disabled":false,"rental_uris":{"android":"levelo://app?vid=70e5b39f-29e3-4ea9-aa83-5a60a8eec6f8","ios":"levelo://app?vid=70e5b39f-29e3-4ea9-aa83-5a60a8eec6f8"},"vehicle_type_id":"4","last_reported":1743610382,"current_range_meters":12400,"station_id":"","pricing_plan_id":"cebpf4jnsgd1na2vs0mg"},{"bike_id":"cd83c8ac-ed09-4369-9279-b6f36f2bbd3c","system_id":"levelo_inurba_marseille","lat":43.30809,"lon":5.38254,"is_reserved":false,"is_disabled":false,"rental_uris":{"android":"levelo://app?vid=cd83c8ac-ed09-4369-9279-b6f36f2bbd3c","ios":"levelo://app?vid=cd83c8ac-ed09-4369-9279-b6f36f2bbd3c"},"vehicle_type_id":"4","last_reported":1743610382,"current_range_meters":12800,"station_id":"","pricing_plan_id":"cebpf4jnsgd1na2vs0mg"},{"bike_id":"1a592dd4-05f6-451a-a281-45bcd19f68ca","system_id":"levelo_inurba_marseille","lat":43.23225,"lon":5.40017,"is_reserved":false,"is_disabled":false,"rental_uris":{"android":"levelo://app?vid=1a592dd4-05f6-451a-a281-45bcd19f68ca","ios":"levelo://app?vid=1a592dd4-05f6-451a-a281-45bcd19f68ca"},"vehicle_type_id":"4","last_reported":1743610382,"current_range_meters":12800,"station_id":"","pricing_plan_id":"cebpf4jnsgd1na2vs0mg"},{"bike_id":"d0969839-22a2-4043-b3d2-045950815d91","system_id":"levelo_inurba_marseille","lat":43.28268,"lon":5.3507,"is_reserved":false,"is_disabled":false,"rental_uris":{"android":"levelo://app?vid=d0969839-22a2-4043-b3d2-045950815d91","ios":"levelo://app?vid=d0969839-22a2-4043-b3d2-045950815d91"},"vehicle_type_id":"4","last_reported":1743610382,"current_range_meters":12800,"station_id":"ce4bhbp2rcd13ifvqerg","pricing_plan_id":"cebpf4jnsgd1na2vs0mg"},{"bike_id":"1925d2eb-79cc-4495-ac55-0d86108c91ee","system_id":"levelo_inurba_marseille","lat":43.23784,"lon":5.39608,"is_reserved":false,"is_disabled":false,"rental_uris":{"android":"levelo://app?vid=1925d2eb-79cc-4495-ac55-0d86108c91ee","ios":"levelo://app?vid=1925d2eb-79cc-4495-ac55-0d86108c91ee"},"vehicle_type_id":"4","last_reported":1743610382,"current_range_meters":12800,"station_id":"","pricing_plan_id":"cebpf4jnsgd1na2vs0mg"},{"bike_id":"3026be77-df9c-4a4a-83d6-132b5a38a0dc","system_id":"levelo_inurba_marseille","lat":43.23198,"lon":5.39969,"is_reserved":false,"is_disabled":false,"rental_uris":{"android":"levelo://app?vid=3026be77-df9c-4a4a-83d6-132b5a38a0dc","ios":"levelo://app?vid=3026be77-df9c-4a4a-83d6-132b5a38a0dc"},"vehicle_type_id":"4","last_reported":1743610382,"current_range_meters":12800,"station_id":"ce4bhn12rcd13ifvqgqg","pricing_plan_id":"cebpf4jnsgd1na2vs0mg"},{"bike_id":"eca000f3-7adb-462c-b7ed-61fb5b2098fc","system_id":"levelo_inurba_marseille","lat":43.229362,"lon":5.353802,"is_reserved":false,"is_disabled":false,"rental_uris":{"android":"levelo://app?vid=eca000f3-7adb-462c-b7ed-61fb5b2098fc","ios":"levelo://app?vid=eca000f3-7adb-462c-b7ed-61fb5b2098fc"},"vehicle_type_id":"4","last_reported":1743610382,"current_range_meters":12800,"station_id":"cpo3532slgdg3j2ikp40","pricing_plan_id":"cebpf4jnsgd1na2vs0mg"},{"bike_id":"380edc5f-64a3-45a1-b84a-bc2f30c5b9bf","system_id":"levelo_inurba_marseille","lat":43.281616,"lon":5.426436,"is_reserved":false,"is_disabled":false,"rental_uris":{"android":"levelo://app?vid=380edc5f-64a3-45a1-b84a-bc2f30c5b9bf","ios":"levelo://app?vid=380edc5f-64a3-45a1-b84a-bc2f30c5b9bf"},"vehicle_type_id":"4","last_reported":1743610382,"current_range_meters":12800,"station_id":"ce4bhnh2rcd13ifvqgug","pricing_plan_id":"cebpf4jnsgd1na2vs0mg"},{"bike_id":"18b33a43-8113-4d0f-b40c-6a7201a04dd5","system_id":"levelo_inurba_marseille","lat":43.32361,"lon":5.36754,"is_reserved":false,"is_disabled":false,"rental_uris":{"android":"levelo://app?vid=18b33a43-8113-4d0f-b40c-6a7201a04dd5","ios":"levelo://app?vid=18b33a43-8113-4d0f-b40c-6a7201a04dd5"},"vehicle_type_id":"4","last_reported":1743610382,"current_range_meters":12800,"station_id":"ce4bhsh2rcd13ifvqi2g","pricing_plan_id":"cebpf4jnsgd1na2vs0mg"},{"bike_id":"0f87ba14-bb4f-426f-9238-517f3b524c4d","system_id":"levelo_inurba_marseille","lat":43.30098,"lon":5.39074,"is_reserved":false,"is_disabled":false,"rental_uris":{"android":"levelo://app?vid=0f87ba14-bb4f-426f-9238-517f3b524c4d","ios":"levelo://app?vid=0f87ba14-bb4f-426f-9238-517f3b524c4d"},"vehicle_type_id":"4","last_reported":1743610382,"current_range_meters":13600,"station_id":"ce4bh192rcd13ifvqdb0","pricing_plan_id":"cebpf4jnsgd1na2vs0mg"},{"bike_id":"6e05811e-06e7-4304-8ce9-6c25e6bc01dd","system_id":"levelo_inurba_marseille","lat":43.32122,"lon":5.36807,"is_reserved":false,"is_disabled":false,"rental_uris":{"android":"levelo://app?vid=6e05811e-06e7-4304-8ce9-6c25e6bc01dd","ios":"levelo://app?vid=6e05811e-06e7-4304-8ce9-6c25e6bc01dd"},"vehicle_type_id":"4","last_reported":1743610382,"current_range_meters":13600,"station_id":"ce4bhrh2rcd13ifvqhug","pricing_plan_id":"cebpf4jnsgd1na2vs0mg"},{"bike_id":"e111ace5-39c9-4488-9abf-b8ef3074cbfe","system_id":"levelo_inurba_marseille","lat":43.26557,"lon":5.37286,"is_reserved":false,"is_disabled":false,"rental_uris":{"android":"levelo://app?vid=e111ace5-39c9-4488-9abf-b8ef3074cbfe","ios":"levelo://app?vid=e111ace5-39c9-4488-9abf-b8ef3074cbfe"},"vehicle_type_id":"4","last_reported":1743610382,"current_range_meters":13600,"station_id":"ce4bhg12rcd13ifvqf70","pricing_plan_id":"cebpf4jnsgd1na2vs0mg"},{"bike_id":"8b37e26e-81a3-4053-a3ff-6a3c02cf4614","system_id":"levelo_inurba_marseille","lat":43.30451,"lon":5.38881,"is_reserved":false,"is_disabled":false,"rental_uris":{"android":"levelo://app?vid=8b37e26e-81a3-4053-a3ff-6a3c02cf4614","ios":"levelo://app?vid=8b37e26e-81a3-4053-a3ff-6a3c02cf4614"},"vehicle_type_id":"4","last_reported":1743610382,"current_range_meters":13600,"station_id":"ce4bgk12rcd13ifvqbi0","pricing_plan_id":"cebpf4jnsgd1na2vs0mg"},{"bike_id":"4b29f8a3-1b56-4fb2-afdb-d95a0927605b","system_id":"levelo_inurba_marseille","lat":43.29524,"lon":5.39046,"is_reserved":false,"is_disabled":false,"rental_uris":{"android":"levelo://app?vid=4b29f8a3-1b56-4fb2-afdb-d95a0927605b","ios":"levelo://app?vid=4b29f8a3-1b56-4fb2-afdb-d95a0927605b"},"vehicle_type_id":"4","last_reported":1743610382,"current_range_meters":13600,"station_id":"ce4bh3p2rcd13ifvqdp0","pricing_plan_id":"cebpf4jnsgd1na2vs0mg"},{"bike_id":"0fe2f9f1-9bd8-4960-8e7b-0f18b3b00570","system_id":"levelo_inurba_marseille","lat":43.28719,"lon":5.36079,"is_reserved":false,"is_disabled":false,"rental_uris":{"android":"levelo://app?vid=0fe2f9f1-9bd8-4960-8e7b-0f18b3b00570","ios":"levelo://app?vid=0fe2f9f1-9bd8-4960-8e7b-0f18b3b00570"},"vehicle_type_id":"4","last_reported":1743610382,"current_range_meters":13600,"station_id":"cki0cbj6b192h4jlfktg","pricing_plan_id":"cebpf4jnsgd1na2vs0mg"},{"bike_id":"9f62f29e-b083-4314-9e82-a49e79ecd17d","system_id":"levelo_inurba_marseille","lat":43.22929,"lon":5.35382,"is_reserved":false,"is_disabled":false,"rental_uris":{"android":"levelo://app?vid=9f62f29e-b083-4314-9e82-a49e79ecd17d","ios":"levelo://app?vid=9f62f29e-b083-4314-9e82-a49e79ecd17d"},"vehicle_type_id":"4","last_reported":1743610382,"current_range_meters":13600,"station_id":"cpo3532slgdg3j2ikp40","pricing_plan_id":"cebpf4jnsgd1na2vs0mg"},{"bike_id":"bfe02deb-411c-495c-8224-e07325a4b23e","system_id":"levelo_inurba_marseille","lat":43.282933,"lon":5.350504,"is_reserved":false,"is_disabled":false,"rental_uris":{"android":"levelo://app?vid=bfe02deb-411c-495c-8224-e07325a4b23e","ios":"levelo://app?vid=bfe02deb-411c-495c-8224-e07325a4b23e"},"vehicle_type_id":"4","last_reported":1743610382,"current_range_meters":13600,"station_id":"ce4bhbp2rcd13ifvqerg","pricing_plan_id":"cebpf4jnsgd1na2vs0mg"},{"bike_id":"a515d627-3024-452e-bdba-3a3edaae3658","system_id":"levelo_inurba_marseille","lat":43.26062,"lon":5.39384,"is_reserved":false,"is_disabled":true,"rental_uris":{"android":"levelo://app?vid=a515d627-3024-452e-bdba-3a3edaae3658","ios":"levelo://app?vid=a515d627-3024-452e-bdba-3a3edaae3658"},"vehicle_type_id":"4","last_reported":1743610382,"current_range_meters":14000,"station_id":"ce4bhh92rcd13ifvqfj0","pricing_plan_id":"cebpf4jnsgd1na2vs0mg"},{"bike_id":"c97c18e2-80ba-45fb-8944-918f985d8a47","system_id":"levelo_inurba_marseille","lat":43.24994,"lon":5.38934,"is_reserved":false,"is_disabled":false,"rental_uris":{"android":"levelo://app?vid=c97c18e2-80ba-45fb-8944-918f985d8a47","ios":"levelo://app?vid=c97c18e2-80ba-45fb-8944-918f985d8a47"},"vehicle_type_id":"4","last_reported":1743610382,"current_range_meters":14000,"station_id":"ce4bhgp2rcd13ifvqfd0","pricing_plan_id":"cebpf4jnsgd1na2vs0mg"},{"bike_id":"44811b1f-dadc-4ff0-ad6d-d9bff29ffed9","system_id":"levelo_inurba_marseille","lat":43.24071,"lon":5.37762,"is_reserved":false,"is_disabled":false,"rental_uris":{"android":"levelo://app?vid=44811b1f-dadc-4ff0-ad6d-d9bff29ffed9","ios":"levelo://app?vid=44811b1f-dadc-4ff0-ad6d-d9bff29ffed9"},"vehicle_type_id":"4","last_reported":1743610382,"current_range_meters":13600,"station_id":"ce4bhnp2rcd13ifvqgvg","pricing_plan_id":"cebpf4jnsgd1na2vs0mg"},{"bike_id":"81809af3-e93d-464c-8085-c0f0daec7269","system_id":"levelo_inurba_marseille","lat":43.23182,"lon":5.39984,"is_reserved":false,"is_disabled":false,"rental_uris":{"android":"levelo://app?vid=81809af3-e93d-464c-8085-c0f0daec7269","ios":"levelo://app?vid=81809af3-e93d-464c-8085-c0f0daec7269"},"vehicle_type_id":"4","last_reported":1743610382,"current_range_meters":14000,"station_id":"ce4bhn12rcd13ifvqgqg","pricing_plan_id":"cebpf4jnsgd1na2vs0mg"},{"bike_id":"6a095927-b89e-457e-9316-58f46ad0002a","system_id":"levelo_inurba_marseille","lat":43.27943,"lon":5.41044,"is_reserved":false,"is_disabled":false,"rental_uris":{"android":"levelo://app?vid=6a095927-b89e-457e-9316-58f46ad0002a","ios":"levelo://app?vid=6a095927-b89e-457e-9316-58f46ad0002a"},"vehicle_type_id":"4","last_reported":1743610382,"current_range_meters":14000,"station_id":"ce4bhnp2rcd13ifvqh0g","pricing_plan_id":"cebpf4jnsgd1na2vs0mg"},{"bike_id":"b42a3554-6cf7-4ca6-a5f8-09a2b004ea30","system_id":"levelo_inurba_marseille","lat":43.30555,"lon":5.36556,"is_reserved":false,"is_disabled":false,"rental_uris":{"android":"levelo://app?vid=b42a3554-6cf7-4ca6-a5f8-09a2b004ea30","ios":"levelo://app?vid=b42a3554-6cf7-4ca6-a5f8-09a2b004ea30"},"vehicle_type_id":"4","last_reported":1743610382,"current_range_meters":14400,"station_id":"ce4bgs12rcd13ifvqcag","pricing_plan_id":"cebpf4jnsgd1na2vs0mg"},{"bike_id":"5907f4a8-3f2a-42ef-a43e-17070cb77ee5","system_id":"levelo_inurba_marseille","lat":43.22932,"lon":5.35373,"is_reserved":false,"is_disabled":false,"rental_uris":{"android":"levelo://app?vid=5907f4a8-3f2a-42ef-a43e-17070cb77ee5","ios":"levelo://app?vid=5907f4a8-3f2a-42ef-a43e-17070cb77ee5"},"vehicle_type_id":"4","last_reported":1743610382,"current_range_meters":14400,"station_id":"cpo3532slgdg3j2ikp40","pricing_plan_id":"cebpf4jnsgd1na2vs0mg"},{"bike_id":"a1566f65-7974-4adb-bc5b-c64d03a44f23","system_id":"levelo_inurba_marseille","lat":43.24995,"lon":5.3893,"is_reserved":false,"is_disabled":false,"rental_uris":{"android":"levelo://app?vid=a1566f65-7974-4adb-bc5b-c64d03a44f23","ios":"levelo://app?vid=a1566f65-7974-4adb-bc5b-c64d03a44f23"},"vehicle_type_id":"4","last_reported":1743610382,"current_range_meters":14800,"station_id":"ce4bhgp2rcd13ifvqfd0","pricing_plan_id":"cebpf4jnsgd1na2vs0mg"},{"bike_id":"a7642e9c-a102-4d29-a258-4101348d65f4","system_id":"levelo_inurba_marseille","lat":43.29166,"lon":5.39331,"is_reserved":false,"is_disabled":false,"rental_uris":{"android":"levelo://app?vid=a7642e9c-a102-4d29-a258-4101348d65f4","ios":"levelo://app?vid=a7642e9c-a102-4d29-a258-4101348d65f4"},"vehicle_type_id":"4","last_reported":1743610382,"current_range_meters":14800,"station_id":"ce4bh192rcd13ifvqdd0","pricing_plan_id":"cebpf4jnsgd1na2vs0mg"},{"bike_id":"22d47046-8bb1-41ae-9bb4-96eb088b2e63","system_id":"levelo_inurba_marseille","lat":43.32126,"lon":5.36833,"is_reserved":false,"is_disabled":false,"rental_uris":{"android":"levelo://app?vid=22d47046-8bb1-41ae-9bb4-96eb088b2e63","ios":"levelo://app?vid=22d47046-8bb1-41ae-9bb4-96eb088b2e63"},"vehicle_type_id":"4","last_reported":1743610382,"current_range_meters":14800,"station_id":"ce4bhrh2rcd13ifvqhug","pricing_plan_id":"cebpf4jnsgd1na2vs0mg"},{"bike_id":"2b7563bf-72ce-4546-bdfe-0681f54925e9","system_id":"levelo_inurba_marseille","lat":43.29256,"lon":5.38436,"is_reserved":false,"is_disabled":true,"rental_uris":{"android":"levelo://app?vid=2b7563bf-72ce-4546-bdfe-0681f54925e9","ios":"levelo://app?vid=2b7563bf-72ce-4546-bdfe-0681f54925e9"},"vehicle_type_id":"4","last_reported":1743610382,"current_range_meters":14800,"station_id":"ce4bh692rcd13ifvqea0","pricing_plan_id":"cebpf4jnsgd1na2vs0mg"},{"bike_id":"9ee75473-dbc9-46a2-8415-b2823654545e","system_id":"levelo_inurba_marseille","lat":43.28729,"lon":5.36079,"is_reserved":false,"is_disabled":false,"rental_uris":{"android":"levelo://app?vid=9ee75473-dbc9-46a2-8415-b2823654545e","ios":"levelo://app?vid=9ee75473-dbc9-46a2-8415-b2823654545e"},"vehicle_type_id":"4","last_reported":1743610382,"current_range_meters":14800,"station_id":"cki0cbj6b192h4jlfktg","pricing_plan_id":"cebpf4jnsgd1na2vs0mg"},{"bike_id":"b86b5b87-f029-48ac-aa00-3a50d7e2c1d2","system_id":"levelo_inurba_marseille","lat":43.32362,"lon":5.36751,"is_reserved":false,"is_disabled":true,"rental_uris":{"android":"levelo://app?vid=b86b5b87-f029-48ac-aa00-3a50d7e2c1d2","ios":"levelo://app?vid=b86b5b87-f029-48ac-aa00-3a50d7e2c1d2"},"vehicle_type_id":"4","last_reported":1743610382,"current_range_meters":14800,"station_id":"ce4bhsh2rcd13ifvqi2g","pricing_plan_id":"cebpf4jnsgd1na2vs0mg"},{"bike_id":"db557723-e6d4-4c56-8297-26b0e069b39b","system_id":"levelo_inurba_marseille","lat":43.2962,"lon":5.37747,"is_reserved":false,"is_disabled":false,"rental_uris":{"android":"levelo://app?vid=db557723-e6d4-4c56-8297-26b0e069b39b","ios":"levelo://app?vid=db557723-e6d4-4c56-8297-26b0e069b39b"},"vehicle_type_id":"4","last_reported":1743610382,"current_range_meters":14800,"station_id":"ce4bgi92rcd13ifvqb90","pricing_plan_id":"cebpf4jnsgd1na2vs0mg"},{"bike_id":"ff140a32-17bc-4869-84f8-ddf174dd08b2","system_id":"levelo_inurba_marseille","lat":43.26202,"lon":5.37931,"is_reserved":false,"is_disabled":false,"rental_uris":{"android":"levelo://app?vid=ff140a32-17bc-4869-84f8-ddf174dd08b2","ios":"levelo://app?vid=ff140a32-17bc-4869-84f8-ddf174dd08b2"},"vehicle_type_id":"4","last_reported":1743610382,"current_range_meters":14400,"station_id":"ce4bhjp2rcd13ifvqg90","pricing_plan_id":"cebpf4jnsgd1na2vs0mg"},{"bike_id":"416984c9-2944-418b-b67e-0d7a35f2cb55","system_id":"levelo_inurba_marseille","lat":43.30646,"lon":5.40085,"is_reserved":false,"is_disabled":false,"rental_uris":{"android":"levelo://app?vid=416984c9-2944-418b-b67e-0d7a35f2cb55","ios":"levelo://app?vid=416984c9-2944-418b-b67e-0d7a35f2cb55"},"vehicle_type_id":"4","last_reported":1743610382,"current_range_meters":15200,"station_id":"ce4bh112rcd13ifvqda0","pricing_plan_id":"cebpf4jnsgd1na2vs0mg"},{"bike_id":"3b3b3948-dd63-4730-ae9d-2fbe8246facf","system_id":"levelo_inurba_marseille","lat":43.30532,"lon":5.36536,"is_reserved":false,"is_disabled":false,"rental_uris":{"android":"levelo://app?vid=3b3b3948-dd63-4730-ae9d-2fbe8246facf","ios":"levelo://app?vid=3b3b3948-dd63-4730-ae9d-2fbe8246facf"},"vehicle_type_id":"4","last_reported":1743610382,"current_range_meters":15200,"station_id":"ce4bgs12rcd13ifvqcag","pricing_plan_id":"cebpf4jnsgd1na2vs0mg"},{"bike_id":"f07b1e63-9c2c-40a8-b53e-678b84347237","system_id":"levelo_inurba_marseille","lat":43.31121,"lon":5.37775,"is_reserved":false,"is_disabled":false,"rental_uris":{"android":"levelo://app?vid=f07b1e63-9c2c-40a8-b53e-678b84347237","ios":"levelo://app?vid=f07b1e63-9c2c-40a8-b53e-678b84347237"},"vehicle_type_id":"4","last_reported":1743610382,"current_range_meters":15200,"station_id":"ce4bgt92rcd13ifvqcg0","pricing_plan_id":"cebpf4jnsgd1na2vs0mg"},{"bike_id":"97aa5e6f-e45b-4e21-a47e-52761ee9cdb1","system_id":"levelo_inurba_marseille","lat":43.32108,"lon":5.36811,"is_reserved":false,"is_disabled":false,"rental_uris":{"android":"levelo://app?vid=97aa5e6f-e45b-4e21-a47e-52761ee9cdb1","ios":"levelo://app?vid=97aa5e6f-e45b-4e21-a47e-52761ee9cdb1"},"vehicle_type_id":"4","last_reported":1743610382,"current_range_meters":15200,"station_id":"ce4bhrh2rcd13ifvqhug","pricing_plan_id":"cebpf4jnsgd1na2vs0mg"},{"bike_id":"9712ca80-a8bd-47fc-860a-9f1ba1d2b649","system_id":"levelo_inurba_marseille","lat":43.29607,"lon":5.38107,"is_reserved":false,"is_disabled":false,"rental_uris":{"android":"levelo://app?vid=9712ca80-a8bd-47fc-860a-9f1ba1d2b649","ios":"levelo://app?vid=9712ca80-a8bd-47fc-860a-9f1ba1d2b649"},"vehicle_type_id":"4","last_reported":1743610382,"current_range_meters":15200,"station_id":"ce4bgl12rcd13ifvqbo0","pricing_plan_id":"cebpf4jnsgd1na2vs0mg"},{"bike_id":"e6f02e74-383c-4bae-b8c4-037430863270","system_id":"levelo_inurba_marseille","lat":43.23062,"lon":5.35493,"is_reserved":false,"is_disabled":false,"rental_uris":{"android":"levelo://app?vid=e6f02e74-383c-4bae-b8c4-037430863270","ios":"levelo://app?vid=e6f02e74-383c-4bae-b8c4-037430863270"},"vehicle_type_id":"4","last_reported":1743610382,"current_range_meters":15200,"station_id":"cpo3342slgdg3j2ifvpg","pricing_plan_id":"cebpf4jnsgd1na2vs0mg"},{"bike_id":"48e0c334-c43d-4bf9-b624-0c2d758b767c","system_id":"levelo_inurba_marseille","lat":43.295227,"lon":5.385195,"is_reserved":false,"is_disabled":false,"rental_uris":{"android":"levelo://app?vid=48e0c334-c43d-4bf9-b624-0c2d758b767c","ios":"levelo://app?vid=48e0c334-c43d-4bf9-b624-0c2d758b767c"},"vehicle_type_id":"4","last_reported":1743610382,"current_range_meters":15200,"station_id":"","pricing_plan_id":"cebpf4jnsgd1na2vs0mg"},{"bike_id":"0a4601a4-edfd-4d6f-8d43-f28546d318d7","system_id":"levelo_inurba_marseille","lat":43.28853,"lon":5.35847,"is_reserved":false,"is_disabled":false,"rental_uris":{"android":"levelo://app?vid=0a4601a4-edfd-4d6f-8d43-f28546d318d7","ios":"levelo://app?vid=0a4601a4-edfd-4d6f-8d43-f28546d318d7"},"vehicle_type_id":"4","last_reported":1743610382,"current_range_meters":15200,"station_id":"ce4bhb12rcd13ifvqem0","pricing_plan_id":"cebpf4jnsgd1na2vs0mg"},{"bike_id":"97c0eecc-8787-4395-b6d9-f622fd6dd4ee","system_id":"levelo_inurba_marseille","lat":43.26139,"lon":5.40909,"is_reserved":false,"is_disabled":true,"rental_uris":{"android":"levelo://app?vid=97c0eecc-8787-4395-b6d9-f622fd6dd4ee","ios":"levelo://app?vid=97c0eecc-8787-4395-b6d9-f622fd6dd4ee"},"vehicle_type_id":"4","last_reported":1743610382,"current_range_meters":16000,"station_id":"","pricing_plan_id":"cebpf4jnsgd1na2vs0mg"},{"bike_id":"6fd15896-5697-470b-8f07-45b11106795c","system_id":"levelo_inurba_marseille","lat":43.32113,"lon":5.36782,"is_reserved":false,"is_disabled":false,"rental_uris":{"android":"levelo://app?vid=6fd15896-5697-470b-8f07-45b11106795c","ios":"levelo://app?vid=6fd15896-5697-470b-8f07-45b11106795c"},"vehicle_type_id":"4","last_reported":1743610382,"current_range_meters":16000,"station_id":"ce4bhrh2rcd13ifvqhug","pricing_plan_id":"cebpf4jnsgd1na2vs0mg"},{"bike_id":"e3a29d38-a611-4b12-87ef-2fb8a21c41d5","system_id":"levelo_inurba_marseille","lat":43.22928,"lon":5.35372,"is_reserved":false,"is_disabled":false,"rental_uris":{"android":"levelo://app?vid=e3a29d38-a611-4b12-87ef-2fb8a21c41d5","ios":"levelo://app?vid=e3a29d38-a611-4b12-87ef-2fb8a21c41d5"},"vehicle_type_id":"4","last_reported":1743610382,"current_range_meters":16000,"station_id":"cpo3532slgdg3j2ikp40","pricing_plan_id":"cebpf4jnsgd1na2vs0mg"},{"bike_id":"78ca934a-98c9-4dbc-b5b6-c2ca906050d2","system_id":"levelo_inurba_marseille","lat":43.29752,"lon":5.38938,"is_reserved":false,"is_disabled":false,"rental_uris":{"android":"levelo://app?vid=78ca934a-98c9-4dbc-b5b6-c2ca906050d2","ios":"levelo://app?vid=78ca934a-98c9-4dbc-b5b6-c2ca906050d2"},"vehicle_type_id":"4","last_reported":1743610382,"current_range_meters":16000,"station_id":"","pricing_plan_id":"cebpf4jnsgd1na2vs0mg"},{"bike_id":"c1c63035-c83b-4419-8cbf-133778d95125","system_id":"levelo_inurba_marseille","lat":43.29822,"lon":5.39358,"is_reserved":false,"is_disabled":true,"rental_uris":{"android":"levelo://app?vid=c1c63035-c83b-4419-8cbf-133778d95125","ios":"levelo://app?vid=c1c63035-c83b-4419-8cbf-133778d95125"},"vehicle_type_id":"4","last_reported":1743610382,"current_range_meters":16000,"station_id":"chh1huq6cuj3fo74tm60","pricing_plan_id":"cebpf4jnsgd1na2vs0mg"},{"bike_id":"b3bff817-2ce3-49c9-84a5-6acd3947b072","system_id":"levelo_inurba_marseille","lat":43.30783,"lon":5.3817,"is_reserved":false,"is_disabled":false,"rental_uris":{"android":"levelo://app?vid=b3bff817-2ce3-49c9-84a5-6acd3947b072","ios":"levelo://app?vid=b3bff817-2ce3-49c9-84a5-6acd3947b072"},"vehicle_type_id":"4","last_reported":1743610382,"current_range_meters":16000,"station_id":"ce4bgt12rcd13ifvqce0","pricing_plan_id":"cebpf4jnsgd1na2vs0mg"},{"bike_id":"07c5536e-4f0e-49e0-b3dc-72caa4769354","system_id":"levelo_inurba_marseille","lat":43.28981,"lon":5.37829,"is_reserved":false,"is_disabled":false,"rental_uris":{"android":"levelo://app?vid=07c5536e-4f0e-49e0-b3dc-72caa4769354","ios":"levelo://app?vid=07c5536e-4f0e-49e0-b3dc-72caa4769354"},"vehicle_type_id":"4","last_reported":1743610382,"current_range_meters":16400,"station_id":"ce4bh9p2rcd13ifvqed0","pricing_plan_id":"cebpf4jnsgd1na2vs0mg"},{"bike_id":"3dbc3d46-7777-4ee1-abe2-41ae010c9497","system_id":"levelo_inurba_marseille","lat":43.29536,"lon":5.39024,"is_reserved":false,"is_disabled":true,"rental_uris":{"android":"levelo://app?vid=3dbc3d46-7777-4ee1-abe2-41ae010c9497","ios":"levelo://app?vid=3dbc3d46-7777-4ee1-abe2-41ae010c9497"},"vehicle_type_id":"4","last_reported":1743610382,"current_range_meters":16400,"station_id":"ce4bh3p2rcd13ifvqdp0","pricing_plan_id":"cebpf4jnsgd1na2vs0mg"},{"bike_id":"3d2a0beb-d919-43cf-a4cd-24b12aa5089a","system_id":"levelo_inurba_marseille","lat":43.295742,"lon":5.399782,"is_reserved":false,"is_disabled":false,"rental_uris":{"android":"levelo://app?vid=3d2a0beb-d919-43cf-a4cd-24b12aa5089a","ios":"levelo://app?vid=3d2a0beb-d919-43cf-a4cd-24b12aa5089a"},"vehicle_type_id":"4","last_reported":1743610382,"current_range_meters":16400,"station_id":"ce4bh312rcd13ifvqdj0","pricing_plan_id":"cebpf4jnsgd1na2vs0mg"},{"bike_id":"60cbeb64-2f5f-43f3-a911-70fdf571bc7c","system_id":"levelo_inurba_marseille","lat":43.30614,"lon":5.36594,"is_reserved":false,"is_disabled":false,"rental_uris":{"android":"levelo://app?vid=60cbeb64-2f5f-43f3-a911-70fdf571bc7c","ios":"levelo://app?vid=60cbeb64-2f5f-43f3-a911-70fdf571bc7c"},"vehicle_type_id":"4","last_reported":1743610382,"current_range_meters":16400,"station_id":"","pricing_plan_id":"cebpf4jnsgd1na2vs0mg"},{"bike_id":"1bd4c5e9-3479-4a34-bfb9-e556a3bbe8ed","system_id":"levelo_inurba_marseille","lat":43.23061,"lon":5.35492,"is_reserved":false,"is_disabled":false,"rental_uris":{"android":"levelo://app?vid=1bd4c5e9-3479-4a34-bfb9-e556a3bbe8ed","ios":"levelo://app?vid=1bd4c5e9-3479-4a34-bfb9-e556a3bbe8ed"},"vehicle_type_id":"4","last_reported":1743610382,"current_range_meters":16400,"station_id":"cpo3342slgdg3j2ifvpg","pricing_plan_id":"cebpf4jnsgd1na2vs0mg"},{"bike_id":"3235ace0-c4ac-4e03-ba48-591643157fa7","system_id":"levelo_inurba_marseille","lat":43.28932,"lon":5.38411,"is_reserved":false,"is_disabled":false,"rental_uris":{"android":"levelo://app?vid=3235ace0-c4ac-4e03-ba48-591643157fa7","ios":"levelo://app?vid=3235ace0-c4ac-4e03-ba48-591643157fa7"},"vehicle_type_id":"4","last_reported":1743610382,"current_range_meters":16000,"station_id":"ce4bh612rcd13ifvqe6g","pricing_plan_id":"cebpf4jnsgd1na2vs0mg"},{"bike_id":"b03b6199-5a05-4799-8eeb-311b24dadbc1","system_id":"levelo_inurba_marseille","lat":43.3133,"lon":5.39701,"is_reserved":false,"is_disabled":false,"rental_uris":{"android":"levelo://app?vid=b03b6199-5a05-4799-8eeb-311b24dadbc1","ios":"levelo://app?vid=b03b6199-5a05-4799-8eeb-311b24dadbc1"},"vehicle_type_id":"4","last_reported":1743610382,"current_range_meters":16400,"station_id":"ce4bgvp2rcd13ifvqcu0","pricing_plan_id":"cebpf4jnsgd1na2vs0mg"},{"bike_id":"b8a95a8d-a761-4206-8e4d-6dfa919c8917","system_id":"levelo_inurba_marseille","lat":43.29253,"lon":5.40898,"is_reserved":false,"is_disabled":false,"rental_uris":{"android":"levelo://app?vid=b8a95a8d-a761-4206-8e4d-6dfa919c8917","ios":"levelo://app?vid=b8a95a8d-a761-4206-8e4d-6dfa919c8917"},"vehicle_type_id":"4","last_reported":1743610382,"current_range_meters":12400,"station_id":"ce4bh192rcd13ifvqdc0","pricing_plan_id":"cebpf4jnsgd1na2vs0mg"},{"bike_id":"b61a33fe-6372-4bd4-9589-3bc407f2f2e1","system_id":"levelo_inurba_marseille","lat":43.29305,"lon":5.37445,"is_reserved":false,"is_disabled":true,"rental_uris":{"android":"levelo://app?vid=b61a33fe-6372-4bd4-9589-3bc407f2f2e1","ios":"levelo://app?vid=b61a33fe-6372-4bd4-9589-3bc407f2f2e1"},"vehicle_type_id":"4","last_reported":1743610382,"current_range_meters":16400,"station_id":"ce4bgi12rcd13ifvqb70","pricing_plan_id":"cebpf4jnsgd1na2vs0mg"},{"bike_id":"005283db-9aca-49eb-ae41-cbf0dc140b6c","system_id":"levelo_inurba_marseille","lat":43.301069,"lon":5.372448,"is_reserved":false,"is_disabled":false,"rental_uris":{"android":"levelo://app?vid=005283db-9aca-49eb-ae41-cbf0dc140b6c","ios":"levelo://app?vid=005283db-9aca-49eb-ae41-cbf0dc140b6c"},"vehicle_type_id":"4","last_reported":1743610382,"current_range_meters":16800,"station_id":"","pricing_plan_id":"cebpf4jnsgd1na2vs0mg"},{"bike_id":"0d8d06e1-dc1f-4f9c-aceb-052eda41b8f0","system_id":"levelo_inurba_marseille","lat":43.31757,"lon":5.3902,"is_reserved":false,"is_disabled":false,"rental_uris":{"android":"levelo://app?vid=0d8d06e1-dc1f-4f9c-aceb-052eda41b8f0","ios":"levelo://app?vid=0d8d06e1-dc1f-4f9c-aceb-052eda41b8f0"},"vehicle_type_id":"4","last_reported":1743610382,"current_range_meters":16800,"station_id":"ce4bhqp2rcd13ifvqhng","pricing_plan_id":"cebpf4jnsgd1na2vs0mg"},{"bike_id":"6e44fcdd-dd77-4fcd-955b-911a2c2d5489","system_id":"levelo_inurba_marseille","lat":43.31156,"lon":5.3872,"is_reserved":false,"is_disabled":false,"rental_uris":{"android":"levelo://app?vid=6e44fcdd-dd77-4fcd-955b-911a2c2d5489","ios":"levelo://app?vid=6e44fcdd-dd77-4fcd-955b-911a2c2d5489"},"vehicle_type_id":"4","last_reported":1743610382,"current_range_meters":17200,"station_id":"ce4bgv12rcd13ifvqcp0","pricing_plan_id":"cebpf4jnsgd1na2vs0mg"},{"bike_id":"191f19f3-0290-47e1-bef2-0da1c6293967","system_id":"levelo_inurba_marseille","lat":43.29801,"lon":5.40398,"is_reserved":false,"is_disabled":false,"rental_uris":{"android":"levelo://app?vid=191f19f3-0290-47e1-bef2-0da1c6293967","ios":"levelo://app?vid=191f19f3-0290-47e1-bef2-0da1c6293967"},"vehicle_type_id":"4","last_reported":1743610382,"current_range_meters":17200,"station_id":"ce4bh112rcd13ifvqd90","pricing_plan_id":"cebpf4jnsgd1na2vs0mg"},