{"last_updated":1742641662,"ttl":60,"version":"2.2","data":{"bikes":[{"bike_id":"c03b7144-92be-4863-9bc2-edd485c0bcce","system_id":"levelo_inurba_marseille","lat":43.275233,"lon":5.383522,"is_reserved":false,"is_disabled":false,"rental_uris":{"android":"levelo://app?vid=c03b7144-92be-4863-9bc2-edd485c0bcce","ios":"levelo://app?vid=c03b7144-92be-4863-9bc2-edd485c0bcce"},"vehicle_type_id":"4","last_reported":1742641662,"current_range_meters":2800,"station_id":"ce4bhh92rcd13ifvqfi0","pricing_plan_id":"cebpf4jnsgd1na2vs0mg"},{"bike_id":"49db28d3-a884-4b82-8d69-edbe7b9691f6","system_id":"levelo_inurba_marseille","lat":43.23967,"lon":5.36628,"is_reserved":false,"is_disabled":true,"rental_uris":{"android":"levelo://app?vid=49db28d3-a884-4b82-8d69-edbe7b9691f6","ios":"levelo://app?vid=49db28d3-a884-4b82-8d69-edbe7b9691f6"},"vehicle_type_id":"4","last_reported":1742641662,"current_range_meters":2800,"station_id":"ce4bhi12rcd13ifvqfp0","pricing_plan_id":"cebpf4jnsgd1na2vs0mg"},{"bike_id":"098fee23-aad8-4b0a-b838-c02083d6effb","system_id":"levelo_inurba_marseille","lat":43.26569,"lon":5.38992,"is_reserved":false,"is_disabled":false,"rental_uris":{"android":"levelo://app?vid=098fee23-aad8-4b0a-b838-c02083d6effb","ios":"levelo://app?vid=098fee23-aad8-4b0a-b838-c02083d6effb"},"vehicle_type_id":"4","last_reported":1742641662,"current_range_meters":3200,"station_id":"ce4bhe12rcd13ifvqf30","pricing_plan_id":"cebpf4jnsgd1na2vs0mg"},{"bike_id":"2ed66818-511f-471f-beee-30dcb1e0cea2","system_id":"levelo_inurba_marseille","lat":43.30254,"lon":5.40068,"is_reserved":false,"is_disabled":false,"rental_uris":{"android":"levelo://app?vid=2ed66818-511f-471f-beee-30dcb1e0cea2","ios":"levelo://app?vid=2ed66818-511f-471f-beee-30dcb1e0cea2"},"vehicle_type_id":"4","last_reported":1742641662,"current_range_meters":3200,"station_id":"ce4bgvh2rcd13ifvqcs0","pricing_plan_id":"cebpf4jnsgd1na2vs0mg"},{"bike_id":"5849a754-9015-4e11-9b5b-5cf89f2fee1d","system_id":"levelo_inurba_marseille","lat":43.23074,"lon":5.35495,"is_reserved":false,"is_disabled":false,"rental_uris":{"android":"levelo://app?vid=5849a754-9015-4e11-9b5b-5cf89f2fee1d","ios":"levelo://app?vid=5849a754-9015-4e11-9b5b-5cf89f2fee1d"},"vehicle_type_id":"4","last_reported":1742641662,"current_range_meters":3200,"station_id":"cpo3342slgdg3j2ifvpg","pricing_plan_id":"cebpf4jnsgd1na2vs0mg"},{"bike_id":"d2f8c05b-f28f-4633-8dd4-9fcd5241ff6e","system_id":"levelo_inurba_marseille","lat":43.23149,"lon":5.43702,"is_reserved":false,"is_disabled":false,"rental_uris":{"android":"levelo://app?vid=d2f8c05b-f28f-4633-8dd4-9fcd5241ff6e","ios":"levelo://app?vid=d2f8c05b-f28f-4633-8dd4-9fcd5241ff6e"},"vehicle_type_id":"4","last_reported":1742641662,"current_range_meters":3200,"station_id":"ce4bhmp2rcd13ifvqgog","pricing_plan_id":"cebpf4jnsgd1na2vs0mg"},{"bike_id":"aacc0cb0-40c1-4d2a-b968-9605ed5b6fea","system_id":"levelo_inurba_marseille","lat":43.2793,"lon":5.39591,"is_reserved":false,"is_disabled":false,"rental_uris":{"android":"levelo://app?vid=aacc0cb0-40c1-4d2a-b968-9605ed5b6fea","ios":"levelo://app?vid=aacc0cb0-40c1-4d2a-b968-9605ed5b6fea"},"vehicle_type_id":"4","last_reported":1742641662,"current_range_meters":3600,"station_id":"ce4bhf92rcd13ifvqf40","pricing_plan_id":"cebpf4jnsgd1na2vs0mg"},{"bike_id":"ad30c625-68e2-44c4-ba7e-d8551ec8c949","system_id":"levelo_inurba_marseille","lat":43.26563,"lon":5.39013,"is_reserved":false,"is_disabled":false,"rental_uris":{"android":"levelo://app?vid=ad30c625-68e2-44c4-ba7e-d8551ec8c949","ios":"levelo://app?vid=ad30c625-68e2-44c4-ba7e-d8551ec8c949"},"vehicle_type_id":"4","last_reported":1742641662,"current_range_meters":3600,"station_id":"ce4bhe12rcd13ifvqf30","pricing_plan_id":"cebpf4jnsgd1na2vs0mg"},{"bike_id":"62bf2f5c-9819-4816-afad-4a268d7a76b8","system_id":"levelo_inurba_marseille","lat":43.24174,"lon":5.36409,"is_reserved":false,"is_disabled":true,"rental_uris":{"android":"levelo://app?vid=62bf2f5c-9819-4816-afad-4a268d7a76b8","ios":"levelo://app?vid=62bf2f5c-9819-4816-afad-4a268d7a76b8"},"vehicle_type_id":"4","last_reported":1742641662,"current_range_meters":4000,"station_id":"cpo36qri1sfpv3e86is0","pricing_plan_id":"cebpf4jnsgd1na2vs0mg"},{"bike_id":"943edd0e-3e91-42b2-9023-3de411bfcfbd","system_id":"levelo_inurba_marseille","lat":43.250036,"lon":5.389304,"is_reserved":false,"is_disabled":false,"rental_uris":{"android":"levelo://app?vid=943edd0e-3e91-42b2-9023-3de411bfcfbd","ios":"levelo://app?vid=943edd0e-3e91-42b2-9023-3de411bfcfbd"},"vehicle_type_id":"4","last_reported":1742641662,"current_range_meters":4400,"station_id":"ce4bhgp2rcd13ifvqfd0","pricing_plan_id":"cebpf4jnsgd1na2vs0mg"},{"bike_id":"b25c16cc-fcf3-4005-ae0f-e8353c1178cb","system_id":"levelo_inurba_marseille","lat":43.24669,"lon":5.38166,"is_reserved":false,"is_disabled":true,"rental_uris":{"android":"levelo://app?vid=b25c16cc-fcf3-4005-ae0f-e8353c1178cb","ios":"levelo://app?vid=b25c16cc-fcf3-4005-ae0f-e8353c1178cb"},"vehicle_type_id":"4","last_reported":1742641662,"current_range_meters":4800,"station_id":"ce4bhih2rcd13ifvqfr0","pricing_plan_id":"cebpf4jnsgd1na2vs0mg"},{"bike_id":"1c3b5361-695c-4ccc-94f9-aca7f37b6d45","system_id":"levelo_inurba_marseille","lat":43.23209,"lon":5.35571,"is_reserved":false,"is_disabled":false,"rental_uris":{"android":"levelo://app?vid=1c3b5361-695c-4ccc-94f9-aca7f37b6d45","ios":"levelo://app?vid=1c3b5361-695c-4ccc-94f9-aca7f37b6d45"},"vehicle_type_id":"4","last_reported":1742641662,"current_range_meters":5600,"station_id":"ce4bhu92rcd13ifvqi70","pricing_plan_id":"cebpf4jnsgd1na2vs0mg"},{"bike_id":"95f2bc9a-b60c-4699-b873-416be36badfc","system_id":"levelo_inurba_marseille","lat":43.26209,"lon":5.37921,"is_reserved":false,"is_disabled":false,"rental_uris":{"android":"levelo://app?vid=95f2bc9a-b60c-4699-b873-416be36badfc","ios":"levelo://app?vid=95f2bc9a-b60c-4699-b873-416be36badfc"},"vehicle_type_id":"4","last_reported":1742641662,"current_range_meters":5600,"station_id":"ce4bhjp2rcd13ifvqg90","pricing_plan_id":"cebpf4jnsgd1na2vs0mg"},{"bike_id":"0c33a386-7a15-4347-9a7f-6ec95e0fefa2","system_id":"levelo_inurba_marseille","lat":43.29565,"lon":5.42295,"is_reserved":false,"is_disabled":false,"rental_uris":{"android":"levelo://app?vid=0c33a386-7a15-4347-9a7f-6ec95e0fefa2","ios":"levelo://app?vid=0c33a386-7a15-4347-9a7f-6ec95e0fefa2"},"vehicle_type_id":"4","last_reported":1742641662,"current_range_meters":6000,"station_id":"ce4bhph2rcd13ifvqhdg","pricing_plan_id":"cebpf4jnsgd1na2vs0mg"},{"bike_id":"99a9070a-7be9-441d-9da2-dfaf000d8b42","system_id":"levelo_inurba_marseille","lat":43.3189,"lon":5.40737,"is_reserved":false,"is_disabled":false,"rental_uris":{"android":"levelo://app?vid=99a9070a-7be9-441d-9da2-dfaf000d8b42","ios":"levelo://app?vid=99a9070a-7be9-441d-9da2-dfaf000d8b42"},"vehicle_type_id":"4","last_reported":1742641662,"current_range_meters":6000,"station_id":"ce4bhq12rcd13ifvqhig","pricing_plan_id":"cebpf4jnsgd1na2vs0mg"},{"bike_id":"3a08fab0-d5ba-474b-ab0a-0708306c0289","system_id":"levelo_inurba_marseille","lat":43.25505,"lon":5.37652,"is_reserved":false,"is_disabled":false,"rental_uris":{"android":"levelo://app?vid=3a08fab0-d5ba-474b-ab0a-0708306c0289","ios":"levelo://app?vid=3a08fab0-d5ba-474b-ab0a-0708306c0289"},"vehicle_type_id":"4","last_reported":1742641662,"current_range_meters":6000,"station_id":"ce4bhh12rcd13ifvqff0","pricing_plan_id":"cebpf4jnsgd1na2vs0mg"},{"bike_id":"a67c54b6-5ce9-4632-8070-5ca7d5b7fc9e","system_id":"levelo_inurba_marseille","lat":43.23041,"lon":5.35467,"is_reserved":false,"is_disabled":false,"rental_uris":{"android":"levelo://app?vid=a67c54b6-5ce9-4632-8070-5ca7d5b7fc9e","ios":"levelo://app?vid=a67c54b6-5ce9-4632-8070-5ca7d5b7fc9e"},"vehicle_type_id":"4","last_reported":1742641662,"current_range_meters":6000,"station_id":"cpo3342slgdg3j2ifvpg","pricing_plan_id":"cebpf4jnsgd1na2vs0mg"},{"bike_id":"a1aded35-0d7c-4d1a-a458-c5e3a293b64e","system_id":"levelo_inurba_marseille","lat":43.24402,"lon":5.3707,"is_reserved":false,"is_disabled":false,"rental_uris":{"android":"levelo://app?vid=a1aded35-0d7c-4d1a-a458-c5e3a293b64e","ios":"levelo://app?vid=a1aded35-0d7c-4d1a-a458-c5e3a293b64e"},"vehicle_type_id":"4","last_reported":1742641662,"current_range_meters":5600,"station_id":"ce4bhhh2rcd13ifvqfk0","pricing_plan_id":"cebpf4jnsgd1na2vs0mg"},{"bike_id":"5f10bab3-612e-404d-a226-7ac9e90c3977","system_id":"levelo_inurba_marseille","lat":43.26211,"lon":5.37438,"is_reserved":false,"is_disabled":false,"rental_uris":{"android":"levelo://app?vid=5f10bab3-612e-404d-a226-7ac9e90c3977","ios":"levelo://app?vid=5f10bab3-612e-404d-a226-7ac9e90c3977"},"vehicle_type_id":"4","last_reported":1742641662,"current_range_meters":6400,"station_id":"ce4bhgp2rcd13ifvqfc0","pricing_plan_id":"cebpf4jnsgd1na2vs0mg"},{"bike_id":"024913c4-6fe2-4177-9439-e96733a5c7f2","system_id":"levelo_inurba_marseille","lat":43.29796,"lon":5.38099,"is_reserved":false,"is_disabled":false,"rental_uris":{"android":"levelo://app?vid=024913c4-6fe2-4177-9439-e96733a5c7f2","ios":"levelo://app?vid=024913c4-6fe2-4177-9439-e96733a5c7f2"},"vehicle_type_id":"4","last_reported":1742641662,"current_range_meters":6400,"station_id":"ce4bgip2rcd13ifvqbb0","pricing_plan_id":"cebpf4jnsgd1na2vs0mg"},{"bike_id":"615cbad4-2e7f-4e73-b863-7aba6587aa5a","system_id":"levelo_inurba_marseille","lat":43.29714,"lon":5.36618,"is_reserved":false,"is_disabled":false,"rental_uris":{"android":"levelo://app?vid=615cbad4-2e7f-4e73-b863-7aba6587aa5a","ios":"levelo://app?vid=615cbad4-2e7f-4e73-b863-7aba6587aa5a"},"vehicle_type_id":"4","last_reported":1742641662,"current_range_meters":6400,"station_id":"ce4bgn12rcd13ifvqbt0","pricing_plan_id":"cebpf4jnsgd1na2vs0mg"},{"bike_id":"264e371d-4be5-4c86-b6ff-2300fb9f3f35","system_id":"levelo_inurba_marseille","lat":43.23194,"lon":5.35551,"is_reserved":false,"is_disabled":false,"rental_uris":{"android":"levelo://app?vid=264e371d-4be5-4c86-b6ff-2300fb9f3f35","ios":"levelo://app?vid=264e371d-4be5-4c86-b6ff-2300fb9f3f35"},"vehicle_type_id":"4","last_reported":1742641662,"current_range_meters":6400,"station_id":"ce4bhu92rcd13ifvqi70","pricing_plan_id":"cebpf4jnsgd1na2vs0mg"},{"bike_id":"9689a4b5-b9bb-45af-815b-74c4658ab903","system_id":"levelo_inurba_marseille","lat":43.25916,"lon":5.40926,"is_reserved":false,"is_disabled":false,"rental_uris":{"android":"levelo://app?vid=9689a4b5-b9bb-45af-815b-74c4658ab903","ios":"levelo://app?vid=9689a4b5-b9bb-45af-815b-74c4658ab903"},"vehicle_type_id":"4","last_reported":1742641662,"current_range_meters":6800,"station_id":"ce4bhm92rcd13ifvqglg","pricing_plan_id":"cebpf4jnsgd1na2vs0mg"},{"bike_id":"f4fef9a8-ed9d-432e-8486-0d7849cef4fe","system_id":"levelo_inurba_marseille","lat":43.29622,"lon":5.37158,"is_reserved":false,"is_disabled":false,"rental_uris":{"android":"levelo://app?vid=f4fef9a8-ed9d-432e-8486-0d7849cef4fe","ios":"levelo://app?vid=f4fef9a8-ed9d-432e-8486-0d7849cef4fe"},"vehicle_type_id":"4","last_reported":1742641662,"current_range_meters":6800,"station_id":"ce4bgnh2rcd13ifvqc0g","pricing_plan_id":"cebpf4jnsgd1na2vs0mg"},{"bike_id":"1d0aee08-f37d-44de-9496-80d4d601b079","system_id":"levelo_inurba_marseille","lat":43.25078,"lon":5.40365,"is_reserved":false,"is_disabled":false,"rental_uris":{"android":"levelo://app?vid=1d0aee08-f37d-44de-9496-80d4d601b079","ios":"levelo://app?vid=1d0aee08-f37d-44de-9496-80d4d601b079"},"vehicle_type_id":"4","last_reported":1742641662,"current_range_meters":6800,"station_id":"ce4bhlh2rcd13ifvqgig","pricing_plan_id":"cebpf4jnsgd1na2vs0mg"},{"bike_id":"29385066-f436-4989-a8a2-20b12e76ba38","system_id":"levelo_inurba_marseille","lat":43.28112,"lon":5.3783,"is_reserved":false,"is_disabled":false,"rental_uris":{"android":"levelo://app?vid=29385066-f436-4989-a8a2-20b12e76ba38","ios":"levelo://app?vid=29385066-f436-4989-a8a2-20b12e76ba38"},"vehicle_type_id":"4","last_reported":1742641662,"current_range_meters":6800,"station_id":"ce4bha12rcd13ifvqee0","pricing_plan_id":"cebpf4jnsgd1na2vs0mg"},{"bike_id":"1f4b5356-d265-454a-aa48-2f7dec9d4d2a","system_id":"levelo_inurba_marseille","lat":43.33719,"lon":5.39189,"is_reserved":false,"is_disabled":false,"rental_uris":{"android":"levelo://app?vid=1f4b5356-d265-454a-aa48-2f7dec9d4d2a","ios":"levelo://app?vid=1f4b5356-d265-454a-aa48-2f7dec9d4d2a"},"vehicle_type_id":"4","last_reported":1742641662,"current_range_meters":6800,"station_id":"ce4bhr92rcd13ifvqhsg","pricing_plan_id":"cebpf4jnsgd1na2vs0mg"},{"bike_id":"d000c8ac-0c96-4fc1-ac84-5f67409cab71","system_id":"levelo_inurba_marseille","lat":43.32499,"lon":5.36551,"is_reserved":false,"is_disabled":false,"rental_uris":{"android":"levelo://app?vid=d000c8ac-0c96-4fc1-ac84-5f67409cab71","ios":"levelo://app?vid=d000c8ac-0c96-4fc1-ac84-5f67409cab71"},"vehicle_type_id":"4","last_reported":1742641662,"current_range_meters":7200,"station_id":"ce4bhs12rcd13ifvqhvg","pricing_plan_id":"cebpf4jnsgd1na2vs0mg"},{"bike_id":"1323d2cd-c4e0-4783-b4f1-4daaeb41faef","system_id":"levelo_inurba_marseille","lat":43.23956,"lon":5.36631,"is_reserved":false,"is_disabled":false,"rental_uris":{"android":"levelo://app?vid=1323d2cd-c4e0-4783-b4f1-4daaeb41faef","ios":"levelo://app?vid=1323d2cd-c4e0-4783-b4f1-4daaeb41faef"},"vehicle_type_id":"4","last_reported":1742641662,"current_range_meters":7200,"station_id":"ce4bhi12rcd13ifvqfp0","pricing_plan_id":"cebpf4jnsgd1na2vs0mg"},{"bike_id":"bf5d7bdb-65a8-4310-b955-6a76e2cbd7fe","system_id":"levelo_inurba_marseille","lat":43.33726,"lon":5.39175,"is_reserved":false,"is_disabled":false,"rental_uris":{"android":"levelo://app?vid=bf5d7bdb-65a8-4310-b955-6a76e2cbd7fe","ios":"levelo://app?vid=bf5d7bdb-65a8-4310-b955-6a76e2cbd7fe"},"vehicle_type_id":"4","last_reported":1742641662,"current_range_meters":7200,"station_id":"ce4bhr92rcd13ifvqhsg","pricing_plan_id":"cebpf4jnsgd1na2vs0mg"},{"bike_id":"37721018-6088-4854-bdbd-b474028d93bb","system_id":"levelo_inurba_marseille","lat":43.31334,"lon":5.39702,"is_reserved":false,"is_disabled":false,"rental_uris":{"android":"levelo://app?vid=37721018-6088-4854-bdbd-b474028d93bb","ios":"levelo://app?vid=37721018-6088-4854-bdbd-b474028d93bb"},"vehicle_type_id":"4","last_reported":1742641662,"current_range_meters":7200,"station_id":"ce4bgvp2rcd13ifvqcu0","pricing_plan_id":"cebpf4jnsgd1na2vs0mg"},{"bike_id":"c41362a9-fbd0-4208-9c70-b2d457ad1df4","system_id":"levelo_inurba_marseille","lat":43.232,"lon":5.35549,"is_reserved":false,"is_disabled":false,"rental_uris":{"android":"levelo://app?vid=c41362a9-fbd0-4208-9c70-b2d457ad1df4","ios":"levelo://app?vid=c41362a9-fbd0-4208-9c70-b2d457ad1df4"},"vehicle_type_id":"4","last_reported":1742641662,"current_range_meters":7200,"station_id":"ce4bhu92rcd13ifvqi70","pricing_plan_id":"cebpf4jnsgd1na2vs0mg"},{"bike_id":"08fb06df-7ebc-45d3-b379-1856bd90c092","system_id":"levelo_inurba_marseille","lat":43.31717,"lon":5.40449,"is_reserved":false,"is_disabled":true,"rental_uris":{"android":"levelo://app?vid=08fb06df-7ebc-45d3-b379-1856bd90c092","ios":"levelo://app?vid=08fb06df-7ebc-45d3-b379-1856bd90c092"},"vehicle_type_id":"4","last_reported":1742641662,"current_range_meters":7200,"station_id":"ce4bh012rcd13ifvqd00","pricing_plan_id":"cebpf4jnsgd1na2vs0mg"},{"bike_id":"b8947409-508b-461c-b433-a1d5d02b6078","system_id":"levelo_inurba_marseille","lat":43.26556,"lon":5.37289,"is_reserved":false,"is_disabled":false,"rental_uris":{"android":"levelo://app?vid=b8947409-508b-461c-b433-a1d5d02b6078","ios":"levelo://app?vid=b8947409-508b-461c-b433-a1d5d02b6078"},"vehicle_type_id":"4","last_reported":1742641662,"current_range_meters":7200,"station_id":"ce4bhg12rcd13ifvqf70","pricing_plan_id":"cebpf4jnsgd1na2vs0mg"},{"bike_id":"78fd32ab-c35b-4581-9109-56c233e230f9","system_id":"levelo_inurba_marseille","lat":43.31134,"lon":5.37761,"is_reserved":false,"is_disabled":false,"rental_uris":{"android":"levelo://app?vid=78fd32ab-c35b-4581-9109-56c233e230f9","ios":"levelo://app?vid=78fd32ab-c35b-4581-9109-56c233e230f9"},"vehicle_type_id":"4","last_reported":1742641662,"current_range_meters":8000,"station_id":"ce4bgt92rcd13ifvqcg0","pricing_plan_id":"cebpf4jnsgd1na2vs0mg"},{"bike_id":"52c16ac5-3447-4053-956c-78fc8bf0dc7c","system_id":"levelo_inurba_marseille","lat":43.32354,"lon":5.36741,"is_reserved":false,"is_disabled":false,"rental_uris":{"android":"levelo://app?vid=52c16ac5-3447-4053-956c-78fc8bf0dc7c","ios":"levelo://app?vid=52c16ac5-3447-4053-956c-78fc8bf0dc7c"},"vehicle_type_id":"4","last_reported":1742641662,"current_range_meters":8000,"station_id":"ce4bhsh2rcd13ifvqi2g","pricing_plan_id":"cebpf4jnsgd1na2vs0mg"},{"bike_id":"9f1c3e5c-869d-4869-b7c6-0c926f2da6bf","system_id":"levelo_inurba_marseille","lat":43.28386,"lon":5.39806,"is_reserved":false,"is_disabled":false,"rental_uris":{"android":"levelo://app?vid=9f1c3e5c-869d-4869-b7c6-0c926f2da6bf","ios":"levelo://app?vid=9f1c3e5c-869d-4869-b7c6-0c926f2da6bf"},"vehicle_type_id":"4","last_reported":1742641662,"current_range_meters":8000,"station_id":"","pricing_plan_id":"cebpf4jnsgd1na2vs0mg"},{"bike_id":"c5fee7ce-e99b-41d7-bf02-104474486b07","system_id":"levelo_inurba_marseille","lat":43.2321,"lon":5.35507,"is_reserved":false,"is_disabled":false,"rental_uris":{"android":"levelo://app?vid=c5fee7ce-e99b-41d7-bf02-104474486b07","ios":"levelo://app?vid=c5fee7ce-e99b-41d7-bf02-104474486b07"},"vehicle_type_id":"4","last_reported":1742641662,"current_range_meters":8000,"station_id":"ce4bhu92rcd13ifvqi70","pricing_plan_id":"cebpf4jnsgd1na2vs0mg"},{"bike_id":"20e2be53-78ac-4b24-8dad-96b43d72add2","system_id":"levelo_inurba_marseille","lat":43.31069,"lon":5.38345,"is_reserved":false,"is_disabled":false,"rental_uris":{"android":"levelo://app?vid=20e2be53-78ac-4b24-8dad-96b43d72add2","ios":"levelo://app?vid=20e2be53-78ac-4b24-8dad-96b43d72add2"},"vehicle_type_id":"4","last_reported":1742641662,"current_range_meters":8000,"station_id":"ce4bgv92rcd13ifvqcr0","pricing_plan_id":"cebpf4jnsgd1na2vs0mg"},{"bike_id":"312ef421-78b3-4801-9408-63746d758ccd","system_id":"levelo_inurba_marseille","lat":43.24811,"lon":5.3745,"is_reserved":false,"is_disabled":false,"rental_uris":{"android":"levelo://app?vid=312ef421-78b3-4801-9408-63746d758ccd","ios":"levelo://app?vid=312ef421-78b3-4801-9408-63746d758ccd"},"vehicle_type_id":"4","last_reported":1742641662,"current_range_meters":8000,"station_id":"ce4bhgh2rcd13ifvqfb0","pricing_plan_id":"cebpf4jnsgd1na2vs0mg"},{"bike_id":"9b80c4db-51e1-4e4e-8ecd-a558d3a24fd7","system_id":"levelo_inurba_marseille","lat":43.33169,"lon":5.38171,"is_reserved":false,"is_disabled":false,"rental_uris":{"android":"levelo://app?vid=9b80c4db-51e1-4e4e-8ecd-a558d3a24fd7","ios":"levelo://app?vid=9b80c4db-51e1-4e4e-8ecd-a558d3a24fd7"},"vehicle_type_id":"4","last_reported":1742641662,"current_range_meters":8000,"station_id":"","pricing_plan_id":"cebpf4jnsgd1na2vs0mg"},{"bike_id":"a415e992-f11f-4967-ad68-dd5ad4edde5d","system_id":"levelo_inurba_marseille","lat":43.24073,"lon":5.37765,"is_reserved":false,"is_disabled":false,"rental_uris":{"android":"levelo://app?vid=a415e992-f11f-4967-ad68-dd5ad4edde5d","ios":"levelo://app?vid=a415e992-f11f-4967-ad68-dd5ad4edde5d"},"vehicle_type_id":"4","last_reported":1742641662,"current_range_meters":8000,"station_id":"ce4bhnp2rcd13ifvqgvg","pricing_plan_id":"cebpf4jnsgd1na2vs0mg"},{"bike_id":"3ee69224-7c6a-448e-b5bc-935bb2df6bdf","system_id":"levelo_inurba_marseille","lat":43.28076,"lon":5.39663,"is_reserved":false,"is_disabled":false,"rental_uris":{"android":"levelo://app?vid=3ee69224-7c6a-448e-b5bc-935bb2df6bdf","ios":"levelo://app?vid=3ee69224-7c6a-448e-b5bc-935bb2df6bdf"},"vehicle_type_id":"4","last_reported":1742641662,"current_range_meters":8000,"station_id":"ce4bho12rcd13ifvqh2g","pricing_plan_id":"cebpf4jnsgd1na2vs0mg"},{"bike_id":"3bcea25f-c668-4790-913c-77c8575a9167","system_id":"levelo_inurba_marseille","lat":43.29623,"lon":5.37163,"is_reserved":false,"is_disabled":false,"rental_uris":{"android":"levelo://app?vid=3bcea25f-c668-4790-913c-77c8575a9167","ios":"levelo://app?vid=3bcea25f-c668-4790-913c-77c8575a9167"},"vehicle_type_id":"4","last_reported":1742641662,"current_range_meters":8400,"station_id":"ce4bgnh2rcd13ifvqc0g","pricing_plan_id":"cebpf4jnsgd1na2vs0mg"},{"bike_id":"7a80749b-56dc-4ab1-a2d7-268dfcb799e2","system_id":"levelo_inurba_marseille","lat":43.23962,"lon":5.36629,"is_reserved":false,"is_disabled":false,"rental_uris":{"android":"levelo://app?vid=7a80749b-56dc-4ab1-a2d7-268dfcb799e2","ios":"levelo://app?vid=7a80749b-56dc-4ab1-a2d7-268dfcb799e2"},"vehicle_type_id":"4","last_reported":1742641662,"current_range_meters":8400,"station_id":"ce4bhi12rcd13ifvqfp0","pricing_plan_id":"cebpf4jnsgd1na2vs0mg"},{"bike_id":"4ce5074b-08cb-460a-957f-15da0a3834c3","system_id":"levelo_inurba_marseille","lat":43.265598,"lon":5.390401,"is_reserved":false,"is_disabled":false,"rental_uris":{"android":"levelo://app?vid=4ce5074b-08cb-460a-957f-15da0a3834c3","ios":"levelo://app?vid=4ce5074b-08cb-460a-957f-15da0a3834c3"},"vehicle_type_id":"4","last_reported":1742641662,"current_range_meters":8400,"station_id":"ce4bhe12rcd13ifvqf30","pricing_plan_id":"cebpf4jnsgd1na2vs0mg"},{"bike_id":"3d78c221-8fa1-497a-9111-f1cd39abc477","system_id":"levelo_inurba_marseille","lat":43.28614,"lon":5.35098,"is_reserved":false,"is_disabled":false,"rental_uris":{"android":"levelo://app?vid=3d78c221-8fa1-497a-9111-f1cd39abc477","ios":"levelo://app?vid=3d78c221-8fa1-497a-9111-f1cd39abc477"},"vehicle_type_id":"4","last_reported":1742641662,"current_range_meters":8400,"station_id":"ce4bhch2rcd13ifvqeug","pricing_plan_id":"cebpf4jnsgd1na2vs0mg"},{"bike_id":"0faeda17-87f9-4308-b369-97acc6c5068b","system_id":"levelo_inurba_marseille","lat":43.24536,"lon":5.39516,"is_reserved":false,"is_disabled":false,"rental_uris":{"android":"levelo://app?vid=0faeda17-87f9-4308-b369-97acc6c5068b","ios":"levelo://app?vid=0faeda17-87f9-4308-b369-97acc6c5068b"},"vehicle_type_id":"4","last_reported":1742641662,"current_range_meters":8400,"station_id":"ce4bhlp2rcd13ifvqgjg","pricing_plan_id":"cebpf4jnsgd1na2vs0mg"},{"bike_id":"9d07a3a6-3f7c-48fe-9011-ba3e0ab4b461","system_id":"levelo_inurba_marseille","lat":43.265727,"lon":5.390044,"is_reserved":false,"is_disabled":false,"rental_uris":{"android":"levelo://app?vid=9d07a3a6-3f7c-48fe-9011-ba3e0ab4b461","ios":"levelo://app?vid=9d07a3a6-3f7c-48fe-9011-ba3e0ab4b461"},"vehicle_type_id":"4","last_reported":1742641662,"current_range_meters":8400,"station_id":"ce4bhe12rcd13ifvqf30","pricing_plan_id":"cebpf4jnsgd1na2vs0mg"},{"bike_id":"7a7c73e7-a501-4b78-9258-d3fd6f0e0ef8","system_id":"levelo_inurba_marseille","lat":43.287321,"lon":5.364519,"is_reserved":false,"is_disabled":false,"rental_uris":{"android":"levelo://app?vid=7a7c73e7-a501-4b78-9258-d3fd6f0e0ef8","ios":"levelo://app?vid=7a7c73e7-a501-4b78-9258-d3fd6f0e0ef8"},"vehicle_type_id":"4","last_reported":1742641662,"current_range_meters":8400,"station_id":"","pricing_plan_id":"cebpf4jnsgd1na2vs0mg"},{"bike_id":"276613ec-3310-44d6-ae3f-44328dd4fd15","system_id":"levelo_inurba_marseille","lat":43.25832,"lon":5.3943,"is_reserved":false,"is_disabled":false,"rental_uris":{"android":"levelo://app?vid=276613ec-3310-44d6-ae3f-44328dd4fd15","ios":"levelo://app?vid=276613ec-3310-44d6-ae3f-44328dd4fd15"},"vehicle_type_id":"4","last_reported":1742641662,"current_range_meters":8400,"station_id":"ce4bhip2rcd13ifvqft0","pricing_plan_id":"cebpf4jnsgd1na2vs0mg"},{"bike_id":"1e329981-32ec-4db9-ac56-d0eef0cb77c5","system_id":"levelo_inurba_marseille","lat":43.262282,"lon":5.404501,"is_reserved":false,"is_disabled":false,"rental_uris":{"android":"levelo://app?vid=1e329981-32ec-4db9-ac56-d0eef0cb77c5","ios":"levelo://app?vid=1e329981-32ec-4db9-ac56-d0eef0cb77c5"},"vehicle_type_id":"4","last_reported":1742641662,"current_range_meters":8400,"station_id":"ce4bgip2rcd13ifvqbb0","pricing_plan_id":"cebpf4jnsgd1na2vs0mg"},{"bike_id":"295b2b96-8a22-4b6f-a45b-df5a7ed58969","system_id":"levelo_inurba_marseille","lat":43.33726,"lon":5.39183,"is_reserved":false,"is_disabled":false,"rental_uris":{"android":"levelo://app?vid=295b2b96-8a22-4b6f-a45b-df5a7ed58969","ios":"levelo://app?vid=295b2b96-8a22-4b6f-a45b-df5a7ed58969"},"vehicle_type_id":"4","last_reported":1742641662,"current_range_meters":8800,"station_id":"ce4bhr92rcd13ifvqhsg","pricing_plan_id":"cebpf4jnsgd1na2vs0mg"},{"bike_id":"80abfb19-6c65-4c22-8da9-c79ad40021d8","system_id":"levelo_inurba_marseille","lat":43.29718,"lon":5.365931,"is_reserved":false,"is_disabled":false,"rental_uris":{"android":"levelo://app?vid=80abfb19-6c65-4c22-8da9-c79ad40021d8","ios":"levelo://app?vid=80abfb19-6c65-4c22-8da9-c79ad40021d8"},"vehicle_type_id":"4","last_reported":1742641662,"current_range_meters":8800,"station_id":"ce4bgn12rcd13ifvqbt0","pricing_plan_id":"cebpf4jnsgd1na2vs0mg"},{"bike_id":"e740b9b4-06a0-4ee9-ac7e-588f92dc5db0","system_id":"levelo_inurba_marseille","lat":43.25505,"lon":5.37649,"is_reserved":false,"is_disabled":false,"rental_uris":{"android":"levelo://app?vid=e740b9b4-06a0-4ee9-ac7e-588f92dc5db0","ios":"levelo://app?vid=e740b9b4-06a0-4ee9-ac7e-588f92dc5db0"},"vehicle_type_id":"4","last_reported":1742641662,"current_range_meters":8800,"station_id":"ce4bhh12rcd13ifvqff0","pricing_plan_id":"cebpf4jnsgd1na2vs0mg"},{"bike_id":"6b70fd6c-b1bf-4978-b55a-bc3f839f3099","system_id":"levelo_inurba_marseille","lat":43.325,"lon":5.36562,"is_reserved":false,"is_disabled":false,"rental_uris":{"android":"levelo://app?vid=6b70fd6c-b1bf-4978-b55a-bc3f839f3099","ios":"levelo://app?vid=6b70fd6c-b1bf-4978-b55a-bc3f839f3099"},"vehicle_type_id":"4","last_reported":1742641662,"current_range_meters":8800,"station_id":"ce4bhs12rcd13ifvqhvg","pricing_plan_id":"cebpf4jnsgd1na2vs0mg"},{"bike_id":"65b642d2-4bbc-47bd-9c36-3f213e795fd7","system_id":"levelo_inurba_marseille","lat":43.258282,"lon":5.394247,"is_reserved":false,"is_disabled":false,"rental_uris":{"android":"levelo://app?vid=65b642d2-4bbc-47bd-9c36-3f213e795fd7","ios":"levelo://app?vid=65b642d2-4bbc-47bd-9c36-3f213e795fd7"},"vehicle_type_id":"4","last_reported":1742641662,"current_range_meters":8800,"station_id":"ce4bhip2rcd13ifvqft0","pricing_plan_id":"cebpf4jnsgd1na2vs0mg"},{"bike_id":"c7690d8f-d650-495b-82f0-2abd9a4308b7","system_id":"levelo_inurba_marseille","lat":43.25585,"lon":5.38213,"is_reserved":false,"is_disabled":false,"rental_uris":{"android":"levelo://app?vid=c7690d8f-d650-495b-82f0-2abd9a4308b7","ios":"levelo://app?vid=c7690d8f-d650-495b-82f0-2abd9a4308b7"},"vehicle_type_id":"4","last_reported":1742641662,"current_range_meters":9200,"station_id":"ce4bhih2rcd13ifvqfs0","pricing_plan_id":"cebpf4jnsgd1na2vs0mg"},{"bike_id":"8d7c58a2-16d8-4f12-9c6b-4f1f62b06123","system_id":"levelo_inurba_marseille","lat":43.29579,"lon":5.37513,"is_reserved":false,"is_disabled":false,"rental_uris":{"android":"levelo://app?vid=8d7c58a2-16d8-4f12-9c6b-4f1f62b06123","ios":"levelo://app?vid=8d7c58a2-16d8-4f12-9c6b-4f1f62b06123"},"vehicle_type_id":"4","last_reported":1742641662,"current_range_meters":9200,"station_id":"ce4bgh92rcd13ifvqb50","pricing_plan_id":"cebpf4jnsgd1na2vs0mg"},{"bike_id":"90f94ee5-3287-4549-87c6-9f8022db7a58","system_id":"levelo_inurba_marseille","lat":43.335948,"lon":5.41038,"is_reserved":false,"is_disabled":false,"rental_uris":{"android":"levelo://app?vid=90f94ee5-3287-4549-87c6-9f8022db7a58","ios":"levelo://app?vid=90f94ee5-3287-4549-87c6-9f8022db7a58"},"vehicle_type_id":"4","last_reported":1742641662,"current_range_meters":9200,"station_id":"ce4bhqh2rcd13ifvqhmg","pricing_plan_id":"cebpf4jnsgd1na2vs0mg"},{"bike_id":"f145f844-5ab2-4380-adbd-baab3fdeb2c9","system_id":"levelo_inurba_marseille","lat":43.27561,"lon":5.38425,"is_reserved":false,"is_disabled":false,"rental_uris":{"android":"levelo://app?vid=f145f844-5ab2-4380-adbd-baab3fdeb2c9","ios":"levelo://app?vid=f145f844-5ab2-4380-adbd-baab3fdeb2c9"},"vehicle_type_id":"4","last_reported":1742641662,"current_range_meters":9200,"station_id":"ce4bhh92rcd13ifvqfi0","pricing_plan_id":"cebpf4jnsgd1na2vs0mg"},{"bike_id":"1d6421f0-872b-4a7a-85a2-89cc638471a8","system_id":"levelo_inurba_marseille","lat":43.23966,"lon":5.36624,"is_reserved":false,"is_disabled":false,"rental_uris":{"android":"levelo://app?vid=1d6421f0-872b-4a7a-85a2-89cc638471a8","ios":"levelo://app?vid=1d6421f0-872b-4a7a-85a2-89cc638471a8"},"vehicle_type_id":"4","last_reported":1742641662,"current_range_meters":9200,"station_id":"ce4bhi12rcd13ifvqfp0","pricing_plan_id":"cebpf4jnsgd1na2vs0mg"},{"bike_id":"87e2e2e8-8fdc-44a7-ae05-f3390d7856da","system_id":"levelo_inurba_marseille","lat":43.28849,"lon":5.39343,"is_reserved":false,"is_disabled":false,"rental_uris":{"android":"levelo://app?vid=87e2e2e8-8fdc-44a7-ae05-f3390d7856da","ios":"levelo://app?vid=87e2e2e8-8fdc-44a7-ae05-f3390d7856da"},"vehicle_type_id":"4","last_reported":1742641662,"current_range_meters":9200,"station_id":"ce4bh2p2rcd13ifvqdi0","pricing_plan_id":"cebpf4jnsgd1na2vs0mg"},{"bike_id":"e1e493b8-6ddd-477f-a5c7-ce583728c84a","system_id":"levelo_inurba_marseille","lat":43.290253,"lon":5.381443,"is_reserved":false,"is_disabled":false,"rental_uris":{"android":"levelo://app?vid=e1e493b8-6ddd-477f-a5c7-ce583728c84a","ios":"levelo://app?vid=e1e493b8-6ddd-477f-a5c7-ce583728c84a"},"vehicle_type_id":"4","last_reported":1742641662,"current_range_meters":9600,"station_id":"ce4bh4p2rcd13ifvqe1g","pricing_plan_id":"cebpf4jnsgd1na2vs0mg"},{"bike_id":"d8f3c9bf-92b7-47a9-a1bd-28dcfe498e70","system_id":"levelo_inurba_marseille","lat":43.2862,"lon":5.35105,"is_reserved":false,"is_disabled":false,"rental_uris":{"android":"levelo://app?vid=d8f3c9bf-92b7-47a9-a1bd-28dcfe498e70","ios":"levelo://app?vid=d8f3c9bf-92b7-47a9-a1bd-28dcfe498e70"},"vehicle_type_id":"4","last_reported":1742641662,"current_range_meters":9600,"station_id":"ce4bhch2rcd13ifvqeug","pricing_plan_id":"cebpf4jnsgd1na2vs0mg"},{"bike_id":"8228d35c-1f69-4fde-b5fb-f4201580073d","system_id":"levelo_inurba_marseille","lat":43.29986,"lon":5.38483,"is_reserved":false,"is_disabled":false,"rental_uris":{"android":"levelo://app?vid=8228d35c-1f69-4fde-b5fb-f4201580073d","ios":"levelo://app?vid=8228d35c-1f69-4fde-b5fb-f4201580073d"},"vehicle_type_id":"4","last_reported":1742641662,"current_range_meters":9600,"station_id":"ce4bgj92rcd13ifvqbd0","pricing_plan_id":"cebpf4jnsgd1na2vs0mg"},{"bike_id":"7f396ae9-244b-4126-bc7a-2312f6e4d9ee","system_id":"levelo_inurba_marseille","lat":43.3374,"lon":5.39194,"is_reserved":false,"is_disabled":false,"rental_uris":{"android":"levelo://app?vid=7f396ae9-244b-4126-bc7a-2312f6e4d9ee","ios":"levelo://app?vid=7f396ae9-244b-4126-bc7a-2312f6e4d9ee"},"vehicle_type_id":"4","last_reported":1742641662,"current_range_meters":9600,"station_id":"ce4bhr92rcd13ifvqhsg","pricing_plan_id":"cebpf4jnsgd1na2vs0mg"},{"bike_id":"ab4e6f37-6480-4bc2-8411-c7e7280c2601","system_id":"levelo_inurba_marseille","lat":43.2842,"lon":5.34987,"is_reserved":false,"is_disabled":false,"rental_uris":{"android":"levelo://app?vid=ab4e6f37-6480-4bc2-8411-c7e7280c2601","ios":"levelo://app?vid=ab4e6f37-6480-4bc2-8411-c7e7280c2601"},"vehicle_type_id":"4","last_reported":1742641662,"current_range_meters":9600,"station_id":"ce4bhbh2rcd13ifvqepg","pricing_plan_id":"cebpf4jnsgd1na2vs0mg"},{"bike_id":"b5fcb98a-c8d5-4f1a-a9b4-b3362af2a9c7","system_id":"levelo_inurba_marseille","lat":43.23066,"lon":5.35496,"is_reserved":false,"is_disabled":false,"rental_uris":{"android":"levelo://app?vid=b5fcb98a-c8d5-4f1a-a9b4-b3362af2a9c7","ios":"levelo://app?vid=b5fcb98a-c8d5-4f1a-a9b4-b3362af2a9c7"},"vehicle_type_id":"4","last_reported":1742641662,"current_range_meters":9600,"station_id":"cpo3342slgdg3j2ifvpg","pricing_plan_id":"cebpf4jnsgd1na2vs0mg"},{"bike_id":"1b3e26a0-81ec-4c8f-99fa-5d6d73e41d0a","system_id":"levelo_inurba_marseille","lat":43.26557,"lon":5.37283,"is_reserved":false,"is_disabled":false,"rental_uris":{"android":"levelo://app?vid=1b3e26a0-81ec-4c8f-99fa-5d6d73e41d0a","ios":"levelo://app?vid=1b3e26a0-81ec-4c8f-99fa-5d6d73e41d0a"},"vehicle_type_id":"4","last_reported":1742641662,"current_range_meters":9600,"station_id":"ce4bhg12rcd13ifvqf70","pricing_plan_id":"cebpf4jnsgd1na2vs0mg"},{"bike_id":"0d031e38-671e-4c56-9907-45b6af81e4d6","system_id":"levelo_inurba_marseille","lat":43.29708,"lon":5.37703,"is_reserved":false,"is_disabled":false,"rental_uris":{"android":"levelo://app?vid=0d031e38-671e-4c56-9907-45b6af81e4d6","ios":"levelo://app?vid=0d031e38-671e-4c56-9907-45b6af81e4d6"},"vehicle_type_id":"4","last_reported":1742641662,"current_range_meters":9600,"station_id":"ce4bgkh2rcd13ifvqbl0","pricing_plan_id":"cebpf4jnsgd1na2vs0mg"},{"bike_id":"fe239f3d-5c83-42bd-8b99-e0b3f3784fb5","system_id":"levelo_inurba_marseille","lat":43.24619,"lon":5.3839,"is_reserved":false,"is_disabled":false,"rental_uris":{"android":"levelo://app?vid=fe239f3d-5c83-42bd-8b99-e0b3f3784fb5","ios":"levelo://app?vid=fe239f3d-5c83-42bd-8b99-e0b3f3784fb5"},"vehicle_type_id":"4","last_reported":1742641662,"current_range_meters":9600,"station_id":"","pricing_plan_id":"cebpf4jnsgd1na2vs0mg"},{"bike_id":"a0803fc7-7c01-4615-afb9-e1e35a6349e8","system_id":"levelo_inurba_marseille","lat":43.28155,"lon":5.42639,"is_reserved":false,"is_disabled":false,"rental_uris":{"android":"levelo://app?vid=a0803fc7-7c01-4615-afb9-e1e35a6349e8","ios":"levelo://app?vid=a0803fc7-7c01-4615-afb9-e1e35a6349e8"},"vehicle_type_id":"4","last_reported":1742641662,"current_range_meters":9600,"station_id":"ce4bhnh2rcd13ifvqgug","pricing_plan_id":"cebpf4jnsgd1na2vs0mg"},{"bike_id":"d99d1c75-952d-45c9-8de9-98b93d7ebe83","system_id":"levelo_inurba_marseille","lat":43.26935,"lon":5.40255,"is_reserved":false,"is_disabled":false,"rental_uris":{"android":"levelo://app?vid=d99d1c75-952d-45c9-8de9-98b93d7ebe83","ios":"levelo://app?vid=d99d1c75-952d-45c9-8de9-98b93d7ebe83"},"vehicle_type_id":"4","last_reported":1742641662,"current_range_meters":10000,"station_id":"cjm6bp8fraef2m0cb0m0","pricing_plan_id":"cebpf4jnsgd1na2vs0mg"},{"bike_id":"6303fd16-e919-43a3-b09d-f081f34784c7","system_id":"levelo_inurba_marseille","lat":43.31066,"lon":5.38353,"is_reserved":false,"is_disabled":false,"rental_uris":{"android":"levelo://app?vid=6303fd16-e919-43a3-b09d-f081f34784c7","ios":"levelo://app?vid=6303fd16-e919-43a3-b09d-f081f34784c7"},"vehicle_type_id":"4","last_reported":1742641662,"current_range_meters":10800,"station_id":"ce4bgv92rcd13ifvqcr0","pricing_plan_id":"cebpf4jnsgd1na2vs0mg"},{"bike_id":"d459651c-b15f-4ece-9ae9-49dce789e945","system_id":"levelo_inurba_marseille","lat":43.30553,"lon":5.36525,"is_reserved":false,"is_disabled":false,"rental_uris":{"android":"levelo://app?vid=d459651c-b15f-4ece-9ae9-49dce789e945","ios":"levelo://app?vid=d459651c-b15f-4ece-9ae9-49dce789e945"},"vehicle_type_id":"4","last_reported":1742641662,"current_range_meters":10800,"station_id":"ce4bgs12rcd13ifvqcag","pricing_plan_id":"cebpf4jnsgd1na2vs0mg"},{"bike_id":"1df2e6f6-63d4-4f34-92e1-d1b0e12ddb5a","system_id":"levelo_inurba_marseille","lat":43.231896,"lon":5.399913,"is_reserved":false,"is_disabled":false,"rental_uris":{"android":"levelo://app?vid=1df2e6f6-63d4-4f34-92e1-d1b0e12ddb5a","ios":"levelo://app?vid=1df2e6f6-63d4-4f34-92e1-d1b0e12ddb5a"},"vehicle_type_id":"4","last_reported":1742641662,"current_range_meters":10800,"station_id":"ce4bhn12rcd13ifvqgqg","pricing_plan_id":"cebpf4jnsgd1na2vs0mg"},{"bike_id":"475122dc-1039-4828-b534-7b2fbdf79e20","system_id":"levelo_inurba_marseille","lat":43.23201,"lon":5.35553,"is_reserved":false,"is_disabled":false,"rental_uris":{"android":"levelo://app?vid=475122dc-1039-4828-b534-7b2fbdf79e20","ios":"levelo://app?vid=475122dc-1039-4828-b534-7b2fbdf79e20"},"vehicle_type_id":"4","last_reported":1742641662,"current_range_meters":10800,"station_id":"ce4bhu92rcd13ifvqi70","pricing_plan_id":"cebpf4jnsgd1na2vs0mg"},{"bike_id":"109d116c-7bde-4465-9803-8efd57b33f69","system_id":"levelo_inurba_marseille","lat":43.24391,"lon":5.37056,"is_reserved":false,"is_disabled":false,"rental_uris":{"android":"levelo://app?vid=109d116c-7bde-4465-9803-8efd57b33f69","ios":"levelo://app?vid=109d116c-7bde-4465-9803-8efd57b33f69"},"vehicle_type_id":"4","last_reported":1742641662,"current_range_meters":11200,"station_id":"ce4bhhh2rcd13ifvqfk0","pricing_plan_id":"cebpf4jnsgd1na2vs0mg"},{"bike_id":"aae21821-8dea-4980-a351-41aaa405d0ce","system_id":"levelo_inurba_marseille","lat":43.28597,"lon":5.38439,"is_reserved":false,"is_disabled":false,"rental_uris":{"android":"levelo://app?vid=aae21821-8dea-4980-a351-41aaa405d0ce","ios":"levelo://app?vid=aae21821-8dea-4980-a351-41aaa405d0ce"},"vehicle_type_id":"4","last_reported":1742641662,"current_range_meters":11200,"station_id":"","pricing_plan_id":"cebpf4jnsgd1na2vs0mg"},{"bike_id":"9683555e-fe04-4de7-b706-7a9b0019a6a7","system_id":"levelo_inurba_marseille","lat":43.33753,"lon":5.37495,"is_reserved":false,"is_disabled":true,"rental_uris":{"android":"levelo://app?vid=9683555e-fe04-4de7-b706-7a9b0019a6a7","ios":"levelo://app?vid=9683555e-fe04-4de7-b706-7a9b0019a6a7"},"vehicle_type_id":"4","last_reported":1742641662,"current_range_meters":11200,"station_id":"ce4bh2h2rcd13ifvqdh0","pricing_plan_id":"cebpf4jnsgd1na2vs0mg"},{"bike_id":"52ca90b0-f039-4017-b60d-da3724ff2989","system_id":"levelo_inurba_marseille","lat":43.26805,"lon":5.40254,"is_reserved":false,"is_disabled":false,"rental_uris":{"android":"levelo://app?vid=52ca90b0-f039-4017-b60d-da3724ff2989","ios":"levelo://app?vid=52ca90b0-f039-4017-b60d-da3724ff2989"},"vehicle_type_id":"4","last_reported":1742641662,"current_range_meters":11600,"station_id":"ce501612rcd8frsf0b60","pricing_plan_id":"cebpf4jnsgd1na2vs0mg"},{"bike_id":"6a7e6ea3-0dea-4fb5-9495-8803ab0e1523","system_id":"levelo_inurba_marseille","lat":43.30464,"lon":5.37903,"is_reserved":false,"is_disabled":false,"rental_uris":{"android":"levelo://app?vid=6a7e6ea3-0dea-4fb5-9495-8803ab0e1523","ios":"levelo://app?vid=6a7e6ea3-0dea-4fb5-9495-8803ab0e1523"},"vehicle_type_id":"4","last_reported":1742641662,"current_range_meters":11600,"station_id":"ce4bgup2rcd13ifvqcn0","pricing_plan_id":"cebpf4jnsgd1na2vs0mg"},{"bike_id":"b56ee38b-ead9-47b8-afee-8c60254cca69","system_id":"levelo_inurba_marseille","lat":43.30825,"lon":5.3817,"is_reserved":false,"is_disabled":false,"rental_uris":{"android":"levelo://app?vid=b56ee38b-ead9-47b8-afee-8c60254cca69","ios":"levelo://app?vid=b56ee38b-ead9-47b8-afee-8c60254cca69"},"vehicle_type_id":"4","last_reported":1742641662,"current_range_meters":11600,"station_id":"ce4bgt12rcd13ifvqce0","pricing_plan_id":"cebpf4jnsgd1na2vs0mg"},{"bike_id":"0da5e071-c46d-4b25-b81b-1d72a28243a5","system_id":"levelo_inurba_marseille","lat":43.26562,"lon":5.37277,"is_reserved":false,"is_disabled":false,"rental_uris":{"android":"levelo://app?vid=0da5e071-c46d-4b25-b81b-1d72a28243a5","ios":"levelo://app?vid=0da5e071-c46d-4b25-b81b-1d72a28243a5"},"vehicle_type_id":"4","last_reported":1742641662,"current_range_meters":11600,"station_id":"ce4bhg12rcd13ifvqf70","pricing_plan_id":"cebpf4jnsgd1na2vs0mg"},{"bike_id":"6ebfdf22-6e48-4a22-adee-697e692544cb","system_id":"levelo_inurba_marseille","lat":43.29721,"lon":5.3769,"is_reserved":false,"is_disabled":false,"rental_uris":{"android":"levelo://app?vid=6ebfdf22-6e48-4a22-adee-697e692544cb","ios":"levelo://app?vid=6ebfdf22-6e48-4a22-adee-697e692544cb"},"vehicle_type_id":"4","last_reported":1742641662,"current_range_meters":11600,"station_id":"ce4bgkh2rcd13ifvqbl0","pricing_plan_id":"cebpf4jnsgd1na2vs0mg"},{"bike_id":"6f45af37-4d2a-4f2a-8a18-54ceca9184f1","system_id":"levelo_inurba_marseille","lat":43.26954,"lon":5.38624,"is_reserved":false,"is_disabled":false,"rental_uris":{"android":"levelo://app?vid=6f45af37-4d2a-4f2a-8a18-54ceca9184f1","ios":"levelo://app?vid=6f45af37-4d2a-4f2a-8a18-54ceca9184f1"},"vehicle_type_id":"4","last_reported":1742641662,"current_range_meters":11600,"station_id":"ce4bhh92rcd13ifvqfh0","pricing_plan_id":"cebpf4jnsgd1na2vs0mg"},{"bike_id":"bf4d85d4-43b3-412d-8c0e-8e5686f52830","system_id":"levelo_inurba_marseille","lat":43.27504,"lon":5.42453,"is_reserved":false,"is_disabled":false,"rental_uris":{"android":"levelo://app?vid=bf4d85d4-43b3-412d-8c0e-8e5686f52830","ios":"levelo://app?vid=bf4d85d4-43b3-412d-8c0e-8e5686f52830"},"vehicle_type_id":"4","last_reported":1742641662,"current_range_meters":11600,"station_id":"ce4bhn92rcd13ifvqgrg","pricing_plan_id":"cebpf4jnsgd1na2vs0mg"},{"bike_id":"d1dcf511-d8e9-43ef-bc85-50de65aae4a3","system_id":"levelo_inurba_marseille","lat":43.28893,"lon":5.38752,"is_reserved":false,"is_disabled":false,"rental_uris":{"android":"levelo://app?vid=d1dcf511-d8e9-43ef-bc85-50de65aae4a3","ios":"levelo://app?vid=d1dcf511-d8e9-43ef-bc85-50de65aae4a3"},"vehicle_type_id":"4","last_reported":1742641662,"current_range_meters":11600,"station_id":"","pricing_plan_id":"cebpf4jnsgd1na2vs0mg"},{"bike_id":"16784492-6bb0-4dfd-a37c-0b309868075c","system_id":"levelo_inurba_marseille","lat":43.30602,"lon":5.36582,"is_reserved":false,"is_disabled":false,"rental_uris":{"android":"levelo://app?vid=16784492-6bb0-4dfd-a37c-0b309868075c","ios":"levelo://app?vid=16784492-6bb0-4dfd-a37c-0b309868075c"},"vehicle_type_id":"4","last_reported":1742641662,"current_range_meters":12000,"station_id":"ce4bgs12rcd13ifvqcag","pricing_plan_id":"cebpf4jnsgd1na2vs0mg"},{"bike_id":"a87d5462-a5b3-4e94-898d-5e15e4655f49","system_id":"levelo_inurba_marseille","lat":43.26034,"lon":5.3755,"is_reserved":false,"is_disabled":false,"rental_uris":{"android":"levelo://app?vid=a87d5462-a5b3-4e94-898d-5e15e4655f49","ios":"levelo://app?vid=a87d5462-a5b3-4e94-898d-5e15e4655f49"},"vehicle_type_id":"4","last_reported":1742641662,"current_range_meters":11600,"station_id":"ce4bhgh2rcd13ifvqfa0","pricing_plan_id":"cebpf4jnsgd1na2vs0mg"},{"bike_id":"fbb498fe-0420-4fc0-a001-6f20ac1d59dd","system_id":"levelo_inurba_marseille","lat":43.33611,"lon":5.41008,"is_reserved":false,"is_disabled":true,"rental_uris":{"android":"levelo://app?vid=fbb498fe-0420-4fc0-a001-6f20ac1d59dd","ios":"levelo://app?vid=fbb498fe-0420-4fc0-a001-6f20ac1d59dd"},"vehicle_type_id":"4","last_reported":1742641662,"current_range_meters":12000,"station_id":"ce4bhqh2rcd13ifvqhmg","pricing_plan_id":"cebpf4jnsgd1na2vs0mg"},{"bike_id":"159f41ac-a1a6-4cc6-982e-2bbfbb62421d","system_id":"levelo_inurba_marseille","lat":43.30426,"lon":5.378667,"is_reserved":false,"is_disabled":false,"rental_uris":{"android":"levelo://app?vid=159f41ac-a1a6-4cc6-982e-2bbfbb62421d","ios":"levelo://app?vid=159f41ac-a1a6-4cc6-982e-2bbfbb62421d"},"vehicle_type_id":"4","last_reported":1742641662,"current_range_meters":12000,"station_id":"ce4bgop2rcd13ifvqc1g","pricing_plan_id":"cebpf4jnsgd1na2vs0mg"},{"bike_id":"4f125aa4-8b4c-4dff-91ad-ad29c64fb0f5","system_id":"levelo_inurba_marseille","lat":43.26679,"lon":5.38262,"is_reserved":false,"is_disabled":false,"rental_uris":{"android":"levelo://app?vid=4f125aa4-8b4c-4dff-91ad-ad29c64fb0f5","ios":"levelo://app?vid=4f125aa4-8b4c-4dff-91ad-ad29c64fb0f5"},"vehicle_type_id":"4","last_reported":1742641662,"current_range_meters":12000,"station_id":"ce4bhg92rcd13ifvqf90","pricing_plan_id":"cebpf4jnsgd1na2vs0mg"},{"bike_id":"6bcd08b5-1d47-48a9-b3dd-f59ccc50adac","system_id":"levelo_inurba_marseille","lat":43.24175,"lon":5.39728,"is_reserved":false,"is_disabled":false,"rental_uris":{"android":"levelo://app?vid=6bcd08b5-1d47-48a9-b3dd-f59ccc50adac","ios":"levelo://app?vid=6bcd08b5-1d47-48a9-b3dd-f59ccc50adac"},"vehicle_type_id":"4","last_reported":1742641662,"current_range_meters":12000,"station_id":"ce4bhn12rcd13ifvqgpg","pricing_plan_id":"cebpf4jnsgd1na2vs0mg"},{"bike_id":"3427167d-a690-4924-96b5-7665afdb344f","system_id":"levelo_inurba_marseille","lat":43.27577,"lon":5.38405,"is_reserved":false,"is_disabled":false,"rental_uris":{"android":"levelo://app?vid=3427167d-a690-4924-96b5-7665afdb344f","ios":"levelo://app?vid=3427167d-a690-4924-96b5-7665afdb344f"},"vehicle_type_id":"4","last_reported":1742641662,"current_range_meters":12400,"station_id":"ce4bhh92rcd13ifvqfi0","pricing_plan_id":"cebpf4jnsgd1na2vs0mg"},{"bike_id":"72503a27-a949-4a46-b139-c44d4f416a58","system_id":"levelo_inurba_marseille","lat":43.23199,"lon":5.35567,"is_reserved":false,"is_disabled":false,"rental_uris":{"android":"levelo://app?vid=72503a27-a949-4a46-b139-c44d4f416a58","ios":"levelo://app?vid=72503a27-a949-4a46-b139-c44d4f416a58"},"vehicle_type_id":"4","last_reported":1742641662,"current_range_meters":12400,"station_id":"ce4bhu92rcd13ifvqi70","pricing_plan_id":"cebpf4jnsgd1na2vs0mg"},{"bike_id":"8f2b6764-0dd4-4e04-b573-7757f4e6bc95","system_id":"levelo_inurba_marseille","lat":43.23153,"lon":5.43713,"is_reserved":false,"is_disabled":false,"rental_uris":{"android":"levelo://app?vid=8f2b6764-0dd4-4e04-b573-7757f4e6bc95","ios":"levelo://app?vid=8f2b6764-0dd4-4e04-b573-7757f4e6bc95"},"vehicle_type_id":"4","last_reported":1742641662,"current_range_meters":12400,"station_id":"ce4bhmp2rcd13ifvqgog","pricing_plan_id":"cebpf4jnsgd1na2vs0mg"},{"bike_id":"0fe230d4-ef3e-4c2b-b295-1d619e065139","system_id":"levelo_inurba_marseille","lat":43.2439,"lon":5.3705,"is_reserved":false,"is_disabled":false,"rental_uris":{"android":"levelo://app?vid=0fe230d4-ef3e-4c2b-b295-1d619e065139","ios":"levelo://app?vid=0fe230d4-ef3e-4c2b-b295-1d619e065139"},"vehicle_type_id":"4","last_reported":1742641662,"current_range_meters":12400,"station_id":"ce4bhhh2rcd13ifvqfk0","pricing_plan_id":"cebpf4jnsgd1na2vs0mg"},{"bike_id":"3f3f99da-6673-441e-a5b3-6857219a400e","system_id":"levelo_inurba_marseille","lat":43.25018,"lon":5.38928,"is_reserved":false,"is_disabled":false,"rental_uris":{"android":"levelo://app?vid=3f3f99da-6673-441e-a5b3-6857219a400e","ios":"levelo://app?vid=3f3f99da-6673-441e-a5b3-6857219a400e"},"vehicle_type_id":"4","last_reported":1742641662,"current_range_meters":12400,"station_id":"ce4bhgp2rcd13ifvqfd0","pricing_plan_id":"cebpf4jnsgd1na2vs0mg"},{"bike_id":"2e1ea977-bf25-4c3c-9f34-a629d442b847","system_id":"levelo_inurba_marseille","lat":43.22937,"lon":5.35372,"is_reserved":false,"is_disabled":false,"rental_uris":{"android":"levelo://app?vid=2e1ea977-bf25-4c3c-9f34-a629d442b847","ios":"levelo://app?vid=2e1ea977-bf25-4c3c-9f34-a629d442b847"},"vehicle_type_id":"4","last_reported":1742641662,"current_range_meters":12800,"station_id":"cpo3532slgdg3j2ikp40","pricing_plan_id":"cebpf4jnsgd1na2vs0mg"},{"bike_id":"914a459d-2fb8-4e6c-a15e-28f5c4c80f5b","system_id":"levelo_inurba_marseille","lat":43.25004,"lon":5.38925,"is_reserved":false,"is_disabled":false,"rental_uris":{"android":"levelo://app?vid=914a459d-2fb8-4e6c-a15e-28f5c4c80f5b","ios":"levelo://app?vid=914a459d-2fb8-4e6c-a15e-28f5c4c80f5b"},"vehicle_type_id":"4","last_reported":1742641662,"current_range_meters":12800,"station_id":"ce4bhgp2rcd13ifvqfd0","pricing_plan_id":"cebpf4jnsgd1na2vs0mg"},{"bike_id":"cc627dfb-5dc1-417c-aff1-2583204a6c15","system_id":"levelo_inurba_marseille","lat":43.23968,"lon":5.36626,"is_reserved":false,"is_disabled":false,"rental_uris":{"android":"levelo://app?vid=cc627dfb-5dc1-417c-aff1-2583204a6c15","ios":"levelo://app?vid=cc627dfb-5dc1-417c-aff1-2583204a6c15"},"vehicle_type_id":"4","last_reported":1742641662,"current_range_meters":12800,"station_id":"ce4bhi12rcd13ifvqfp0","pricing_plan_id":"cebpf4jnsgd1na2vs0mg"},{"bike_id":"d16d5ae2-a108-44f8-a226-14fecf4f3137","system_id":"levelo_inurba_marseille","lat":43.28004,"lon":5.40008,"is_reserved":false,"is_disabled":false,"rental_uris":{"android":"levelo://app?vid=d16d5ae2-a108-44f8-a226-14fecf4f3137","ios":"levelo://app?vid=d16d5ae2-a108-44f8-a226-14fecf4f3137"},"vehicle_type_id":"4","last_reported":1742641662,"current_range_meters":12800,"station_id":"ce4bho92rcd13ifvqh4g","pricing_plan_id":"cebpf4jnsgd1na2vs0mg"},{"bike_id":"9e5fb07a-40f5-48a7-8576-b3add1049650","system_id":"levelo_inurba_marseille","lat":43.27634,"lon":5.36114,"is_reserved":false,"is_disabled":false,"rental_uris":{"android":"levelo://app?vid=9e5fb07a-40f5-48a7-8576-b3add1049650","ios":"levelo://app?vid=9e5fb07a-40f5-48a7-8576-b3add1049650"},"vehicle_type_id":"4","last_reported":1742641662,"current_range_meters":12800,"station_id":"ce4bgj92rcd13ifvqbe0","pricing_plan_id":"cebpf4jnsgd1na2vs0mg"},{"bike_id":"5b8c966c-d872-48bf-a2e7-3e6d6a86a2ae","system_id":"levelo_inurba_marseille","lat":43.24368,"lon":5.37064,"is_reserved":false,"is_disabled":false,"rental_uris":{"android":"levelo://app?vid=5b8c966c-d872-48bf-a2e7-3e6d6a86a2ae","ios":"levelo://app?vid=5b8c966c-d872-48bf-a2e7-3e6d6a86a2ae"},"vehicle_type_id":"4","last_reported":1742641662,"current_range_meters":13600,"station_id":"ce4bhhh2rcd13ifvqfk0","pricing_plan_id":"cebpf4jnsgd1na2vs0mg"},{"bike_id":"b8416b78-3fb8-4b9e-955a-d1615038142f","system_id":"levelo_inurba_marseille","lat":43.29718,"lon":5.37698,"is_reserved":false,"is_disabled":false,"rental_uris":{"android":"levelo://app?vid=b8416b78-3fb8-4b9e-955a-d1615038142f","ios":"levelo://app?vid=b8416b78-3fb8-4b9e-955a-d1615038142f"},"vehicle_type_id":"4","last_reported":1742641662,"current_range_meters":13600,"station_id":"ce4bgkh2rcd13ifvqbl0","pricing_plan_id":"cebpf4jnsgd1na2vs0mg"},{"bike_id":"57707be3-c636-4159-a189-c650c5d9ddf2","system_id":"levelo_inurba_marseille","lat":43.30956,"lon":5.39032,"is_reserved":false,"is_disabled":false,"rental_uris":{"android":"levelo://app?vid=57707be3-c636-4159-a189-c650c5d9ddf2","ios":"levelo://app?vid=57707be3-c636-4159-a189-c650c5d9ddf2"},"vehicle_type_id":"4","last_reported":1742641662,"current_range_meters":13600,"station_id":"ce4bgup2rcd13ifvqco0","pricing_plan_id":"cebpf4jnsgd1na2vs0mg"},{"bike_id":"6a62eca8-6fd4-4dbd-a44d-f6524abee043","system_id":"levelo_inurba_marseille","lat":43.26175,"lon":5.37513,"is_reserved":false,"is_disabled":false,"rental_uris":{"android":"levelo://app?vid=6a62eca8-6fd4-4dbd-a44d-f6524abee043","ios":"levelo://app?vid=6a62eca8-6fd4-4dbd-a44d-f6524abee043"},"vehicle_type_id":"4","last_reported":1742641662,"current_range_meters":13600,"station_id":"ce4bhjp2rcd13ifvqg90","pricing_plan_id":"cebpf4jnsgd1na2vs0mg"},{"bike_id":"280a7095-4eb2-43f9-a0c4-f90b539d0a09","system_id":"levelo_inurba_marseille","lat":43.30935,"lon":5.40144,"is_reserved":false,"is_disabled":false,"rental_uris":{"android":"levelo://app?vid=280a7095-4eb2-43f9-a0c4-f90b539d0a09","ios":"levelo://app?vid=280a7095-4eb2-43f9-a0c4-f90b539d0a09"},"vehicle_type_id":"4","last_reported":1742641662,"current_range_meters":13600,"station_id":"ce4bgvp2rcd13ifvqct0","pricing_plan_id":"cebpf4jnsgd1na2vs0mg"},{"bike_id":"df739577-ee3a-4ebe-9bec-d2c6092ac0bc","system_id":"levelo_inurba_marseille","lat":43.24395,"lon":5.37089,"is_reserved":false,"is_disabled":false,"rental_uris":{"android":"levelo://app?vid=df739577-ee3a-4ebe-9bec-d2c6092ac0bc","ios":"levelo://app?vid=df739577-ee3a-4ebe-9bec-d2c6092ac0bc"},"vehicle_type_id":"4","last_reported":1742641662,"current_range_meters":12800,"station_id":"ce4bhhh2rcd13ifvqfk0","pricing_plan_id":"cebpf4jnsgd1na2vs0mg"},{"bike_id":"809376be-0098-4ad3-aefa-db1e36eaf597","system_id":"levelo_inurba_marseille","lat":43.2857,"lon":5.39494,"is_reserved":false,"is_disabled":false,"rental_uris":{"android":"levelo://app?vid=809376be-0098-4ad3-aefa-db1e36eaf597","ios":"levelo://app?vid=809376be-0098-4ad3-aefa-db1e36eaf597"},"vehicle_type_id":"4","last_reported":1742641662,"current_range_meters":13600,"station_id":"ce4bh292rcd13ifvqdg0","pricing_plan_id":"cebpf4jnsgd1na2vs0mg"},{"bike_id":"9a440784-3acb-44a5-89c3-b7489e2f527c","system_id":"levelo_inurba_marseille","lat":43.25003,"lon":5.38924,"is_reserved":false,"is_disabled":false,"rental_uris":{"android":"levelo://app?vid=9a440784-3acb-44a5-89c3-b7489e2f527c","ios":"levelo://app?vid=9a440784-3acb-44a5-89c3-b7489e2f527c"},"vehicle_type_id":"4","last_reported":1742641662,"current_range_meters":13600,"station_id":"ce4bhgp2rcd13ifvqfd0","pricing_plan_id":"cebpf4jnsgd1na2vs0mg"},{"bike_id":"302da745-dc3e-489e-b2c8-445dcb3c38b1","system_id":"levelo_inurba_marseille","lat":43.23068,"lon":5.35496,"is_reserved":false,"is_disabled":false,"rental_uris":{"android":"levelo://app?vid=302da745-dc3e-489e-b2c8-445dcb3c38b1","ios":"levelo://app?vid=302da745-dc3e-489e-b2c8-445dcb3c38b1"},"vehicle_type_id":"4","last_reported":1742641662,"current_range_meters":13600,"station_id":"cpo3342slgdg3j2ifvpg","pricing_plan_id":"cebpf4jnsgd1na2vs0mg"},{"bike_id":"7d9bf2d2-5153-499c-a1fb-dcb365a9e566","system_id":"levelo_inurba_marseille","lat":43.24171,"lon":5.39723,"is_reserved":false,"is_disabled":false,"rental_uris":{"android":"levelo://app?vid=7d9bf2d2-5153-499c-a1fb-dcb365a9e566","ios":"levelo://app?vid=7d9bf2d2-5153-499c-a1fb-dcb365a9e566"},"vehicle_type_id":"4","last_reported":1742641662,"current_range_meters":14000,"station_id":"ce4bhn12rcd13ifvqgpg","pricing_plan_id":"cebpf4jnsgd1na2vs0mg"},{"bike_id":"82775cd0-1e14-4784-8a5b-66157532325c","system_id":"levelo_inurba_marseille","lat":43.28478,"lon":5.38421,"is_reserved":false,"is_disabled":false,"rental_uris":{"android":"levelo://app?vid=82775cd0-1e14-4784-8a5b-66157532325c","ios":"levelo://app?vid=82775cd0-1e14-4784-8a5b-66157532325c"},"vehicle_type_id":"4","last_reported":1742641662,"current_range_meters":14000,"station_id":"ce4bh512rcd13ifvqe3g","pricing_plan_id":"cebpf4jnsgd1na2vs0mg"},{"bike_id":"43255677-0085-4f6c-97b0-a451b74101d2","system_id":"levelo_inurba_marseille","lat":43.23966,"lon":5.36631,"is_reserved":false,"is_disabled":false,"rental_uris":{"android":"levelo://app?vid=43255677-0085-4f6c-97b0-a451b74101d2","ios":"levelo://app?vid=43255677-0085-4f6c-97b0-a451b74101d2"},"vehicle_type_id":"4","last_reported":1742641662,"current_range_meters":14000,"station_id":"ce4bhi12rcd13ifvqfp0","pricing_plan_id":"cebpf4jnsgd1na2vs0mg"},{"bike_id":"2032e81a-8d24-4036-9cc6-bf67698b8322","system_id":"levelo_inurba_marseille","lat":43.24191,"lon":5.39748,"is_reserved":false,"is_disabled":false,"rental_uris":{"android":"levelo://app?vid=2032e81a-8d24-4036-9cc6-bf67698b8322","ios":"levelo://app?vid=2032e81a-8d24-4036-9cc6-bf67698b8322"},"vehicle_type_id":"4","last_reported":1742641662,"current_range_meters":14000,"station_id":"ce4bhn12rcd13ifvqgpg","pricing_plan_id":"cebpf4jnsgd1na2vs0mg"},{"bike_id":"2768ebc9-a485-4f5f-8f06-2edc08400de6","system_id":"levelo_inurba_marseille","lat":43.26555,"lon":5.37281,"is_reserved":false,"is_disabled":false,"rental_uris":{"android":"levelo://app?vid=2768ebc9-a485-4f5f-8f06-2edc08400de6","ios":"levelo://app?vid=2768ebc9-a485-4f5f-8f06-2edc08400de6"},"vehicle_type_id":"4","last_reported":1742641662,"current_range_meters":14000,"station_id":"ce4bhg12rcd13ifvqf70","pricing_plan_id":"cebpf4jnsgd1na2vs0mg"},{"bike_id":"fde0388d-33e2-4089-9704-3afd264d3260","system_id":"levelo_inurba_marseille","lat":43.23154,"lon":5.4372,"is_reserved":false,"is_disabled":false,"rental_uris":{"android":"levelo://app?vid=fde0388d-33e2-4089-9704-3afd264d3260","ios":"levelo://app?vid=fde0388d-33e2-4089-9704-3afd264d3260"},"vehicle_type_id":"4","last_reported":1742641662,"current_range_meters":14000,"station_id":"ce4bhmp2rcd13ifvqgog","pricing_plan_id":"cebpf4jnsgd1na2vs0mg"},{"bike_id":"8682048b-22d3-4d81-b8c1-fb4c78459528","system_id":"levelo_inurba_marseille","lat":43.32655,"lon":5.40985,"is_reserved":false,"is_disabled":false,"rental_uris":{"android":"levelo://app?vid=8682048b-22d3-4d81-b8c1-fb4c78459528","ios":"levelo://app?vid=8682048b-22d3-4d81-b8c1-fb4c78459528"},"vehicle_type_id":"4","last_reported":1742641662,"current_range_meters":14400,"station_id":"ce4bhpp2rcd13ifvqhgg","pricing_plan_id":"cebpf4jnsgd1na2vs0mg"},{"bike_id":"041746e8-f612-4f02-ba2c-e784ef31f6c4","system_id":"levelo_inurba_marseille","lat":43.23156,"lon":5.43715,"is_reserved":false,"is_disabled":false,"rental_uris":{"android":"levelo://app?vid=041746e8-f612-4f02-ba2c-e784ef31f6c4","ios":"levelo://app?vid=041746e8-f612-4f02-ba2c-e784ef31f6c4"},"vehicle_type_id":"4","last_reported":1742641662,"current_range_meters":14400,"station_id":"ce4bhmp2rcd13ifvqgog","pricing_plan_id":"cebpf4jnsgd1na2vs0mg"},{"bike_id":"59de377f-c54b-489f-b740-ed7b42d558ea","system_id":"levelo_inurba_marseille","lat":43.23967,"lon":5.36627,"is_reserved":false,"is_disabled":false,"rental_uris":{"android":"levelo://app?vid=59de377f-c54b-489f-b740-ed7b42d558ea","ios":"levelo://app?vid=59de377f-c54b-489f-b740-ed7b42d558ea"},"vehicle_type_id":"4","last_reported":1742641662,"current_range_meters":14400,"station_id":"ce4bhi12rcd13ifvqfp0","pricing_plan_id":"cebpf4jnsgd1na2vs0mg"},{"bike_id":"4fcd5aa8-47a6-47e0-acf8-4669a5d049c7","system_id":"levelo_inurba_marseille","lat":43.32368,"lon":5.388856,"is_reserved":false,"is_disabled":false,"rental_uris":{"android":"levelo://app?vid=4fcd5aa8-47a6-47e0-acf8-4669a5d049c7","ios":"levelo://app?vid=4fcd5aa8-47a6-47e0-acf8-4669a5d049c7"},"vehicle_type_id":"4","last_reported":1742641662,"current_range_meters":14400,"station_id":"ce4bhqp2rcd13ifvqhog","pricing_plan_id":"cebpf4jnsgd1na2vs0mg"},{"bike_id":"1398bab9-310a-4d9f-b774-3cec44efaec1","system_id":"levelo_inurba_marseille","lat":43.27616,"lon":5.36098,"is_reserved":false,"is_disabled":false,"rental_uris":{"android":"levelo://app?vid=1398bab9-310a-4d9f-b774-3cec44efaec1","ios":"levelo://app?vid=1398bab9-310a-4d9f-b774-3cec44efaec1"},"vehicle_type_id":"4","last_reported":1742641662,"current_range_meters":14400,"station_id":"ce4bgj92rcd13ifvqbe0","pricing_plan_id":"cebpf4jnsgd1na2vs0mg"},{"bike_id":"dab8c25d-cea4-49fb-b4c7-0008c5a11b73","system_id":"levelo_inurba_marseille","lat":43.26211,"lon":5.3793,"is_reserved":false,"is_disabled":false,"rental_uris":{"android":"levelo://app?vid=dab8c25d-cea4-49fb-b4c7-0008c5a11b73","ios":"levelo://app?vid=dab8c25d-cea4-49fb-b4c7-0008c5a11b73"},"vehicle_type_id":"4","last_reported":1742641662,"current_range_meters":14000,"station_id":"ce4bhjp2rcd13ifvqg90","pricing_plan_id":"cebpf4jnsgd1na2vs0mg"},{"bike_id":"197aa03b-f9fe-47bd-8e8f-95fc973cbcec","system_id":"levelo_inurba_marseille","lat":43.28273,"lon":5.35062,"is_reserved":false,"is_disabled":true,"rental_uris":{"android":"levelo://app?vid=197aa03b-f9fe-47bd-8e8f-95fc973cbcec","ios":"levelo://app?vid=197aa03b-f9fe-47bd-8e8f-95fc973cbcec"},"vehicle_type_id":"4","last_reported":1742641662,"current_range_meters":14400,"station_id":"ce4bhbp2rcd13ifvqerg","pricing_plan_id":"cebpf4jnsgd1na2vs0mg"},{"bike_id":"223ad680-50eb-457f-bceb-c10a87897d8b","system_id":"levelo_inurba_marseille","lat":43.28102,"lon":5.37833,"is_reserved":false,"is_disabled":false,"rental_uris":{"android":"levelo://app?vid=223ad680-50eb-457f-bceb-c10a87897d8b","ios":"levelo://app?vid=223ad680-50eb-457f-bceb-c10a87897d8b"},"vehicle_type_id":"4","last_reported":1742641662,"current_range_meters":14800,"station_id":"ce4bh512rcd13ifvqe3g","pricing_plan_id":"cebpf4jnsgd1na2vs0mg"},{"bike_id":"64bc6639-296c-4d2b-b191-034983a553f3","system_id":"levelo_inurba_marseille","lat":43.28373,"lon":5.38636,"is_reserved":false,"is_disabled":false,"rental_uris":{"android":"levelo://app?vid=64bc6639-296c-4d2b-b191-034983a553f3","ios":"levelo://app?vid=64bc6639-296c-4d2b-b191-034983a553f3"},"vehicle_type_id":"4","last_reported":1742641662,"current_range_meters":14800,"station_id":"ce4bh492rcd13ifvqdvg","pricing_plan_id":"cebpf4jnsgd1na2vs0mg"},{"bike_id":"98280d10-dfa2-46aa-bfd6-811148ff8d67","system_id":"levelo_inurba_marseille","lat":43.29596,"lon":5.36744,"is_reserved":false,"is_disabled":false,"rental_uris":{"android":"levelo://app?vid=98280d10-dfa2-46aa-bfd6-811148ff8d67","ios":"levelo://app?vid=98280d10-dfa2-46aa-bfd6-811148ff8d67"},"vehicle_type_id":"4","last_reported":1742641662,"current_range_meters":14800,"station_id":"ce4bgph2rcd13ifvqc2g","pricing_plan_id":"cebpf4jnsgd1na2vs0mg"},{"bike_id":"c1b03d1e-f73a-4e78-a37a-a1bad2bfc852","system_id":"levelo_inurba_marseille","lat":43.29621,"lon":5.37734,"is_reserved":false,"is_disabled":false,"rental_uris":{"android":"levelo://app?vid=c1b03d1e-f73a-4e78-a37a-a1bad2bfc852","ios":"levelo://app?vid=c1b03d1e-f73a-4e78-a37a-a1bad2bfc852"},"vehicle_type_id":"4","last_reported":1742641662,"current_range_meters":14800,"station_id":"ce4bgi92rcd13ifvqb90","pricing_plan_id":"cebpf4jnsgd1na2vs0mg"},{"bike_id":"4c406a29-ee9e-4446-b3db-6d7899ff79a2","system_id":"levelo_inurba_marseille","lat":43.24166,"lon":5.36389,"is_reserved":false,"is_disabled":false,"rental_uris":{"android":"levelo://app?vid=4c406a29-ee9e-4446-b3db-6d7899ff79a2","ios":"levelo://app?vid=4c406a29-ee9e-4446-b3db-6d7899ff79a2"},"vehicle_type_id":"4","last_reported":1742641662,"current_range_meters":14800,"station_id":"cpo36qri1sfpv3e86is0","pricing_plan_id":"cebpf4jnsgd1na2vs0mg"},{"bike_id":"ffd237a0-0c9d-4e82-a08f-4aded3e8eed4","system_id":"levelo_inurba_marseille","lat":43.260596,"lon":5.393954,"is_reserved":false,"is_disabled":false,"rental_uris":{"android":"levelo://app?vid=ffd237a0-0c9d-4e82-a08f-4aded3e8eed4","ios":"levelo://app?vid=ffd237a0-0c9d-4e82-a08f-4aded3e8eed4"},"vehicle_type_id":"4","last_reported":1742641662,"current_range_meters":14800,"station_id":"ce4bhi12rcd13ifvqfp0","pricing_plan_id":"cebpf4jnsgd1na2vs0mg"},{"bike_id":"d9d90e28-0cde-498e-9e49-e2278f18bc23","system_id":"levelo_inurba_marseille","lat":43.32373,"lon":5.38911,"is_reserved":false,"is_disabled":false,"rental_uris":{"android":"levelo://app?vid=d9d90e28-0cde-498e-9e49-e2278f18bc23","ios":"levelo://app?vid=d9d90e28-0cde-498e-9e49-e2278f18bc23"},"vehicle_type_id":"4","last_reported":1742641662,"current_range_meters":14800,"station_id":"ce4bhqp2rcd13ifvqhog","pricing_plan_id":"cebpf4jnsgd1na2vs0mg"},{"bike_id":"f3f6b345-191b-4dcd-861a-64c838ae0137","system_id":"levelo_inurba_marseille","lat":43.29717,"lon":5.37696,"is_reserved":false,"is_disabled":false,"rental_uris":{"android":"levelo://app?vid=f3f6b345-191b-4dcd-861a-64c838ae0137","ios":"levelo://app?vid=f3f6b345-191b-4dcd-861a-64c838ae0137"},"vehicle_type_id":"4","last_reported":1742641662,"current_range_meters":15200,"station_id":"ce4bgkh2rcd13ifvqbl0","pricing_plan_id":"cebpf4jnsgd1na2vs0mg"},{"bike_id":"f0d7ff11-0273-43eb-b629-9bd923b57d34","system_id":"levelo_inurba_marseille","lat":43.2656,"lon":5.39014,"is_reserved":false,"is_disabled":false,"rental_uris":{"android":"levelo://app?vid=f0d7ff11-0273-43eb-b629-9bd923b57d34","ios":"levelo://app?vid=f0d7ff11-0273-43eb-b629-9bd923b57d34"},"vehicle_type_id":"4","last_reported":1742641662,"current_range_meters":15200,"station_id":"ce4bhe12rcd13ifvqf30","pricing_plan_id":"cebpf4jnsgd1na2vs0mg"},{"bike_id":"b757f5df-c902-43dd-8b0b-214a953b0b13","system_id":"levelo_inurba_marseille","lat":43.23153,"lon":5.4371,"is_reserved":false,"is_disabled":false,"rental_uris":{"android":"levelo://app?vid=b757f5df-c902-43dd-8b0b-214a953b0b13","ios":"levelo://app?vid=b757f5df-c902-43dd-8b0b-214a953b0b13"},"vehicle_type_id":"4","last_reported":1742641662,"current_range_meters":16000,"station_id":"ce4bhmp2rcd13ifvqgog","pricing_plan_id":"cebpf4jnsgd1na2vs0mg"},{"bike_id":"d8878601-3ef9-4b69-ae9e-1dde88f059ac","system_id":"levelo_inurba_marseille","lat":43.24156,"lon":5.36409,"is_reserved":false,"is_disabled":false,"rental_uris":{"android":"levelo://app?vid=d8878601-3ef9-4b69-ae9e-1dde88f059ac","ios":"levelo://app?vid=d8878601-3ef9-4b69-ae9e-1dde88f059ac"},"vehicle_type_id":"4","last_reported":1742641662,"current_range_meters":16000,"station_id":"cpo36qri1sfpv3e86is0","pricing_plan_id":"cebpf4jnsgd1na2vs0mg"},{"bike_id":"3f2cc47c-9819-46f0-b7be-a06e1c7f9558","system_id":"levelo_inurba_marseille","lat":43.31068,"lon":5.38343,"is_reserved":false,"is_disabled":false,"rental_uris":{"android":"levelo://app?vid=3f2cc47c-9819-46f0-b7be-a06e1c7f9558","ios":"levelo://app?vid=3f2cc47c-9819-46f0-b7be-a06e1c7f9558"},"vehicle_type_id":"4","last_reported":1742641662,"current_range_meters":16000,"station_id":"ce4bgv92rcd13ifvqcr0","pricing_plan_id":"cebpf4jnsgd1na2vs0mg"},{"bike_id":"150773fd-d732-4b07-a327-1574b19c3b22","system_id":"levelo_inurba_marseille","lat":43.29418,"lon":5.38622,"is_reserved":false,"is_disabled":false,"rental_uris":{"android":"levelo://app?vid=150773fd-d732-4b07-a327-1574b19c3b22","ios":"levelo://app?vid=150773fd-d732-4b07-a327-1574b19c3b22"},"vehicle_type_id":"4","last_reported":1742641662,"current_range_meters":16000,"station_id":"ce4bh2h2rcd13ifvqdh0","pricing_plan_id":"cebpf4jnsgd1na2vs0mg"},{"bike_id":"d954b141-3cee-4de0-9c29-d5babd11cd82","system_id":"levelo_inurba_marseille","lat":43.250804,"lon":5.395386,"is_reserved":false,"is_disabled":false,"rental_uris":{"android":"levelo://app?vid=d954b141-3cee-4de0-9c29-d5babd11cd82","ios":"levelo://app?vid=d954b141-3cee-4de0-9c29-d5babd11cd82"},"vehicle_type_id":"4","last_reported":1742641662,"current_range_meters":16400,"station_id":"ce4bhm12rcd13ifvqgkg","pricing_plan_id":"cebpf4jnsgd1na2vs0mg"},{"bike_id":"efc4fdb0-80f7-46a2-a21b-e03fc2f968e8","system_id":"levelo_inurba_marseille","lat":43.30966,"lon":5.39054,"is_reserved":false,"is_disabled":false,"rental_uris":{"android":"levelo://app?vid=efc4fdb0-80f7-46a2-a21b-e03fc2f968e8","ios":"levelo://app?vid=efc4fdb0-80f7-46a2-a21b-e03fc2f968e8"},"vehicle_type_id":"4","last_reported":1742641662,"current_range_meters":16000,"station_id":"ce4bgup2rcd13ifvqco0","pricing_plan_id":"cebpf4jnsgd1na2vs0mg"},{"bike_id":"05196e82-2b3b-46d7-ab3e-37cd98e7884a","system_id":"levelo_inurba_marseille","lat":43.32653,"lon":5.41004,"is_reserved":false,"is_disabled":false,"rental_uris":{"android":"levelo://app?vid=05196e82-2b3b-46d7-ab3e-37cd98e7884a","ios":"levelo://app?vid=05196e82-2b3b-46d7-ab3e-37cd98e7884a"},"vehicle_type_id":"4","last_reported":1742641662,"current_range_meters":16400,"station_id":"ce4bhpp2rcd13ifvqhgg","pricing_plan_id":"cebpf4jnsgd1na2vs0mg"},{"bike_id":"773d2f60-56e6-4d28-a9c9-ad46d6a922fa","system_id":"levelo_inurba_marseille","lat":43.30463,"lon":5.37903,"is_reserved":false,"is_disabled":false,"rental_uris":{"android":"levelo://app?vid=773d2f60-56e6-4d28-a9c9-ad46d6a922fa","ios":"levelo://app?vid=773d2f60-56e6-4d28-a9c9-ad46d6a922fa"},"vehicle_type_id":"4","last_reported":1742641662,"current_range_meters":16400,"station_id":"ce4bgup2rcd13ifvqcn0","pricing_plan_id":"cebpf4jnsgd1na2vs0mg"},{"bike_id":"0c64bf72-3971-48ac-8e36-a14365a17aa1","system_id":"levelo_inurba_marseille","lat":43.230998,"lon":5.354733,"is_reserved":false,"is_disabled":false,"rental_uris":{"android":"levelo://app?vid=0c64bf72-3971-48ac-8e36-a14365a17aa1","ios":"levelo://app?vid=0c64bf72-3971-48ac-8e36-a14365a17aa1"},"vehicle_type_id":"4","last_reported":1742641662,"current_range_meters":16400,"station_id":"ce4bhch2rcd13ifvqeug","pricing_plan_id":"cebpf4jnsgd1na2vs0mg"},{"bike_id":"c74c678b-7bbc-4e08-b110-a4b18c67c471","system_id":"levelo_inurba_marseille","lat":43.29607,"lon":5.38104,"is_reserved":false,"is_disabled":false,"rental_uris":{"android":"levelo://app?vid=c74c678b-7bbc-4e08-b110-a4b18c67c471","ios":"levelo://app?vid=c74c678b-7bbc-4e08-b110-a4b18c67c471"},"vehicle_type_id":"4","last_reported":1742641662,"current_range_meters":16400,"station_id":"ce4bgl12rcd13ifvqbo0","pricing_plan_id":"cebpf4jnsgd1na2vs0mg"},{"bike_id":"52088e19-d68b-45c5-ba39-83046f2d47b2","system_id":"levelo_inurba_marseille","lat":43.232,"lon":5.35555,"is_reserved":false,"is_disabled":false,"rental_uris":{"android":"levelo://app?vid=52088e19-d68b-45c5-ba39-83046f2d47b2","ios":"levelo://app?vid=52088e19-d68b-45c5-ba39-83046f2d47b2"},"vehicle_type_id":"4","last_reported":1742641662,"current_range_meters":16400,"station_id":"ce4bhu92rcd13ifvqi70","pricing_plan_id":"cebpf4jnsgd1na2vs0mg"},{"bike_id":"751ff1ed-b498-4578-9bd4-943bf6c9d8eb","system_id":"levelo_inurba_marseille","lat":43.23191,"lon":5.35521,"is_reserved":false,"is_disabled":false,"rental_uris":{"android":"levelo://app?vid=751ff1ed-b498-4578-9bd4-943bf6c9d8eb","ios":"levelo://app?vid=751ff1ed-b498-4578-9bd4-943bf6c9d8eb"},"vehicle_type_id":"4","last_reported":1742641662,"current_range_meters":16400,"station_id":"ce4bhu92rcd13ifvqi70","pricing_plan_id":"cebpf4jnsgd1na2vs0mg"},{"bike_id":"46a8ad87-e45c-4a2b-be42-a43c78a88139","system_id":"levelo_inurba_marseille","lat":43.27997,"lon":5.40005,"is_reserved":false,"is_disabled":false,"rental_uris":{"android":"levelo://app?vid=46a8ad87-e45c-4a2b-be42-a43c78a88139","ios":"levelo://app?vid=46a8ad87-e45c-4a2b-be42-a43c78a88139"},"vehicle_type_id":"4","last_reported":1742641662,"current_range_meters":16400,"station_id":"ce4bho92rcd13ifvqh4g","pricing_plan_id":"cebpf4jnsgd1na2vs0mg"},{"bike_id":"07541760-82c4-4d38-b58c-85ffff07e965","system_id":"levelo_inurba_marseille","lat":43.23962,"lon":5.36626,"is_reserved":false,"is_disabled":false,"rental_uris":{"android":"levelo://app?vid=07541760-82c4-4d38-b58c-85ffff07e965","ios":"levelo://app?vid=07541760-82c4-4d38-b58c-85ffff07e965"},"vehicle_type_id":"4","last_reported":1742641662,"current_range_meters":16400,"station_id":"ce4bhi12rcd13ifvqfp0","pricing_plan_id":"cebpf4jnsgd1na2vs0mg"},{"bike_id":"a7c269ac-750b-4e61-a0a4-f774b818338f","system_id":"levelo_inurba_marseille","lat":43.28083,"lon":5.3966,"is_reserved":false,"is_disabled":false,"rental_uris":{"android":"levelo://app?vid=a7c269ac-750b-4e61-a0a4-f774b818338f","ios":"levelo://app?vid=a7c269ac-750b-4e61-a0a4-f774b818338f"},"vehicle_type_id":"4","last_reported":1742641662,"current_range_meters":16400,"station_id":"ce4bho12rcd13ifvqh2g","pricing_plan_id":"cebpf4jnsgd1na2vs0mg"},{"bike_id":"cbb1f794-b38a-4f82-844a-5f17fc0e5d2e","system_id":"levelo_inurba_marseille","lat":43.28618,"lon":5.35106,"is_reserved":false,"is_disabled":false,"rental_uris":{"android":"levelo://app?vid=cbb1f794-b38a-4f82-844a-5f17fc0e5d2e","ios":"levelo://app?vid=cbb1f794-b38a-4f82-844a-5f17fc0e5d2e"},"vehicle_type_id":"4","last_reported":1742641662,"current_range_meters":16400,"station_id":"ce4bhch2rcd13ifvqeug","pricing_plan_id":"cebpf4jnsgd1na2vs0mg"},{"bike_id":"0af74a1a-d6e1-4579-b1c6-27467ba405fe","system_id":"levelo_inurba_marseille","lat":43.29882,"lon":5.39725,"is_reserved":false,"is_disabled":true,"rental_uris":{"android":"levelo://app?vid=0af74a1a-d6e1-4579-b1c6-27467ba405fe","ios":"levelo://app?vid=0af74a1a-d6e1-4579-b1c6-27467ba405fe"},"vehicle_type_id":"4","last_reported":1742641662,"current_range_meters":16800,"station_id":"ce4bh0h2rcd13ifvqd50","pricing_plan_id":"cebpf4jnsgd1na2vs0mg"},{"bike_id":"d60279c5-61cc-4ed7-b7a8-8046bd23cea1","system_id":"levelo_inurba_marseille","lat":43.30397,"lon":5.41262,"is_reserved":false,"is_disabled":false,"rental_uris":{"android":"levelo://app?vid=d60279c5-61cc-4ed7-b7a8-8046bd23cea1","ios":"levelo://app?vid=d60279c5-61cc-4ed7-b7a8-8046bd23cea1"},"vehicle_type_id":"4","last_reported":1742641662,"current_range_meters":16800,"station_id":"ce4bhop2rcd13ifvqh8g","pricing_plan_id":"cebpf4jnsgd1na2vs0mg"},{"bike_id":"119746cd-ba8d-4fce-9b20-0d0739912945","system_id":"levelo_inurba_marseille","lat":43.31699,"lon":5.40456,"is_reserved":false,"is_disabled":false,"rental_uris":{"android":"levelo://app?vid=119746cd-ba8d-4fce-9b20-0d0739912945","ios":"levelo://app?vid=119746cd-ba8d-4fce-9b20-0d0739912945"},"vehicle_type_id":"4","last_reported":1742641662,"current_range_meters":16800,"station_id":"ce4bh012rcd13ifvqd00","pricing_plan_id":"cebpf4jnsgd1na2vs0mg"},{"bike_id":"62bdcc41-2156-4f05-9f8b-0de4ed5712a5","system_id":"levelo_inurba_marseille","lat":43.25005,"lon":5.38928,"is_reserved":false,"is_disabled":false,"rental_uris":{"android":"levelo://app?vid=62bdcc41-2156-4f05-9f8b-0de4ed5712a5","ios":"levelo://app?vid=62bdcc41-2156-4f05-9f8b-0de4ed5712a5"},"vehicle_type_id":"4","last_reported":1742641662,"current_range_meters":16400,"station_id":"ce4bhgp2rcd13ifvqfd0","pricing_plan_id":"cebpf4jnsgd1na2vs0mg"},{"bike_id":"5d4cc92c-eafe-478c-8820-ef016b1e9d02","system_id":"levelo_inurba_marseille","lat":43.29896,"lon":5.43662,"is_reserved":false,"is_disabled":false,"rental_uris":{"android":"levelo://app?vid=5d4cc92c-eafe-478c-8820-ef016b1e9d02","ios":"levelo://app?vid=5d4cc92c-eafe-478c-8820-ef016b1e9d02"},"vehicle_type_id":"4","last_reported":1742641662,"current_range_meters":16800,"station_id":"ce4bhpp2rcd13ifvqhfg","pricing_plan_id":"cebpf4jnsgd1na2vs0mg"},{"bike_id":"7446c85b-79cb-4bc3-9bb0-5aa200efc9ea","system_id":"levelo_inurba_marseille","lat":43.27668,"lon":5.38874,"is_reserved":false,"is_disabled":false,"rental_uris":{"android":"levelo://app?vid=7446c85b-79cb-4bc3-9bb0-5aa200efc9ea","ios":"levelo://app?vid=7446c85b-79cb-4bc3-9bb0-5aa200efc9ea"},"vehicle_type_id":"4","last_reported":1742641662,"current_range_meters":16800,"station_id":"ce4bhi12rcd13ifvqfo0","pricing_plan_id":"cebpf4jnsgd1na2vs0mg"},{"bike_id":"a21909c0-65f5-4776-a525-d126942053b6","system_id":"levelo_inurba_marseille","lat":43.30374,"lon":5.42486,"is_reserved":false,"is_disabled":false,"rental_uris":{"android":"levelo://app?vid=a21909c0-65f5-4776-a525-d126942053b6","ios":"levelo://app?vid=a21909c0-65f5-4776-a525-d126942053b6"},"vehicle_type_id":"4","last_reported":1742641662,"current_range_meters":16800,"station_id":"ce4bhoh2rcd13ifvqh6g","pricing_plan_id":"cebpf4jnsgd1na2vs0mg"},{"bike_id":"45ecd364-66b9-420e-ba2e-73f5d61b1ecb","system_id":"levelo_inurba_marseille","lat":43.28131,"lon":5.37993,"is_reserved":false,"is_disabled":false,"rental_uris":{"android":"levelo://app?vid=45ecd364-66b9-420e-ba2e-73f5d61b1ecb","ios":"levelo://app?vid=45ecd364-66b9-420e-ba2e-73f5d61b1ecb"},"vehicle_type_id":"4","last_reported":1742641662,"current_range_meters":16800,"station_id":"","pricing_plan_id":"cebpf4jnsgd1na2vs0mg"},{"bike_id":"1fee47b5-fab4-4ec1-a11f-e919827cdddc","system_id":"levelo_inurba_marseille","lat":43.32365,"lon":5.3675,"is_reserved":false,"is_disabled":false,"rental_uris":{"android":"levelo://app?vid=1fee47b5-fab4-4ec1-a11f-e919827cdddc","ios":"levelo://app?vid=1fee47b5-fab4-4ec1-a11f-e919827cdddc"},"vehicle_type_id":"4","last_reported":1742641662,"current_range_meters":16800,"station_id":"ce4bhsh2rcd13ifvqi2g","pricing_plan_id":"cebpf4jnsgd1na2vs0mg"},{"bike_id":"085b7d33-69bb-4e40-8cdc-13ea39537ad6","system_id":"levelo_inurba_marseille","lat":43.28501,"lon":5.38579,"is_reserved":false,"is_disabled":false,"rental_uris":{"android":"levelo://app?vid=085b7d33-69bb-4e40-8cdc-13ea39537ad6","ios":"levelo://app?vid=085b7d33-69bb-4e40-8cdc-13ea39537ad6"},"vehicle_type_id":"4","last_reported":1742641662,"current_range_meters":16800,"station_id":"ce4bh8p2rcd13ifvqeb0","pricing_plan_id":"cebpf4jnsgd1na2vs0mg"},{"bike_id":"f875dbef-c50c-4151-bdc6-f7509c9fd08a","system_id":"levelo_inurba_marseille","lat":43.30958,"lon":5.39027,"is_reserved":false,"is_disabled":false,"rental_uris":{"android":"levelo://app?vid=f875dbef-c50c-4151-bdc6-f7509c9fd08a","ios":"levelo://app?vid=f875dbef-c50c-4151-bdc6-f7509c9fd08a"},"vehicle_type_id":"4","last_reported":1742641662,"current_range_meters":16800,"station_id":"ce4bgup2rcd13ifvqco0","pricing_plan_id":"cebpf4jnsgd1na2vs0mg"},{"bike_id":"1da18c4e-bb0c-47b1-9e4f-fb0ee339817c","system_id":"levelo_inurba_marseille","lat":43.23202,"lon":5.35554,"is_reserved":false,"is_disabled":false,"rental_uris":{"android":"levelo://app?vid=1da18c4e-bb0c-47b1-9e4f-fb0ee339817c","ios":"levelo://app?vid=1da18c4e-bb0c-47b1-9e4f-fb0ee339817c"},"vehicle_type_id":"4","last_reported":1742641662,"current_range_meters":16800,"station_id":"ce4bhu92rcd13ifvqi70","pricing_plan_id":"cebpf4jnsgd1na2vs0mg"},{"bike_id":"f5e67df2-634b-4b3a-b33a-d1730d5d5b54","system_id":"levelo_inurba_marseille","lat":43.3373,"lon":5.39169,"is_reserved":false,"is_disabled":false,"rental_uris":{"android":"levelo://app?vid=f5e67df2-634b-4b3a-b33a-d1730d5d5b54","ios":"levelo://app?vid=f5e67df2-634b-4b3a-b33a-d1730d5d5b54"},"vehicle_type_id":"4","last_reported":1742641662,"current_range_meters":16800,"station_id":"ce4bhr92rcd13ifvqhsg","pricing_plan_id":"cebpf4jnsgd1na2vs0mg"},{"bike_id":"7acd2d17-0b93-4578-b8b7-3ab0540e9541","system_id":"levelo_inurba_marseille","lat":43.28436,"lon":5.35,"is_reserved":false,"is_disabled":false,"rental_uris":{"android":"levelo://app?vid=7acd2d17-0b93-4578-b8b7-3ab0540e9541","ios":"levelo://app?vid=7acd2d17-0b93-4578-b8b7-3ab0540e9541"},"vehicle_type_id":"4","last_reported":1742641662,"current_range_meters":17200,"station_id":"ce4bhbh2rcd13ifvqepg","pricing_plan_id":"cebpf4jnsgd1na2vs0mg"},{"bike_id":"aaa776b0-76df-4f80-993e-5dceed798cf8","system_id":"levelo_inurba_marseille","lat":43.28619,"lon":5.35105,"is_reserved":false,"is_disabled":false,"rental_uris":{"android":"levelo://app?vid=aaa776b0-76df-4f80-993e-5dceed798cf8","ios":"levelo://app?vid=aaa776b0-76df-4f80-993e-5dceed798cf8"},"vehicle_type_id":"4","last_reported":1742641662,"current_range_meters":17200,"station_id":"ce4bhch2rcd13ifvqeug","pricing_plan_id":"cebpf4jnsgd1na2vs0mg"},{"bike_id":"24c9d0f0-a5c7-4ee6-abe0-3f0fd3feb6e8","system_id":"levelo_inurba_marseille","lat":43.27968,"lon":5.3874,"is_reserved":false,"is_disabled":false,"rental_uris":{"android":"levelo://app?vid=24c9d0f0-a5c7-4ee6-abe0-3f0fd3feb6e8","ios":"levelo://app?vid=24c9d0f0-a5c7-4ee6-abe0-3f0fd3feb6e8"},"vehicle_type_id":"4","last_reported":1742641662,"current_range_meters":17200,"station_id":"ce4bhg12rcd13ifvqf80","pricing_plan_id":"cebpf4jnsgd1na2vs0mg"},{"bike_id":"59c2a742-4ef0-462a-ad11-4cfc56700ee0","system_id":"levelo_inurba_marseille","lat":43.31081,"lon":5.38357,"is_reserved":false,"is_disabled":false,"rental_uris":{"android":"levelo://app?vid=59c2a742-4ef0-462a-ad11-4cfc56700ee0","ios":"levelo://app?vid=59c2a742-4ef0-462a-ad11-4cfc56700ee0"},"vehicle_type_id":"4","last_reported":1742641662,"current_range_meters":17200,"station_id":"ce4bgv92rcd13ifvqcr0","pricing_plan_id":"cebpf4jnsgd1na2vs0mg"},{"bike_id":"f657da43-9a05-4822-9c77-ad8671579423","system_id":"levelo_inurba_marseille","lat":43.29566,"lon":5.39962,"is_reserved":false,"is_disabled":true,"rental_uris":{"android":"levelo://app?vid=f657da43-9a05-4822-9c77-ad8671579423","ios":"levelo://app?vid=f657da43-9a05-4822-9c77-ad8671579423"},"vehicle_type_id":"4","last_reported":1742641662,"current_range_meters":17200,"station_id":"ce4bh312rcd13ifvqdj0","pricing_plan_id":"cebpf4jnsgd1na2vs0mg"},{"bike_id":"e7f36315-33b7-4281-a35b-834987bb0230","system_id":"levelo_inurba_marseille","lat":43.29574,"lon":5.37515,"is_reserved":false,"is_disabled":false,"rental_uris":{"android":"levelo://app?vid=e7f36315-33b7-4281-a35b-834987bb0230","ios":"levelo://app?vid=e7f36315-33b7-4281-a35b-834987bb0230"},"vehicle_type_id":"4","last_reported":1742641662,"current_range_meters":17200,"station_id":"ce4bgh92rcd13ifvqb50","pricing_plan_id":"cebpf4jnsgd1na2vs0mg"},{"bike_id":"e7506acf-bca4-4bf9-a68d-63317818d92c","system_id":"levelo_inurba_marseille","lat":43.23149,"lon":5.4372,"is_reserved":false,"is_disabled":false,"rental_uris":{"android":"levelo://app?vid=e7506acf-bca4-4bf9-a68d-63317818d92c","ios":"levelo://app?vid=e7506acf-bca4-4bf9-a68d-63317818d92c"},"vehicle_type_id":"4","last_reported":1742641662,"current_range_meters":17200,"station_id":"ce4bhmp2rcd13ifvqgog","pricing_plan_id":"cebpf4jnsgd1na2vs0mg"},{"bike_id":"f8ff41b7-94c3-4164-990c-0c31908da696","system_id":"levelo_inurba_marseille","lat":43.2306,"lon":5.35496,"is_reserved":false,"is_disabled":false,"rental_uris":{"android":"levelo://app?vid=f8ff41b7-94c3-4164-990c-0c31908da696","ios":"levelo://app?vid=f8ff41b7-94c3-4164-990c-0c31908da696"},"vehicle_type_id":"4","last_reported":1742641662,"current_range_meters":17200,"station_id":"cpo3342slgdg3j2ifvpg","pricing_plan_id":"cebpf4jnsgd1na2vs0mg"},{"bike_id":"5f057e05-88ef-43f2-a315-beafe07070d0","system_id":"levelo_inurba_marseille","lat":43.23186,"lon":5.39988,"is_reserved":false,"is_disabled":false,"rental_uris":{"android":"levelo://app?vid=5f057e05-88ef-43f2-a315-beafe07070d0","ios":"levelo://app?vid=5f057e05-88ef-43f2-a315-beafe07070d0"},"vehicle_type_id":"4","last_reported":1742641662,"current_range_meters":17600,"station_id":"ce4bhn12rcd13ifvqgqg","pricing_plan_id":"cebpf4jnsgd1na2vs0mg"},{"bike_id":"67270ede-aa4b-4b87-a614-3df25f7ce32e","system_id":"levelo_inurba_marseille","lat":43.31117,"lon":5.37767,"is_reserved":false,"is_disabled":false,"rental_uris":{"android":"levelo://app?vid=67270ede-aa4b-4b87-a614-3df25f7ce32e","ios":"levelo://app?vid=67270ede-aa4b-4b87-a614-3df25f7ce32e"},"vehicle_type_id":"4","last_reported":1742641662,"current_range_meters":17600,"station_id":"ce4bgt92rcd13ifvqcg0","pricing_plan_id":"cebpf4jnsgd1na2vs0mg"},{"bike_id":"185fbe3b-beec-4e8d-a0fb-f3a643549f5b","system_id":"levelo_inurba_marseille","lat":43.3162,"lon":5.37201,"is_reserved":false,"is_disabled":false,"rental_uris":{"android":"levelo://app?vid=185fbe3b-beec-4e8d-a0fb-f3a643549f5b","ios":"levelo://app?vid=185fbe3b-beec-4e8d-a0fb-f3a643549f5b"},"vehicle_type_id":"4","last_reported":1742641662,"current_range_meters":17600,"station_id":"","pricing_plan_id":"cebpf4jnsgd1na2vs0mg"},{"bike_id":"cd897869-d51d-467c-9826-c044773d3f8c","system_id":"levelo_inurba_marseille","lat":43.2417,"lon":5.36392,"is_reserved":false,"is_disabled":false,"rental_uris":{"android":"levelo://app?vid=cd897869-d51d-467c-9826-c044773d3f8c","ios":"levelo://app?vid=cd897869-d51d-467c-9826-c044773d3f8c"},"vehicle_type_id":"4","last_reported":1742641662,"current_range_meters":17600,"station_id":"cpo36qri1sfpv3e86is0","pricing_plan_id":"cebpf4jnsgd1na2vs0mg"},{"bike_id":"e4e7eeac-511a-46be-a88e-0bf9265db176","system_id":"levelo_inurba_marseille","lat":43.29417,"lon":5.38633,"is_reserved":false,"is_disabled":false,"rental_uris":{"android":"levelo://app?vid=e4e7eeac-511a-46be-a88e-0bf9265db176","ios":"levelo://app?vid=e4e7eeac-511a-46be-a88e-0bf9265db176"},"vehicle_type_id":"4","last_reported":1742641662,"current_range_meters":17600,"station_id":"ce4bh2h2rcd13ifvqdh0","pricing_plan_id":"cebpf4jnsgd1na2vs0mg"},{"bike_id":"bac88966-3daa-487f-a46f-fd3c2a60c7a4","system_id":"levelo_inurba_marseille","lat":43.23063,"lon":5.35495,"is_reserved":false,"is_disabled":false,"rental_uris":{"android":"levelo://app?vid=bac88966-3daa-487f-a46f-fd3c2a60c7a4","ios":"levelo://app?vid=bac88966-3daa-487f-a46f-fd3c2a60c7a4"},"vehicle_type_id":"4","last_reported":1742641662,"current_range_meters":17600,"station_id":"cpo3342slgdg3j2ifvpg","pricing_plan_id":"cebpf4jnsgd1na2vs0mg"},{"bike_id":"cb7c7ca2-01de-49dd-983f-c64a8c68b238","system_id":"levelo_inurba_marseille","lat":43.26215,"lon":5.3746,"is_reserved":false,"is_disabled":false,"rental_uris":{"android":"levelo://app?vid=cb7c7ca2-01de-49dd-983f-c64a8c68b238","ios":"levelo://app?vid=cb7c7ca2-01de-49dd-983f-c64a8c68b238"},"vehicle_type_id":"4","last_reported":1742641662,"current_range_meters":17600,"station_id":"ce4bhgp2rcd13ifvqfc0","pricing_plan_id":"cebpf4jnsgd1na2vs0mg"},{"bike_id":"b0a5658e-5fd2-420a-baa8-2d7bfd0cc728","system_id":"levelo_inurba_marseille","lat":43.31075,"lon":5.3835,"is_reserved":false,"is_disabled":false,"rental_uris":{"android":"levelo://app?vid=b0a5658e-5fd2-420a-baa8-2d7bfd0cc728","ios":"levelo://app?vid=b0a5658e-5fd2-420a-baa8-2d7bfd0cc728"},"vehicle_type_id":"4","last_reported":1742641662,"current_range_meters":17600,"station_id":"ce4bgv92rcd13ifvqcr0","pricing_plan_id":"cebpf4jnsgd1na2vs0mg"},{"bike_id":"96ed110b-bfd2-47d8-afb8-3d6b2fc9e735","system_id":"levelo_inurba_marseille","lat":43.301392,"lon":5.374065,"is_reserved":false,"is_disabled":false,"rental_uris":{"android":"levelo://app?vid=96ed110b-bfd2-47d8-afb8-3d6b2fc9e735","ios":"levelo://app?vid=96ed110b-bfd2-47d8-afb8-3d6b2fc9e735"},"vehicle_type_id":"4","last_reported":1742641662,"current_range_meters":17600,"station_id":"ce4bh392rcd13ifvqdl0","pricing_plan_id":"cebpf4jnsgd1na2vs0mg"},{"bike_id":"086947d9-1406-4ff3-8ff7-66dc965df2cf","system_id":"levelo_inurba_marseille","lat":43.276195,"lon":5.361129,"is_reserved":false,"is_disabled":false,"rental_uris":{"android":"levelo://app?vid=086947d9-1406-4ff3-8ff7-66dc965df2cf","ios":"levelo://app?vid=086947d9-1406-4ff3-8ff7-66dc965df2cf"},"vehicle_type_id":"4","last_reported":1742641662,"current_range_meters":17600,"station_id":"ce4bgj92rcd13ifvqbe0","pricing_plan_id":"cebpf4jnsgd1na2vs0mg"},{"bike_id":"09cbdea7-cab2-4bb7-84af-1aa2a3d0c176","system_id":"levelo_inurba_marseille","lat":43.23194,"lon":5.39964,"is_reserved":false,"is_disabled":false,"rental_uris":{"android":"levelo://app?vid=09cbdea7-cab2-4bb7-84af-1aa2a3d0c176","ios":"levelo://app?vid=09cbdea7-cab2-4bb7-84af-1aa2a3d0c176"},"vehicle_type_id":"4","last_reported":1742641662,"current_range_meters":18000,"station_id":"ce4bhn12rcd13ifvqgqg","pricing_plan_id":"cebpf4jnsgd1na2vs0mg"},{"bike_id":"70dd5e63-c1af-4541-93fc-654ea63484a5","system_id":"levelo_inurba_marseille","lat":43.31077,"lon":5.38349,"is_reserved":false,"is_disabled":false,"rental_uris":{"android":"levelo://app?vid=70dd5e63-c1af-4541-93fc-654ea63484a5","ios":"levelo://app?vid=70dd5e63-c1af-4541-93fc-654ea63484a5"},"vehicle_type_id":"4","last_reported":1742641662,"current_range_meters":18000,"station_id":"ce4bgv92rcd13ifvqcr0","pricing_plan_id":"cebpf4jnsgd1na2vs0mg"},{"bike_id":"f04b85aa-63cc-4c92-8b31-24c1196f0315","system_id":"levelo_inurba_marseille","lat":43.30924,"lon":5.40137,"is_reserved":false,"is_disabled":false,"rental_uris":{"android":"levelo://app?vid=f04b85aa-63cc-4c92-8b31-24c1196f0315","ios":"levelo://app?vid=f04b85aa-63cc-4c92-8b31-24c1196f0315"},"vehicle_type_id":"4","last_reported":1742641662,"current_range_meters":18000,"station_id":"ce4bgvp2rcd13ifvqct0","pricing_plan_id":"cebpf4jnsgd1na2vs0mg"},{"bike_id":"3bfbd693-4245-4281-88bd-3df0f5f2b072","system_id":"levelo_inurba_marseille","lat":43.241706,"lon":5.363994,"is_reserved":false,"is_disabled":false,"rental_uris":{"android":"levelo://app?vid=3bfbd693-4245-4281-88bd-3df0f5f2b072","ios":"levelo://app?vid=3bfbd693-4245-4281-88bd-3df0f5f2b072"},"vehicle_type_id":"4","last_reported":1742641662,"current_range_meters":18000,"station_id":"cpo36qri1sfpv3e86is0","pricing_plan_id":"cebpf4jnsgd1na2vs0mg"},{"bike_id":"8ac76298-3375-4b96-8a90-9315b1510fa4","system_id":"levelo_inurba_marseille","lat":43.27829,"lon":5.40721,"is_reserved":false,"is_disabled":true,"rental_uris":{"android":"levelo://app?vid=8ac76298-3375-4b96-8a90-9315b1510fa4","ios":"levelo://app?vid=8ac76298-3375-4b96-8a90-9315b1510fa4"},"vehicle_type_id":"4","last_reported":1742641662,"current_range_meters":18000,"station_id":"ce4bhnh2rcd13ifvqgtg","pricing_plan_id":"cebpf4jnsgd1na2vs0mg"},{"bike_id":"c700eee3-fdc2-4ac8-9026-8c342356f994","system_id":"levelo_inurba_marseille","lat":43.27561,"lon":5.38413,"is_reserved":false,"is_disabled":false,"rental_uris":{"android":"levelo://app?vid=c700eee3-fdc2-4ac8-9026-8c342356f994","ios":"levelo://app?vid=c700eee3-fdc2-4ac8-9026-8c342356f994"},"vehicle_type_id":"4","last_reported":1742641662,"current_range_meters":18000,"station_id":"ce4bhh92rcd13ifvqfi0","pricing_plan_id":"cebpf4jnsgd1na2vs0mg"},{"bike_id":"0b1dc631-c9e7-4faf-bb69-8f994665189e","system_id":"levelo_inurba_marseille","lat":43.25838,"lon":5.39414,"is_reserved":false,"is_disabled":false,"rental_uris":{"android":"levelo://app?vid=0b1dc631-c9e7-4faf-bb69-8f994665189e","ios":"levelo://app?vid=0b1dc631-c9e7-4faf-bb69-8f994665189e"},"vehicle_type_id":"4","last_reported":1742641662,"current_range_meters":18000,"station_id":"ce4bhip2rcd13ifvqft0","pricing_plan_id":"cebpf4jnsgd1na2vs0mg"},{"bike_id":"29fdfb64-3474-49ab-a0a8-69da78ff6967","system_id":"levelo_inurba_marseille","lat":43.3015,"lon":5.38073,"is_reserved":false,"is_disabled":false,"rental_uris":{"android":"levelo://app?vid=29fdfb64-3474-49ab-a0a8-69da78ff6967","ios":"levelo://app?vid=29fdfb64-3474-49ab-a0a8-69da78ff6967"},"vehicle_type_id":"4","last_reported":1742641662,"current_range_meters":18000,"station_id":"ce4bgjp2rcd13ifvqbh0","pricing_plan_id":"cebpf4jnsgd1na2vs0mg"},{"bike_id":"4e3979a0-1556-487c-89cc-3f615596f56d","system_id":"levelo_inurba_marseille","lat":43.3154,"lon":5.38021,"is_reserved":false,"is_disabled":false,"rental_uris":{"android":"levelo://app?vid=4e3979a0-1556-487c-89cc-3f615596f56d","ios":"levelo://app?vid=4e3979a0-1556-487c-89cc-3f615596f56d"},"vehicle_type_id":"4","last_reported":1742641662,"current_range_meters":17600,"station_id":"ce4bhsp2rcd13ifvqi50","pricing_plan_id":"cebpf4jnsgd1na2vs0mg"},{"bike_id":"80560432-b1f9-4aa1-9e85-24e5e97be2e1","system_id":"levelo_inurba_marseille","lat":43.23186,"lon":5.39988,"is_reserved":false,"is_disabled":false,"rental_uris":{"android":"levelo://app?vid=80560432-b1f9-4aa1-9e85-24e5e97be2e1","ios":"levelo://app?vid=80560432-b1f9-4aa1-9e85-24e5e97be2e1"},"vehicle_type_id":"4","last_reported":1742641662,"current_range_meters":18000,"station_id":"ce4bhn12rcd13ifvqgqg","pricing_plan_id":"cebpf4jnsgd1na2vs0mg"},{"bike_id":"c2e5df8a-7260-4d1e-af0e-93bfdf63b735","system_id":"levelo_inurba_marseille","lat":43.2417,"lon":5.39702,"is_reserved":false,"is_disabled":false,"rental_uris":{"android":"levelo://app?vid=c2e5df8a-7260-4d1e-af0e-93bfdf63b735","ios":"levelo://app?vid=c2e5df8a-7260-4d1e-af0e-93bfdf63b735"},"vehicle_type_id":"4","last_reported":1742641662,"current_range_meters":18000,"station_id":"ce4bhn12rcd13ifvqgpg","pricing_plan_id":"cebpf4jnsgd1na2vs0mg"},{"bike_id":"5ba2f2c0-fd14-47a1-a410-4530b0c0383d","system_id":"levelo_inurba_marseille","lat":43.29709,"lon":5.3769,"is_reserved":false,"is_disabled":false,"rental_uris":{"android":"levelo://app?vid=5ba2f2c0-fd14-47a1-a410-4530b0c0383d","ios":"levelo://app?vid=5ba2f2c0-fd14-47a1-a410-4530b0c0383d"},"vehicle_type_id":"4","last_reported":1742641662,"current_range_meters":18800,"station_id":"ce4bgkh2rcd13ifvqbl0","pricing_plan_id":"cebpf4jnsgd1na2vs0mg"},{"bike_id":"0c7d1549-7c8e-4182-b542-81cdfe771776","system_id":"levelo_inurba_marseille","lat":43.25582,"lon":5.38229,"is_reserved":false,"is_disabled":false,"rental_uris":{"android":"levelo://app?vid=0c7d1549-7c8e-4182-b542-81cdfe771776","ios":"levelo://app?vid=0c7d1549-7c8e-4182-b542-81cdfe771776"},"vehicle_type_id":"4","last_reported":1742641662,"current_range_meters":18800,"station_id":"ce4bhih2rcd13ifvqfs0","pricing_plan_id":"cebpf4jnsgd1na2vs0mg"},{"bike_id":"fe7bec03-940b-4ca3-b07d-38df7849e427","system_id":"levelo_inurba_marseille","lat":43.25719,"lon":5.41106,"is_reserved":false,"is_disabled":false,"rental_uris":{"android":"levelo://app?vid=fe7bec03-940b-4ca3-b07d-38df7849e427","ios":"levelo://app?vid=fe7bec03-940b-4ca3-b07d-38df7849e427"},"vehicle_type_id":"4","last_reported":1742641662,"current_range_meters":18800,"station_id":"ce4bhkp2rcd13ifvqgd0","pricing_plan_id":"cebpf4jnsgd1na2vs0mg"},{"bike_id":"bc22b35c-e3cf-4dec-9be1-8ffebf0abab2","system_id":"levelo_inurba_marseille","lat":43.26566,"lon":5.38994,"is_reserved":false,"is_disabled":false,"rental_uris":{"android":"levelo://app?vid=bc22b35c-e3cf-4dec-9be1-8ffebf0abab2","ios":"levelo://app?vid=bc22b35c-e3cf-4dec-9be1-8ffebf0abab2"},"vehicle_type_id":"4","last_reported":1742641662,"current_range_meters":18800,"station_id":"ce4bhe12rcd13ifvqf30","pricing_plan_id":"cebpf4jnsgd1na2vs0mg"},{"bike_id":"e34c7968-cc99-4249-8d5d-f8b0b139e350","system_id":"levelo_inurba_marseille","lat":43.29271,"lon":5.40168,"is_reserved":false,"is_disabled":true,"rental_uris":{"android":"levelo://app?vid=e34c7968-cc99-4249-8d5d-f8b0b139e350","ios":"levelo://app?vid=e34c7968-cc99-4249-8d5d-f8b0b139e350"},"vehicle_type_id":"4","last_reported":1742641662,"current_range_meters":18800,"station_id":"ce4bh312rcd13ifvqdk0","pricing_plan_id":"cebpf4jnsgd1na2vs0mg"},{"bike_id":"17238c44-02e8-4ba3-abe3-5ae6a9cab49f","system_id":"levelo_inurba_marseille","lat":43.31758,"lon":5.3902,"is_reserved":false,"is_disabled":true,"rental_uris":{"android":"levelo://app?vid=17238c44-02e8-4ba3-abe3-5ae6a9cab49f","ios":"levelo://app?vid=17238c44-02e8-4ba3-abe3-5ae6a9cab49f"},"vehicle_type_id":"4","last_reported":1742641662,"current_range_meters":18800,"station_id":"ce4bhqp2rcd13ifvqhng","pricing_plan_id":"cebpf4jnsgd1na2vs0mg"},{"bike_id":"b64efce3-faad-4d8e-9375-fb2dd5fcdbfa","system_id":"levelo_inurba_marseille","lat":43.25591,"lon":5.38237,"is_reserved":false,"is_disabled":false,"rental_uris":{"android":"levelo://app?vid=b64efce3-faad-4d8e-9375-fb2dd5fcdbfa","ios":"levelo://app?vid=b64efce3-faad-4d8e-9375-fb2dd5fcdbfa"},"vehicle_type_id":"4","last_reported":1742641662,"current_range_meters":18800,"station_id":"ce4bhih2rcd13ifvqfs0","pricing_plan_id":"cebpf4jnsgd1na2vs0mg"},{"bike_id":"b57ca73e-2858-450c-ab5c-78519a22ef6b","system_id":"levelo_inurba_marseille","lat":43.29096,"lon":5.38166,"is_reserved":false,"is_disabled":true,"rental_uris":{"android":"levelo://app?vid=b57ca73e-2858-450c-ab5c-78519a22ef6b","ios":"levelo://app?vid=b57ca73e-2858-450c-ab5c-78519a22ef6b"},"vehicle_type_id":"4","last_reported":1742641662,"current_range_meters":18800,"station_id":"ce4bh512rcd13ifvqe2g","pricing_plan_id":"cebpf4jnsgd1na2vs0mg"},{"bike_id":"3ad58ee9-ab1a-4ee1-8bdf-0f4cea436a0f","system_id":"levelo_inurba_marseille","lat":43.30563,"lon":5.36549,"is_reserved":false,"is_disabled":false,"rental_uris":{"android":"levelo://app?vid=3ad58ee9-ab1a-4ee1-8bdf-0f4cea436a0f","ios":"levelo://app?vid=3ad58ee9-ab1a-4ee1-8bdf-0f4cea436a0f"},"vehicle_type_id":"4","last_reported":1742641662,"current_range_meters":18800,"station_id":"ce4bgs12rcd13ifvqcag","pricing_plan_id":"cebpf4jnsgd1na2vs0mg"},{"bike_id":"f0e97907-3014-4e18-9963-cfa537f62b2c","system_id":"levelo_inurba_marseille","lat":43.29963,"lon":5.38497,"is_reserved":false,"is_disabled":false,"rental_uris":{"android":"levelo://app?vid=f0e97907-3014-4e18-9963-cfa537f62b2c","ios":"levelo://app?vid=f0e97907-3014-4e18-9963-cfa537f62b2c"},"vehicle_type_id":"4","last_reported":1742641662,"current_range_meters":18800,"station_id":"ce4bgj92rcd13ifvqbd0","pricing_plan_id":"cebpf4jnsgd1na2vs0mg"},{"bike_id":"fff77754-0714-462e-8101-a5110e958b2c","system_id":"levelo_inurba_marseille","lat":43.25002,"lon":5.38926,"is_reserved":false,"is_disabled":false,"rental_uris":{"android":"levelo://app?vid=fff77754-0714-462e-8101-a5110e958b2c","ios":"levelo://app?vid=fff77754-0714-462e-8101-a5110e958b2c"},"vehicle_type_id":"4","last_reported":1742641662,"current_range_meters":18800,"station_id":"ce4bhgp2rcd13ifvqfd0","pricing_plan_id":"cebpf4jnsgd1na2vs0mg"},{"bike_id":"d3ab18c3-d642-40d8-8c25-769a87a5e4e2","system_id":"levelo_inurba_marseille","lat":43.26809,"lon":5.40262,"is_reserved":false,"is_disabled":false,"rental_uris":{"android":"levelo://app?vid=d3ab18c3-d642-40d8-8c25-769a87a5e4e2","ios":"levelo://app?vid=d3ab18c3-d642-40d8-8c25-769a87a5e4e2"},"vehicle_type_id":"4","last_reported":1742641662,"current_range_meters":18800,"station_id":"ce501612rcd8frsf0b60","pricing_plan_id":"cebpf4jnsgd1na2vs0mg"},{"bike_id":"a6ee1b1b-699f-44ae-9a2c-7bccca6e3934","system_id":"levelo_inurba_marseille","lat":43.29069,"lon":5.37174,"is_reserved":false,"is_disabled":false,"rental_uris":{"android":"levelo://app?vid=a6ee1b1b-699f-44ae-9a2c-7bccca6e3934","ios":"levelo://app?vid=a6ee1b1b-699f-44ae-9a2c-7bccca6e3934"},"vehicle_type_id":"4","last_reported":1742641662,"current_range_meters":18800,"station_id":"ce4bh5p2rcd13ifvqe4g","pricing_plan_id":"cebpf4jnsgd1na2vs0mg"},{"bike_id":"deb6420d-b998-467f-b950-fb6c8a968356","system_id":"levelo_inurba_marseille","lat":43.31194,"lon":5.38714,"is_reserved":false,"is_disabled":false,"rental_uris":{"android":"levelo://app?vid=deb6420d-b998-467f-b950-fb6c8a968356","ios":"levelo://app?vid=deb6420d-b998-467f-b950-fb6c8a968356"},"vehicle_type_id":"4","last_reported":1742641662,"current_range_meters":18800,"station_id":"ce4bgv12rcd13ifvqcp0","pricing_plan_id":"cebpf4jnsgd1na2vs0mg"},{"bike_id":"9e109ce2-e3f7-4a89-b48e-7f72abb6e40c","system_id":"levelo_inurba_marseille","lat":43.31363,"lon":5.38501,"is_reserved":false,"is_disabled":false,"rental_uris":{"android":"levelo://app?vid=9e109ce2-e3f7-4a89-b48e-7f72abb6e40c","ios":"levelo://app?vid=9e109ce2-e3f7-4a89-b48e-7f72abb6e40c"},"vehicle_type_id":"4","last_reported":1742641662,"current_range_meters":19200,"station_id":"ce4bgt92rcd13ifvqcf0","pricing_plan_id":"cebpf4jnsgd1na2vs0mg"},{"bike_id":"1db353d0-f4ca-4d02-82ee-68c1fd2d6d8d","system_id":"levelo_inurba_marseille","lat":43.28616,"lon":5.35104,"is_reserved":false,"is_disabled":false,"rental_uris":{"android":"levelo://app?vid=1db353d0-f4ca-4d02-82ee-68c1fd2d6d8d","ios":"levelo://app?vid=1db353d0-f4ca-4d02-82ee-68c1fd2d6d8d"},"vehicle_type_id":"4","last_reported":1742641662,"current_range_meters":19200,"station_id":"ce4bhch2rcd13ifvqeug","pricing_plan_id":"cebpf4jnsgd1na2vs0mg"},{"bike_id":"b8ef14fb-fff7-461c-8b3c-012ace176044","system_id":"levelo_inurba_marseille","lat":43.23963,"lon":5.36626,"is_reserved":false,"is_disabled":false,"rental_uris":{"android":"levelo://app?vid=b8ef14fb-fff7-461c-8b3c-012ace176044","ios":"levelo://app?vid=b8ef14fb-fff7-461c-8b3c-012ace176044"},"vehicle_type_id":"4","last_reported":1742641662,"current_range_meters":18800,"station_id":"ce4bhi12rcd13ifvqfp0","pricing_plan_id":"cebpf4jnsgd1na2vs0mg"},{"bike_id":"c9abede8-6953-4ff9-8b6c-9f3f7ca6fd3b","system_id":"levelo_inurba_marseille","lat":43.26207,"lon":5.37454,"is_reserved":false,"is_disabled":false,"rental_uris":{"android":"levelo://app?vid=c9abede8-6953-4ff9-8b6c-9f3f7ca6fd3b","ios":"levelo://app?vid=c9abede8-6953-4ff9-8b6c-9f3f7ca6fd3b"},"vehicle_type_id":"4","last_reported":1742641662,"current_range_meters":19200,"station_id":"ce4bhgp2rcd13ifvqfc0","pricing_plan_id":"cebpf4jnsgd1na2vs0mg"},{"bike_id":"19a95dcf-9766-41d3-9e72-94705e323dad","system_id":"levelo_inurba_marseille","lat":43.24397,"lon":5.37065,"is_reserved":false,"is_disabled":false,"rental_uris":{"android":"levelo://app?vid=19a95dcf-9766-41d3-9e72-94705e323dad","ios":"levelo://app?vid=19a95dcf-9766-41d3-9e72-94705e323dad"},"vehicle_type_id":"4","last_reported":1742641662,"current_range_meters":18800,"station_id":"ce4bhhh2rcd13ifvqfk0","pricing_plan_id":"cebpf4jnsgd1na2vs0mg"},{"bike_id":"acd44e3f-4e26-4a3e-8a93-6732a9c625ee","system_id":"levelo_inurba_marseille","lat":43.2842,"lon":5.3497,"is_reserved":false,"is_disabled":false,"rental_uris":{"android":"levelo://app?vid=acd44e3f-4e26-4a3e-8a93-6732a9c625ee","ios":"levelo://app?vid=acd44e3f-4e26-4a3e-8a93-6732a9c625ee"},"vehicle_type_id":"4","last_reported":1742641662,"current_range_meters":19200,"station_id":"ce4bhbh2rcd13ifvqepg","pricing_plan_id":"cebpf4jnsgd1na2vs0mg"},{"bike_id":"6c22ace8-c916-4563-a11f-34086df2a8cb","system_id":"levelo_inurba_marseille","lat":43.30594,"lon":5.39355,"is_reserved":false,"is_disabled":false,"rental_uris":{"android":"levelo://app?vid=6c22ace8-c916-4563-a11f-34086df2a8cb","ios":"levelo://app?vid=6c22ace8-c916-4563-a11f-34086df2a8cb"},"vehicle_type_id":"4","last_reported":1742641662,"current_range_meters":19600,"station_id":"ce4bh0p2rcd13ifvqd80","pricing_plan_id":"cebpf4jnsgd1na2vs0mg"},{"bike_id":"840bd6ba-1dc1-467f-8a97-2020e1f2ee1c","system_id":"levelo_inurba_marseille","lat":43.32366,"lon":5.36752,"is_reserved":false,"is_disabled":false,"rental_uris":{"android":"levelo://app?vid=840bd6ba-1dc1-467f-8a97-2020e1f2ee1c","ios":"levelo://app?vid=840bd6ba-1dc1-467f-8a97-2020e1f2ee1c"},"vehicle_type_id":"4","last_reported":1742641662,"current_range_meters":19600,"station_id":"ce4bhsh2rcd13ifvqi2g","pricing_plan_id":"cebpf4jnsgd1na2vs0mg"},{"bike_id":"ca6dfb86-c058-476a-8de7-6f76e72ad68f","system_id":"levelo_inurba_marseille","lat":43.23061,"lon":5.35491,"is_reserved":false,"is_disabled":false,"rental_uris":{"android":"levelo://app?vid=ca6dfb86-c058-476a-8de7-6f76e72ad68f","ios":"levelo://app?vid=ca6dfb86-c058-476a-8de7-6f76e72ad68f"},"vehicle_type_id":"4","last_reported":1742641662,"current_range_meters":19600,"station_id":"cpo3342slgdg3j2ifvpg","pricing_plan_id":"cebpf4jnsgd1na2vs0mg"},{"bike_id":"a77d5ab4-f7c0-4b33-b9b9-f3177dc38dee","system_id":"levelo_inurba_marseille","lat":43.23966,"lon":5.36631,"is_reserved":false,"is_disabled":false,"rental_uris":{"android":"levelo://app?vid=a77d5ab4-f7c0-4b33-b9b9-f3177dc38dee","ios":"levelo://app?vid=a77d5ab4-f7c0-4b33-b9b9-f3177dc38dee"},"vehicle_type_id":"4","last_reported":1742641662,"current_range_meters":19600,"station_id":"ce4bhi12rcd13ifvqfp0","pricing_plan_id":"cebpf4jnsgd1na2vs0mg"},{"bike_id":"81ae4d69-ba18-4335-b427-06ebcc55f08f","system_id":"levelo_inurba_marseille","lat":43.29282,"lon":5.38422,"is_reserved":false,"is_disabled":false,"rental_uris":{"android":"levelo://app?vid=81ae4d69-ba18-4335-b427-06ebcc55f08f","ios":"levelo://app?vid=81ae4d69-ba18-4335-b427-06ebcc55f08f"},"vehicle_type_id":"4","last_reported":1742641662,"current_range_meters":19600,"station_id":"ce4bh692rcd13ifvqea0","pricing_plan_id":"cebpf4jnsgd1na2vs0mg"},