{"last_updated":1761729109,"ttl":60,"version":"2.2","data":{"bikes":[{"bike_id":"3f7c552a-2a9b-4bf8-95bd-507570380f71","system_id":"levelo_inurba_marseille","lat":43.28696,"lon":5.37937,"is_reserved":false,"is_disabled":false,"rental_uris":{"android":"levelo://app?vid=3f7c552a-2a9b-4bf8-95bd-507570380f71","ios":"levelo://app?vid=3f7c552a-2a9b-4bf8-95bd-507570380f71"},"vehicle_type_id":"4","last_reported":1761729109,"current_range_meters":2800,"station_id":"","pricing_plan_id":"cebpf4jnsgd1na2vs0mg"},{"bike_id":"2c54de8c-1d27-4c08-9493-e4ee00d85daa","system_id":"levelo_inurba_marseille","lat":43.26522,"lon":5.39558,"is_reserved":false,"is_disabled":false,"rental_uris":{"android":"levelo://app?vid=2c54de8c-1d27-4c08-9493-e4ee00d85daa","ios":"levelo://app?vid=2c54de8c-1d27-4c08-9493-e4ee00d85daa"},"vehicle_type_id":"4","last_reported":1761729109,"current_range_meters":2800,"station_id":"ce4bhi12rcd13ifvqfq0","pricing_plan_id":"cebpf4jnsgd1na2vs0mg"},{"bike_id":"c31ec96b-5ad9-40c8-a364-17fd3e265e0f","system_id":"levelo_inurba_marseille","lat":43.29292,"lon":5.36834,"is_reserved":false,"is_disabled":false,"rental_uris":{"android":"levelo://app?vid=c31ec96b-5ad9-40c8-a364-17fd3e265e0f","ios":"levelo://app?vid=c31ec96b-5ad9-40c8-a364-17fd3e265e0f"},"vehicle_type_id":"4","last_reported":1761729109,"current_range_meters":2800,"station_id":"ce4bhbp2rcd13ifvqesg","pricing_plan_id":"cebpf4jnsgd1na2vs0mg"},{"bike_id":"422e182a-0d0f-49e5-ad6f-2aedf152a88b","system_id":"levelo_inurba_marseille","lat":43.28611,"lon":5.35102,"is_reserved":false,"is_disabled":false,"rental_uris":{"android":"levelo://app?vid=422e182a-0d0f-49e5-ad6f-2aedf152a88b","ios":"levelo://app?vid=422e182a-0d0f-49e5-ad6f-2aedf152a88b"},"vehicle_type_id":"4","last_reported":1761729109,"current_range_meters":2800,"station_id":"ce4bhch2rcd13ifvqeug","pricing_plan_id":"cebpf4jnsgd1na2vs0mg"},{"bike_id":"965d03c6-8602-4eff-b615-6297b5f24389","system_id":"levelo_inurba_marseille","lat":43.29708,"lon":5.37698,"is_reserved":false,"is_disabled":false,"rental_uris":{"android":"levelo://app?vid=965d03c6-8602-4eff-b615-6297b5f24389","ios":"levelo://app?vid=965d03c6-8602-4eff-b615-6297b5f24389"},"vehicle_type_id":"4","last_reported":1761729109,"current_range_meters":3600,"station_id":"ce4bgkh2rcd13ifvqbl0","pricing_plan_id":"cebpf4jnsgd1na2vs0mg"},{"bike_id":"fd09dbe7-0bec-431b-9705-875a0c7a7829","system_id":"levelo_inurba_marseille","lat":43.2306,"lon":5.35491,"is_reserved":false,"is_disabled":false,"rental_uris":{"android":"levelo://app?vid=fd09dbe7-0bec-431b-9705-875a0c7a7829","ios":"levelo://app?vid=fd09dbe7-0bec-431b-9705-875a0c7a7829"},"vehicle_type_id":"4","last_reported":1761729109,"current_range_meters":4000,"station_id":"cpo3342slgdg3j2ifvpg","pricing_plan_id":"cebpf4jnsgd1na2vs0mg"},{"bike_id":"eea3c3c3-734f-4fd3-8061-ed84cfe47b38","system_id":"levelo_inurba_marseille","lat":43.32567,"lon":5.39137,"is_reserved":false,"is_disabled":false,"rental_uris":{"android":"levelo://app?vid=eea3c3c3-734f-4fd3-8061-ed84cfe47b38","ios":"levelo://app?vid=eea3c3c3-734f-4fd3-8061-ed84cfe47b38"},"vehicle_type_id":"4","last_reported":1761729109,"current_range_meters":4000,"station_id":"","pricing_plan_id":"cebpf4jnsgd1na2vs0mg"},{"bike_id":"340a1bb6-598c-419e-b030-a7f69cd71040","system_id":"levelo_inurba_marseille","lat":43.25917,"lon":5.4089,"is_reserved":false,"is_disabled":false,"rental_uris":{"android":"levelo://app?vid=340a1bb6-598c-419e-b030-a7f69cd71040","ios":"levelo://app?vid=340a1bb6-598c-419e-b030-a7f69cd71040"},"vehicle_type_id":"4","last_reported":1761729109,"current_range_meters":4000,"station_id":"ce4bhm92rcd13ifvqglg","pricing_plan_id":"cebpf4jnsgd1na2vs0mg"},{"bike_id":"a9c8baf6-c195-4fbe-8681-acb14c52e8c7","system_id":"levelo_inurba_marseille","lat":43.29493,"lon":5.43304,"is_reserved":false,"is_disabled":false,"rental_uris":{"android":"levelo://app?vid=a9c8baf6-c195-4fbe-8681-acb14c52e8c7","ios":"levelo://app?vid=a9c8baf6-c195-4fbe-8681-acb14c52e8c7"},"vehicle_type_id":"4","last_reported":1761729109,"current_range_meters":4800,"station_id":"st_d3j5ugp08ojc73fj9d10","pricing_plan_id":"cebpf4jnsgd1na2vs0mg"},{"bike_id":"92dbf5af-8161-49a0-bad7-4bfb33e1188c","system_id":"levelo_inurba_marseille","lat":43.323578,"lon":5.367443,"is_reserved":false,"is_disabled":false,"rental_uris":{"android":"levelo://app?vid=92dbf5af-8161-49a0-bad7-4bfb33e1188c","ios":"levelo://app?vid=92dbf5af-8161-49a0-bad7-4bfb33e1188c"},"vehicle_type_id":"4","last_reported":1761729109,"current_range_meters":5600,"station_id":"","pricing_plan_id":"cebpf4jnsgd1na2vs0mg"},{"bike_id":"5f973201-24b5-4aeb-9b04-cd17d10d954c","system_id":"levelo_inurba_marseille","lat":43.274122,"lon":5.390293,"is_reserved":false,"is_disabled":false,"rental_uris":{"android":"levelo://app?vid=5f973201-24b5-4aeb-9b04-cd17d10d954c","ios":"levelo://app?vid=5f973201-24b5-4aeb-9b04-cd17d10d954c"},"vehicle_type_id":"4","last_reported":1761729109,"current_range_meters":6000,"station_id":"ce4bhgp2rcd13ifvqfe0","pricing_plan_id":"cebpf4jnsgd1na2vs0mg"},{"bike_id":"3796c45a-6621-460a-b393-e47c52479d7b","system_id":"levelo_inurba_marseille","lat":43.28552,"lon":5.39074,"is_reserved":false,"is_disabled":true,"rental_uris":{"android":"levelo://app?vid=3796c45a-6621-460a-b393-e47c52479d7b","ios":"levelo://app?vid=3796c45a-6621-460a-b393-e47c52479d7b"},"vehicle_type_id":"4","last_reported":1761729109,"current_range_meters":6400,"station_id":"","pricing_plan_id":"cebpf4jnsgd1na2vs0mg"},{"bike_id":"2a559e85-a203-4818-9cb9-7f9454d8d19a","system_id":"levelo_inurba_marseille","lat":43.27382,"lon":5.3627,"is_reserved":false,"is_disabled":false,"rental_uris":{"android":"levelo://app?vid=2a559e85-a203-4818-9cb9-7f9454d8d19a","ios":"levelo://app?vid=2a559e85-a203-4818-9cb9-7f9454d8d19a"},"vehicle_type_id":"4","last_reported":1761729109,"current_range_meters":6400,"station_id":"ce4bhbh2rcd13ifvqeo0","pricing_plan_id":"cebpf4jnsgd1na2vs0mg"},{"bike_id":"ffff1783-fe88-4dfc-ab25-e2dedfb687a5","system_id":"levelo_inurba_marseille","lat":43.29635,"lon":5.40585,"is_reserved":false,"is_disabled":false,"rental_uris":{"android":"levelo://app?vid=ffff1783-fe88-4dfc-ab25-e2dedfb687a5","ios":"levelo://app?vid=ffff1783-fe88-4dfc-ab25-e2dedfb687a5"},"vehicle_type_id":"4","last_reported":1761729109,"current_range_meters":6400,"station_id":"ce4bh0h2rcd13ifvqd60","pricing_plan_id":"cebpf4jnsgd1na2vs0mg"},{"bike_id":"ec3bd2cd-d8ca-4462-9d2a-6fc391cc0bb8","system_id":"levelo_inurba_marseille","lat":43.28732,"lon":5.37936,"is_reserved":false,"is_disabled":false,"rental_uris":{"android":"levelo://app?vid=ec3bd2cd-d8ca-4462-9d2a-6fc391cc0bb8","ios":"levelo://app?vid=ec3bd2cd-d8ca-4462-9d2a-6fc391cc0bb8"},"vehicle_type_id":"4","last_reported":1761729109,"current_range_meters":6400,"station_id":"ce4bh9p2rcd13ifvqec0","pricing_plan_id":"cebpf4jnsgd1na2vs0mg"},{"bike_id":"1880ebb9-7edb-463e-976b-226e958b9ebe","system_id":"levelo_inurba_marseille","lat":43.31097,"lon":5.37487,"is_reserved":false,"is_disabled":false,"rental_uris":{"android":"levelo://app?vid=1880ebb9-7edb-463e-976b-226e958b9ebe","ios":"levelo://app?vid=1880ebb9-7edb-463e-976b-226e958b9ebe"},"vehicle_type_id":"4","last_reported":1761729109,"current_range_meters":6800,"station_id":"ce4bgt12rcd13ifvqce0","pricing_plan_id":"cebpf4jnsgd1na2vs0mg"},{"bike_id":"885f3d20-28c7-43aa-80a5-320d9679b1c5","system_id":"levelo_inurba_marseille","lat":43.281974,"lon":5.390544,"is_reserved":false,"is_disabled":false,"rental_uris":{"android":"levelo://app?vid=885f3d20-28c7-43aa-80a5-320d9679b1c5","ios":"levelo://app?vid=885f3d20-28c7-43aa-80a5-320d9679b1c5"},"vehicle_type_id":"4","last_reported":1761729109,"current_range_meters":6800,"station_id":"ce4bhoh2rcd13ifvqh5g","pricing_plan_id":"cebpf4jnsgd1na2vs0mg"},{"bike_id":"b59e2219-c8d3-425b-bb0c-f5c65a630120","system_id":"levelo_inurba_marseille","lat":43.30467,"lon":5.37915,"is_reserved":false,"is_disabled":false,"rental_uris":{"android":"levelo://app?vid=b59e2219-c8d3-425b-bb0c-f5c65a630120","ios":"levelo://app?vid=b59e2219-c8d3-425b-bb0c-f5c65a630120"},"vehicle_type_id":"4","last_reported":1761729109,"current_range_meters":6800,"station_id":"ce4bgup2rcd13ifvqcn0","pricing_plan_id":"cebpf4jnsgd1na2vs0mg"},{"bike_id":"3bf472a0-1c96-40bf-83cc-8b446f32bec7","system_id":"levelo_inurba_marseille","lat":43.2768,"lon":5.3889,"is_reserved":false,"is_disabled":true,"rental_uris":{"android":"levelo://app?vid=3bf472a0-1c96-40bf-83cc-8b446f32bec7","ios":"levelo://app?vid=3bf472a0-1c96-40bf-83cc-8b446f32bec7"},"vehicle_type_id":"4","last_reported":1761729109,"current_range_meters":6800,"station_id":"ce4bhi12rcd13ifvqfo0","pricing_plan_id":"cebpf4jnsgd1na2vs0mg"},{"bike_id":"91978058-149c-40f7-9dfd-3ca8352cd1ac","system_id":"levelo_inurba_marseille","lat":43.303147,"lon":5.391911,"is_reserved":false,"is_disabled":false,"rental_uris":{"android":"levelo://app?vid=91978058-149c-40f7-9dfd-3ca8352cd1ac","ios":"levelo://app?vid=91978058-149c-40f7-9dfd-3ca8352cd1ac"},"vehicle_type_id":"4","last_reported":1761729109,"current_range_meters":7200,"station_id":"ce4bgkh2rcd13ifvqbk0","pricing_plan_id":"cebpf4jnsgd1na2vs0mg"},{"bike_id":"3ff95676-3110-48eb-974d-acc3127cf22d","system_id":"levelo_inurba_marseille","lat":43.31332,"lon":5.39687,"is_reserved":false,"is_disabled":false,"rental_uris":{"android":"levelo://app?vid=3ff95676-3110-48eb-974d-acc3127cf22d","ios":"levelo://app?vid=3ff95676-3110-48eb-974d-acc3127cf22d"},"vehicle_type_id":"4","last_reported":1761729109,"current_range_meters":7200,"station_id":"ce4bgvp2rcd13ifvqcu0","pricing_plan_id":"cebpf4jnsgd1na2vs0mg"},{"bike_id":"70c6fabe-eb8f-40ac-ad02-3b287187981e","system_id":"levelo_inurba_marseille","lat":43.267,"lon":5.41212,"is_reserved":false,"is_disabled":false,"rental_uris":{"android":"levelo://app?vid=70c6fabe-eb8f-40ac-ad02-3b287187981e","ios":"levelo://app?vid=70c6fabe-eb8f-40ac-ad02-3b287187981e"},"vehicle_type_id":"4","last_reported":1761729109,"current_range_meters":7200,"station_id":"","pricing_plan_id":"cebpf4jnsgd1na2vs0mg"},{"bike_id":"d45f74f7-a2a1-43fd-9d9c-77e5c3cc68c7","system_id":"levelo_inurba_marseille","lat":43.29179,"lon":5.371449,"is_reserved":false,"is_disabled":false,"rental_uris":{"android":"levelo://app?vid=d45f74f7-a2a1-43fd-9d9c-77e5c3cc68c7","ios":"levelo://app?vid=d45f74f7-a2a1-43fd-9d9c-77e5c3cc68c7"},"vehicle_type_id":"4","last_reported":1761729109,"current_range_meters":8000,"station_id":"ce4bha92rcd13ifvqeh0","pricing_plan_id":"cebpf4jnsgd1na2vs0mg"},{"bike_id":"392a94b7-4d0c-4e40-857e-ea535b458ae2","system_id":"levelo_inurba_marseille","lat":43.27999,"lon":5.41659,"is_reserved":false,"is_disabled":false,"rental_uris":{"android":"levelo://app?vid=392a94b7-4d0c-4e40-857e-ea535b458ae2","ios":"levelo://app?vid=392a94b7-4d0c-4e40-857e-ea535b458ae2"},"vehicle_type_id":"4","last_reported":1761729109,"current_range_meters":8400,"station_id":"ce4bho12rcd13ifvqh1g","pricing_plan_id":"cebpf4jnsgd1na2vs0mg"},{"bike_id":"872eb665-bdbb-4461-8b90-79087dafae89","system_id":"levelo_inurba_marseille","lat":43.262191,"lon":5.404642,"is_reserved":false,"is_disabled":false,"rental_uris":{"android":"levelo://app?vid=872eb665-bdbb-4461-8b90-79087dafae89","ios":"levelo://app?vid=872eb665-bdbb-4461-8b90-79087dafae89"},"vehicle_type_id":"4","last_reported":1761729109,"current_range_meters":8400,"station_id":"ce4bhmh2rcd13ifvqgmg","pricing_plan_id":"cebpf4jnsgd1na2vs0mg"},{"bike_id":"08129b9e-8873-4f8e-9f48-40e49ee7c8b4","system_id":"levelo_inurba_marseille","lat":43.29286,"lon":5.38395,"is_reserved":false,"is_disabled":false,"rental_uris":{"android":"levelo://app?vid=08129b9e-8873-4f8e-9f48-40e49ee7c8b4","ios":"levelo://app?vid=08129b9e-8873-4f8e-9f48-40e49ee7c8b4"},"vehicle_type_id":"4","last_reported":1761729109,"current_range_meters":8400,"station_id":"ce4bh692rcd13ifvqea0","pricing_plan_id":"cebpf4jnsgd1na2vs0mg"},{"bike_id":"54a28b07-280e-4f97-818c-935563621ed9","system_id":"levelo_inurba_marseille","lat":43.32488,"lon":5.36563,"is_reserved":false,"is_disabled":false,"rental_uris":{"android":"levelo://app?vid=54a28b07-280e-4f97-818c-935563621ed9","ios":"levelo://app?vid=54a28b07-280e-4f97-818c-935563621ed9"},"vehicle_type_id":"4","last_reported":1761729109,"current_range_meters":8400,"station_id":"ce4bhs12rcd13ifvqhvg","pricing_plan_id":"cebpf4jnsgd1na2vs0mg"},{"bike_id":"dccef0b1-edb3-49b5-866c-43e10e5763cc","system_id":"levelo_inurba_marseille","lat":43.28808,"lon":5.4384,"is_reserved":false,"is_disabled":false,"rental_uris":{"android":"levelo://app?vid=dccef0b1-edb3-49b5-866c-43e10e5763cc","ios":"levelo://app?vid=dccef0b1-edb3-49b5-866c-43e10e5763cc"},"vehicle_type_id":"4","last_reported":1761729109,"current_range_meters":8800,"station_id":"","pricing_plan_id":"cebpf4jnsgd1na2vs0mg"},{"bike_id":"0706bd2c-a666-4666-8663-f4a6c5a6d055","system_id":"levelo_inurba_marseille","lat":43.28841,"lon":5.3925,"is_reserved":false,"is_disabled":true,"rental_uris":{"android":"levelo://app?vid=0706bd2c-a666-4666-8663-f4a6c5a6d055","ios":"levelo://app?vid=0706bd2c-a666-4666-8663-f4a6c5a6d055"},"vehicle_type_id":"4","last_reported":1761729109,"current_range_meters":8800,"station_id":"ce4bh2p2rcd13ifvqdi0","pricing_plan_id":"cebpf4jnsgd1na2vs0mg"},{"bike_id":"650bab4c-7e6f-4240-b87d-3b3c0c747fd1","system_id":"levelo_inurba_marseille","lat":43.27968,"lon":5.38778,"is_reserved":false,"is_disabled":false,"rental_uris":{"android":"levelo://app?vid=650bab4c-7e6f-4240-b87d-3b3c0c747fd1","ios":"levelo://app?vid=650bab4c-7e6f-4240-b87d-3b3c0c747fd1"},"vehicle_type_id":"4","last_reported":1761729109,"current_range_meters":8800,"station_id":"ce4bhg12rcd13ifvqf80","pricing_plan_id":"cebpf4jnsgd1na2vs0mg"},{"bike_id":"769a47a8-1af0-41f3-a026-b6793c2883ee","system_id":"levelo_inurba_marseille","lat":43.27966,"lon":5.38716,"is_reserved":false,"is_disabled":false,"rental_uris":{"android":"levelo://app?vid=769a47a8-1af0-41f3-a026-b6793c2883ee","ios":"levelo://app?vid=769a47a8-1af0-41f3-a026-b6793c2883ee"},"vehicle_type_id":"4","last_reported":1761729109,"current_range_meters":8800,"station_id":"ce4bhg12rcd13ifvqf80","pricing_plan_id":"cebpf4jnsgd1na2vs0mg"},{"bike_id":"5e8f0882-5c60-48e3-9df1-214d5666a53f","system_id":"levelo_inurba_marseille","lat":43.31253,"lon":5.41162,"is_reserved":false,"is_disabled":false,"rental_uris":{"android":"levelo://app?vid=5e8f0882-5c60-48e3-9df1-214d5666a53f","ios":"levelo://app?vid=5e8f0882-5c60-48e3-9df1-214d5666a53f"},"vehicle_type_id":"4","last_reported":1761729109,"current_range_meters":8800,"station_id":"","pricing_plan_id":"cebpf4jnsgd1na2vs0mg"},{"bike_id":"32a863b6-26b8-457c-992a-f0253dd4c910","system_id":"levelo_inurba_marseille","lat":43.284781,"lon":5.483857,"is_reserved":false,"is_disabled":false,"rental_uris":{"android":"levelo://app?vid=32a863b6-26b8-457c-992a-f0253dd4c910","ios":"levelo://app?vid=32a863b6-26b8-457c-992a-f0253dd4c910"},"vehicle_type_id":"4","last_reported":1761729109,"current_range_meters":8800,"station_id":"st_d3svhcjqgbts73a3dn0g","pricing_plan_id":"cebpf4jnsgd1na2vs0mg"},{"bike_id":"aafea03d-35cb-40a5-b687-769f5fb87bb2","system_id":"levelo_inurba_marseille","lat":43.2997,"lon":5.37161,"is_reserved":false,"is_disabled":false,"rental_uris":{"android":"levelo://app?vid=aafea03d-35cb-40a5-b687-769f5fb87bb2","ios":"levelo://app?vid=aafea03d-35cb-40a5-b687-769f5fb87bb2"},"vehicle_type_id":"4","last_reported":1761729109,"current_range_meters":8800,"station_id":"ce4bgr92rcd13ifvqc7g","pricing_plan_id":"cebpf4jnsgd1na2vs0mg"},{"bike_id":"aa0e7e4b-f890-4f53-a40a-615d9f77115a","system_id":"levelo_inurba_marseille","lat":43.321019,"lon":5.368036,"is_reserved":false,"is_disabled":false,"rental_uris":{"android":"levelo://app?vid=aa0e7e4b-f890-4f53-a40a-615d9f77115a","ios":"levelo://app?vid=aa0e7e4b-f890-4f53-a40a-615d9f77115a"},"vehicle_type_id":"4","last_reported":1761729109,"current_range_meters":9200,"station_id":"ce4bhrh2rcd13ifvqhug","pricing_plan_id":"cebpf4jnsgd1na2vs0mg"},{"bike_id":"9d8d850b-681b-4f9f-9ae5-9b188cc4fdb0","system_id":"levelo_inurba_marseille","lat":43.28487,"lon":5.38556,"is_reserved":false,"is_disabled":false,"rental_uris":{"android":"levelo://app?vid=9d8d850b-681b-4f9f-9ae5-9b188cc4fdb0","ios":"levelo://app?vid=9d8d850b-681b-4f9f-9ae5-9b188cc4fdb0"},"vehicle_type_id":"4","last_reported":1761729109,"current_range_meters":9200,"station_id":"ce4bh8p2rcd13ifvqeb0","pricing_plan_id":"cebpf4jnsgd1na2vs0mg"},{"bike_id":"d5ca831f-8041-403e-ada8-7b4196c3d5be","system_id":"levelo_inurba_marseille","lat":43.293714,"lon":5.379385,"is_reserved":false,"is_disabled":false,"rental_uris":{"android":"levelo://app?vid=d5ca831f-8041-403e-ada8-7b4196c3d5be","ios":"levelo://app?vid=d5ca831f-8041-403e-ada8-7b4196c3d5be"},"vehicle_type_id":"4","last_reported":1761729109,"current_range_meters":9200,"station_id":"","pricing_plan_id":"cebpf4jnsgd1na2vs0mg"},{"bike_id":"897d1025-cdde-48ec-9b73-6418bafdbbc5","system_id":"levelo_inurba_marseille","lat":43.28077,"lon":5.3476,"is_reserved":false,"is_disabled":false,"rental_uris":{"android":"levelo://app?vid=897d1025-cdde-48ec-9b73-6418bafdbbc5","ios":"levelo://app?vid=897d1025-cdde-48ec-9b73-6418bafdbbc5"},"vehicle_type_id":"4","last_reported":1761729109,"current_range_meters":9200,"station_id":"","pricing_plan_id":"cebpf4jnsgd1na2vs0mg"},{"bike_id":"dced2bcc-e95f-44ce-b7d8-7bb47def612a","system_id":"levelo_inurba_marseille","lat":43.23061,"lon":5.35489,"is_reserved":false,"is_disabled":false,"rental_uris":{"android":"levelo://app?vid=dced2bcc-e95f-44ce-b7d8-7bb47def612a","ios":"levelo://app?vid=dced2bcc-e95f-44ce-b7d8-7bb47def612a"},"vehicle_type_id":"4","last_reported":1761729109,"current_range_meters":9600,"station_id":"cpo3342slgdg3j2ifvpg","pricing_plan_id":"cebpf4jnsgd1na2vs0mg"},{"bike_id":"52c7b72a-7121-4bf4-87d3-3ddfc9ff5b5f","system_id":"levelo_inurba_marseille","lat":43.33022,"lon":5.39041,"is_reserved":false,"is_disabled":false,"rental_uris":{"android":"levelo://app?vid=52c7b72a-7121-4bf4-87d3-3ddfc9ff5b5f","ios":"levelo://app?vid=52c7b72a-7121-4bf4-87d3-3ddfc9ff5b5f"},"vehicle_type_id":"4","last_reported":1761729109,"current_range_meters":10000,"station_id":"ce4bhr92rcd13ifvqhrg","pricing_plan_id":"cebpf4jnsgd1na2vs0mg"},{"bike_id":"ce383cab-eee6-4f01-894b-ad29c13fdebc","system_id":"levelo_inurba_marseille","lat":43.29489,"lon":5.43308,"is_reserved":false,"is_disabled":false,"rental_uris":{"android":"levelo://app?vid=ce383cab-eee6-4f01-894b-ad29c13fdebc","ios":"levelo://app?vid=ce383cab-eee6-4f01-894b-ad29c13fdebc"},"vehicle_type_id":"4","last_reported":1761729109,"current_range_meters":10000,"station_id":"st_d3j5ugp08ojc73fj9d10","pricing_plan_id":"cebpf4jnsgd1na2vs0mg"},{"bike_id":"7be7beee-6a10-4ceb-bdcd-e809dfe13381","system_id":"levelo_inurba_marseille","lat":43.303074,"lon":5.392098,"is_reserved":false,"is_disabled":true,"rental_uris":{"android":"levelo://app?vid=7be7beee-6a10-4ceb-bdcd-e809dfe13381","ios":"levelo://app?vid=7be7beee-6a10-4ceb-bdcd-e809dfe13381"},"vehicle_type_id":"4","last_reported":1761729109,"current_range_meters":10000,"station_id":"ce4bgkh2rcd13ifvqbk0","pricing_plan_id":"cebpf4jnsgd1na2vs0mg"},{"bike_id":"8a725d88-50bd-4351-84ea-d232021839e3","system_id":"levelo_inurba_marseille","lat":43.255487,"lon":5.39398,"is_reserved":false,"is_disabled":false,"rental_uris":{"android":"levelo://app?vid=8a725d88-50bd-4351-84ea-d232021839e3","ios":"levelo://app?vid=8a725d88-50bd-4351-84ea-d232021839e3"},"vehicle_type_id":"4","last_reported":1761729109,"current_range_meters":10000,"station_id":"","pricing_plan_id":"cebpf4jnsgd1na2vs0mg"},{"bike_id":"49ed0d39-51fe-4cd4-8527-50556baa8749","system_id":"levelo_inurba_marseille","lat":43.22531,"lon":5.348321,"is_reserved":false,"is_disabled":false,"rental_uris":{"android":"levelo://app?vid=49ed0d39-51fe-4cd4-8527-50556baa8749","ios":"levelo://app?vid=49ed0d39-51fe-4cd4-8527-50556baa8749"},"vehicle_type_id":"4","last_reported":1761729109,"current_range_meters":10000,"station_id":"","pricing_plan_id":"cebpf4jnsgd1na2vs0mg"},{"bike_id":"cb645f7b-78d0-4038-8a25-f32f4c90db04","system_id":"levelo_inurba_marseille","lat":43.30546,"lon":5.36715,"is_reserved":false,"is_disabled":false,"rental_uris":{"android":"levelo://app?vid=cb645f7b-78d0-4038-8a25-f32f4c90db04","ios":"levelo://app?vid=cb645f7b-78d0-4038-8a25-f32f4c90db04"},"vehicle_type_id":"4","last_reported":1761729109,"current_range_meters":10000,"station_id":"ce4bgrp2rcd13ifvqc9g","pricing_plan_id":"cebpf4jnsgd1na2vs0mg"},{"bike_id":"05348a72-033c-4422-aaa9-58cc959b0648","system_id":"levelo_inurba_marseille","lat":43.24078,"lon":5.37737,"is_reserved":false,"is_disabled":false,"rental_uris":{"android":"levelo://app?vid=05348a72-033c-4422-aaa9-58cc959b0648","ios":"levelo://app?vid=05348a72-033c-4422-aaa9-58cc959b0648"},"vehicle_type_id":"4","last_reported":1761729109,"current_range_meters":10800,"station_id":"ce4bhnp2rcd13ifvqgvg","pricing_plan_id":"cebpf4jnsgd1na2vs0mg"},{"bike_id":"32d7653e-b033-4183-b4c0-f44169bb9067","system_id":"levelo_inurba_marseille","lat":43.32711,"lon":5.39205,"is_reserved":false,"is_disabled":false,"rental_uris":{"android":"levelo://app?vid=32d7653e-b033-4183-b4c0-f44169bb9067","ios":"levelo://app?vid=32d7653e-b033-4183-b4c0-f44169bb9067"},"vehicle_type_id":"4","last_reported":1761729109,"current_range_meters":10800,"station_id":"","pricing_plan_id":"cebpf4jnsgd1na2vs0mg"},{"bike_id":"60a173d4-f299-4da8-bba6-1e85898709ec","system_id":"levelo_inurba_marseille","lat":43.28223,"lon":5.39061,"is_reserved":false,"is_disabled":true,"rental_uris":{"android":"levelo://app?vid=60a173d4-f299-4da8-bba6-1e85898709ec","ios":"levelo://app?vid=60a173d4-f299-4da8-bba6-1e85898709ec"},"vehicle_type_id":"4","last_reported":1761729109,"current_range_meters":11600,"station_id":"ce4bhn92rcd13ifvqgsg","pricing_plan_id":"cebpf4jnsgd1na2vs0mg"},{"bike_id":"65a4bf0b-a957-4ac2-9c71-1b1f4c5610cb","system_id":"levelo_inurba_marseille","lat":43.27999,"lon":5.41666,"is_reserved":false,"is_disabled":false,"rental_uris":{"android":"levelo://app?vid=65a4bf0b-a957-4ac2-9c71-1b1f4c5610cb","ios":"levelo://app?vid=65a4bf0b-a957-4ac2-9c71-1b1f4c5610cb"},"vehicle_type_id":"4","last_reported":1761729109,"current_range_meters":11600,"station_id":"ce4bho12rcd13ifvqh1g","pricing_plan_id":"cebpf4jnsgd1na2vs0mg"},{"bike_id":"6a03b052-61fb-4730-9e9f-57eedb7d7d8d","system_id":"levelo_inurba_marseille","lat":43.259382,"lon":5.409003,"is_reserved":false,"is_disabled":false,"rental_uris":{"android":"levelo://app?vid=6a03b052-61fb-4730-9e9f-57eedb7d7d8d","ios":"levelo://app?vid=6a03b052-61fb-4730-9e9f-57eedb7d7d8d"},"vehicle_type_id":"4","last_reported":1761729109,"current_range_meters":11600,"station_id":"ce4bhm92rcd13ifvqglg","pricing_plan_id":"cebpf4jnsgd1na2vs0mg"},{"bike_id":"bc272cc3-cd13-4b95-a293-7a4a086f4549","system_id":"levelo_inurba_marseille","lat":43.29929,"lon":5.37469,"is_reserved":false,"is_disabled":false,"rental_uris":{"android":"levelo://app?vid=bc272cc3-cd13-4b95-a293-7a4a086f4549","ios":"levelo://app?vid=bc272cc3-cd13-4b95-a293-7a4a086f4549"},"vehicle_type_id":"4","last_reported":1761729109,"current_range_meters":11600,"station_id":"ce4bgjh2rcd13ifvqbg0","pricing_plan_id":"cebpf4jnsgd1na2vs0mg"},{"bike_id":"ae8ebe94-fc0f-4409-8f77-39eb5c613a67","system_id":"levelo_inurba_marseille","lat":43.337444,"lon":5.374475,"is_reserved":false,"is_disabled":false,"rental_uris":{"android":"levelo://app?vid=ae8ebe94-fc0f-4409-8f77-39eb5c613a67","ios":"levelo://app?vid=ae8ebe94-fc0f-4409-8f77-39eb5c613a67"},"vehicle_type_id":"4","last_reported":1761729109,"current_range_meters":12000,"station_id":"","pricing_plan_id":"cebpf4jnsgd1na2vs0mg"},{"bike_id":"82c3d2c8-f0bf-446e-b125-018f07998329","system_id":"levelo_inurba_marseille","lat":43.327511,"lon":5.400964,"is_reserved":false,"is_disabled":false,"rental_uris":{"android":"levelo://app?vid=82c3d2c8-f0bf-446e-b125-018f07998329","ios":"levelo://app?vid=82c3d2c8-f0bf-446e-b125-018f07998329"},"vehicle_type_id":"4","last_reported":1761729109,"current_range_meters":12000,"station_id":"","pricing_plan_id":"cebpf4jnsgd1na2vs0mg"},{"bike_id":"5f63bd5a-98a8-4b17-b4b2-a2eab663b359","system_id":"levelo_inurba_marseille","lat":43.2814,"lon":5.40278,"is_reserved":false,"is_disabled":false,"rental_uris":{"android":"levelo://app?vid=5f63bd5a-98a8-4b17-b4b2-a2eab663b359","ios":"levelo://app?vid=5f63bd5a-98a8-4b17-b4b2-a2eab663b359"},"vehicle_type_id":"4","last_reported":1761729109,"current_range_meters":12000,"station_id":"","pricing_plan_id":"cebpf4jnsgd1na2vs0mg"},{"bike_id":"eb900bb0-2b3c-43d2-894b-b03179c30b08","system_id":"levelo_inurba_marseille","lat":43.259314,"lon":5.409097,"is_reserved":false,"is_disabled":false,"rental_uris":{"android":"levelo://app?vid=eb900bb0-2b3c-43d2-894b-b03179c30b08","ios":"levelo://app?vid=eb900bb0-2b3c-43d2-894b-b03179c30b08"},"vehicle_type_id":"4","last_reported":1761729109,"current_range_meters":12400,"station_id":"ce4bhm92rcd13ifvqglg","pricing_plan_id":"cebpf4jnsgd1na2vs0mg"},{"bike_id":"b9b97e59-d381-4ae2-ac3e-5dbf9909c01d","system_id":"levelo_inurba_marseille","lat":43.32492,"lon":5.36566,"is_reserved":false,"is_disabled":false,"rental_uris":{"android":"levelo://app?vid=b9b97e59-d381-4ae2-ac3e-5dbf9909c01d","ios":"levelo://app?vid=b9b97e59-d381-4ae2-ac3e-5dbf9909c01d"},"vehicle_type_id":"4","last_reported":1761729109,"current_range_meters":12400,"station_id":"ce4bhs12rcd13ifvqhvg","pricing_plan_id":"cebpf4jnsgd1na2vs0mg"},{"bike_id":"8492a824-0330-41b7-b1cd-050ea356e31d","system_id":"levelo_inurba_marseille","lat":43.322911,"lon":5.382757,"is_reserved":false,"is_disabled":false,"rental_uris":{"android":"levelo://app?vid=8492a824-0330-41b7-b1cd-050ea356e31d","ios":"levelo://app?vid=8492a824-0330-41b7-b1cd-050ea356e31d"},"vehicle_type_id":"4","last_reported":1761729109,"current_range_meters":12400,"station_id":"ce4bhr12rcd13ifvqhqg","pricing_plan_id":"cebpf4jnsgd1na2vs0mg"},{"bike_id":"0c0f8831-f4c3-43fd-9f3e-239c481d5ed1","system_id":"levelo_inurba_marseille","lat":43.28481,"lon":5.38415,"is_reserved":false,"is_disabled":false,"rental_uris":{"android":"levelo://app?vid=0c0f8831-f4c3-43fd-9f3e-239c481d5ed1","ios":"levelo://app?vid=0c0f8831-f4c3-43fd-9f3e-239c481d5ed1"},"vehicle_type_id":"4","last_reported":1761729109,"current_range_meters":12400,"station_id":"ce4bh512rcd13ifvqe3g","pricing_plan_id":"cebpf4jnsgd1na2vs0mg"},{"bike_id":"69419e75-0d9f-4e47-93fc-eb078cd62a8e","system_id":"levelo_inurba_marseille","lat":43.30468,"lon":5.37912,"is_reserved":false,"is_disabled":false,"rental_uris":{"android":"levelo://app?vid=69419e75-0d9f-4e47-93fc-eb078cd62a8e","ios":"levelo://app?vid=69419e75-0d9f-4e47-93fc-eb078cd62a8e"},"vehicle_type_id":"4","last_reported":1761729109,"current_range_meters":12400,"station_id":"ce4bgup2rcd13ifvqcn0","pricing_plan_id":"cebpf4jnsgd1na2vs0mg"},{"bike_id":"24440eb3-e1e8-46dc-862b-ff0fa66f4320","system_id":"levelo_inurba_marseille","lat":43.30138,"lon":5.39868,"is_reserved":false,"is_disabled":true,"rental_uris":{"android":"levelo://app?vid=24440eb3-e1e8-46dc-862b-ff0fa66f4320","ios":"levelo://app?vid=24440eb3-e1e8-46dc-862b-ff0fa66f4320"},"vehicle_type_id":"4","last_reported":1761729109,"current_range_meters":12400,"station_id":"ce4bh0h2rcd13ifvqd40","pricing_plan_id":"cebpf4jnsgd1na2vs0mg"},{"bike_id":"de422625-e18b-44f9-a4cd-1675a4d488d9","system_id":"levelo_inurba_marseille","lat":43.2465,"lon":5.38882,"is_reserved":false,"is_disabled":false,"rental_uris":{"android":"levelo://app?vid=de422625-e18b-44f9-a4cd-1675a4d488d9","ios":"levelo://app?vid=de422625-e18b-44f9-a4cd-1675a4d488d9"},"vehicle_type_id":"4","last_reported":1761729109,"current_range_meters":12400,"station_id":"ce4bhg12rcd13ifvqf60","pricing_plan_id":"cebpf4jnsgd1na2vs0mg"},{"bike_id":"83d1ae9e-849a-4723-ba41-0c89827dfb53","system_id":"levelo_inurba_marseille","lat":43.28422,"lon":5.34975,"is_reserved":false,"is_disabled":false,"rental_uris":{"android":"levelo://app?vid=83d1ae9e-849a-4723-ba41-0c89827dfb53","ios":"levelo://app?vid=83d1ae9e-849a-4723-ba41-0c89827dfb53"},"vehicle_type_id":"4","last_reported":1761729109,"current_range_meters":12800,"station_id":"ce4bhbh2rcd13ifvqepg","pricing_plan_id":"cebpf4jnsgd1na2vs0mg"},{"bike_id":"d24a2c68-94c2-4577-88eb-bd161c9ebb38","system_id":"levelo_inurba_marseille","lat":43.225311,"lon":5.348358,"is_reserved":false,"is_disabled":false,"rental_uris":{"android":"levelo://app?vid=d24a2c68-94c2-4577-88eb-bd161c9ebb38","ios":"levelo://app?vid=d24a2c68-94c2-4577-88eb-bd161c9ebb38"},"vehicle_type_id":"4","last_reported":1761729109,"current_range_meters":12800,"station_id":"","pricing_plan_id":"cebpf4jnsgd1na2vs0mg"},{"bike_id":"02dd205b-e97c-4104-9683-066d2523fd3f","system_id":"levelo_inurba_marseille","lat":43.230651,"lon":5.354921,"is_reserved":false,"is_disabled":false,"rental_uris":{"android":"levelo://app?vid=02dd205b-e97c-4104-9683-066d2523fd3f","ios":"levelo://app?vid=02dd205b-e97c-4104-9683-066d2523fd3f"},"vehicle_type_id":"4","last_reported":1761729109,"current_range_meters":12800,"station_id":"cpo3342slgdg3j2ifvpg","pricing_plan_id":"cebpf4jnsgd1na2vs0mg"},{"bike_id":"2d410998-75e1-4dc8-a261-e421b2422111","system_id":"levelo_inurba_marseille","lat":43.274331,"lon":5.389988,"is_reserved":false,"is_disabled":false,"rental_uris":{"android":"levelo://app?vid=2d410998-75e1-4dc8-a261-e421b2422111","ios":"levelo://app?vid=2d410998-75e1-4dc8-a261-e421b2422111"},"vehicle_type_id":"4","last_reported":1761729109,"current_range_meters":13600,"station_id":"ce4bhgp2rcd13ifvqfe0","pricing_plan_id":"cebpf4jnsgd1na2vs0mg"},{"bike_id":"5d814d4e-c4e4-462e-81b6-a82c3d6a0740","system_id":"levelo_inurba_marseille","lat":43.305474,"lon":5.367393,"is_reserved":false,"is_disabled":false,"rental_uris":{"android":"levelo://app?vid=5d814d4e-c4e4-462e-81b6-a82c3d6a0740","ios":"levelo://app?vid=5d814d4e-c4e4-462e-81b6-a82c3d6a0740"},"vehicle_type_id":"4","last_reported":1761729109,"current_range_meters":13600,"station_id":"ce4bgrp2rcd13ifvqc9g","pricing_plan_id":"cebpf4jnsgd1na2vs0mg"},{"bike_id":"3f19d751-4dff-4fd0-932e-933fe83b997d","system_id":"levelo_inurba_marseille","lat":43.306,"lon":5.37235,"is_reserved":false,"is_disabled":false,"rental_uris":{"android":"levelo://app?vid=3f19d751-4dff-4fd0-932e-933fe83b997d","ios":"levelo://app?vid=3f19d751-4dff-4fd0-932e-933fe83b997d"},"vehicle_type_id":"4","last_reported":1761729109,"current_range_meters":13600,"station_id":"ce4bgqh2rcd13ifvqc4g","pricing_plan_id":"cebpf4jnsgd1na2vs0mg"},{"bike_id":"6432ad21-ebb9-456d-b288-46fa6e5bea5e","system_id":"levelo_inurba_marseille","lat":43.309597,"lon":5.390281,"is_reserved":false,"is_disabled":false,"rental_uris":{"android":"levelo://app?vid=6432ad21-ebb9-456d-b288-46fa6e5bea5e","ios":"levelo://app?vid=6432ad21-ebb9-456d-b288-46fa6e5bea5e"},"vehicle_type_id":"4","last_reported":1761729109,"current_range_meters":13600,"station_id":"ce4bgup2rcd13ifvqco0","pricing_plan_id":"cebpf4jnsgd1na2vs0mg"},{"bike_id":"45f627a0-308f-4de6-b566-20efbd381978","system_id":"levelo_inurba_marseille","lat":43.31502,"lon":5.37286,"is_reserved":false,"is_disabled":false,"rental_uris":{"android":"levelo://app?vid=45f627a0-308f-4de6-b566-20efbd381978","ios":"levelo://app?vid=45f627a0-308f-4de6-b566-20efbd381978"},"vehicle_type_id":"4","last_reported":1761729109,"current_range_meters":13600,"station_id":"ce4bgt12rcd13ifvqcd0","pricing_plan_id":"cebpf4jnsgd1na2vs0mg"},{"bike_id":"f63d24ec-9995-4205-89a6-d7e1d65e409e","system_id":"levelo_inurba_marseille","lat":43.284716,"lon":5.384105,"is_reserved":false,"is_disabled":false,"rental_uris":{"android":"levelo://app?vid=f63d24ec-9995-4205-89a6-d7e1d65e409e","ios":"levelo://app?vid=f63d24ec-9995-4205-89a6-d7e1d65e409e"},"vehicle_type_id":"4","last_reported":1761729109,"current_range_meters":14000,"station_id":"ce4bh512rcd13ifvqe3g","pricing_plan_id":"cebpf4jnsgd1na2vs0mg"},{"bike_id":"16b49292-fed8-40ee-9331-45f0c3b8e263","system_id":"levelo_inurba_marseille","lat":43.30451,"lon":5.37897,"is_reserved":false,"is_disabled":false,"rental_uris":{"android":"levelo://app?vid=16b49292-fed8-40ee-9331-45f0c3b8e263","ios":"levelo://app?vid=16b49292-fed8-40ee-9331-45f0c3b8e263"},"vehicle_type_id":"4","last_reported":1761729109,"current_range_meters":14000,"station_id":"ce4bgup2rcd13ifvqcn0","pricing_plan_id":"cebpf4jnsgd1na2vs0mg"},{"bike_id":"0d09d617-390e-4609-94e0-95a9e55eb97c","system_id":"levelo_inurba_marseille","lat":43.30953,"lon":5.39025,"is_reserved":false,"is_disabled":false,"rental_uris":{"android":"levelo://app?vid=0d09d617-390e-4609-94e0-95a9e55eb97c","ios":"levelo://app?vid=0d09d617-390e-4609-94e0-95a9e55eb97c"},"vehicle_type_id":"4","last_reported":1761729109,"current_range_meters":14000,"station_id":"ce4bgup2rcd13ifvqco0","pricing_plan_id":"cebpf4jnsgd1na2vs0mg"},{"bike_id":"4ca7ec1b-8d1a-4448-929e-2f0f92f6f8d5","system_id":"levelo_inurba_marseille","lat":43.25492,"lon":5.37644,"is_reserved":false,"is_disabled":false,"rental_uris":{"android":"levelo://app?vid=4ca7ec1b-8d1a-4448-929e-2f0f92f6f8d5","ios":"levelo://app?vid=4ca7ec1b-8d1a-4448-929e-2f0f92f6f8d5"},"vehicle_type_id":"4","last_reported":1761729109,"current_range_meters":14400,"station_id":"ce4bhh12rcd13ifvqff0","pricing_plan_id":"cebpf4jnsgd1na2vs0mg"},{"bike_id":"d3078fe6-10d1-4616-8f7f-4c60f20e456a","system_id":"levelo_inurba_marseille","lat":43.28351,"lon":5.38097,"is_reserved":false,"is_disabled":false,"rental_uris":{"android":"levelo://app?vid=d3078fe6-10d1-4616-8f7f-4c60f20e456a","ios":"levelo://app?vid=d3078fe6-10d1-4616-8f7f-4c60f20e456a"},"vehicle_type_id":"4","last_reported":1761729109,"current_range_meters":14400,"station_id":"ce4bh412rcd13ifvqdr0","pricing_plan_id":"cebpf4jnsgd1na2vs0mg"},{"bike_id":"cdfd354b-6b40-49a3-9974-5ba7a0a4ccce","system_id":"levelo_inurba_marseille","lat":43.27203,"lon":5.39157,"is_reserved":false,"is_disabled":false,"rental_uris":{"android":"levelo://app?vid=cdfd354b-6b40-49a3-9974-5ba7a0a4ccce","ios":"levelo://app?vid=cdfd354b-6b40-49a3-9974-5ba7a0a4ccce"},"vehicle_type_id":"4","last_reported":1761729109,"current_range_meters":14800,"station_id":"ce4bhhp2rcd13ifvqfm0","pricing_plan_id":"cebpf4jnsgd1na2vs0mg"},{"bike_id":"fef7c7e6-8059-41aa-ae57-31b07bd2b2eb","system_id":"levelo_inurba_marseille","lat":43.225311,"lon":5.348374,"is_reserved":false,"is_disabled":false,"rental_uris":{"android":"levelo://app?vid=fef7c7e6-8059-41aa-ae57-31b07bd2b2eb","ios":"levelo://app?vid=fef7c7e6-8059-41aa-ae57-31b07bd2b2eb"},"vehicle_type_id":"4","last_reported":1761729109,"current_range_meters":14800,"station_id":"","pricing_plan_id":"cebpf4jnsgd1na2vs0mg"},{"bike_id":"d493ed99-e1bb-42b8-bd64-734cccf76915","system_id":"levelo_inurba_marseille","lat":43.29372,"lon":5.37842,"is_reserved":false,"is_disabled":false,"rental_uris":{"android":"levelo://app?vid=d493ed99-e1bb-42b8-bd64-734cccf76915","ios":"levelo://app?vid=d493ed99-e1bb-42b8-bd64-734cccf76915"},"vehicle_type_id":"4","last_reported":1761729109,"current_range_meters":14800,"station_id":"ce4bgjh2rcd13ifvqbf0","pricing_plan_id":"cebpf4jnsgd1na2vs0mg"},{"bike_id":"71fa64c1-1809-437b-856a-ee292cb15888","system_id":"levelo_inurba_marseille","lat":43.29267,"lon":5.37631,"is_reserved":false,"is_disabled":false,"rental_uris":{"android":"levelo://app?vid=71fa64c1-1809-437b-856a-ee292cb15888","ios":"levelo://app?vid=71fa64c1-1809-437b-856a-ee292cb15888"},"vehicle_type_id":"4","last_reported":1761729109,"current_range_meters":14800,"station_id":"ce4bgi12rcd13ifvqb80","pricing_plan_id":"cebpf4jnsgd1na2vs0mg"},{"bike_id":"1a34b5a4-3c1e-479b-b6f5-76f97d5c5c52","system_id":"levelo_inurba_marseille","lat":43.28527,"lon":5.44096,"is_reserved":false,"is_disabled":false,"rental_uris":{"android":"levelo://app?vid=1a34b5a4-3c1e-479b-b6f5-76f97d5c5c52","ios":"levelo://app?vid=1a34b5a4-3c1e-479b-b6f5-76f97d5c5c52"},"vehicle_type_id":"4","last_reported":1761729109,"current_range_meters":15200,"station_id":"st_d3j3df2ikq2c7380ej80","pricing_plan_id":"cebpf4jnsgd1na2vs0mg"},{"bike_id":"faee4aed-34d1-4e59-9f3e-bc2337688920","system_id":"levelo_inurba_marseille","lat":43.31715,"lon":5.43701,"is_reserved":false,"is_disabled":true,"rental_uris":{"android":"levelo://app?vid=faee4aed-34d1-4e59-9f3e-bc2337688920","ios":"levelo://app?vid=faee4aed-34d1-4e59-9f3e-bc2337688920"},"vehicle_type_id":"4","last_reported":1761729109,"current_range_meters":15200,"station_id":"ce4bhp92rcd13ifvqhcg","pricing_plan_id":"cebpf4jnsgd1na2vs0mg"},{"bike_id":"f6adb9c1-4a78-4322-baec-aa5f6f5d93b6","system_id":"levelo_inurba_marseille","lat":43.225321,"lon":5.348302,"is_reserved":false,"is_disabled":false,"rental_uris":{"android":"levelo://app?vid=f6adb9c1-4a78-4322-baec-aa5f6f5d93b6","ios":"levelo://app?vid=f6adb9c1-4a78-4322-baec-aa5f6f5d93b6"},"vehicle_type_id":"4","last_reported":1761729109,"current_range_meters":15200,"station_id":"","pricing_plan_id":"cebpf4jnsgd1na2vs0mg"},{"bike_id":"1f1e1455-9138-4367-9342-42f2dcda9c2b","system_id":"levelo_inurba_marseille","lat":43.30392,"lon":5.42488,"is_reserved":false,"is_disabled":false,"rental_uris":{"android":"levelo://app?vid=1f1e1455-9138-4367-9342-42f2dcda9c2b","ios":"levelo://app?vid=1f1e1455-9138-4367-9342-42f2dcda9c2b"},"vehicle_type_id":"4","last_reported":1761729109,"current_range_meters":16000,"station_id":"ce4bhoh2rcd13ifvqh6g","pricing_plan_id":"cebpf4jnsgd1na2vs0mg"},{"bike_id":"e3260d53-1f31-4048-a6b1-57d9b1375877","system_id":"levelo_inurba_marseille","lat":43.28531,"lon":5.44104,"is_reserved":false,"is_disabled":false,"rental_uris":{"android":"levelo://app?vid=e3260d53-1f31-4048-a6b1-57d9b1375877","ios":"levelo://app?vid=e3260d53-1f31-4048-a6b1-57d9b1375877"},"vehicle_type_id":"4","last_reported":1761729109,"current_range_meters":16000,"station_id":"st_d3j3df2ikq2c7380ej80","pricing_plan_id":"cebpf4jnsgd1na2vs0mg"},{"bike_id":"12e6128e-d82c-43b3-9b1f-03821dda50e2","system_id":"levelo_inurba_marseille","lat":43.30553,"lon":5.36707,"is_reserved":false,"is_disabled":false,"rental_uris":{"android":"levelo://app?vid=12e6128e-d82c-43b3-9b1f-03821dda50e2","ios":"levelo://app?vid=12e6128e-d82c-43b3-9b1f-03821dda50e2"},"vehicle_type_id":"4","last_reported":1761729109,"current_range_meters":16000,"station_id":"ce4bgrp2rcd13ifvqc9g","pricing_plan_id":"cebpf4jnsgd1na2vs0mg"},{"bike_id":"3be6387f-9356-4d22-96e9-26a716368262","system_id":"levelo_inurba_marseille","lat":43.29636,"lon":5.40581,"is_reserved":false,"is_disabled":true,"rental_uris":{"android":"levelo://app?vid=3be6387f-9356-4d22-96e9-26a716368262","ios":"levelo://app?vid=3be6387f-9356-4d22-96e9-26a716368262"},"vehicle_type_id":"4","last_reported":1761729109,"current_range_meters":16000,"station_id":"ce4bh0h2rcd13ifvqd60","pricing_plan_id":"cebpf4jnsgd1na2vs0mg"},{"bike_id":"2efec5c3-1776-4cd0-ae96-bdc11ed9dfab","system_id":"levelo_inurba_marseille","lat":43.28476,"lon":5.3847,"is_reserved":false,"is_disabled":false,"rental_uris":{"android":"levelo://app?vid=2efec5c3-1776-4cd0-ae96-bdc11ed9dfab","ios":"levelo://app?vid=2efec5c3-1776-4cd0-ae96-bdc11ed9dfab"},"vehicle_type_id":"4","last_reported":1761729109,"current_range_meters":16000,"station_id":"","pricing_plan_id":"cebpf4jnsgd1na2vs0mg"},{"bike_id":"75dc66b3-0d26-400d-85b7-e985f64e2136","system_id":"levelo_inurba_marseille","lat":43.29023,"lon":5.43696,"is_reserved":false,"is_disabled":false,"rental_uris":{"android":"levelo://app?vid=75dc66b3-0d26-400d-85b7-e985f64e2136","ios":"levelo://app?vid=75dc66b3-0d26-400d-85b7-e985f64e2136"},"vehicle_type_id":"4","last_reported":1761729109,"current_range_meters":16400,"station_id":"","pricing_plan_id":"cebpf4jnsgd1na2vs0mg"},{"bike_id":"4072e440-780c-453b-9708-ca3553d5a5a1","system_id":"levelo_inurba_marseille","lat":43.3134,"lon":5.3671,"is_reserved":false,"is_disabled":false,"rental_uris":{"android":"levelo://app?vid=4072e440-780c-453b-9708-ca3553d5a5a1","ios":"levelo://app?vid=4072e440-780c-453b-9708-ca3553d5a5a1"},"vehicle_type_id":"4","last_reported":1761729109,"current_range_meters":16400,"station_id":"ce4bgr92rcd13ifvqc6g","pricing_plan_id":"cebpf4jnsgd1na2vs0mg"},{"bike_id":"a2a15741-c6b8-4a33-b80c-2e37c0a80203","system_id":"levelo_inurba_marseille","lat":43.29624,"lon":5.37722,"is_reserved":false,"is_disabled":false,"rental_uris":{"android":"levelo://app?vid=a2a15741-c6b8-4a33-b80c-2e37c0a80203","ios":"levelo://app?vid=a2a15741-c6b8-4a33-b80c-2e37c0a80203"},"vehicle_type_id":"4","last_reported":1761729109,"current_range_meters":16400,"station_id":"ce4bgi92rcd13ifvqb90","pricing_plan_id":"cebpf4jnsgd1na2vs0mg"},{"bike_id":"f910546e-e49a-4779-b92d-25af6275146a","system_id":"levelo_inurba_marseille","lat":43.31488,"lon":5.37306,"is_reserved":false,"is_disabled":false,"rental_uris":{"android":"levelo://app?vid=f910546e-e49a-4779-b92d-25af6275146a","ios":"levelo://app?vid=f910546e-e49a-4779-b92d-25af6275146a"},"vehicle_type_id":"4","last_reported":1761729109,"current_range_meters":16800,"station_id":"ce4bgt12rcd13ifvqcd0","pricing_plan_id":"cebpf4jnsgd1na2vs0mg"},{"bike_id":"78d0ee7c-bff0-47eb-bac9-8d1168160491","system_id":"levelo_inurba_marseille","lat":43.307032,"lon":5.38232,"is_reserved":false,"is_disabled":false,"rental_uris":{"android":"levelo://app?vid=78d0ee7c-bff0-47eb-bac9-8d1168160491","ios":"levelo://app?vid=78d0ee7c-bff0-47eb-bac9-8d1168160491"},"vehicle_type_id":"4","last_reported":1761729109,"current_range_meters":16800,"station_id":"ce4bhsh2rcd13ifvqi2g","pricing_plan_id":"cebpf4jnsgd1na2vs0mg"},{"bike_id":"20efc233-e7c7-43b3-b630-862765d8d19f","system_id":"levelo_inurba_marseille","lat":43.24183,"lon":5.39724,"is_reserved":false,"is_disabled":false,"rental_uris":{"android":"levelo://app?vid=20efc233-e7c7-43b3-b630-862765d8d19f","ios":"levelo://app?vid=20efc233-e7c7-43b3-b630-862765d8d19f"},"vehicle_type_id":"4","last_reported":1761729109,"current_range_meters":16800,"station_id":"ce4bhn12rcd13ifvqgpg","pricing_plan_id":"cebpf4jnsgd1na2vs0mg"},{"bike_id":"94e6b0aa-f8c9-477e-8091-c3a189e0f238","system_id":"levelo_inurba_marseille","lat":43.2968,"lon":5.38144,"is_reserved":false,"is_disabled":false,"rental_uris":{"android":"levelo://app?vid=94e6b0aa-f8c9-477e-8091-c3a189e0f238","ios":"levelo://app?vid=94e6b0aa-f8c9-477e-8091-c3a189e0f238"},"vehicle_type_id":"4","last_reported":1761729109,"current_range_meters":17200,"station_id":"","pricing_plan_id":"cebpf4jnsgd1na2vs0mg"},{"bike_id":"4efcfa8d-3fb7-47a2-a634-f2ee4f777a43","system_id":"levelo_inurba_marseille","lat":43.29088,"lon":5.38133,"is_reserved":false,"is_disabled":false,"rental_uris":{"android":"levelo://app?vid=4efcfa8d-3fb7-47a2-a634-f2ee4f777a43","ios":"levelo://app?vid=4efcfa8d-3fb7-47a2-a634-f2ee4f777a43"},"vehicle_type_id":"4","last_reported":1761729109,"current_range_meters":17200,"station_id":"ce4bh512rcd13ifvqe2g","pricing_plan_id":"cebpf4jnsgd1na2vs0mg"},{"bike_id":"47f51b16-8174-454b-af59-44bb1967d907","system_id":"levelo_inurba_marseille","lat":43.308807,"lon":5.396408,"is_reserved":false,"is_disabled":true,"rental_uris":{"android":"levelo://app?vid=47f51b16-8174-454b-af59-44bb1967d907","ios":"levelo://app?vid=47f51b16-8174-454b-af59-44bb1967d907"},"vehicle_type_id":"4","last_reported":1761729109,"current_range_meters":17200,"station_id":"ce4bhbh2rcd13ifvqeqg","pricing_plan_id":"cebpf4jnsgd1na2vs0mg"},{"bike_id":"6a34e6d0-792e-4bee-9428-37d85ef8871d","system_id":"levelo_inurba_marseille","lat":43.248174,"lon":5.374565,"is_reserved":false,"is_disabled":false,"rental_uris":{"android":"levelo://app?vid=6a34e6d0-792e-4bee-9428-37d85ef8871d","ios":"levelo://app?vid=6a34e6d0-792e-4bee-9428-37d85ef8871d"},"vehicle_type_id":"4","last_reported":1761729109,"current_range_meters":17200,"station_id":"ce4bhgh2rcd13ifvqfb0","pricing_plan_id":"cebpf4jnsgd1na2vs0mg"},{"bike_id":"2fd96eff-5cba-4e71-af6e-9a6eaa9e6d1d","system_id":"levelo_inurba_marseille","lat":43.25576,"lon":5.38244,"is_reserved":false,"is_disabled":false,"rental_uris":{"android":"levelo://app?vid=2fd96eff-5cba-4e71-af6e-9a6eaa9e6d1d","ios":"levelo://app?vid=2fd96eff-5cba-4e71-af6e-9a6eaa9e6d1d"},"vehicle_type_id":"4","last_reported":1761729109,"current_range_meters":17200,"station_id":"ce4bhih2rcd13ifvqfs0","pricing_plan_id":"cebpf4jnsgd1na2vs0mg"},{"bike_id":"d9a197d3-df92-40c4-92b3-989777e0db36","system_id":"levelo_inurba_marseille","lat":43.26558,"lon":5.38992,"is_reserved":false,"is_disabled":false,"rental_uris":{"android":"levelo://app?vid=d9a197d3-df92-40c4-92b3-989777e0db36","ios":"levelo://app?vid=d9a197d3-df92-40c4-92b3-989777e0db36"},"vehicle_type_id":"4","last_reported":1761729109,"current_range_meters":17200,"station_id":"ce4bhe12rcd13ifvqf30","pricing_plan_id":"cebpf4jnsgd1na2vs0mg"},{"bike_id":"556c95c4-e39d-4a50-b32b-6e1b11658636","system_id":"levelo_inurba_marseille","lat":43.24158,"lon":5.36386,"is_reserved":false,"is_disabled":false,"rental_uris":{"android":"levelo://app?vid=556c95c4-e39d-4a50-b32b-6e1b11658636","ios":"levelo://app?vid=556c95c4-e39d-4a50-b32b-6e1b11658636"},"vehicle_type_id":"4","last_reported":1761729109,"current_range_meters":17200,"station_id":"cpo36qri1sfpv3e86is0","pricing_plan_id":"cebpf4jnsgd1na2vs0mg"},{"bike_id":"00e5df0f-1cb7-420a-b470-616dc5cd7798","system_id":"levelo_inurba_marseille","lat":43.23063,"lon":5.35493,"is_reserved":false,"is_disabled":false,"rental_uris":{"android":"levelo://app?vid=00e5df0f-1cb7-420a-b470-616dc5cd7798","ios":"levelo://app?vid=00e5df0f-1cb7-420a-b470-616dc5cd7798"},"vehicle_type_id":"4","last_reported":1761729109,"current_range_meters":17200,"station_id":"cpo3342slgdg3j2ifvpg","pricing_plan_id":"cebpf4jnsgd1na2vs0mg"},{"bike_id":"3096cf54-8354-4ac1-9a74-d23117dd3929","system_id":"levelo_inurba_marseille","lat":43.2949,"lon":5.4331,"is_reserved":false,"is_disabled":false,"rental_uris":{"android":"levelo://app?vid=3096cf54-8354-4ac1-9a74-d23117dd3929","ios":"levelo://app?vid=3096cf54-8354-4ac1-9a74-d23117dd3929"},"vehicle_type_id":"4","last_reported":1761729109,"current_range_meters":17200,"station_id":"st_d3j5ugp08ojc73fj9d10","pricing_plan_id":"cebpf4jnsgd1na2vs0mg"},{"bike_id":"26dc5b83-92a6-4232-8d81-dcad47ca36d0","system_id":"levelo_inurba_marseille","lat":43.29932,"lon":5.36532,"is_reserved":false,"is_disabled":false,"rental_uris":{"android":"levelo://app?vid=26dc5b83-92a6-4232-8d81-dcad47ca36d0","ios":"levelo://app?vid=26dc5b83-92a6-4232-8d81-dcad47ca36d0"},"vehicle_type_id":"4","last_reported":1761729109,"current_range_meters":17600,"station_id":"ce4bgm92rcd13ifvqbr0","pricing_plan_id":"cebpf4jnsgd1na2vs0mg"},{"bike_id":"d9a6a1f6-ad3e-4d83-b3dd-5f0ef903b947","system_id":"levelo_inurba_marseille","lat":43.230866,"lon":5.354803,"is_reserved":false,"is_disabled":false,"rental_uris":{"android":"levelo://app?vid=d9a6a1f6-ad3e-4d83-b3dd-5f0ef903b947","ios":"levelo://app?vid=d9a6a1f6-ad3e-4d83-b3dd-5f0ef903b947"},"vehicle_type_id":"4","last_reported":1761729109,"current_range_meters":17600,"station_id":"","pricing_plan_id":"cebpf4jnsgd1na2vs0mg"},{"bike_id":"760b7e4a-a8c4-4135-b9cf-63172e4a5ee6","system_id":"levelo_inurba_marseille","lat":43.27951,"lon":5.41041,"is_reserved":false,"is_disabled":false,"rental_uris":{"android":"levelo://app?vid=760b7e4a-a8c4-4135-b9cf-63172e4a5ee6","ios":"levelo://app?vid=760b7e4a-a8c4-4135-b9cf-63172e4a5ee6"},"vehicle_type_id":"4","last_reported":1761729109,"current_range_meters":17600,"station_id":"ce4bhnp2rcd13ifvqh0g","pricing_plan_id":"cebpf4jnsgd1na2vs0mg"},{"bike_id":"492ccc44-218a-450c-b030-4f3ca0b610b0","system_id":"levelo_inurba_marseille","lat":43.301616,"lon":5.37468,"is_reserved":false,"is_disabled":false,"rental_uris":{"android":"levelo://app?vid=492ccc44-218a-450c-b030-4f3ca0b610b0","ios":"levelo://app?vid=492ccc44-218a-450c-b030-4f3ca0b610b0"},"vehicle_type_id":"4","last_reported":1761729109,"current_range_meters":17600,"station_id":"","pricing_plan_id":"cebpf4jnsgd1na2vs0mg"},{"bike_id":"1c368827-9a54-4b67-9a58-315cadb64053","system_id":"levelo_inurba_marseille","lat":43.250496,"lon":5.389268,"is_reserved":false,"is_disabled":false,"rental_uris":{"android":"levelo://app?vid=1c368827-9a54-4b67-9a58-315cadb64053","ios":"levelo://app?vid=1c368827-9a54-4b67-9a58-315cadb64053"},"vehicle_type_id":"4","last_reported":1761729109,"current_range_meters":17600,"station_id":"ce4bhgp2rcd13ifvqfd0","pricing_plan_id":"cebpf4jnsgd1na2vs0mg"},{"bike_id":"30d428d9-9449-4ff3-9e2b-1d54e8c19249","system_id":"levelo_inurba_marseille","lat":43.24617,"lon":5.43144,"is_reserved":false,"is_disabled":false,"rental_uris":{"android":"levelo://app?vid=30d428d9-9449-4ff3-9e2b-1d54e8c19249","ios":"levelo://app?vid=30d428d9-9449-4ff3-9e2b-1d54e8c19249"},"vehicle_type_id":"4","last_reported":1761729109,"current_range_meters":17600,"station_id":"st_d2m6c4gdas8pm72e190g","pricing_plan_id":"cebpf4jnsgd1na2vs0mg"},{"bike_id":"5f216f1c-833b-4e2c-b5fa-61a5a9d92dff","system_id":"levelo_inurba_marseille","lat":43.31113,"lon":5.37768,"is_reserved":false,"is_disabled":false,"rental_uris":{"android":"levelo://app?vid=5f216f1c-833b-4e2c-b5fa-61a5a9d92dff","ios":"levelo://app?vid=5f216f1c-833b-4e2c-b5fa-61a5a9d92dff"},"vehicle_type_id":"4","last_reported":1761729109,"current_range_meters":17600,"station_id":"ce4bgt92rcd13ifvqcg0","pricing_plan_id":"cebpf4jnsgd1na2vs0mg"},{"bike_id":"a0257cb7-6e09-4e57-9074-9166ca511388","system_id":"levelo_inurba_marseille","lat":43.22565,"lon":5.41632,"is_reserved":false,"is_disabled":false,"rental_uris":{"android":"levelo://app?vid=a0257cb7-6e09-4e57-9074-9166ca511388","ios":"levelo://app?vid=a0257cb7-6e09-4e57-9074-9166ca511388"},"vehicle_type_id":"4","last_reported":1761729109,"current_range_meters":18000,"station_id":"st_d2o4gvlbi1j2169b742g","pricing_plan_id":"cebpf4jnsgd1na2vs0mg"},{"bike_id":"2e71e28f-9664-4350-bc05-536897292751","system_id":"levelo_inurba_marseille","lat":43.262281,"lon":5.404514,"is_reserved":false,"is_disabled":false,"rental_uris":{"android":"levelo://app?vid=2e71e28f-9664-4350-bc05-536897292751","ios":"levelo://app?vid=2e71e28f-9664-4350-bc05-536897292751"},"vehicle_type_id":"4","last_reported":1761729109,"current_range_meters":18000,"station_id":"ce4bhmh2rcd13ifvqgmg","pricing_plan_id":"cebpf4jnsgd1na2vs0mg"},{"bike_id":"7c7adb01-ad0d-42b5-9b27-df98ebf428f2","system_id":"levelo_inurba_marseille","lat":43.29575,"lon":5.399801,"is_reserved":false,"is_disabled":false,"rental_uris":{"android":"levelo://app?vid=7c7adb01-ad0d-42b5-9b27-df98ebf428f2","ios":"levelo://app?vid=7c7adb01-ad0d-42b5-9b27-df98ebf428f2"},"vehicle_type_id":"4","last_reported":1761729109,"current_range_meters":18000,"station_id":"ce4bh312rcd13ifvqdj0","pricing_plan_id":"cebpf4jnsgd1na2vs0mg"},{"bike_id":"a9fef38f-e4fa-46d5-b2cf-35ac8731bc68","system_id":"levelo_inurba_marseille","lat":43.29842,"lon":5.36267,"is_reserved":false,"is_disabled":false,"rental_uris":{"android":"levelo://app?vid=a9fef38f-e4fa-46d5-b2cf-35ac8731bc68","ios":"levelo://app?vid=a9fef38f-e4fa-46d5-b2cf-35ac8731bc68"},"vehicle_type_id":"4","last_reported":1761729109,"current_range_meters":18000,"station_id":"ce4bgpp2rcd13ifvqc3g","pricing_plan_id":"cebpf4jnsgd1na2vs0mg"},{"bike_id":"3f1cf434-b3b6-4293-95e2-33469a10cb19","system_id":"levelo_inurba_marseille","lat":43.267808,"lon":5.394153,"is_reserved":false,"is_disabled":false,"rental_uris":{"android":"levelo://app?vid=3f1cf434-b3b6-4293-95e2-33469a10cb19","ios":"levelo://app?vid=3f1cf434-b3b6-4293-95e2-33469a10cb19"},"vehicle_type_id":"4","last_reported":1761729109,"current_range_meters":18000,"station_id":"ce4bhh12rcd13ifvqfg0","pricing_plan_id":"cebpf4jnsgd1na2vs0mg"},{"bike_id":"0f96919a-9593-4db8-ba95-cfabcbf21403","system_id":"levelo_inurba_marseille","lat":43.302978,"lon":5.368798,"is_reserved":false,"is_disabled":false,"rental_uris":{"android":"levelo://app?vid=0f96919a-9593-4db8-ba95-cfabcbf21403","ios":"levelo://app?vid=0f96919a-9593-4db8-ba95-cfabcbf21403"},"vehicle_type_id":"4","last_reported":1761729109,"current_range_meters":18000,"station_id":"ce4bgqh2rcd13ifvqc5g","pricing_plan_id":"cebpf4jnsgd1na2vs0mg"},{"bike_id":"32d66220-0c79-4d1a-882f-0ea399fc6de3","system_id":"levelo_inurba_marseille","lat":43.31227,"lon":5.36861,"is_reserved":false,"is_disabled":false,"rental_uris":{"android":"levelo://app?vid=32d66220-0c79-4d1a-882f-0ea399fc6de3","ios":"levelo://app?vid=32d66220-0c79-4d1a-882f-0ea399fc6de3"},"vehicle_type_id":"4","last_reported":1761729109,"current_range_meters":18800,"station_id":"ce4bgl92rcd13ifvqbq0","pricing_plan_id":"cebpf4jnsgd1na2vs0mg"},{"bike_id":"98a83e84-01f4-4de5-8817-89d29b2370c2","system_id":"levelo_inurba_marseille","lat":43.25946,"lon":5.40891,"is_reserved":false,"is_disabled":false,"rental_uris":{"android":"levelo://app?vid=98a83e84-01f4-4de5-8817-89d29b2370c2","ios":"levelo://app?vid=98a83e84-01f4-4de5-8817-89d29b2370c2"},"vehicle_type_id":"4","last_reported":1761729109,"current_range_meters":18800,"station_id":"ce4bhm92rcd13ifvqglg","pricing_plan_id":"cebpf4jnsgd1na2vs0mg"},{"bike_id":"96af99f5-c4b0-4b68-b27e-727929ee67a6","system_id":"levelo_inurba_marseille","lat":43.301421,"lon":5.37412,"is_reserved":false,"is_disabled":true,"rental_uris":{"android":"levelo://app?vid=96af99f5-c4b0-4b68-b27e-727929ee67a6","ios":"levelo://app?vid=96af99f5-c4b0-4b68-b27e-727929ee67a6"},"vehicle_type_id":"4","last_reported":1761729109,"current_range_meters":18800,"station_id":"ce4bgs92rcd13ifvqcc0","pricing_plan_id":"cebpf4jnsgd1na2vs0mg"},{"bike_id":"0cb50643-0fce-43dd-8f09-25c9d5a71109","system_id":"levelo_inurba_marseille","lat":43.29587,"lon":5.36737,"is_reserved":false,"is_disabled":false,"rental_uris":{"android":"levelo://app?vid=0cb50643-0fce-43dd-8f09-25c9d5a71109","ios":"levelo://app?vid=0cb50643-0fce-43dd-8f09-25c9d5a71109"},"vehicle_type_id":"4","last_reported":1761729109,"current_range_meters":18800,"station_id":"ce4bgph2rcd13ifvqc2g","pricing_plan_id":"cebpf4jnsgd1na2vs0mg"},{"bike_id":"1e9ab2b8-a0e1-4419-85d4-936336420057","system_id":"levelo_inurba_marseille","lat":43.32099,"lon":5.433,"is_reserved":false,"is_disabled":false,"rental_uris":{"android":"levelo://app?vid=1e9ab2b8-a0e1-4419-85d4-936336420057","ios":"levelo://app?vid=1e9ab2b8-a0e1-4419-85d4-936336420057"},"vehicle_type_id":"4","last_reported":1761729109,"current_range_meters":18800,"station_id":"","pricing_plan_id":"cebpf4jnsgd1na2vs0mg"},{"bike_id":"d81d35cf-3205-4515-b269-355f988758de","system_id":"levelo_inurba_marseille","lat":43.31346,"lon":5.36703,"is_reserved":false,"is_disabled":false,"rental_uris":{"android":"levelo://app?vid=d81d35cf-3205-4515-b269-355f988758de","ios":"levelo://app?vid=d81d35cf-3205-4515-b269-355f988758de"},"vehicle_type_id":"4","last_reported":1761729109,"current_range_meters":18800,"station_id":"ce4bgr92rcd13ifvqc6g","pricing_plan_id":"cebpf4jnsgd1na2vs0mg"},{"bike_id":"e8e73278-ab8d-4e62-b3be-bef37337c721","system_id":"levelo_inurba_marseille","lat":43.32486,"lon":5.36555,"is_reserved":false,"is_disabled":false,"rental_uris":{"android":"levelo://app?vid=e8e73278-ab8d-4e62-b3be-bef37337c721","ios":"levelo://app?vid=e8e73278-ab8d-4e62-b3be-bef37337c721"},"vehicle_type_id":"4","last_reported":1761729109,"current_range_meters":18800,"station_id":"ce4bhs12rcd13ifvqhvg","pricing_plan_id":"cebpf4jnsgd1na2vs0mg"},{"bike_id":"c7fd6af2-b38d-4702-a9c7-83fe95054c71","system_id":"levelo_inurba_marseille","lat":43.25908,"lon":5.40854,"is_reserved":false,"is_disabled":true,"rental_uris":{"android":"levelo://app?vid=c7fd6af2-b38d-4702-a9c7-83fe95054c71","ios":"levelo://app?vid=c7fd6af2-b38d-4702-a9c7-83fe95054c71"},"vehicle_type_id":"4","last_reported":1761729109,"current_range_meters":18800,"station_id":"ce4bhm92rcd13ifvqglg","pricing_plan_id":"cebpf4jnsgd1na2vs0mg"},{"bike_id":"845fd5f9-ad3a-4d38-908f-57b78d15c6cb","system_id":"levelo_inurba_marseille","lat":43.29268,"lon":5.37627,"is_reserved":false,"is_disabled":false,"rental_uris":{"android":"levelo://app?vid=845fd5f9-ad3a-4d38-908f-57b78d15c6cb","ios":"levelo://app?vid=845fd5f9-ad3a-4d38-908f-57b78d15c6cb"},"vehicle_type_id":"4","last_reported":1761729109,"current_range_meters":18800,"station_id":"ce4bgi12rcd13ifvqb80","pricing_plan_id":"cebpf4jnsgd1na2vs0mg"},{"bike_id":"5866982f-82d7-4873-be4e-2079188220fc","system_id":"levelo_inurba_marseille","lat":43.24161,"lon":5.39716,"is_reserved":false,"is_disabled":false,"rental_uris":{"android":"levelo://app?vid=5866982f-82d7-4873-be4e-2079188220fc","ios":"levelo://app?vid=5866982f-82d7-4873-be4e-2079188220fc"},"vehicle_type_id":"4","last_reported":1761729109,"current_range_meters":18800,"station_id":"ce4bhn12rcd13ifvqgpg","pricing_plan_id":"cebpf4jnsgd1na2vs0mg"},{"bike_id":"cb296685-30de-489a-b645-31000e5e4141","system_id":"levelo_inurba_marseille","lat":43.30488,"lon":5.37895,"is_reserved":false,"is_disabled":false,"rental_uris":{"android":"levelo://app?vid=cb296685-30de-489a-b645-31000e5e4141","ios":"levelo://app?vid=cb296685-30de-489a-b645-31000e5e4141"},"vehicle_type_id":"4","last_reported":1761729109,"current_range_meters":19200,"station_id":"ce4bgup2rcd13ifvqcn0","pricing_plan_id":"cebpf4jnsgd1na2vs0mg"},{"bike_id":"765e33c5-b992-4dc4-8c54-0384c53e260f","system_id":"levelo_inurba_marseille","lat":43.24167,"lon":5.3639,"is_reserved":false,"is_disabled":false,"rental_uris":{"android":"levelo://app?vid=765e33c5-b992-4dc4-8c54-0384c53e260f","ios":"levelo://app?vid=765e33c5-b992-4dc4-8c54-0384c53e260f"},"vehicle_type_id":"4","last_reported":1761729109,"current_range_meters":19200,"station_id":"cpo36qri1sfpv3e86is0","pricing_plan_id":"cebpf4jnsgd1na2vs0mg"},{"bike_id":"94c8756b-d26f-4113-82a9-0de71ab6156a","system_id":"levelo_inurba_marseille","lat":43.3009,"lon":5.39077,"is_reserved":false,"is_disabled":false,"rental_uris":{"android":"levelo://app?vid=94c8756b-d26f-4113-82a9-0de71ab6156a","ios":"levelo://app?vid=94c8756b-d26f-4113-82a9-0de71ab6156a"},"vehicle_type_id":"4","last_reported":1761729109,"current_range_meters":19200,"station_id":"ce4bh192rcd13ifvqdb0","pricing_plan_id":"cebpf4jnsgd1na2vs0mg"},{"bike_id":"2d604987-c837-4cc3-8839-eff1b996134e","system_id":"levelo_inurba_marseille","lat":43.30144,"lon":5.37413,"is_reserved":false,"is_disabled":false,"rental_uris":{"android":"levelo://app?vid=2d604987-c837-4cc3-8839-eff1b996134e","ios":"levelo://app?vid=2d604987-c837-4cc3-8839-eff1b996134e"},"vehicle_type_id":"4","last_reported":1761729109,"current_range_meters":19200,"station_id":"ce4bgs92rcd13ifvqcc0","pricing_plan_id":"cebpf4jnsgd1na2vs0mg"},{"bike_id":"456266f3-48d8-4fb8-ac5d-d08598ad41f1","system_id":"levelo_inurba_marseille","lat":43.25578,"lon":5.38244,"is_reserved":false,"is_disabled":false,"rental_uris":{"android":"levelo://app?vid=456266f3-48d8-4fb8-ac5d-d08598ad41f1","ios":"levelo://app?vid=456266f3-48d8-4fb8-ac5d-d08598ad41f1"},"vehicle_type_id":"4","last_reported":1761729109,"current_range_meters":19200,"station_id":"ce4bhih2rcd13ifvqfs0","pricing_plan_id":"cebpf4jnsgd1na2vs0mg"},{"bike_id":"6a7144ef-7aa3-4281-bc24-6d65cf64fc32","system_id":"levelo_inurba_marseille","lat":43.301714,"lon":5.371859,"is_reserved":false,"is_disabled":false,"rental_uris":{"android":"levelo://app?vid=6a7144ef-7aa3-4281-bc24-6d65cf64fc32","ios":"levelo://app?vid=6a7144ef-7aa3-4281-bc24-6d65cf64fc32"},"vehicle_type_id":"4","last_reported":1761729109,"current_range_meters":19200,"station_id":"","pricing_plan_id":"cebpf4jnsgd1na2vs0mg"},{"bike_id":"5c515a27-dcb8-4f39-9cf3-9d2af294cddd","system_id":"levelo_inurba_marseille","lat":43.28722,"lon":5.37939,"is_reserved":false,"is_disabled":false,"rental_uris":{"android":"levelo://app?vid=5c515a27-dcb8-4f39-9cf3-9d2af294cddd","ios":"levelo://app?vid=5c515a27-dcb8-4f39-9cf3-9d2af294cddd"},"vehicle_type_id":"4","last_reported":1761729109,"current_range_meters":19600,"station_id":"ce4bh9p2rcd13ifvqec0","pricing_plan_id":"cebpf4jnsgd1na2vs0mg"},{"bike_id":"18ae1b27-2c23-4a20-b112-e5f0a78d7ee4","system_id":"levelo_inurba_marseille","lat":43.25946,"lon":5.4087,"is_reserved":false,"is_disabled":false,"rental_uris":{"android":"levelo://app?vid=18ae1b27-2c23-4a20-b112-e5f0a78d7ee4","ios":"levelo://app?vid=18ae1b27-2c23-4a20-b112-e5f0a78d7ee4"},"vehicle_type_id":"4","last_reported":1761729109,"current_range_meters":19600,"station_id":"ce4bhm92rcd13ifvqglg","pricing_plan_id":"cebpf4jnsgd1na2vs0mg"},{"bike_id":"32889428-a63e-49f1-9722-79e553005244","system_id":"levelo_inurba_marseille","lat":43.29608,"lon":5.381,"is_reserved":false,"is_disabled":false,"rental_uris":{"android":"levelo://app?vid=32889428-a63e-49f1-9722-79e553005244","ios":"levelo://app?vid=32889428-a63e-49f1-9722-79e553005244"},"vehicle_type_id":"4","last_reported":1761729109,"current_range_meters":19600,"station_id":"ce4bgl12rcd13ifvqbo0","pricing_plan_id":"cebpf4jnsgd1na2vs0mg"},{"bike_id":"d691a75f-c351-4e0b-bdf0-d45edda2e75f","system_id":"levelo_inurba_marseille","lat":43.309459,"lon":5.39017,"is_reserved":false,"is_disabled":true,"rental_uris":{"android":"levelo://app?vid=d691a75f-c351-4e0b-bdf0-d45edda2e75f","ios":"levelo://app?vid=d691a75f-c351-4e0b-bdf0-d45edda2e75f"},"vehicle_type_id":"4","last_reported":1761729109,"current_range_meters":19600,"station_id":"ce4bgup2rcd13ifvqco0","pricing_plan_id":"cebpf4jnsgd1na2vs0mg"},{"bike_id":"449d68fe-e44d-478e-956e-c4715d97f07f","system_id":"levelo_inurba_marseille","lat":43.309307,"lon":5.391773,"is_reserved":false,"is_disabled":false,"rental_uris":{"android":"levelo://app?vid=449d68fe-e44d-478e-956e-c4715d97f07f","ios":"levelo://app?vid=449d68fe-e44d-478e-956e-c4715d97f07f"},"vehicle_type_id":"4","last_reported":1761729109,"current_range_meters":19600,"station_id":"","pricing_plan_id":"cebpf4jnsgd1na2vs0mg"},{"bike_id":"8a346812-a7fc-4590-8828-8319b0093e25","system_id":"levelo_inurba_marseille","lat":43.30304,"lon":5.39212,"is_reserved":false,"is_disabled":false,"rental_uris":{"android":"levelo://app?vid=8a346812-a7fc-4590-8828-8319b0093e25","ios":"levelo://app?vid=8a346812-a7fc-4590-8828-8319b0093e25"},"vehicle_type_id":"4","last_reported":1761729109,"current_range_meters":19600,"station_id":"ce4bgkh2rcd13ifvqbk0","pricing_plan_id":"cebpf4jnsgd1na2vs0mg"},{"bike_id":"df44a385-84c0-458d-b2c5-b5626a8b25a8","system_id":"levelo_inurba_marseille","lat":43.26234,"lon":5.40436,"is_reserved":false,"is_disabled":false,"rental_uris":{"android":"levelo://app?vid=df44a385-84c0-458d-b2c5-b5626a8b25a8","ios":"levelo://app?vid=df44a385-84c0-458d-b2c5-b5626a8b25a8"},"vehicle_type_id":"4","last_reported":1761729109,"current_range_meters":19600,"station_id":"ce4bhmh2rcd13ifvqgmg","pricing_plan_id":"cebpf4jnsgd1na2vs0mg"},{"bike_id":"5b620425-6862-46cb-a74c-d3eec48203d7","system_id":"levelo_inurba_marseille","lat":43.29551,"lon":5.42295,"is_reserved":false,"is_disabled":false,"rental_uris":{"android":"levelo://app?vid=5b620425-6862-46cb-a74c-d3eec48203d7","ios":"levelo://app?vid=5b620425-6862-46cb-a74c-d3eec48203d7"},"vehicle_type_id":"4","last_reported":1761729109,"current_range_meters":19600,"station_id":"ce4bhph2rcd13ifvqhdg","pricing_plan_id":"cebpf4jnsgd1na2vs0mg"},{"bike_id":"15e2c5dd-bae1-46fb-906a-d29fa37d6e53","system_id":"levelo_inurba_marseille","lat":43.31346,"lon":5.37263,"is_reserved":false,"is_disabled":false,"rental_uris":{"android":"levelo://app?vid=15e2c5dd-bae1-46fb-906a-d29fa37d6e53","ios":"levelo://app?vid=15e2c5dd-bae1-46fb-906a-d29fa37d6e53"},"vehicle_type_id":"4","last_reported":1761729109,"current_range_meters":19600,"station_id":"","pricing_plan_id":"cebpf4jnsgd1na2vs0mg"},{"bike_id":"03d247ca-1818-4997-a5f9-095e092f3d8e","system_id":"levelo_inurba_marseille","lat":43.27062,"lon":5.402877,"is_reserved":false,"is_disabled":false,"rental_uris":{"android":"levelo://app?vid=03d247ca-1818-4997-a5f9-095e092f3d8e","ios":"levelo://app?vid=03d247ca-1818-4997-a5f9-095e092f3d8e"},"vehicle_type_id":"4","last_reported":1761729109,"current_range_meters":19600,"station_id":"ce4bhk92rcd13ifvqgc0","pricing_plan_id":"cebpf4jnsgd1na2vs0mg"},{"bike_id":"e6d5d197-43ef-4dc3-b4de-0712639fa890","system_id":"levelo_inurba_marseille","lat":43.30947,"lon":5.39032,"is_reserved":false,"is_disabled":false,"rental_uris":{"android":"levelo://app?vid=e6d5d197-43ef-4dc3-b4de-0712639fa890","ios":"levelo://app?vid=e6d5d197-43ef-4dc3-b4de-0712639fa890"},"vehicle_type_id":"4","last_reported":1761729109,"current_range_meters":19600,"station_id":"ce4bgup2rcd13ifvqco0","pricing_plan_id":"cebpf4jnsgd1na2vs0mg"},{"bike_id":"02022cdf-e65a-45f6-b63c-ce62efd90628","system_id":"levelo_inurba_marseille","lat":43.305002,"lon":5.369569,"is_reserved":false,"is_disabled":false,"rental_uris":{"android":"levelo://app?vid=02022cdf-e65a-45f6-b63c-ce62efd90628","ios":"levelo://app?vid=02022cdf-e65a-45f6-b63c-ce62efd90628"},"vehicle_type_id":"4","last_reported":1761729109,"current_range_meters":19600,"station_id":"","pricing_plan_id":"cebpf4jnsgd1na2vs0mg"},{"bike_id":"27e84ac0-04aa-4f14-81dd-ece98bb878d8","system_id":"levelo_inurba_marseille","lat":43.25936,"lon":5.40894,"is_reserved":false,"is_disabled":false,"rental_uris":{"android":"levelo://app?vid=27e84ac0-04aa-4f14-81dd-ece98bb878d8","ios":"levelo://app?vid=27e84ac0-04aa-4f14-81dd-ece98bb878d8"},"vehicle_type_id":"4","last_reported":1761729109,"current_range_meters":20000,"station_id":"ce4bhm92rcd13ifvqglg","pricing_plan_id":"cebpf4jnsgd1na2vs0mg"},{"bike_id":"1ed87987-bd99-4f34-b7ae-3ce9eacd0932","system_id":"levelo_inurba_marseille","lat":43.31228,"lon":5.36862,"is_reserved":false,"is_disabled":false,"rental_uris":{"android":"levelo://app?vid=1ed87987-bd99-4f34-b7ae-3ce9eacd0932","ios":"levelo://app?vid=1ed87987-bd99-4f34-b7ae-3ce9eacd0932"},"vehicle_type_id":"4","last_reported":1761729109,"current_range_meters":20000,"station_id":"ce4bgl92rcd13ifvqbq0","pricing_plan_id":"cebpf4jnsgd1na2vs0mg"},{"bike_id":"f356d46c-c134-4513-82f3-b500a9cc5fd1","system_id":"levelo_inurba_marseille","lat":43.29255,"lon":5.37985,"is_reserved":false,"is_disabled":true,"rental_uris":{"android":"levelo://app?vid=f356d46c-c134-4513-82f3-b500a9cc5fd1","ios":"levelo://app?vid=f356d46c-c134-4513-82f3-b500a9cc5fd1"},"vehicle_type_id":"4","last_reported":1761729109,"current_range_meters":20000,"station_id":"","pricing_plan_id":"cebpf4jnsgd1na2vs0mg"},{"bike_id":"354d79d8-b33e-4744-934c-51af9fd87ed8","system_id":"levelo_inurba_marseille","lat":43.2811,"lon":5.39629,"is_reserved":false,"is_disabled":false,"rental_uris":{"android":"levelo://app?vid=354d79d8-b33e-4744-934c-51af9fd87ed8","ios":"levelo://app?vid=354d79d8-b33e-4744-934c-51af9fd87ed8"},"vehicle_type_id":"4","last_reported":1761729109,"current_range_meters":20000,"station_id":"ce4bho12rcd13ifvqh2g","pricing_plan_id":"cebpf4jnsgd1na2vs0mg"},{"bike_id":"48724abd-044c-4749-a7c3-b915eb7d1835","system_id":"levelo_inurba_marseille","lat":43.241699,"lon":5.363991,"is_reserved":false,"is_disabled":false,"rental_uris":{"android":"levelo://app?vid=48724abd-044c-4749-a7c3-b915eb7d1835","ios":"levelo://app?vid=48724abd-044c-4749-a7c3-b915eb7d1835"},"vehicle_type_id":"4","last_reported":1761729109,"current_range_meters":20000,"station_id":"cpo36qri1sfpv3e86is0","pricing_plan_id":"cebpf4jnsgd1na2vs0mg"},{"bike_id":"916b0435-6f18-40dd-baf8-7b2972938611","system_id":"levelo_inurba_marseille","lat":43.27813,"lon":5.40712,"is_reserved":false,"is_disabled":false,"rental_uris":{"android":"levelo://app?vid=916b0435-6f18-40dd-baf8-7b2972938611","ios":"levelo://app?vid=916b0435-6f18-40dd-baf8-7b2972938611"},"vehicle_type_id":"4","last_reported":1761729109,"current_range_meters":20000,"station_id":"ce4bhnh2rcd13ifvqgtg","pricing_plan_id":"cebpf4jnsgd1na2vs0mg"},{"bike_id":"a18dbf48-2c4d-4fa4-a4c5-c9871d73c9a0","system_id":"levelo_inurba_marseille","lat":43.301994,"lon":5.383462,"is_reserved":false,"is_disabled":false,"rental_uris":{"android":"levelo://app?vid=a18dbf48-2c4d-4fa4-a4c5-c9871d73c9a0","ios":"levelo://app?vid=a18dbf48-2c4d-4fa4-a4c5-c9871d73c9a0"},"vehicle_type_id":"4","last_reported":1761729109,"current_range_meters":20000,"station_id":"ce4bgup2rcd13ifvqcn0","pricing_plan_id":"cebpf4jnsgd1na2vs0mg"},{"bike_id":"a4bb9a1e-b6da-4ca8-89be-d953b708117c","system_id":"levelo_inurba_marseille","lat":43.28474,"lon":5.38407,"is_reserved":false,"is_disabled":false,"rental_uris":{"android":"levelo://app?vid=a4bb9a1e-b6da-4ca8-89be-d953b708117c","ios":"levelo://app?vid=a4bb9a1e-b6da-4ca8-89be-d953b708117c"},"vehicle_type_id":"4","last_reported":1761729109,"current_range_meters":20000,"station_id":"ce4bh512rcd13ifvqe3g","pricing_plan_id":"cebpf4jnsgd1na2vs0mg"},{"bike_id":"af08f351-d2c3-4156-94f6-97a74ffdb757","system_id":"levelo_inurba_marseille","lat":43.27899,"lon":5.38012,"is_reserved":false,"is_disabled":false,"rental_uris":{"android":"levelo://app?vid=af08f351-d2c3-4156-94f6-97a74ffdb757","ios":"levelo://app?vid=af08f351-d2c3-4156-94f6-97a74ffdb757"},"vehicle_type_id":"4","last_reported":1761729109,"current_range_meters":20000,"station_id":"ce4bhf92rcd13ifvqf50","pricing_plan_id":"cebpf4jnsgd1na2vs0mg"},{"bike_id":"55f32316-bca0-41d0-8d9c-b8dd19b9dce1","system_id":"levelo_inurba_marseille","lat":43.29938,"lon":5.36557,"is_reserved":false,"is_disabled":false,"rental_uris":{"android":"levelo://app?vid=55f32316-bca0-41d0-8d9c-b8dd19b9dce1","ios":"levelo://app?vid=55f32316-bca0-41d0-8d9c-b8dd19b9dce1"},"vehicle_type_id":"4","last_reported":1761729109,"current_range_meters":20000,"station_id":"ce4bgm92rcd13ifvqbr0","pricing_plan_id":"cebpf4jnsgd1na2vs0mg"},{"bike_id":"9b93b5e1-c939-4745-bf85-2d21945442dc","system_id":"levelo_inurba_marseille","lat":43.29995,"lon":5.36406,"is_reserved":false,"is_disabled":false,"rental_uris":{"android":"levelo://app?vid=9b93b5e1-c939-4745-bf85-2d21945442dc","ios":"levelo://app?vid=9b93b5e1-c939-4745-bf85-2d21945442dc"},"vehicle_type_id":"4","last_reported":1761729109,"current_range_meters":20400,"station_id":"","pricing_plan_id":"cebpf4jnsgd1na2vs0mg"},{"bike_id":"f2490e6a-d59e-419e-ad90-25d5ce1a3314","system_id":"levelo_inurba_marseille","lat":43.28528,"lon":5.44102,"is_reserved":false,"is_disabled":false,"rental_uris":{"android":"levelo://app?vid=f2490e6a-d59e-419e-ad90-25d5ce1a3314","ios":"levelo://app?vid=f2490e6a-d59e-419e-ad90-25d5ce1a3314"},"vehicle_type_id":"4","last_reported":1761729109,"current_range_meters":20400,"station_id":"st_d3j3df2ikq2c7380ej80","pricing_plan_id":"cebpf4jnsgd1na2vs0mg"},{"bike_id":"d62b4bb4-9ea7-45ca-b7fe-0b03321c980c","system_id":"levelo_inurba_marseille","lat":43.29973,"lon":5.3719,"is_reserved":false,"is_disabled":false,"rental_uris":{"android":"levelo://app?vid=d62b4bb4-9ea7-45ca-b7fe-0b03321c980c","ios":"levelo://app?vid=d62b4bb4-9ea7-45ca-b7fe-0b03321c980c"},"vehicle_type_id":"4","last_reported":1761729109,"current_range_meters":20400,"station_id":"ce4bgr92rcd13ifvqc7g","pricing_plan_id":"cebpf4jnsgd1na2vs0mg"},{"bike_id":"18037e18-ca79-4042-9f92-7fe5a3a0f9ac","system_id":"levelo_inurba_marseille","lat":43.25913,"lon":5.4087,"is_reserved":false,"is_disabled":false,"rental_uris":{"android":"levelo://app?vid=18037e18-ca79-4042-9f92-7fe5a3a0f9ac","ios":"levelo://app?vid=18037e18-ca79-4042-9f92-7fe5a3a0f9ac"},"vehicle_type_id":"4","last_reported":1761729109,"current_range_meters":20400,"station_id":"ce4bhm92rcd13ifvqglg","pricing_plan_id":"cebpf4jnsgd1na2vs0mg"},{"bike_id":"83ffb07a-4e30-43f3-8574-66f498c3aed0","system_id":"levelo_inurba_marseille","lat":43.24062,"lon":5.37717,"is_reserved":false,"is_disabled":false,"rental_uris":{"android":"levelo://app?vid=83ffb07a-4e30-43f3-8574-66f498c3aed0","ios":"levelo://app?vid=83ffb07a-4e30-43f3-8574-66f498c3aed0"},"vehicle_type_id":"4","last_reported":1761729109,"current_range_meters":20400,"station_id":"ce4bhnp2rcd13ifvqgvg","pricing_plan_id":"cebpf4jnsgd1na2vs0mg"},{"bike_id":"23e2cc5b-db02-46b7-a7d0-47b743ea409c","system_id":"levelo_inurba_marseille","lat":43.241903,"lon":5.397101,"is_reserved":false,"is_disabled":false,"rental_uris":{"android":"levelo://app?vid=23e2cc5b-db02-46b7-a7d0-47b743ea409c","ios":"levelo://app?vid=23e2cc5b-db02-46b7-a7d0-47b743ea409c"},"vehicle_type_id":"4","last_reported":1761729109,"current_range_meters":20400,"station_id":"ce4bhn12rcd13ifvqgpg","pricing_plan_id":"cebpf4jnsgd1na2vs0mg"},{"bike_id":"24f70698-5837-4f3f-abe0-c11ab29cc3d4","system_id":"levelo_inurba_marseille","lat":43.24065,"lon":5.3774,"is_reserved":false,"is_disabled":false,"rental_uris":{"android":"levelo://app?vid=24f70698-5837-4f3f-abe0-c11ab29cc3d4","ios":"levelo://app?vid=24f70698-5837-4f3f-abe0-c11ab29cc3d4"},"vehicle_type_id":"4","last_reported":1761729109,"current_range_meters":20400,"station_id":"ce4bhnp2rcd13ifvqgvg","pricing_plan_id":"cebpf4jnsgd1na2vs0mg"},{"bike_id":"8c95be30-f2c0-4f5b-aa2b-61d715cec486","system_id":"levelo_inurba_marseille","lat":43.31462,"lon":5.37071,"is_reserved":false,"is_disabled":false,"rental_uris":{"android":"levelo://app?vid=8c95be30-f2c0-4f5b-aa2b-61d715cec486","ios":"levelo://app?vid=8c95be30-f2c0-4f5b-aa2b-61d715cec486"},"vehicle_type_id":"4","last_reported":1761729109,"current_range_meters":20400,"station_id":"","pricing_plan_id":"cebpf4jnsgd1na2vs0mg"},{"bike_id":"8588dc86-0528-4d05-9fc9-9338f5aae70d","system_id":"levelo_inurba_marseille","lat":43.23144,"lon":5.43728,"is_reserved":false,"is_disabled":false,"rental_uris":{"android":"levelo://app?vid=8588dc86-0528-4d05-9fc9-9338f5aae70d","ios":"levelo://app?vid=8588dc86-0528-4d05-9fc9-9338f5aae70d"},"vehicle_type_id":"4","last_reported":1761729109,"current_range_meters":20400,"station_id":"ce4bhmp2rcd13ifvqgog","pricing_plan_id":"cebpf4jnsgd1na2vs0mg"},{"bike_id":"667a4a8e-bd76-4fb1-b40f-6d82b3d1d948","system_id":"levelo_inurba_marseille","lat":43.31768,"lon":5.38991,"is_reserved":false,"is_disabled":false,"rental_uris":{"android":"levelo://app?vid=667a4a8e-bd76-4fb1-b40f-6d82b3d1d948","ios":"levelo://app?vid=667a4a8e-bd76-4fb1-b40f-6d82b3d1d948"},"vehicle_type_id":"4","last_reported":1761729109,"current_range_meters":20400,"station_id":"ce4bhqp2rcd13ifvqhng","pricing_plan_id":"cebpf4jnsgd1na2vs0mg"},{"bike_id":"8ff7698c-7e5c-4194-9f4c-b674091b39a8","system_id":"levelo_inurba_marseille","lat":43.27947,"lon":5.40391,"is_reserved":false,"is_disabled":false,"rental_uris":{"android":"levelo://app?vid=8ff7698c-7e5c-4194-9f4c-b674091b39a8","ios":"levelo://app?vid=8ff7698c-7e5c-4194-9f4c-b674091b39a8"},"vehicle_type_id":"4","last_reported":1761729109,"current_range_meters":20400,"station_id":"","pricing_plan_id":"cebpf4jnsgd1na2vs0mg"},{"bike_id":"237b768a-9673-4f42-9189-05a43c0b2dbc","system_id":"levelo_inurba_marseille","lat":43.3136,"lon":5.36718,"is_reserved":false,"is_disabled":false,"rental_uris":{"android":"levelo://app?vid=237b768a-9673-4f42-9189-05a43c0b2dbc","ios":"levelo://app?vid=237b768a-9673-4f42-9189-05a43c0b2dbc"},"vehicle_type_id":"4","last_reported":1761729109,"current_range_meters":20400,"station_id":"ce4bgr92rcd13ifvqc6g","pricing_plan_id":"cebpf4jnsgd1na2vs0mg"},{"bike_id":"11984822-59cf-49b8-8760-d04330938a04","system_id":"levelo_inurba_marseille","lat":43.23145,"lon":5.43718,"is_reserved":false,"is_disabled":false,"rental_uris":{"android":"levelo://app?vid=11984822-59cf-49b8-8760-d04330938a04","ios":"levelo://app?vid=11984822-59cf-49b8-8760-d04330938a04"},"vehicle_type_id":"4","last_reported":1761729109,"current_range_meters":20400,"station_id":"ce4bhmp2rcd13ifvqgog","pricing_plan_id":"cebpf4jnsgd1na2vs0mg"},{"bike_id":"a97775ac-3877-4042-9d99-cf2fa3c93d44","system_id":"levelo_inurba_marseille","lat":43.29573,"lon":5.37524,"is_reserved":false,"is_disabled":false,"rental_uris":{"android":"levelo://app?vid=a97775ac-3877-4042-9d99-cf2fa3c93d44","ios":"levelo://app?vid=a97775ac-3877-4042-9d99-cf2fa3c93d44"},"vehicle_type_id":"4","last_reported":1761729109,"current_range_meters":20400,"station_id":"ce4bgh92rcd13ifvqb50","pricing_plan_id":"cebpf4jnsgd1na2vs0mg"},{"bike_id":"1bd718b4-1222-4c8e-8068-bffec17b08a5","system_id":"levelo_inurba_marseille","lat":43.241817,"lon":5.397273,"is_reserved":false,"is_disabled":true,"rental_uris":{"android":"levelo://app?vid=1bd718b4-1222-4c8e-8068-bffec17b08a5","ios":"levelo://app?vid=1bd718b4-1222-4c8e-8068-bffec17b08a5"},"vehicle_type_id":"4","last_reported":1761729109,"current_range_meters":20400,"station_id":"ce4bhn12rcd13ifvqgpg","pricing_plan_id":"cebpf4jnsgd1na2vs0mg"},{"bike_id":"f3f4fd84-e4b0-4a93-bebd-d783c748268d","system_id":"levelo_inurba_marseille","lat":43.27823,"lon":5.35477,"is_reserved":false,"is_disabled":false,"rental_uris":{"android":"levelo://app?vid=f3f4fd84-e4b0-4a93-bebd-d783c748268d","ios":"levelo://app?vid=f3f4fd84-e4b0-4a93-bebd-d783c748268d"},"vehicle_type_id":"4","last_reported":1761729109,"current_range_meters":20800,"station_id":"","pricing_plan_id":"cebpf4jnsgd1na2vs0mg"},{"bike_id":"425bd352-24d0-416a-b97b-f204ee93abfd","system_id":"levelo_inurba_marseille","lat":43.24177,"lon":5.39743,"is_reserved":false,"is_disabled":false,"rental_uris":{"android":"levelo://app?vid=425bd352-24d0-416a-b97b-f204ee93abfd","ios":"levelo://app?vid=425bd352-24d0-416a-b97b-f204ee93abfd"},"vehicle_type_id":"4","last_reported":1761729109,"current_range_meters":20800,"station_id":"ce4bhn12rcd13ifvqgpg","pricing_plan_id":"cebpf4jnsgd1na2vs0mg"},{"bike_id":"afcbd88d-ae01-4f58-ab2c-71abb3c65ecc","system_id":"levelo_inurba_marseille","lat":43.31318,"lon":5.39695,"is_reserved":false,"is_disabled":false,"rental_uris":{"android":"levelo://app?vid=afcbd88d-ae01-4f58-ab2c-71abb3c65ecc","ios":"levelo://app?vid=afcbd88d-ae01-4f58-ab2c-71abb3c65ecc"},"vehicle_type_id":"4","last_reported":1761729109,"current_range_meters":20800,"station_id":"ce4bgvp2rcd13ifvqcu0","pricing_plan_id":"cebpf4jnsgd1na2vs0mg"},{"bike_id":"d93c9868-3d2c-4dbe-aa04-b4b5c0481bf5","system_id":"levelo_inurba_marseille","lat":43.30092,"lon":5.39078,"is_reserved":false,"is_disabled":false,"rental_uris":{"android":"levelo://app?vid=d93c9868-3d2c-4dbe-aa04-b4b5c0481bf5","ios":"levelo://app?vid=d93c9868-3d2c-4dbe-aa04-b4b5c0481bf5"},"vehicle_type_id":"4","last_reported":1761729109,"current_range_meters":20800,"station_id":"ce4bh192rcd13ifvqdb0","pricing_plan_id":"cebpf4jnsgd1na2vs0mg"},{"bike_id":"abcb1b02-d78e-418d-8c2f-a435e1e1e491","system_id":"levelo_inurba_marseille","lat":43.27955,"lon":5.41017,"is_reserved":false,"is_disabled":false,"rental_uris":{"android":"levelo://app?vid=abcb1b02-d78e-418d-8c2f-a435e1e1e491","ios":"levelo://app?vid=abcb1b02-d78e-418d-8c2f-a435e1e1e491"},"vehicle_type_id":"4","last_reported":1761729109,"current_range_meters":20800,"station_id":"ce4bhnp2rcd13ifvqh0g","pricing_plan_id":"cebpf4jnsgd1na2vs0mg"},{"bike_id":"2a5e1df6-abaa-43d8-a326-8fc6517b2c52","system_id":"levelo_inurba_marseille","lat":43.22582,"lon":5.41656,"is_reserved":false,"is_disabled":false,"rental_uris":{"android":"levelo://app?vid=2a5e1df6-abaa-43d8-a326-8fc6517b2c52","ios":"levelo://app?vid=2a5e1df6-abaa-43d8-a326-8fc6517b2c52"},"vehicle_type_id":"4","last_reported":1761729109,"current_range_meters":20800,"station_id":"st_d2o4gvlbi1j2169b742g","pricing_plan_id":"cebpf4jnsgd1na2vs0mg"},{"bike_id":"6403b6d4-9281-423a-99f1-b6a81b813b62","system_id":"levelo_inurba_marseille","lat":43.26695,"lon":5.38281,"is_reserved":false,"is_disabled":false,"rental_uris":{"android":"levelo://app?vid=6403b6d4-9281-423a-99f1-b6a81b813b62","ios":"levelo://app?vid=6403b6d4-9281-423a-99f1-b6a81b813b62"},"vehicle_type_id":"4","last_reported":1761729109,"current_range_meters":20800,"station_id":"ce4bhg92rcd13ifvqf90","pricing_plan_id":"cebpf4jnsgd1na2vs0mg"},{"bike_id":"3ccbad45-41c7-4b92-bea1-b635a899572f","system_id":"levelo_inurba_marseille","lat":43.31503,"lon":5.37317,"is_reserved":false,"is_disabled":false,"rental_uris":{"android":"levelo://app?vid=3ccbad45-41c7-4b92-bea1-b635a899572f","ios":"levelo://app?vid=3ccbad45-41c7-4b92-bea1-b635a899572f"},"vehicle_type_id":"4","last_reported":1761729109,"current_range_meters":20800,"station_id":"ce4bgt12rcd13ifvqcd0","pricing_plan_id":"cebpf4jnsgd1na2vs0mg"},{"bike_id":"6e727f51-e1be-4a14-a275-04bd16a55958","system_id":"levelo_inurba_marseille","lat":43.28624,"lon":5.3509,"is_reserved":false,"is_disabled":true,"rental_uris":{"android":"levelo://app?vid=6e727f51-e1be-4a14-a275-04bd16a55958","ios":"levelo://app?vid=6e727f51-e1be-4a14-a275-04bd16a55958"},"vehicle_type_id":"4","last_reported":1761729109,"current_range_meters":20800,"station_id":"ce4bhch2rcd13ifvqeug","pricing_plan_id":"cebpf4jnsgd1na2vs0mg"},{"bike_id":"74a107ac-7212-4d1c-ac0e-f630ec0d9eda","system_id":"levelo_inurba_marseille","lat":43.30481,"lon":5.37904,"is_reserved":false,"is_disabled":false,"rental_uris":{"android":"levelo://app?vid=74a107ac-7212-4d1c-ac0e-f630ec0d9eda","ios":"levelo://app?vid=74a107ac-7212-4d1c-ac0e-f630ec0d9eda"},"vehicle_type_id":"4","last_reported":1761729109,"current_range_meters":20800,"station_id":"ce4bgup2rcd13ifvqcn0","pricing_plan_id":"cebpf4jnsgd1na2vs0mg"},{"bike_id":"779b8ab3-47c1-4192-8b9d-2d1faab0664e","system_id":"levelo_inurba_marseille","lat":43.26554,"lon":5.37286,"is_reserved":false,"is_disabled":false,"rental_uris":{"android":"levelo://app?vid=779b8ab3-47c1-4192-8b9d-2d1faab0664e","ios":"levelo://app?vid=779b8ab3-47c1-4192-8b9d-2d1faab0664e"},"vehicle_type_id":"4","last_reported":1761729109,"current_range_meters":21600,"station_id":"ce4bhg12rcd13ifvqf70","pricing_plan_id":"cebpf4jnsgd1na2vs0mg"},{"bike_id":"f89d499f-6923-4f68-a6f6-9bd7973b36a4","system_id":"levelo_inurba_marseille","lat":43.30107,"lon":5.38753,"is_reserved":false,"is_disabled":false,"rental_uris":{"android":"levelo://app?vid=f89d499f-6923-4f68-a6f6-9bd7973b36a4","ios":"levelo://app?vid=f89d499f-6923-4f68-a6f6-9bd7973b36a4"},"vehicle_type_id":"4","last_reported":1761729109,"current_range_meters":21600,"station_id":"","pricing_plan_id":"cebpf4jnsgd1na2vs0mg"},{"bike_id":"e51055fb-7b2f-4a99-82e7-b053081efbb9","system_id":"levelo_inurba_marseille","lat":43.29626,"lon":5.37719,"is_reserved":false,"is_disabled":false,"rental_uris":{"android":"levelo://app?vid=e51055fb-7b2f-4a99-82e7-b053081efbb9","ios":"levelo://app?vid=e51055fb-7b2f-4a99-82e7-b053081efbb9"},"vehicle_type_id":"4","last_reported":1761729109,"current_range_meters":21600,"station_id":"ce4bgi92rcd13ifvqb90","pricing_plan_id":"cebpf4jnsgd1na2vs0mg"},{"bike_id":"fc4e308e-ca9c-40cc-8299-2c92a327e969","system_id":"levelo_inurba_marseille","lat":43.30792,"lon":5.37646,"is_reserved":false,"is_disabled":true,"rental_uris":{"android":"levelo://app?vid=fc4e308e-ca9c-40cc-8299-2c92a327e969","ios":"levelo://app?vid=fc4e308e-ca9c-40cc-8299-2c92a327e969"},"vehicle_type_id":"4","last_reported":1761729109,"current_range_meters":21600,"station_id":"ce4bgv92rcd13ifvqcq0","pricing_plan_id":"cebpf4jnsgd1na2vs0mg"},{"bike_id":"3e015a0c-489b-4c11-be52-20f33a65c819","system_id":"levelo_inurba_marseille","lat":43.33031,"lon":5.39242,"is_reserved":false,"is_disabled":false,"rental_uris":{"android":"levelo://app?vid=3e015a0c-489b-4c11-be52-20f33a65c819","ios":"levelo://app?vid=3e015a0c-489b-4c11-be52-20f33a65c819"},"vehicle_type_id":"4","last_reported":1761729109,"current_range_meters":21600,"station_id":"","pricing_plan_id":"cebpf4jnsgd1na2vs0mg"},{"bike_id":"4b12e3ad-8bab-47a7-928f-b7e59fd707f5","system_id":"levelo_inurba_marseille","lat":43.31691,"lon":5.37672,"is_reserved":false,"is_disabled":false,"rental_uris":{"android":"levelo://app?vid=4b12e3ad-8bab-47a7-928f-b7e59fd707f5","ios":"levelo://app?vid=4b12e3ad-8bab-47a7-928f-b7e59fd707f5"},"vehicle_type_id":"4","last_reported":1761729109,"current_range_meters":21600,"station_id":"","pricing_plan_id":"cebpf4jnsgd1na2vs0mg"},{"bike_id":"41ba054d-a6ac-451b-87b4-2e6ad1e033df","system_id":"levelo_inurba_marseille","lat":43.2593,"lon":5.40899,"is_reserved":false,"is_disabled":false,"rental_uris":{"android":"levelo://app?vid=41ba054d-a6ac-451b-87b4-2e6ad1e033df","ios":"levelo://app?vid=41ba054d-a6ac-451b-87b4-2e6ad1e033df"},"vehicle_type_id":"4","last_reported":1761729109,"current_range_meters":21600,"station_id":"ce4bhm92rcd13ifvqglg","pricing_plan_id":"cebpf4jnsgd1na2vs0mg"},{"bike_id":"5d6dab70-76c7-420b-ad97-bb518b3696b2","system_id":"levelo_inurba_marseille","lat":43.29613,"lon":5.37686,"is_reserved":false,"is_disabled":false,"rental_uris":{"android":"levelo://app?vid=5d6dab70-76c7-420b-ad97-bb518b3696b2","ios":"levelo://app?vid=5d6dab70-76c7-420b-ad97-bb518b3696b2"},"vehicle_type_id":"4","last_reported":1761729109,"current_range_meters":21600,"station_id":"ce4bgi92rcd13ifvqb90","pricing_plan_id":"cebpf4jnsgd1na2vs0mg"},{"bike_id":"23dac52a-f35b-4d77-aecd-98713d745457","system_id":"levelo_inurba_marseille","lat":43.3054,"lon":5.36717,"is_reserved":false,"is_disabled":false,"rental_uris":{"android":"levelo://app?vid=23dac52a-f35b-4d77-aecd-98713d745457","ios":"levelo://app?vid=23dac52a-f35b-4d77-aecd-98713d745457"},"vehicle_type_id":"4","last_reported":1761729109,"current_range_meters":21600,"station_id":"ce4bgrp2rcd13ifvqc9g","pricing_plan_id":"cebpf4jnsgd1na2vs0mg"},{"bike_id":"a5b28b3b-b60a-4603-a1e8-d574a6dcdc23","system_id":"levelo_inurba_marseille","lat":43.24395,"lon":5.37066,"is_reserved":false,"is_disabled":false,"rental_uris":{"android":"levelo://app?vid=a5b28b3b-b60a-4603-a1e8-d574a6dcdc23","ios":"levelo://app?vid=a5b28b3b-b60a-4603-a1e8-d574a6dcdc23"},"vehicle_type_id":"4","last_reported":1761729109,"current_range_meters":21600,"station_id":"ce4bhhh2rcd13ifvqfk0","pricing_plan_id":"cebpf4jnsgd1na2vs0mg"},{"bike_id":"aa5057d4-d944-4dc3-8383-41cda0fdedb0","system_id":"levelo_inurba_marseille","lat":43.23199,"lon":5.35542,"is_reserved":false,"is_disabled":false,"rental_uris":{"android":"levelo://app?vid=aa5057d4-d944-4dc3-8383-41cda0fdedb0","ios":"levelo://app?vid=aa5057d4-d944-4dc3-8383-41cda0fdedb0"},"vehicle_type_id":"4","last_reported":1761729109,"current_range_meters":21600,"station_id":"ce4bhu92rcd13ifvqi70","pricing_plan_id":"cebpf4jnsgd1na2vs0mg"},{"bike_id":"b74daf51-a6ce-4edb-82ab-2c045c2e99a4","system_id":"levelo_inurba_marseille","lat":43.31045,"lon":5.36775,"is_reserved":false,"is_disabled":false,"rental_uris":{"android":"levelo://app?vid=b74daf51-a6ce-4edb-82ab-2c045c2e99a4","ios":"levelo://app?vid=b74daf51-a6ce-4edb-82ab-2c045c2e99a4"},"vehicle_type_id":"4","last_reported":1761729109,"current_range_meters":22000,"station_id":"ce4bgl92rcd13ifvqbq0","pricing_plan_id":"cebpf4jnsgd1na2vs0mg"},{"bike_id":"b22c42ff-4285-4504-9e58-c6df4a616eed","system_id":"levelo_inurba_marseille","lat":43.30883,"lon":5.37191,"is_reserved":false,"is_disabled":false,"rental_uris":{"android":"levelo://app?vid=b22c42ff-4285-4504-9e58-c6df4a616eed","ios":"levelo://app?vid=b22c42ff-4285-4504-9e58-c6df4a616eed"},"vehicle_type_id":"4","last_reported":1761729109,"current_range_meters":22000,"station_id":"ce4bguh2rcd13ifvqckg","pricing_plan_id":"cebpf4jnsgd1na2vs0mg"},{"bike_id":"88327406-ba65-4ce0-831c-3da476dbb691","system_id":"levelo_inurba_marseille","lat":43.23784,"lon":5.36629,"is_reserved":false,"is_disabled":false,"rental_uris":{"android":"levelo://app?vid=88327406-ba65-4ce0-831c-3da476dbb691","ios":"levelo://app?vid=88327406-ba65-4ce0-831c-3da476dbb691"},"vehicle_type_id":"4","last_reported":1761729109,"current_range_meters":22000,"station_id":"st_d3nk18o9ro0c73en2l3g","pricing_plan_id":"cebpf4jnsgd1na2vs0mg"},{"bike_id":"331fac7e-3ecc-4356-be68-1610a0f8b333","system_id":"levelo_inurba_marseille","lat":43.290061,"lon":5.356029,"is_reserved":false,"is_disabled":false,"rental_uris":{"android":"levelo://app?vid=331fac7e-3ecc-4356-be68-1610a0f8b333","ios":"levelo://app?vid=331fac7e-3ecc-4356-be68-1610a0f8b333"},"vehicle_type_id":"4","last_reported":1761729109,"current_range_meters":22000,"station_id":"ce4bhb12rcd13ifvqem0","pricing_plan_id":"cebpf4jnsgd1na2vs0mg"},{"bike_id":"93c09170-58a3-4cac-a1a4-ffde302ec5a5","system_id":"levelo_inurba_marseille","lat":43.225311,"lon":5.348382,"is_reserved":false,"is_disabled":true,"rental_uris":{"android":"levelo://app?vid=93c09170-58a3-4cac-a1a4-ffde302ec5a5","ios":"levelo://app?vid=93c09170-58a3-4cac-a1a4-ffde302ec5a5"},"vehicle_type_id":"4","last_reported":1761729109,"current_range_meters":22000,"station_id":"","pricing_plan_id":"cebpf4jnsgd1na2vs0mg"},{"bike_id":"423ec0ff-513f-4fcf-9aad-4d43083f4e25","system_id":"levelo_inurba_marseille","lat":43.29282,"lon":5.36843,"is_reserved":false,"is_disabled":false,"rental_uris":{"android":"levelo://app?vid=423ec0ff-513f-4fcf-9aad-4d43083f4e25","ios":"levelo://app?vid=423ec0ff-513f-4fcf-9aad-4d43083f4e25"},"vehicle_type_id":"4","last_reported":1761729109,"current_range_meters":22000,"station_id":"ce4bhbp2rcd13ifvqesg","pricing_plan_id":"cebpf4jnsgd1na2vs0mg"},{"bike_id":"c45de03f-b312-41a3-b99a-a57e09a1e311","system_id":"levelo_inurba_marseille","lat":43.272202,"lon":5.391774,"is_reserved":false,"is_disabled":false,"rental_uris":{"android":"levelo://app?vid=c45de03f-b312-41a3-b99a-a57e09a1e311","ios":"levelo://app?vid=c45de03f-b312-41a3-b99a-a57e09a1e311"},"vehicle_type_id":"4","last_reported":1761729109,"current_range_meters":22000,"station_id":"ce4bhhp2rcd13ifvqfm0","pricing_plan_id":"cebpf4jnsgd1na2vs0mg"},{"bike_id":"9ae1a54c-4556-474c-b3cf-c0b0634c2fcb","system_id":"levelo_inurba_marseille","lat":43.29543,"lon":5.37494,"is_reserved":false,"is_disabled":false,"rental_uris":{"android":"levelo://app?vid=9ae1a54c-4556-474c-b3cf-c0b0634c2fcb","ios":"levelo://app?vid=9ae1a54c-4556-474c-b3cf-c0b0634c2fcb"},"vehicle_type_id":"4","last_reported":1761729109,"current_range_meters":22000,"station_id":"ce4bgkp2rcd13ifvqbmg","pricing_plan_id":"cebpf4jnsgd1na2vs0mg"},{"bike_id":"a360e001-ef2c-4488-a26f-2c034f5490c2","system_id":"levelo_inurba_marseille","lat":43.29368,"lon":5.37836,"is_reserved":false,"is_disabled":false,"rental_uris":{"android":"levelo://app?vid=a360e001-ef2c-4488-a26f-2c034f5490c2","ios":"levelo://app?vid=a360e001-ef2c-4488-a26f-2c034f5490c2"},"vehicle_type_id":"4","last_reported":1761729109,"current_range_meters":22400,"station_id":"ce4bgjh2rcd13ifvqbf0","pricing_plan_id":"cebpf4jnsgd1na2vs0mg"},{"bike_id":"7f7a20ea-c016-440c-ae1a-dcbb9a8bb7bf","system_id":"levelo_inurba_marseille","lat":43.29565,"lon":5.3751,"is_reserved":false,"is_disabled":false,"rental_uris":{"android":"levelo://app?vid=7f7a20ea-c016-440c-ae1a-dcbb9a8bb7bf","ios":"levelo://app?vid=7f7a20ea-c016-440c-ae1a-dcbb9a8bb7bf"},"vehicle_type_id":"4","last_reported":1761729109,"current_range_meters":22400,"station_id":"ce4bgh92rcd13ifvqb50","pricing_plan_id":"cebpf4jnsgd1na2vs0mg"},{"bike_id":"9fe2f728-f63e-4a2d-b618-a709cf4e994f","system_id":"levelo_inurba_marseille","lat":43.31085,"lon":5.38874,"is_reserved":false,"is_disabled":false,"rental_uris":{"android":"levelo://app?vid=9fe2f728-f63e-4a2d-b618-a709cf4e994f","ios":"levelo://app?vid=9fe2f728-f63e-4a2d-b618-a709cf4e994f"},"vehicle_type_id":"4","last_reported":1761729109,"current_range_meters":22400,"station_id":"","pricing_plan_id":"cebpf4jnsgd1na2vs0mg"},{"bike_id":"0b942235-9394-4f47-aac2-04ed1291e417","system_id":"levelo_inurba_marseille","lat":43.24181,"lon":5.39721,"is_reserved":false,"is_disabled":false,"rental_uris":{"android":"levelo://app?vid=0b942235-9394-4f47-aac2-04ed1291e417","ios":"levelo://app?vid=0b942235-9394-4f47-aac2-04ed1291e417"},"vehicle_type_id":"4","last_reported":1761729109,"current_range_meters":22400,"station_id":"ce4bhn12rcd13ifvqgpg","pricing_plan_id":"cebpf4jnsgd1na2vs0mg"},{"bike_id":"16e4444b-3f8d-4be2-8729-911ba5507a40","system_id":"levelo_inurba_marseille","lat":43.30539,"lon":5.36712,"is_reserved":false,"is_disabled":false,"rental_uris":{"android":"levelo://app?vid=16e4444b-3f8d-4be2-8729-911ba5507a40","ios":"levelo://app?vid=16e4444b-3f8d-4be2-8729-911ba5507a40"},"vehicle_type_id":"4","last_reported":1761729109,"current_range_meters":22400,"station_id":"ce4bgrp2rcd13ifvqc9g","pricing_plan_id":"cebpf4jnsgd1na2vs0mg"},{"bike_id":"1aa44bf6-a55a-4bb6-821a-df2b61f05684","system_id":"levelo_inurba_marseille","lat":43.30138,"lon":5.37426,"is_reserved":false,"is_disabled":false,"rental_uris":{"android":"levelo://app?vid=1aa44bf6-a55a-4bb6-821a-df2b61f05684","ios":"levelo://app?vid=1aa44bf6-a55a-4bb6-821a-df2b61f05684"},"vehicle_type_id":"4","last_reported":1761729109,"current_range_meters":22400,"station_id":"ce4bgs92rcd13ifvqcc0","pricing_plan_id":"cebpf4jnsgd1na2vs0mg"},{"bike_id":"ecaed964-c311-4436-8841-c0f77e6486b1","system_id":"levelo_inurba_marseille","lat":43.24549,"lon":5.39518,"is_reserved":false,"is_disabled":false,"rental_uris":{"android":"levelo://app?vid=ecaed964-c311-4436-8841-c0f77e6486b1","ios":"levelo://app?vid=ecaed964-c311-4436-8841-c0f77e6486b1"},"vehicle_type_id":"4","last_reported":1761729109,"current_range_meters":22400,"station_id":"ce4bhlp2rcd13ifvqgjg","pricing_plan_id":"cebpf4jnsgd1na2vs0mg"},{"bike_id":"917f150e-9f11-4d17-8a38-a4df609c7816","system_id":"levelo_inurba_marseille","lat":43.28721,"lon":5.37938,"is_reserved":false,"is_disabled":false,"rental_uris":{"android":"levelo://app?vid=917f150e-9f11-4d17-8a38-a4df609c7816","ios":"levelo://app?vid=917f150e-9f11-4d17-8a38-a4df609c7816"},"vehicle_type_id":"4","last_reported":1761729109,"current_range_meters":22400,"station_id":"ce4bh9p2rcd13ifvqec0","pricing_plan_id":"cebpf4jnsgd1na2vs0mg"},{"bike_id":"6e8e2b36-0de9-4939-8860-8024d89bea64","system_id":"levelo_inurba_marseille","lat":43.25008,"lon":5.3893,"is_reserved":false,"is_disabled":false,"rental_uris":{"android":"levelo://app?vid=6e8e2b36-0de9-4939-8860-8024d89bea64","ios":"levelo://app?vid=6e8e2b36-0de9-4939-8860-8024d89bea64"},"vehicle_type_id":"4","last_reported":1761729109,"current_range_meters":22400,"station_id":"ce4bhgp2rcd13ifvqfd0","pricing_plan_id":"cebpf4jnsgd1na2vs0mg"},{"bike_id":"47c4f25a-7e4e-4fae-8796-b2e994087c87","system_id":"levelo_inurba_marseille","lat":43.309124,"lon":5.368442,"is_reserved":false,"is_disabled":false,"rental_uris":{"android":"levelo://app?vid=47c4f25a-7e4e-4fae-8796-b2e994087c87","ios":"levelo://app?vid=47c4f25a-7e4e-4fae-8796-b2e994087c87"},"vehicle_type_id":"4","last_reported":1761729109,"current_range_meters":22400,"station_id":"ce4bgn92rcd13ifvqbvg","pricing_plan_id":"cebpf4jnsgd1na2vs0mg"},{"bike_id":"0bab38c2-7b8e-4e1a-92c0-32d7861bb6a0","system_id":"levelo_inurba_marseille","lat":43.2927,"lon":5.38433,"is_reserved":false,"is_disabled":false,"rental_uris":{"android":"levelo://app?vid=0bab38c2-7b8e-4e1a-92c0-32d7861bb6a0","ios":"levelo://app?vid=0bab38c2-7b8e-4e1a-92c0-32d7861bb6a0"},"vehicle_type_id":"4","last_reported":1761729109,"current_range_meters":22400,"station_id":"ce4bh692rcd13ifvqea0","pricing_plan_id":"cebpf4jnsgd1na2vs0mg"},{"bike_id":"a67b72f7-0903-4842-8dff-4706a256af34","system_id":"levelo_inurba_marseille","lat":43.27813,"lon":5.40713,"is_reserved":false,"is_disabled":false,"rental_uris":{"android":"levelo://app?vid=a67b72f7-0903-4842-8dff-4706a256af34","ios":"levelo://app?vid=a67b72f7-0903-4842-8dff-4706a256af34"},"vehicle_type_id":"4","last_reported":1761729109,"current_range_meters":22800,"station_id":"ce4bhnh2rcd13ifvqgtg","pricing_plan_id":"cebpf4jnsgd1na2vs0mg"},{"bike_id":"4e7d4135-733f-4d6e-93a2-1f5017539ea4","system_id":"levelo_inurba_marseille","lat":43.3247,"lon":5.3657,"is_reserved":false,"is_disabled":false,"rental_uris":{"android":"levelo://app?vid=4e7d4135-733f-4d6e-93a2-1f5017539ea4","ios":"levelo://app?vid=4e7d4135-733f-4d6e-93a2-1f5017539ea4"},"vehicle_type_id":"4","last_reported":1761729109,"current_range_meters":22800,"station_id":"ce4bhs12rcd13ifvqhvg","pricing_plan_id":"cebpf4jnsgd1na2vs0mg"},{"bike_id":"b0f45747-c9c8-4cd0-b924-ff1f0b337f15","system_id":"levelo_inurba_marseille","lat":43.31331,"lon":5.3967,"is_reserved":false,"is_disabled":false,"rental_uris":{"android":"levelo://app?vid=b0f45747-c9c8-4cd0-b924-ff1f0b337f15","ios":"levelo://app?vid=b0f45747-c9c8-4cd0-b924-ff1f0b337f15"},"vehicle_type_id":"4","last_reported":1761729109,"current_range_meters":22800,"station_id":"ce4bgvp2rcd13ifvqcu0","pricing_plan_id":"cebpf4jnsgd1na2vs0mg"},{"bike_id":"4f6913d2-acd6-423f-86b4-3f71c969e43f","system_id":"levelo_inurba_marseille","lat":43.26574,"lon":5.40329,"is_reserved":false,"is_disabled":false,"rental_uris":{"android":"levelo://app?vid=4f6913d2-acd6-423f-86b4-3f71c969e43f","ios":"levelo://app?vid=4f6913d2-acd6-423f-86b4-3f71c969e43f"},"vehicle_type_id":"4","last_reported":1761729109,"current_range_meters":22800,"station_id":"ce4bhmp2rcd13ifvqgng","pricing_plan_id":"cebpf4jnsgd1na2vs0mg"},{"bike_id":"f80a0055-c873-4e76-98bc-f952a6f624c9","system_id":"levelo_inurba_marseille","lat":43.279391,"lon":5.410378,"is_reserved":false,"is_disabled":false,"rental_uris":{"android":"levelo://app?vid=f80a0055-c873-4e76-98bc-f952a6f624c9","ios":"levelo://app?vid=f80a0055-c873-4e76-98bc-f952a6f624c9"},"vehicle_type_id":"4","last_reported":1761729109,"current_range_meters":22800,"station_id":"ce4bhnp2rcd13ifvqh0g","pricing_plan_id":"cebpf4jnsgd1na2vs0mg"},{"bike_id":"00280d5c-2b6d-4d09-a605-8bbf71f4fbe2","system_id":"levelo_inurba_marseille","lat":43.266903,"lon":5.382424,"is_reserved":false,"is_disabled":false,"rental_uris":{"android":"levelo://app?vid=00280d5c-2b6d-4d09-a605-8bbf71f4fbe2","ios":"levelo://app?vid=00280d5c-2b6d-4d09-a605-8bbf71f4fbe2"},"vehicle_type_id":"4","last_reported":1761729109,"current_range_meters":22800,"station_id":"","pricing_plan_id":"cebpf4jnsgd1na2vs0mg"},{"bike_id":"44147506-f4bd-41d7-8034-fbbfc3874ae0","system_id":"levelo_inurba_marseille","lat":43.24087,"lon":5.37763,"is_reserved":false,"is_disabled":false,"rental_uris":{"android":"levelo://app?vid=44147506-f4bd-41d7-8034-fbbfc3874ae0","ios":"levelo://app?vid=44147506-f4bd-41d7-8034-fbbfc3874ae0"},"vehicle_type_id":"4","last_reported":1761729109,"current_range_meters":22800,"station_id":"ce4bhnp2rcd13ifvqgvg","pricing_plan_id":"cebpf4jnsgd1na2vs0mg"},{"bike_id":"824bc2be-7f2f-462f-aa7a-1ec77b4da761","system_id":"levelo_inurba_marseille","lat":43.30906,"lon":5.36856,"is_reserved":false,"is_disabled":false,"rental_uris":{"android":"levelo://app?vid=824bc2be-7f2f-462f-aa7a-1ec77b4da761","ios":"levelo://app?vid=824bc2be-7f2f-462f-aa7a-1ec77b4da761"},"vehicle_type_id":"4","last_reported":1761729109,"current_range_meters":22800,"station_id":"ce4bgn92rcd13ifvqbvg","pricing_plan_id":"cebpf4jnsgd1na2vs0mg"},{"bike_id":"05a47c24-c74d-4482-aade-5974399cb310","system_id":"levelo_inurba_marseille","lat":43.29606,"lon":5.37672,"is_reserved":false,"is_disabled":false,"rental_uris":{"android":"levelo://app?vid=05a47c24-c74d-4482-aade-5974399cb310","ios":"levelo://app?vid=05a47c24-c74d-4482-aade-5974399cb310"},"vehicle_type_id":"4","last_reported":1761729109,"current_range_meters":22800,"station_id":"ce4bgi92rcd13ifvqb90","pricing_plan_id":"cebpf4jnsgd1na2vs0mg"},{"bike_id":"bbb79279-9fe2-422d-81fd-167eb2ba5df9","system_id":"levelo_inurba_marseille","lat":43.29635,"lon":5.37711,"is_reserved":false,"is_disabled":false,"rental_uris":{"android":"levelo://app?vid=bbb79279-9fe2-422d-81fd-167eb2ba5df9","ios":"levelo://app?vid=bbb79279-9fe2-422d-81fd-167eb2ba5df9"},"vehicle_type_id":"4","last_reported":1761729109,"current_range_meters":22800,"station_id":"ce4bgi92rcd13ifvqb90","pricing_plan_id":"cebpf4jnsgd1na2vs0mg"},{"bike_id":"9266097c-a664-4465-bf39-7059e793b09b","system_id":"levelo_inurba_marseille","lat":43.30905,"lon":5.36856,"is_reserved":false,"is_disabled":false,"rental_uris":{"android":"levelo://app?vid=9266097c-a664-4465-bf39-7059e793b09b","ios":"levelo://app?vid=9266097c-a664-4465-bf39-7059e793b09b"},"vehicle_type_id":"4","last_reported":1761729109,"current_range_meters":22800,"station_id":"ce4bgn92rcd13ifvqbvg","pricing_plan_id":"cebpf4jnsgd1na2vs0mg"},{"bike_id":"c67f7f11-fd5c-4b19-a6fb-4ff6c740df30","system_id":"levelo_inurba_marseille","lat":43.26591,"lon":5.39033,"is_reserved":false,"is_disabled":false,"rental_uris":{"android":"levelo://app?vid=c67f7f11-fd5c-4b19-a6fb-4ff6c740df30","ios":"levelo://app?vid=c67f7f11-fd5c-4b19-a6fb-4ff6c740df30"},"vehicle_type_id":"4","last_reported":1761729109,"current_range_meters":23200,"station_id":"ce4bhe12rcd13ifvqf30","pricing_plan_id":"cebpf4jnsgd1na2vs0mg"},{"bike_id":"a4dac4fa-66e6-48be-a654-6e17cdc7ca0b","system_id":"levelo_inurba_marseille","lat":43.337644,"lon":5.374277,"is_reserved":false,"is_disabled":false,"rental_uris":{"android":"levelo://app?vid=a4dac4fa-66e6-48be-a654-6e17cdc7ca0b","ios":"levelo://app?vid=a4dac4fa-66e6-48be-a654-6e17cdc7ca0b"},"vehicle_type_id":"4","last_reported":1761729109,"current_range_meters":23200,"station_id":"","pricing_plan_id":"cebpf4jnsgd1na2vs0mg"},