{"last_updated":1733580467,"ttl":60,"version":"2.2","data":{"bikes":[{"bike_id":"c8756871-db35-4a3b-b691-d98d2619e332","system_id":"levelo_inurba_marseille","lat":43.2315,"lon":5.43737,"is_reserved":false,"is_disabled":false,"rental_uris":{"android":"levelo://app?vid=c8756871-db35-4a3b-b691-d98d2619e332","ios":"levelo://app?vid=c8756871-db35-4a3b-b691-d98d2619e332"},"vehicle_type_id":"4","last_reported":1733580467,"current_range_meters":38800,"station_id":"ce4bhmp2rcd13ifvqgog","pricing_plan_id":"cebpf4jnsgd1na2vs0mg"},{"bike_id":"55d7a831-40f8-4501-9bc4-264da11c1dd0","system_id":"levelo_inurba_marseille","lat":43.29268,"lon":5.40113,"is_reserved":false,"is_disabled":true,"rental_uris":{"android":"levelo://app?vid=55d7a831-40f8-4501-9bc4-264da11c1dd0","ios":"levelo://app?vid=55d7a831-40f8-4501-9bc4-264da11c1dd0"},"vehicle_type_id":"4","last_reported":1733580467,"current_range_meters":27600,"station_id":"ce4bh312rcd13ifvqdk0","pricing_plan_id":"cebpf4jnsgd1na2vs0mg"},{"bike_id":"8e029eaf-e104-4c5d-858d-6cd39de73d09","system_id":"levelo_inurba_marseille","lat":43.24124,"lon":5.36493,"is_reserved":false,"is_disabled":false,"rental_uris":{"android":"levelo://app?vid=8e029eaf-e104-4c5d-858d-6cd39de73d09","ios":"levelo://app?vid=8e029eaf-e104-4c5d-858d-6cd39de73d09"},"vehicle_type_id":"4","last_reported":1733580467,"current_range_meters":32800,"station_id":"cpo36qri1sfpv3e86is0","pricing_plan_id":"cebpf4jnsgd1na2vs0mg"},{"bike_id":"40f7dd2e-5c9a-436e-96b2-050f0ffb95ab","system_id":"levelo_inurba_marseille","lat":43.29923,"lon":5.37473,"is_reserved":false,"is_disabled":false,"rental_uris":{"android":"levelo://app?vid=40f7dd2e-5c9a-436e-96b2-050f0ffb95ab","ios":"levelo://app?vid=40f7dd2e-5c9a-436e-96b2-050f0ffb95ab"},"vehicle_type_id":"4","last_reported":1733580467,"current_range_meters":29600,"station_id":"ce4bgjh2rcd13ifvqbg0","pricing_plan_id":"cebpf4jnsgd1na2vs0mg"},{"bike_id":"38d7b96b-ea49-42ac-9547-ee57fecfb84c","system_id":"levelo_inurba_marseille","lat":43.28148,"lon":5.42642,"is_reserved":false,"is_disabled":false,"rental_uris":{"android":"levelo://app?vid=38d7b96b-ea49-42ac-9547-ee57fecfb84c","ios":"levelo://app?vid=38d7b96b-ea49-42ac-9547-ee57fecfb84c"},"vehicle_type_id":"4","last_reported":1733580467,"current_range_meters":25600,"station_id":"ce4bhnh2rcd13ifvqgug","pricing_plan_id":"cebpf4jnsgd1na2vs0mg"},{"bike_id":"668893f6-20ee-4ac7-b5cd-e783350d6542","system_id":"levelo_inurba_marseille","lat":43.320343,"lon":5.415756,"is_reserved":false,"is_disabled":false,"rental_uris":{"android":"levelo://app?vid=668893f6-20ee-4ac7-b5cd-e783350d6542","ios":"levelo://app?vid=668893f6-20ee-4ac7-b5cd-e783350d6542"},"vehicle_type_id":"4","last_reported":1733580467,"current_range_meters":37600,"station_id":"ce4bhq92rcd13ifvqhkg","pricing_plan_id":"cebpf4jnsgd1na2vs0mg"},{"bike_id":"e232d7ae-0864-4a70-8b5e-627ae37536a1","system_id":"levelo_inurba_marseille","lat":43.28111,"lon":5.37841,"is_reserved":false,"is_disabled":false,"rental_uris":{"android":"levelo://app?vid=e232d7ae-0864-4a70-8b5e-627ae37536a1","ios":"levelo://app?vid=e232d7ae-0864-4a70-8b5e-627ae37536a1"},"vehicle_type_id":"4","last_reported":1733580467,"current_range_meters":38800,"station_id":"ce4bha12rcd13ifvqee0","pricing_plan_id":"cebpf4jnsgd1na2vs0mg"},{"bike_id":"e37f0f48-ff13-4242-bca9-0687552cbad4","system_id":"levelo_inurba_marseille","lat":43.33024,"lon":5.39046,"is_reserved":false,"is_disabled":true,"rental_uris":{"android":"levelo://app?vid=e37f0f48-ff13-4242-bca9-0687552cbad4","ios":"levelo://app?vid=e37f0f48-ff13-4242-bca9-0687552cbad4"},"vehicle_type_id":"4","last_reported":1733580467,"current_range_meters":0,"station_id":"ce4bhr92rcd13ifvqhrg","pricing_plan_id":"cebpf4jnsgd1na2vs0mg"},{"bike_id":"be407bbe-d1ce-48de-8db2-09114af9efd7","system_id":"levelo_inurba_marseille","lat":43.32363,"lon":5.36766,"is_reserved":false,"is_disabled":false,"rental_uris":{"android":"levelo://app?vid=be407bbe-d1ce-48de-8db2-09114af9efd7","ios":"levelo://app?vid=be407bbe-d1ce-48de-8db2-09114af9efd7"},"vehicle_type_id":"4","last_reported":1733580467,"current_range_meters":18000,"station_id":"ce4bhsh2rcd13ifvqi2g","pricing_plan_id":"cebpf4jnsgd1na2vs0mg"},{"bike_id":"d17d83b6-ce26-407d-94db-86cc6dd2f7ab","system_id":"levelo_inurba_marseille","lat":43.29005,"lon":5.35613,"is_reserved":false,"is_disabled":false,"rental_uris":{"android":"levelo://app?vid=d17d83b6-ce26-407d-94db-86cc6dd2f7ab","ios":"levelo://app?vid=d17d83b6-ce26-407d-94db-86cc6dd2f7ab"},"vehicle_type_id":"4","last_reported":1733580467,"current_range_meters":5600,"station_id":"ce4bhb92rcd13ifvqen0","pricing_plan_id":"cebpf4jnsgd1na2vs0mg"},{"bike_id":"5fd8fda4-5ceb-4e39-b9f4-ea27acda2ce7","system_id":"levelo_inurba_marseille","lat":43.27204,"lon":5.41013,"is_reserved":false,"is_disabled":true,"rental_uris":{"android":"levelo://app?vid=5fd8fda4-5ceb-4e39-b9f4-ea27acda2ce7","ios":"levelo://app?vid=5fd8fda4-5ceb-4e39-b9f4-ea27acda2ce7"},"vehicle_type_id":"4","last_reported":1733580467,"current_range_meters":22400,"station_id":"ce4bhl12rcd13ifvqgf0","pricing_plan_id":"cebpf4jnsgd1na2vs0mg"},{"bike_id":"56c8a34d-dc6a-411d-9a11-174d05d3606f","system_id":"levelo_inurba_marseille","lat":43.28439,"lon":5.39191,"is_reserved":false,"is_disabled":false,"rental_uris":{"android":"levelo://app?vid=56c8a34d-dc6a-411d-9a11-174d05d3606f","ios":"levelo://app?vid=56c8a34d-dc6a-411d-9a11-174d05d3606f"},"vehicle_type_id":"4","last_reported":1733580467,"current_range_meters":38000,"station_id":"ce4bhoh2rcd13ifvqh5g","pricing_plan_id":"cebpf4jnsgd1na2vs0mg"},{"bike_id":"e5d34297-b018-49cd-9ec3-4f4f9178a0e1","system_id":"levelo_inurba_marseille","lat":43.28,"lon":5.40021,"is_reserved":false,"is_disabled":false,"rental_uris":{"android":"levelo://app?vid=e5d34297-b018-49cd-9ec3-4f4f9178a0e1","ios":"levelo://app?vid=e5d34297-b018-49cd-9ec3-4f4f9178a0e1"},"vehicle_type_id":"4","last_reported":1733580467,"current_range_meters":26800,"station_id":"ce4bho92rcd13ifvqh4g","pricing_plan_id":"cebpf4jnsgd1na2vs0mg"},{"bike_id":"8bd642b2-0279-44c7-9ee2-fc3b57332c83","system_id":"levelo_inurba_marseille","lat":43.27455,"lon":5.40073,"is_reserved":false,"is_disabled":true,"rental_uris":{"android":"levelo://app?vid=8bd642b2-0279-44c7-9ee2-fc3b57332c83","ios":"levelo://app?vid=8bd642b2-0279-44c7-9ee2-fc3b57332c83"},"vehicle_type_id":"4","last_reported":1733580467,"current_range_meters":0,"station_id":"","pricing_plan_id":"cebpf4jnsgd1na2vs0mg"},{"bike_id":"b4052244-8237-4b26-95dc-399ac7601b77","system_id":"levelo_inurba_marseille","lat":43.29899,"lon":5.4367,"is_reserved":false,"is_disabled":false,"rental_uris":{"android":"levelo://app?vid=b4052244-8237-4b26-95dc-399ac7601b77","ios":"levelo://app?vid=b4052244-8237-4b26-95dc-399ac7601b77"},"vehicle_type_id":"4","last_reported":1733580467,"current_range_meters":20800,"station_id":"ce4bhpp2rcd13ifvqhfg","pricing_plan_id":"cebpf4jnsgd1na2vs0mg"},{"bike_id":"913c978b-63f8-482d-97a4-549f1b663e40","system_id":"levelo_inurba_marseille","lat":43.30538,"lon":5.36543,"is_reserved":false,"is_disabled":false,"rental_uris":{"android":"levelo://app?vid=913c978b-63f8-482d-97a4-549f1b663e40","ios":"levelo://app?vid=913c978b-63f8-482d-97a4-549f1b663e40"},"vehicle_type_id":"4","last_reported":1733580467,"current_range_meters":38800,"station_id":"ce4bgs12rcd13ifvqcag","pricing_plan_id":"cebpf4jnsgd1na2vs0mg"},{"bike_id":"d83d9dc7-ce4c-43e2-8c7d-eeda83c183ce","system_id":"levelo_inurba_marseille","lat":43.26055,"lon":5.39398,"is_reserved":false,"is_disabled":false,"rental_uris":{"android":"levelo://app?vid=d83d9dc7-ce4c-43e2-8c7d-eeda83c183ce","ios":"levelo://app?vid=d83d9dc7-ce4c-43e2-8c7d-eeda83c183ce"},"vehicle_type_id":"4","last_reported":1733580467,"current_range_meters":38800,"station_id":"ce4bhh92rcd13ifvqfj0","pricing_plan_id":"cebpf4jnsgd1na2vs0mg"},{"bike_id":"0b1ec455-0810-4f83-b5b0-2e33b181e214","system_id":"levelo_inurba_marseille","lat":43.25114,"lon":5.40326,"is_reserved":false,"is_disabled":false,"rental_uris":{"android":"levelo://app?vid=0b1ec455-0810-4f83-b5b0-2e33b181e214","ios":"levelo://app?vid=0b1ec455-0810-4f83-b5b0-2e33b181e214"},"vehicle_type_id":"4","last_reported":1733580467,"current_range_meters":20800,"station_id":"ce4bhlh2rcd13ifvqgig","pricing_plan_id":"cebpf4jnsgd1na2vs0mg"},{"bike_id":"46720180-370f-446e-ba15-c3e34896d612","system_id":"levelo_inurba_marseille","lat":43.25713,"lon":5.41118,"is_reserved":false,"is_disabled":false,"rental_uris":{"android":"levelo://app?vid=46720180-370f-446e-ba15-c3e34896d612","ios":"levelo://app?vid=46720180-370f-446e-ba15-c3e34896d612"},"vehicle_type_id":"4","last_reported":1733580467,"current_range_meters":38800,"station_id":"ce4bhkp2rcd13ifvqgd0","pricing_plan_id":"cebpf4jnsgd1na2vs0mg"},{"bike_id":"df600bbf-9314-4ddb-b58a-5bc63eb64c68","system_id":"levelo_inurba_marseille","lat":43.25492,"lon":5.37657,"is_reserved":false,"is_disabled":false,"rental_uris":{"android":"levelo://app?vid=df600bbf-9314-4ddb-b58a-5bc63eb64c68","ios":"levelo://app?vid=df600bbf-9314-4ddb-b58a-5bc63eb64c68"},"vehicle_type_id":"4","last_reported":1733580467,"current_range_meters":38400,"station_id":"ce4bhh12rcd13ifvqff0","pricing_plan_id":"cebpf4jnsgd1na2vs0mg"},{"bike_id":"95ba44ed-1f3d-4957-99e1-19700fbff361","system_id":"levelo_inurba_marseille","lat":43.31997,"lon":5.38159,"is_reserved":false,"is_disabled":false,"rental_uris":{"android":"levelo://app?vid=95ba44ed-1f3d-4957-99e1-19700fbff361","ios":"levelo://app?vid=95ba44ed-1f3d-4957-99e1-19700fbff361"},"vehicle_type_id":"4","last_reported":1733580467,"current_range_meters":38800,"station_id":"ce4bhr12rcd13ifvqhpg","pricing_plan_id":"cebpf4jnsgd1na2vs0mg"},{"bike_id":"650aedbd-7fe9-41b2-ab79-4b8450652642","system_id":"levelo_inurba_marseille","lat":43.2919,"lon":5.35803,"is_reserved":false,"is_disabled":true,"rental_uris":{"android":"levelo://app?vid=650aedbd-7fe9-41b2-ab79-4b8450652642","ios":"levelo://app?vid=650aedbd-7fe9-41b2-ab79-4b8450652642"},"vehicle_type_id":"4","last_reported":1733580467,"current_range_meters":10000,"station_id":"ce4bhb12rcd13ifvqel0","pricing_plan_id":"cebpf4jnsgd1na2vs0mg"},{"bike_id":"df2b1ed3-7429-4123-b136-48e61e338b2e","system_id":"levelo_inurba_marseille","lat":43.29569,"lon":5.37516,"is_reserved":false,"is_disabled":false,"rental_uris":{"android":"levelo://app?vid=df2b1ed3-7429-4123-b136-48e61e338b2e","ios":"levelo://app?vid=df2b1ed3-7429-4123-b136-48e61e338b2e"},"vehicle_type_id":"4","last_reported":1733580467,"current_range_meters":38800,"station_id":"ce4bgh92rcd13ifvqb50","pricing_plan_id":"cebpf4jnsgd1na2vs0mg"},{"bike_id":"479889bf-dbf3-4abb-926f-bf7556951acc","system_id":"levelo_inurba_marseille","lat":43.29895,"lon":5.43665,"is_reserved":false,"is_disabled":false,"rental_uris":{"android":"levelo://app?vid=479889bf-dbf3-4abb-926f-bf7556951acc","ios":"levelo://app?vid=479889bf-dbf3-4abb-926f-bf7556951acc"},"vehicle_type_id":"4","last_reported":1733580467,"current_range_meters":6800,"station_id":"ce4bhpp2rcd13ifvqhfg","pricing_plan_id":"cebpf4jnsgd1na2vs0mg"},{"bike_id":"3000a861-0903-41f2-bb5d-48554b17ed5a","system_id":"levelo_inurba_marseille","lat":43.337444,"lon":5.374475,"is_reserved":false,"is_disabled":false,"rental_uris":{"android":"levelo://app?vid=3000a861-0903-41f2-bb5d-48554b17ed5a","ios":"levelo://app?vid=3000a861-0903-41f2-bb5d-48554b17ed5a"},"vehicle_type_id":"4","last_reported":1733580467,"current_range_meters":32400,"station_id":"","pricing_plan_id":"cebpf4jnsgd1na2vs0mg"},{"bike_id":"fdc62a63-5355-4bd1-a06c-e6106eb23903","system_id":"levelo_inurba_marseille","lat":43.23958,"lon":5.36634,"is_reserved":false,"is_disabled":false,"rental_uris":{"android":"levelo://app?vid=fdc62a63-5355-4bd1-a06c-e6106eb23903","ios":"levelo://app?vid=fdc62a63-5355-4bd1-a06c-e6106eb23903"},"vehicle_type_id":"4","last_reported":1733580467,"current_range_meters":38800,"station_id":"ce4bhi12rcd13ifvqfp0","pricing_plan_id":"cebpf4jnsgd1na2vs0mg"},{"bike_id":"95cfddd6-1f3c-4fd2-9652-931f20cf06bd","system_id":"levelo_inurba_marseille","lat":43.2557,"lon":5.38248,"is_reserved":false,"is_disabled":false,"rental_uris":{"android":"levelo://app?vid=95cfddd6-1f3c-4fd2-9652-931f20cf06bd","ios":"levelo://app?vid=95cfddd6-1f3c-4fd2-9652-931f20cf06bd"},"vehicle_type_id":"4","last_reported":1733580467,"current_range_meters":28800,"station_id":"ce4bhih2rcd13ifvqfs0","pricing_plan_id":"cebpf4jnsgd1na2vs0mg"},{"bike_id":"2b15d822-df8d-49ec-89f7-936931604851","system_id":"levelo_inurba_marseille","lat":43.27927,"lon":5.39583,"is_reserved":false,"is_disabled":false,"rental_uris":{"android":"levelo://app?vid=2b15d822-df8d-49ec-89f7-936931604851","ios":"levelo://app?vid=2b15d822-df8d-49ec-89f7-936931604851"},"vehicle_type_id":"4","last_reported":1733580467,"current_range_meters":22800,"station_id":"ce4bhf92rcd13ifvqf40","pricing_plan_id":"cebpf4jnsgd1na2vs0mg"},{"bike_id":"420de079-f576-48d6-8a3d-a5c413ec2228","system_id":"levelo_inurba_marseille","lat":43.30552,"lon":5.36538,"is_reserved":false,"is_disabled":false,"rental_uris":{"android":"levelo://app?vid=420de079-f576-48d6-8a3d-a5c413ec2228","ios":"levelo://app?vid=420de079-f576-48d6-8a3d-a5c413ec2228"},"vehicle_type_id":"4","last_reported":1733580467,"current_range_meters":38800,"station_id":"ce4bgs12rcd13ifvqcag","pricing_plan_id":"cebpf4jnsgd1na2vs0mg"},{"bike_id":"89ceac00-2c22-4cb1-b85d-583fccdb788b","system_id":"levelo_inurba_marseille","lat":43.32108,"lon":5.3676,"is_reserved":false,"is_disabled":false,"rental_uris":{"android":"levelo://app?vid=89ceac00-2c22-4cb1-b85d-583fccdb788b","ios":"levelo://app?vid=89ceac00-2c22-4cb1-b85d-583fccdb788b"},"vehicle_type_id":"4","last_reported":1733580467,"current_range_meters":17600,"station_id":"ce4bhrh2rcd13ifvqhug","pricing_plan_id":"cebpf4jnsgd1na2vs0mg"},{"bike_id":"f4840122-26de-4080-9aa4-9266ad6ff9b9","system_id":"levelo_inurba_marseille","lat":43.31683,"lon":5.40486,"is_reserved":false,"is_disabled":false,"rental_uris":{"android":"levelo://app?vid=f4840122-26de-4080-9aa4-9266ad6ff9b9","ios":"levelo://app?vid=f4840122-26de-4080-9aa4-9266ad6ff9b9"},"vehicle_type_id":"4","last_reported":1733580467,"current_range_meters":38000,"station_id":"ce4bh012rcd13ifvqd00","pricing_plan_id":"cebpf4jnsgd1na2vs0mg"},{"bike_id":"8d3ab1e6-a8b6-4005-bf50-7690103502f7","system_id":"levelo_inurba_marseille","lat":43.32374,"lon":5.38876,"is_reserved":false,"is_disabled":false,"rental_uris":{"android":"levelo://app?vid=8d3ab1e6-a8b6-4005-bf50-7690103502f7","ios":"levelo://app?vid=8d3ab1e6-a8b6-4005-bf50-7690103502f7"},"vehicle_type_id":"4","last_reported":1733580467,"current_range_meters":38800,"station_id":"ce4bhqp2rcd13ifvqhog","pricing_plan_id":"cebpf4jnsgd1na2vs0mg"},{"bike_id":"e7067461-12ea-4e8e-84f7-88dcf687428e","system_id":"levelo_inurba_marseille","lat":43.31485,"lon":5.37311,"is_reserved":false,"is_disabled":false,"rental_uris":{"android":"levelo://app?vid=e7067461-12ea-4e8e-84f7-88dcf687428e","ios":"levelo://app?vid=e7067461-12ea-4e8e-84f7-88dcf687428e"},"vehicle_type_id":"4","last_reported":1733580467,"current_range_meters":35200,"station_id":"","pricing_plan_id":"cebpf4jnsgd1na2vs0mg"},{"bike_id":"233d6a4b-21d9-4608-b627-d614a81b077d","system_id":"levelo_inurba_marseille","lat":43.25002,"lon":5.38934,"is_reserved":false,"is_disabled":false,"rental_uris":{"android":"levelo://app?vid=233d6a4b-21d9-4608-b627-d614a81b077d","ios":"levelo://app?vid=233d6a4b-21d9-4608-b627-d614a81b077d"},"vehicle_type_id":"4","last_reported":1733580467,"current_range_meters":28000,"station_id":"ce4bhgp2rcd13ifvqfd0","pricing_plan_id":"cebpf4jnsgd1na2vs0mg"},{"bike_id":"36c25e20-736e-4de3-9b73-d01d49db561e","system_id":"levelo_inurba_marseille","lat":43.26961,"lon":5.38632,"is_reserved":false,"is_disabled":false,"rental_uris":{"android":"levelo://app?vid=36c25e20-736e-4de3-9b73-d01d49db561e","ios":"levelo://app?vid=36c25e20-736e-4de3-9b73-d01d49db561e"},"vehicle_type_id":"4","last_reported":1733580467,"current_range_meters":6400,"station_id":"ce4bhh92rcd13ifvqfh0","pricing_plan_id":"cebpf4jnsgd1na2vs0mg"},{"bike_id":"938640b4-f78c-4def-9b16-e6205edb88bc","system_id":"levelo_inurba_marseille","lat":43.28153,"lon":5.42633,"is_reserved":false,"is_disabled":true,"rental_uris":{"android":"levelo://app?vid=938640b4-f78c-4def-9b16-e6205edb88bc","ios":"levelo://app?vid=938640b4-f78c-4def-9b16-e6205edb88bc"},"vehicle_type_id":"4","last_reported":1733580467,"current_range_meters":16000,"station_id":"ce4bhnh2rcd13ifvqgug","pricing_plan_id":"cebpf4jnsgd1na2vs0mg"},{"bike_id":"d26f748e-188e-4899-87a2-66ad2132ccf2","system_id":"levelo_inurba_marseille","lat":43.31757,"lon":5.39025,"is_reserved":false,"is_disabled":false,"rental_uris":{"android":"levelo://app?vid=d26f748e-188e-4899-87a2-66ad2132ccf2","ios":"levelo://app?vid=d26f748e-188e-4899-87a2-66ad2132ccf2"},"vehicle_type_id":"4","last_reported":1733580467,"current_range_meters":11200,"station_id":"ce4bhqp2rcd13ifvqhng","pricing_plan_id":"cebpf4jnsgd1na2vs0mg"},{"bike_id":"66d9dfeb-cf42-41ae-9c8e-b29c68dd2a37","system_id":"levelo_inurba_marseille","lat":43.28672,"lon":5.38678,"is_reserved":false,"is_disabled":false,"rental_uris":{"android":"levelo://app?vid=66d9dfeb-cf42-41ae-9c8e-b29c68dd2a37","ios":"levelo://app?vid=66d9dfeb-cf42-41ae-9c8e-b29c68dd2a37"},"vehicle_type_id":"4","last_reported":1733580467,"current_range_meters":26800,"station_id":"ce4bh492rcd13ifvqdug","pricing_plan_id":"cebpf4jnsgd1na2vs0mg"},{"bike_id":"f4fb57b1-1fd2-44c2-b1a7-31a3692ffcea","system_id":"levelo_inurba_marseille","lat":43.30936,"lon":5.37165,"is_reserved":false,"is_disabled":true,"rental_uris":{"android":"levelo://app?vid=f4fb57b1-1fd2-44c2-b1a7-31a3692ffcea","ios":"levelo://app?vid=f4fb57b1-1fd2-44c2-b1a7-31a3692ffcea"},"vehicle_type_id":"4","last_reported":1733580467,"current_range_meters":3600,"station_id":"ce4bguh2rcd13ifvqckg","pricing_plan_id":"cebpf4jnsgd1na2vs0mg"},{"bike_id":"456c6caf-37f6-49ed-a81d-8942c14426a1","system_id":"levelo_inurba_marseille","lat":43.315,"lon":5.37309,"is_reserved":false,"is_disabled":true,"rental_uris":{"android":"levelo://app?vid=456c6caf-37f6-49ed-a81d-8942c14426a1","ios":"levelo://app?vid=456c6caf-37f6-49ed-a81d-8942c14426a1"},"vehicle_type_id":"4","last_reported":1733580467,"current_range_meters":28400,"station_id":"ce4bgt12rcd13ifvqcd0","pricing_plan_id":"cebpf4jnsgd1na2vs0mg"},{"bike_id":"2f3968e7-9336-4ee4-ba78-8e92c0a818cc","system_id":"levelo_inurba_marseille","lat":43.31322,"lon":5.36647,"is_reserved":false,"is_disabled":true,"rental_uris":{"android":"levelo://app?vid=2f3968e7-9336-4ee4-ba78-8e92c0a818cc","ios":"levelo://app?vid=2f3968e7-9336-4ee4-ba78-8e92c0a818cc"},"vehicle_type_id":"4","last_reported":1733580467,"current_range_meters":0,"station_id":"","pricing_plan_id":"cebpf4jnsgd1na2vs0mg"},{"bike_id":"5ebc19a5-4eab-4ea6-b558-b6d986ab3c2e","system_id":"levelo_inurba_marseille","lat":43.2465,"lon":5.38897,"is_reserved":false,"is_disabled":false,"rental_uris":{"android":"levelo://app?vid=5ebc19a5-4eab-4ea6-b558-b6d986ab3c2e","ios":"levelo://app?vid=5ebc19a5-4eab-4ea6-b558-b6d986ab3c2e"},"vehicle_type_id":"4","last_reported":1733580467,"current_range_meters":38800,"station_id":"ce4bhg12rcd13ifvqf60","pricing_plan_id":"cebpf4jnsgd1na2vs0mg"},{"bike_id":"e06ff561-d5cf-4989-8a90-c1c1e3dd6710","system_id":"levelo_inurba_marseille","lat":43.28476,"lon":5.38424,"is_reserved":false,"is_disabled":false,"rental_uris":{"android":"levelo://app?vid=e06ff561-d5cf-4989-8a90-c1c1e3dd6710","ios":"levelo://app?vid=e06ff561-d5cf-4989-8a90-c1c1e3dd6710"},"vehicle_type_id":"4","last_reported":1733580467,"current_range_meters":30400,"station_id":"ce4bh512rcd13ifvqe3g","pricing_plan_id":"cebpf4jnsgd1na2vs0mg"},{"bike_id":"e09e2b68-1351-4550-ba2f-8667224ed6b6","system_id":"levelo_inurba_marseille","lat":43.28098,"lon":5.37852,"is_reserved":false,"is_disabled":true,"rental_uris":{"android":"levelo://app?vid=e09e2b68-1351-4550-ba2f-8667224ed6b6","ios":"levelo://app?vid=e09e2b68-1351-4550-ba2f-8667224ed6b6"},"vehicle_type_id":"4","last_reported":1733580467,"current_range_meters":400,"station_id":"ce4bha12rcd13ifvqee0","pricing_plan_id":"cebpf4jnsgd1na2vs0mg"},{"bike_id":"f4e45fe2-593e-4aec-ac39-ccabede5690b","system_id":"levelo_inurba_marseille","lat":43.30078,"lon":5.39085,"is_reserved":false,"is_disabled":true,"rental_uris":{"android":"levelo://app?vid=f4e45fe2-593e-4aec-ac39-ccabede5690b","ios":"levelo://app?vid=f4e45fe2-593e-4aec-ac39-ccabede5690b"},"vehicle_type_id":"4","last_reported":1733580467,"current_range_meters":0,"station_id":"ce4bh192rcd13ifvqdb0","pricing_plan_id":"cebpf4jnsgd1na2vs0mg"},{"bike_id":"7736d0dc-1989-4505-a61b-7fdb0a6489c6","system_id":"levelo_inurba_marseille","lat":43.32367,"lon":5.38893,"is_reserved":false,"is_disabled":false,"rental_uris":{"android":"levelo://app?vid=7736d0dc-1989-4505-a61b-7fdb0a6489c6","ios":"levelo://app?vid=7736d0dc-1989-4505-a61b-7fdb0a6489c6"},"vehicle_type_id":"4","last_reported":1733580467,"current_range_meters":6800,"station_id":"ce4bhqp2rcd13ifvqhog","pricing_plan_id":"cebpf4jnsgd1na2vs0mg"},{"bike_id":"0e77377b-ad1b-4799-934c-61d5e9b174fd","system_id":"levelo_inurba_marseille","lat":43.29779,"lon":5.381255,"is_reserved":false,"is_disabled":true,"rental_uris":{"android":"levelo://app?vid=0e77377b-ad1b-4799-934c-61d5e9b174fd","ios":"levelo://app?vid=0e77377b-ad1b-4799-934c-61d5e9b174fd"},"vehicle_type_id":"4","last_reported":1733580467,"current_range_meters":800,"station_id":"ce4bgip2rcd13ifvqbb0","pricing_plan_id":"cebpf4jnsgd1na2vs0mg"},{"bike_id":"6583aefc-6815-4bd5-8f5c-a9c5d794f47e","system_id":"levelo_inurba_marseille","lat":43.36504,"lon":5.34295,"is_reserved":false,"is_disabled":false,"rental_uris":{"android":"levelo://app?vid=6583aefc-6815-4bd5-8f5c-a9c5d794f47e","ios":"levelo://app?vid=6583aefc-6815-4bd5-8f5c-a9c5d794f47e"},"vehicle_type_id":"4","last_reported":1733580467,"current_range_meters":26000,"station_id":"","pricing_plan_id":"cebpf4jnsgd1na2vs0mg"},{"bike_id":"77b201a3-6469-4bc2-bcd7-a7f6cc372e94","system_id":"levelo_inurba_marseille","lat":43.29844,"lon":5.41327,"is_reserved":false,"is_disabled":false,"rental_uris":{"android":"levelo://app?vid=77b201a3-6469-4bc2-bcd7-a7f6cc372e94","ios":"levelo://app?vid=77b201a3-6469-4bc2-bcd7-a7f6cc372e94"},"vehicle_type_id":"4","last_reported":1733580467,"current_range_meters":29600,"station_id":"ce4bhp12rcd13ifvqh9g","pricing_plan_id":"cebpf4jnsgd1na2vs0mg"},{"bike_id":"18c465ad-16a0-4d72-a337-11a15929aab8","system_id":"levelo_inurba_marseille","lat":43.23958,"lon":5.36656,"is_reserved":false,"is_disabled":false,"rental_uris":{"android":"levelo://app?vid=18c465ad-16a0-4d72-a337-11a15929aab8","ios":"levelo://app?vid=18c465ad-16a0-4d72-a337-11a15929aab8"},"vehicle_type_id":"4","last_reported":1733580467,"current_range_meters":6400,"station_id":"ce4bhi12rcd13ifvqfp0","pricing_plan_id":"cebpf4jnsgd1na2vs0mg"},{"bike_id":"d24ba112-fd35-4be4-adc0-0664a6e3ad7b","system_id":"levelo_inurba_marseille","lat":43.24655,"lon":5.38891,"is_reserved":false,"is_disabled":false,"rental_uris":{"android":"levelo://app?vid=d24ba112-fd35-4be4-adc0-0664a6e3ad7b","ios":"levelo://app?vid=d24ba112-fd35-4be4-adc0-0664a6e3ad7b"},"vehicle_type_id":"4","last_reported":1733580467,"current_range_meters":38800,"station_id":"ce4bhg12rcd13ifvqf60","pricing_plan_id":"cebpf4jnsgd1na2vs0mg"},{"bike_id":"f825a6e3-d202-4ddc-917b-5da49c4114c4","system_id":"levelo_inurba_marseille","lat":43.23192,"lon":5.3555,"is_reserved":false,"is_disabled":false,"rental_uris":{"android":"levelo://app?vid=f825a6e3-d202-4ddc-917b-5da49c4114c4","ios":"levelo://app?vid=f825a6e3-d202-4ddc-917b-5da49c4114c4"},"vehicle_type_id":"4","last_reported":1733580467,"current_range_meters":9200,"station_id":"ce4bhu92rcd13ifvqi70","pricing_plan_id":"cebpf4jnsgd1na2vs0mg"},{"bike_id":"c29a23ca-2ae8-402b-9094-573c6f23fe05","system_id":"levelo_inurba_marseille","lat":43.25118,"lon":5.40321,"is_reserved":false,"is_disabled":false,"rental_uris":{"android":"levelo://app?vid=c29a23ca-2ae8-402b-9094-573c6f23fe05","ios":"levelo://app?vid=c29a23ca-2ae8-402b-9094-573c6f23fe05"},"vehicle_type_id":"4","last_reported":1733580467,"current_range_meters":24400,"station_id":"ce4bhlh2rcd13ifvqgig","pricing_plan_id":"cebpf4jnsgd1na2vs0mg"},{"bike_id":"468d023e-e483-49f2-92d7-7b95c7b3c650","system_id":"levelo_inurba_marseille","lat":43.29902,"lon":5.43664,"is_reserved":false,"is_disabled":false,"rental_uris":{"android":"levelo://app?vid=468d023e-e483-49f2-92d7-7b95c7b3c650","ios":"levelo://app?vid=468d023e-e483-49f2-92d7-7b95c7b3c650"},"vehicle_type_id":"4","last_reported":1733580467,"current_range_meters":12400,"station_id":"ce4bhpp2rcd13ifvqhfg","pricing_plan_id":"cebpf4jnsgd1na2vs0mg"},{"bike_id":"cc537b5c-54d3-4483-80bd-da2886ac5bc6","system_id":"levelo_inurba_marseille","lat":43.29845,"lon":5.36301,"is_reserved":false,"is_disabled":false,"rental_uris":{"android":"levelo://app?vid=cc537b5c-54d3-4483-80bd-da2886ac5bc6","ios":"levelo://app?vid=cc537b5c-54d3-4483-80bd-da2886ac5bc6"},"vehicle_type_id":"4","last_reported":1733580467,"current_range_meters":32000,"station_id":"ce4bgpp2rcd13ifvqc3g","pricing_plan_id":"cebpf4jnsgd1na2vs0mg"},{"bike_id":"6c865ff9-a83a-44bc-a8c3-c667ea3600f5","system_id":"levelo_inurba_marseille","lat":43.26601,"lon":5.39014,"is_reserved":false,"is_disabled":false,"rental_uris":{"android":"levelo://app?vid=6c865ff9-a83a-44bc-a8c3-c667ea3600f5","ios":"levelo://app?vid=6c865ff9-a83a-44bc-a8c3-c667ea3600f5"},"vehicle_type_id":"4","last_reported":1733580467,"current_range_meters":24000,"station_id":"ce4bhe12rcd13ifvqf30","pricing_plan_id":"cebpf4jnsgd1na2vs0mg"},{"bike_id":"95549e99-3d14-4048-a51a-7392522446dc","system_id":"levelo_inurba_marseille","lat":43.23194,"lon":5.35559,"is_reserved":false,"is_disabled":false,"rental_uris":{"android":"levelo://app?vid=95549e99-3d14-4048-a51a-7392522446dc","ios":"levelo://app?vid=95549e99-3d14-4048-a51a-7392522446dc"},"vehicle_type_id":"4","last_reported":1733580467,"current_range_meters":32400,"station_id":"ce4bhu92rcd13ifvqi70","pricing_plan_id":"cebpf4jnsgd1na2vs0mg"},{"bike_id":"ff9cc963-ef65-4641-80aa-41601cfbd9f6","system_id":"levelo_inurba_marseille","lat":43.295305,"lon":5.38334,"is_reserved":false,"is_disabled":false,"rental_uris":{"android":"levelo://app?vid=ff9cc963-ef65-4641-80aa-41601cfbd9f6","ios":"levelo://app?vid=ff9cc963-ef65-4641-80aa-41601cfbd9f6"},"vehicle_type_id":"4","last_reported":1733580467,"current_range_meters":8800,"station_id":"ce4bgjh2rcd13ifvqbf0","pricing_plan_id":"cebpf4jnsgd1na2vs0mg"},{"bike_id":"f10c5e90-601b-4bd4-87e7-4cbb6a13a4fb","system_id":"levelo_inurba_marseille","lat":43.26123,"lon":5.39268,"is_reserved":false,"is_disabled":true,"rental_uris":{"android":"levelo://app?vid=f10c5e90-601b-4bd4-87e7-4cbb6a13a4fb","ios":"levelo://app?vid=f10c5e90-601b-4bd4-87e7-4cbb6a13a4fb"},"vehicle_type_id":"4","last_reported":1733580467,"current_range_meters":0,"station_id":"","pricing_plan_id":"cebpf4jnsgd1na2vs0mg"},{"bike_id":"b1a023a8-bfe2-4a8e-8aaa-4e18b6da929e","system_id":"levelo_inurba_marseille","lat":43.29421,"lon":5.38617,"is_reserved":false,"is_disabled":true,"rental_uris":{"android":"levelo://app?vid=b1a023a8-bfe2-4a8e-8aaa-4e18b6da929e","ios":"levelo://app?vid=b1a023a8-bfe2-4a8e-8aaa-4e18b6da929e"},"vehicle_type_id":"4","last_reported":1733580467,"current_range_meters":7200,"station_id":"ce4bh2h2rcd13ifvqdh0","pricing_plan_id":"cebpf4jnsgd1na2vs0mg"},{"bike_id":"bff99d17-1caf-402d-8a5b-99558d610c39","system_id":"levelo_inurba_marseille","lat":43.27055,"lon":5.40262,"is_reserved":false,"is_disabled":false,"rental_uris":{"android":"levelo://app?vid=bff99d17-1caf-402d-8a5b-99558d610c39","ios":"levelo://app?vid=bff99d17-1caf-402d-8a5b-99558d610c39"},"vehicle_type_id":"4","last_reported":1733580467,"current_range_meters":38800,"station_id":"ce4bhk92rcd13ifvqgc0","pricing_plan_id":"cebpf4jnsgd1na2vs0mg"},{"bike_id":"121e7620-cfb0-404a-b8f8-95f9449bab99","system_id":"levelo_inurba_marseille","lat":43.28415,"lon":5.37517,"is_reserved":false,"is_disabled":false,"rental_uris":{"android":"levelo://app?vid=121e7620-cfb0-404a-b8f8-95f9449bab99","ios":"levelo://app?vid=121e7620-cfb0-404a-b8f8-95f9449bab99"},"vehicle_type_id":"4","last_reported":1733580467,"current_range_meters":38800,"station_id":"ce4bh412rcd13ifvqds0","pricing_plan_id":"cebpf4jnsgd1na2vs0mg"},{"bike_id":"e4d2a553-1df9-435e-b6bd-24f7cc27505e","system_id":"levelo_inurba_marseille","lat":43.29001,"lon":5.35615,"is_reserved":false,"is_disabled":false,"rental_uris":{"android":"levelo://app?vid=e4d2a553-1df9-435e-b6bd-24f7cc27505e","ios":"levelo://app?vid=e4d2a553-1df9-435e-b6bd-24f7cc27505e"},"vehicle_type_id":"4","last_reported":1733580467,"current_range_meters":16400,"station_id":"ce4bhb92rcd13ifvqen0","pricing_plan_id":"cebpf4jnsgd1na2vs0mg"},{"bike_id":"45dcd923-4876-42e7-960a-878f303ebd33","system_id":"levelo_inurba_marseille","lat":43.32043,"lon":5.41567,"is_reserved":false,"is_disabled":false,"rental_uris":{"android":"levelo://app?vid=45dcd923-4876-42e7-960a-878f303ebd33","ios":"levelo://app?vid=45dcd923-4876-42e7-960a-878f303ebd33"},"vehicle_type_id":"4","last_reported":1733580467,"current_range_meters":33200,"station_id":"ce4bhq92rcd13ifvqhkg","pricing_plan_id":"cebpf4jnsgd1na2vs0mg"},{"bike_id":"5d9b6a4b-49ae-4c12-9c64-75931239d712","system_id":"levelo_inurba_marseille","lat":43.28871,"lon":5.38254,"is_reserved":false,"is_disabled":false,"rental_uris":{"android":"levelo://app?vid=5d9b6a4b-49ae-4c12-9c64-75931239d712","ios":"levelo://app?vid=5d9b6a4b-49ae-4c12-9c64-75931239d712"},"vehicle_type_id":"4","last_reported":1733580467,"current_range_meters":23200,"station_id":"","pricing_plan_id":"cebpf4jnsgd1na2vs0mg"},{"bike_id":"7b8d178d-5710-4340-b7c6-303d3a430f00","system_id":"levelo_inurba_marseille","lat":43.27998,"lon":5.41652,"is_reserved":false,"is_disabled":false,"rental_uris":{"android":"levelo://app?vid=7b8d178d-5710-4340-b7c6-303d3a430f00","ios":"levelo://app?vid=7b8d178d-5710-4340-b7c6-303d3a430f00"},"vehicle_type_id":"4","last_reported":1733580467,"current_range_meters":4800,"station_id":"ce4bho12rcd13ifvqh1g","pricing_plan_id":"cebpf4jnsgd1na2vs0mg"},{"bike_id":"f90f11ed-9729-4e45-8432-d32fecf1b6aa","system_id":"levelo_inurba_marseille","lat":43.23963,"lon":5.36634,"is_reserved":false,"is_disabled":false,"rental_uris":{"android":"levelo://app?vid=f90f11ed-9729-4e45-8432-d32fecf1b6aa","ios":"levelo://app?vid=f90f11ed-9729-4e45-8432-d32fecf1b6aa"},"vehicle_type_id":"4","last_reported":1733580467,"current_range_meters":27600,"station_id":"ce4bhi12rcd13ifvqfp0","pricing_plan_id":"cebpf4jnsgd1na2vs0mg"},{"bike_id":"deef5ee7-83de-42b8-84ba-cbc2ec811066","system_id":"levelo_inurba_marseille","lat":43.23187,"lon":5.3998,"is_reserved":false,"is_disabled":false,"rental_uris":{"android":"levelo://app?vid=deef5ee7-83de-42b8-84ba-cbc2ec811066","ios":"levelo://app?vid=deef5ee7-83de-42b8-84ba-cbc2ec811066"},"vehicle_type_id":"4","last_reported":1733580467,"current_range_meters":38000,"station_id":"ce4bhn12rcd13ifvqgqg","pricing_plan_id":"cebpf4jnsgd1na2vs0mg"},{"bike_id":"b6e7bce6-a42e-46ce-bc47-4cce5ec4ead4","system_id":"levelo_inurba_marseille","lat":43.2841,"lon":5.34987,"is_reserved":false,"is_disabled":false,"rental_uris":{"android":"levelo://app?vid=b6e7bce6-a42e-46ce-bc47-4cce5ec4ead4","ios":"levelo://app?vid=b6e7bce6-a42e-46ce-bc47-4cce5ec4ead4"},"vehicle_type_id":"4","last_reported":1733580467,"current_range_meters":37600,"station_id":"ce4bhbh2rcd13ifvqepg","pricing_plan_id":"cebpf4jnsgd1na2vs0mg"},{"bike_id":"1772d442-0d9a-4b58-a732-5035881204cf","system_id":"levelo_inurba_marseille","lat":43.28862,"lon":5.35844,"is_reserved":false,"is_disabled":false,"rental_uris":{"android":"levelo://app?vid=1772d442-0d9a-4b58-a732-5035881204cf","ios":"levelo://app?vid=1772d442-0d9a-4b58-a732-5035881204cf"},"vehicle_type_id":"4","last_reported":1733580467,"current_range_meters":18800,"station_id":"ce4bhb12rcd13ifvqem0","pricing_plan_id":"cebpf4jnsgd1na2vs0mg"},{"bike_id":"2a022814-f741-4adf-a235-83d4941bf5e2","system_id":"levelo_inurba_marseille","lat":43.28427,"lon":5.34994,"is_reserved":false,"is_disabled":false,"rental_uris":{"android":"levelo://app?vid=2a022814-f741-4adf-a235-83d4941bf5e2","ios":"levelo://app?vid=2a022814-f741-4adf-a235-83d4941bf5e2"},"vehicle_type_id":"4","last_reported":1733580467,"current_range_meters":17600,"station_id":"ce4bhbh2rcd13ifvqepg","pricing_plan_id":"cebpf4jnsgd1na2vs0mg"},{"bike_id":"4e7ec26a-f96c-4eb9-b4be-e5dfc792234f","system_id":"levelo_inurba_marseille","lat":43.27559,"lon":5.38417,"is_reserved":false,"is_disabled":false,"rental_uris":{"android":"levelo://app?vid=4e7ec26a-f96c-4eb9-b4be-e5dfc792234f","ios":"levelo://app?vid=4e7ec26a-f96c-4eb9-b4be-e5dfc792234f"},"vehicle_type_id":"4","last_reported":1733580467,"current_range_meters":29600,"station_id":"ce4bhh92rcd13ifvqfi0","pricing_plan_id":"cebpf4jnsgd1na2vs0mg"},{"bike_id":"8ad89d16-e9e4-4280-bb89-e122fb9216bf","system_id":"levelo_inurba_marseille","lat":43.29631,"lon":5.37724,"is_reserved":false,"is_disabled":false,"rental_uris":{"android":"levelo://app?vid=8ad89d16-e9e4-4280-bb89-e122fb9216bf","ios":"levelo://app?vid=8ad89d16-e9e4-4280-bb89-e122fb9216bf"},"vehicle_type_id":"4","last_reported":1733580467,"current_range_meters":33200,"station_id":"ce4bgi92rcd13ifvqb90","pricing_plan_id":"cebpf4jnsgd1na2vs0mg"},{"bike_id":"7529e488-3843-49a2-9e29-cbf9a68d5ef6","system_id":"levelo_inurba_marseille","lat":43.29959,"lon":5.41324,"is_reserved":false,"is_disabled":false,"rental_uris":{"android":"levelo://app?vid=7529e488-3843-49a2-9e29-cbf9a68d5ef6","ios":"levelo://app?vid=7529e488-3843-49a2-9e29-cbf9a68d5ef6"},"vehicle_type_id":"4","last_reported":1733580467,"current_range_meters":14400,"station_id":"ce4bhp12rcd13ifvqh9g","pricing_plan_id":"cebpf4jnsgd1na2vs0mg"},{"bike_id":"875e35b5-bae9-43c6-ab82-2dbb1d7017ca","system_id":"levelo_inurba_marseille","lat":43.23178,"lon":5.39986,"is_reserved":false,"is_disabled":false,"rental_uris":{"android":"levelo://app?vid=875e35b5-bae9-43c6-ab82-2dbb1d7017ca","ios":"levelo://app?vid=875e35b5-bae9-43c6-ab82-2dbb1d7017ca"},"vehicle_type_id":"4","last_reported":1733580467,"current_range_meters":24000,"station_id":"ce4bhn12rcd13ifvqgqg","pricing_plan_id":"cebpf4jnsgd1na2vs0mg"},{"bike_id":"987a5ab4-d60c-480c-94b6-7cab38975402","system_id":"levelo_inurba_marseille","lat":43.29748,"lon":5.37971,"is_reserved":false,"is_disabled":true,"rental_uris":{"android":"levelo://app?vid=987a5ab4-d60c-480c-94b6-7cab38975402","ios":"levelo://app?vid=987a5ab4-d60c-480c-94b6-7cab38975402"},"vehicle_type_id":"4","last_reported":1733580467,"current_range_meters":0,"station_id":"","pricing_plan_id":"cebpf4jnsgd1na2vs0mg"},{"bike_id":"44e8495d-e125-49e8-91c1-6cf717bd5344","system_id":"levelo_inurba_marseille","lat":43.29001,"lon":5.3561,"is_reserved":false,"is_disabled":false,"rental_uris":{"android":"levelo://app?vid=44e8495d-e125-49e8-91c1-6cf717bd5344","ios":"levelo://app?vid=44e8495d-e125-49e8-91c1-6cf717bd5344"},"vehicle_type_id":"4","last_reported":1733580467,"current_range_meters":29600,"station_id":"ce4bhb92rcd13ifvqen0","pricing_plan_id":"cebpf4jnsgd1na2vs0mg"},{"bike_id":"dd4d8f16-8b33-4354-8e35-4b1ba2ae6089","system_id":"levelo_inurba_marseille","lat":43.25726,"lon":5.4111,"is_reserved":false,"is_disabled":true,"rental_uris":{"android":"levelo://app?vid=dd4d8f16-8b33-4354-8e35-4b1ba2ae6089","ios":"levelo://app?vid=dd4d8f16-8b33-4354-8e35-4b1ba2ae6089"},"vehicle_type_id":"4","last_reported":1733580467,"current_range_meters":0,"station_id":"ce4bhkp2rcd13ifvqgd0","pricing_plan_id":"cebpf4jnsgd1na2vs0mg"},{"bike_id":"e4ba6ddf-afc7-489b-b78e-be69962dd27c","system_id":"levelo_inurba_marseille","lat":43.30514,"lon":5.36533,"is_reserved":false,"is_disabled":false,"rental_uris":{"android":"levelo://app?vid=e4ba6ddf-afc7-489b-b78e-be69962dd27c","ios":"levelo://app?vid=e4ba6ddf-afc7-489b-b78e-be69962dd27c"},"vehicle_type_id":"4","last_reported":1733580467,"current_range_meters":37600,"station_id":"","pricing_plan_id":"cebpf4jnsgd1na2vs0mg"},{"bike_id":"fc3939ab-b0ed-465d-802a-a125406579c6","system_id":"levelo_inurba_marseille","lat":43.31325,"lon":5.36727,"is_reserved":false,"is_disabled":false,"rental_uris":{"android":"levelo://app?vid=fc3939ab-b0ed-465d-802a-a125406579c6","ios":"levelo://app?vid=fc3939ab-b0ed-465d-802a-a125406579c6"},"vehicle_type_id":"4","last_reported":1733580467,"current_range_meters":16000,"station_id":"ce4bgr92rcd13ifvqc6g","pricing_plan_id":"cebpf4jnsgd1na2vs0mg"},{"bike_id":"53c6c3d3-42c4-451f-9207-7ca176099773","system_id":"levelo_inurba_marseille","lat":43.27207,"lon":5.39194,"is_reserved":false,"is_disabled":false,"rental_uris":{"android":"levelo://app?vid=53c6c3d3-42c4-451f-9207-7ca176099773","ios":"levelo://app?vid=53c6c3d3-42c4-451f-9207-7ca176099773"},"vehicle_type_id":"4","last_reported":1733580467,"current_range_meters":36800,"station_id":"ce4bhhp2rcd13ifvqfm0","pricing_plan_id":"cebpf4jnsgd1na2vs0mg"},{"bike_id":"11e86528-eb6b-4391-86a5-9b1822d069a4","system_id":"levelo_inurba_marseille","lat":43.278805,"lon":5.388003,"is_reserved":false,"is_disabled":true,"rental_uris":{"android":"levelo://app?vid=11e86528-eb6b-4391-86a5-9b1822d069a4","ios":"levelo://app?vid=11e86528-eb6b-4391-86a5-9b1822d069a4"},"vehicle_type_id":"4","last_reported":1733580467,"current_range_meters":800,"station_id":"","pricing_plan_id":"cebpf4jnsgd1na2vs0mg"},{"bike_id":"6cc6805f-c0ca-4585-bdf1-b5a0339762b0","system_id":"levelo_inurba_marseille","lat":43.29027,"lon":5.42744,"is_reserved":false,"is_disabled":true,"rental_uris":{"android":"levelo://app?vid=6cc6805f-c0ca-4585-bdf1-b5a0339762b0","ios":"levelo://app?vid=6cc6805f-c0ca-4585-bdf1-b5a0339762b0"},"vehicle_type_id":"4","last_reported":1733580467,"current_range_meters":0,"station_id":"","pricing_plan_id":"cebpf4jnsgd1na2vs0mg"},{"bike_id":"fbab0e01-40cc-4eff-939a-d9a8fdd7ac42","system_id":"levelo_inurba_marseille","lat":43.25727,"lon":5.41108,"is_reserved":false,"is_disabled":false,"rental_uris":{"android":"levelo://app?vid=fbab0e01-40cc-4eff-939a-d9a8fdd7ac42","ios":"levelo://app?vid=fbab0e01-40cc-4eff-939a-d9a8fdd7ac42"},"vehicle_type_id":"4","last_reported":1733580467,"current_range_meters":24400,"station_id":"ce4bhkp2rcd13ifvqgd0","pricing_plan_id":"cebpf4jnsgd1na2vs0mg"},{"bike_id":"4e6fc26f-c1d5-4d84-ac5b-7d384b8c30d5","system_id":"levelo_inurba_marseille","lat":43.32361,"lon":5.36778,"is_reserved":false,"is_disabled":false,"rental_uris":{"android":"levelo://app?vid=4e6fc26f-c1d5-4d84-ac5b-7d384b8c30d5","ios":"levelo://app?vid=4e6fc26f-c1d5-4d84-ac5b-7d384b8c30d5"},"vehicle_type_id":"4","last_reported":1733580467,"current_range_meters":36000,"station_id":"ce4bhsh2rcd13ifvqi2g","pricing_plan_id":"cebpf4jnsgd1na2vs0mg"},{"bike_id":"406f6b76-2cde-488f-ad0e-d02e5f42c7d0","system_id":"levelo_inurba_marseille","lat":43.295361,"lon":5.374955,"is_reserved":false,"is_disabled":false,"rental_uris":{"android":"levelo://app?vid=406f6b76-2cde-488f-ad0e-d02e5f42c7d0","ios":"levelo://app?vid=406f6b76-2cde-488f-ad0e-d02e5f42c7d0"},"vehicle_type_id":"4","last_reported":1733580467,"current_range_meters":28000,"station_id":"ce4bgkp2rcd13ifvqbmg","pricing_plan_id":"cebpf4jnsgd1na2vs0mg"},{"bike_id":"86ca563d-b601-41d3-9cf7-5d0b3d3bcdcd","system_id":"levelo_inurba_marseille","lat":43.29963,"lon":5.3849,"is_reserved":false,"is_disabled":true,"rental_uris":{"android":"levelo://app?vid=86ca563d-b601-41d3-9cf7-5d0b3d3bcdcd","ios":"levelo://app?vid=86ca563d-b601-41d3-9cf7-5d0b3d3bcdcd"},"vehicle_type_id":"4","last_reported":1733580467,"current_range_meters":400,"station_id":"ce4bgj92rcd13ifvqbd0","pricing_plan_id":"cebpf4jnsgd1na2vs0mg"},{"bike_id":"d660403f-446f-4417-91d5-569b837788af","system_id":"levelo_inurba_marseille","lat":43.2705,"lon":5.40265,"is_reserved":false,"is_disabled":false,"rental_uris":{"android":"levelo://app?vid=d660403f-446f-4417-91d5-569b837788af","ios":"levelo://app?vid=d660403f-446f-4417-91d5-569b837788af"},"vehicle_type_id":"4","last_reported":1733580467,"current_range_meters":24800,"station_id":"ce4bhk92rcd13ifvqgc0","pricing_plan_id":"cebpf4jnsgd1na2vs0mg"},{"bike_id":"c1666cb6-474b-4034-8c44-3aa5a2d5b1af","system_id":"levelo_inurba_marseille","lat":43.30614,"lon":5.3722,"is_reserved":false,"is_disabled":false,"rental_uris":{"android":"levelo://app?vid=c1666cb6-474b-4034-8c44-3aa5a2d5b1af","ios":"levelo://app?vid=c1666cb6-474b-4034-8c44-3aa5a2d5b1af"},"vehicle_type_id":"4","last_reported":1733580467,"current_range_meters":36400,"station_id":"ce4bgqh2rcd13ifvqc4g","pricing_plan_id":"cebpf4jnsgd1na2vs0mg"},{"bike_id":"8a146c64-d19e-4e0a-9cd4-1bb5662f0e19","system_id":"levelo_inurba_marseille","lat":43.23967,"lon":5.36627,"is_reserved":false,"is_disabled":false,"rental_uris":{"android":"levelo://app?vid=8a146c64-d19e-4e0a-9cd4-1bb5662f0e19","ios":"levelo://app?vid=8a146c64-d19e-4e0a-9cd4-1bb5662f0e19"},"vehicle_type_id":"4","last_reported":1733580467,"current_range_meters":38800,"station_id":"ce4bhi12rcd13ifvqfp0","pricing_plan_id":"cebpf4jnsgd1na2vs0mg"},{"bike_id":"9d279d6e-d4e3-4348-985c-330646d4ed74","system_id":"levelo_inurba_marseille","lat":43.32054,"lon":5.41563,"is_reserved":false,"is_disabled":false,"rental_uris":{"android":"levelo://app?vid=9d279d6e-d4e3-4348-985c-330646d4ed74","ios":"levelo://app?vid=9d279d6e-d4e3-4348-985c-330646d4ed74"},"vehicle_type_id":"4","last_reported":1733580467,"current_range_meters":39200,"station_id":"ce4bhq92rcd13ifvqhkg","pricing_plan_id":"cebpf4jnsgd1na2vs0mg"},{"bike_id":"0584dd25-0e81-4385-ab38-bd8df416eee2","system_id":"levelo_inurba_marseille","lat":43.286102,"lon":5.3511,"is_reserved":false,"is_disabled":false,"rental_uris":{"android":"levelo://app?vid=0584dd25-0e81-4385-ab38-bd8df416eee2","ios":"levelo://app?vid=0584dd25-0e81-4385-ab38-bd8df416eee2"},"vehicle_type_id":"4","last_reported":1733580467,"current_range_meters":26800,"station_id":"ce4bhch2rcd13ifvqeug","pricing_plan_id":"cebpf4jnsgd1na2vs0mg"},{"bike_id":"3a1cabfd-7ea0-40e5-ba2a-bc16f7acb1fa","system_id":"levelo_inurba_marseille","lat":43.34328,"lon":5.35817,"is_reserved":false,"is_disabled":true,"rental_uris":{"android":"levelo://app?vid=3a1cabfd-7ea0-40e5-ba2a-bc16f7acb1fa","ios":"levelo://app?vid=3a1cabfd-7ea0-40e5-ba2a-bc16f7acb1fa"},"vehicle_type_id":"4","last_reported":1733580467,"current_range_meters":6800,"station_id":"","pricing_plan_id":"cebpf4jnsgd1na2vs0mg"},{"bike_id":"9d137905-6de0-4abc-bfa4-9ac64683ad80","system_id":"levelo_inurba_marseille","lat":43.27053,"lon":5.40265,"is_reserved":false,"is_disabled":false,"rental_uris":{"android":"levelo://app?vid=9d137905-6de0-4abc-bfa4-9ac64683ad80","ios":"levelo://app?vid=9d137905-6de0-4abc-bfa4-9ac64683ad80"},"vehicle_type_id":"4","last_reported":1733580467,"current_range_meters":38400,"station_id":"ce4bhk92rcd13ifvqgc0","pricing_plan_id":"cebpf4jnsgd1na2vs0mg"},{"bike_id":"5060997b-0122-4e26-84ce-a996c7e6c032","system_id":"levelo_inurba_marseille","lat":43.27373,"lon":5.36261,"is_reserved":false,"is_disabled":false,"rental_uris":{"android":"levelo://app?vid=5060997b-0122-4e26-84ce-a996c7e6c032","ios":"levelo://app?vid=5060997b-0122-4e26-84ce-a996c7e6c032"},"vehicle_type_id":"4","last_reported":1733580467,"current_range_meters":28800,"station_id":"ce4bhbh2rcd13ifvqeo0","pricing_plan_id":"cebpf4jnsgd1na2vs0mg"},{"bike_id":"f4638ec0-2ba9-4062-afe0-3b7c38ecbef4","system_id":"levelo_inurba_marseille","lat":43.2439,"lon":5.37066,"is_reserved":false,"is_disabled":false,"rental_uris":{"android":"levelo://app?vid=f4638ec0-2ba9-4062-afe0-3b7c38ecbef4","ios":"levelo://app?vid=f4638ec0-2ba9-4062-afe0-3b7c38ecbef4"},"vehicle_type_id":"4","last_reported":1733580467,"current_range_meters":38800,"station_id":"ce4bhhh2rcd13ifvqfk0","pricing_plan_id":"cebpf4jnsgd1na2vs0mg"},{"bike_id":"0e8bde90-0770-4ce6-9d21-22431a947c03","system_id":"levelo_inurba_marseille","lat":43.29684,"lon":5.37296,"is_reserved":false,"is_disabled":false,"rental_uris":{"android":"levelo://app?vid=0e8bde90-0770-4ce6-9d21-22431a947c03","ios":"levelo://app?vid=0e8bde90-0770-4ce6-9d21-22431a947c03"},"vehicle_type_id":"4","last_reported":1733580467,"current_range_meters":38000,"station_id":"ce4bgk12rcd13ifvqbj0","pricing_plan_id":"cebpf4jnsgd1na2vs0mg"},{"bike_id":"2aa90bcc-31a3-43db-8541-22f6e2e8fc2b","system_id":"levelo_inurba_marseille","lat":43.29622,"lon":5.37728,"is_reserved":false,"is_disabled":false,"rental_uris":{"android":"levelo://app?vid=2aa90bcc-31a3-43db-8541-22f6e2e8fc2b","ios":"levelo://app?vid=2aa90bcc-31a3-43db-8541-22f6e2e8fc2b"},"vehicle_type_id":"4","last_reported":1733580467,"current_range_meters":38800,"station_id":"ce4bgi92rcd13ifvqb90","pricing_plan_id":"cebpf4jnsgd1na2vs0mg"},{"bike_id":"b37c0fa4-1036-407d-8c8b-1b7ebef3727c","system_id":"levelo_inurba_marseille","lat":43.2953,"lon":5.39396,"is_reserved":false,"is_disabled":false,"rental_uris":{"android":"levelo://app?vid=b37c0fa4-1036-407d-8c8b-1b7ebef3727c","ios":"levelo://app?vid=b37c0fa4-1036-407d-8c8b-1b7ebef3727c"},"vehicle_type_id":"4","last_reported":1733580467,"current_range_meters":31200,"station_id":"ce4bh292rcd13ifvqdf0","pricing_plan_id":"cebpf4jnsgd1na2vs0mg"},{"bike_id":"5d3d743b-c956-46d6-89b9-755ed55eefcb","system_id":"levelo_inurba_marseille","lat":43.32048,"lon":5.41573,"is_reserved":false,"is_disabled":false,"rental_uris":{"android":"levelo://app?vid=5d3d743b-c956-46d6-89b9-755ed55eefcb","ios":"levelo://app?vid=5d3d743b-c956-46d6-89b9-755ed55eefcb"},"vehicle_type_id":"4","last_reported":1733580467,"current_range_meters":38800,"station_id":"ce4bhq92rcd13ifvqhkg","pricing_plan_id":"cebpf4jnsgd1na2vs0mg"},{"bike_id":"fd8a14e9-71dc-40e1-87c7-5a9df0c904f6","system_id":"levelo_inurba_marseille","lat":43.29898,"lon":5.43671,"is_reserved":false,"is_disabled":false,"rental_uris":{"android":"levelo://app?vid=fd8a14e9-71dc-40e1-87c7-5a9df0c904f6","ios":"levelo://app?vid=fd8a14e9-71dc-40e1-87c7-5a9df0c904f6"},"vehicle_type_id":"4","last_reported":1733580467,"current_range_meters":11600,"station_id":"ce4bhpp2rcd13ifvqhfg","pricing_plan_id":"cebpf4jnsgd1na2vs0mg"},{"bike_id":"784e5399-c899-45a9-85be-ce0937c7e5ec","system_id":"levelo_inurba_marseille","lat":43.29536,"lon":5.3939,"is_reserved":false,"is_disabled":false,"rental_uris":{"android":"levelo://app?vid=784e5399-c899-45a9-85be-ce0937c7e5ec","ios":"levelo://app?vid=784e5399-c899-45a9-85be-ce0937c7e5ec"},"vehicle_type_id":"4","last_reported":1733580467,"current_range_meters":38400,"station_id":"","pricing_plan_id":"cebpf4jnsgd1na2vs0mg"},{"bike_id":"1cc94257-b186-48ee-af73-1b2e836d768d","system_id":"levelo_inurba_marseille","lat":43.28048,"lon":5.36956,"is_reserved":false,"is_disabled":false,"rental_uris":{"android":"levelo://app?vid=1cc94257-b186-48ee-af73-1b2e836d768d","ios":"levelo://app?vid=1cc94257-b186-48ee-af73-1b2e836d768d"},"vehicle_type_id":"4","last_reported":1733580467,"current_range_meters":33200,"station_id":"ce4bha12rcd13ifvqef0","pricing_plan_id":"cebpf4jnsgd1na2vs0mg"},{"bike_id":"83985555-c848-4b28-808f-8a7e7cf8519e","system_id":"levelo_inurba_marseille","lat":43.28115,"lon":5.43955,"is_reserved":false,"is_disabled":true,"rental_uris":{"android":"levelo://app?vid=83985555-c848-4b28-808f-8a7e7cf8519e","ios":"levelo://app?vid=83985555-c848-4b28-808f-8a7e7cf8519e"},"vehicle_type_id":"4","last_reported":1733580467,"current_range_meters":0,"station_id":"","pricing_plan_id":"cebpf4jnsgd1na2vs0mg"},{"bike_id":"41093b2c-be93-41e9-85be-4c5f05d7db6c","system_id":"levelo_inurba_marseille","lat":43.29708,"lon":5.36607,"is_reserved":false,"is_disabled":false,"rental_uris":{"android":"levelo://app?vid=41093b2c-be93-41e9-85be-4c5f05d7db6c","ios":"levelo://app?vid=41093b2c-be93-41e9-85be-4c5f05d7db6c"},"vehicle_type_id":"4","last_reported":1733580467,"current_range_meters":35600,"station_id":"ce4bgn12rcd13ifvqbt0","pricing_plan_id":"cebpf4jnsgd1na2vs0mg"},{"bike_id":"84eddd35-4076-462c-b0e4-9c17c748aeff","system_id":"levelo_inurba_marseille","lat":43.33771,"lon":5.37491,"is_reserved":false,"is_disabled":false,"rental_uris":{"android":"levelo://app?vid=84eddd35-4076-462c-b0e4-9c17c748aeff","ios":"levelo://app?vid=84eddd35-4076-462c-b0e4-9c17c748aeff"},"vehicle_type_id":"4","last_reported":1733580467,"current_range_meters":18800,"station_id":"","pricing_plan_id":"cebpf4jnsgd1na2vs0mg"},{"bike_id":"31cddf14-1369-4114-b8f9-989c80a82d66","system_id":"levelo_inurba_marseille","lat":43.31265,"lon":5.40161,"is_reserved":false,"is_disabled":false,"rental_uris":{"android":"levelo://app?vid=31cddf14-1369-4114-b8f9-989c80a82d66","ios":"levelo://app?vid=31cddf14-1369-4114-b8f9-989c80a82d66"},"vehicle_type_id":"4","last_reported":1733580467,"current_range_meters":23200,"station_id":"ce4bh092rcd13ifvqd30","pricing_plan_id":"cebpf4jnsgd1na2vs0mg"},{"bike_id":"e4a4b4bd-c0cd-4b2b-a441-8e092f1ceba6","system_id":"levelo_inurba_marseille","lat":43.31689,"lon":5.40469,"is_reserved":false,"is_disabled":false,"rental_uris":{"android":"levelo://app?vid=e4a4b4bd-c0cd-4b2b-a441-8e092f1ceba6","ios":"levelo://app?vid=e4a4b4bd-c0cd-4b2b-a441-8e092f1ceba6"},"vehicle_type_id":"4","last_reported":1733580467,"current_range_meters":27200,"station_id":"ce4bh012rcd13ifvqd00","pricing_plan_id":"cebpf4jnsgd1na2vs0mg"},{"bike_id":"dda9945f-87f9-4023-8a16-9f39cb50240d","system_id":"levelo_inurba_marseille","lat":43.32661,"lon":5.40998,"is_reserved":false,"is_disabled":false,"rental_uris":{"android":"levelo://app?vid=dda9945f-87f9-4023-8a16-9f39cb50240d","ios":"levelo://app?vid=dda9945f-87f9-4023-8a16-9f39cb50240d"},"vehicle_type_id":"4","last_reported":1733580467,"current_range_meters":38800,"station_id":"ce4bhpp2rcd13ifvqhgg","pricing_plan_id":"cebpf4jnsgd1na2vs0mg"},{"bike_id":"9ecf6cbe-b18e-4738-99ca-aefcfa53f4eb","system_id":"levelo_inurba_marseille","lat":43.24074,"lon":5.37753,"is_reserved":false,"is_disabled":false,"rental_uris":{"android":"levelo://app?vid=9ecf6cbe-b18e-4738-99ca-aefcfa53f4eb","ios":"levelo://app?vid=9ecf6cbe-b18e-4738-99ca-aefcfa53f4eb"},"vehicle_type_id":"4","last_reported":1733580467,"current_range_meters":11200,"station_id":"ce4bhnp2rcd13ifvqgvg","pricing_plan_id":"cebpf4jnsgd1na2vs0mg"},{"bike_id":"8ae02248-2bad-4dda-b94a-154bbbb1d692","system_id":"levelo_inurba_marseille","lat":43.29613,"lon":5.37734,"is_reserved":false,"is_disabled":false,"rental_uris":{"android":"levelo://app?vid=8ae02248-2bad-4dda-b94a-154bbbb1d692","ios":"levelo://app?vid=8ae02248-2bad-4dda-b94a-154bbbb1d692"},"vehicle_type_id":"4","last_reported":1733580467,"current_range_meters":38800,"station_id":"ce4bgi92rcd13ifvqb90","pricing_plan_id":"cebpf4jnsgd1na2vs0mg"},{"bike_id":"62dd080d-bf9a-4bc6-b651-cec50a1a2dd6","system_id":"levelo_inurba_marseille","lat":43.30547,"lon":5.36531,"is_reserved":false,"is_disabled":false,"rental_uris":{"android":"levelo://app?vid=62dd080d-bf9a-4bc6-b651-cec50a1a2dd6","ios":"levelo://app?vid=62dd080d-bf9a-4bc6-b651-cec50a1a2dd6"},"vehicle_type_id":"4","last_reported":1733580467,"current_range_meters":13600,"station_id":"ce4bgs12rcd13ifvqcag","pricing_plan_id":"cebpf4jnsgd1na2vs0mg"},{"bike_id":"1e02b462-1875-4d66-9199-b04e9a5a6a60","system_id":"levelo_inurba_marseille","lat":43.32037,"lon":5.41552,"is_reserved":false,"is_disabled":false,"rental_uris":{"android":"levelo://app?vid=1e02b462-1875-4d66-9199-b04e9a5a6a60","ios":"levelo://app?vid=1e02b462-1875-4d66-9199-b04e9a5a6a60"},"vehicle_type_id":"4","last_reported":1733580467,"current_range_meters":36800,"station_id":"ce4bhq92rcd13ifvqhkg","pricing_plan_id":"cebpf4jnsgd1na2vs0mg"},{"bike_id":"5687e068-69cc-4397-b6fb-a40653dbd395","system_id":"levelo_inurba_marseille","lat":43.31752,"lon":5.39029,"is_reserved":false,"is_disabled":false,"rental_uris":{"android":"levelo://app?vid=5687e068-69cc-4397-b6fb-a40653dbd395","ios":"levelo://app?vid=5687e068-69cc-4397-b6fb-a40653dbd395"},"vehicle_type_id":"4","last_reported":1733580467,"current_range_meters":38800,"station_id":"ce4bhqp2rcd13ifvqhng","pricing_plan_id":"cebpf4jnsgd1na2vs0mg"},{"bike_id":"a8264fb2-dad4-4c52-9230-cf80b47302d6","system_id":"levelo_inurba_marseille","lat":43.31996,"lon":5.38158,"is_reserved":false,"is_disabled":false,"rental_uris":{"android":"levelo://app?vid=a8264fb2-dad4-4c52-9230-cf80b47302d6","ios":"levelo://app?vid=a8264fb2-dad4-4c52-9230-cf80b47302d6"},"vehicle_type_id":"4","last_reported":1733580467,"current_range_meters":8400,"station_id":"ce4bhr12rcd13ifvqhpg","pricing_plan_id":"cebpf4jnsgd1na2vs0mg"},{"bike_id":"5edf82fa-e9d0-4d1f-98f1-37c98092771a","system_id":"levelo_inurba_marseille","lat":43.23191,"lon":5.35552,"is_reserved":false,"is_disabled":false,"rental_uris":{"android":"levelo://app?vid=5edf82fa-e9d0-4d1f-98f1-37c98092771a","ios":"levelo://app?vid=5edf82fa-e9d0-4d1f-98f1-37c98092771a"},"vehicle_type_id":"4","last_reported":1733580467,"current_range_meters":39200,"station_id":"ce4bhu92rcd13ifvqi70","pricing_plan_id":"cebpf4jnsgd1na2vs0mg"},{"bike_id":"0186d3c9-059d-4a42-bdb8-b7039e411226","system_id":"levelo_inurba_marseille","lat":43.30138,"lon":5.39844,"is_reserved":false,"is_disabled":false,"rental_uris":{"android":"levelo://app?vid=0186d3c9-059d-4a42-bdb8-b7039e411226","ios":"levelo://app?vid=0186d3c9-059d-4a42-bdb8-b7039e411226"},"vehicle_type_id":"4","last_reported":1733580467,"current_range_meters":30400,"station_id":"ce4bh0h2rcd13ifvqd40","pricing_plan_id":"cebpf4jnsgd1na2vs0mg"},{"bike_id":"cb4a9db6-7563-4a33-a955-6eb0af1f7b34","system_id":"levelo_inurba_marseille","lat":43.28154,"lon":5.42631,"is_reserved":false,"is_disabled":false,"rental_uris":{"android":"levelo://app?vid=cb4a9db6-7563-4a33-a955-6eb0af1f7b34","ios":"levelo://app?vid=cb4a9db6-7563-4a33-a955-6eb0af1f7b34"},"vehicle_type_id":"4","last_reported":1733580467,"current_range_meters":36800,"station_id":"ce4bhnh2rcd13ifvqgug","pricing_plan_id":"cebpf4jnsgd1na2vs0mg"},{"bike_id":"3afcb54a-b8a5-40bb-8ae8-ddf1f47b8268","system_id":"levelo_inurba_marseille","lat":43.3053,"lon":5.38437,"is_reserved":false,"is_disabled":true,"rental_uris":{"android":"levelo://app?vid=3afcb54a-b8a5-40bb-8ae8-ddf1f47b8268","ios":"levelo://app?vid=3afcb54a-b8a5-40bb-8ae8-ddf1f47b8268"},"vehicle_type_id":"4","last_reported":1733580467,"current_range_meters":36400,"station_id":"ce4bgg92rcd13ifvqb30","pricing_plan_id":"cebpf4jnsgd1na2vs0mg"},{"bike_id":"d255db1c-cf27-4219-9a90-eed6e74c1b70","system_id":"levelo_inurba_marseille","lat":43.32286,"lon":5.38286,"is_reserved":false,"is_disabled":false,"rental_uris":{"android":"levelo://app?vid=d255db1c-cf27-4219-9a90-eed6e74c1b70","ios":"levelo://app?vid=d255db1c-cf27-4219-9a90-eed6e74c1b70"},"vehicle_type_id":"4","last_reported":1733580467,"current_range_meters":34000,"station_id":"ce4bhr12rcd13ifvqhqg","pricing_plan_id":"cebpf4jnsgd1na2vs0mg"},{"bike_id":"a76f0499-0af6-402b-8f9f-ddd78320a7b4","system_id":"levelo_inurba_marseille","lat":43.30461,"lon":5.37915,"is_reserved":false,"is_disabled":false,"rental_uris":{"android":"levelo://app?vid=a76f0499-0af6-402b-8f9f-ddd78320a7b4","ios":"levelo://app?vid=a76f0499-0af6-402b-8f9f-ddd78320a7b4"},"vehicle_type_id":"4","last_reported":1733580467,"current_range_meters":38800,"station_id":"ce4bgup2rcd13ifvqcn0","pricing_plan_id":"cebpf4jnsgd1na2vs0mg"},{"bike_id":"83319820-ad4f-4208-bf65-c9fc431b1a4c","system_id":"levelo_inurba_marseille","lat":43.25829,"lon":5.3944,"is_reserved":false,"is_disabled":false,"rental_uris":{"android":"levelo://app?vid=83319820-ad4f-4208-bf65-c9fc431b1a4c","ios":"levelo://app?vid=83319820-ad4f-4208-bf65-c9fc431b1a4c"},"vehicle_type_id":"4","last_reported":1733580467,"current_range_meters":34000,"station_id":"ce4bhip2rcd13ifvqft0","pricing_plan_id":"cebpf4jnsgd1na2vs0mg"},{"bike_id":"d9444383-294b-430b-b1d6-5eef4cceb559","system_id":"levelo_inurba_marseille","lat":43.2558,"lon":5.38229,"is_reserved":false,"is_disabled":false,"rental_uris":{"android":"levelo://app?vid=d9444383-294b-430b-b1d6-5eef4cceb559","ios":"levelo://app?vid=d9444383-294b-430b-b1d6-5eef4cceb559"},"vehicle_type_id":"4","last_reported":1733580467,"current_range_meters":29600,"station_id":"ce4bhih2rcd13ifvqfs0","pricing_plan_id":"cebpf4jnsgd1na2vs0mg"},{"bike_id":"9c2d089d-e580-464c-a254-a84d0c5baff8","system_id":"levelo_inurba_marseille","lat":43.25866,"lon":5.399,"is_reserved":false,"is_disabled":false,"rental_uris":{"android":"levelo://app?vid=9c2d089d-e580-464c-a254-a84d0c5baff8","ios":"levelo://app?vid=9c2d089d-e580-464c-a254-a84d0c5baff8"},"vehicle_type_id":"4","last_reported":1733580467,"current_range_meters":38800,"station_id":"ce4bhl92rcd13ifvqghg","pricing_plan_id":"cebpf4jnsgd1na2vs0mg"},{"bike_id":"0694b84b-212e-4e3c-9092-6e213a66ec49","system_id":"levelo_inurba_marseille","lat":43.23064,"lon":5.35487,"is_reserved":false,"is_disabled":false,"rental_uris":{"android":"levelo://app?vid=0694b84b-212e-4e3c-9092-6e213a66ec49","ios":"levelo://app?vid=0694b84b-212e-4e3c-9092-6e213a66ec49"},"vehicle_type_id":"4","last_reported":1733580467,"current_range_meters":11200,"station_id":"cpo3342slgdg3j2ifvpg","pricing_plan_id":"cebpf4jnsgd1na2vs0mg"},{"bike_id":"05b326f9-75dc-47d1-aec8-fe6e3f7464e6","system_id":"levelo_inurba_marseille","lat":43.30142,"lon":5.37415,"is_reserved":false,"is_disabled":false,"rental_uris":{"android":"levelo://app?vid=05b326f9-75dc-47d1-aec8-fe6e3f7464e6","ios":"levelo://app?vid=05b326f9-75dc-47d1-aec8-fe6e3f7464e6"},"vehicle_type_id":"4","last_reported":1733580467,"current_range_meters":38800,"station_id":"ce4bgs92rcd13ifvqcc0","pricing_plan_id":"cebpf4jnsgd1na2vs0mg"},{"bike_id":"4e284cc7-651d-4090-8ed9-06c3097c8e45","system_id":"levelo_inurba_marseille","lat":43.24062,"lon":5.37764,"is_reserved":false,"is_disabled":true,"rental_uris":{"android":"levelo://app?vid=4e284cc7-651d-4090-8ed9-06c3097c8e45","ios":"levelo://app?vid=4e284cc7-651d-4090-8ed9-06c3097c8e45"},"vehicle_type_id":"4","last_reported":1733580467,"current_range_meters":400,"station_id":"ce4bhnp2rcd13ifvqgvg","pricing_plan_id":"cebpf4jnsgd1na2vs0mg"},{"bike_id":"1181933f-490e-47f8-8a58-5c99d81e7f34","system_id":"levelo_inurba_marseille","lat":43.30232,"lon":5.39475,"is_reserved":false,"is_disabled":false,"rental_uris":{"android":"levelo://app?vid=1181933f-490e-47f8-8a58-5c99d81e7f34","ios":"levelo://app?vid=1181933f-490e-47f8-8a58-5c99d81e7f34"},"vehicle_type_id":"4","last_reported":1733580467,"current_range_meters":33200,"station_id":"ce4bh0p2rcd13ifvqd70","pricing_plan_id":"cebpf4jnsgd1na2vs0mg"},{"bike_id":"fc54c567-a604-481e-a03d-e0dba9d78cb5","system_id":"levelo_inurba_marseille","lat":43.30141,"lon":5.39854,"is_reserved":false,"is_disabled":false,"rental_uris":{"android":"levelo://app?vid=fc54c567-a604-481e-a03d-e0dba9d78cb5","ios":"levelo://app?vid=fc54c567-a604-481e-a03d-e0dba9d78cb5"},"vehicle_type_id":"4","last_reported":1733580467,"current_range_meters":31200,"station_id":"ce4bh0h2rcd13ifvqd40","pricing_plan_id":"cebpf4jnsgd1na2vs0mg"},{"bike_id":"0deb7b46-3bee-4382-87b1-3984fb62457f","system_id":"levelo_inurba_marseille","lat":43.287467,"lon":5.3891,"is_reserved":false,"is_disabled":true,"rental_uris":{"android":"levelo://app?vid=0deb7b46-3bee-4382-87b1-3984fb62457f","ios":"levelo://app?vid=0deb7b46-3bee-4382-87b1-3984fb62457f"},"vehicle_type_id":"4","last_reported":1733580467,"current_range_meters":26800,"station_id":"","pricing_plan_id":"cebpf4jnsgd1na2vs0mg"},{"bike_id":"93bffbc9-4acc-401d-ab21-e04e1b6297b6","system_id":"levelo_inurba_marseille","lat":43.27207,"lon":5.39188,"is_reserved":false,"is_disabled":false,"rental_uris":{"android":"levelo://app?vid=93bffbc9-4acc-401d-ab21-e04e1b6297b6","ios":"levelo://app?vid=93bffbc9-4acc-401d-ab21-e04e1b6297b6"},"vehicle_type_id":"4","last_reported":1733580467,"current_range_meters":19600,"station_id":"ce4bhhp2rcd13ifvqfm0","pricing_plan_id":"cebpf4jnsgd1na2vs0mg"},{"bike_id":"34e4ec9e-c4f9-468e-a03a-5c740580d924","system_id":"levelo_inurba_marseille","lat":43.28267,"lon":5.35067,"is_reserved":false,"is_disabled":false,"rental_uris":{"android":"levelo://app?vid=34e4ec9e-c4f9-468e-a03a-5c740580d924","ios":"levelo://app?vid=34e4ec9e-c4f9-468e-a03a-5c740580d924"},"vehicle_type_id":"4","last_reported":1733580467,"current_range_meters":33600,"station_id":"ce4bhbp2rcd13ifvqerg","pricing_plan_id":"cebpf4jnsgd1na2vs0mg"},{"bike_id":"5460e245-8621-4d83-bd98-c21b0b296c70","system_id":"levelo_inurba_marseille","lat":43.24386,"lon":5.37058,"is_reserved":false,"is_disabled":false,"rental_uris":{"android":"levelo://app?vid=5460e245-8621-4d83-bd98-c21b0b296c70","ios":"levelo://app?vid=5460e245-8621-4d83-bd98-c21b0b296c70"},"vehicle_type_id":"4","last_reported":1733580467,"current_range_meters":37600,"station_id":"ce4bhhh2rcd13ifvqfk0","pricing_plan_id":"cebpf4jnsgd1na2vs0mg"},{"bike_id":"b161de57-7648-4728-b2db-3754e6858c96","system_id":"levelo_inurba_marseille","lat":43.27813,"lon":5.38324,"is_reserved":false,"is_disabled":false,"rental_uris":{"android":"levelo://app?vid=b161de57-7648-4728-b2db-3754e6858c96","ios":"levelo://app?vid=b161de57-7648-4728-b2db-3754e6858c96"},"vehicle_type_id":"4","last_reported":1733580467,"current_range_meters":36400,"station_id":"ce4bhh92rcd13ifvqfi0","pricing_plan_id":"cebpf4jnsgd1na2vs0mg"},{"bike_id":"07b8c281-3be1-46fd-bf35-bd455797c16c","system_id":"levelo_inurba_marseille","lat":43.23197,"lon":5.3555,"is_reserved":false,"is_disabled":false,"rental_uris":{"android":"levelo://app?vid=07b8c281-3be1-46fd-bf35-bd455797c16c","ios":"levelo://app?vid=07b8c281-3be1-46fd-bf35-bd455797c16c"},"vehicle_type_id":"4","last_reported":1733580467,"current_range_meters":30800,"station_id":"ce4bhu92rcd13ifvqi70","pricing_plan_id":"cebpf4jnsgd1na2vs0mg"},{"bike_id":"3831fe11-698a-4302-89cd-ea39a2583346","system_id":"levelo_inurba_marseille","lat":43.29789,"lon":5.37096,"is_reserved":false,"is_disabled":false,"rental_uris":{"android":"levelo://app?vid=3831fe11-698a-4302-89cd-ea39a2583346","ios":"levelo://app?vid=3831fe11-698a-4302-89cd-ea39a2583346"},"vehicle_type_id":"4","last_reported":1733580467,"current_range_meters":15200,"station_id":"ce4bgop2rcd13ifvqc1g","pricing_plan_id":"cebpf4jnsgd1na2vs0mg"},{"bike_id":"02bdc395-5a5b-4ce7-b7a2-a991ffae725c","system_id":"levelo_inurba_marseille","lat":43.25566,"lon":5.38245,"is_reserved":false,"is_disabled":false,"rental_uris":{"android":"levelo://app?vid=02bdc395-5a5b-4ce7-b7a2-a991ffae725c","ios":"levelo://app?vid=02bdc395-5a5b-4ce7-b7a2-a991ffae725c"},"vehicle_type_id":"4","last_reported":1733580467,"current_range_meters":36800,"station_id":"ce4bhih2rcd13ifvqfs0","pricing_plan_id":"cebpf4jnsgd1na2vs0mg"},{"bike_id":"7a0a2714-105e-4622-8b3e-a7dd62dc6941","system_id":"levelo_inurba_marseille","lat":43.29266,"lon":5.384189,"is_reserved":false,"is_disabled":true,"rental_uris":{"android":"levelo://app?vid=7a0a2714-105e-4622-8b3e-a7dd62dc6941","ios":"levelo://app?vid=7a0a2714-105e-4622-8b3e-a7dd62dc6941"},"vehicle_type_id":"4","last_reported":1733580467,"current_range_meters":0,"station_id":"","pricing_plan_id":"cebpf4jnsgd1na2vs0mg"},{"bike_id":"9f53acdf-b2be-4b69-b01b-87cbf7343be4","system_id":"levelo_inurba_marseille","lat":43.26501,"lon":5.39548,"is_reserved":false,"is_disabled":true,"rental_uris":{"android":"levelo://app?vid=9f53acdf-b2be-4b69-b01b-87cbf7343be4","ios":"levelo://app?vid=9f53acdf-b2be-4b69-b01b-87cbf7343be4"},"vehicle_type_id":"4","last_reported":1733580467,"current_range_meters":30800,"station_id":"ce4bhi12rcd13ifvqfq0","pricing_plan_id":"cebpf4jnsgd1na2vs0mg"},{"bike_id":"6cdb4df5-d6ba-429d-873b-a92cb840f5a0","system_id":"levelo_inurba_marseille","lat":43.3096,"lon":5.39049,"is_reserved":false,"is_disabled":false,"rental_uris":{"android":"levelo://app?vid=6cdb4df5-d6ba-429d-873b-a92cb840f5a0","ios":"levelo://app?vid=6cdb4df5-d6ba-429d-873b-a92cb840f5a0"},"vehicle_type_id":"4","last_reported":1733580467,"current_range_meters":34000,"station_id":"ce4bgup2rcd13ifvqco0","pricing_plan_id":"cebpf4jnsgd1na2vs0mg"},{"bike_id":"a5f05a06-bff4-4f39-af01-91b3d19736b8","system_id":"levelo_inurba_marseille","lat":43.23198,"lon":5.35546,"is_reserved":false,"is_disabled":false,"rental_uris":{"android":"levelo://app?vid=a5f05a06-bff4-4f39-af01-91b3d19736b8","ios":"levelo://app?vid=a5f05a06-bff4-4f39-af01-91b3d19736b8"},"vehicle_type_id":"4","last_reported":1733580467,"current_range_meters":30400,"station_id":"ce4bhu92rcd13ifvqi70","pricing_plan_id":"cebpf4jnsgd1na2vs0mg"},{"bike_id":"57d7cb83-11ba-4cf3-b698-c493de7277ee","system_id":"levelo_inurba_marseille","lat":43.305486,"lon":5.365348,"is_reserved":false,"is_disabled":false,"rental_uris":{"android":"levelo://app?vid=57d7cb83-11ba-4cf3-b698-c493de7277ee","ios":"levelo://app?vid=57d7cb83-11ba-4cf3-b698-c493de7277ee"},"vehicle_type_id":"4","last_reported":1733580467,"current_range_meters":38800,"station_id":"ce4bgs12rcd13ifvqcag","pricing_plan_id":"cebpf4jnsgd1na2vs0mg"},{"bike_id":"33f1a526-a5a3-4261-b1e0-d90c46ff918d","system_id":"levelo_inurba_marseille","lat":43.28158,"lon":5.42637,"is_reserved":false,"is_disabled":true,"rental_uris":{"android":"levelo://app?vid=33f1a526-a5a3-4261-b1e0-d90c46ff918d","ios":"levelo://app?vid=33f1a526-a5a3-4261-b1e0-d90c46ff918d"},"vehicle_type_id":"4","last_reported":1733580467,"current_range_meters":30800,"station_id":"ce4bhnh2rcd13ifvqgug","pricing_plan_id":"cebpf4jnsgd1na2vs0mg"},{"bike_id":"7c6feec6-0c63-43b9-84f3-a5fc0de18afd","system_id":"levelo_inurba_marseille","lat":43.27818,"lon":5.40714,"is_reserved":false,"is_disabled":false,"rental_uris":{"android":"levelo://app?vid=7c6feec6-0c63-43b9-84f3-a5fc0de18afd","ios":"levelo://app?vid=7c6feec6-0c63-43b9-84f3-a5fc0de18afd"},"vehicle_type_id":"4","last_reported":1733580467,"current_range_meters":29600,"station_id":"ce4bhnh2rcd13ifvqgtg","pricing_plan_id":"cebpf4jnsgd1na2vs0mg"},{"bike_id":"7d60acff-cb6c-4a92-aca6-d0de3845edf6","system_id":"levelo_inurba_marseille","lat":43.29533,"lon":5.38543,"is_reserved":false,"is_disabled":true,"rental_uris":{"android":"levelo://app?vid=7d60acff-cb6c-4a92-aca6-d0de3845edf6","ios":"levelo://app?vid=7d60acff-cb6c-4a92-aca6-d0de3845edf6"},"vehicle_type_id":"4","last_reported":1733580467,"current_range_meters":25200,"station_id":"ce4bgih2rcd13ifvqba0","pricing_plan_id":"cebpf4jnsgd1na2vs0mg"},{"bike_id":"efee85e1-033e-409d-8660-90700db52fdd","system_id":"levelo_inurba_marseille","lat":43.29013,"lon":5.38134,"is_reserved":false,"is_disabled":false,"rental_uris":{"android":"levelo://app?vid=efee85e1-033e-409d-8660-90700db52fdd","ios":"levelo://app?vid=efee85e1-033e-409d-8660-90700db52fdd"},"vehicle_type_id":"4","last_reported":1733580467,"current_range_meters":16000,"station_id":"ce4bh4p2rcd13ifvqe1g","pricing_plan_id":"cebpf4jnsgd1na2vs0mg"},{"bike_id":"d7c05d6e-bb3d-4cdd-9ae1-943e8a0c79e4","system_id":"levelo_inurba_marseille","lat":43.27922,"lon":5.39584,"is_reserved":false,"is_disabled":false,"rental_uris":{"android":"levelo://app?vid=d7c05d6e-bb3d-4cdd-9ae1-943e8a0c79e4","ios":"levelo://app?vid=d7c05d6e-bb3d-4cdd-9ae1-943e8a0c79e4"},"vehicle_type_id":"4","last_reported":1733580467,"current_range_meters":27200,"station_id":"ce4bhf92rcd13ifvqf40","pricing_plan_id":"cebpf4jnsgd1na2vs0mg"},{"bike_id":"b01ba929-1580-401b-973d-e4a15d746d4a","system_id":"levelo_inurba_marseille","lat":43.22926,"lon":5.35376,"is_reserved":false,"is_disabled":false,"rental_uris":{"android":"levelo://app?vid=b01ba929-1580-401b-973d-e4a15d746d4a","ios":"levelo://app?vid=b01ba929-1580-401b-973d-e4a15d746d4a"},"vehicle_type_id":"4","last_reported":1733580467,"current_range_meters":3600,"station_id":"cpo3532slgdg3j2ikp40","pricing_plan_id":"cebpf4jnsgd1na2vs0mg"},{"bike_id":"4adfa57b-7c5b-4439-bcc3-ca67d2d035b1","system_id":"levelo_inurba_marseille","lat":43.28931,"lon":5.38403,"is_reserved":false,"is_disabled":false,"rental_uris":{"android":"levelo://app?vid=4adfa57b-7c5b-4439-bcc3-ca67d2d035b1","ios":"levelo://app?vid=4adfa57b-7c5b-4439-bcc3-ca67d2d035b1"},"vehicle_type_id":"4","last_reported":1733580467,"current_range_meters":24800,"station_id":"ce4bh612rcd13ifvqe6g","pricing_plan_id":"cebpf4jnsgd1na2vs0mg"},{"bike_id":"c3ce1477-0069-42cf-8168-95a004f0456f","system_id":"levelo_inurba_marseille","lat":43.24385,"lon":5.37063,"is_reserved":false,"is_disabled":false,"rental_uris":{"android":"levelo://app?vid=c3ce1477-0069-42cf-8168-95a004f0456f","ios":"levelo://app?vid=c3ce1477-0069-42cf-8168-95a004f0456f"},"vehicle_type_id":"4","last_reported":1733580467,"current_range_meters":39200,"station_id":"ce4bhhh2rcd13ifvqfk0","pricing_plan_id":"cebpf4jnsgd1na2vs0mg"},{"bike_id":"304aa398-2770-4e33-adda-0cf5f03f543a","system_id":"levelo_inurba_marseille","lat":43.26937,"lon":5.4026,"is_reserved":false,"is_disabled":false,"rental_uris":{"android":"levelo://app?vid=304aa398-2770-4e33-adda-0cf5f03f543a","ios":"levelo://app?vid=304aa398-2770-4e33-adda-0cf5f03f543a"},"vehicle_type_id":"4","last_reported":1733580467,"current_range_meters":38000,"station_id":"cjm6bp8fraef2m0cb0m0","pricing_plan_id":"cebpf4jnsgd1na2vs0mg"},{"bike_id":"aeb5b9ef-cf83-4f2b-8e3d-091258186d3c","system_id":"levelo_inurba_marseille","lat":43.25083,"lon":5.39513,"is_reserved":false,"is_disabled":false,"rental_uris":{"android":"levelo://app?vid=aeb5b9ef-cf83-4f2b-8e3d-091258186d3c","ios":"levelo://app?vid=aeb5b9ef-cf83-4f2b-8e3d-091258186d3c"},"vehicle_type_id":"4","last_reported":1733580467,"current_range_meters":38800,"station_id":"ce4bhm12rcd13ifvqgkg","pricing_plan_id":"cebpf4jnsgd1na2vs0mg"},{"bike_id":"bcd10295-c1ad-454a-bb2f-c462ddfbfec0","system_id":"levelo_inurba_marseille","lat":43.26563,"lon":5.39,"is_reserved":false,"is_disabled":false,"rental_uris":{"android":"levelo://app?vid=bcd10295-c1ad-454a-bb2f-c462ddfbfec0","ios":"levelo://app?vid=bcd10295-c1ad-454a-bb2f-c462ddfbfec0"},"vehicle_type_id":"4","last_reported":1733580467,"current_range_meters":22800,"station_id":"ce4bhe12rcd13ifvqf30","pricing_plan_id":"cebpf4jnsgd1na2vs0mg"},{"bike_id":"51d1afbe-2bef-49a8-8f95-85ce9a49a85e","system_id":"levelo_inurba_marseille","lat":43.29923,"lon":5.37463,"is_reserved":false,"is_disabled":false,"rental_uris":{"android":"levelo://app?vid=51d1afbe-2bef-49a8-8f95-85ce9a49a85e","ios":"levelo://app?vid=51d1afbe-2bef-49a8-8f95-85ce9a49a85e"},"vehicle_type_id":"4","last_reported":1733580467,"current_range_meters":24400,"station_id":"ce4bgjh2rcd13ifvqbg0","pricing_plan_id":"cebpf4jnsgd1na2vs0mg"},{"bike_id":"5a5c2497-0328-4167-8a52-c99b1c8cc514","system_id":"levelo_inurba_marseille","lat":43.29522,"lon":5.39416,"is_reserved":false,"is_disabled":false,"rental_uris":{"android":"levelo://app?vid=5a5c2497-0328-4167-8a52-c99b1c8cc514","ios":"levelo://app?vid=5a5c2497-0328-4167-8a52-c99b1c8cc514"},"vehicle_type_id":"4","last_reported":1733580467,"current_range_meters":32800,"station_id":"ce4bh292rcd13ifvqdf0","pricing_plan_id":"cebpf4jnsgd1na2vs0mg"},{"bike_id":"8eaca702-8ef5-4e8f-aeeb-9332458262dd","system_id":"levelo_inurba_marseille","lat":43.29269,"lon":5.36855,"is_reserved":false,"is_disabled":false,"rental_uris":{"android":"levelo://app?vid=8eaca702-8ef5-4e8f-aeeb-9332458262dd","ios":"levelo://app?vid=8eaca702-8ef5-4e8f-aeeb-9332458262dd"},"vehicle_type_id":"4","last_reported":1733580467,"current_range_meters":24000,"station_id":"ce4bhbp2rcd13ifvqesg","pricing_plan_id":"cebpf4jnsgd1na2vs0mg"},{"bike_id":"d548e626-c86d-4539-a94a-e200a6eec78b","system_id":"levelo_inurba_marseille","lat":43.30892,"lon":5.37198,"is_reserved":false,"is_disabled":false,"rental_uris":{"android":"levelo://app?vid=d548e626-c86d-4539-a94a-e200a6eec78b","ios":"levelo://app?vid=d548e626-c86d-4539-a94a-e200a6eec78b"},"vehicle_type_id":"4","last_reported":1733580467,"current_range_meters":38800,"station_id":"ce4bguh2rcd13ifvqckg","pricing_plan_id":"cebpf4jnsgd1na2vs0mg"},{"bike_id":"638ae2a3-0a74-404b-ab1b-8fcc2e502b8d","system_id":"levelo_inurba_marseille","lat":43.31331,"lon":5.3969,"is_reserved":false,"is_disabled":false,"rental_uris":{"android":"levelo://app?vid=638ae2a3-0a74-404b-ab1b-8fcc2e502b8d","ios":"levelo://app?vid=638ae2a3-0a74-404b-ab1b-8fcc2e502b8d"},"vehicle_type_id":"4","last_reported":1733580467,"current_range_meters":23200,"station_id":"ce4bgvp2rcd13ifvqcu0","pricing_plan_id":"cebpf4jnsgd1na2vs0mg"},{"bike_id":"6ad8fff5-6505-40fc-8922-2acdd3c82e7b","system_id":"levelo_inurba_marseille","lat":43.29792,"lon":5.38118,"is_reserved":false,"is_disabled":true,"rental_uris":{"android":"levelo://app?vid=6ad8fff5-6505-40fc-8922-2acdd3c82e7b","ios":"levelo://app?vid=6ad8fff5-6505-40fc-8922-2acdd3c82e7b"},"vehicle_type_id":"4","last_reported":1733580467,"current_range_meters":17200,"station_id":"ce4bgip2rcd13ifvqbb0","pricing_plan_id":"cebpf4jnsgd1na2vs0mg"},{"bike_id":"ba8ee62b-e1f8-4737-a62b-c2c4e1c22f92","system_id":"levelo_inurba_marseille","lat":43.26056,"lon":5.39393,"is_reserved":false,"is_disabled":false,"rental_uris":{"android":"levelo://app?vid=ba8ee62b-e1f8-4737-a62b-c2c4e1c22f92","ios":"levelo://app?vid=ba8ee62b-e1f8-4737-a62b-c2c4e1c22f92"},"vehicle_type_id":"4","last_reported":1733580467,"current_range_meters":38800,"station_id":"ce4bhh92rcd13ifvqfj0","pricing_plan_id":"cebpf4jnsgd1na2vs0mg"},{"bike_id":"2f250563-0a59-4c81-81a8-48619f0869b9","system_id":"levelo_inurba_marseille","lat":43.27209,"lon":5.39187,"is_reserved":false,"is_disabled":false,"rental_uris":{"android":"levelo://app?vid=2f250563-0a59-4c81-81a8-48619f0869b9","ios":"levelo://app?vid=2f250563-0a59-4c81-81a8-48619f0869b9"},"vehicle_type_id":"4","last_reported":1733580467,"current_range_meters":38800,"station_id":"ce4bhhp2rcd13ifvqfm0","pricing_plan_id":"cebpf4jnsgd1na2vs0mg"},{"bike_id":"fc531b91-c1ad-4bd0-8a9b-801d395aa15e","system_id":"levelo_inurba_marseille","lat":43.24649,"lon":5.38899,"is_reserved":false,"is_disabled":false,"rental_uris":{"android":"levelo://app?vid=fc531b91-c1ad-4bd0-8a9b-801d395aa15e","ios":"levelo://app?vid=fc531b91-c1ad-4bd0-8a9b-801d395aa15e"},"vehicle_type_id":"4","last_reported":1733580467,"current_range_meters":3200,"station_id":"ce4bhg12rcd13ifvqf60","pricing_plan_id":"cebpf4jnsgd1na2vs0mg"},{"bike_id":"edff7319-6ba7-41c0-9e4d-8b91bad7ac2a","system_id":"levelo_inurba_marseille","lat":43.31328,"lon":5.36805,"is_reserved":false,"is_disabled":false,"rental_uris":{"android":"levelo://app?vid=edff7319-6ba7-41c0-9e4d-8b91bad7ac2a","ios":"levelo://app?vid=edff7319-6ba7-41c0-9e4d-8b91bad7ac2a"},"vehicle_type_id":"4","last_reported":1733580467,"current_range_meters":22400,"station_id":"ce4bgl92rcd13ifvqbq0","pricing_plan_id":"cebpf4jnsgd1na2vs0mg"},{"bike_id":"af0bd532-5fea-4a57-8e62-28c4d374f92f","system_id":"levelo_inurba_marseille","lat":43.28117,"lon":5.37862,"is_reserved":false,"is_disabled":false,"rental_uris":{"android":"levelo://app?vid=af0bd532-5fea-4a57-8e62-28c4d374f92f","ios":"levelo://app?vid=af0bd532-5fea-4a57-8e62-28c4d374f92f"},"vehicle_type_id":"4","last_reported":1733580467,"current_range_meters":38800,"station_id":"ce4bha12rcd13ifvqee0","pricing_plan_id":"cebpf4jnsgd1na2vs0mg"},{"bike_id":"2c46e8c7-7341-4e43-879e-fafcca740f82","system_id":"levelo_inurba_marseille","lat":43.31716,"lon":5.37754,"is_reserved":false,"is_disabled":false,"rental_uris":{"android":"levelo://app?vid=2c46e8c7-7341-4e43-879e-fafcca740f82","ios":"levelo://app?vid=2c46e8c7-7341-4e43-879e-fafcca740f82"},"vehicle_type_id":"4","last_reported":1733580467,"current_range_meters":38400,"station_id":"ce4bgth2rcd13ifvqch0","pricing_plan_id":"cebpf4jnsgd1na2vs0mg"},{"bike_id":"eb4e32cd-a02d-4e92-a013-1fdc0dd71ccb","system_id":"levelo_inurba_marseille","lat":43.324799,"lon":5.365716,"is_reserved":false,"is_disabled":false,"rental_uris":{"android":"levelo://app?vid=eb4e32cd-a02d-4e92-a013-1fdc0dd71ccb","ios":"levelo://app?vid=eb4e32cd-a02d-4e92-a013-1fdc0dd71ccb"},"vehicle_type_id":"4","last_reported":1733580467,"current_range_meters":5600,"station_id":"","pricing_plan_id":"cebpf4jnsgd1na2vs0mg"},{"bike_id":"fbab00fe-43a2-4a28-b7ff-135fc765426a","system_id":"levelo_inurba_marseille","lat":43.27995,"lon":5.40017,"is_reserved":false,"is_disabled":false,"rental_uris":{"android":"levelo://app?vid=fbab00fe-43a2-4a28-b7ff-135fc765426a","ios":"levelo://app?vid=fbab00fe-43a2-4a28-b7ff-135fc765426a"},"vehicle_type_id":"4","last_reported":1733580467,"current_range_meters":32800,"station_id":"ce4bho92rcd13ifvqh4g","pricing_plan_id":"cebpf4jnsgd1na2vs0mg"},{"bike_id":"eb462136-9bbe-446e-a043-31aa3ea21067","system_id":"levelo_inurba_marseille","lat":43.31124,"lon":5.37766,"is_reserved":false,"is_disabled":true,"rental_uris":{"android":"levelo://app?vid=eb462136-9bbe-446e-a043-31aa3ea21067","ios":"levelo://app?vid=eb462136-9bbe-446e-a043-31aa3ea21067"},"vehicle_type_id":"4","last_reported":1733580467,"current_range_meters":0,"station_id":"ce4bgt92rcd13ifvqcg0","pricing_plan_id":"cebpf4jnsgd1na2vs0mg"},{"bike_id":"8ac78056-1d93-4fb2-a365-e06bf099afca","system_id":"levelo_inurba_marseille","lat":43.30542,"lon":5.36539,"is_reserved":false,"is_disabled":false,"rental_uris":{"android":"levelo://app?vid=8ac78056-1d93-4fb2-a365-e06bf099afca","ios":"levelo://app?vid=8ac78056-1d93-4fb2-a365-e06bf099afca"},"vehicle_type_id":"4","last_reported":1733580467,"current_range_meters":20800,"station_id":"ce4bgs12rcd13ifvqcag","pricing_plan_id":"cebpf4jnsgd1na2vs0mg"},{"bike_id":"e3ad699e-b42c-4905-89be-152ded5d72b3","system_id":"levelo_inurba_marseille","lat":43.29001,"lon":5.35596,"is_reserved":false,"is_disabled":false,"rental_uris":{"android":"levelo://app?vid=e3ad699e-b42c-4905-89be-152ded5d72b3","ios":"levelo://app?vid=e3ad699e-b42c-4905-89be-152ded5d72b3"},"vehicle_type_id":"4","last_reported":1733580467,"current_range_meters":32800,"station_id":"ce4bhb92rcd13ifvqen0","pricing_plan_id":"cebpf4jnsgd1na2vs0mg"},{"bike_id":"fd98eaa9-4d55-4e7b-aa90-0d14707466d9","system_id":"levelo_inurba_marseille","lat":43.337444,"lon":5.374475,"is_reserved":false,"is_disabled":true,"rental_uris":{"android":"levelo://app?vid=fd98eaa9-4d55-4e7b-aa90-0d14707466d9","ios":"levelo://app?vid=fd98eaa9-4d55-4e7b-aa90-0d14707466d9"},"vehicle_type_id":"4","last_reported":1733580467,"current_range_meters":0,"station_id":"","pricing_plan_id":"cebpf4jnsgd1na2vs0mg"},{"bike_id":"9332b892-a29d-412a-aaea-92a94f1d857b","system_id":"levelo_inurba_marseille","lat":43.27322,"lon":5.39082,"is_reserved":false,"is_disabled":false,"rental_uris":{"android":"levelo://app?vid=9332b892-a29d-412a-aaea-92a94f1d857b","ios":"levelo://app?vid=9332b892-a29d-412a-aaea-92a94f1d857b"},"vehicle_type_id":"4","last_reported":1733580467,"current_range_meters":39200,"station_id":"ce4bhgp2rcd13ifvqfe0","pricing_plan_id":"cebpf4jnsgd1na2vs0mg"},{"bike_id":"27747901-daa4-4699-83f2-9d3e8e7d86e6","system_id":"levelo_inurba_marseille","lat":43.25821,"lon":5.39433,"is_reserved":false,"is_disabled":false,"rental_uris":{"android":"levelo://app?vid=27747901-daa4-4699-83f2-9d3e8e7d86e6","ios":"levelo://app?vid=27747901-daa4-4699-83f2-9d3e8e7d86e6"},"vehicle_type_id":"4","last_reported":1733580467,"current_range_meters":31200,"station_id":"ce4bhip2rcd13ifvqft0","pricing_plan_id":"cebpf4jnsgd1na2vs0mg"},{"bike_id":"3d490280-ce74-4990-9b2a-f6d33f0e8e10","system_id":"levelo_inurba_marseille","lat":43.32042,"lon":5.41566,"is_reserved":false,"is_disabled":false,"rental_uris":{"android":"levelo://app?vid=3d490280-ce74-4990-9b2a-f6d33f0e8e10","ios":"levelo://app?vid=3d490280-ce74-4990-9b2a-f6d33f0e8e10"},"vehicle_type_id":"4","last_reported":1733580467,"current_range_meters":38800,"station_id":"ce4bhq92rcd13ifvqhkg","pricing_plan_id":"cebpf4jnsgd1na2vs0mg"},{"bike_id":"4f14800b-84fe-45b5-bcf7-920b673dc88c","system_id":"levelo_inurba_marseille","lat":43.29256,"lon":5.38451,"is_reserved":false,"is_disabled":false,"rental_uris":{"android":"levelo://app?vid=4f14800b-84fe-45b5-bcf7-920b673dc88c","ios":"levelo://app?vid=4f14800b-84fe-45b5-bcf7-920b673dc88c"},"vehicle_type_id":"4","last_reported":1733580467,"current_range_meters":32000,"station_id":"ce4bh692rcd13ifvqea0","pricing_plan_id":"cebpf4jnsgd1na2vs0mg"},{"bike_id":"4da1f21a-a94b-4e40-8119-4f95d0593822","system_id":"levelo_inurba_marseille","lat":43.32659,"lon":5.41,"is_reserved":false,"is_disabled":false,"rental_uris":{"android":"levelo://app?vid=4da1f21a-a94b-4e40-8119-4f95d0593822","ios":"levelo://app?vid=4da1f21a-a94b-4e40-8119-4f95d0593822"},"vehicle_type_id":"4","last_reported":1733580467,"current_range_meters":38800,"station_id":"ce4bhpp2rcd13ifvqhgg","pricing_plan_id":"cebpf4jnsgd1na2vs0mg"},{"bike_id":"4e49e38e-5344-4a78-9c50-a32008fc3877","system_id":"levelo_inurba_marseille","lat":43.26184,"lon":5.37465,"is_reserved":false,"is_disabled":true,"rental_uris":{"android":"levelo://app?vid=4e49e38e-5344-4a78-9c50-a32008fc3877","ios":"levelo://app?vid=4e49e38e-5344-4a78-9c50-a32008fc3877"},"vehicle_type_id":"4","last_reported":1733580467,"current_range_meters":0,"station_id":"ce4bhgp2rcd13ifvqfc0","pricing_plan_id":"cebpf4jnsgd1na2vs0mg"},{"bike_id":"c2d8a1c2-d166-4a36-b32f-beec95c93bd5","system_id":"levelo_inurba_marseille","lat":43.33756,"lon":5.37459,"is_reserved":false,"is_disabled":true,"rental_uris":{"android":"levelo://app?vid=c2d8a1c2-d166-4a36-b32f-beec95c93bd5","ios":"levelo://app?vid=c2d8a1c2-d166-4a36-b32f-beec95c93bd5"},"vehicle_type_id":"4","last_reported":1733580467,"current_range_meters":0,"station_id":"","pricing_plan_id":"cebpf4jnsgd1na2vs0mg"},{"bike_id":"0e3451bb-7a71-49a1-b69e-200c6dd6b013","system_id":"levelo_inurba_marseille","lat":43.2905,"lon":5.40018,"is_reserved":false,"is_disabled":true,"rental_uris":{"android":"levelo://app?vid=0e3451bb-7a71-49a1-b69e-200c6dd6b013","ios":"levelo://app?vid=0e3451bb-7a71-49a1-b69e-200c6dd6b013"},"vehicle_type_id":"4","last_reported":1733580467,"current_range_meters":38800,"station_id":"ce4bh392rcd13ifvqdm0","pricing_plan_id":"cebpf4jnsgd1na2vs0mg"},{"bike_id":"4a3e2ec8-bf6d-4475-8a6c-4dd922f75b04","system_id":"levelo_inurba_marseille","lat":43.30565,"lon":5.36532,"is_reserved":false,"is_disabled":false,"rental_uris":{"android":"levelo://app?vid=4a3e2ec8-bf6d-4475-8a6c-4dd922f75b04","ios":"levelo://app?vid=4a3e2ec8-bf6d-4475-8a6c-4dd922f75b04"},"vehicle_type_id":"4","last_reported":1733580467,"current_range_meters":14800,"station_id":"ce4bgs12rcd13ifvqcag","pricing_plan_id":"cebpf4jnsgd1na2vs0mg"},{"bike_id":"cabd644c-9444-445f-b661-d7541845cb45","system_id":"levelo_inurba_marseille","lat":43.28159,"lon":5.42625,"is_reserved":false,"is_disabled":false,"rental_uris":{"android":"levelo://app?vid=cabd644c-9444-445f-b661-d7541845cb45","ios":"levelo://app?vid=cabd644c-9444-445f-b661-d7541845cb45"},"vehicle_type_id":"4","last_reported":1733580467,"current_range_meters":33200,"station_id":"ce4bhnh2rcd13ifvqgug","pricing_plan_id":"cebpf4jnsgd1na2vs0mg"},{"bike_id":"43e33a02-2360-4164-8245-4665c332a65a","system_id":"levelo_inurba_marseille","lat":43.23148,"lon":5.43724,"is_reserved":false,"is_disabled":false,"rental_uris":{"android":"levelo://app?vid=43e33a02-2360-4164-8245-4665c332a65a","ios":"levelo://app?vid=43e33a02-2360-4164-8245-4665c332a65a"},"vehicle_type_id":"4","last_reported":1733580467,"current_range_meters":28000,"station_id":"ce4bhmp2rcd13ifvqgog","pricing_plan_id":"cebpf4jnsgd1na2vs0mg"},{"bike_id":"1c116fee-2365-407f-b033-8ab53c14818b","system_id":"levelo_inurba_marseille","lat":43.337444,"lon":5.374475,"is_reserved":false,"is_disabled":false,"rental_uris":{"android":"levelo://app?vid=1c116fee-2365-407f-b033-8ab53c14818b","ios":"levelo://app?vid=1c116fee-2365-407f-b033-8ab53c14818b"},"vehicle_type_id":"4","last_reported":1733580467,"current_range_meters":28400,"station_id":"","pricing_plan_id":"cebpf4jnsgd1na2vs0mg"},{"bike_id":"e7098824-93b2-482e-a425-d6aa509a1c30","system_id":"levelo_inurba_marseille","lat":43.2733,"lon":5.39082,"is_reserved":false,"is_disabled":false,"rental_uris":{"android":"levelo://app?vid=e7098824-93b2-482e-a425-d6aa509a1c30","ios":"levelo://app?vid=e7098824-93b2-482e-a425-d6aa509a1c30"},"vehicle_type_id":"4","last_reported":1733580467,"current_range_meters":33600,"station_id":"ce4bhgp2rcd13ifvqfe0","pricing_plan_id":"cebpf4jnsgd1na2vs0mg"},{"bike_id":"14c27ddf-854c-400f-b05a-7d94c9f1dcab","system_id":"levelo_inurba_marseille","lat":43.29197,"lon":5.39315,"is_reserved":false,"is_disabled":false,"rental_uris":{"android":"levelo://app?vid=14c27ddf-854c-400f-b05a-7d94c9f1dcab","ios":"levelo://app?vid=14c27ddf-854c-400f-b05a-7d94c9f1dcab"},"vehicle_type_id":"4","last_reported":1733580467,"current_range_meters":34800,"station_id":"ce4bh192rcd13ifvqdd0","pricing_plan_id":"cebpf4jnsgd1na2vs0mg"},{"bike_id":"13cab3b3-5ef4-43d7-a0be-2ed7b47ac662","system_id":"levelo_inurba_marseille","lat":43.29698,"lon":5.37295,"is_reserved":false,"is_disabled":false,"rental_uris":{"android":"levelo://app?vid=13cab3b3-5ef4-43d7-a0be-2ed7b47ac662","ios":"levelo://app?vid=13cab3b3-5ef4-43d7-a0be-2ed7b47ac662"},"vehicle_type_id":"4","last_reported":1733580467,"current_range_meters":38800,"station_id":"ce4bgk12rcd13ifvqbj0","pricing_plan_id":"cebpf4jnsgd1na2vs0mg"},{"bike_id":"463bc732-9858-4992-a741-2b0344dd5d9b","system_id":"levelo_inurba_marseille","lat":43.3237,"lon":5.38886,"is_reserved":false,"is_disabled":false,"rental_uris":{"android":"levelo://app?vid=463bc732-9858-4992-a741-2b0344dd5d9b","ios":"levelo://app?vid=463bc732-9858-4992-a741-2b0344dd5d9b"},"vehicle_type_id":"4","last_reported":1733580467,"current_range_meters":8000,"station_id":"ce4bhqp2rcd13ifvqhog","pricing_plan_id":"cebpf4jnsgd1na2vs0mg"},{"bike_id":"f5561434-0740-4a3c-abc2-013f37687b8d","system_id":"levelo_inurba_marseille","lat":43.24843,"lon":5.37445,"is_reserved":false,"is_disabled":true,"rental_uris":{"android":"levelo://app?vid=f5561434-0740-4a3c-abc2-013f37687b8d","ios":"levelo://app?vid=f5561434-0740-4a3c-abc2-013f37687b8d"},"vehicle_type_id":"4","last_reported":1733580467,"current_range_meters":36400,"station_id":"","pricing_plan_id":"cebpf4jnsgd1na2vs0mg"},{"bike_id":"220c9f3e-9e26-46f5-9066-dfededf7134f","system_id":"levelo_inurba_marseille","lat":43.24389,"lon":5.37052,"is_reserved":false,"is_disabled":false,"rental_uris":{"android":"levelo://app?vid=220c9f3e-9e26-46f5-9066-dfededf7134f","ios":"levelo://app?vid=220c9f3e-9e26-46f5-9066-dfededf7134f"},"vehicle_type_id":"4","last_reported":1733580467,"current_range_meters":38800,"station_id":"ce4bhhh2rcd13ifvqfk0","pricing_plan_id":"cebpf4jnsgd1na2vs0mg"},{"bike_id":"f957e59c-f18c-4116-869c-ad8675fd4e5f","system_id":"levelo_inurba_marseille","lat":43.26569,"lon":5.39009,"is_reserved":false,"is_disabled":false,"rental_uris":{"android":"levelo://app?vid=f957e59c-f18c-4116-869c-ad8675fd4e5f","ios":"levelo://app?vid=f957e59c-f18c-4116-869c-ad8675fd4e5f"},"vehicle_type_id":"4","last_reported":1733580467,"current_range_meters":20400,"station_id":"ce4bhe12rcd13ifvqf30","pricing_plan_id":"cebpf4jnsgd1na2vs0mg"},{"bike_id":"a34437d0-195d-4596-a853-c37ee4a9e391","system_id":"levelo_inurba_marseille","lat":43.3127,"lon":5.40174,"is_reserved":false,"is_disabled":false,"rental_uris":{"android":"levelo://app?vid=a34437d0-195d-4596-a853-c37ee4a9e391","ios":"levelo://app?vid=a34437d0-195d-4596-a853-c37ee4a9e391"},"vehicle_type_id":"4","last_reported":1733580467,"current_range_meters":10000,"station_id":"ce4bh092rcd13ifvqd30","pricing_plan_id":"cebpf4jnsgd1na2vs0mg"},{"bike_id":"3db43a5d-158c-433f-9e51-1c9b0a9a8d21","system_id":"levelo_inurba_marseille","lat":43.29857,"lon":5.36303,"is_reserved":false,"is_disabled":false,"rental_uris":{"android":"levelo://app?vid=3db43a5d-158c-433f-9e51-1c9b0a9a8d21","ios":"levelo://app?vid=3db43a5d-158c-433f-9e51-1c9b0a9a8d21"},"vehicle_type_id":"4","last_reported":1733580467,"current_range_meters":28400,"station_id":"ce4bgpp2rcd13ifvqc3g","pricing_plan_id":"cebpf4jnsgd1na2vs0mg"},{"bike_id":"a5d2ef29-78ad-4a90-991d-eea58d8f671f","system_id":"levelo_inurba_marseille","lat":43.29,"lon":5.35617,"is_reserved":false,"is_disabled":false,"rental_uris":{"android":"levelo://app?vid=a5d2ef29-78ad-4a90-991d-eea58d8f671f","ios":"levelo://app?vid=a5d2ef29-78ad-4a90-991d-eea58d8f671f"},"vehicle_type_id":"4","last_reported":1733580467,"current_range_meters":28800,"station_id":"ce4bhb92rcd13ifvqen0","pricing_plan_id":"cebpf4jnsgd1na2vs0mg"},{"bike_id":"72e29cff-f685-43b0-a2f9-babaa1c44344","system_id":"levelo_inurba_marseille","lat":43.2396,"lon":5.36636,"is_reserved":false,"is_disabled":false,"rental_uris":{"android":"levelo://app?vid=72e29cff-f685-43b0-a2f9-babaa1c44344","ios":"levelo://app?vid=72e29cff-f685-43b0-a2f9-babaa1c44344"},"vehicle_type_id":"4","last_reported":1733580467,"current_range_meters":21600,"station_id":"ce4bhi12rcd13ifvqfp0","pricing_plan_id":"cebpf4jnsgd1na2vs0mg"},{"bike_id":"ec5a9aac-98e2-482c-98fa-448a5f3073f9","system_id":"levelo_inurba_marseille","lat":43.2781,"lon":5.40717,"is_reserved":false,"is_disabled":false,"rental_uris":{"android":"levelo://app?vid=ec5a9aac-98e2-482c-98fa-448a5f3073f9","ios":"levelo://app?vid=ec5a9aac-98e2-482c-98fa-448a5f3073f9"},"vehicle_type_id":"4","last_reported":1733580467,"current_range_meters":26800,"station_id":"ce4bhnh2rcd13ifvqgtg","pricing_plan_id":"cebpf4jnsgd1na2vs0mg"},{"bike_id":"762118f9-6b64-4522-9c6b-6977a243c8c4","system_id":"levelo_inurba_marseille","lat":43.28268,"lon":5.35077,"is_reserved":false,"is_disabled":false,"rental_uris":{"android":"levelo://app?vid=762118f9-6b64-4522-9c6b-6977a243c8c4","ios":"levelo://app?vid=762118f9-6b64-4522-9c6b-6977a243c8c4"},"vehicle_type_id":"4","last_reported":1733580467,"current_range_meters":36000,"station_id":"ce4bhbp2rcd13ifvqerg","pricing_plan_id":"cebpf4jnsgd1na2vs0mg"},{"bike_id":"c4788e81-0641-4cee-8ae1-5322e067d4f5","system_id":"levelo_inurba_marseille","lat":43.29294,"lon":5.37454,"is_reserved":false,"is_disabled":false,"rental_uris":{"android":"levelo://app?vid=c4788e81-0641-4cee-8ae1-5322e067d4f5","ios":"levelo://app?vid=c4788e81-0641-4cee-8ae1-5322e067d4f5"},"vehicle_type_id":"4","last_reported":1733580467,"current_range_meters":39200,"station_id":"ce4bgi12rcd13ifvqb70","pricing_plan_id":"cebpf4jnsgd1na2vs0mg"},{"bike_id":"6d216933-1452-4914-8fc8-d701c5560356","system_id":"levelo_inurba_marseille","lat":43.29568,"lon":5.3753,"is_reserved":false,"is_disabled":false,"rental_uris":{"android":"levelo://app?vid=6d216933-1452-4914-8fc8-d701c5560356","ios":"levelo://app?vid=6d216933-1452-4914-8fc8-d701c5560356"},"vehicle_type_id":"4","last_reported":1733580467,"current_range_meters":23200,"station_id":"ce4bgh92rcd13ifvqb50","pricing_plan_id":"cebpf4jnsgd1na2vs0mg"},{"bike_id":"bacc3450-9073-4434-a77d-41c29d8453a7","system_id":"levelo_inurba_marseille","lat":43.25723,"lon":5.41109,"is_reserved":false,"is_disabled":false,"rental_uris":{"android":"levelo://app?vid=bacc3450-9073-4434-a77d-41c29d8453a7","ios":"levelo://app?vid=bacc3450-9073-4434-a77d-41c29d8453a7"},"vehicle_type_id":"4","last_reported":1733580467,"current_range_meters":38800,"station_id":"ce4bhkp2rcd13ifvqgd0","pricing_plan_id":"cebpf4jnsgd1na2vs0mg"},{"bike_id":"b57ac3ac-1cb9-4a0e-9880-d76a5f5fa301","system_id":"levelo_inurba_marseille","lat":43.26204,"lon":5.37926,"is_reserved":false,"is_disabled":false,"rental_uris":{"android":"levelo://app?vid=b57ac3ac-1cb9-4a0e-9880-d76a5f5fa301","ios":"levelo://app?vid=b57ac3ac-1cb9-4a0e-9880-d76a5f5fa301"},"vehicle_type_id":"4","last_reported":1733580467,"current_range_meters":37600,"station_id":"ce4bhjp2rcd13ifvqg90","pricing_plan_id":"cebpf4jnsgd1na2vs0mg"},{"bike_id":"080fcb1c-52b8-42d7-b477-4dbab7fa601d","system_id":"levelo_inurba_marseille","lat":43.33025,"lon":5.39035,"is_reserved":false,"is_disabled":false,"rental_uris":{"android":"levelo://app?vid=080fcb1c-52b8-42d7-b477-4dbab7fa601d","ios":"levelo://app?vid=080fcb1c-52b8-42d7-b477-4dbab7fa601d"},"vehicle_type_id":"4","last_reported":1733580467,"current_range_meters":26800,"station_id":"ce4bhr92rcd13ifvqhrg","pricing_plan_id":"cebpf4jnsgd1na2vs0mg"},{"bike_id":"7af02676-8e09-4af3-9d78-afaf06d2aa36","system_id":"levelo_inurba_marseille","lat":43.30144,"lon":5.38093,"is_reserved":false,"is_disabled":false,"rental_uris":{"android":"levelo://app?vid=7af02676-8e09-4af3-9d78-afaf06d2aa36","ios":"levelo://app?vid=7af02676-8e09-4af3-9d78-afaf06d2aa36"},"vehicle_type_id":"4","last_reported":1733580467,"current_range_meters":38800,"station_id":"ce4bgjp2rcd13ifvqbh0","pricing_plan_id":"cebpf4jnsgd1na2vs0mg"},{"bike_id":"4bca0294-9764-4acb-8a6b-1ecbf34d1549","system_id":"levelo_inurba_marseille","lat":43.30592,"lon":5.37229,"is_reserved":false,"is_disabled":false,"rental_uris":{"android":"levelo://app?vid=4bca0294-9764-4acb-8a6b-1ecbf34d1549","ios":"levelo://app?vid=4bca0294-9764-4acb-8a6b-1ecbf34d1549"},"vehicle_type_id":"4","last_reported":1733580467,"current_range_meters":35600,"station_id":"ce4bgqh2rcd13ifvqc4g","pricing_plan_id":"cebpf4jnsgd1na2vs0mg"},{"bike_id":"9ffe6b38-5d2f-4fda-9dd4-7dadd183fb84","system_id":"levelo_inurba_marseille","lat":43.28349,"lon":5.38104,"is_reserved":false,"is_disabled":false,"rental_uris":{"android":"levelo://app?vid=9ffe6b38-5d2f-4fda-9dd4-7dadd183fb84","ios":"levelo://app?vid=9ffe6b38-5d2f-4fda-9dd4-7dadd183fb84"},"vehicle_type_id":"4","last_reported":1733580467,"current_range_meters":38000,"station_id":"ce4bh412rcd13ifvqdr0","pricing_plan_id":"cebpf4jnsgd1na2vs0mg"},{"bike_id":"abe016ce-4560-40ff-a6e2-38cb2c3cd0ac","system_id":"levelo_inurba_marseille","lat":43.30144,"lon":5.38082,"is_reserved":false,"is_disabled":false,"rental_uris":{"android":"levelo://app?vid=abe016ce-4560-40ff-a6e2-38cb2c3cd0ac","ios":"levelo://app?vid=abe016ce-4560-40ff-a6e2-38cb2c3cd0ac"},"vehicle_type_id":"4","last_reported":1733580467,"current_range_meters":36000,"station_id":"ce4bgjp2rcd13ifvqbh0","pricing_plan_id":"cebpf4jnsgd1na2vs0mg"},{"bike_id":"f188d0ed-8c50-4e26-bbac-548d27bc4cc0","system_id":"levelo_inurba_marseille","lat":43.31494,"lon":5.37313,"is_reserved":false,"is_disabled":false,"rental_uris":{"android":"levelo://app?vid=f188d0ed-8c50-4e26-bbac-548d27bc4cc0","ios":"levelo://app?vid=f188d0ed-8c50-4e26-bbac-548d27bc4cc0"},"vehicle_type_id":"4","last_reported":1733580467,"current_range_meters":38800,"station_id":"ce4bgt12rcd13ifvqcd0","pricing_plan_id":"cebpf4jnsgd1na2vs0mg"},{"bike_id":"868a434e-7c11-4b20-84c6-7ecdbf24c83b","system_id":"levelo_inurba_marseille","lat":43.33021,"lon":5.39035,"is_reserved":false,"is_disabled":false,"rental_uris":{"android":"levelo://app?vid=868a434e-7c11-4b20-84c6-7ecdbf24c83b","ios":"levelo://app?vid=868a434e-7c11-4b20-84c6-7ecdbf24c83b"},"vehicle_type_id":"4","last_reported":1733580467,"current_range_meters":24400,"station_id":"ce4bhr92rcd13ifvqhrg","pricing_plan_id":"cebpf4jnsgd1na2vs0mg"},{"bike_id":"b1ca9bbe-0f05-4908-b3d3-61a22c14a9da","system_id":"levelo_inurba_marseille","lat":43.29524,"lon":5.39042,"is_reserved":false,"is_disabled":true,"rental_uris":{"android":"levelo://app?vid=b1ca9bbe-0f05-4908-b3d3-61a22c14a9da","ios":"levelo://app?vid=b1ca9bbe-0f05-4908-b3d3-61a22c14a9da"},"vehicle_type_id":"4","last_reported":1733580467,"current_range_meters":0,"station_id":"ce4bh3p2rcd13ifvqdp0","pricing_plan_id":"cebpf4jnsgd1na2vs0mg"},{"bike_id":"dc633d5b-733b-4759-a7f2-6be7e76403e8","system_id":"levelo_inurba_marseille","lat":43.25113,"lon":5.40318,"is_reserved":false,"is_disabled":false,"rental_uris":{"android":"levelo://app?vid=dc633d5b-733b-4759-a7f2-6be7e76403e8","ios":"levelo://app?vid=dc633d5b-733b-4759-a7f2-6be7e76403e8"},"vehicle_type_id":"4","last_reported":1733580467,"current_range_meters":38800,"station_id":"ce4bhlh2rcd13ifvqgig","pricing_plan_id":"cebpf4jnsgd1na2vs0mg"},{"bike_id":"939791b5-084e-4be8-9e2e-47e9959469c7","system_id":"levelo_inurba_marseille","lat":43.30537,"lon":5.36567,"is_reserved":false,"is_disabled":false,"rental_uris":{"android":"levelo://app?vid=939791b5-084e-4be8-9e2e-47e9959469c7","ios":"levelo://app?vid=939791b5-084e-4be8-9e2e-47e9959469c7"},"vehicle_type_id":"4","last_reported":1733580467,"current_range_meters":12000,"station_id":"ce4bgs12rcd13ifvqcag","pricing_plan_id":"cebpf4jnsgd1na2vs0mg"},{"bike_id":"ebb51e34-cae7-43b7-a3e4-d352748ad9ee","system_id":"levelo_inurba_marseille","lat":43.27204,"lon":5.39186,"is_reserved":false,"is_disabled":false,"rental_uris":{"android":"levelo://app?vid=ebb51e34-cae7-43b7-a3e4-d352748ad9ee","ios":"levelo://app?vid=ebb51e34-cae7-43b7-a3e4-d352748ad9ee"},"vehicle_type_id":"4","last_reported":1733580467,"current_range_meters":38800,"station_id":"ce4bhhp2rcd13ifvqfm0","pricing_plan_id":"cebpf4jnsgd1na2vs0mg"},{"bike_id":"35116aeb-0a76-4797-a5b2-a18534d3382f","system_id":"levelo_inurba_marseille","lat":43.337444,"lon":5.374475,"is_reserved":false,"is_disabled":false,"rental_uris":{"android":"levelo://app?vid=35116aeb-0a76-4797-a5b2-a18534d3382f","ios":"levelo://app?vid=35116aeb-0a76-4797-a5b2-a18534d3382f"},"vehicle_type_id":"4","last_reported":1733580467,"current_range_meters":28400,"station_id":"","pricing_plan_id":"cebpf4jnsgd1na2vs0mg"},{"bike_id":"4ae5fe7f-a755-40fe-9b35-59fbb2437146","system_id":"levelo_inurba_marseille","lat":43.24166,"lon":5.36418,"is_reserved":false,"is_disabled":false,"rental_uris":{"android":"levelo://app?vid=4ae5fe7f-a755-40fe-9b35-59fbb2437146","ios":"levelo://app?vid=4ae5fe7f-a755-40fe-9b35-59fbb2437146"},"vehicle_type_id":"4","last_reported":1733580467,"current_range_meters":32000,"station_id":"cpo36qri1sfpv3e86is0","pricing_plan_id":"cebpf4jnsgd1na2vs0mg"},{"bike_id":"31e35599-1530-4b87-abcb-60792c8f744c","system_id":"levelo_inurba_marseille","lat":43.27063,"lon":5.40266,"is_reserved":false,"is_disabled":false,"rental_uris":{"android":"levelo://app?vid=31e35599-1530-4b87-abcb-60792c8f744c","ios":"levelo://app?vid=31e35599-1530-4b87-abcb-60792c8f744c"},"vehicle_type_id":"4","last_reported":1733580467,"current_range_meters":38800,"station_id":"ce4bhk92rcd13ifvqgc0","pricing_plan_id":"cebpf4jnsgd1na2vs0mg"},{"bike_id":"11fe60dd-7ceb-4581-b559-24648216d528","system_id":"levelo_inurba_marseille","lat":43.29611,"lon":5.37728,"is_reserved":false,"is_disabled":false,"rental_uris":{"android":"levelo://app?vid=11fe60dd-7ceb-4581-b559-24648216d528","ios":"levelo://app?vid=11fe60dd-7ceb-4581-b559-24648216d528"},"vehicle_type_id":"4","last_reported":1733580467,"current_range_meters":38800,"station_id":"ce4bgi92rcd13ifvqb90","pricing_plan_id":"cebpf4jnsgd1na2vs0mg"},{"bike_id":"f2cb79bc-b0f3-42e4-8933-0076c0627a6d","system_id":"levelo_inurba_marseille","lat":43.28407,"lon":5.37525,"is_reserved":false,"is_disabled":false,"rental_uris":{"android":"levelo://app?vid=f2cb79bc-b0f3-42e4-8933-0076c0627a6d","ios":"levelo://app?vid=f2cb79bc-b0f3-42e4-8933-0076c0627a6d"},"vehicle_type_id":"4","last_reported":1733580467,"current_range_meters":16000,"station_id":"ce4bh412rcd13ifvqds0","pricing_plan_id":"cebpf4jnsgd1na2vs0mg"},{"bike_id":"b7f6111a-36a6-45ff-a1b7-7466ed5cd7dd","system_id":"levelo_inurba_marseille","lat":43.28401,"lon":5.37519,"is_reserved":false,"is_disabled":false,"rental_uris":{"android":"levelo://app?vid=b7f6111a-36a6-45ff-a1b7-7466ed5cd7dd","ios":"levelo://app?vid=b7f6111a-36a6-45ff-a1b7-7466ed5cd7dd"},"vehicle_type_id":"4","last_reported":1733580467,"current_range_meters":26000,"station_id":"ce4bh412rcd13ifvqds0","pricing_plan_id":"cebpf4jnsgd1na2vs0mg"},{"bike_id":"f5695b3d-aaf2-41d4-9cb0-052c626cb432","system_id":"levelo_inurba_marseille","lat":43.31754,"lon":5.39017,"is_reserved":false,"is_disabled":false,"rental_uris":{"android":"levelo://app?vid=f5695b3d-aaf2-41d4-9cb0-052c626cb432","ios":"levelo://app?vid=f5695b3d-aaf2-41d4-9cb0-052c626cb432"},"vehicle_type_id":"4","last_reported":1733580467,"current_range_meters":28800,"station_id":"ce4bhqp2rcd13ifvqhng","pricing_plan_id":"cebpf4jnsgd1na2vs0mg"},{"bike_id":"0af551d2-0d25-4cd7-8a52-aaefa9c7fe5e","system_id":"levelo_inurba_marseille","lat":43.30956,"lon":5.39036,"is_reserved":false,"is_disabled":false,"rental_uris":{"android":"levelo://app?vid=0af551d2-0d25-4cd7-8a52-aaefa9c7fe5e","ios":"levelo://app?vid=0af551d2-0d25-4cd7-8a52-aaefa9c7fe5e"},"vehicle_type_id":"4","last_reported":1733580467,"current_range_meters":38800,"station_id":"ce4bgup2rcd13ifvqco0","pricing_plan_id":"cebpf4jnsgd1na2vs0mg"},{"bike_id":"f4d5a3c8-66a0-46c2-a59b-83624e74a453","system_id":"levelo_inurba_marseille","lat":43.27311,"lon":5.39083,"is_reserved":false,"is_disabled":false,"rental_uris":{"android":"levelo://app?vid=f4d5a3c8-66a0-46c2-a59b-83624e74a453","ios":"levelo://app?vid=f4d5a3c8-66a0-46c2-a59b-83624e74a453"},