{"last_updated":1707055524,"ttl":30,"version":"2.2","data":{"bikes":[{"bike_id":"3ea8b680-317e-4f39-be73-93b893c26310","system_id":"levelo_inurba_marseille","lat":43.313391,"lon":5.36706,"is_reserved":false,"is_disabled":false,"rental_uris":{"android":"levelo://app?vid=3ea8b680-317e-4f39-be73-93b893c26310","ios":"levelo://app?vid=3ea8b680-317e-4f39-be73-93b893c26310"},"vehicle_type_id":"4","last_reported":1707055524,"current_range_meters":12000,"station_id":"ce4bgr92rcd13ifvqc6g","pricing_plan_id":"free"},{"bike_id":"8bea6ee2-bb12-4611-84ff-9527b54da0c8","system_id":"levelo_inurba_marseille","lat":43.312415,"lon":5.368099,"is_reserved":false,"is_disabled":false,"rental_uris":{"android":"levelo://app?vid=8bea6ee2-bb12-4611-84ff-9527b54da0c8","ios":"levelo://app?vid=8bea6ee2-bb12-4611-84ff-9527b54da0c8"},"vehicle_type_id":"4","last_reported":1707055524,"current_range_meters":28800,"station_id":"","pricing_plan_id":"free"},{"bike_id":"d95e2387-434c-4b69-8908-9707087feaf0","system_id":"levelo_inurba_marseille","lat":43.312239,"lon":5.368562,"is_reserved":false,"is_disabled":false,"rental_uris":{"android":"levelo://app?vid=d95e2387-434c-4b69-8908-9707087feaf0","ios":"levelo://app?vid=d95e2387-434c-4b69-8908-9707087feaf0"},"vehicle_type_id":"4","last_reported":1707055524,"current_range_meters":0,"station_id":"ce4bgl92rcd13ifvqbq0","pricing_plan_id":"free"},{"bike_id":"5189a1d3-7b09-4646-85cb-12ea8cd8b2c6","system_id":"levelo_inurba_marseille","lat":43.31506,"lon":5.37296,"is_reserved":false,"is_disabled":false,"rental_uris":{"android":"levelo://app?vid=5189a1d3-7b09-4646-85cb-12ea8cd8b2c6","ios":"levelo://app?vid=5189a1d3-7b09-4646-85cb-12ea8cd8b2c6"},"vehicle_type_id":"4","last_reported":1707055524,"current_range_meters":31200,"station_id":"ce4bgt12rcd13ifvqcd0","pricing_plan_id":"free"},{"bike_id":"6ecd07a2-ee5e-47c4-93be-a7d99db601d7","system_id":"levelo_inurba_marseille","lat":43.315027,"lon":5.373113,"is_reserved":false,"is_disabled":false,"rental_uris":{"android":"levelo://app?vid=6ecd07a2-ee5e-47c4-93be-a7d99db601d7","ios":"levelo://app?vid=6ecd07a2-ee5e-47c4-93be-a7d99db601d7"},"vehicle_type_id":"4","last_reported":1707055524,"current_range_meters":0,"station_id":"ce4bgt12rcd13ifvqcd0","pricing_plan_id":"free"},{"bike_id":"82634a15-58d6-490e-9ad8-4261dbaa00cb","system_id":"levelo_inurba_marseille","lat":43.30887,"lon":5.37186,"is_reserved":false,"is_disabled":false,"rental_uris":{"android":"levelo://app?vid=82634a15-58d6-490e-9ad8-4261dbaa00cb","ios":"levelo://app?vid=82634a15-58d6-490e-9ad8-4261dbaa00cb"},"vehicle_type_id":"4","last_reported":1707055524,"current_range_meters":0,"station_id":"ce4bguh2rcd13ifvqckg","pricing_plan_id":"free"},{"bike_id":"d4af9877-dd9e-444b-84b1-f90e6a101f79","system_id":"levelo_inurba_marseille","lat":43.305989,"lon":5.37225,"is_reserved":false,"is_disabled":false,"rental_uris":{"android":"levelo://app?vid=d4af9877-dd9e-444b-84b1-f90e6a101f79","ios":"levelo://app?vid=d4af9877-dd9e-444b-84b1-f90e6a101f79"},"vehicle_type_id":"4","last_reported":1707055524,"current_range_meters":26400,"station_id":"ce4bgqh2rcd13ifvqc4g","pricing_plan_id":"free"},{"bike_id":"120989db-d16f-4932-94fc-92a854ccd8b5","system_id":"levelo_inurba_marseille","lat":43.305989,"lon":5.37225,"is_reserved":false,"is_disabled":false,"rental_uris":{"android":"levelo://app?vid=120989db-d16f-4932-94fc-92a854ccd8b5","ios":"levelo://app?vid=120989db-d16f-4932-94fc-92a854ccd8b5"},"vehicle_type_id":"4","last_reported":1707055524,"current_range_meters":31200,"station_id":"ce4bgqh2rcd13ifvqc4g","pricing_plan_id":"free"},{"bike_id":"523c7b29-d243-4c09-913c-7dcbfb380a9b","system_id":"levelo_inurba_marseille","lat":43.31121,"lon":5.37778,"is_reserved":false,"is_disabled":false,"rental_uris":{"android":"levelo://app?vid=523c7b29-d243-4c09-913c-7dcbfb380a9b","ios":"levelo://app?vid=523c7b29-d243-4c09-913c-7dcbfb380a9b"},"vehicle_type_id":"4","last_reported":1707055524,"current_range_meters":27600,"station_id":"ce4bgt92rcd13ifvqcg0","pricing_plan_id":"free"},{"bike_id":"c60e7252-bcc2-4201-a624-aec62d3d6b5d","system_id":"levelo_inurba_marseille","lat":43.316473,"lon":5.376847,"is_reserved":false,"is_disabled":false,"rental_uris":{"android":"levelo://app?vid=c60e7252-bcc2-4201-a624-aec62d3d6b5d","ios":"levelo://app?vid=c60e7252-bcc2-4201-a624-aec62d3d6b5d"},"vehicle_type_id":"4","last_reported":1707055524,"current_range_meters":1600,"station_id":"","pricing_plan_id":"free"},{"bike_id":"54963f75-46fa-4ab1-a712-11d8f7497d4a","system_id":"levelo_inurba_marseille","lat":43.31125,"lon":5.37791,"is_reserved":false,"is_disabled":false,"rental_uris":{"android":"levelo://app?vid=54963f75-46fa-4ab1-a712-11d8f7497d4a","ios":"levelo://app?vid=54963f75-46fa-4ab1-a712-11d8f7497d4a"},"vehicle_type_id":"4","last_reported":1707055524,"current_range_meters":31200,"station_id":"ce4bgt92rcd13ifvqcg0","pricing_plan_id":"free"},{"bike_id":"70e5f555-a081-43e9-b535-4cf91d9d23e0","system_id":"levelo_inurba_marseille","lat":43.307945,"lon":5.376487,"is_reserved":false,"is_disabled":false,"rental_uris":{"android":"levelo://app?vid=70e5f555-a081-43e9-b535-4cf91d9d23e0","ios":"levelo://app?vid=70e5f555-a081-43e9-b535-4cf91d9d23e0"},"vehicle_type_id":"4","last_reported":1707055524,"current_range_meters":6400,"station_id":"ce4bgv92rcd13ifvqcq0","pricing_plan_id":"free"},{"bike_id":"9a715892-14fd-44a2-a400-9ebe57427e67","system_id":"levelo_inurba_marseille","lat":43.305989,"lon":5.37225,"is_reserved":false,"is_disabled":false,"rental_uris":{"android":"levelo://app?vid=9a715892-14fd-44a2-a400-9ebe57427e67","ios":"levelo://app?vid=9a715892-14fd-44a2-a400-9ebe57427e67"},"vehicle_type_id":"4","last_reported":1707055524,"current_range_meters":5600,"station_id":"ce4bgqh2rcd13ifvqc4g","pricing_plan_id":"free"},{"bike_id":"6786bc41-ee5d-489a-9c71-2c129a091e3e","system_id":"levelo_inurba_marseille","lat":43.317075,"lon":5.377367,"is_reserved":false,"is_disabled":false,"rental_uris":{"android":"levelo://app?vid=6786bc41-ee5d-489a-9c71-2c129a091e3e","ios":"levelo://app?vid=6786bc41-ee5d-489a-9c71-2c129a091e3e"},"vehicle_type_id":"4","last_reported":1707055524,"current_range_meters":30400,"station_id":"ce4bgth2rcd13ifvqch0","pricing_plan_id":"free"},{"bike_id":"c5c56bdd-2d6d-466c-bb95-04dde09787a9","system_id":"levelo_inurba_marseille","lat":43.303046,"lon":5.368981,"is_reserved":false,"is_disabled":false,"rental_uris":{"android":"levelo://app?vid=c5c56bdd-2d6d-466c-bb95-04dde09787a9","ios":"levelo://app?vid=c5c56bdd-2d6d-466c-bb95-04dde09787a9"},"vehicle_type_id":"4","last_reported":1707055524,"current_range_meters":10400,"station_id":"ce4bgqh2rcd13ifvqc5g","pricing_plan_id":"free"},{"bike_id":"8d413466-9bc7-461a-9510-0f9fc336a503","system_id":"levelo_inurba_marseille","lat":43.324771,"lon":5.36557,"is_reserved":false,"is_disabled":false,"rental_uris":{"android":"levelo://app?vid=8d413466-9bc7-461a-9510-0f9fc336a503","ios":"levelo://app?vid=8d413466-9bc7-461a-9510-0f9fc336a503"},"vehicle_type_id":"4","last_reported":1707055524,"current_range_meters":15600,"station_id":"ce4bhs12rcd13ifvqhvg","pricing_plan_id":"free"},{"bike_id":"1a716d57-85a6-4b37-8d54-c080633ae31b","system_id":"levelo_inurba_marseille","lat":43.308012,"lon":5.381511,"is_reserved":false,"is_disabled":false,"rental_uris":{"android":"levelo://app?vid=1a716d57-85a6-4b37-8d54-c080633ae31b","ios":"levelo://app?vid=1a716d57-85a6-4b37-8d54-c080633ae31b"},"vehicle_type_id":"4","last_reported":1707055524,"current_range_meters":30000,"station_id":"ce4bgt12rcd13ifvqce0","pricing_plan_id":"free"},{"bike_id":"8cb315d4-f456-471d-8270-90a7b392e9bc","system_id":"levelo_inurba_marseille","lat":43.304606,"lon":5.379026,"is_reserved":false,"is_disabled":false,"rental_uris":{"android":"levelo://app?vid=8cb315d4-f456-471d-8270-90a7b392e9bc","ios":"levelo://app?vid=8cb315d4-f456-471d-8270-90a7b392e9bc"},"vehicle_type_id":"4","last_reported":1707055524,"current_range_meters":19200,"station_id":"ce4bgup2rcd13ifvqcn0","pricing_plan_id":"free"},{"bike_id":"39fc1e3c-fa4b-491e-96cf-e7cedf1ce296","system_id":"levelo_inurba_marseille","lat":43.304606,"lon":5.379026,"is_reserved":false,"is_disabled":false,"rental_uris":{"android":"levelo://app?vid=39fc1e3c-fa4b-491e-96cf-e7cedf1ce296","ios":"levelo://app?vid=39fc1e3c-fa4b-491e-96cf-e7cedf1ce296"},"vehicle_type_id":"4","last_reported":1707055524,"current_range_meters":8000,"station_id":"ce4bgup2rcd13ifvqcn0","pricing_plan_id":"free"},{"bike_id":"c29e0276-c90f-4f5e-ab63-3284ccc05fef","system_id":"levelo_inurba_marseille","lat":43.304606,"lon":5.379026,"is_reserved":false,"is_disabled":false,"rental_uris":{"android":"levelo://app?vid=c29e0276-c90f-4f5e-ab63-3284ccc05fef","ios":"levelo://app?vid=c29e0276-c90f-4f5e-ab63-3284ccc05fef"},"vehicle_type_id":"4","last_reported":1707055524,"current_range_meters":21600,"station_id":"ce4bgup2rcd13ifvqcn0","pricing_plan_id":"free"},{"bike_id":"bc974708-dcbd-4a8a-ac0d-164e8d7c65dc","system_id":"levelo_inurba_marseille","lat":43.324771,"lon":5.36557,"is_reserved":false,"is_disabled":false,"rental_uris":{"android":"levelo://app?vid=bc974708-dcbd-4a8a-ac0d-164e8d7c65dc","ios":"levelo://app?vid=bc974708-dcbd-4a8a-ac0d-164e8d7c65dc"},"vehicle_type_id":"4","last_reported":1707055524,"current_range_meters":21600,"station_id":"ce4bhs12rcd13ifvqhvg","pricing_plan_id":"free"},{"bike_id":"327ccafe-2f7f-4429-8f9a-ac292b5f6b59","system_id":"levelo_inurba_marseille","lat":43.313571,"lon":5.384829,"is_reserved":false,"is_disabled":false,"rental_uris":{"android":"levelo://app?vid=327ccafe-2f7f-4429-8f9a-ac292b5f6b59","ios":"levelo://app?vid=327ccafe-2f7f-4429-8f9a-ac292b5f6b59"},"vehicle_type_id":"4","last_reported":1707055524,"current_range_meters":30800,"station_id":"ce4bgt92rcd13ifvqcf0","pricing_plan_id":"free"},{"bike_id":"bfcd07e9-749f-4619-b632-e1727c47572a","system_id":"levelo_inurba_marseille","lat":43.313571,"lon":5.384829,"is_reserved":false,"is_disabled":false,"rental_uris":{"android":"levelo://app?vid=bfcd07e9-749f-4619-b632-e1727c47572a","ios":"levelo://app?vid=bfcd07e9-749f-4619-b632-e1727c47572a"},"vehicle_type_id":"4","last_reported":1707055524,"current_range_meters":9200,"station_id":"ce4bgt92rcd13ifvqcf0","pricing_plan_id":"free"},{"bike_id":"ad6ad277-a2e9-47b1-b3b8-256e3475aed1","system_id":"levelo_inurba_marseille","lat":43.298433,"lon":5.362774,"is_reserved":false,"is_disabled":false,"rental_uris":{"android":"levelo://app?vid=ad6ad277-a2e9-47b1-b3b8-256e3475aed1","ios":"levelo://app?vid=ad6ad277-a2e9-47b1-b3b8-256e3475aed1"},"vehicle_type_id":"4","last_reported":1707055524,"current_range_meters":9200,"station_id":"ce4bgpp2rcd13ifvqc3g","pricing_plan_id":"free"},{"bike_id":"42fb97bc-9106-4e5e-bb0a-ed891120f9b0","system_id":"levelo_inurba_marseille","lat":43.298433,"lon":5.362774,"is_reserved":false,"is_disabled":false,"rental_uris":{"android":"levelo://app?vid=42fb97bc-9106-4e5e-bb0a-ed891120f9b0","ios":"levelo://app?vid=42fb97bc-9106-4e5e-bb0a-ed891120f9b0"},"vehicle_type_id":"4","last_reported":1707055524,"current_range_meters":20800,"station_id":"ce4bgpp2rcd13ifvqc3g","pricing_plan_id":"free"},{"bike_id":"25fe23c7-aade-46eb-91ef-8c2c80b35672","system_id":"levelo_inurba_marseille","lat":43.298433,"lon":5.362774,"is_reserved":false,"is_disabled":false,"rental_uris":{"android":"levelo://app?vid=25fe23c7-aade-46eb-91ef-8c2c80b35672","ios":"levelo://app?vid=25fe23c7-aade-46eb-91ef-8c2c80b35672"},"vehicle_type_id":"4","last_reported":1707055524,"current_range_meters":10000,"station_id":"ce4bgpp2rcd13ifvqc3g","pricing_plan_id":"free"},{"bike_id":"37a3c724-9a66-4dba-a621-0e9e04456405","system_id":"levelo_inurba_marseille","lat":43.298433,"lon":5.362774,"is_reserved":false,"is_disabled":false,"rental_uris":{"android":"levelo://app?vid=37a3c724-9a66-4dba-a621-0e9e04456405","ios":"levelo://app?vid=37a3c724-9a66-4dba-a621-0e9e04456405"},"vehicle_type_id":"4","last_reported":1707055524,"current_range_meters":4000,"station_id":"ce4bgpp2rcd13ifvqc3g","pricing_plan_id":"free"},{"bike_id":"eab58f70-f7f2-4ce7-81c1-afbd5a362077","system_id":"levelo_inurba_marseille","lat":43.311722,"lon":5.387247,"is_reserved":false,"is_disabled":false,"rental_uris":{"android":"levelo://app?vid=eab58f70-f7f2-4ce7-81c1-afbd5a362077","ios":"levelo://app?vid=eab58f70-f7f2-4ce7-81c1-afbd5a362077"},"vehicle_type_id":"4","last_reported":1707055524,"current_range_meters":16800,"station_id":"ce4bgv12rcd13ifvqcp0","pricing_plan_id":"free"},{"bike_id":"8b023912-5267-4e1c-a403-4d70b425cebe","system_id":"levelo_inurba_marseille","lat":43.322866,"lon":5.382833,"is_reserved":false,"is_disabled":false,"rental_uris":{"android":"levelo://app?vid=8b023912-5267-4e1c-a403-4d70b425cebe","ios":"levelo://app?vid=8b023912-5267-4e1c-a403-4d70b425cebe"},"vehicle_type_id":"4","last_reported":1707055524,"current_range_meters":29200,"station_id":"ce4bhr12rcd13ifvqhqg","pricing_plan_id":"free"},{"bike_id":"1900e2ea-9239-49b1-933e-57903fa99707","system_id":"levelo_inurba_marseille","lat":43.32826,"lon":5.36695,"is_reserved":false,"is_disabled":false,"rental_uris":{"android":"levelo://app?vid=1900e2ea-9239-49b1-933e-57903fa99707","ios":"levelo://app?vid=1900e2ea-9239-49b1-933e-57903fa99707"},"vehicle_type_id":"4","last_reported":1707055524,"current_range_meters":10800,"station_id":"ce4bhs92rcd13ifvqi0g","pricing_plan_id":"free"},{"bike_id":"81d6c55c-5ab6-4964-9500-181a7b78889c","system_id":"levelo_inurba_marseille","lat":43.32829,"lon":5.36691,"is_reserved":false,"is_disabled":false,"rental_uris":{"android":"levelo://app?vid=81d6c55c-5ab6-4964-9500-181a7b78889c","ios":"levelo://app?vid=81d6c55c-5ab6-4964-9500-181a7b78889c"},"vehicle_type_id":"4","last_reported":1707055524,"current_range_meters":11600,"station_id":"ce4bhs92rcd13ifvqi0g","pricing_plan_id":"free"},{"bike_id":"d73908e2-2bfd-489b-804e-d4e95fac72d2","system_id":"levelo_inurba_marseille","lat":43.328321,"lon":5.366799,"is_reserved":false,"is_disabled":false,"rental_uris":{"android":"levelo://app?vid=d73908e2-2bfd-489b-804e-d4e95fac72d2","ios":"levelo://app?vid=d73908e2-2bfd-489b-804e-d4e95fac72d2"},"vehicle_type_id":"4","last_reported":1707055524,"current_range_meters":22000,"station_id":"ce4bhs92rcd13ifvqi0g","pricing_plan_id":"free"},{"bike_id":"1d0dfbb2-a895-4e0d-92ef-a414fc503961","system_id":"levelo_inurba_marseille","lat":43.3284,"lon":5.36689,"is_reserved":false,"is_disabled":false,"rental_uris":{"android":"levelo://app?vid=1d0dfbb2-a895-4e0d-92ef-a414fc503961","ios":"levelo://app?vid=1d0dfbb2-a895-4e0d-92ef-a414fc503961"},"vehicle_type_id":"4","last_reported":1707055524,"current_range_meters":14400,"station_id":"ce4bhs92rcd13ifvqi0g","pricing_plan_id":"free"},{"bike_id":"98e56bc8-6120-4102-b936-8fff388269c4","system_id":"levelo_inurba_marseille","lat":43.2968,"lon":5.37291,"is_reserved":false,"is_disabled":false,"rental_uris":{"android":"levelo://app?vid=98e56bc8-6120-4102-b936-8fff388269c4","ios":"levelo://app?vid=98e56bc8-6120-4102-b936-8fff388269c4"},"vehicle_type_id":"4","last_reported":1707055524,"current_range_meters":30400,"station_id":"ce4bgk12rcd13ifvqbj0","pricing_plan_id":"free"},{"bike_id":"e71dbeb2-bdcd-41a9-9e92-b0477debf34d","system_id":"levelo_inurba_marseille","lat":43.296429,"lon":5.374521,"is_reserved":false,"is_disabled":false,"rental_uris":{"android":"levelo://app?vid=e71dbeb2-bdcd-41a9-9e92-b0477debf34d","ios":"levelo://app?vid=e71dbeb2-bdcd-41a9-9e92-b0477debf34d"},"vehicle_type_id":"4","last_reported":1707055524,"current_range_meters":12800,"station_id":"","pricing_plan_id":"free"},{"bike_id":"8cbc5175-1c4e-47ec-bf3e-67e9135d2357","system_id":"levelo_inurba_marseille","lat":43.299028,"lon":5.381509,"is_reserved":false,"is_disabled":false,"rental_uris":{"android":"levelo://app?vid=8cbc5175-1c4e-47ec-bf3e-67e9135d2357","ios":"levelo://app?vid=8cbc5175-1c4e-47ec-bf3e-67e9135d2357"},"vehicle_type_id":"4","last_reported":1707055524,"current_range_meters":6400,"station_id":"ce4bgj12rcd13ifvqbc0","pricing_plan_id":"free"},{"bike_id":"5a7b2891-dc58-4489-a543-3104d2d219e2","system_id":"levelo_inurba_marseille","lat":43.317557,"lon":5.390173,"is_reserved":false,"is_disabled":false,"rental_uris":{"android":"levelo://app?vid=5a7b2891-dc58-4489-a543-3104d2d219e2","ios":"levelo://app?vid=5a7b2891-dc58-4489-a543-3104d2d219e2"},"vehicle_type_id":"4","last_reported":1707055524,"current_range_meters":29200,"station_id":"ce4bhqp2rcd13ifvqhng","pricing_plan_id":"free"},{"bike_id":"19afb4c5-60fe-420b-aa1d-3c5a3def252e","system_id":"levelo_inurba_marseille","lat":43.317557,"lon":5.390173,"is_reserved":false,"is_disabled":false,"rental_uris":{"android":"levelo://app?vid=19afb4c5-60fe-420b-aa1d-3c5a3def252e","ios":"levelo://app?vid=19afb4c5-60fe-420b-aa1d-3c5a3def252e"},"vehicle_type_id":"4","last_reported":1707055524,"current_range_meters":25600,"station_id":"ce4bhqp2rcd13ifvqhng","pricing_plan_id":"free"},{"bike_id":"86eba5ee-3f3e-465e-879d-a26eca611b6f","system_id":"levelo_inurba_marseille","lat":43.318289,"lon":5.390294,"is_reserved":false,"is_disabled":false,"rental_uris":{"android":"levelo://app?vid=86eba5ee-3f3e-465e-879d-a26eca611b6f","ios":"levelo://app?vid=86eba5ee-3f3e-465e-879d-a26eca611b6f"},"vehicle_type_id":"4","last_reported":1707055524,"current_range_meters":17200,"station_id":"","pricing_plan_id":"free"},{"bike_id":"36fe523c-5b09-45d9-8249-b925d9929cb4","system_id":"levelo_inurba_marseille","lat":43.29529,"lon":5.375,"is_reserved":false,"is_disabled":false,"rental_uris":{"android":"levelo://app?vid=36fe523c-5b09-45d9-8249-b925d9929cb4","ios":"levelo://app?vid=36fe523c-5b09-45d9-8249-b925d9929cb4"},"vehicle_type_id":"4","last_reported":1707055524,"current_range_meters":21200,"station_id":"ce4bgkp2rcd13ifvqbmg","pricing_plan_id":"free"},{"bike_id":"c7a1aae2-8c07-43b3-9896-e8c835777422","system_id":"levelo_inurba_marseille","lat":43.267959,"lon":5.402685,"is_reserved":false,"is_disabled":false,"rental_uris":{"android":"levelo://app?vid=c7a1aae2-8c07-43b3-9896-e8c835777422","ios":"levelo://app?vid=c7a1aae2-8c07-43b3-9896-e8c835777422"},"vehicle_type_id":"4","last_reported":1707055524,"current_range_meters":22800,"station_id":"ce501612rcd8frsf0b60","pricing_plan_id":"free"},{"bike_id":"f459bcc8-96d9-431d-bb45-ce1f50e6d398","system_id":"levelo_inurba_marseille","lat":43.32359,"lon":5.38881,"is_reserved":false,"is_disabled":false,"rental_uris":{"android":"levelo://app?vid=f459bcc8-96d9-431d-bb45-ce1f50e6d398","ios":"levelo://app?vid=f459bcc8-96d9-431d-bb45-ce1f50e6d398"},"vehicle_type_id":"4","last_reported":1707055524,"current_range_meters":2400,"station_id":"ce4bhqp2rcd13ifvqhog","pricing_plan_id":"free"},{"bike_id":"cf43375b-8817-4ab6-ad42-e6780f9b774a","system_id":"levelo_inurba_marseille","lat":43.32367,"lon":5.388836,"is_reserved":false,"is_disabled":false,"rental_uris":{"android":"levelo://app?vid=cf43375b-8817-4ab6-ad42-e6780f9b774a","ios":"levelo://app?vid=cf43375b-8817-4ab6-ad42-e6780f9b774a"},"vehicle_type_id":"4","last_reported":1707055524,"current_range_meters":12000,"station_id":"ce4bhqp2rcd13ifvqhog","pricing_plan_id":"free"},{"bike_id":"75ed1df4-b7df-4e88-9e9a-696a19f1762a","system_id":"levelo_inurba_marseille","lat":43.32367,"lon":5.38881,"is_reserved":false,"is_disabled":false,"rental_uris":{"android":"levelo://app?vid=75ed1df4-b7df-4e88-9e9a-696a19f1762a","ios":"levelo://app?vid=75ed1df4-b7df-4e88-9e9a-696a19f1762a"},"vehicle_type_id":"4","last_reported":1707055524,"current_range_meters":6000,"station_id":"ce4bhqp2rcd13ifvqhog","pricing_plan_id":"free"},{"bike_id":"999af2fa-7743-40b1-ad5a-09d74cc1efed","system_id":"levelo_inurba_marseille","lat":43.32373,"lon":5.38879,"is_reserved":false,"is_disabled":false,"rental_uris":{"android":"levelo://app?vid=999af2fa-7743-40b1-ad5a-09d74cc1efed","ios":"levelo://app?vid=999af2fa-7743-40b1-ad5a-09d74cc1efed"},"vehicle_type_id":"4","last_reported":1707055524,"current_range_meters":22800,"station_id":"ce4bhqp2rcd13ifvqhog","pricing_plan_id":"free"},{"bike_id":"9b081c91-637e-47ff-a6d8-ba13bb5f1be4","system_id":"levelo_inurba_marseille","lat":43.32369,"lon":5.38887,"is_reserved":false,"is_disabled":false,"rental_uris":{"android":"levelo://app?vid=9b081c91-637e-47ff-a6d8-ba13bb5f1be4","ios":"levelo://app?vid=9b081c91-637e-47ff-a6d8-ba13bb5f1be4"},"vehicle_type_id":"4","last_reported":1707055524,"current_range_meters":27600,"station_id":"ce4bhqp2rcd13ifvqhog","pricing_plan_id":"free"},{"bike_id":"9e6eecb3-a50f-4167-a1c7-f4e044e34a4a","system_id":"levelo_inurba_marseille","lat":43.292749,"lon":5.368402,"is_reserved":false,"is_disabled":false,"rental_uris":{"android":"levelo://app?vid=9e6eecb3-a50f-4167-a1c7-f4e044e34a4a","ios":"levelo://app?vid=9e6eecb3-a50f-4167-a1c7-f4e044e34a4a"},"vehicle_type_id":"4","last_reported":1707055524,"current_range_meters":17600,"station_id":"ce4bhbp2rcd13ifvqesg","pricing_plan_id":"free"},{"bike_id":"7d90e279-aef0-4053-ae24-ca75310d71dc","system_id":"levelo_inurba_marseille","lat":43.292749,"lon":5.368402,"is_reserved":false,"is_disabled":false,"rental_uris":{"android":"levelo://app?vid=7d90e279-aef0-4053-ae24-ca75310d71dc","ios":"levelo://app?vid=7d90e279-aef0-4053-ae24-ca75310d71dc"},"vehicle_type_id":"4","last_reported":1707055524,"current_range_meters":0,"station_id":"ce4bhbp2rcd13ifvqesg","pricing_plan_id":"free"},{"bike_id":"0f90d953-2b5d-4548-9aee-1fb6d84320c1","system_id":"levelo_inurba_marseille","lat":43.29272,"lon":5.3684,"is_reserved":false,"is_disabled":false,"rental_uris":{"android":"levelo://app?vid=0f90d953-2b5d-4548-9aee-1fb6d84320c1","ios":"levelo://app?vid=0f90d953-2b5d-4548-9aee-1fb6d84320c1"},"vehicle_type_id":"4","last_reported":1707055524,"current_range_meters":0,"station_id":"ce4bhbp2rcd13ifvqesg","pricing_plan_id":"free"},{"bike_id":"3d22b0e2-c431-4afd-9ab3-7184743cd772","system_id":"levelo_inurba_marseille","lat":43.293006,"lon":5.374635,"is_reserved":false,"is_disabled":false,"rental_uris":{"android":"levelo://app?vid=3d22b0e2-c431-4afd-9ab3-7184743cd772","ios":"levelo://app?vid=3d22b0e2-c431-4afd-9ab3-7184743cd772"},"vehicle_type_id":"4","last_reported":1707055524,"current_range_meters":18400,"station_id":"","pricing_plan_id":"free"},{"bike_id":"9ae61289-e0b5-4282-a0bb-f8d7f2c694cb","system_id":"levelo_inurba_marseille","lat":43.29287,"lon":5.37459,"is_reserved":false,"is_disabled":false,"rental_uris":{"android":"levelo://app?vid=9ae61289-e0b5-4282-a0bb-f8d7f2c694cb","ios":"levelo://app?vid=9ae61289-e0b5-4282-a0bb-f8d7f2c694cb"},"vehicle_type_id":"4","last_reported":1707055524,"current_range_meters":0,"station_id":"ce4bgi12rcd13ifvqb70","pricing_plan_id":"free"},{"bike_id":"d7f84722-430a-47b6-8030-e7471187d140","system_id":"levelo_inurba_marseille","lat":43.291671,"lon":5.371575,"is_reserved":false,"is_disabled":false,"rental_uris":{"android":"levelo://app?vid=d7f84722-430a-47b6-8030-e7471187d140","ios":"levelo://app?vid=d7f84722-430a-47b6-8030-e7471187d140"},"vehicle_type_id":"4","last_reported":1707055524,"current_range_meters":6400,"station_id":"ce4bha92rcd13ifvqeh0","pricing_plan_id":"free"},{"bike_id":"4419a724-5255-4916-9ab6-08c2c5ae2fc3","system_id":"levelo_inurba_marseille","lat":43.31632,"lon":5.396746,"is_reserved":false,"is_disabled":false,"rental_uris":{"android":"levelo://app?vid=4419a724-5255-4916-9ab6-08c2c5ae2fc3","ios":"levelo://app?vid=4419a724-5255-4916-9ab6-08c2c5ae2fc3"},"vehicle_type_id":"4","last_reported":1707055524,"current_range_meters":28400,"station_id":"","pricing_plan_id":"free"},{"bike_id":"7c755874-04f4-49a7-881c-3dccfea2f0df","system_id":"levelo_inurba_marseille","lat":43.290441,"lon":5.359123,"is_reserved":false,"is_disabled":false,"rental_uris":{"android":"levelo://app?vid=7c755874-04f4-49a7-881c-3dccfea2f0df","ios":"levelo://app?vid=7c755874-04f4-49a7-881c-3dccfea2f0df"},"vehicle_type_id":"4","last_reported":1707055524,"current_range_meters":0,"station_id":"","pricing_plan_id":"free"},{"bike_id":"df390cd2-34ed-4826-95d4-9f4def667a89","system_id":"levelo_inurba_marseille","lat":43.290402,"lon":5.359167,"is_reserved":false,"is_disabled":false,"rental_uris":{"android":"levelo://app?vid=df390cd2-34ed-4826-95d4-9f4def667a89","ios":"levelo://app?vid=df390cd2-34ed-4826-95d4-9f4def667a89"},"vehicle_type_id":"4","last_reported":1707055524,"current_range_meters":4800,"station_id":"ce4bha92rcd13ifvqeg0","pricing_plan_id":"free"},{"bike_id":"33a1f599-8d09-4890-900a-9dddf370dde1","system_id":"levelo_inurba_marseille","lat":43.304296,"lon":5.397513,"is_reserved":false,"is_disabled":false,"rental_uris":{"android":"levelo://app?vid=33a1f599-8d09-4890-900a-9dddf370dde1","ios":"levelo://app?vid=33a1f599-8d09-4890-900a-9dddf370dde1"},"vehicle_type_id":"4","last_reported":1707055524,"current_range_meters":6000,"station_id":"ce4bh092rcd13ifvqd20","pricing_plan_id":"free"},{"bike_id":"69dada2e-6ec1-4d25-9bc8-c1f241e60bc9","system_id":"levelo_inurba_marseille","lat":43.290104,"lon":5.356111,"is_reserved":false,"is_disabled":false,"rental_uris":{"android":"levelo://app?vid=69dada2e-6ec1-4d25-9bc8-c1f241e60bc9","ios":"levelo://app?vid=69dada2e-6ec1-4d25-9bc8-c1f241e60bc9"},"vehicle_type_id":"4","last_reported":1707055524,"current_range_meters":16800,"station_id":"ce4bhb92rcd13ifvqen0","pricing_plan_id":"free"},{"bike_id":"734ceffd-0195-405a-98b8-a033384ac229","system_id":"levelo_inurba_marseille","lat":43.290103,"lon":5.356114,"is_reserved":false,"is_disabled":false,"rental_uris":{"android":"levelo://app?vid=734ceffd-0195-405a-98b8-a033384ac229","ios":"levelo://app?vid=734ceffd-0195-405a-98b8-a033384ac229"},"vehicle_type_id":"4","last_reported":1707055524,"current_range_meters":1600,"station_id":"ce4bhb92rcd13ifvqen0","pricing_plan_id":"free"},{"bike_id":"84ac4dc3-c2f9-4ae0-bf58-9c14e10a514e","system_id":"levelo_inurba_marseille","lat":43.330442,"lon":5.389148,"is_reserved":false,"is_disabled":false,"rental_uris":{"android":"levelo://app?vid=84ac4dc3-c2f9-4ae0-bf58-9c14e10a514e","ios":"levelo://app?vid=84ac4dc3-c2f9-4ae0-bf58-9c14e10a514e"},"vehicle_type_id":"4","last_reported":1707055524,"current_range_meters":0,"station_id":"ce4bhr92rcd13ifvqhrg","pricing_plan_id":"free"},{"bike_id":"00fcc0c2-d5cd-4aaa-831c-3f8107f3d5fd","system_id":"levelo_inurba_marseille","lat":43.288543,"lon":5.358367,"is_reserved":false,"is_disabled":false,"rental_uris":{"android":"levelo://app?vid=00fcc0c2-d5cd-4aaa-831c-3f8107f3d5fd","ios":"levelo://app?vid=00fcc0c2-d5cd-4aaa-831c-3f8107f3d5fd"},"vehicle_type_id":"4","last_reported":1707055524,"current_range_meters":0,"station_id":"ce4bhb12rcd13ifvqem0","pricing_plan_id":"free"},{"bike_id":"c88b544a-7d5f-44cd-9e90-26ffcf31651a","system_id":"levelo_inurba_marseille","lat":43.32686,"lon":5.39586,"is_reserved":false,"is_disabled":false,"rental_uris":{"android":"levelo://app?vid=c88b544a-7d5f-44cd-9e90-26ffcf31651a","ios":"levelo://app?vid=c88b544a-7d5f-44cd-9e90-26ffcf31651a"},"vehicle_type_id":"4","last_reported":1707055524,"current_range_meters":13600,"station_id":"","pricing_plan_id":"free"},{"bike_id":"16bb404d-bc88-488f-9721-013f160d1c46","system_id":"levelo_inurba_marseille","lat":43.312609,"lon":5.401662,"is_reserved":false,"is_disabled":false,"rental_uris":{"android":"levelo://app?vid=16bb404d-bc88-488f-9721-013f160d1c46","ios":"levelo://app?vid=16bb404d-bc88-488f-9721-013f160d1c46"},"vehicle_type_id":"4","last_reported":1707055524,"current_range_meters":25200,"station_id":"ce4bh092rcd13ifvqd30","pricing_plan_id":"free"},{"bike_id":"ddda50fd-d050-4d1b-815a-450d23f65409","system_id":"levelo_inurba_marseille","lat":43.30651,"lon":5.40079,"is_reserved":false,"is_disabled":false,"rental_uris":{"android":"levelo://app?vid=ddda50fd-d050-4d1b-815a-450d23f65409","ios":"levelo://app?vid=ddda50fd-d050-4d1b-815a-450d23f65409"},"vehicle_type_id":"4","last_reported":1707055524,"current_range_meters":7200,"station_id":"","pricing_plan_id":"free"},{"bike_id":"b5c8cd35-34dd-45ee-b3e7-3050ef3cbe6a","system_id":"levelo_inurba_marseille","lat":43.337673,"lon":5.374918,"is_reserved":false,"is_disabled":false,"rental_uris":{"android":"levelo://app?vid=b5c8cd35-34dd-45ee-b3e7-3050ef3cbe6a","ios":"levelo://app?vid=b5c8cd35-34dd-45ee-b3e7-3050ef3cbe6a"},"vehicle_type_id":"4","last_reported":1707055524,"current_range_meters":12000,"station_id":"","pricing_plan_id":"free"},{"bike_id":"3fc8554f-dc4c-43a7-9720-9aa52e4e7a4c","system_id":"levelo_inurba_marseille","lat":43.28659,"lon":5.36341,"is_reserved":false,"is_disabled":false,"rental_uris":{"android":"levelo://app?vid=3fc8554f-dc4c-43a7-9720-9aa52e4e7a4c","ios":"levelo://app?vid=3fc8554f-dc4c-43a7-9720-9aa52e4e7a4c"},"vehicle_type_id":"4","last_reported":1707055524,"current_range_meters":0,"station_id":"ce4bhah2rcd13ifvqej0","pricing_plan_id":"free"},{"bike_id":"6bd0e684-45db-4e88-bdb8-9eefa25d84a6","system_id":"levelo_inurba_marseille","lat":43.29521,"lon":5.39391,"is_reserved":false,"is_disabled":false,"rental_uris":{"android":"levelo://app?vid=6bd0e684-45db-4e88-bdb8-9eefa25d84a6","ios":"levelo://app?vid=6bd0e684-45db-4e88-bdb8-9eefa25d84a6"},"vehicle_type_id":"4","last_reported":1707055524,"current_range_meters":2400,"station_id":"ce4bh292rcd13ifvqdf0","pricing_plan_id":"free"},{"bike_id":"575a3b91-8805-429e-8775-4d2b34898164","system_id":"levelo_inurba_marseille","lat":43.302759,"lon":5.400793,"is_reserved":false,"is_disabled":false,"rental_uris":{"android":"levelo://app?vid=575a3b91-8805-429e-8775-4d2b34898164","ios":"levelo://app?vid=575a3b91-8805-429e-8775-4d2b34898164"},"vehicle_type_id":"4","last_reported":1707055524,"current_range_meters":4800,"station_id":"ce4bgvh2rcd13ifvqcs0","pricing_plan_id":"free"},{"bike_id":"c11227b8-6224-4f85-96e9-c50cf8cf602c","system_id":"levelo_inurba_marseille","lat":43.286039,"lon":5.370679,"is_reserved":false,"is_disabled":false,"rental_uris":{"android":"levelo://app?vid=c11227b8-6224-4f85-96e9-c50cf8cf602c","ios":"levelo://app?vid=c11227b8-6224-4f85-96e9-c50cf8cf602c"},"vehicle_type_id":"4","last_reported":1707055524,"current_range_meters":28400,"station_id":"ce4bht12rcd13ifvqi60","pricing_plan_id":"free"},{"bike_id":"959ddf3a-b927-4500-9bac-6857bd30b5d5","system_id":"levelo_inurba_marseille","lat":43.286594,"lon":5.383336,"is_reserved":false,"is_disabled":false,"rental_uris":{"android":"levelo://app?vid=959ddf3a-b927-4500-9bac-6857bd30b5d5","ios":"levelo://app?vid=959ddf3a-b927-4500-9bac-6857bd30b5d5"},"vehicle_type_id":"4","last_reported":1707055524,"current_range_meters":11600,"station_id":"","pricing_plan_id":"free"},{"bike_id":"d672219c-7870-40ec-b7b8-10db2e372297","system_id":"levelo_inurba_marseille","lat":43.284534,"lon":5.358662,"is_reserved":false,"is_disabled":false,"rental_uris":{"android":"levelo://app?vid=d672219c-7870-40ec-b7b8-10db2e372297","ios":"levelo://app?vid=d672219c-7870-40ec-b7b8-10db2e372297"},"vehicle_type_id":"4","last_reported":1707055524,"current_range_meters":800,"station_id":"ce4bhah2rcd13ifvqei0","pricing_plan_id":"free"},{"bike_id":"37077984-4c80-4dbf-bd57-02ccf241c4f6","system_id":"levelo_inurba_marseille","lat":43.294314,"lon":5.397498,"is_reserved":false,"is_disabled":false,"rental_uris":{"android":"levelo://app?vid=37077984-4c80-4dbf-bd57-02ccf241c4f6","ios":"levelo://app?vid=37077984-4c80-4dbf-bd57-02ccf241c4f6"},"vehicle_type_id":"4","last_reported":1707055524,"current_range_meters":10800,"station_id":"ce4bh3h2rcd13ifvqdo0","pricing_plan_id":"free"},{"bike_id":"a05f1bed-a03c-47b7-aa2f-33ca3c2cf6ad","system_id":"levelo_inurba_marseille","lat":43.28621,"lon":5.35105,"is_reserved":false,"is_disabled":false,"rental_uris":{"android":"levelo://app?vid=a05f1bed-a03c-47b7-aa2f-33ca3c2cf6ad","ios":"levelo://app?vid=a05f1bed-a03c-47b7-aa2f-33ca3c2cf6ad"},"vehicle_type_id":"4","last_reported":1707055524,"current_range_meters":24400,"station_id":"ce4bhch2rcd13ifvqeug","pricing_plan_id":"free"},{"bike_id":"d7382df1-f975-4bec-9198-dc6a75d9e044","system_id":"levelo_inurba_marseille","lat":43.28614,"lon":5.35112,"is_reserved":false,"is_disabled":false,"rental_uris":{"android":"levelo://app?vid=d7382df1-f975-4bec-9198-dc6a75d9e044","ios":"levelo://app?vid=d7382df1-f975-4bec-9198-dc6a75d9e044"},"vehicle_type_id":"4","last_reported":1707055524,"current_range_meters":17200,"station_id":"ce4bhch2rcd13ifvqeug","pricing_plan_id":"free"},{"bike_id":"23c31892-c9df-46fa-94f7-77db400d238e","system_id":"levelo_inurba_marseille","lat":43.285856,"lon":5.350771,"is_reserved":false,"is_disabled":false,"rental_uris":{"android":"levelo://app?vid=23c31892-c9df-46fa-94f7-77db400d238e","ios":"levelo://app?vid=23c31892-c9df-46fa-94f7-77db400d238e"},"vehicle_type_id":"4","last_reported":1707055524,"current_range_meters":0,"station_id":"ce4bhch2rcd13ifvqeug","pricing_plan_id":"free"},{"bike_id":"3d5bdac7-929b-44b8-b056-3911a4f0973f","system_id":"levelo_inurba_marseille","lat":43.28614,"lon":5.3511,"is_reserved":false,"is_disabled":false,"rental_uris":{"android":"levelo://app?vid=3d5bdac7-929b-44b8-b056-3911a4f0973f","ios":"levelo://app?vid=3d5bdac7-929b-44b8-b056-3911a4f0973f"},"vehicle_type_id":"4","last_reported":1707055524,"current_range_meters":18000,"station_id":"ce4bhch2rcd13ifvqeug","pricing_plan_id":"free"},{"bike_id":"e03568af-d971-442a-848e-c35d636bd8c6","system_id":"levelo_inurba_marseille","lat":43.285856,"lon":5.350771,"is_reserved":false,"is_disabled":false,"rental_uris":{"android":"levelo://app?vid=e03568af-d971-442a-848e-c35d636bd8c6","ios":"levelo://app?vid=e03568af-d971-442a-848e-c35d636bd8c6"},"vehicle_type_id":"4","last_reported":1707055524,"current_range_meters":0,"station_id":"ce4bhch2rcd13ifvqeug","pricing_plan_id":"free"},{"bike_id":"1b18b81f-ab58-4066-b7ab-186f6b3b3b49","system_id":"levelo_inurba_marseille","lat":43.285856,"lon":5.350771,"is_reserved":false,"is_disabled":false,"rental_uris":{"android":"levelo://app?vid=1b18b81f-ab58-4066-b7ab-186f6b3b3b49","ios":"levelo://app?vid=1b18b81f-ab58-4066-b7ab-186f6b3b3b49"},"vehicle_type_id":"4","last_reported":1707055524,"current_range_meters":25600,"station_id":"ce4bhch2rcd13ifvqeug","pricing_plan_id":"free"},{"bike_id":"3c58f18d-b5bf-40f3-bd04-17a6bdfcc283","system_id":"levelo_inurba_marseille","lat":43.322855,"lon":5.40637,"is_reserved":false,"is_disabled":false,"rental_uris":{"android":"levelo://app?vid=3c58f18d-b5bf-40f3-bd04-17a6bdfcc283","ios":"levelo://app?vid=3c58f18d-b5bf-40f3-bd04-17a6bdfcc283"},"vehicle_type_id":"4","last_reported":1707055524,"current_range_meters":1200,"station_id":"","pricing_plan_id":"free"},{"bike_id":"ed55e961-e33d-4e96-863a-a02568b59b0a","system_id":"levelo_inurba_marseille","lat":43.337168,"lon":5.391825,"is_reserved":false,"is_disabled":false,"rental_uris":{"android":"levelo://app?vid=ed55e961-e33d-4e96-863a-a02568b59b0a","ios":"levelo://app?vid=ed55e961-e33d-4e96-863a-a02568b59b0a"},"vehicle_type_id":"4","last_reported":1707055524,"current_range_meters":31200,"station_id":"ce4bhr92rcd13ifvqhsg","pricing_plan_id":"free"},{"bike_id":"44e6577f-438a-4aad-bd1e-14888fd1d564","system_id":"levelo_inurba_marseille","lat":43.337168,"lon":5.391825,"is_reserved":false,"is_disabled":false,"rental_uris":{"android":"levelo://app?vid=44e6577f-438a-4aad-bd1e-14888fd1d564","ios":"levelo://app?vid=44e6577f-438a-4aad-bd1e-14888fd1d564"},"vehicle_type_id":"4","last_reported":1707055524,"current_range_meters":25200,"station_id":"ce4bhr92rcd13ifvqhsg","pricing_plan_id":"free"},{"bike_id":"30617369-dee0-4d55-aa7d-a2f541b0b943","system_id":"levelo_inurba_marseille","lat":43.284298,"lon":5.349813,"is_reserved":false,"is_disabled":false,"rental_uris":{"android":"levelo://app?vid=30617369-dee0-4d55-aa7d-a2f541b0b943","ios":"levelo://app?vid=30617369-dee0-4d55-aa7d-a2f541b0b943"},"vehicle_type_id":"4","last_reported":1707055524,"current_range_meters":5600,"station_id":"ce4bhbh2rcd13ifvqepg","pricing_plan_id":"free"},{"bike_id":"5497de4d-7a97-4e65-8917-84aefdc59e9d","system_id":"levelo_inurba_marseille","lat":43.284217,"lon":5.349697,"is_reserved":false,"is_disabled":false,"rental_uris":{"android":"levelo://app?vid=5497de4d-7a97-4e65-8917-84aefdc59e9d","ios":"levelo://app?vid=5497de4d-7a97-4e65-8917-84aefdc59e9d"},"vehicle_type_id":"4","last_reported":1707055524,"current_range_meters":24800,"station_id":"ce4bhbh2rcd13ifvqepg","pricing_plan_id":"free"},{"bike_id":"32114bc5-a671-4183-af72-809c38870188","system_id":"levelo_inurba_marseille","lat":43.284219,"lon":5.3497,"is_reserved":false,"is_disabled":false,"rental_uris":{"android":"levelo://app?vid=32114bc5-a671-4183-af72-809c38870188","ios":"levelo://app?vid=32114bc5-a671-4183-af72-809c38870188"},"vehicle_type_id":"4","last_reported":1707055524,"current_range_meters":27200,"station_id":"ce4bhbh2rcd13ifvqepg","pricing_plan_id":"free"},{"bike_id":"3e00cf43-5926-47bd-a14a-db256e42594d","system_id":"levelo_inurba_marseille","lat":43.28428,"lon":5.34982,"is_reserved":false,"is_disabled":false,"rental_uris":{"android":"levelo://app?vid=3e00cf43-5926-47bd-a14a-db256e42594d","ios":"levelo://app?vid=3e00cf43-5926-47bd-a14a-db256e42594d"},"vehicle_type_id":"4","last_reported":1707055524,"current_range_meters":5200,"station_id":"ce4bhbh2rcd13ifvqepg","pricing_plan_id":"free"},{"bike_id":"8ef83839-5ca2-4a5e-81e0-1c7cc05275b6","system_id":"levelo_inurba_marseille","lat":43.284219,"lon":5.3497,"is_reserved":false,"is_disabled":false,"rental_uris":{"android":"levelo://app?vid=8ef83839-5ca2-4a5e-81e0-1c7cc05275b6","ios":"levelo://app?vid=8ef83839-5ca2-4a5e-81e0-1c7cc05275b6"},"vehicle_type_id":"4","last_reported":1707055524,"current_range_meters":800,"station_id":"ce4bhbh2rcd13ifvqepg","pricing_plan_id":"free"},{"bike_id":"bebd52ad-59f6-44fe-9abe-79af44254e7c","system_id":"levelo_inurba_marseille","lat":43.284219,"lon":5.3497,"is_reserved":false,"is_disabled":false,"rental_uris":{"android":"levelo://app?vid=bebd52ad-59f6-44fe-9abe-79af44254e7c","ios":"levelo://app?vid=bebd52ad-59f6-44fe-9abe-79af44254e7c"},"vehicle_type_id":"4","last_reported":1707055524,"current_range_meters":22800,"station_id":"ce4bhbh2rcd13ifvqepg","pricing_plan_id":"free"},{"bike_id":"07f875b8-71aa-42e5-ad74-7efa0b36b02b","system_id":"levelo_inurba_marseille","lat":43.284219,"lon":5.3497,"is_reserved":false,"is_disabled":false,"rental_uris":{"android":"levelo://app?vid=07f875b8-71aa-42e5-ad74-7efa0b36b02b","ios":"levelo://app?vid=07f875b8-71aa-42e5-ad74-7efa0b36b02b"},"vehicle_type_id":"4","last_reported":1707055524,"current_range_meters":15200,"station_id":"ce4bhbh2rcd13ifvqepg","pricing_plan_id":"free"},{"bike_id":"c6e7fde1-6bcc-49c4-b01f-b64f3c6ab071","system_id":"levelo_inurba_marseille","lat":43.284219,"lon":5.3497,"is_reserved":false,"is_disabled":false,"rental_uris":{"android":"levelo://app?vid=c6e7fde1-6bcc-49c4-b01f-b64f3c6ab071","ios":"levelo://app?vid=c6e7fde1-6bcc-49c4-b01f-b64f3c6ab071"},"vehicle_type_id":"4","last_reported":1707055524,"current_range_meters":22000,"station_id":"ce4bhbh2rcd13ifvqepg","pricing_plan_id":"free"},{"bike_id":"fe8148b4-383b-4166-ae6b-778d96be2545","system_id":"levelo_inurba_marseille","lat":43.28426,"lon":5.34977,"is_reserved":false,"is_disabled":false,"rental_uris":{"android":"levelo://app?vid=fe8148b4-383b-4166-ae6b-778d96be2545","ios":"levelo://app?vid=fe8148b4-383b-4166-ae6b-778d96be2545"},"vehicle_type_id":"4","last_reported":1707055524,"current_range_meters":14800,"station_id":"ce4bhbh2rcd13ifvqepg","pricing_plan_id":"free"},{"bike_id":"c64899a9-e222-46ba-a27f-4af3517d49fe","system_id":"levelo_inurba_marseille","lat":43.284214,"lon":5.349706,"is_reserved":false,"is_disabled":false,"rental_uris":{"android":"levelo://app?vid=c64899a9-e222-46ba-a27f-4af3517d49fe","ios":"levelo://app?vid=c64899a9-e222-46ba-a27f-4af3517d49fe"},"vehicle_type_id":"4","last_reported":1707055524,"current_range_meters":8400,"station_id":"ce4bhbh2rcd13ifvqepg","pricing_plan_id":"free"},{"bike_id":"543101cb-dc76-4713-ae34-7c6ff0be0694","system_id":"levelo_inurba_marseille","lat":43.284217,"lon":5.349697,"is_reserved":false,"is_disabled":false,"rental_uris":{"android":"levelo://app?vid=543101cb-dc76-4713-ae34-7c6ff0be0694","ios":"levelo://app?vid=543101cb-dc76-4713-ae34-7c6ff0be0694"},"vehicle_type_id":"4","last_reported":1707055524,"current_range_meters":19200,"station_id":"ce4bhbh2rcd13ifvqepg","pricing_plan_id":"free"},{"bike_id":"636185c7-8b6d-4579-98c0-a5f0ca8be3b8","system_id":"levelo_inurba_marseille","lat":43.28426,"lon":5.34976,"is_reserved":false,"is_disabled":false,"rental_uris":{"android":"levelo://app?vid=636185c7-8b6d-4579-98c0-a5f0ca8be3b8","ios":"levelo://app?vid=636185c7-8b6d-4579-98c0-a5f0ca8be3b8"},"vehicle_type_id":"4","last_reported":1707055524,"current_range_meters":10800,"station_id":"ce4bhbh2rcd13ifvqepg","pricing_plan_id":"free"},{"bike_id":"492595be-18eb-4351-87ac-9b941e3b56af","system_id":"levelo_inurba_marseille","lat":43.284219,"lon":5.3497,"is_reserved":false,"is_disabled":false,"rental_uris":{"android":"levelo://app?vid=492595be-18eb-4351-87ac-9b941e3b56af","ios":"levelo://app?vid=492595be-18eb-4351-87ac-9b941e3b56af"},"vehicle_type_id":"4","last_reported":1707055524,"current_range_meters":22400,"station_id":"ce4bhbh2rcd13ifvqepg","pricing_plan_id":"free"},{"bike_id":"16a9f1b8-0677-4a8e-9617-06e698ce8847","system_id":"levelo_inurba_marseille","lat":43.284219,"lon":5.3497,"is_reserved":false,"is_disabled":false,"rental_uris":{"android":"levelo://app?vid=16a9f1b8-0677-4a8e-9617-06e698ce8847","ios":"levelo://app?vid=16a9f1b8-0677-4a8e-9617-06e698ce8847"},"vehicle_type_id":"4","last_reported":1707055524,"current_range_meters":29200,"station_id":"ce4bhbh2rcd13ifvqepg","pricing_plan_id":"free"},{"bike_id":"99d02163-c624-48b6-bc40-a4c938a3f414","system_id":"levelo_inurba_marseille","lat":43.28423,"lon":5.34984,"is_reserved":false,"is_disabled":false,"rental_uris":{"android":"levelo://app?vid=99d02163-c624-48b6-bc40-a4c938a3f414","ios":"levelo://app?vid=99d02163-c624-48b6-bc40-a4c938a3f414"},"vehicle_type_id":"4","last_reported":1707055524,"current_range_meters":12400,"station_id":"ce4bhbh2rcd13ifvqepg","pricing_plan_id":"free"},{"bike_id":"aaa8d174-bc7e-45fc-b84f-feaa0da699ff","system_id":"levelo_inurba_marseille","lat":43.284219,"lon":5.3497,"is_reserved":false,"is_disabled":false,"rental_uris":{"android":"levelo://app?vid=aaa8d174-bc7e-45fc-b84f-feaa0da699ff","ios":"levelo://app?vid=aaa8d174-bc7e-45fc-b84f-feaa0da699ff"},"vehicle_type_id":"4","last_reported":1707055524,"current_range_meters":6800,"station_id":"ce4bhbh2rcd13ifvqepg","pricing_plan_id":"free"},{"bike_id":"e6cb6f19-be98-4726-8ddf-b89e2fec2f30","system_id":"levelo_inurba_marseille","lat":43.284219,"lon":5.3497,"is_reserved":false,"is_disabled":false,"rental_uris":{"android":"levelo://app?vid=e6cb6f19-be98-4726-8ddf-b89e2fec2f30","ios":"levelo://app?vid=e6cb6f19-be98-4726-8ddf-b89e2fec2f30"},"vehicle_type_id":"4","last_reported":1707055524,"current_range_meters":30800,"station_id":"ce4bhbh2rcd13ifvqepg","pricing_plan_id":"free"},{"bike_id":"b8a6295e-4ef8-4629-9772-e864314f68af","system_id":"levelo_inurba_marseille","lat":43.28423,"lon":5.34981,"is_reserved":false,"is_disabled":false,"rental_uris":{"android":"levelo://app?vid=b8a6295e-4ef8-4629-9772-e864314f68af","ios":"levelo://app?vid=b8a6295e-4ef8-4629-9772-e864314f68af"},"vehicle_type_id":"4","last_reported":1707055524,"current_range_meters":1600,"station_id":"ce4bhbh2rcd13ifvqepg","pricing_plan_id":"free"},{"bike_id":"ff2b5e00-17f0-424d-915e-08ce84a71789","system_id":"levelo_inurba_marseille","lat":43.284217,"lon":5.349697,"is_reserved":false,"is_disabled":false,"rental_uris":{"android":"levelo://app?vid=ff2b5e00-17f0-424d-915e-08ce84a71789","ios":"levelo://app?vid=ff2b5e00-17f0-424d-915e-08ce84a71789"},"vehicle_type_id":"4","last_reported":1707055524,"current_range_meters":20400,"station_id":"ce4bhbh2rcd13ifvqepg","pricing_plan_id":"free"},{"bike_id":"3806e801-ee23-4b21-a017-9469cbbb8f2b","system_id":"levelo_inurba_marseille","lat":43.284219,"lon":5.3497,"is_reserved":false,"is_disabled":false,"rental_uris":{"android":"levelo://app?vid=3806e801-ee23-4b21-a017-9469cbbb8f2b","ios":"levelo://app?vid=3806e801-ee23-4b21-a017-9469cbbb8f2b"},"vehicle_type_id":"4","last_reported":1707055524,"current_range_meters":19200,"station_id":"ce4bhbh2rcd13ifvqepg","pricing_plan_id":"free"},{"bike_id":"bd0b1ad3-bcf6-4b06-b204-d71900d73e0a","system_id":"levelo_inurba_marseille","lat":43.284217,"lon":5.349697,"is_reserved":false,"is_disabled":false,"rental_uris":{"android":"levelo://app?vid=bd0b1ad3-bcf6-4b06-b204-d71900d73e0a","ios":"levelo://app?vid=bd0b1ad3-bcf6-4b06-b204-d71900d73e0a"},"vehicle_type_id":"4","last_reported":1707055524,"current_range_meters":18000,"station_id":"ce4bhbh2rcd13ifvqepg","pricing_plan_id":"free"},{"bike_id":"1c1160ec-ba53-4d80-81ca-a26a619fb0c5","system_id":"levelo_inurba_marseille","lat":43.284217,"lon":5.349697,"is_reserved":false,"is_disabled":false,"rental_uris":{"android":"levelo://app?vid=1c1160ec-ba53-4d80-81ca-a26a619fb0c5","ios":"levelo://app?vid=1c1160ec-ba53-4d80-81ca-a26a619fb0c5"},"vehicle_type_id":"4","last_reported":1707055524,"current_range_meters":16000,"station_id":"ce4bhbh2rcd13ifvqepg","pricing_plan_id":"free"},{"bike_id":"7a1baa79-0899-42d8-a8ec-f972184a8326","system_id":"levelo_inurba_marseille","lat":43.284219,"lon":5.3497,"is_reserved":false,"is_disabled":false,"rental_uris":{"android":"levelo://app?vid=7a1baa79-0899-42d8-a8ec-f972184a8326","ios":"levelo://app?vid=7a1baa79-0899-42d8-a8ec-f972184a8326"},"vehicle_type_id":"4","last_reported":1707055524,"current_range_meters":19200,"station_id":"ce4bhbh2rcd13ifvqepg","pricing_plan_id":"free"},{"bike_id":"a70c3986-d3ed-48f6-8937-cc702503e88c","system_id":"levelo_inurba_marseille","lat":43.284214,"lon":5.349706,"is_reserved":false,"is_disabled":false,"rental_uris":{"android":"levelo://app?vid=a70c3986-d3ed-48f6-8937-cc702503e88c","ios":"levelo://app?vid=a70c3986-d3ed-48f6-8937-cc702503e88c"},"vehicle_type_id":"4","last_reported":1707055524,"current_range_meters":14000,"station_id":"ce4bhbh2rcd13ifvqepg","pricing_plan_id":"free"},{"bike_id":"44198efe-346c-4eb2-b4fb-23de78454132","system_id":"levelo_inurba_marseille","lat":43.284214,"lon":5.349706,"is_reserved":false,"is_disabled":false,"rental_uris":{"android":"levelo://app?vid=44198efe-346c-4eb2-b4fb-23de78454132","ios":"levelo://app?vid=44198efe-346c-4eb2-b4fb-23de78454132"},"vehicle_type_id":"4","last_reported":1707055524,"current_range_meters":22000,"station_id":"ce4bhbh2rcd13ifvqepg","pricing_plan_id":"free"},{"bike_id":"a5e52dbc-3ab8-4fc3-befe-975d9270476d","system_id":"levelo_inurba_marseille","lat":43.28418,"lon":5.34979,"is_reserved":false,"is_disabled":false,"rental_uris":{"android":"levelo://app?vid=a5e52dbc-3ab8-4fc3-befe-975d9270476d","ios":"levelo://app?vid=a5e52dbc-3ab8-4fc3-befe-975d9270476d"},"vehicle_type_id":"4","last_reported":1707055524,"current_range_meters":15200,"station_id":"ce4bhbh2rcd13ifvqepg","pricing_plan_id":"free"},{"bike_id":"b712d5fe-e039-4be4-bf8e-78f7644d91cf","system_id":"levelo_inurba_marseille","lat":43.284214,"lon":5.349706,"is_reserved":false,"is_disabled":false,"rental_uris":{"android":"levelo://app?vid=b712d5fe-e039-4be4-bf8e-78f7644d91cf","ios":"levelo://app?vid=b712d5fe-e039-4be4-bf8e-78f7644d91cf"},"vehicle_type_id":"4","last_reported":1707055524,"current_range_meters":25600,"station_id":"ce4bhbh2rcd13ifvqepg","pricing_plan_id":"free"},{"bike_id":"8b10fb68-65e8-4488-8491-652e647f63ae","system_id":"levelo_inurba_marseille","lat":43.284117,"lon":5.34998,"is_reserved":false,"is_disabled":false,"rental_uris":{"android":"levelo://app?vid=8b10fb68-65e8-4488-8491-652e647f63ae","ios":"levelo://app?vid=8b10fb68-65e8-4488-8491-652e647f63ae"},"vehicle_type_id":"4","last_reported":1707055524,"current_range_meters":21200,"station_id":"ce4bhbh2rcd13ifvqepg","pricing_plan_id":"free"},{"bike_id":"2690ece4-b36b-4915-afa5-54b18a3394ca","system_id":"levelo_inurba_marseille","lat":43.284217,"lon":5.349697,"is_reserved":false,"is_disabled":false,"rental_uris":{"android":"levelo://app?vid=2690ece4-b36b-4915-afa5-54b18a3394ca","ios":"levelo://app?vid=2690ece4-b36b-4915-afa5-54b18a3394ca"},"vehicle_type_id":"4","last_reported":1707055524,"current_range_meters":1600,"station_id":"ce4bhbh2rcd13ifvqepg","pricing_plan_id":"free"},{"bike_id":"fd854dd9-69c6-4df6-ace5-44bbc78384fb","system_id":"levelo_inurba_marseille","lat":43.284217,"lon":5.349697,"is_reserved":false,"is_disabled":false,"rental_uris":{"android":"levelo://app?vid=fd854dd9-69c6-4df6-ace5-44bbc78384fb","ios":"levelo://app?vid=fd854dd9-69c6-4df6-ace5-44bbc78384fb"},"vehicle_type_id":"4","last_reported":1707055524,"current_range_meters":25200,"station_id":"ce4bhbh2rcd13ifvqepg","pricing_plan_id":"free"},{"bike_id":"626192c1-ccdd-4639-be32-8f3b8ba74627","system_id":"levelo_inurba_marseille","lat":43.284217,"lon":5.349697,"is_reserved":false,"is_disabled":false,"rental_uris":{"android":"levelo://app?vid=626192c1-ccdd-4639-be32-8f3b8ba74627","ios":"levelo://app?vid=626192c1-ccdd-4639-be32-8f3b8ba74627"},"vehicle_type_id":"4","last_reported":1707055524,"current_range_meters":24000,"station_id":"ce4bhbh2rcd13ifvqepg","pricing_plan_id":"free"},{"bike_id":"203ebfe2-5a6f-4332-a31a-7bfeae25c44b","system_id":"levelo_inurba_marseille","lat":43.284217,"lon":5.349697,"is_reserved":false,"is_disabled":false,"rental_uris":{"android":"levelo://app?vid=203ebfe2-5a6f-4332-a31a-7bfeae25c44b","ios":"levelo://app?vid=203ebfe2-5a6f-4332-a31a-7bfeae25c44b"},"vehicle_type_id":"4","last_reported":1707055524,"current_range_meters":31200,"station_id":"ce4bhbh2rcd13ifvqepg","pricing_plan_id":"free"},{"bike_id":"1f6b4f9a-0098-4aff-a87a-3ef18496c814","system_id":"levelo_inurba_marseille","lat":43.28282,"lon":5.35077,"is_reserved":false,"is_disabled":false,"rental_uris":{"android":"levelo://app?vid=1f6b4f9a-0098-4aff-a87a-3ef18496c814","ios":"levelo://app?vid=1f6b4f9a-0098-4aff-a87a-3ef18496c814"},"vehicle_type_id":"4","last_reported":1707055524,"current_range_meters":12800,"station_id":"ce4bhbp2rcd13ifvqerg","pricing_plan_id":"free"},{"bike_id":"00ec931d-6aee-47f3-ba00-cddb5cbe4fca","system_id":"levelo_inurba_marseille","lat":43.28283,"lon":5.35071,"is_reserved":false,"is_disabled":false,"rental_uris":{"android":"levelo://app?vid=00ec931d-6aee-47f3-ba00-cddb5cbe4fca","ios":"levelo://app?vid=00ec931d-6aee-47f3-ba00-cddb5cbe4fca"},"vehicle_type_id":"4","last_reported":1707055524,"current_range_meters":27200,"station_id":"ce4bhbp2rcd13ifvqerg","pricing_plan_id":"free"},{"bike_id":"43b3539d-5bf6-4955-9c57-bf0730b8c981","system_id":"levelo_inurba_marseille","lat":43.282744,"lon":5.350762,"is_reserved":false,"is_disabled":false,"rental_uris":{"android":"levelo://app?vid=43b3539d-5bf6-4955-9c57-bf0730b8c981","ios":"levelo://app?vid=43b3539d-5bf6-4955-9c57-bf0730b8c981"},"vehicle_type_id":"4","last_reported":1707055524,"current_range_meters":27600,"station_id":"ce4bhbp2rcd13ifvqerg","pricing_plan_id":"free"},{"bike_id":"a643145f-c189-4ff0-917f-824b6e645ecb","system_id":"levelo_inurba_marseille","lat":43.282754,"lon":5.350519,"is_reserved":false,"is_disabled":false,"rental_uris":{"android":"levelo://app?vid=a643145f-c189-4ff0-917f-824b6e645ecb","ios":"levelo://app?vid=a643145f-c189-4ff0-917f-824b6e645ecb"},"vehicle_type_id":"4","last_reported":1707055524,"current_range_meters":6800,"station_id":"ce4bhbp2rcd13ifvqerg","pricing_plan_id":"free"},{"bike_id":"2010c46b-5842-4552-835a-7a4ce722be1e","system_id":"levelo_inurba_marseille","lat":43.28277,"lon":5.350623,"is_reserved":false,"is_disabled":false,"rental_uris":{"android":"levelo://app?vid=2010c46b-5842-4552-835a-7a4ce722be1e","ios":"levelo://app?vid=2010c46b-5842-4552-835a-7a4ce722be1e"},"vehicle_type_id":"4","last_reported":1707055524,"current_range_meters":27600,"station_id":"ce4bhbp2rcd13ifvqerg","pricing_plan_id":"free"},{"bike_id":"9b89050d-53d3-407b-b2f2-e8f87da695aa","system_id":"levelo_inurba_marseille","lat":43.28272,"lon":5.35079,"is_reserved":false,"is_disabled":false,"rental_uris":{"android":"levelo://app?vid=9b89050d-53d3-407b-b2f2-e8f87da695aa","ios":"levelo://app?vid=9b89050d-53d3-407b-b2f2-e8f87da695aa"},"vehicle_type_id":"4","last_reported":1707055524,"current_range_meters":21200,"station_id":"ce4bhbp2rcd13ifvqerg","pricing_plan_id":"free"},{"bike_id":"4837c291-0127-4a5b-9ec4-68f9c4983fe8","system_id":"levelo_inurba_marseille","lat":43.282727,"lon":5.350713,"is_reserved":false,"is_disabled":false,"rental_uris":{"android":"levelo://app?vid=4837c291-0127-4a5b-9ec4-68f9c4983fe8","ios":"levelo://app?vid=4837c291-0127-4a5b-9ec4-68f9c4983fe8"},"vehicle_type_id":"4","last_reported":1707055524,"current_range_meters":11600,"station_id":"ce4bhbp2rcd13ifvqerg","pricing_plan_id":"free"},{"bike_id":"670d8770-d39a-49d6-b4a0-7050110b4f2d","system_id":"levelo_inurba_marseille","lat":43.28273,"lon":5.35063,"is_reserved":false,"is_disabled":false,"rental_uris":{"android":"levelo://app?vid=670d8770-d39a-49d6-b4a0-7050110b4f2d","ios":"levelo://app?vid=670d8770-d39a-49d6-b4a0-7050110b4f2d"},"vehicle_type_id":"4","last_reported":1707055524,"current_range_meters":18800,"station_id":"ce4bhbp2rcd13ifvqerg","pricing_plan_id":"free"},{"bike_id":"949914db-877a-4e91-9479-3997cd8c3591","system_id":"levelo_inurba_marseille","lat":43.282683,"lon":5.35077,"is_reserved":false,"is_disabled":false,"rental_uris":{"android":"levelo://app?vid=949914db-877a-4e91-9479-3997cd8c3591","ios":"levelo://app?vid=949914db-877a-4e91-9479-3997cd8c3591"},"vehicle_type_id":"4","last_reported":1707055524,"current_range_meters":0,"station_id":"ce4bhbp2rcd13ifvqerg","pricing_plan_id":"free"},{"bike_id":"f75fec5e-f27f-41af-8ef9-d0e582849e1d","system_id":"levelo_inurba_marseille","lat":43.28268,"lon":5.350753,"is_reserved":false,"is_disabled":false,"rental_uris":{"android":"levelo://app?vid=f75fec5e-f27f-41af-8ef9-d0e582849e1d","ios":"levelo://app?vid=f75fec5e-f27f-41af-8ef9-d0e582849e1d"},"vehicle_type_id":"4","last_reported":1707055524,"current_range_meters":14800,"station_id":"ce4bhbp2rcd13ifvqerg","pricing_plan_id":"free"},{"bike_id":"e0acd6b9-40ca-4d48-a9b6-b3ed244a15ed","system_id":"levelo_inurba_marseille","lat":43.2827,"lon":5.350678,"is_reserved":false,"is_disabled":false,"rental_uris":{"android":"levelo://app?vid=e0acd6b9-40ca-4d48-a9b6-b3ed244a15ed","ios":"levelo://app?vid=e0acd6b9-40ca-4d48-a9b6-b3ed244a15ed"},"vehicle_type_id":"4","last_reported":1707055524,"current_range_meters":0,"station_id":"ce4bhbp2rcd13ifvqerg","pricing_plan_id":"free"},{"bike_id":"5d95e1ad-ac58-4d5d-83da-795a6557d2d9","system_id":"levelo_inurba_marseille","lat":43.282657,"lon":5.350736,"is_reserved":false,"is_disabled":false,"rental_uris":{"android":"levelo://app?vid=5d95e1ad-ac58-4d5d-83da-795a6557d2d9","ios":"levelo://app?vid=5d95e1ad-ac58-4d5d-83da-795a6557d2d9"},"vehicle_type_id":"4","last_reported":1707055524,"current_range_meters":0,"station_id":"ce4bhbp2rcd13ifvqerg","pricing_plan_id":"free"},{"bike_id":"7ed32c65-1122-4585-bec2-28b4f0307fc6","system_id":"levelo_inurba_marseille","lat":43.28264,"lon":5.35074,"is_reserved":false,"is_disabled":false,"rental_uris":{"android":"levelo://app?vid=7ed32c65-1122-4585-bec2-28b4f0307fc6","ios":"levelo://app?vid=7ed32c65-1122-4585-bec2-28b4f0307fc6"},"vehicle_type_id":"4","last_reported":1707055524,"current_range_meters":0,"station_id":"ce4bhbp2rcd13ifvqerg","pricing_plan_id":"free"},{"bike_id":"878491fa-74f3-46ea-8aa4-ff5cd70c5753","system_id":"levelo_inurba_marseille","lat":43.28264,"lon":5.35071,"is_reserved":false,"is_disabled":false,"rental_uris":{"android":"levelo://app?vid=878491fa-74f3-46ea-8aa4-ff5cd70c5753","ios":"levelo://app?vid=878491fa-74f3-46ea-8aa4-ff5cd70c5753"},"vehicle_type_id":"4","last_reported":1707055524,"current_range_meters":23200,"station_id":"ce4bhbp2rcd13ifvqerg","pricing_plan_id":"free"},{"bike_id":"ab907cdf-e79b-45b7-86f3-3846308a752b","system_id":"levelo_inurba_marseille","lat":43.282626,"lon":5.35074,"is_reserved":false,"is_disabled":false,"rental_uris":{"android":"levelo://app?vid=ab907cdf-e79b-45b7-86f3-3846308a752b","ios":"levelo://app?vid=ab907cdf-e79b-45b7-86f3-3846308a752b"},"vehicle_type_id":"4","last_reported":1707055524,"current_range_meters":29600,"station_id":"ce4bhbp2rcd13ifvqerg","pricing_plan_id":"free"},{"bike_id":"1d9878ca-76e9-4ba9-95ff-37f2054c5c1d","system_id":"levelo_inurba_marseille","lat":43.282629,"lon":5.350728,"is_reserved":false,"is_disabled":false,"rental_uris":{"android":"levelo://app?vid=1d9878ca-76e9-4ba9-95ff-37f2054c5c1d","ios":"levelo://app?vid=1d9878ca-76e9-4ba9-95ff-37f2054c5c1d"},"vehicle_type_id":"4","last_reported":1707055524,"current_range_meters":10000,"station_id":"ce4bhbp2rcd13ifvqerg","pricing_plan_id":"free"},{"bike_id":"4997f785-a7bd-4f17-a1d3-51ac42e5676d","system_id":"levelo_inurba_marseille","lat":43.28263,"lon":5.35068,"is_reserved":false,"is_disabled":false,"rental_uris":{"android":"levelo://app?vid=4997f785-a7bd-4f17-a1d3-51ac42e5676d","ios":"levelo://app?vid=4997f785-a7bd-4f17-a1d3-51ac42e5676d"},"vehicle_type_id":"4","last_reported":1707055524,"current_range_meters":6800,"station_id":"ce4bhbp2rcd13ifvqerg","pricing_plan_id":"free"},{"bike_id":"ea3868ac-9c8b-4f89-8e5b-f5d0ea832418","system_id":"levelo_inurba_marseille","lat":43.282605,"lon":5.350755,"is_reserved":false,"is_disabled":false,"rental_uris":{"android":"levelo://app?vid=ea3868ac-9c8b-4f89-8e5b-f5d0ea832418","ios":"levelo://app?vid=ea3868ac-9c8b-4f89-8e5b-f5d0ea832418"},"vehicle_type_id":"4","last_reported":1707055524,"current_range_meters":28000,"station_id":"ce4bhbp2rcd13ifvqerg","pricing_plan_id":"free"},{"bike_id":"7f7041d2-a79f-4c1b-a6bd-676a6a3397db","system_id":"levelo_inurba_marseille","lat":43.282651,"lon":5.350552,"is_reserved":false,"is_disabled":false,"rental_uris":{"android":"levelo://app?vid=7f7041d2-a79f-4c1b-a6bd-676a6a3397db","ios":"levelo://app?vid=7f7041d2-a79f-4c1b-a6bd-676a6a3397db"},"vehicle_type_id":"4","last_reported":1707055524,"current_range_meters":2400,"station_id":"ce4bhbp2rcd13ifvqerg","pricing_plan_id":"free"},{"bike_id":"23cc6c25-69d3-4e0e-87ad-2a5f3ce5ed44","system_id":"levelo_inurba_marseille","lat":43.28039,"lon":5.369297,"is_reserved":false,"is_disabled":false,"rental_uris":{"android":"levelo://app?vid=23cc6c25-69d3-4e0e-87ad-2a5f3ce5ed44","ios":"levelo://app?vid=23cc6c25-69d3-4e0e-87ad-2a5f3ce5ed44"},"vehicle_type_id":"4","last_reported":1707055524,"current_range_meters":400,"station_id":"ce4bha12rcd13ifvqef0","pricing_plan_id":"free"},{"bike_id":"ee999d41-d401-4a32-ad96-d405b0eb8d25","system_id":"levelo_inurba_marseille","lat":43.28255,"lon":5.35058,"is_reserved":false,"is_disabled":false,"rental_uris":{"android":"levelo://app?vid=ee999d41-d401-4a32-ad96-d405b0eb8d25","ios":"levelo://app?vid=ee999d41-d401-4a32-ad96-d405b0eb8d25"},"vehicle_type_id":"4","last_reported":1707055524,"current_range_meters":18400,"station_id":"ce4bhbp2rcd13ifvqerg","pricing_plan_id":"free"},{"bike_id":"71d58b92-edec-48ac-a338-0c7404e39a67","system_id":"levelo_inurba_marseille","lat":43.282526,"lon":5.35004,"is_reserved":false,"is_disabled":false,"rental_uris":{"android":"levelo://app?vid=71d58b92-edec-48ac-a338-0c7404e39a67","ios":"levelo://app?vid=71d58b92-edec-48ac-a338-0c7404e39a67"},"vehicle_type_id":"4","last_reported":1707055524,"current_range_meters":2000,"station_id":"ce4bhbp2rcd13ifvqerg","pricing_plan_id":"free"},{"bike_id":"523c8b62-a394-427c-83ac-1e8f246890d3","system_id":"levelo_inurba_marseille","lat":43.281739,"lon":5.383049,"is_reserved":false,"is_disabled":false,"rental_uris":{"android":"levelo://app?vid=523c8b62-a394-427c-83ac-1e8f246890d3","ios":"levelo://app?vid=523c8b62-a394-427c-83ac-1e8f246890d3"},"vehicle_type_id":"4","last_reported":1707055524,"current_range_meters":2400,"station_id":"","pricing_plan_id":"free"},{"bike_id":"ad983df0-1e36-4bba-91ca-79c081c2adb5","system_id":"levelo_inurba_marseille","lat":43.284462,"lon":5.392121,"is_reserved":false,"is_disabled":false,"rental_uris":{"android":"levelo://app?vid=ad983df0-1e36-4bba-91ca-79c081c2adb5","ios":"levelo://app?vid=ad983df0-1e36-4bba-91ca-79c081c2adb5"},"vehicle_type_id":"4","last_reported":1707055524,"current_range_meters":20000,"station_id":"ce4bhoh2rcd13ifvqh5g","pricing_plan_id":"free"},{"bike_id":"5035c792-005e-48d3-a327-6f17bdce5cd3","system_id":"levelo_inurba_marseille","lat":43.326605,"lon":5.409903,"is_reserved":false,"is_disabled":false,"rental_uris":{"android":"levelo://app?vid=5035c792-005e-48d3-a327-6f17bdce5cd3","ios":"levelo://app?vid=5035c792-005e-48d3-a327-6f17bdce5cd3"},"vehicle_type_id":"4","last_reported":1707055524,"current_range_meters":10800,"station_id":"ce4bhpp2rcd13ifvqhgg","pricing_plan_id":"free"},{"bike_id":"465b1140-422b-4e3f-8759-aa860f7686a1","system_id":"levelo_inurba_marseille","lat":43.326605,"lon":5.409903,"is_reserved":false,"is_disabled":false,"rental_uris":{"android":"levelo://app?vid=465b1140-422b-4e3f-8759-aa860f7686a1","ios":"levelo://app?vid=465b1140-422b-4e3f-8759-aa860f7686a1"},"vehicle_type_id":"4","last_reported":1707055524,"current_range_meters":14800,"station_id":"ce4bhpp2rcd13ifvqhgg","pricing_plan_id":"free"},{"bike_id":"d472e7dc-83cd-468d-8bc1-58307ac30018","system_id":"levelo_inurba_marseille","lat":43.279087,"lon":5.380114,"is_reserved":false,"is_disabled":false,"rental_uris":{"android":"levelo://app?vid=d472e7dc-83cd-468d-8bc1-58307ac30018","ios":"levelo://app?vid=d472e7dc-83cd-468d-8bc1-58307ac30018"},"vehicle_type_id":"4","last_reported":1707055524,"current_range_meters":21600,"station_id":"ce4bhf92rcd13ifvqf50","pricing_plan_id":"free"},{"bike_id":"3ed025f8-96bf-4461-be0b-0d8275a960d4","system_id":"levelo_inurba_marseille","lat":43.279742,"lon":5.38744,"is_reserved":false,"is_disabled":false,"rental_uris":{"android":"levelo://app?vid=3ed025f8-96bf-4461-be0b-0d8275a960d4","ios":"levelo://app?vid=3ed025f8-96bf-4461-be0b-0d8275a960d4"},"vehicle_type_id":"4","last_reported":1707055524,"current_range_meters":800,"station_id":"ce4bhg12rcd13ifvqf80","pricing_plan_id":"free"},{"bike_id":"ef3e6490-9c0a-45be-b6a8-76a47b5a1b8f","system_id":"levelo_inurba_marseille","lat":43.320045,"lon":5.415046,"is_reserved":false,"is_disabled":false,"rental_uris":{"android":"levelo://app?vid=ef3e6490-9c0a-45be-b6a8-76a47b5a1b8f","ios":"levelo://app?vid=ef3e6490-9c0a-45be-b6a8-76a47b5a1b8f"},"vehicle_type_id":"4","last_reported":1707055524,"current_range_meters":800,"station_id":"ce4bhq92rcd13ifvqhkg","pricing_plan_id":"free"},{"bike_id":"4eccbd47-6cc9-4679-b1ca-e7dff7c3d665","system_id":"levelo_inurba_marseille","lat":43.320453,"lon":5.415763,"is_reserved":false,"is_disabled":false,"rental_uris":{"android":"levelo://app?vid=4eccbd47-6cc9-4679-b1ca-e7dff7c3d665","ios":"levelo://app?vid=4eccbd47-6cc9-4679-b1ca-e7dff7c3d665"},"vehicle_type_id":"4","last_reported":1707055524,"current_range_meters":0,"station_id":"ce4bhq92rcd13ifvqhkg","pricing_plan_id":"free"},{"bike_id":"84127526-97fa-4bf6-b250-fff7609bc8d7","system_id":"levelo_inurba_marseille","lat":43.325233,"lon":5.414318,"is_reserved":false,"is_disabled":false,"rental_uris":{"android":"levelo://app?vid=84127526-97fa-4bf6-b250-fff7609bc8d7","ios":"levelo://app?vid=84127526-97fa-4bf6-b250-fff7609bc8d7"},"vehicle_type_id":"4","last_reported":1707055524,"current_range_meters":0,"station_id":"ce4bhq12rcd13ifvqhhg","pricing_plan_id":"free"},{"bike_id":"0b836f77-dfd9-4815-9397-c05085812946","system_id":"levelo_inurba_marseille","lat":43.325233,"lon":5.414318,"is_reserved":false,"is_disabled":false,"rental_uris":{"android":"levelo://app?vid=0b836f77-dfd9-4815-9397-c05085812946","ios":"levelo://app?vid=0b836f77-dfd9-4815-9397-c05085812946"},"vehicle_type_id":"4","last_reported":1707055524,"current_range_meters":16800,"station_id":"ce4bhq12rcd13ifvqhhg","pricing_plan_id":"free"},{"bike_id":"53b79720-3021-45f9-bfc0-5c005f3dbb2d","system_id":"levelo_inurba_marseille","lat":43.27628,"lon":5.36113,"is_reserved":false,"is_disabled":false,"rental_uris":{"android":"levelo://app?vid=53b79720-3021-45f9-bfc0-5c005f3dbb2d","ios":"levelo://app?vid=53b79720-3021-45f9-bfc0-5c005f3dbb2d"},"vehicle_type_id":"4","last_reported":1707055524,"current_range_meters":30000,"station_id":"ce4bgj92rcd13ifvqbe0","pricing_plan_id":"free"},{"bike_id":"1158f524-2441-452d-b34b-b83466aa0262","system_id":"levelo_inurba_marseille","lat":43.27626,"lon":5.36111,"is_reserved":false,"is_disabled":false,"rental_uris":{"android":"levelo://app?vid=1158f524-2441-452d-b34b-b83466aa0262","ios":"levelo://app?vid=1158f524-2441-452d-b34b-b83466aa0262"},"vehicle_type_id":"4","last_reported":1707055524,"current_range_meters":8000,"station_id":"ce4bgj92rcd13ifvqbe0","pricing_plan_id":"free"},{"bike_id":"6a48edbe-c92a-496e-a20c-fd28a26d3328","system_id":"levelo_inurba_marseille","lat":43.292571,"lon":5.409107,"is_reserved":false,"is_disabled":false,"rental_uris":{"android":"levelo://app?vid=6a48edbe-c92a-496e-a20c-fd28a26d3328","ios":"levelo://app?vid=6a48edbe-c92a-496e-a20c-fd28a26d3328"},"vehicle_type_id":"4","last_reported":1707055524,"current_range_meters":13200,"station_id":"ce4bh192rcd13ifvqdc0","pricing_plan_id":"free"},{"bike_id":"41782107-55f5-43f9-822d-6590cad417e5","system_id":"levelo_inurba_marseille","lat":43.276179,"lon":5.361009,"is_reserved":false,"is_disabled":false,"rental_uris":{"android":"levelo://app?vid=41782107-55f5-43f9-822d-6590cad417e5","ios":"levelo://app?vid=41782107-55f5-43f9-822d-6590cad417e5"},"vehicle_type_id":"4","last_reported":1707055524,"current_range_meters":28400,"station_id":"ce4bgj92rcd13ifvqbe0","pricing_plan_id":"free"},{"bike_id":"f5de6bc5-cb6c-4e94-91af-0ccfd0dbd3c6","system_id":"levelo_inurba_marseille","lat":43.325233,"lon":5.414318,"is_reserved":false,"is_disabled":false,"rental_uris":{"android":"levelo://app?vid=f5de6bc5-cb6c-4e94-91af-0ccfd0dbd3c6","ios":"levelo://app?vid=f5de6bc5-cb6c-4e94-91af-0ccfd0dbd3c6"},"vehicle_type_id":"4","last_reported":1707055524,"current_range_meters":30000,"station_id":"ce4bhq12rcd13ifvqhhg","pricing_plan_id":"free"},{"bike_id":"141330c9-2215-4166-a98f-8a68ce90bf90","system_id":"levelo_inurba_marseille","lat":43.276179,"lon":5.361009,"is_reserved":false,"is_disabled":false,"rental_uris":{"android":"levelo://app?vid=141330c9-2215-4166-a98f-8a68ce90bf90","ios":"levelo://app?vid=141330c9-2215-4166-a98f-8a68ce90bf90"},"vehicle_type_id":"4","last_reported":1707055524,"current_range_meters":26000,"station_id":"ce4bgj92rcd13ifvqbe0","pricing_plan_id":"free"},{"bike_id":"57805980-5fa1-4781-8aa9-8988c7ce699a","system_id":"levelo_inurba_marseille","lat":43.27619,"lon":5.36103,"is_reserved":false,"is_disabled":false,"rental_uris":{"android":"levelo://app?vid=57805980-5fa1-4781-8aa9-8988c7ce699a","ios":"levelo://app?vid=57805980-5fa1-4781-8aa9-8988c7ce699a"},"vehicle_type_id":"4","last_reported":1707055524,"current_range_meters":24800,"station_id":"ce4bgj92rcd13ifvqbe0","pricing_plan_id":"free"},{"bike_id":"bc5c4b6d-dec2-477e-acce-893da0b8915f","system_id":"levelo_inurba_marseille","lat":43.27616,"lon":5.36112,"is_reserved":false,"is_disabled":false,"rental_uris":{"android":"levelo://app?vid=bc5c4b6d-dec2-477e-acce-893da0b8915f","ios":"levelo://app?vid=bc5c4b6d-dec2-477e-acce-893da0b8915f"},"vehicle_type_id":"4","last_reported":1707055524,"current_range_meters":24400,"station_id":"ce4bgj92rcd13ifvqbe0","pricing_plan_id":"free"},{"bike_id":"3e8cc310-f81b-47c4-a705-394bb7655722","system_id":"levelo_inurba_marseille","lat":43.276179,"lon":5.361009,"is_reserved":false,"is_disabled":false,"rental_uris":{"android":"levelo://app?vid=3e8cc310-f81b-47c4-a705-394bb7655722","ios":"levelo://app?vid=3e8cc310-f81b-47c4-a705-394bb7655722"},"vehicle_type_id":"4","last_reported":1707055524,"current_range_meters":25200,"station_id":"ce4bgj92rcd13ifvqbe0","pricing_plan_id":"free"},{"bike_id":"1660594f-ca6f-4cc5-82e1-3d511d00b9a9","system_id":"levelo_inurba_marseille","lat":43.280784,"lon":5.396622,"is_reserved":false,"is_disabled":false,"rental_uris":{"android":"levelo://app?vid=1660594f-ca6f-4cc5-82e1-3d511d00b9a9","ios":"levelo://app?vid=1660594f-ca6f-4cc5-82e1-3d511d00b9a9"},"vehicle_type_id":"4","last_reported":1707055524,"current_range_meters":22000,"station_id":"ce4bho12rcd13ifvqh2g","pricing_plan_id":"free"},{"bike_id":"d428bc57-661e-4410-b6e0-fd74c417a9aa","system_id":"levelo_inurba_marseille","lat":43.3035,"lon":5.41844,"is_reserved":false,"is_disabled":false,"rental_uris":{"android":"levelo://app?vid=d428bc57-661e-4410-b6e0-fd74c417a9aa","ios":"levelo://app?vid=d428bc57-661e-4410-b6e0-fd74c417a9aa"},"vehicle_type_id":"4","last_reported":1707055524,"current_range_meters":20000,"station_id":"ce4bhop2rcd13ifvqh7g","pricing_plan_id":"free"},{"bike_id":"80ce0674-8c4e-4604-a773-c87ac91d13b7","system_id":"levelo_inurba_marseille","lat":43.27384,"lon":5.36251,"is_reserved":false,"is_disabled":false,"rental_uris":{"android":"levelo://app?vid=80ce0674-8c4e-4604-a773-c87ac91d13b7","ios":"levelo://app?vid=80ce0674-8c4e-4604-a773-c87ac91d13b7"},"vehicle_type_id":"4","last_reported":1707055524,"current_range_meters":12400,"station_id":"ce4bhbh2rcd13ifvqeo0","pricing_plan_id":"free"},{"bike_id":"4041ba7a-3671-48cc-8765-41575cdc6cf3","system_id":"levelo_inurba_marseille","lat":43.273613,"lon":5.362705,"is_reserved":false,"is_disabled":false,"rental_uris":{"android":"levelo://app?vid=4041ba7a-3671-48cc-8765-41575cdc6cf3","ios":"levelo://app?vid=4041ba7a-3671-48cc-8765-41575cdc6cf3"},"vehicle_type_id":"4","last_reported":1707055524,"current_range_meters":0,"station_id":"ce4bhbh2rcd13ifvqeo0","pricing_plan_id":"free"},{"bike_id":"c7583e49-dbd1-47d0-8520-fe444caf572f","system_id":"levelo_inurba_marseille","lat":43.273613,"lon":5.362705,"is_reserved":false,"is_disabled":false,"rental_uris":{"android":"levelo://app?vid=c7583e49-dbd1-47d0-8520-fe444caf572f","ios":"levelo://app?vid=c7583e49-dbd1-47d0-8520-fe444caf572f"},"vehicle_type_id":"4","last_reported":1707055524,"current_range_meters":8000,"station_id":"ce4bhbh2rcd13ifvqeo0","pricing_plan_id":"free"},{"bike_id":"ad79feb5-3f80-4996-9e2e-8af26b367b1a","system_id":"levelo_inurba_marseille","lat":43.273613,"lon":5.362705,"is_reserved":false,"is_disabled":false,"rental_uris":{"android":"levelo://app?vid=ad79feb5-3f80-4996-9e2e-8af26b367b1a","ios":"levelo://app?vid=ad79feb5-3f80-4996-9e2e-8af26b367b1a"},"vehicle_type_id":"4","last_reported":1707055524,"current_range_meters":13600,"station_id":"ce4bhbh2rcd13ifvqeo0","pricing_plan_id":"free"},{"bike_id":"75cbc393-bda9-4bd3-81aa-cfc54516101b","system_id":"levelo_inurba_marseille","lat":43.273613,"lon":5.362705,"is_reserved":false,"is_disabled":false,"rental_uris":{"android":"levelo://app?vid=75cbc393-bda9-4bd3-81aa-cfc54516101b","ios":"levelo://app?vid=75cbc393-bda9-4bd3-81aa-cfc54516101b"},"vehicle_type_id":"4","last_reported":1707055524,"current_range_meters":10400,"station_id":"ce4bhbh2rcd13ifvqeo0","pricing_plan_id":"free"},{"bike_id":"1695f48d-19e8-4058-9b5d-f58d3c1c251d","system_id":"levelo_inurba_marseille","lat":43.27378,"lon":5.36251,"is_reserved":false,"is_disabled":false,"rental_uris":{"android":"levelo://app?vid=1695f48d-19e8-4058-9b5d-f58d3c1c251d","ios":"levelo://app?vid=1695f48d-19e8-4058-9b5d-f58d3c1c251d"},"vehicle_type_id":"4","last_reported":1707055524,"current_range_meters":16000,"station_id":"ce4bhbh2rcd13ifvqeo0","pricing_plan_id":"free"},{"bike_id":"5f8e0367-e7ed-4251-bdec-191fb504d6ea","system_id":"levelo_inurba_marseille","lat":43.27377,"lon":5.3626,"is_reserved":false,"is_disabled":false,"rental_uris":{"android":"levelo://app?vid=5f8e0367-e7ed-4251-bdec-191fb504d6ea","ios":"levelo://app?vid=5f8e0367-e7ed-4251-bdec-191fb504d6ea"},"vehicle_type_id":"4","last_reported":1707055524,"current_range_meters":14800,"station_id":"ce4bhbh2rcd13ifvqeo0","pricing_plan_id":"free"},{"bike_id":"dca07654-ef30-4793-b615-b1d5a701cb1a","system_id":"levelo_inurba_marseille","lat":43.273766,"lon":5.362537,"is_reserved":false,"is_disabled":false,"rental_uris":{"android":"levelo://app?vid=dca07654-ef30-4793-b615-b1d5a701cb1a","ios":"levelo://app?vid=dca07654-ef30-4793-b615-b1d5a701cb1a"},"vehicle_type_id":"4","last_reported":1707055524,"current_range_meters":16000,"station_id":"ce4bhbh2rcd13ifvqeo0","pricing_plan_id":"free"},{"bike_id":"59c846a1-b7a9-47c9-a52f-b4d1d013f6d4","system_id":"levelo_inurba_marseille","lat":43.27374,"lon":5.36262,"is_reserved":false,"is_disabled":false,"rental_uris":{"android":"levelo://app?vid=59c846a1-b7a9-47c9-a52f-b4d1d013f6d4","ios":"levelo://app?vid=59c846a1-b7a9-47c9-a52f-b4d1d013f6d4"},"vehicle_type_id":"4","last_reported":1707055524,"current_range_meters":12400,"station_id":"ce4bhbh2rcd13ifvqeo0","pricing_plan_id":"free"},{"bike_id":"97074b00-903c-4326-89e4-98b6892bd247","system_id":"levelo_inurba_marseille","lat":43.27373,"lon":5.36249,"is_reserved":false,"is_disabled":false,"rental_uris":{"android":"levelo://app?vid=97074b00-903c-4326-89e4-98b6892bd247","ios":"levelo://app?vid=97074b00-903c-4326-89e4-98b6892bd247"},"vehicle_type_id":"4","last_reported":1707055524,"current_range_meters":28800,"station_id":"ce4bhbh2rcd13ifvqeo0","pricing_plan_id":"free"},{"bike_id":"f28c2e13-93df-4d1a-8194-ae82ac4fc28b","system_id":"levelo_inurba_marseille","lat":43.273717,"lon":5.362616,"is_reserved":false,"is_disabled":false,"rental_uris":{"android":"levelo://app?vid=f28c2e13-93df-4d1a-8194-ae82ac4fc28b","ios":"levelo://app?vid=f28c2e13-93df-4d1a-8194-ae82ac4fc28b"},"vehicle_type_id":"4","last_reported":1707055524,"current_range_meters":0,"station_id":"ce4bhbh2rcd13ifvqeo0","pricing_plan_id":"free"},{"bike_id":"10179605-4ea6-4659-8e82-dfe3cb87eb8d","system_id":"levelo_inurba_marseille","lat":43.27368,"lon":5.36255,"is_reserved":false,"is_disabled":false,"rental_uris":{"android":"levelo://app?vid=10179605-4ea6-4659-8e82-dfe3cb87eb8d","ios":"levelo://app?vid=10179605-4ea6-4659-8e82-dfe3cb87eb8d"},"vehicle_type_id":"4","last_reported":1707055524,"current_range_meters":29600,"station_id":"ce4bhbh2rcd13ifvqeo0","pricing_plan_id":"free"},{"bike_id":"2a5f3901-fe6d-4ca6-a973-93dc17c338a8","system_id":"levelo_inurba_marseille","lat":43.33612,"lon":5.410321,"is_reserved":false,"is_disabled":false,"rental_uris":{"android":"levelo://app?vid=2a5f3901-fe6d-4ca6-a973-93dc17c338a8","ios":"levelo://app?vid=2a5f3901-fe6d-4ca6-a973-93dc17c338a8"},"vehicle_type_id":"4","last_reported":1707055524,"current_range_meters":400,"station_id":"ce4bhqh2rcd13ifvqhmg","pricing_plan_id":"free"},{"bike_id":"59d4f130-2b65-4088-92f9-12f164266b73","system_id":"levelo_inurba_marseille","lat":43.33612,"lon":5.410321,"is_reserved":false,"is_disabled":false,"rental_uris":{"android":"levelo://app?vid=59d4f130-2b65-4088-92f9-12f164266b73","ios":"levelo://app?vid=59d4f130-2b65-4088-92f9-12f164266b73"},"vehicle_type_id":"4","last_reported":1707055524,"current_range_meters":10800,"station_id":"ce4bhqh2rcd13ifvqhmg","pricing_plan_id":"free"},{"bike_id":"10bb2a25-35d9-4b70-bb0d-a922d7a05d50","system_id":"levelo_inurba_marseille","lat":43.336134,"lon":5.410341,"is_reserved":false,"is_disabled":false,"rental_uris":{"android":"levelo://app?vid=10bb2a25-35d9-4b70-bb0d-a922d7a05d50","ios":"levelo://app?vid=10bb2a25-35d9-4b70-bb0d-a922d7a05d50"},"vehicle_type_id":"4","last_reported":1707055524,"current_range_meters":27600,"station_id":"ce4bhqh2rcd13ifvqhmg","pricing_plan_id":"free"},{"bike_id":"5293d6a7-ca51-47d1-9c0a-2e28342cee5a","system_id":"levelo_inurba_marseille","lat":43.336134,"lon":5.410341,"is_reserved":false,"is_disabled":false,"rental_uris":{"android":"levelo://app?vid=5293d6a7-ca51-47d1-9c0a-2e28342cee5a","ios":"levelo://app?vid=5293d6a7-ca51-47d1-9c0a-2e28342cee5a"},"vehicle_type_id":"4","last_reported":1707055524,"current_range_meters":12400,"station_id":"ce4bhqh2rcd13ifvqhmg","pricing_plan_id":"free"},{"bike_id":"903b756a-e923-4c7f-9bca-2461bc809619","system_id":"levelo_inurba_marseille","lat":43.33612,"lon":5.410321,"is_reserved":false,"is_disabled":false,"rental_uris":{"android":"levelo://app?vid=903b756a-e923-4c7f-9bca-2461bc809619","ios":"levelo://app?vid=903b756a-e923-4c7f-9bca-2461bc809619"},"vehicle_type_id":"4","last_reported":1707055524,"current_range_meters":8400,"station_id":"ce4bhqh2rcd13ifvqhmg","pricing_plan_id":"free"},{"bike_id":"312ab6b2-c560-403c-bd5b-627b0fdeba51","system_id":"levelo_inurba_marseille","lat":43.279975,"lon":5.40009,"is_reserved":false,"is_disabled":false,"rental_uris":{"android":"levelo://app?vid=312ab6b2-c560-403c-bd5b-627b0fdeba51","ios":"levelo://app?vid=312ab6b2-c560-403c-bd5b-627b0fdeba51"},"vehicle_type_id":"4","last_reported":1707055524,"current_range_meters":14400,"station_id":"ce4bho92rcd13ifvqh4g","pricing_plan_id":"free"},{"bike_id":"83cfee18-fdb6-48c9-910a-cf2c3b18a96a","system_id":"levelo_inurba_marseille","lat":43.317221,"lon":5.423987,"is_reserved":false,"is_disabled":false,"rental_uris":{"android":"levelo://app?vid=83cfee18-fdb6-48c9-910a-cf2c3b18a96a","ios":"levelo://app?vid=83cfee18-fdb6-48c9-910a-cf2c3b18a96a"},"vehicle_type_id":"4","last_reported":1707055524,"current_range_meters":30800,"station_id":"ce4bhp92rcd13ifvqhbg","pricing_plan_id":"free"},{"bike_id":"d6631a1e-95e1-4d14-9455-b37f6a32279d","system_id":"levelo_inurba_marseille","lat":43.31721,"lon":5.42402,"is_reserved":false,"is_disabled":false,"rental_uris":{"android":"levelo://app?vid=d6631a1e-95e1-4d14-9455-b37f6a32279d","ios":"levelo://app?vid=d6631a1e-95e1-4d14-9455-b37f6a32279d"},"vehicle_type_id":"4","last_reported":1707055524,"current_range_meters":2800,"station_id":"ce4bhp92rcd13ifvqhbg","pricing_plan_id":"free"},{"bike_id":"f982038d-6f6f-4dc6-a3ea-b86f1c6aafff","system_id":"levelo_inurba_marseille","lat":43.310785,"lon":5.424305,"is_reserved":false,"is_disabled":false,"rental_uris":{"android":"levelo://app?vid=f982038d-6f6f-4dc6-a3ea-b86f1c6aafff","ios":"levelo://app?vid=f982038d-6f6f-4dc6-a3ea-b86f1c6aafff"},"vehicle_type_id":"4","last_reported":1707055524,"current_range_meters":27200,"station_id":"ce4bhp92rcd13ifvqhag","pricing_plan_id":"free"},{"bike_id":"12e2b105-dcb5-40b2-9315-97c4f28fa71b","system_id":"levelo_inurba_marseille","lat":43.31081,"lon":5.42432,"is_reserved":false,"is_disabled":false,"rental_uris":{"android":"levelo://app?vid=12e2b105-dcb5-40b2-9315-97c4f28fa71b","ios":"levelo://app?vid=12e2b105-dcb5-40b2-9315-97c4f28fa71b"},"vehicle_type_id":"4","last_reported":1707055524,"current_range_meters":0,"station_id":"ce4bhp92rcd13ifvqhag","pricing_plan_id":"free"},{"bike_id":"1ae01579-7e5f-4bb0-ab29-68fe6cde5349","system_id":"levelo_inurba_marseille","lat":43.273785,"lon":5.390789,"is_reserved":false,"is_disabled":false,"rental_uris":{"android":"levelo://app?vid=1ae01579-7e5f-4bb0-ab29-68fe6cde5349","ios":"levelo://app?vid=1ae01579-7e5f-4bb0-ab29-68fe6cde5349"},"vehicle_type_id":"4","last_reported":1707055524,"current_range_meters":26800,"station_id":"","pricing_plan_id":"free"},{"bike_id":"bc8def4a-21d5-48e6-8434-e276b983ab7d","system_id":"levelo_inurba_marseille","lat":43.304096,"lon":5.425385,"is_reserved":false,"is_disabled":false,"rental_uris":{"android":"levelo://app?vid=bc8def4a-21d5-48e6-8434-e276b983ab7d","ios":"levelo://app?vid=bc8def4a-21d5-48e6-8434-e276b983ab7d"},"vehicle_type_id":"4","last_reported":1707055524,"current_range_meters":15200,"station_id":"ce4bhoh2rcd13ifvqh6g","pricing_plan_id":"free"},{"bike_id":"0933b2e9-aba2-4602-9411-ee0d5476db68","system_id":"levelo_inurba_marseille","lat":43.304096,"lon":5.425385,"is_reserved":false,"is_disabled":false,"rental_uris":{"android":"levelo://app?vid=0933b2e9-aba2-4602-9411-ee0d5476db68","ios":"levelo://app?vid=0933b2e9-aba2-4602-9411-ee0d5476db68"},"vehicle_type_id":"4","last_reported":1707055524,"current_range_meters":16400,"station_id":"ce4bhoh2rcd13ifvqh6g","pricing_plan_id":"free"},{"bike_id":"51b6583d-3180-412d-8b3d-b9b03683442a","system_id":"levelo_inurba_marseille","lat":43.304096,"lon":5.425385,"is_reserved":false,"is_disabled":false,"rental_uris":{"android":"levelo://app?vid=51b6583d-3180-412d-8b3d-b9b03683442a","ios":"levelo://app?vid=51b6583d-3180-412d-8b3d-b9b03683442a"},"vehicle_type_id":"4","last_reported":1707055524,"current_range_meters":11600,"station_id":"ce4bhoh2rcd13ifvqh6g","pricing_plan_id":"free"},{"bike_id":"222c2fb7-8907-4dc3-b6f3-8617761ca5ba","system_id":"levelo_inurba_marseille","lat":43.295523,"lon":5.422926,"is_reserved":false,"is_disabled":false,"rental_uris":{"android":"levelo://app?vid=222c2fb7-8907-4dc3-b6f3-8617761ca5ba","ios":"levelo://app?vid=222c2fb7-8907-4dc3-b6f3-8617761ca5ba"},"vehicle_type_id":"4","last_reported":1707055524,"current_range_meters":2400,"station_id":"ce4bhph2rcd13ifvqhdg","pricing_plan_id":"free"},{"bike_id":"19db4689-aad0-47c2-a7e3-a6d209987b5e","system_id":"levelo_inurba_marseille","lat":43.295511,"lon":5.422926,"is_reserved":false,"is_disabled":false,"rental_uris":{"android":"levelo://app?vid=19db4689-aad0-47c2-a7e3-a6d209987b5e","ios":"levelo://app?vid=19db4689-aad0-47c2-a7e3-a6d209987b5e"},"vehicle_type_id":"4","last_reported":1707055524,"current_range_meters":26000,"station_id":"ce4bhph2rcd13ifvqhdg","pricing_plan_id":"free"},{"bike_id":"16e4d47b-ebfc-4350-8c3b-6396e2554d0f","system_id":"levelo_inurba_marseille","lat":43.295511,"lon":5.422926,"is_reserved":false,"is_disabled":false,"rental_uris":{"android":"levelo://app?vid=16e4d47b-ebfc-4350-8c3b-6396e2554d0f","ios":"levelo://app?vid=16e4d47b-ebfc-4350-8c3b-6396e2554d0f"},"vehicle_type_id":"4","last_reported":1707055524,"current_range_meters":19600,"station_id":"ce4bhph2rcd13ifvqhdg","pricing_plan_id":"free"},{"bike_id":"7f766f45-7c73-4713-a492-97e85b5212c8","system_id":"levelo_inurba_marseille","lat":43.295511,"lon":5.422926,"is_reserved":false,"is_disabled":false,"rental_uris":{"android":"levelo://app?vid=7f766f45-7c73-4713-a492-97e85b5212c8","ios":"levelo://app?vid=7f766f45-7c73-4713-a492-97e85b5212c8"},"vehicle_type_id":"4","last_reported":1707055524,"current_range_meters":26800,"station_id":"ce4bhph2rcd13ifvqhdg","pricing_plan_id":"free"},{"bike_id":"b5767efe-c6d9-450f-9326-cfc1204c89b8","system_id":"levelo_inurba_marseille","lat":43.29548,"lon":5.42281,"is_reserved":false,"is_disabled":false,"rental_uris":{"android":"levelo://app?vid=b5767efe-c6d9-450f-9326-cfc1204c89b8","ios":"levelo://app?vid=b5767efe-c6d9-450f-9326-cfc1204c89b8"},"vehicle_type_id":"4","last_reported":1707055524,"current_range_meters":20800,"station_id":"ce4bhph2rcd13ifvqhdg","pricing_plan_id":"free"},{"bike_id":"6fc77d81-ee78-4855-b62b-145a114cde32","system_id":"levelo_inurba_marseille","lat":43.295511,"lon":5.422926,"is_reserved":false,"is_disabled":false,"rental_uris":{"android":"levelo://app?vid=6fc77d81-ee78-4855-b62b-145a114cde32","ios":"levelo://app?vid=6fc77d81-ee78-4855-b62b-145a114cde32"},"vehicle_type_id":"4","last_reported":1707055524,"current_range_meters":30800,"station_id":"ce4bhph2rcd13ifvqhdg","pricing_plan_id":"free"},{"bike_id":"774d1433-b845-4a29-8ce3-484e3fe02430","system_id":"levelo_inurba_marseille","lat":43.295523,"lon":5.422926,"is_reserved":false,"is_disabled":false,"rental_uris":{"android":"levelo://app?vid=774d1433-b845-4a29-8ce3-484e3fe02430","ios":"levelo://app?vid=774d1433-b845-4a29-8ce3-484e3fe02430"},"vehicle_type_id":"4","last_reported":1707055524,"current_range_meters":31200,"station_id":"ce4bhph2rcd13ifvqhdg","pricing_plan_id":"free"},{"bike_id":"13383a17-c266-49c2-b968-f42512cbb46d","system_id":"levelo_inurba_marseille","lat":43.269467,"lon":5.386439,"is_reserved":false,"is_disabled":false,"rental_uris":{"android":"levelo://app?vid=13383a17-c266-49c2-b968-f42512cbb46d","ios":"levelo://app?vid=13383a17-c266-49c2-b968-f42512cbb46d"},"vehicle_type_id":"4","last_reported":1707055524,"current_range_meters":0,"station_id":"ce4bhh92rcd13ifvqfh0","pricing_plan_id":"free"},{"bike_id":"4fb7a26f-47fd-49eb-8714-c0f3cd898d0a","system_id":"levelo_inurba_marseille","lat":43.269467,"lon":5.386439,"is_reserved":false,"is_disabled":false,"rental_uris":{"android":"levelo://app?vid=4fb7a26f-47fd-49eb-8714-c0f3cd898d0a","ios":"levelo://app?vid=4fb7a26f-47fd-49eb-8714-c0f3cd898d0a"},"vehicle_type_id":"4","last_reported":1707055524,"current_range_meters":19600,"station_id":"ce4bhh92rcd13ifvqfh0","pricing_plan_id":"free"},{"bike_id":"6a9562ad-624d-44b7-90ab-5854a4a216da","system_id":"levelo_inurba_marseille","lat":43.279465,"lon":5.410561,"is_reserved":false,"is_disabled":false,"rental_uris":{"android":"levelo://app?vid=6a9562ad-624d-44b7-90ab-5854a4a216da","ios":"levelo://app?vid=6a9562ad-624d-44b7-90ab-5854a4a216da"},"vehicle_type_id":"4","last_reported":1707055524,"current_range_meters":29200,"station_id":"ce4bhnp2rcd13ifvqh0g","pricing_plan_id":"free"},{"bike_id":"6534b038-3c87-446d-b511-789a755c5517","system_id":"levelo_inurba_marseille","lat":43.279465,"lon":5.410561,"is_reserved":false,"is_disabled":false,"rental_uris":{"android":"levelo://app?vid=6534b038-3c87-446d-b511-789a755c5517","ios":"levelo://app?vid=6534b038-3c87-446d-b511-789a755c5517"},"vehicle_type_id":"4","last_reported":1707055524,"current_range_meters":800,"station_id":"ce4bhnp2rcd13ifvqh0g","pricing_plan_id":"free"},{"bike_id":"a444f06a-51a4-428d-839d-7e9301bb6c91","system_id":"levelo_inurba_marseille","lat":43.295044,"lon":5.426223,"is_reserved":false,"is_disabled":false,"rental_uris":{"android":"levelo://app?vid=a444f06a-51a4-428d-839d-7e9301bb6c91","ios":"levelo://app?vid=a444f06a-51a4-428d-839d-7e9301bb6c91"},"vehicle_type_id":"4","last_reported":1707055524,"current_range_meters":30800,"station_id":"","pricing_plan_id":"free"},{"bike_id":"56728d92-4334-4d2f-8d60-c3fc431c901e","system_id":"levelo_inurba_marseille","lat":43.26681,"lon":5.382694,"is_reserved":false,"is_disabled":false,"rental_uris":{"android":"levelo://app?vid=56728d92-4334-4d2f-8d60-c3fc431c901e","ios":"levelo://app?vid=56728d92-4334-4d2f-8d60-c3fc431c901e"},"vehicle_type_id":"4","last_reported":1707055524,"current_range_meters":0,"station_id":"ce4bhg92rcd13ifvqf90","pricing_plan_id":"free"},{"bike_id":"2de34fcc-423f-483f-afc5-2e21f579036e","system_id":"levelo_inurba_marseille","lat":43.26681,"lon":5.382694,"is_reserved":false,"is_disabled":false,"rental_uris":{"android":"levelo://app?vid=2de34fcc-423f-483f-afc5-2e21f579036e","ios":"levelo://app?vid=2de34fcc-423f-483f-afc5-2e21f579036e"},"vehicle_type_id":"4","last_reported":1707055524,"current_range_meters":7600,"station_id":"ce4bhg92rcd13ifvqf90","pricing_plan_id":"free"},{"bike_id":"4a478d9e-5107-4091-a330-870b61db9a65","system_id":"levelo_inurba_marseille","lat":43.26681,"lon":5.382694,"is_reserved":false,"is_disabled":false,"rental_uris":{"android":"levelo://app?vid=4a478d9e-5107-4091-a330-870b61db9a65","ios":"levelo://app?vid=4a478d9e-5107-4091-a330-870b61db9a65"},"vehicle_type_id":"4","last_reported":1707055524,"current_range_meters":2800,"station_id":"ce4bhg92rcd13ifvqf90","pricing_plan_id":"free"},{"bike_id":"203306ff-259e-42fc-9733-0529fd0ac623","system_id":"levelo_inurba_marseille","lat":43.27989,"lon":5.4166,"is_reserved":false,"is_disabled":false,"rental_uris":{"android":"levelo://app?vid=203306ff-259e-42fc-9733-0529fd0ac623","ios":"levelo://app?vid=203306ff-259e-42fc-9733-0529fd0ac623"},"vehicle_type_id":"4","last_reported":1707055524,"current_range_meters":30400,"station_id":"ce4bho12rcd13ifvqh1g","pricing_plan_id":"free"},{"bike_id":"c9fdcb4a-16c7-439f-99ae-df458f1978c4","system_id":"levelo_inurba_marseille","lat":43.308051,"lon":5.43527,"is_reserved":false,"is_disabled":false,"rental_uris":{"android":"levelo://app?vid=c9fdcb4a-16c7-439f-99ae-df458f1978c4","ios":"levelo://app?vid=c9fdcb4a-16c7-439f-99ae-df458f1978c4"},"vehicle_type_id":"4","last_reported":1707055524,"current_range_meters":3200,"station_id":"ce4bhph2rcd13ifvqheg","pricing_plan_id":"free"},{"bike_id":"88e2fc80-683f-45ef-99a4-ea2323f57254","system_id":"levelo_inurba_marseille","lat":43.265569,"lon":5.390047,"is_reserved":false,"is_disabled":false,"rental_uris":{"android":"levelo://app?vid=88e2fc80-683f-45ef-99a4-ea2323f57254","ios":"levelo://app?vid=88e2fc80-683f-45ef-99a4-ea2323f57254"},"vehicle_type_id":"4","last_reported":1707055524,"current_range_meters":800,"station_id":"ce4bhe12rcd13ifvqf30","pricing_plan_id":"free"},{"bike_id":"e8dfbdc5-6da5-4308-82f2-958fc0dfbb9b","system_id":"levelo_inurba_marseille","lat":43.26949,"lon":5.40262,"is_reserved":false,"is_disabled":false,"rental_uris":{"android":"levelo://app?vid=e8dfbdc5-6da5-4308-82f2-958fc0dfbb9b","ios":"levelo://app?vid=e8dfbdc5-6da5-4308-82f2-958fc0dfbb9b"},"vehicle_type_id":"4","last_reported":1707055524,"current_range_meters":7200,"station_id":"cjm6bp8fraef2m0cb0m0","pricing_plan_id":"free"},{"bike_id":"edbc99eb-945b-45eb-8f33-974c008045f0","system_id":"levelo_inurba_marseille","lat":43.26949,"lon":5.40262,"is_reserved":false,"is_disabled":false,"rental_uris":{"android":"levelo://app?vid=edbc99eb-945b-45eb-8f33-974c008045f0","ios":"levelo://app?vid=edbc99eb-945b-45eb-8f33-974c008045f0"},"vehicle_type_id":"4","last_reported":1707055524,"current_range_meters":14400,"station_id":"cjm6bp8fraef2m0cb0m0","pricing_plan_id":"free"},{"bike_id":"3b97f61f-c01c-4096-9f1a-108c714e06bf","system_id":"levelo_inurba_marseille","lat":43.26949,"lon":5.40262,"is_reserved":false,"is_disabled":false,"rental_uris":{"android":"levelo://app?vid=3b97f61f-c01c-4096-9f1a-108c714e06bf","ios":"levelo://app?vid=3b97f61f-c01c-4096-9f1a-108c714e06bf"},"vehicle_type_id":"4","last_reported":1707055524,"current_range_meters":5600,"station_id":"cjm6bp8fraef2m0cb0m0","pricing_plan_id":"free"},{"bike_id":"d6e8b5e2-8cfc-4c20-9c69-ce9800e35925","system_id":"levelo_inurba_marseille","lat":43.261782,"lon":5.374515,"is_reserved":false,"is_disabled":false,"rental_uris":{"android":"levelo://app?vid=d6e8b5e2-8cfc-4c20-9c69-ce9800e35925","ios":"levelo://app?vid=d6e8b5e2-8cfc-4c20-9c69-ce9800e35925"},"vehicle_type_id":"4","last_reported":1707055524,"current_range_meters":13600,"station_id":"ce4bhgp2rcd13ifvqfc0","pricing_plan_id":"free"},{"bike_id":"7e47d9ea-c207-40b9-a47a-c89ca204ab52","system_id":"levelo_inurba_marseille","lat":43.26949,"lon":5.40262,"is_reserved":false,"is_disabled":false,"rental_uris":{"android":"levelo://app?vid=7e47d9ea-c207-40b9-a47a-c89ca204ab52","ios":"levelo://app?vid=7e47d9ea-c207-40b9-a47a-c89ca204ab52"},"vehicle_type_id":"4","last_reported":1707055524,"current_range_meters":22000,"station_id":"cjm6bp8fraef2m0cb0m0","pricing_plan_id":"free"},{"bike_id":"43e71970-a6db-40d4-b51a-605e7262b4d4","system_id":"levelo_inurba_marseille","lat":43.26938,"lon":5.4026,"is_reserved":false,"is_disabled":false,"rental_uris":{"android":"levelo://app?vid=43e71970-a6db-40d4-b51a-605e7262b4d4","ios":"levelo://app?vid=43e71970-a6db-40d4-b51a-605e7262b4d4"},"vehicle_type_id":"4","last_reported":1707055524,"current_range_meters":0,"station_id":"cjm6bp8fraef2m0cb0m0","pricing_plan_id":"free"},{"bike_id":"4c2c4506-9ec8-4d8d-ba4d-028dfe37e002","system_id":"levelo_inurba_marseille","lat":43.269335,"lon":5.40258,"is_reserved":false,"is_disabled":false,"rental_uris":{"android":"levelo://app?vid=4c2c4506-9ec8-4d8d-ba4d-028dfe37e002","ios":"levelo://app?vid=4c2c4506-9ec8-4d8d-ba4d-028dfe37e002"},"vehicle_type_id":"4","last_reported":1707055524,"current_range_meters":0,"station_id":"cjm6bp8fraef2m0cb0m0","pricing_plan_id":"free"},{"bike_id":"47d21b77-425a-45b4-b766-7eb8ae18355d","system_id":"levelo_inurba_marseille","lat":43.26242,"lon":5.37506,"is_reserved":false,"is_disabled":false,"rental_uris":{"android":"levelo://app?vid=47d21b77-425a-45b4-b766-7eb8ae18355d","ios":"levelo://app?vid=47d21b77-425a-45b4-b766-7eb8ae18355d"},"vehicle_type_id":"4","last_reported":1707055524,"current_range_meters":0,"station_id":"","pricing_plan_id":"free"},{"bike_id":"a9786a34-e777-4d81-9ae7-1a315bad5828","system_id":"levelo_inurba_marseille","lat":43.261782,"lon":5.374515,"is_reserved":false,"is_disabled":false,"rental_uris":{"android":"levelo://app?vid=a9786a34-e777-4d81-9ae7-1a315bad5828","ios":"levelo://app?vid=a9786a34-e777-4d81-9ae7-1a315bad5828"},"vehicle_type_id":"4","last_reported":1707055524,"current_range_meters":23200,"station_id":"ce4bhgp2rcd13ifvqfc0","pricing_plan_id":"free"},{"bike_id":"1de6e920-1b48-4c2d-a49f-708571c53507","system_id":"levelo_inurba_marseille","lat":43.261782,"lon":5.374515,"is_reserved":false,"is_disabled":false,"rental_uris":{"android":"levelo://app?vid=1de6e920-1b48-4c2d-a49f-708571c53507","ios":"levelo://app?vid=1de6e920-1b48-4c2d-a49f-708571c53507"},"vehicle_type_id":"4","last_reported":1707055524,"current_range_meters":0,"station_id":"ce4bhgp2rcd13ifvqfc0","pricing_plan_id":"free"},{"bike_id":"d3f8a469-5444-4385-ac9d-3a9d01e8960b","system_id":"levelo_inurba_marseille","lat":43.261782,"lon":5.374515,"is_reserved":false,"is_disabled":false,"rental_uris":{"android":"levelo://app?vid=d3f8a469-5444-4385-ac9d-3a9d01e8960b","ios":"levelo://app?vid=d3f8a469-5444-4385-ac9d-3a9d01e8960b"},"vehicle_type_id":"4","last_reported":1707055524,"current_range_meters":20400,"station_id":"ce4bhgp2rcd13ifvqfc0","pricing_plan_id":"free"},{"bike_id":"87ebfae6-223f-4bb7-8107-22ced7b16c65","system_id":"levelo_inurba_marseille","lat":43.261782,"lon":5.374515,"is_reserved":false,"is_disabled":false,"rental_uris":{"android":"levelo://app?vid=87ebfae6-223f-4bb7-8107-22ced7b16c65","ios":"levelo://app?vid=87ebfae6-223f-4bb7-8107-22ced7b16c65"},"vehicle_type_id":"4","last_reported":1707055524,"current_range_meters":0,"station_id":"ce4bhgp2rcd13ifvqfc0","pricing_plan_id":"free"},{"bike_id":"90c02fd9-1983-4474-9c19-57a295a85ac3","system_id":"levelo_inurba_marseille","lat":43.26179,"lon":5.37446,"is_reserved":false,"is_disabled":false,"rental_uris":{"android":"levelo://app?vid=90c02fd9-1983-4474-9c19-57a295a85ac3","ios":"levelo://app?vid=90c02fd9-1983-4474-9c19-57a295a85ac3"},"vehicle_type_id":"4","last_reported":1707055524,"current_range_meters":30000,"station_id":"ce4bhgp2rcd13ifvqfc0","pricing_plan_id":"free"},{"bike_id":"bd59491d-53f0-4d8a-81fb-639972574e3b","system_id":"levelo_inurba_marseille","lat":43.262012,"lon":5.379307,"is_reserved":false,"is_disabled":false,"rental_uris":{"android":"levelo://app?vid=bd59491d-53f0-4d8a-81fb-639972574e3b","ios":"levelo://app?vid=bd59491d-53f0-4d8a-81fb-639972574e3b"},"vehicle_type_id":"4","last_reported":1707055524,"current_range_meters":18800,"station_id":"ce4bhjp2rcd13ifvqg90","pricing_plan_id":"free"},{"bike_id":"f7dea84d-293a-4447-b822-b6e5ed678e1a","system_id":"levelo_inurba_marseille","lat":43.262012,"lon":5.379307,"is_reserved":false,"is_disabled":false,"rental_uris":{"android":"levelo://app?vid=f7dea84d-293a-4447-b822-b6e5ed678e1a","ios":"levelo://app?vid=f7dea84d-293a-4447-b822-b6e5ed678e1a"},"vehicle_type_id":"4","last_reported":1707055524,"current_range_meters":24400,"station_id":"ce4bhjp2rcd13ifvqg90","pricing_plan_id":"free"},{"bike_id":"f05f3a48-2af9-4f3b-a508-370c187070f8","system_id":"levelo_inurba_marseille","lat":43.267959,"lon":5.402687,"is_reserved":false,"is_disabled":false,"rental_uris":{"android":"levelo://app?vid=f05f3a48-2af9-4f3b-a508-370c187070f8","ios":"levelo://app?vid=f05f3a48-2af9-4f3b-a508-370c187070f8"},"vehicle_type_id":"4","last_reported":1707055524,"current_range_meters":15200,"station_id":"ce501612rcd8frsf0b60","pricing_plan_id":"free"},{"bike_id":"f4e1ce4c-4904-468b-8888-3896821df3bb","system_id":"levelo_inurba_marseille","lat":43.264958,"lon":5.395433,"is_reserved":false,"is_disabled":false,"rental_uris":{"android":"levelo://app?vid=f4e1ce4c-4904-468b-8888-3896821df3bb","ios":"levelo://app?vid=f4e1ce4c-4904-468b-8888-3896821df3bb"},"vehicle_type_id":"4","last_reported":1707055524,"current_range_meters":400,"station_id":"ce4bhi12rcd13ifvqfq0","pricing_plan_id":"free"},{"bike_id":"a1f13d4f-40c1-4973-8af9-ab4ec597183e","system_id":"levelo_inurba_marseille","lat":43.298768,"lon":5.43643,"is_reserved":false,"is_disabled":false,"rental_uris":{"android":"levelo://app?vid=a1f13d4f-40c1-4973-8af9-ab4ec597183e","ios":"levelo://app?vid=a1f13d4f-40c1-4973-8af9-ab4ec597183e"},"vehicle_type_id":"4","last_reported":1707055524,"current_range_meters":29200,"station_id":"ce4bhpp2rcd13ifvqhfg","pricing_plan_id":"free"},{"bike_id":"b436f80c-f0d6-426e-83d9-b4e36922277a","system_id":"levelo_inurba_marseille","lat":43.298768,"lon":5.43643,"is_reserved":false,"is_disabled":false,"rental_uris":{"android":"levelo://app?vid=b436f80c-f0d6-426e-83d9-b4e36922277a","ios":"levelo://app?vid=b436f80c-f0d6-426e-83d9-b4e36922277a"},"vehicle_type_id":"4","last_reported":1707055524,"current_range_meters":6800,"station_id":"ce4bhpp2rcd13ifvqhfg","pricing_plan_id":"free"},{"bike_id":"0354ad77-35a7-46f0-80df-d54f991a5611","system_id":"levelo_inurba_marseille","lat":43.298768,"lon":5.43643,"is_reserved":false,"is_disabled":false,"rental_uris":{"android":"levelo://app?vid=0354ad77-35a7-46f0-80df-d54f991a5611","ios":"levelo://app?vid=0354ad77-35a7-46f0-80df-d54f991a5611"},"vehicle_type_id":"4","last_reported":1707055524,"current_range_meters":7200,"station_id":"ce4bhpp2rcd13ifvqhfg","pricing_plan_id":"free"},{"bike_id":"7bc52a41-8819-464c-ad33-7cc011795736","system_id":"levelo_inurba_marseille","lat":43.298768,"lon":5.43643,"is_reserved":false,"is_disabled":false,"rental_uris":{"android":"levelo://app?vid=7bc52a41-8819-464c-ad33-7cc011795736","ios":"levelo://app?vid=7bc52a41-8819-464c-ad33-7cc011795736"},"vehicle_type_id":"4","last_reported":1707055524,"current_range_meters":10400,"station_id":"ce4bhpp2rcd13ifvqhfg","pricing_plan_id":"free"},{"bike_id":"7f0361e9-f12e-4328-8c37-5cd186d08690","system_id":"levelo_inurba_marseille","lat":43.298768,"lon":5.43643,"is_reserved":false,"is_disabled":false,"rental_uris":{"android":"levelo://app?vid=7f0361e9-f12e-4328-8c37-5cd186d08690","ios":"levelo://app?vid=7f0361e9-f12e-4328-8c37-5cd186d08690"},"vehicle_type_id":"4","last_reported":1707055524,"current_range_meters":10800,"station_id":"ce4bhpp2rcd13ifvqhfg","pricing_plan_id":"free"},{"bike_id":"cc8bcdd7-5df2-437f-80d8-28038888cff9","system_id":"levelo_inurba_marseille","lat":43.298768,"lon":5.43643,"is_reserved":false,"is_disabled":false,"rental_uris":{"android":"levelo://app?vid=cc8bcdd7-5df2-437f-80d8-28038888cff9","ios":"levelo://app?vid=cc8bcdd7-5df2-437f-80d8-28038888cff9"},"vehicle_type_id":"4","last_reported":1707055524,"current_range_meters":17200,"station_id":"ce4bhpp2rcd13ifvqhfg","pricing_plan_id":"free"},{"bike_id":"bd7933ee-87ca-43c3-b10c-902bc27ff5f5","system_id":"levelo_inurba_marseille","lat":43.298768,"lon":5.43643,"is_reserved":false,"is_disabled":false,"rental_uris":{"android":"levelo://app?vid=bd7933ee-87ca-43c3-b10c-902bc27ff5f5","ios":"levelo://app?vid=bd7933ee-87ca-43c3-b10c-902bc27ff5f5"},"vehicle_type_id":"4","last_reported":1707055524,"current_range_meters":24000,"station_id":"ce4bhpp2rcd13ifvqhfg","pricing_plan_id":"free"},{"bike_id":"b8c4896f-6740-4a2c-9c8b-74613eea0568","system_id":"levelo_inurba_marseille","lat":43.298768,"lon":5.43643,"is_reserved":false,"is_disabled":false,"rental_uris":{"android":"levelo://app?vid=b8c4896f-6740-4a2c-9c8b-74613eea0568","ios":"levelo://app?vid=b8c4896f-6740-4a2c-9c8b-74613eea0568"},"vehicle_type_id":"4","last_reported":1707055524,"current_range_meters":22800,"station_id":"ce4bhpp2rcd13ifvqhfg","pricing_plan_id":"free"},{"bike_id":"4fa9b6ef-3be2-4fed-85a0-f6e00cfeb1f3","system_id":"levelo_inurba_marseille","lat":43.298768,"lon":5.43643,"is_reserved":false,"is_disabled":false,"rental_uris":{"android":"levelo://app?vid=4fa9b6ef-3be2-4fed-85a0-f6e00cfeb1f3","ios":"levelo://app?vid=4fa9b6ef-3be2-4fed-85a0-f6e00cfeb1f3"},"vehicle_type_id":"4","last_reported":1707055524,"current_range_meters":4000,"station_id":"ce4bhpp2rcd13ifvqhfg","pricing_plan_id":"free"},{"bike_id":"1d5aef0d-38d5-40a0-acff-2352152de2cf","system_id":"levelo_inurba_marseille","lat":43.260225,"lon":5.375455,"is_reserved":false,"is_disabled":false,"rental_uris":{"android":"levelo://app?vid=1d5aef0d-38d5-40a0-acff-2352152de2cf","ios":"levelo://app?vid=1d5aef0d-38d5-40a0-acff-2352152de2cf"},"vehicle_type_id":"4","last_reported":1707055524,"current_range_meters":1600,"station_id":"ce4bhgh2rcd13ifvqfa0","pricing_plan_id":"free"},{"bike_id":"78c8b673-6d67-49d9-99e1-48ef583595f1","system_id":"levelo_inurba_marseille","lat":43.260219,"lon":5.37546,"is_reserved":false,"is_disabled":false,"rental_uris":{"android":"levelo://app?vid=78c8b673-6d67-49d9-99e1-48ef583595f1","ios":"levelo://app?vid=78c8b673-6d67-49d9-99e1-48ef583595f1"},"vehicle_type_id":"4","last_reported":1707055524,"current_range_meters":18400,"station_id":"ce4bhgh2rcd13ifvqfa0","pricing_plan_id":"free"},