{"last_updated":1745676504,"ttl":60,"version":"2.2","data":{"bikes":[{"bike_id":"89dd2c03-ec09-4989-bb15-424da98f7b43","system_id":"levelo_inurba_marseille","lat":43.29565,"lon":5.37504,"is_reserved":false,"is_disabled":false,"rental_uris":{"android":"levelo://app?vid=89dd2c03-ec09-4989-bb15-424da98f7b43","ios":"levelo://app?vid=89dd2c03-ec09-4989-bb15-424da98f7b43"},"vehicle_type_id":"4","last_reported":1745676504,"current_range_meters":2800,"station_id":"ce4bgh92rcd13ifvqb50","pricing_plan_id":"cebpf4jnsgd1na2vs0mg"},{"bike_id":"b1077ba1-9874-4d05-a218-f72504eee856","system_id":"levelo_inurba_marseille","lat":43.297091,"lon":5.366053,"is_reserved":false,"is_disabled":false,"rental_uris":{"android":"levelo://app?vid=b1077ba1-9874-4d05-a218-f72504eee856","ios":"levelo://app?vid=b1077ba1-9874-4d05-a218-f72504eee856"},"vehicle_type_id":"4","last_reported":1745676504,"current_range_meters":2800,"station_id":"ce4bgn12rcd13ifvqbt0","pricing_plan_id":"cebpf4jnsgd1na2vs0mg"},{"bike_id":"46374c49-3adc-4c5a-8966-e00f056c0d57","system_id":"levelo_inurba_marseille","lat":43.27846,"lon":5.35442,"is_reserved":false,"is_disabled":false,"rental_uris":{"android":"levelo://app?vid=46374c49-3adc-4c5a-8966-e00f056c0d57","ios":"levelo://app?vid=46374c49-3adc-4c5a-8966-e00f056c0d57"},"vehicle_type_id":"4","last_reported":1745676504,"current_range_meters":2800,"station_id":"","pricing_plan_id":"cebpf4jnsgd1na2vs0mg"},{"bike_id":"37ed36b4-bce2-4c53-b40f-73a02e4d798d","system_id":"levelo_inurba_marseille","lat":43.279195,"lon":5.39579,"is_reserved":false,"is_disabled":false,"rental_uris":{"android":"levelo://app?vid=37ed36b4-bce2-4c53-b40f-73a02e4d798d","ios":"levelo://app?vid=37ed36b4-bce2-4c53-b40f-73a02e4d798d"},"vehicle_type_id":"4","last_reported":1745676504,"current_range_meters":2800,"station_id":"ce4bhf92rcd13ifvqf40","pricing_plan_id":"cebpf4jnsgd1na2vs0mg"},{"bike_id":"cbf18915-3b58-4c81-bf08-926a74c921a1","system_id":"levelo_inurba_marseille","lat":43.29258,"lon":5.36799,"is_reserved":false,"is_disabled":false,"rental_uris":{"android":"levelo://app?vid=cbf18915-3b58-4c81-bf08-926a74c921a1","ios":"levelo://app?vid=cbf18915-3b58-4c81-bf08-926a74c921a1"},"vehicle_type_id":"4","last_reported":1745676504,"current_range_meters":2800,"station_id":"","pricing_plan_id":"cebpf4jnsgd1na2vs0mg"},{"bike_id":"29de76b7-79ed-42d0-a0da-ed6202c2d2d7","system_id":"levelo_inurba_marseille","lat":43.27998,"lon":5.40015,"is_reserved":false,"is_disabled":false,"rental_uris":{"android":"levelo://app?vid=29de76b7-79ed-42d0-a0da-ed6202c2d2d7","ios":"levelo://app?vid=29de76b7-79ed-42d0-a0da-ed6202c2d2d7"},"vehicle_type_id":"4","last_reported":1745676504,"current_range_meters":2800,"station_id":"ce4bho92rcd13ifvqh4g","pricing_plan_id":"cebpf4jnsgd1na2vs0mg"},{"bike_id":"ef2d382b-46b3-4e5a-ad7d-b89295d9b561","system_id":"levelo_inurba_marseille","lat":43.26198,"lon":5.37442,"is_reserved":false,"is_disabled":false,"rental_uris":{"android":"levelo://app?vid=ef2d382b-46b3-4e5a-ad7d-b89295d9b561","ios":"levelo://app?vid=ef2d382b-46b3-4e5a-ad7d-b89295d9b561"},"vehicle_type_id":"4","last_reported":1745676504,"current_range_meters":2800,"station_id":"ce4bhgp2rcd13ifvqfc0","pricing_plan_id":"cebpf4jnsgd1na2vs0mg"},{"bike_id":"809e59ac-ee8e-4f79-a65e-a2fad53fd2cc","system_id":"levelo_inurba_marseille","lat":43.29763,"lon":5.40971,"is_reserved":false,"is_disabled":false,"rental_uris":{"android":"levelo://app?vid=809e59ac-ee8e-4f79-a65e-a2fad53fd2cc","ios":"levelo://app?vid=809e59ac-ee8e-4f79-a65e-a2fad53fd2cc"},"vehicle_type_id":"4","last_reported":1745676504,"current_range_meters":3200,"station_id":"","pricing_plan_id":"cebpf4jnsgd1na2vs0mg"},{"bike_id":"c245660b-3651-4c76-9bb5-b57462f74993","system_id":"levelo_inurba_marseille","lat":43.280089,"lon":5.409057,"is_reserved":false,"is_disabled":false,"rental_uris":{"android":"levelo://app?vid=c245660b-3651-4c76-9bb5-b57462f74993","ios":"levelo://app?vid=c245660b-3651-4c76-9bb5-b57462f74993"},"vehicle_type_id":"4","last_reported":1745676504,"current_range_meters":2800,"station_id":"","pricing_plan_id":"cebpf4jnsgd1na2vs0mg"},{"bike_id":"f4491695-3fca-4774-9974-e574fa4c7199","system_id":"levelo_inurba_marseille","lat":43.29684,"lon":5.37276,"is_reserved":false,"is_disabled":false,"rental_uris":{"android":"levelo://app?vid=f4491695-3fca-4774-9974-e574fa4c7199","ios":"levelo://app?vid=f4491695-3fca-4774-9974-e574fa4c7199"},"vehicle_type_id":"4","last_reported":1745676504,"current_range_meters":2800,"station_id":"ce4bgk12rcd13ifvqbj0","pricing_plan_id":"cebpf4jnsgd1na2vs0mg"},{"bike_id":"8f1f84a8-8b3e-4367-aaae-24597a10a4b0","system_id":"levelo_inurba_marseille","lat":43.26784,"lon":5.42678,"is_reserved":false,"is_disabled":false,"rental_uris":{"android":"levelo://app?vid=8f1f84a8-8b3e-4367-aaae-24597a10a4b0","ios":"levelo://app?vid=8f1f84a8-8b3e-4367-aaae-24597a10a4b0"},"vehicle_type_id":"4","last_reported":1745676504,"current_range_meters":3600,"station_id":"","pricing_plan_id":"cebpf4jnsgd1na2vs0mg"},{"bike_id":"4e9d621b-d413-4619-893e-c20549e4dfa9","system_id":"levelo_inurba_marseille","lat":43.29973,"lon":5.38525,"is_reserved":false,"is_disabled":false,"rental_uris":{"android":"levelo://app?vid=4e9d621b-d413-4619-893e-c20549e4dfa9","ios":"levelo://app?vid=4e9d621b-d413-4619-893e-c20549e4dfa9"},"vehicle_type_id":"4","last_reported":1745676504,"current_range_meters":3600,"station_id":"ce4bgj92rcd13ifvqbd0","pricing_plan_id":"cebpf4jnsgd1na2vs0mg"},{"bike_id":"61c7e633-fc6d-4458-9c18-bdc04c08ea5b","system_id":"levelo_inurba_marseille","lat":43.22932,"lon":5.35378,"is_reserved":false,"is_disabled":false,"rental_uris":{"android":"levelo://app?vid=61c7e633-fc6d-4458-9c18-bdc04c08ea5b","ios":"levelo://app?vid=61c7e633-fc6d-4458-9c18-bdc04c08ea5b"},"vehicle_type_id":"4","last_reported":1745676504,"current_range_meters":4000,"station_id":"cpo3532slgdg3j2ikp40","pricing_plan_id":"cebpf4jnsgd1na2vs0mg"},{"bike_id":"550dfadb-80f3-49c1-9dec-a835215799bc","system_id":"levelo_inurba_marseille","lat":43.22927,"lon":5.3538,"is_reserved":false,"is_disabled":false,"rental_uris":{"android":"levelo://app?vid=550dfadb-80f3-49c1-9dec-a835215799bc","ios":"levelo://app?vid=550dfadb-80f3-49c1-9dec-a835215799bc"},"vehicle_type_id":"4","last_reported":1745676504,"current_range_meters":4000,"station_id":"cpo3532slgdg3j2ikp40","pricing_plan_id":"cebpf4jnsgd1na2vs0mg"},{"bike_id":"ac3a840b-2968-4ad2-9a06-763865a79795","system_id":"levelo_inurba_marseille","lat":43.28612,"lon":5.35106,"is_reserved":false,"is_disabled":false,"rental_uris":{"android":"levelo://app?vid=ac3a840b-2968-4ad2-9a06-763865a79795","ios":"levelo://app?vid=ac3a840b-2968-4ad2-9a06-763865a79795"},"vehicle_type_id":"4","last_reported":1745676504,"current_range_meters":4000,"station_id":"ce4bhch2rcd13ifvqeug","pricing_plan_id":"cebpf4jnsgd1na2vs0mg"},{"bike_id":"9d344161-5cde-48c4-9ad1-a9cbd857291f","system_id":"levelo_inurba_marseille","lat":43.27378,"lon":5.36253,"is_reserved":false,"is_disabled":false,"rental_uris":{"android":"levelo://app?vid=9d344161-5cde-48c4-9ad1-a9cbd857291f","ios":"levelo://app?vid=9d344161-5cde-48c4-9ad1-a9cbd857291f"},"vehicle_type_id":"4","last_reported":1745676504,"current_range_meters":4000,"station_id":"ce4bhbh2rcd13ifvqeo0","pricing_plan_id":"cebpf4jnsgd1na2vs0mg"},{"bike_id":"c092a1f2-b335-4391-9594-9407bec9bfda","system_id":"levelo_inurba_marseille","lat":43.28858,"lon":5.35848,"is_reserved":false,"is_disabled":false,"rental_uris":{"android":"levelo://app?vid=c092a1f2-b335-4391-9594-9407bec9bfda","ios":"levelo://app?vid=c092a1f2-b335-4391-9594-9407bec9bfda"},"vehicle_type_id":"4","last_reported":1745676504,"current_range_meters":4000,"station_id":"ce4bhb12rcd13ifvqem0","pricing_plan_id":"cebpf4jnsgd1na2vs0mg"},{"bike_id":"325d3f53-5fe5-4b80-97c9-927826fe8b07","system_id":"levelo_inurba_marseille","lat":43.285893,"lon":5.371815,"is_reserved":false,"is_disabled":false,"rental_uris":{"android":"levelo://app?vid=325d3f53-5fe5-4b80-97c9-927826fe8b07","ios":"levelo://app?vid=325d3f53-5fe5-4b80-97c9-927826fe8b07"},"vehicle_type_id":"4","last_reported":1745676504,"current_range_meters":4400,"station_id":"","pricing_plan_id":"cebpf4jnsgd1na2vs0mg"},{"bike_id":"951b67d1-677b-43df-8740-9980145f2a18","system_id":"levelo_inurba_marseille","lat":43.27206,"lon":5.39177,"is_reserved":false,"is_disabled":false,"rental_uris":{"android":"levelo://app?vid=951b67d1-677b-43df-8740-9980145f2a18","ios":"levelo://app?vid=951b67d1-677b-43df-8740-9980145f2a18"},"vehicle_type_id":"4","last_reported":1745676504,"current_range_meters":4000,"station_id":"ce4bhhp2rcd13ifvqfm0","pricing_plan_id":"cebpf4jnsgd1na2vs0mg"},{"bike_id":"2a44dd0f-f41d-403a-a655-f2144854b0da","system_id":"levelo_inurba_marseille","lat":43.24392,"lon":5.37061,"is_reserved":false,"is_disabled":false,"rental_uris":{"android":"levelo://app?vid=2a44dd0f-f41d-403a-a655-f2144854b0da","ios":"levelo://app?vid=2a44dd0f-f41d-403a-a655-f2144854b0da"},"vehicle_type_id":"4","last_reported":1745676504,"current_range_meters":4400,"station_id":"ce4bhhh2rcd13ifvqfk0","pricing_plan_id":"cebpf4jnsgd1na2vs0mg"},{"bike_id":"bd62916c-0d72-49d2-a875-119475942bec","system_id":"levelo_inurba_marseille","lat":43.31362,"lon":5.38491,"is_reserved":false,"is_disabled":false,"rental_uris":{"android":"levelo://app?vid=bd62916c-0d72-49d2-a875-119475942bec","ios":"levelo://app?vid=bd62916c-0d72-49d2-a875-119475942bec"},"vehicle_type_id":"4","last_reported":1745676504,"current_range_meters":4000,"station_id":"ce4bgt92rcd13ifvqcf0","pricing_plan_id":"cebpf4jnsgd1na2vs0mg"},{"bike_id":"11408355-e56e-41d2-92bc-3cc7cb0a1196","system_id":"levelo_inurba_marseille","lat":43.28686,"lon":5.38656,"is_reserved":false,"is_disabled":false,"rental_uris":{"android":"levelo://app?vid=11408355-e56e-41d2-92bc-3cc7cb0a1196","ios":"levelo://app?vid=11408355-e56e-41d2-92bc-3cc7cb0a1196"},"vehicle_type_id":"4","last_reported":1745676504,"current_range_meters":4400,"station_id":"ce4bh492rcd13ifvqdug","pricing_plan_id":"cebpf4jnsgd1na2vs0mg"},{"bike_id":"82883b89-b2e7-44a3-84f3-e084e95f6574","system_id":"levelo_inurba_marseille","lat":43.22934,"lon":5.35375,"is_reserved":false,"is_disabled":false,"rental_uris":{"android":"levelo://app?vid=82883b89-b2e7-44a3-84f3-e084e95f6574","ios":"levelo://app?vid=82883b89-b2e7-44a3-84f3-e084e95f6574"},"vehicle_type_id":"4","last_reported":1745676504,"current_range_meters":4400,"station_id":"cpo3532slgdg3j2ikp40","pricing_plan_id":"cebpf4jnsgd1na2vs0mg"},{"bike_id":"c6983332-2340-4443-9384-a831b05f8e36","system_id":"levelo_inurba_marseille","lat":43.24163,"lon":5.3639,"is_reserved":false,"is_disabled":false,"rental_uris":{"android":"levelo://app?vid=c6983332-2340-4443-9384-a831b05f8e36","ios":"levelo://app?vid=c6983332-2340-4443-9384-a831b05f8e36"},"vehicle_type_id":"4","last_reported":1745676504,"current_range_meters":4400,"station_id":"cpo36qri1sfpv3e86is0","pricing_plan_id":"cebpf4jnsgd1na2vs0mg"},{"bike_id":"ade9f1ff-b109-48b7-b5f2-443973be9921","system_id":"levelo_inurba_marseille","lat":43.23977,"lon":5.36651,"is_reserved":false,"is_disabled":false,"rental_uris":{"android":"levelo://app?vid=ade9f1ff-b109-48b7-b5f2-443973be9921","ios":"levelo://app?vid=ade9f1ff-b109-48b7-b5f2-443973be9921"},"vehicle_type_id":"4","last_reported":1745676504,"current_range_meters":4800,"station_id":"ce4bhi12rcd13ifvqfp0","pricing_plan_id":"cebpf4jnsgd1na2vs0mg"},{"bike_id":"d7498c3e-c545-48c6-93b7-3bca846aebe1","system_id":"levelo_inurba_marseille","lat":43.28276,"lon":5.35047,"is_reserved":false,"is_disabled":false,"rental_uris":{"android":"levelo://app?vid=d7498c3e-c545-48c6-93b7-3bca846aebe1","ios":"levelo://app?vid=d7498c3e-c545-48c6-93b7-3bca846aebe1"},"vehicle_type_id":"4","last_reported":1745676504,"current_range_meters":4800,"station_id":"ce4bhbp2rcd13ifvqerg","pricing_plan_id":"cebpf4jnsgd1na2vs0mg"},{"bike_id":"4025d08b-a86f-4c1f-82c9-6ac67680796f","system_id":"levelo_inurba_marseille","lat":43.261729,"lon":5.374687,"is_reserved":false,"is_disabled":false,"rental_uris":{"android":"levelo://app?vid=4025d08b-a86f-4c1f-82c9-6ac67680796f","ios":"levelo://app?vid=4025d08b-a86f-4c1f-82c9-6ac67680796f"},"vehicle_type_id":"4","last_reported":1745676504,"current_range_meters":4800,"station_id":"ce4bhgp2rcd13ifvqfc0","pricing_plan_id":"cebpf4jnsgd1na2vs0mg"},{"bike_id":"50b04312-607a-45bf-b29f-e96996c5817d","system_id":"levelo_inurba_marseille","lat":43.25108,"lon":5.40324,"is_reserved":false,"is_disabled":false,"rental_uris":{"android":"levelo://app?vid=50b04312-607a-45bf-b29f-e96996c5817d","ios":"levelo://app?vid=50b04312-607a-45bf-b29f-e96996c5817d"},"vehicle_type_id":"4","last_reported":1745676504,"current_range_meters":4800,"station_id":"ce4bhlh2rcd13ifvqgig","pricing_plan_id":"cebpf4jnsgd1na2vs0mg"},{"bike_id":"996eb92e-4685-41b2-a79e-43c0861fb575","system_id":"levelo_inurba_marseille","lat":43.31704,"lon":5.37724,"is_reserved":false,"is_disabled":false,"rental_uris":{"android":"levelo://app?vid=996eb92e-4685-41b2-a79e-43c0861fb575","ios":"levelo://app?vid=996eb92e-4685-41b2-a79e-43c0861fb575"},"vehicle_type_id":"4","last_reported":1745676504,"current_range_meters":4800,"station_id":"ce4bgth2rcd13ifvqch0","pricing_plan_id":"cebpf4jnsgd1na2vs0mg"},{"bike_id":"42ef6fd8-caba-4394-af66-3cacb735246d","system_id":"levelo_inurba_marseille","lat":43.27075,"lon":5.42275,"is_reserved":false,"is_disabled":false,"rental_uris":{"android":"levelo://app?vid=42ef6fd8-caba-4394-af66-3cacb735246d","ios":"levelo://app?vid=42ef6fd8-caba-4394-af66-3cacb735246d"},"vehicle_type_id":"4","last_reported":1745676504,"current_range_meters":3200,"station_id":"ce4bhk92rcd13ifvqgb0","pricing_plan_id":"cebpf4jnsgd1na2vs0mg"},{"bike_id":"1746265e-27ad-4913-8a06-b6dc5372d844","system_id":"levelo_inurba_marseille","lat":43.26001,"lon":5.37477,"is_reserved":false,"is_disabled":false,"rental_uris":{"android":"levelo://app?vid=1746265e-27ad-4913-8a06-b6dc5372d844","ios":"levelo://app?vid=1746265e-27ad-4913-8a06-b6dc5372d844"},"vehicle_type_id":"4","last_reported":1745676504,"current_range_meters":5600,"station_id":"","pricing_plan_id":"cebpf4jnsgd1na2vs0mg"},{"bike_id":"ca5e1814-8203-462c-9884-6b08cf110aa8","system_id":"levelo_inurba_marseille","lat":43.29615,"lon":5.37723,"is_reserved":false,"is_disabled":false,"rental_uris":{"android":"levelo://app?vid=ca5e1814-8203-462c-9884-6b08cf110aa8","ios":"levelo://app?vid=ca5e1814-8203-462c-9884-6b08cf110aa8"},"vehicle_type_id":"4","last_reported":1745676504,"current_range_meters":5600,"station_id":"ce4bgi92rcd13ifvqb90","pricing_plan_id":"cebpf4jnsgd1na2vs0mg"},{"bike_id":"c3d73529-864f-43ce-8d6f-351c48160c99","system_id":"levelo_inurba_marseille","lat":43.28001,"lon":5.4001,"is_reserved":false,"is_disabled":false,"rental_uris":{"android":"levelo://app?vid=c3d73529-864f-43ce-8d6f-351c48160c99","ios":"levelo://app?vid=c3d73529-864f-43ce-8d6f-351c48160c99"},"vehicle_type_id":"4","last_reported":1745676504,"current_range_meters":4800,"station_id":"ce4bho92rcd13ifvqh4g","pricing_plan_id":"cebpf4jnsgd1na2vs0mg"},{"bike_id":"a84dda67-2771-448f-9f2c-69a47019d774","system_id":"levelo_inurba_marseille","lat":43.33618,"lon":5.41034,"is_reserved":false,"is_disabled":true,"rental_uris":{"android":"levelo://app?vid=a84dda67-2771-448f-9f2c-69a47019d774","ios":"levelo://app?vid=a84dda67-2771-448f-9f2c-69a47019d774"},"vehicle_type_id":"4","last_reported":1745676504,"current_range_meters":5600,"station_id":"ce4bhqh2rcd13ifvqhmg","pricing_plan_id":"cebpf4jnsgd1na2vs0mg"},{"bike_id":"3fc69ef6-c001-4a3a-a45d-8383d7013bb0","system_id":"levelo_inurba_marseille","lat":43.29701,"lon":5.37273,"is_reserved":false,"is_disabled":false,"rental_uris":{"android":"levelo://app?vid=3fc69ef6-c001-4a3a-a45d-8383d7013bb0","ios":"levelo://app?vid=3fc69ef6-c001-4a3a-a45d-8383d7013bb0"},"vehicle_type_id":"4","last_reported":1745676504,"current_range_meters":5600,"station_id":"ce4bgk12rcd13ifvqbj0","pricing_plan_id":"cebpf4jnsgd1na2vs0mg"},{"bike_id":"e5606821-7012-4a8e-ae78-07ccb2798d89","system_id":"levelo_inurba_marseille","lat":43.26213,"lon":5.37436,"is_reserved":false,"is_disabled":false,"rental_uris":{"android":"levelo://app?vid=e5606821-7012-4a8e-ae78-07ccb2798d89","ios":"levelo://app?vid=e5606821-7012-4a8e-ae78-07ccb2798d89"},"vehicle_type_id":"4","last_reported":1745676504,"current_range_meters":5600,"station_id":"ce4bhgp2rcd13ifvqfc0","pricing_plan_id":"cebpf4jnsgd1na2vs0mg"},{"bike_id":"f12707fa-c1e2-4e35-890c-0d045935da4e","system_id":"levelo_inurba_marseille","lat":43.24405,"lon":5.36962,"is_reserved":false,"is_disabled":false,"rental_uris":{"android":"levelo://app?vid=f12707fa-c1e2-4e35-890c-0d045935da4e","ios":"levelo://app?vid=f12707fa-c1e2-4e35-890c-0d045935da4e"},"vehicle_type_id":"4","last_reported":1745676504,"current_range_meters":5600,"station_id":"","pricing_plan_id":"cebpf4jnsgd1na2vs0mg"},{"bike_id":"6d0a61fc-518d-48e6-b383-0cc8c0395f0a","system_id":"levelo_inurba_marseille","lat":43.24171,"lon":5.36395,"is_reserved":false,"is_disabled":false,"rental_uris":{"android":"levelo://app?vid=6d0a61fc-518d-48e6-b383-0cc8c0395f0a","ios":"levelo://app?vid=6d0a61fc-518d-48e6-b383-0cc8c0395f0a"},"vehicle_type_id":"4","last_reported":1745676504,"current_range_meters":6000,"station_id":"cpo36qri1sfpv3e86is0","pricing_plan_id":"cebpf4jnsgd1na2vs0mg"},{"bike_id":"28050f73-82e0-4443-ac2d-6632186ddc93","system_id":"levelo_inurba_marseille","lat":43.29387,"lon":5.37841,"is_reserved":false,"is_disabled":false,"rental_uris":{"android":"levelo://app?vid=28050f73-82e0-4443-ac2d-6632186ddc93","ios":"levelo://app?vid=28050f73-82e0-4443-ac2d-6632186ddc93"},"vehicle_type_id":"4","last_reported":1745676504,"current_range_meters":5600,"station_id":"ce4bgjh2rcd13ifvqbf0","pricing_plan_id":"cebpf4jnsgd1na2vs0mg"},{"bike_id":"4cb2b75c-638c-4c22-bd61-4407edb72105","system_id":"levelo_inurba_marseille","lat":43.26198,"lon":5.37444,"is_reserved":false,"is_disabled":false,"rental_uris":{"android":"levelo://app?vid=4cb2b75c-638c-4c22-bd61-4407edb72105","ios":"levelo://app?vid=4cb2b75c-638c-4c22-bd61-4407edb72105"},"vehicle_type_id":"4","last_reported":1745676504,"current_range_meters":6000,"station_id":"ce4bhgp2rcd13ifvqfc0","pricing_plan_id":"cebpf4jnsgd1na2vs0mg"},{"bike_id":"9a6f5154-bd5b-4308-9133-bb523fa51feb","system_id":"levelo_inurba_marseille","lat":43.293,"lon":5.37455,"is_reserved":false,"is_disabled":true,"rental_uris":{"android":"levelo://app?vid=9a6f5154-bd5b-4308-9133-bb523fa51feb","ios":"levelo://app?vid=9a6f5154-bd5b-4308-9133-bb523fa51feb"},"vehicle_type_id":"4","last_reported":1745676504,"current_range_meters":6000,"station_id":"ce4bgi12rcd13ifvqb70","pricing_plan_id":"cebpf4jnsgd1na2vs0mg"},{"bike_id":"841a99b1-ccda-4e23-9985-2585901feb3a","system_id":"levelo_inurba_marseille","lat":43.27374,"lon":5.36242,"is_reserved":false,"is_disabled":false,"rental_uris":{"android":"levelo://app?vid=841a99b1-ccda-4e23-9985-2585901feb3a","ios":"levelo://app?vid=841a99b1-ccda-4e23-9985-2585901feb3a"},"vehicle_type_id":"4","last_reported":1745676504,"current_range_meters":6000,"station_id":"ce4bhbh2rcd13ifvqeo0","pricing_plan_id":"cebpf4jnsgd1na2vs0mg"},{"bike_id":"ef75a614-9b16-4863-a00c-ecf0358d87e5","system_id":"levelo_inurba_marseille","lat":43.26569,"lon":5.3901,"is_reserved":false,"is_disabled":false,"rental_uris":{"android":"levelo://app?vid=ef75a614-9b16-4863-a00c-ecf0358d87e5","ios":"levelo://app?vid=ef75a614-9b16-4863-a00c-ecf0358d87e5"},"vehicle_type_id":"4","last_reported":1745676504,"current_range_meters":6000,"station_id":"ce4bhe12rcd13ifvqf30","pricing_plan_id":"cebpf4jnsgd1na2vs0mg"},{"bike_id":"8603047f-2541-4882-be33-9ff77b949d38","system_id":"levelo_inurba_marseille","lat":43.29814,"lon":5.40392,"is_reserved":false,"is_disabled":false,"rental_uris":{"android":"levelo://app?vid=8603047f-2541-4882-be33-9ff77b949d38","ios":"levelo://app?vid=8603047f-2541-4882-be33-9ff77b949d38"},"vehicle_type_id":"4","last_reported":1745676504,"current_range_meters":6000,"station_id":"ce4bh112rcd13ifvqd90","pricing_plan_id":"cebpf4jnsgd1na2vs0mg"},{"bike_id":"d1aada2c-c1b4-4231-9832-6811678a1ed1","system_id":"levelo_inurba_marseille","lat":43.25497,"lon":5.37644,"is_reserved":false,"is_disabled":false,"rental_uris":{"android":"levelo://app?vid=d1aada2c-c1b4-4231-9832-6811678a1ed1","ios":"levelo://app?vid=d1aada2c-c1b4-4231-9832-6811678a1ed1"},"vehicle_type_id":"4","last_reported":1745676504,"current_range_meters":6400,"station_id":"ce4bhh12rcd13ifvqff0","pricing_plan_id":"cebpf4jnsgd1na2vs0mg"},{"bike_id":"4751c42c-df70-44f1-921f-311585e43c28","system_id":"levelo_inurba_marseille","lat":43.27983,"lon":5.35761,"is_reserved":false,"is_disabled":false,"rental_uris":{"android":"levelo://app?vid=4751c42c-df70-44f1-921f-311585e43c28","ios":"levelo://app?vid=4751c42c-df70-44f1-921f-311585e43c28"},"vehicle_type_id":"4","last_reported":1745676504,"current_range_meters":6400,"station_id":"ce4bhp92rcd13ifvqhbg","pricing_plan_id":"cebpf4jnsgd1na2vs0mg"},{"bike_id":"8e1b7f9c-15cd-4196-9a56-b8c9c867228b","system_id":"levelo_inurba_marseille","lat":43.26215,"lon":5.37431,"is_reserved":false,"is_disabled":false,"rental_uris":{"android":"levelo://app?vid=8e1b7f9c-15cd-4196-9a56-b8c9c867228b","ios":"levelo://app?vid=8e1b7f9c-15cd-4196-9a56-b8c9c867228b"},"vehicle_type_id":"4","last_reported":1745676504,"current_range_meters":6400,"station_id":"ce4bhgp2rcd13ifvqfc0","pricing_plan_id":"cebpf4jnsgd1na2vs0mg"},{"bike_id":"40f78a3f-fb63-4b44-b5f3-e24c279c253f","system_id":"levelo_inurba_marseille","lat":43.30968,"lon":5.39082,"is_reserved":false,"is_disabled":false,"rental_uris":{"android":"levelo://app?vid=40f78a3f-fb63-4b44-b5f3-e24c279c253f","ios":"levelo://app?vid=40f78a3f-fb63-4b44-b5f3-e24c279c253f"},"vehicle_type_id":"4","last_reported":1745676504,"current_range_meters":6400,"station_id":"ce4bgup2rcd13ifvqco0","pricing_plan_id":"cebpf4jnsgd1na2vs0mg"},{"bike_id":"f4a8e722-2637-413a-b9db-1de844898066","system_id":"levelo_inurba_marseille","lat":43.29538,"lon":5.38545,"is_reserved":false,"is_disabled":false,"rental_uris":{"android":"levelo://app?vid=f4a8e722-2637-413a-b9db-1de844898066","ios":"levelo://app?vid=f4a8e722-2637-413a-b9db-1de844898066"},"vehicle_type_id":"4","last_reported":1745676504,"current_range_meters":6400,"station_id":"ce4bgih2rcd13ifvqba0","pricing_plan_id":"cebpf4jnsgd1na2vs0mg"},{"bike_id":"3b47964e-861b-41df-96ce-bbcda3a38656","system_id":"levelo_inurba_marseille","lat":43.26192,"lon":5.37453,"is_reserved":false,"is_disabled":false,"rental_uris":{"android":"levelo://app?vid=3b47964e-861b-41df-96ce-bbcda3a38656","ios":"levelo://app?vid=3b47964e-861b-41df-96ce-bbcda3a38656"},"vehicle_type_id":"4","last_reported":1745676504,"current_range_meters":6800,"station_id":"ce4bhgp2rcd13ifvqfc0","pricing_plan_id":"cebpf4jnsgd1na2vs0mg"},{"bike_id":"6780e9e8-ea6a-48ce-b9da-f0145507abb4","system_id":"levelo_inurba_marseille","lat":43.298257,"lon":5.376719,"is_reserved":false,"is_disabled":false,"rental_uris":{"android":"levelo://app?vid=6780e9e8-ea6a-48ce-b9da-f0145507abb4","ios":"levelo://app?vid=6780e9e8-ea6a-48ce-b9da-f0145507abb4"},"vehicle_type_id":"4","last_reported":1745676504,"current_range_meters":6800,"station_id":"ce4bgjh2rcd13ifvqbf0","pricing_plan_id":"cebpf4jnsgd1na2vs0mg"},{"bike_id":"feabd58e-1e49-43fd-9960-26d784120c26","system_id":"levelo_inurba_marseille","lat":43.28164,"lon":5.42643,"is_reserved":false,"is_disabled":false,"rental_uris":{"android":"levelo://app?vid=feabd58e-1e49-43fd-9960-26d784120c26","ios":"levelo://app?vid=feabd58e-1e49-43fd-9960-26d784120c26"},"vehicle_type_id":"4","last_reported":1745676504,"current_range_meters":6800,"station_id":"ce4bhnh2rcd13ifvqgug","pricing_plan_id":"cebpf4jnsgd1na2vs0mg"},{"bike_id":"89f54833-19e1-459b-ad74-1ed9b3d4477c","system_id":"levelo_inurba_marseille","lat":43.22932,"lon":5.35377,"is_reserved":false,"is_disabled":false,"rental_uris":{"android":"levelo://app?vid=89f54833-19e1-459b-ad74-1ed9b3d4477c","ios":"levelo://app?vid=89f54833-19e1-459b-ad74-1ed9b3d4477c"},"vehicle_type_id":"4","last_reported":1745676504,"current_range_meters":6800,"station_id":"cpo3532slgdg3j2ikp40","pricing_plan_id":"cebpf4jnsgd1na2vs0mg"},{"bike_id":"74bf1832-a389-491d-9cf1-c0544e13bc20","system_id":"levelo_inurba_marseille","lat":43.27484,"lon":5.42442,"is_reserved":false,"is_disabled":false,"rental_uris":{"android":"levelo://app?vid=74bf1832-a389-491d-9cf1-c0544e13bc20","ios":"levelo://app?vid=74bf1832-a389-491d-9cf1-c0544e13bc20"},"vehicle_type_id":"4","last_reported":1745676504,"current_range_meters":6800,"station_id":"ce4bhn92rcd13ifvqgrg","pricing_plan_id":"cebpf4jnsgd1na2vs0mg"},{"bike_id":"a45396b4-6a30-4907-9c08-e415b6011144","system_id":"levelo_inurba_marseille","lat":43.2408,"lon":5.3776,"is_reserved":false,"is_disabled":false,"rental_uris":{"android":"levelo://app?vid=a45396b4-6a30-4907-9c08-e415b6011144","ios":"levelo://app?vid=a45396b4-6a30-4907-9c08-e415b6011144"},"vehicle_type_id":"4","last_reported":1745676504,"current_range_meters":6800,"station_id":"ce4bhnp2rcd13ifvqgvg","pricing_plan_id":"cebpf4jnsgd1na2vs0mg"},{"bike_id":"d1ff7e34-d25d-4063-9648-2bd4db47424f","system_id":"levelo_inurba_marseille","lat":43.32455,"lon":5.39145,"is_reserved":false,"is_disabled":false,"rental_uris":{"android":"levelo://app?vid=d1ff7e34-d25d-4063-9648-2bd4db47424f","ios":"levelo://app?vid=d1ff7e34-d25d-4063-9648-2bd4db47424f"},"vehicle_type_id":"4","last_reported":1745676504,"current_range_meters":6800,"station_id":"","pricing_plan_id":"cebpf4jnsgd1na2vs0mg"},{"bike_id":"1c4e578f-fe44-4a7a-9e11-1dba3a575c3c","system_id":"levelo_inurba_marseille","lat":43.30955,"lon":5.3906,"is_reserved":false,"is_disabled":false,"rental_uris":{"android":"levelo://app?vid=1c4e578f-fe44-4a7a-9e11-1dba3a575c3c","ios":"levelo://app?vid=1c4e578f-fe44-4a7a-9e11-1dba3a575c3c"},"vehicle_type_id":"4","last_reported":1745676504,"current_range_meters":6800,"station_id":"ce4bgup2rcd13ifvqco0","pricing_plan_id":"cebpf4jnsgd1na2vs0mg"},{"bike_id":"1f1a3b1d-7c0b-4745-920e-6b912f3244b7","system_id":"levelo_inurba_marseille","lat":43.23184,"lon":5.39987,"is_reserved":false,"is_disabled":false,"rental_uris":{"android":"levelo://app?vid=1f1a3b1d-7c0b-4745-920e-6b912f3244b7","ios":"levelo://app?vid=1f1a3b1d-7c0b-4745-920e-6b912f3244b7"},"vehicle_type_id":"4","last_reported":1745676504,"current_range_meters":6800,"station_id":"ce4bhn12rcd13ifvqgqg","pricing_plan_id":"cebpf4jnsgd1na2vs0mg"},{"bike_id":"5905bc36-47ec-4161-8afe-3f3ca650e80d","system_id":"levelo_inurba_marseille","lat":43.28082,"lon":5.39659,"is_reserved":false,"is_disabled":false,"rental_uris":{"android":"levelo://app?vid=5905bc36-47ec-4161-8afe-3f3ca650e80d","ios":"levelo://app?vid=5905bc36-47ec-4161-8afe-3f3ca650e80d"},"vehicle_type_id":"4","last_reported":1745676504,"current_range_meters":7200,"station_id":"ce4bho12rcd13ifvqh2g","pricing_plan_id":"cebpf4jnsgd1na2vs0mg"},{"bike_id":"c07e9138-d4b7-47f9-a1c3-6118d60db894","system_id":"levelo_inurba_marseille","lat":43.30542,"lon":5.3653,"is_reserved":false,"is_disabled":false,"rental_uris":{"android":"levelo://app?vid=c07e9138-d4b7-47f9-a1c3-6118d60db894","ios":"levelo://app?vid=c07e9138-d4b7-47f9-a1c3-6118d60db894"},"vehicle_type_id":"4","last_reported":1745676504,"current_range_meters":7200,"station_id":"ce4bgs12rcd13ifvqcag","pricing_plan_id":"cebpf4jnsgd1na2vs0mg"},{"bike_id":"783b19b8-3357-4459-a3e1-2622284f401e","system_id":"levelo_inurba_marseille","lat":43.24808,"lon":5.37453,"is_reserved":false,"is_disabled":false,"rental_uris":{"android":"levelo://app?vid=783b19b8-3357-4459-a3e1-2622284f401e","ios":"levelo://app?vid=783b19b8-3357-4459-a3e1-2622284f401e"},"vehicle_type_id":"4","last_reported":1745676504,"current_range_meters":7200,"station_id":"ce4bhgh2rcd13ifvqfb0","pricing_plan_id":"cebpf4jnsgd1na2vs0mg"},{"bike_id":"a5f4d6cf-1cf2-4431-b73f-a4044861d5ee","system_id":"levelo_inurba_marseille","lat":43.29517,"lon":5.39401,"is_reserved":false,"is_disabled":false,"rental_uris":{"android":"levelo://app?vid=a5f4d6cf-1cf2-4431-b73f-a4044861d5ee","ios":"levelo://app?vid=a5f4d6cf-1cf2-4431-b73f-a4044861d5ee"},"vehicle_type_id":"4","last_reported":1745676504,"current_range_meters":6800,"station_id":"ce4bh292rcd13ifvqdf0","pricing_plan_id":"cebpf4jnsgd1na2vs0mg"},{"bike_id":"7c8b0050-da75-490e-a8f7-4daf22ee9e0c","system_id":"levelo_inurba_marseille","lat":43.27921,"lon":5.39598,"is_reserved":false,"is_disabled":false,"rental_uris":{"android":"levelo://app?vid=7c8b0050-da75-490e-a8f7-4daf22ee9e0c","ios":"levelo://app?vid=7c8b0050-da75-490e-a8f7-4daf22ee9e0c"},"vehicle_type_id":"4","last_reported":1745676504,"current_range_meters":7200,"station_id":"ce4bhf92rcd13ifvqf40","pricing_plan_id":"cebpf4jnsgd1na2vs0mg"},{"bike_id":"63c783f1-8c03-4913-8726-1e4e20ff2658","system_id":"levelo_inurba_marseille","lat":43.28854,"lon":5.39298,"is_reserved":false,"is_disabled":false,"rental_uris":{"android":"levelo://app?vid=63c783f1-8c03-4913-8726-1e4e20ff2658","ios":"levelo://app?vid=63c783f1-8c03-4913-8726-1e4e20ff2658"},"vehicle_type_id":"4","last_reported":1745676504,"current_range_meters":7200,"station_id":"ce4bh2p2rcd13ifvqdi0","pricing_plan_id":"cebpf4jnsgd1na2vs0mg"},{"bike_id":"422b5989-c8b6-43aa-b2b9-3bfeb2e1ddc0","system_id":"levelo_inurba_marseille","lat":43.247181,"lon":5.411715,"is_reserved":false,"is_disabled":false,"rental_uris":{"android":"levelo://app?vid=422b5989-c8b6-43aa-b2b9-3bfeb2e1ddc0","ios":"levelo://app?vid=422b5989-c8b6-43aa-b2b9-3bfeb2e1ddc0"},"vehicle_type_id":"4","last_reported":1745676504,"current_range_meters":8000,"station_id":"","pricing_plan_id":"cebpf4jnsgd1na2vs0mg"},{"bike_id":"f62a4552-ec40-438e-82bf-49608a81162e","system_id":"levelo_inurba_marseille","lat":43.23968,"lon":5.36628,"is_reserved":false,"is_disabled":false,"rental_uris":{"android":"levelo://app?vid=f62a4552-ec40-438e-82bf-49608a81162e","ios":"levelo://app?vid=f62a4552-ec40-438e-82bf-49608a81162e"},"vehicle_type_id":"4","last_reported":1745676504,"current_range_meters":8000,"station_id":"ce4bhi12rcd13ifvqfp0","pricing_plan_id":"cebpf4jnsgd1na2vs0mg"},{"bike_id":"c0f27042-8a97-456c-91e4-a40b67fd7e81","system_id":"levelo_inurba_marseille","lat":43.29613,"lon":5.3772,"is_reserved":false,"is_disabled":false,"rental_uris":{"android":"levelo://app?vid=c0f27042-8a97-456c-91e4-a40b67fd7e81","ios":"levelo://app?vid=c0f27042-8a97-456c-91e4-a40b67fd7e81"},"vehicle_type_id":"4","last_reported":1745676504,"current_range_meters":8000,"station_id":"ce4bgi92rcd13ifvqb90","pricing_plan_id":"cebpf4jnsgd1na2vs0mg"},{"bike_id":"cee3661f-7fdc-47e9-9b17-2e01b3489b78","system_id":"levelo_inurba_marseille","lat":43.29535,"lon":5.38541,"is_reserved":false,"is_disabled":false,"rental_uris":{"android":"levelo://app?vid=cee3661f-7fdc-47e9-9b17-2e01b3489b78","ios":"levelo://app?vid=cee3661f-7fdc-47e9-9b17-2e01b3489b78"},"vehicle_type_id":"4","last_reported":1745676504,"current_range_meters":8000,"station_id":"ce4bgih2rcd13ifvqba0","pricing_plan_id":"cebpf4jnsgd1na2vs0mg"},{"bike_id":"7a78217b-7558-475d-afab-ecd4b02be08d","system_id":"levelo_inurba_marseille","lat":43.2707,"lon":5.40259,"is_reserved":false,"is_disabled":false,"rental_uris":{"android":"levelo://app?vid=7a78217b-7558-475d-afab-ecd4b02be08d","ios":"levelo://app?vid=7a78217b-7558-475d-afab-ecd4b02be08d"},"vehicle_type_id":"4","last_reported":1745676504,"current_range_meters":8000,"station_id":"ce4bhk92rcd13ifvqgc0","pricing_plan_id":"cebpf4jnsgd1na2vs0mg"},{"bike_id":"4f944775-57ad-4dfe-887f-1080686cb12e","system_id":"levelo_inurba_marseille","lat":43.293827,"lon":5.37856,"is_reserved":false,"is_disabled":false,"rental_uris":{"android":"levelo://app?vid=4f944775-57ad-4dfe-887f-1080686cb12e","ios":"levelo://app?vid=4f944775-57ad-4dfe-887f-1080686cb12e"},"vehicle_type_id":"4","last_reported":1745676504,"current_range_meters":8000,"station_id":"ce4bgjh2rcd13ifvqbf0","pricing_plan_id":"cebpf4jnsgd1na2vs0mg"},{"bike_id":"6581688e-ca46-43c8-9a52-98a15d0ab851","system_id":"levelo_inurba_marseille","lat":43.2694,"lon":5.40259,"is_reserved":false,"is_disabled":false,"rental_uris":{"android":"levelo://app?vid=6581688e-ca46-43c8-9a52-98a15d0ab851","ios":"levelo://app?vid=6581688e-ca46-43c8-9a52-98a15d0ab851"},"vehicle_type_id":"4","last_reported":1745676504,"current_range_meters":7200,"station_id":"cjm6bp8fraef2m0cb0m0","pricing_plan_id":"cebpf4jnsgd1na2vs0mg"},{"bike_id":"18ae1d78-8d9e-4697-bc48-a39d36035c1d","system_id":"levelo_inurba_marseille","lat":43.23975,"lon":5.36624,"is_reserved":false,"is_disabled":false,"rental_uris":{"android":"levelo://app?vid=18ae1d78-8d9e-4697-bc48-a39d36035c1d","ios":"levelo://app?vid=18ae1d78-8d9e-4697-bc48-a39d36035c1d"},"vehicle_type_id":"4","last_reported":1745676504,"current_range_meters":8000,"station_id":"ce4bhi12rcd13ifvqfp0","pricing_plan_id":"cebpf4jnsgd1na2vs0mg"},{"bike_id":"1a911f81-e599-4eec-a4a8-c3e040b5be0f","system_id":"levelo_inurba_marseille","lat":43.3043,"lon":5.38878,"is_reserved":false,"is_disabled":false,"rental_uris":{"android":"levelo://app?vid=1a911f81-e599-4eec-a4a8-c3e040b5be0f","ios":"levelo://app?vid=1a911f81-e599-4eec-a4a8-c3e040b5be0f"},"vehicle_type_id":"4","last_reported":1745676504,"current_range_meters":7200,"station_id":"ce4bgk12rcd13ifvqbi0","pricing_plan_id":"cebpf4jnsgd1na2vs0mg"},{"bike_id":"0f247a31-3b2b-48b7-9799-1620d33d6bc6","system_id":"levelo_inurba_marseille","lat":43.23148,"lon":5.43716,"is_reserved":false,"is_disabled":false,"rental_uris":{"android":"levelo://app?vid=0f247a31-3b2b-48b7-9799-1620d33d6bc6","ios":"levelo://app?vid=0f247a31-3b2b-48b7-9799-1620d33d6bc6"},"vehicle_type_id":"4","last_reported":1745676504,"current_range_meters":8400,"station_id":"ce4bhmp2rcd13ifvqgog","pricing_plan_id":"cebpf4jnsgd1na2vs0mg"},{"bike_id":"554fe001-fd7c-4ce9-8b9f-fe24a3da343a","system_id":"levelo_inurba_marseille","lat":43.23199,"lon":5.35564,"is_reserved":false,"is_disabled":false,"rental_uris":{"android":"levelo://app?vid=554fe001-fd7c-4ce9-8b9f-fe24a3da343a","ios":"levelo://app?vid=554fe001-fd7c-4ce9-8b9f-fe24a3da343a"},"vehicle_type_id":"4","last_reported":1745676504,"current_range_meters":8400,"station_id":"ce4bhu92rcd13ifvqi70","pricing_plan_id":"cebpf4jnsgd1na2vs0mg"},{"bike_id":"3fb10e7d-00e1-476c-a14f-2837b73331eb","system_id":"levelo_inurba_marseille","lat":43.26195,"lon":5.37447,"is_reserved":false,"is_disabled":false,"rental_uris":{"android":"levelo://app?vid=3fb10e7d-00e1-476c-a14f-2837b73331eb","ios":"levelo://app?vid=3fb10e7d-00e1-476c-a14f-2837b73331eb"},"vehicle_type_id":"4","last_reported":1745676504,"current_range_meters":8400,"station_id":"ce4bhgp2rcd13ifvqfc0","pricing_plan_id":"cebpf4jnsgd1na2vs0mg"},{"bike_id":"78f86ce9-2162-45f6-b305-bcb23d0cd8a9","system_id":"levelo_inurba_marseille","lat":43.244,"lon":5.37071,"is_reserved":false,"is_disabled":false,"rental_uris":{"android":"levelo://app?vid=78f86ce9-2162-45f6-b305-bcb23d0cd8a9","ios":"levelo://app?vid=78f86ce9-2162-45f6-b305-bcb23d0cd8a9"},"vehicle_type_id":"4","last_reported":1745676504,"current_range_meters":8400,"station_id":"ce4bhhh2rcd13ifvqfk0","pricing_plan_id":"cebpf4jnsgd1na2vs0mg"},{"bike_id":"51376682-930e-45ed-90e0-b53d931ddc33","system_id":"levelo_inurba_marseille","lat":43.275,"lon":5.42442,"is_reserved":false,"is_disabled":false,"rental_uris":{"android":"levelo://app?vid=51376682-930e-45ed-90e0-b53d931ddc33","ios":"levelo://app?vid=51376682-930e-45ed-90e0-b53d931ddc33"},"vehicle_type_id":"4","last_reported":1745676504,"current_range_meters":8400,"station_id":"ce4bhn92rcd13ifvqgrg","pricing_plan_id":"cebpf4jnsgd1na2vs0mg"},{"bike_id":"90ad068d-64b6-4b03-aa5b-ce79fed1796a","system_id":"levelo_inurba_marseille","lat":43.29251,"lon":5.36828,"is_reserved":false,"is_disabled":false,"rental_uris":{"android":"levelo://app?vid=90ad068d-64b6-4b03-aa5b-ce79fed1796a","ios":"levelo://app?vid=90ad068d-64b6-4b03-aa5b-ce79fed1796a"},"vehicle_type_id":"4","last_reported":1745676504,"current_range_meters":8400,"station_id":"","pricing_plan_id":"cebpf4jnsgd1na2vs0mg"},{"bike_id":"1596c4e4-440c-4e2a-938a-491cffaae877","system_id":"levelo_inurba_marseille","lat":43.22932,"lon":5.35377,"is_reserved":false,"is_disabled":false,"rental_uris":{"android":"levelo://app?vid=1596c4e4-440c-4e2a-938a-491cffaae877","ios":"levelo://app?vid=1596c4e4-440c-4e2a-938a-491cffaae877"},"vehicle_type_id":"4","last_reported":1745676504,"current_range_meters":8400,"station_id":"cpo3532slgdg3j2ikp40","pricing_plan_id":"cebpf4jnsgd1na2vs0mg"},{"bike_id":"2743111f-6f05-405a-b992-7e5d8fae8924","system_id":"levelo_inurba_marseille","lat":43.22937,"lon":5.35378,"is_reserved":false,"is_disabled":false,"rental_uris":{"android":"levelo://app?vid=2743111f-6f05-405a-b992-7e5d8fae8924","ios":"levelo://app?vid=2743111f-6f05-405a-b992-7e5d8fae8924"},"vehicle_type_id":"4","last_reported":1745676504,"current_range_meters":8400,"station_id":"cpo3532slgdg3j2ikp40","pricing_plan_id":"cebpf4jnsgd1na2vs0mg"},{"bike_id":"98aa7b5f-d03c-40fd-81f3-dfe8abcc6a6c","system_id":"levelo_inurba_marseille","lat":43.29025,"lon":5.38136,"is_reserved":false,"is_disabled":false,"rental_uris":{"android":"levelo://app?vid=98aa7b5f-d03c-40fd-81f3-dfe8abcc6a6c","ios":"levelo://app?vid=98aa7b5f-d03c-40fd-81f3-dfe8abcc6a6c"},"vehicle_type_id":"4","last_reported":1745676504,"current_range_meters":8400,"station_id":"ce4bh4p2rcd13ifvqe1g","pricing_plan_id":"cebpf4jnsgd1na2vs0mg"},{"bike_id":"51587a7a-4431-438e-928f-ef27df76a80e","system_id":"levelo_inurba_marseille","lat":43.26217,"lon":5.3744,"is_reserved":false,"is_disabled":false,"rental_uris":{"android":"levelo://app?vid=51587a7a-4431-438e-928f-ef27df76a80e","ios":"levelo://app?vid=51587a7a-4431-438e-928f-ef27df76a80e"},"vehicle_type_id":"4","last_reported":1745676504,"current_range_meters":8800,"station_id":"ce4bhgp2rcd13ifvqfc0","pricing_plan_id":"cebpf4jnsgd1na2vs0mg"},{"bike_id":"6104de1b-83a6-4912-bfa1-49d35364e6af","system_id":"levelo_inurba_marseille","lat":43.23965,"lon":5.36643,"is_reserved":false,"is_disabled":false,"rental_uris":{"android":"levelo://app?vid=6104de1b-83a6-4912-bfa1-49d35364e6af","ios":"levelo://app?vid=6104de1b-83a6-4912-bfa1-49d35364e6af"},"vehicle_type_id":"4","last_reported":1745676504,"current_range_meters":8800,"station_id":"ce4bhi12rcd13ifvqfp0","pricing_plan_id":"cebpf4jnsgd1na2vs0mg"},{"bike_id":"0fcc19fc-3255-4b45-a7aa-6a11ef13b7bc","system_id":"levelo_inurba_marseille","lat":43.29423,"lon":5.38629,"is_reserved":false,"is_disabled":false,"rental_uris":{"android":"levelo://app?vid=0fcc19fc-3255-4b45-a7aa-6a11ef13b7bc","ios":"levelo://app?vid=0fcc19fc-3255-4b45-a7aa-6a11ef13b7bc"},"vehicle_type_id":"4","last_reported":1745676504,"current_range_meters":8800,"station_id":"ce4bh2h2rcd13ifvqdh0","pricing_plan_id":"cebpf4jnsgd1na2vs0mg"},{"bike_id":"96bfa2cf-70fb-44b2-816e-701dccde6be5","system_id":"levelo_inurba_marseille","lat":43.26946,"lon":5.40249,"is_reserved":false,"is_disabled":false,"rental_uris":{"android":"levelo://app?vid=96bfa2cf-70fb-44b2-816e-701dccde6be5","ios":"levelo://app?vid=96bfa2cf-70fb-44b2-816e-701dccde6be5"},"vehicle_type_id":"4","last_reported":1745676504,"current_range_meters":8800,"station_id":"cjm6bp8fraef2m0cb0m0","pricing_plan_id":"cebpf4jnsgd1na2vs0mg"},{"bike_id":"f997f3a2-6ef7-4d7a-931e-8083cf2fa70c","system_id":"levelo_inurba_marseille","lat":43.26832,"lon":5.40234,"is_reserved":false,"is_disabled":false,"rental_uris":{"android":"levelo://app?vid=f997f3a2-6ef7-4d7a-931e-8083cf2fa70c","ios":"levelo://app?vid=f997f3a2-6ef7-4d7a-931e-8083cf2fa70c"},"vehicle_type_id":"4","last_reported":1745676504,"current_range_meters":8800,"station_id":"ce501612rcd8frsf0b60","pricing_plan_id":"cebpf4jnsgd1na2vs0mg"},{"bike_id":"44074990-08c9-4ef4-b3ad-4666f3645e9e","system_id":"levelo_inurba_marseille","lat":43.270294,"lon":5.388022,"is_reserved":false,"is_disabled":false,"rental_uris":{"android":"levelo://app?vid=44074990-08c9-4ef4-b3ad-4666f3645e9e","ios":"levelo://app?vid=44074990-08c9-4ef4-b3ad-4666f3645e9e"},"vehicle_type_id":"4","last_reported":1745676504,"current_range_meters":9200,"station_id":"ce4bhhp2rcd13ifvqfm0","pricing_plan_id":"cebpf4jnsgd1na2vs0mg"},{"bike_id":"ea13b3bd-1573-4e5e-9eee-48a44e9cb12b","system_id":"levelo_inurba_marseille","lat":43.237396,"lon":5.395057,"is_reserved":false,"is_disabled":false,"rental_uris":{"android":"levelo://app?vid=ea13b3bd-1573-4e5e-9eee-48a44e9cb12b","ios":"levelo://app?vid=ea13b3bd-1573-4e5e-9eee-48a44e9cb12b"},"vehicle_type_id":"4","last_reported":1745676504,"current_range_meters":9200,"station_id":"ce4bhn12rcd13ifvqgqg","pricing_plan_id":"cebpf4jnsgd1na2vs0mg"},{"bike_id":"3f149be8-3fc0-4e3f-9f05-51add445dfa2","system_id":"levelo_inurba_marseille","lat":43.26566,"lon":5.390119,"is_reserved":false,"is_disabled":false,"rental_uris":{"android":"levelo://app?vid=3f149be8-3fc0-4e3f-9f05-51add445dfa2","ios":"levelo://app?vid=3f149be8-3fc0-4e3f-9f05-51add445dfa2"},"vehicle_type_id":"4","last_reported":1745676504,"current_range_meters":9200,"station_id":"ce4bhe12rcd13ifvqf30","pricing_plan_id":"cebpf4jnsgd1na2vs0mg"},{"bike_id":"7c112dcd-73e3-40db-b25a-7a6c4f67433a","system_id":"levelo_inurba_marseille","lat":43.24383,"lon":5.37065,"is_reserved":false,"is_disabled":false,"rental_uris":{"android":"levelo://app?vid=7c112dcd-73e3-40db-b25a-7a6c4f67433a","ios":"levelo://app?vid=7c112dcd-73e3-40db-b25a-7a6c4f67433a"},"vehicle_type_id":"4","last_reported":1745676504,"current_range_meters":9200,"station_id":"ce4bhhh2rcd13ifvqfk0","pricing_plan_id":"cebpf4jnsgd1na2vs0mg"},{"bike_id":"303b6be6-5f49-431b-9345-ad187445b596","system_id":"levelo_inurba_marseille","lat":43.27902,"lon":5.38012,"is_reserved":false,"is_disabled":false,"rental_uris":{"android":"levelo://app?vid=303b6be6-5f49-431b-9345-ad187445b596","ios":"levelo://app?vid=303b6be6-5f49-431b-9345-ad187445b596"},"vehicle_type_id":"4","last_reported":1745676504,"current_range_meters":9200,"station_id":"ce4bhf92rcd13ifvqf50","pricing_plan_id":"cebpf4jnsgd1na2vs0mg"},{"bike_id":"3084e53c-5740-4a36-b153-c31106199cf3","system_id":"levelo_inurba_marseille","lat":43.21218,"lon":5.3508,"is_reserved":false,"is_disabled":false,"rental_uris":{"android":"levelo://app?vid=3084e53c-5740-4a36-b153-c31106199cf3","ios":"levelo://app?vid=3084e53c-5740-4a36-b153-c31106199cf3"},"vehicle_type_id":"4","last_reported":1745676504,"current_range_meters":9200,"station_id":"st_cvj6sg6p6f1abm77japg","pricing_plan_id":"cebpf4jnsgd1na2vs0mg"},{"bike_id":"1e0768ac-fb8f-4b9b-99fa-944a4323889d","system_id":"levelo_inurba_marseille","lat":43.23182,"lon":5.39982,"is_reserved":false,"is_disabled":false,"rental_uris":{"android":"levelo://app?vid=1e0768ac-fb8f-4b9b-99fa-944a4323889d","ios":"levelo://app?vid=1e0768ac-fb8f-4b9b-99fa-944a4323889d"},"vehicle_type_id":"4","last_reported":1745676504,"current_range_meters":9600,"station_id":"ce4bhn12rcd13ifvqgqg","pricing_plan_id":"cebpf4jnsgd1na2vs0mg"},{"bike_id":"1a7ac223-8bd6-4aeb-affd-f1f1944a8faa","system_id":"levelo_inurba_marseille","lat":43.21193,"lon":5.35073,"is_reserved":false,"is_disabled":false,"rental_uris":{"android":"levelo://app?vid=1a7ac223-8bd6-4aeb-affd-f1f1944a8faa","ios":"levelo://app?vid=1a7ac223-8bd6-4aeb-affd-f1f1944a8faa"},"vehicle_type_id":"4","last_reported":1745676504,"current_range_meters":9600,"station_id":"st_cvj6sg6p6f1abm77japg","pricing_plan_id":"cebpf4jnsgd1na2vs0mg"},{"bike_id":"853b79c9-ef77-415e-9286-76f2a45b1aa2","system_id":"levelo_inurba_marseille","lat":43.31124,"lon":5.37761,"is_reserved":false,"is_disabled":false,"rental_uris":{"android":"levelo://app?vid=853b79c9-ef77-415e-9286-76f2a45b1aa2","ios":"levelo://app?vid=853b79c9-ef77-415e-9286-76f2a45b1aa2"},"vehicle_type_id":"4","last_reported":1745676504,"current_range_meters":9600,"station_id":"ce4bgt92rcd13ifvqcg0","pricing_plan_id":"cebpf4jnsgd1na2vs0mg"},{"bike_id":"ff062f05-860f-4e02-8275-dd31fed8fe8c","system_id":"levelo_inurba_marseille","lat":43.27943,"lon":5.41031,"is_reserved":false,"is_disabled":false,"rental_uris":{"android":"levelo://app?vid=ff062f05-860f-4e02-8275-dd31fed8fe8c","ios":"levelo://app?vid=ff062f05-860f-4e02-8275-dd31fed8fe8c"},"vehicle_type_id":"4","last_reported":1745676504,"current_range_meters":9600,"station_id":"ce4bhnp2rcd13ifvqh0g","pricing_plan_id":"cebpf4jnsgd1na2vs0mg"},{"bike_id":"7643ce4e-9a94-4503-bf68-4fe422ce9a69","system_id":"levelo_inurba_marseille","lat":43.26558,"lon":5.37289,"is_reserved":false,"is_disabled":false,"rental_uris":{"android":"levelo://app?vid=7643ce4e-9a94-4503-bf68-4fe422ce9a69","ios":"levelo://app?vid=7643ce4e-9a94-4503-bf68-4fe422ce9a69"},"vehicle_type_id":"4","last_reported":1745676504,"current_range_meters":9600,"station_id":"ce4bhg12rcd13ifvqf70","pricing_plan_id":"cebpf4jnsgd1na2vs0mg"},{"bike_id":"a4c2d2b4-14fc-484f-9627-23619d457e64","system_id":"levelo_inurba_marseille","lat":43.23183,"lon":5.39986,"is_reserved":false,"is_disabled":false,"rental_uris":{"android":"levelo://app?vid=a4c2d2b4-14fc-484f-9627-23619d457e64","ios":"levelo://app?vid=a4c2d2b4-14fc-484f-9627-23619d457e64"},"vehicle_type_id":"4","last_reported":1745676504,"current_range_meters":9600,"station_id":"ce4bhn12rcd13ifvqgqg","pricing_plan_id":"cebpf4jnsgd1na2vs0mg"},{"bike_id":"3f44be1c-0fae-4e4b-91d0-268cf62e39dc","system_id":"levelo_inurba_marseille","lat":43.25587,"lon":5.38228,"is_reserved":false,"is_disabled":false,"rental_uris":{"android":"levelo://app?vid=3f44be1c-0fae-4e4b-91d0-268cf62e39dc","ios":"levelo://app?vid=3f44be1c-0fae-4e4b-91d0-268cf62e39dc"},"vehicle_type_id":"4","last_reported":1745676504,"current_range_meters":9600,"station_id":"ce4bhih2rcd13ifvqfs0","pricing_plan_id":"cebpf4jnsgd1na2vs0mg"},{"bike_id":"a9e689af-7396-49a4-9446-56c30f725424","system_id":"levelo_inurba_marseille","lat":43.2807,"lon":5.39647,"is_reserved":false,"is_disabled":false,"rental_uris":{"android":"levelo://app?vid=a9e689af-7396-49a4-9446-56c30f725424","ios":"levelo://app?vid=a9e689af-7396-49a4-9446-56c30f725424"},"vehicle_type_id":"4","last_reported":1745676504,"current_range_meters":10000,"station_id":"ce4bho12rcd13ifvqh2g","pricing_plan_id":"cebpf4jnsgd1na2vs0mg"},{"bike_id":"81050707-bcb2-4273-aac9-9465473a9955","system_id":"levelo_inurba_marseille","lat":43.23196,"lon":5.35554,"is_reserved":false,"is_disabled":false,"rental_uris":{"android":"levelo://app?vid=81050707-bcb2-4273-aac9-9465473a9955","ios":"levelo://app?vid=81050707-bcb2-4273-aac9-9465473a9955"},"vehicle_type_id":"4","last_reported":1745676504,"current_range_meters":10000,"station_id":"ce4bhu92rcd13ifvqi70","pricing_plan_id":"cebpf4jnsgd1na2vs0mg"},{"bike_id":"d4dd27a5-3cf4-4f06-8e2d-72608162e285","system_id":"levelo_inurba_marseille","lat":43.29971,"lon":5.38496,"is_reserved":false,"is_disabled":false,"rental_uris":{"android":"levelo://app?vid=d4dd27a5-3cf4-4f06-8e2d-72608162e285","ios":"levelo://app?vid=d4dd27a5-3cf4-4f06-8e2d-72608162e285"},"vehicle_type_id":"4","last_reported":1745676504,"current_range_meters":10000,"station_id":"ce4bgj92rcd13ifvqbd0","pricing_plan_id":"cebpf4jnsgd1na2vs0mg"},{"bike_id":"b76bff85-4531-442a-8339-5724660c492f","system_id":"levelo_inurba_marseille","lat":43.281363,"lon":5.351418,"is_reserved":false,"is_disabled":false,"rental_uris":{"android":"levelo://app?vid=b76bff85-4531-442a-8339-5724660c492f","ios":"levelo://app?vid=b76bff85-4531-442a-8339-5724660c492f"},"vehicle_type_id":"4","last_reported":1745676504,"current_range_meters":10000,"station_id":"ce4bhbp2rcd13ifvqerg","pricing_plan_id":"cebpf4jnsgd1na2vs0mg"},{"bike_id":"ea4a3069-9083-4414-870b-fce4753f5ad6","system_id":"levelo_inurba_marseille","lat":43.28615,"lon":5.35106,"is_reserved":false,"is_disabled":false,"rental_uris":{"android":"levelo://app?vid=ea4a3069-9083-4414-870b-fce4753f5ad6","ios":"levelo://app?vid=ea4a3069-9083-4414-870b-fce4753f5ad6"},"vehicle_type_id":"4","last_reported":1745676504,"current_range_meters":10000,"station_id":"ce4bhch2rcd13ifvqeug","pricing_plan_id":"cebpf4jnsgd1na2vs0mg"},{"bike_id":"aac6b705-b359-4917-8f59-2f51f3d1908a","system_id":"levelo_inurba_marseille","lat":43.30953,"lon":5.39017,"is_reserved":false,"is_disabled":false,"rental_uris":{"android":"levelo://app?vid=aac6b705-b359-4917-8f59-2f51f3d1908a","ios":"levelo://app?vid=aac6b705-b359-4917-8f59-2f51f3d1908a"},"vehicle_type_id":"4","last_reported":1745676504,"current_range_meters":10000,"station_id":"ce4bgup2rcd13ifvqco0","pricing_plan_id":"cebpf4jnsgd1na2vs0mg"},{"bike_id":"d93cf9ba-0405-43e6-a9be-4596f3e2e7e6","system_id":"levelo_inurba_marseille","lat":43.29809,"lon":5.36229,"is_reserved":false,"is_disabled":false,"rental_uris":{"android":"levelo://app?vid=d93cf9ba-0405-43e6-a9be-4596f3e2e7e6","ios":"levelo://app?vid=d93cf9ba-0405-43e6-a9be-4596f3e2e7e6"},"vehicle_type_id":"4","last_reported":1745676504,"current_range_meters":10000,"station_id":"","pricing_plan_id":"cebpf4jnsgd1na2vs0mg"},{"bike_id":"434ff797-4ea4-4435-a3ce-32a39e5db280","system_id":"levelo_inurba_marseille","lat":43.26198,"lon":5.37454,"is_reserved":false,"is_disabled":false,"rental_uris":{"android":"levelo://app?vid=434ff797-4ea4-4435-a3ce-32a39e5db280","ios":"levelo://app?vid=434ff797-4ea4-4435-a3ce-32a39e5db280"},"vehicle_type_id":"4","last_reported":1745676504,"current_range_meters":10000,"station_id":"ce4bhgp2rcd13ifvqfc0","pricing_plan_id":"cebpf4jnsgd1na2vs0mg"},{"bike_id":"d5afa86c-5521-4399-bb8d-753e7ab2ffa5","system_id":"levelo_inurba_marseille","lat":43.231897,"lon":5.39981,"is_reserved":false,"is_disabled":false,"rental_uris":{"android":"levelo://app?vid=d5afa86c-5521-4399-bb8d-753e7ab2ffa5","ios":"levelo://app?vid=d5afa86c-5521-4399-bb8d-753e7ab2ffa5"},"vehicle_type_id":"4","last_reported":1745676504,"current_range_meters":10800,"station_id":"ce4bhn12rcd13ifvqgqg","pricing_plan_id":"cebpf4jnsgd1na2vs0mg"},{"bike_id":"6bf06e67-e0d3-4d92-82db-7c39cdaae814","system_id":"levelo_inurba_marseille","lat":43.28668,"lon":5.36357,"is_reserved":false,"is_disabled":false,"rental_uris":{"android":"levelo://app?vid=6bf06e67-e0d3-4d92-82db-7c39cdaae814","ios":"levelo://app?vid=6bf06e67-e0d3-4d92-82db-7c39cdaae814"},"vehicle_type_id":"4","last_reported":1745676504,"current_range_meters":10800,"station_id":"ce4bhah2rcd13ifvqej0","pricing_plan_id":"cebpf4jnsgd1na2vs0mg"},{"bike_id":"82997370-c001-48ee-b244-a41956f1cd4e","system_id":"levelo_inurba_marseille","lat":43.275547,"lon":5.359704,"is_reserved":false,"is_disabled":false,"rental_uris":{"android":"levelo://app?vid=82997370-c001-48ee-b244-a41956f1cd4e","ios":"levelo://app?vid=82997370-c001-48ee-b244-a41956f1cd4e"},"vehicle_type_id":"4","last_reported":1745676504,"current_range_meters":10800,"station_id":"ce4bhch2rcd13ifvqeug","pricing_plan_id":"cebpf4jnsgd1na2vs0mg"},{"bike_id":"b337b47e-e0c0-40c3-878a-37e58bb44305","system_id":"levelo_inurba_marseille","lat":43.3118,"lon":5.40782,"is_reserved":false,"is_disabled":false,"rental_uris":{"android":"levelo://app?vid=b337b47e-e0c0-40c3-878a-37e58bb44305","ios":"levelo://app?vid=b337b47e-e0c0-40c3-878a-37e58bb44305"},"vehicle_type_id":"4","last_reported":1745676504,"current_range_meters":10800,"station_id":"","pricing_plan_id":"cebpf4jnsgd1na2vs0mg"},{"bike_id":"ae2f8384-ab79-4241-aa7f-a13b45da22ce","system_id":"levelo_inurba_marseille","lat":43.26205,"lon":5.37439,"is_reserved":false,"is_disabled":false,"rental_uris":{"android":"levelo://app?vid=ae2f8384-ab79-4241-aa7f-a13b45da22ce","ios":"levelo://app?vid=ae2f8384-ab79-4241-aa7f-a13b45da22ce"},"vehicle_type_id":"4","last_reported":1745676504,"current_range_meters":10800,"station_id":"ce4bhgp2rcd13ifvqfc0","pricing_plan_id":"cebpf4jnsgd1na2vs0mg"},{"bike_id":"9abf1fb8-c524-49cf-97ef-a5373ae2f7a2","system_id":"levelo_inurba_marseille","lat":43.29275,"lon":5.36836,"is_reserved":false,"is_disabled":false,"rental_uris":{"android":"levelo://app?vid=9abf1fb8-c524-49cf-97ef-a5373ae2f7a2","ios":"levelo://app?vid=9abf1fb8-c524-49cf-97ef-a5373ae2f7a2"},"vehicle_type_id":"4","last_reported":1745676504,"current_range_meters":10800,"station_id":"","pricing_plan_id":"cebpf4jnsgd1na2vs0mg"},{"bike_id":"98be616a-8001-4346-8b5d-ced57f6d1136","system_id":"levelo_inurba_marseille","lat":43.27377,"lon":5.36248,"is_reserved":false,"is_disabled":false,"rental_uris":{"android":"levelo://app?vid=98be616a-8001-4346-8b5d-ced57f6d1136","ios":"levelo://app?vid=98be616a-8001-4346-8b5d-ced57f6d1136"},"vehicle_type_id":"4","last_reported":1745676504,"current_range_meters":10800,"station_id":"ce4bhbh2rcd13ifvqeo0","pricing_plan_id":"cebpf4jnsgd1na2vs0mg"},{"bike_id":"a0d26492-24b6-45f4-a3b8-5586683e4fc8","system_id":"levelo_inurba_marseille","lat":43.27381,"lon":5.36268,"is_reserved":false,"is_disabled":false,"rental_uris":{"android":"levelo://app?vid=a0d26492-24b6-45f4-a3b8-5586683e4fc8","ios":"levelo://app?vid=a0d26492-24b6-45f4-a3b8-5586683e4fc8"},"vehicle_type_id":"4","last_reported":1745676504,"current_range_meters":10800,"station_id":"ce4bhbh2rcd13ifvqeo0","pricing_plan_id":"cebpf4jnsgd1na2vs0mg"},{"bike_id":"aabe786e-5d3b-48a6-b765-92302ca4a5ba","system_id":"levelo_inurba_marseille","lat":43.31086,"lon":5.42435,"is_reserved":false,"is_disabled":false,"rental_uris":{"android":"levelo://app?vid=aabe786e-5d3b-48a6-b765-92302ca4a5ba","ios":"levelo://app?vid=aabe786e-5d3b-48a6-b765-92302ca4a5ba"},"vehicle_type_id":"4","last_reported":1745676504,"current_range_meters":10800,"station_id":"ce4bhp92rcd13ifvqhag","pricing_plan_id":"cebpf4jnsgd1na2vs0mg"},{"bike_id":"455d108f-6194-43c0-8fab-5af7fbb08be7","system_id":"levelo_inurba_marseille","lat":43.2175,"lon":5.34605,"is_reserved":false,"is_disabled":false,"rental_uris":{"android":"levelo://app?vid=455d108f-6194-43c0-8fab-5af7fbb08be7","ios":"levelo://app?vid=455d108f-6194-43c0-8fab-5af7fbb08be7"},"vehicle_type_id":"4","last_reported":1745676504,"current_range_meters":11200,"station_id":"","pricing_plan_id":"cebpf4jnsgd1na2vs0mg"},{"bike_id":"7d9669fc-32f8-4d0c-965b-3fa72110d608","system_id":"levelo_inurba_marseille","lat":43.23543,"lon":5.35997,"is_reserved":false,"is_disabled":false,"rental_uris":{"android":"levelo://app?vid=7d9669fc-32f8-4d0c-965b-3fa72110d608","ios":"levelo://app?vid=7d9669fc-32f8-4d0c-965b-3fa72110d608"},"vehicle_type_id":"4","last_reported":1745676504,"current_range_meters":11200,"station_id":"","pricing_plan_id":"cebpf4jnsgd1na2vs0mg"},{"bike_id":"2f42826c-7e27-4f63-92c0-deec73508867","system_id":"levelo_inurba_marseille","lat":43.2737,"lon":5.36254,"is_reserved":false,"is_disabled":false,"rental_uris":{"android":"levelo://app?vid=2f42826c-7e27-4f63-92c0-deec73508867","ios":"levelo://app?vid=2f42826c-7e27-4f63-92c0-deec73508867"},"vehicle_type_id":"4","last_reported":1745676504,"current_range_meters":11200,"station_id":"ce4bhbh2rcd13ifvqeo0","pricing_plan_id":"cebpf4jnsgd1na2vs0mg"},{"bike_id":"5f37885f-3ef0-4cdc-82a4-6e3163e69e3f","system_id":"levelo_inurba_marseille","lat":43.30151,"lon":5.38085,"is_reserved":false,"is_disabled":false,"rental_uris":{"android":"levelo://app?vid=5f37885f-3ef0-4cdc-82a4-6e3163e69e3f","ios":"levelo://app?vid=5f37885f-3ef0-4cdc-82a4-6e3163e69e3f"},"vehicle_type_id":"4","last_reported":1745676504,"current_range_meters":11200,"station_id":"ce4bgjp2rcd13ifvqbh0","pricing_plan_id":"cebpf4jnsgd1na2vs0mg"},{"bike_id":"9bd17f48-8717-4ae1-af17-62eddee50aaf","system_id":"levelo_inurba_marseille","lat":43.23154,"lon":5.43705,"is_reserved":false,"is_disabled":false,"rental_uris":{"android":"levelo://app?vid=9bd17f48-8717-4ae1-af17-62eddee50aaf","ios":"levelo://app?vid=9bd17f48-8717-4ae1-af17-62eddee50aaf"},"vehicle_type_id":"4","last_reported":1745676504,"current_range_meters":10800,"station_id":"ce4bhmp2rcd13ifvqgog","pricing_plan_id":"cebpf4jnsgd1na2vs0mg"},{"bike_id":"b49cfbd8-15ef-4005-8a00-8a6d349e6176","system_id":"levelo_inurba_marseille","lat":43.24173,"lon":5.36397,"is_reserved":false,"is_disabled":false,"rental_uris":{"android":"levelo://app?vid=b49cfbd8-15ef-4005-8a00-8a6d349e6176","ios":"levelo://app?vid=b49cfbd8-15ef-4005-8a00-8a6d349e6176"},"vehicle_type_id":"4","last_reported":1745676504,"current_range_meters":11200,"station_id":"cpo36qri1sfpv3e86is0","pricing_plan_id":"cebpf4jnsgd1na2vs0mg"},{"bike_id":"ef7cf634-7de5-49c0-af87-b39d2aa8c3bc","system_id":"levelo_inurba_marseille","lat":43.28723,"lon":5.37932,"is_reserved":false,"is_disabled":false,"rental_uris":{"android":"levelo://app?vid=ef7cf634-7de5-49c0-af87-b39d2aa8c3bc","ios":"levelo://app?vid=ef7cf634-7de5-49c0-af87-b39d2aa8c3bc"},"vehicle_type_id":"4","last_reported":1745676504,"current_range_meters":10800,"station_id":"ce4bh9p2rcd13ifvqec0","pricing_plan_id":"cebpf4jnsgd1na2vs0mg"},{"bike_id":"55d037e0-f599-41f1-8c1a-5221188fc9ca","system_id":"levelo_inurba_marseille","lat":43.26043,"lon":5.37544,"is_reserved":false,"is_disabled":false,"rental_uris":{"android":"levelo://app?vid=55d037e0-f599-41f1-8c1a-5221188fc9ca","ios":"levelo://app?vid=55d037e0-f599-41f1-8c1a-5221188fc9ca"},"vehicle_type_id":"4","last_reported":1745676504,"current_range_meters":11600,"station_id":"ce4bhgh2rcd13ifvqfa0","pricing_plan_id":"cebpf4jnsgd1na2vs0mg"},{"bike_id":"aa7dd23a-c50c-4359-a4fa-3d29c4576751","system_id":"levelo_inurba_marseille","lat":43.24136,"lon":5.36406,"is_reserved":false,"is_disabled":false,"rental_uris":{"android":"levelo://app?vid=aa7dd23a-c50c-4359-a4fa-3d29c4576751","ios":"levelo://app?vid=aa7dd23a-c50c-4359-a4fa-3d29c4576751"},"vehicle_type_id":"4","last_reported":1745676504,"current_range_meters":11600,"station_id":"cpo36qri1sfpv3e86is0","pricing_plan_id":"cebpf4jnsgd1na2vs0mg"},{"bike_id":"2de48fac-0eb5-4d74-a130-eb6fe60b2ca2","system_id":"levelo_inurba_marseille","lat":43.29281,"lon":5.36836,"is_reserved":false,"is_disabled":false,"rental_uris":{"android":"levelo://app?vid=2de48fac-0eb5-4d74-a130-eb6fe60b2ca2","ios":"levelo://app?vid=2de48fac-0eb5-4d74-a130-eb6fe60b2ca2"},"vehicle_type_id":"4","last_reported":1745676504,"current_range_meters":11600,"station_id":"","pricing_plan_id":"cebpf4jnsgd1na2vs0mg"},{"bike_id":"f8fe13e6-7371-4bb9-b1f3-922290d25153","system_id":"levelo_inurba_marseille","lat":43.26558,"lon":5.37287,"is_reserved":false,"is_disabled":false,"rental_uris":{"android":"levelo://app?vid=f8fe13e6-7371-4bb9-b1f3-922290d25153","ios":"levelo://app?vid=f8fe13e6-7371-4bb9-b1f3-922290d25153"},"vehicle_type_id":"4","last_reported":1745676504,"current_range_meters":11600,"station_id":"ce4bhg12rcd13ifvqf70","pricing_plan_id":"cebpf4jnsgd1na2vs0mg"},{"bike_id":"ff30c89e-3c20-4ca9-949a-16a35f54d89c","system_id":"levelo_inurba_marseille","lat":43.30934,"lon":5.40137,"is_reserved":false,"is_disabled":false,"rental_uris":{"android":"levelo://app?vid=ff30c89e-3c20-4ca9-949a-16a35f54d89c","ios":"levelo://app?vid=ff30c89e-3c20-4ca9-949a-16a35f54d89c"},"vehicle_type_id":"4","last_reported":1745676504,"current_range_meters":11200,"station_id":"ce4bgvp2rcd13ifvqct0","pricing_plan_id":"cebpf4jnsgd1na2vs0mg"},{"bike_id":"a52e318d-8c25-4d0c-9310-8a872167d474","system_id":"levelo_inurba_marseille","lat":43.23154,"lon":5.43706,"is_reserved":false,"is_disabled":false,"rental_uris":{"android":"levelo://app?vid=a52e318d-8c25-4d0c-9310-8a872167d474","ios":"levelo://app?vid=a52e318d-8c25-4d0c-9310-8a872167d474"},"vehicle_type_id":"4","last_reported":1745676504,"current_range_meters":12000,"station_id":"ce4bhmp2rcd13ifvqgog","pricing_plan_id":"cebpf4jnsgd1na2vs0mg"},{"bike_id":"1b536215-16c0-4a60-8bc7-2668c700ab71","system_id":"levelo_inurba_marseille","lat":43.29565,"lon":5.37525,"is_reserved":false,"is_disabled":false,"rental_uris":{"android":"levelo://app?vid=1b536215-16c0-4a60-8bc7-2668c700ab71","ios":"levelo://app?vid=1b536215-16c0-4a60-8bc7-2668c700ab71"},"vehicle_type_id":"4","last_reported":1745676504,"current_range_meters":12000,"station_id":"ce4bgh92rcd13ifvqb50","pricing_plan_id":"cebpf4jnsgd1na2vs0mg"},{"bike_id":"8f7a9956-29ef-41e9-b260-180782ade1dd","system_id":"levelo_inurba_marseille","lat":43.26202,"lon":5.37929,"is_reserved":false,"is_disabled":false,"rental_uris":{"android":"levelo://app?vid=8f7a9956-29ef-41e9-b260-180782ade1dd","ios":"levelo://app?vid=8f7a9956-29ef-41e9-b260-180782ade1dd"},"vehicle_type_id":"4","last_reported":1745676504,"current_range_meters":12000,"station_id":"ce4bhjp2rcd13ifvqg90","pricing_plan_id":"cebpf4jnsgd1na2vs0mg"},{"bike_id":"2e889203-7e4f-492f-834f-e68b55d91a15","system_id":"levelo_inurba_marseille","lat":43.30308,"lon":5.36907,"is_reserved":false,"is_disabled":false,"rental_uris":{"android":"levelo://app?vid=2e889203-7e4f-492f-834f-e68b55d91a15","ios":"levelo://app?vid=2e889203-7e4f-492f-834f-e68b55d91a15"},"vehicle_type_id":"4","last_reported":1745676504,"current_range_meters":12000,"station_id":"ce4bgqh2rcd13ifvqc5g","pricing_plan_id":"cebpf4jnsgd1na2vs0mg"},{"bike_id":"eeddeb32-86f8-41cf-a7eb-3fd42f84a75d","system_id":"levelo_inurba_marseille","lat":43.26028,"lon":5.41739,"is_reserved":false,"is_disabled":false,"rental_uris":{"android":"levelo://app?vid=eeddeb32-86f8-41cf-a7eb-3fd42f84a75d","ios":"levelo://app?vid=eeddeb32-86f8-41cf-a7eb-3fd42f84a75d"},"vehicle_type_id":"4","last_reported":1745676504,"current_range_meters":12000,"station_id":"","pricing_plan_id":"cebpf4jnsgd1na2vs0mg"},{"bike_id":"580b0bb9-eb16-44a7-9cea-414619ffa2fd","system_id":"levelo_inurba_marseille","lat":43.29536,"lon":5.38545,"is_reserved":false,"is_disabled":false,"rental_uris":{"android":"levelo://app?vid=580b0bb9-eb16-44a7-9cea-414619ffa2fd","ios":"levelo://app?vid=580b0bb9-eb16-44a7-9cea-414619ffa2fd"},"vehicle_type_id":"4","last_reported":1745676504,"current_range_meters":12000,"station_id":"ce4bgih2rcd13ifvqba0","pricing_plan_id":"cebpf4jnsgd1na2vs0mg"},{"bike_id":"47acb8a1-0d21-491a-9e35-f98da8871715","system_id":"levelo_inurba_marseille","lat":43.2553,"lon":5.37551,"is_reserved":false,"is_disabled":false,"rental_uris":{"android":"levelo://app?vid=47acb8a1-0d21-491a-9e35-f98da8871715","ios":"levelo://app?vid=47acb8a1-0d21-491a-9e35-f98da8871715"},"vehicle_type_id":"4","last_reported":1745676504,"current_range_meters":12000,"station_id":"","pricing_plan_id":"cebpf4jnsgd1na2vs0mg"},{"bike_id":"3f8e74df-4b8a-4fe8-9f20-4fbe47605119","system_id":"levelo_inurba_marseille","lat":43.29033,"lon":5.37549,"is_reserved":false,"is_disabled":true,"rental_uris":{"android":"levelo://app?vid=3f8e74df-4b8a-4fe8-9f20-4fbe47605119","ios":"levelo://app?vid=3f8e74df-4b8a-4fe8-9f20-4fbe47605119"},"vehicle_type_id":"4","last_reported":1745676504,"current_range_meters":12400,"station_id":"ce4bh692rcd13ifvqe90","pricing_plan_id":"cebpf4jnsgd1na2vs0mg"},{"bike_id":"e6dd51ac-2075-47cd-ad99-bcf7ffe96cb9","system_id":"levelo_inurba_marseille","lat":43.22496,"lon":5.34784,"is_reserved":false,"is_disabled":false,"rental_uris":{"android":"levelo://app?vid=e6dd51ac-2075-47cd-ad99-bcf7ffe96cb9","ios":"levelo://app?vid=e6dd51ac-2075-47cd-ad99-bcf7ffe96cb9"},"vehicle_type_id":"4","last_reported":1745676504,"current_range_meters":12400,"station_id":"st_cvj5dfep6f1abm77gieg","pricing_plan_id":"cebpf4jnsgd1na2vs0mg"},{"bike_id":"a76e49be-e212-440b-a7d8-d9f22a87e576","system_id":"levelo_inurba_marseille","lat":43.25584,"lon":5.38229,"is_reserved":false,"is_disabled":false,"rental_uris":{"android":"levelo://app?vid=a76e49be-e212-440b-a7d8-d9f22a87e576","ios":"levelo://app?vid=a76e49be-e212-440b-a7d8-d9f22a87e576"},"vehicle_type_id":"4","last_reported":1745676504,"current_range_meters":12400,"station_id":"ce4bhih2rcd13ifvqfs0","pricing_plan_id":"cebpf4jnsgd1na2vs0mg"},{"bike_id":"ee696d87-e7d6-4c39-91b8-dd13e5f590f1","system_id":"levelo_inurba_marseille","lat":43.29659,"lon":5.37929,"is_reserved":false,"is_disabled":false,"rental_uris":{"android":"levelo://app?vid=ee696d87-e7d6-4c39-91b8-dd13e5f590f1","ios":"levelo://app?vid=ee696d87-e7d6-4c39-91b8-dd13e5f590f1"},"vehicle_type_id":"4","last_reported":1745676504,"current_range_meters":12800,"station_id":"","pricing_plan_id":"cebpf4jnsgd1na2vs0mg"},{"bike_id":"74afea14-d247-4e4a-b5b8-599dfeb25aa9","system_id":"levelo_inurba_marseille","lat":43.25728,"lon":5.41105,"is_reserved":false,"is_disabled":false,"rental_uris":{"android":"levelo://app?vid=74afea14-d247-4e4a-b5b8-599dfeb25aa9","ios":"levelo://app?vid=74afea14-d247-4e4a-b5b8-599dfeb25aa9"},"vehicle_type_id":"4","last_reported":1745676504,"current_range_meters":12400,"station_id":"ce4bhkp2rcd13ifvqgd0","pricing_plan_id":"cebpf4jnsgd1na2vs0mg"},{"bike_id":"b5e7946e-ce6e-435d-a1bb-13192d6f5ce3","system_id":"levelo_inurba_marseille","lat":43.29631,"lon":5.40606,"is_reserved":false,"is_disabled":false,"rental_uris":{"android":"levelo://app?vid=b5e7946e-ce6e-435d-a1bb-13192d6f5ce3","ios":"levelo://app?vid=b5e7946e-ce6e-435d-a1bb-13192d6f5ce3"},"vehicle_type_id":"4","last_reported":1745676504,"current_range_meters":13600,"station_id":"ce4bh0h2rcd13ifvqd60","pricing_plan_id":"cebpf4jnsgd1na2vs0mg"},{"bike_id":"e7e4e2cf-af87-4d16-af4e-71a2d021ac9d","system_id":"levelo_inurba_marseille","lat":43.29542,"lon":5.38543,"is_reserved":false,"is_disabled":false,"rental_uris":{"android":"levelo://app?vid=e7e4e2cf-af87-4d16-af4e-71a2d021ac9d","ios":"levelo://app?vid=e7e4e2cf-af87-4d16-af4e-71a2d021ac9d"},"vehicle_type_id":"4","last_reported":1745676504,"current_range_meters":12800,"station_id":"ce4bgih2rcd13ifvqba0","pricing_plan_id":"cebpf4jnsgd1na2vs0mg"},{"bike_id":"6f199218-cd14-449e-8c54-d8f33f49d7dc","system_id":"levelo_inurba_marseille","lat":43.30957,"lon":5.39045,"is_reserved":false,"is_disabled":false,"rental_uris":{"android":"levelo://app?vid=6f199218-cd14-449e-8c54-d8f33f49d7dc","ios":"levelo://app?vid=6f199218-cd14-449e-8c54-d8f33f49d7dc"},"vehicle_type_id":"4","last_reported":1745676504,"current_range_meters":13600,"station_id":"ce4bgup2rcd13ifvqco0","pricing_plan_id":"cebpf4jnsgd1na2vs0mg"},{"bike_id":"b8dcb70c-5a7c-4f08-ad99-819d51757834","system_id":"levelo_inurba_marseille","lat":43.31226,"lon":5.36859,"is_reserved":false,"is_disabled":false,"rental_uris":{"android":"levelo://app?vid=b8dcb70c-5a7c-4f08-ad99-819d51757834","ios":"levelo://app?vid=b8dcb70c-5a7c-4f08-ad99-819d51757834"},"vehicle_type_id":"4","last_reported":1745676504,"current_range_meters":13600,"station_id":"ce4bgl92rcd13ifvqbq0","pricing_plan_id":"cebpf4jnsgd1na2vs0mg"},{"bike_id":"fa6fab4e-176d-4c12-bc21-a4b6dd2d5807","system_id":"levelo_inurba_marseille","lat":43.30795,"lon":5.3816,"is_reserved":false,"is_disabled":false,"rental_uris":{"android":"levelo://app?vid=fa6fab4e-176d-4c12-bc21-a4b6dd2d5807","ios":"levelo://app?vid=fa6fab4e-176d-4c12-bc21-a4b6dd2d5807"},"vehicle_type_id":"4","last_reported":1745676504,"current_range_meters":13600,"station_id":"ce4bgt12rcd13ifvqce0","pricing_plan_id":"cebpf4jnsgd1na2vs0mg"},{"bike_id":"ae376b6f-f74b-4712-b546-f4ec2e411a84","system_id":"levelo_inurba_marseille","lat":43.30099,"lon":5.39064,"is_reserved":false,"is_disabled":false,"rental_uris":{"android":"levelo://app?vid=ae376b6f-f74b-4712-b546-f4ec2e411a84","ios":"levelo://app?vid=ae376b6f-f74b-4712-b546-f4ec2e411a84"},"vehicle_type_id":"4","last_reported":1745676504,"current_range_meters":14000,"station_id":"ce4bh192rcd13ifvqdb0","pricing_plan_id":"cebpf4jnsgd1na2vs0mg"},{"bike_id":"7f6a5230-d17c-4d5f-9ace-c7229d3f727f","system_id":"levelo_inurba_marseille","lat":43.29852,"lon":5.36286,"is_reserved":false,"is_disabled":false,"rental_uris":{"android":"levelo://app?vid=7f6a5230-d17c-4d5f-9ace-c7229d3f727f","ios":"levelo://app?vid=7f6a5230-d17c-4d5f-9ace-c7229d3f727f"},"vehicle_type_id":"4","last_reported":1745676504,"current_range_meters":13600,"station_id":"ce4bgpp2rcd13ifvqc3g","pricing_plan_id":"cebpf4jnsgd1na2vs0mg"},{"bike_id":"39926d7b-8a7d-456d-bde6-a6f35183b808","system_id":"levelo_inurba_marseille","lat":43.30487,"lon":5.37899,"is_reserved":false,"is_disabled":false,"rental_uris":{"android":"levelo://app?vid=39926d7b-8a7d-456d-bde6-a6f35183b808","ios":"levelo://app?vid=39926d7b-8a7d-456d-bde6-a6f35183b808"},"vehicle_type_id":"4","last_reported":1745676504,"current_range_meters":14000,"station_id":"ce4bgup2rcd13ifvqcn0","pricing_plan_id":"cebpf4jnsgd1na2vs0mg"},{"bike_id":"a00fab57-35a8-4075-9768-1cc376bc9a52","system_id":"levelo_inurba_marseille","lat":43.31244,"lon":5.36823,"is_reserved":false,"is_disabled":false,"rental_uris":{"android":"levelo://app?vid=a00fab57-35a8-4075-9768-1cc376bc9a52","ios":"levelo://app?vid=a00fab57-35a8-4075-9768-1cc376bc9a52"},"vehicle_type_id":"4","last_reported":1745676504,"current_range_meters":14000,"station_id":"ce4bgl92rcd13ifvqbq0","pricing_plan_id":"cebpf4jnsgd1na2vs0mg"},{"bike_id":"736ee7d5-708e-48bd-8281-35bb85d0bc7d","system_id":"levelo_inurba_marseille","lat":43.28994,"lon":5.35612,"is_reserved":false,"is_disabled":true,"rental_uris":{"android":"levelo://app?vid=736ee7d5-708e-48bd-8281-35bb85d0bc7d","ios":"levelo://app?vid=736ee7d5-708e-48bd-8281-35bb85d0bc7d"},"vehicle_type_id":"4","last_reported":1745676504,"current_range_meters":14000,"station_id":"ce4bhb92rcd13ifvqen0","pricing_plan_id":"cebpf4jnsgd1na2vs0mg"},{"bike_id":"86082c5a-74ec-45ee-9bbd-681fdfc8da73","system_id":"levelo_inurba_marseille","lat":43.23966,"lon":5.36623,"is_reserved":false,"is_disabled":false,"rental_uris":{"android":"levelo://app?vid=86082c5a-74ec-45ee-9bbd-681fdfc8da73","ios":"levelo://app?vid=86082c5a-74ec-45ee-9bbd-681fdfc8da73"},"vehicle_type_id":"4","last_reported":1745676504,"current_range_meters":14400,"station_id":"ce4bhi12rcd13ifvqfp0","pricing_plan_id":"cebpf4jnsgd1na2vs0mg"},{"bike_id":"4046a82f-66e8-4b55-bd0a-356edea772d8","system_id":"levelo_inurba_marseille","lat":43.30883,"lon":5.36939,"is_reserved":false,"is_disabled":false,"rental_uris":{"android":"levelo://app?vid=4046a82f-66e8-4b55-bd0a-356edea772d8","ios":"levelo://app?vid=4046a82f-66e8-4b55-bd0a-356edea772d8"},"vehicle_type_id":"4","last_reported":1745676504,"current_range_meters":14400,"station_id":"","pricing_plan_id":"cebpf4jnsgd1na2vs0mg"},{"bike_id":"ad1dd68c-20a8-4cb1-ba41-f86fa7298de1","system_id":"levelo_inurba_marseille","lat":43.30812,"lon":5.4352,"is_reserved":false,"is_disabled":false,"rental_uris":{"android":"levelo://app?vid=ad1dd68c-20a8-4cb1-ba41-f86fa7298de1","ios":"levelo://app?vid=ad1dd68c-20a8-4cb1-ba41-f86fa7298de1"},"vehicle_type_id":"4","last_reported":1745676504,"current_range_meters":14400,"station_id":"ce4bhph2rcd13ifvqheg","pricing_plan_id":"cebpf4jnsgd1na2vs0mg"},{"bike_id":"f3df67f0-c1ba-4f02-83fa-66c06e8bfb17","system_id":"levelo_inurba_marseille","lat":43.29978,"lon":5.37176,"is_reserved":false,"is_disabled":false,"rental_uris":{"android":"levelo://app?vid=f3df67f0-c1ba-4f02-83fa-66c06e8bfb17","ios":"levelo://app?vid=f3df67f0-c1ba-4f02-83fa-66c06e8bfb17"},"vehicle_type_id":"4","last_reported":1745676504,"current_range_meters":14800,"station_id":"ce4bgr92rcd13ifvqc7g","pricing_plan_id":"cebpf4jnsgd1na2vs0mg"},{"bike_id":"6c5dbaa5-239a-499b-bb6c-63f507c339d5","system_id":"levelo_inurba_marseille","lat":43.300983,"lon":5.390722,"is_reserved":false,"is_disabled":false,"rental_uris":{"android":"levelo://app?vid=6c5dbaa5-239a-499b-bb6c-63f507c339d5","ios":"levelo://app?vid=6c5dbaa5-239a-499b-bb6c-63f507c339d5"},"vehicle_type_id":"4","last_reported":1745676504,"current_range_meters":14400,"station_id":"ce4bh192rcd13ifvqdb0","pricing_plan_id":"cebpf4jnsgd1na2vs0mg"},{"bike_id":"e105c5a9-42a4-40ec-8bf6-055281c95418","system_id":"levelo_inurba_marseille","lat":43.31534,"lon":5.38038,"is_reserved":false,"is_disabled":false,"rental_uris":{"android":"levelo://app?vid=e105c5a9-42a4-40ec-8bf6-055281c95418","ios":"levelo://app?vid=e105c5a9-42a4-40ec-8bf6-055281c95418"},"vehicle_type_id":"4","last_reported":1745676504,"current_range_meters":14800,"station_id":"ce4bhsp2rcd13ifvqi50","pricing_plan_id":"cebpf4jnsgd1na2vs0mg"},{"bike_id":"3ee52dd6-ee76-4da1-bbf0-da3ef76cb155","system_id":"levelo_inurba_marseille","lat":43.34662,"lon":5.34728,"is_reserved":false,"is_disabled":false,"rental_uris":{"android":"levelo://app?vid=3ee52dd6-ee76-4da1-bbf0-da3ef76cb155","ios":"levelo://app?vid=3ee52dd6-ee76-4da1-bbf0-da3ef76cb155"},"vehicle_type_id":"4","last_reported":1745676504,"current_range_meters":14800,"station_id":"","pricing_plan_id":"cebpf4jnsgd1na2vs0mg"},{"bike_id":"dd2b0175-bc43-4ae6-af99-ba1ee595f6c6","system_id":"levelo_inurba_marseille","lat":43.30138,"lon":5.38778,"is_reserved":false,"is_disabled":false,"rental_uris":{"android":"levelo://app?vid=dd2b0175-bc43-4ae6-af99-ba1ee595f6c6","ios":"levelo://app?vid=dd2b0175-bc43-4ae6-af99-ba1ee595f6c6"},"vehicle_type_id":"4","last_reported":1745676504,"current_range_meters":14800,"station_id":"ce4bghh2rcd13ifvqb60","pricing_plan_id":"cebpf4jnsgd1na2vs0mg"},{"bike_id":"344f06de-dd8b-4591-a65a-a381a43f2707","system_id":"levelo_inurba_marseille","lat":43.30533,"lon":5.3842,"is_reserved":false,"is_disabled":false,"rental_uris":{"android":"levelo://app?vid=344f06de-dd8b-4591-a65a-a381a43f2707","ios":"levelo://app?vid=344f06de-dd8b-4591-a65a-a381a43f2707"},"vehicle_type_id":"4","last_reported":1745676504,"current_range_meters":14800,"station_id":"ce4bgg92rcd13ifvqb30","pricing_plan_id":"cebpf4jnsgd1na2vs0mg"},{"bike_id":"53aa8ed7-a097-40e0-919f-1edb65289eb8","system_id":"levelo_inurba_marseille","lat":43.29631,"lon":5.37737,"is_reserved":false,"is_disabled":false,"rental_uris":{"android":"levelo://app?vid=53aa8ed7-a097-40e0-919f-1edb65289eb8","ios":"levelo://app?vid=53aa8ed7-a097-40e0-919f-1edb65289eb8"},"vehicle_type_id":"4","last_reported":1745676504,"current_range_meters":15200,"station_id":"ce4bgi92rcd13ifvqb90","pricing_plan_id":"cebpf4jnsgd1na2vs0mg"},{"bike_id":"bccdf68b-1b29-4db5-a279-250c01936af9","system_id":"levelo_inurba_marseille","lat":43.2119,"lon":5.35071,"is_reserved":false,"is_disabled":false,"rental_uris":{"android":"levelo://app?vid=bccdf68b-1b29-4db5-a279-250c01936af9","ios":"levelo://app?vid=bccdf68b-1b29-4db5-a279-250c01936af9"},"vehicle_type_id":"4","last_reported":1745676504,"current_range_meters":15200,"station_id":"st_cvj6sg6p6f1abm77japg","pricing_plan_id":"cebpf4jnsgd1na2vs0mg"},{"bike_id":"995b3c75-842a-4f35-a681-74bd870769bb","system_id":"levelo_inurba_marseille","lat":43.30556,"lon":5.36545,"is_reserved":false,"is_disabled":false,"rental_uris":{"android":"levelo://app?vid=995b3c75-842a-4f35-a681-74bd870769bb","ios":"levelo://app?vid=995b3c75-842a-4f35-a681-74bd870769bb"},"vehicle_type_id":"4","last_reported":1745676504,"current_range_meters":15200,"station_id":"ce4bgs12rcd13ifvqcag","pricing_plan_id":"cebpf4jnsgd1na2vs0mg"},{"bike_id":"d3c5f68b-2b0b-4f17-8da3-07aff1015494","system_id":"levelo_inurba_marseille","lat":43.26207,"lon":5.37451,"is_reserved":false,"is_disabled":false,"rental_uris":{"android":"levelo://app?vid=d3c5f68b-2b0b-4f17-8da3-07aff1015494","ios":"levelo://app?vid=d3c5f68b-2b0b-4f17-8da3-07aff1015494"},"vehicle_type_id":"4","last_reported":1745676504,"current_range_meters":15200,"station_id":"ce4bhgp2rcd13ifvqfc0","pricing_plan_id":"cebpf4jnsgd1na2vs0mg"},{"bike_id":"e946641e-71dc-46a6-aa5e-a326d6c5d775","system_id":"levelo_inurba_marseille","lat":43.30538,"lon":5.38426,"is_reserved":false,"is_disabled":false,"rental_uris":{"android":"levelo://app?vid=e946641e-71dc-46a6-aa5e-a326d6c5d775","ios":"levelo://app?vid=e946641e-71dc-46a6-aa5e-a326d6c5d775"},"vehicle_type_id":"4","last_reported":1745676504,"current_range_meters":15200,"station_id":"ce4bgg92rcd13ifvqb30","pricing_plan_id":"cebpf4jnsgd1na2vs0mg"},{"bike_id":"4741e6af-20c0-42f4-b950-4d85a1b8cba0","system_id":"levelo_inurba_marseille","lat":43.30852,"lon":5.37906,"is_reserved":false,"is_disabled":false,"rental_uris":{"android":"levelo://app?vid=4741e6af-20c0-42f4-b950-4d85a1b8cba0","ios":"levelo://app?vid=4741e6af-20c0-42f4-b950-4d85a1b8cba0"},"vehicle_type_id":"4","last_reported":1745676504,"current_range_meters":15200,"station_id":"","pricing_plan_id":"cebpf4jnsgd1na2vs0mg"},{"bike_id":"ae869c74-f328-4c2f-a41c-0bbe39c21c5e","system_id":"levelo_inurba_marseille","lat":43.29734,"lon":5.37696,"is_reserved":false,"is_disabled":false,"rental_uris":{"android":"levelo://app?vid=ae869c74-f328-4c2f-a41c-0bbe39c21c5e","ios":"levelo://app?vid=ae869c74-f328-4c2f-a41c-0bbe39c21c5e"},"vehicle_type_id":"4","last_reported":1745676504,"current_range_meters":15200,"station_id":"ce4bgkh2rcd13ifvqbl0","pricing_plan_id":"cebpf4jnsgd1na2vs0mg"},{"bike_id":"7523be81-657d-483a-8f24-f56856eed858","system_id":"levelo_inurba_marseille","lat":43.31486,"lon":5.373,"is_reserved":false,"is_disabled":false,"rental_uris":{"android":"levelo://app?vid=7523be81-657d-483a-8f24-f56856eed858","ios":"levelo://app?vid=7523be81-657d-483a-8f24-f56856eed858"},"vehicle_type_id":"4","last_reported":1745676504,"current_range_meters":14800,"station_id":"ce4bgt12rcd13ifvqcd0","pricing_plan_id":"cebpf4jnsgd1na2vs0mg"},{"bike_id":"a8550640-02d1-4490-89db-a13f06f63abc","system_id":"levelo_inurba_marseille","lat":43.32102,"lon":5.36807,"is_reserved":false,"is_disabled":false,"rental_uris":{"android":"levelo://app?vid=a8550640-02d1-4490-89db-a13f06f63abc","ios":"levelo://app?vid=a8550640-02d1-4490-89db-a13f06f63abc"},"vehicle_type_id":"4","last_reported":1745676504,"current_range_meters":15200,"station_id":"ce4bhrh2rcd13ifvqhug","pricing_plan_id":"cebpf4jnsgd1na2vs0mg"},{"bike_id":"f6fdb4b8-42eb-4a93-9413-7665966d4efe","system_id":"levelo_inurba_marseille","lat":43.29553,"lon":5.42279,"is_reserved":false,"is_disabled":false,"rental_uris":{"android":"levelo://app?vid=f6fdb4b8-42eb-4a93-9413-7665966d4efe","ios":"levelo://app?vid=f6fdb4b8-42eb-4a93-9413-7665966d4efe"},"vehicle_type_id":"4","last_reported":1745676504,"current_range_meters":15200,"station_id":"ce4bhph2rcd13ifvqhdg","pricing_plan_id":"cebpf4jnsgd1na2vs0mg"},{"bike_id":"97ff9560-679a-4b1a-8758-33f4892ad13e","system_id":"levelo_inurba_marseille","lat":43.29534,"lon":5.39396,"is_reserved":false,"is_disabled":false,"rental_uris":{"android":"levelo://app?vid=97ff9560-679a-4b1a-8758-33f4892ad13e","ios":"levelo://app?vid=97ff9560-679a-4b1a-8758-33f4892ad13e"},"vehicle_type_id":"4","last_reported":1745676504,"current_range_meters":16000,"station_id":"","pricing_plan_id":"cebpf4jnsgd1na2vs0mg"},{"bike_id":"25013bb2-80c2-4fab-8300-f567f4995705","system_id":"levelo_inurba_marseille","lat":43.24098,"lon":5.37769,"is_reserved":false,"is_disabled":false,"rental_uris":{"android":"levelo://app?vid=25013bb2-80c2-4fab-8300-f567f4995705","ios":"levelo://app?vid=25013bb2-80c2-4fab-8300-f567f4995705"},"vehicle_type_id":"4","last_reported":1745676504,"current_range_meters":16000,"station_id":"ce4bhnp2rcd13ifvqgvg","pricing_plan_id":"cebpf4jnsgd1na2vs0mg"},{"bike_id":"1c466bd2-9083-4c23-9c84-d3c77fd84431","system_id":"levelo_inurba_marseille","lat":43.28077,"lon":5.39659,"is_reserved":false,"is_disabled":false,"rental_uris":{"android":"levelo://app?vid=1c466bd2-9083-4c23-9c84-d3c77fd84431","ios":"levelo://app?vid=1c466bd2-9083-4c23-9c84-d3c77fd84431"},"vehicle_type_id":"4","last_reported":1745676504,"current_range_meters":16000,"station_id":"ce4bho12rcd13ifvqh2g","pricing_plan_id":"cebpf4jnsgd1na2vs0mg"},{"bike_id":"5c0c5573-9a7e-4751-8b4c-2051e28b2106","system_id":"levelo_inurba_marseille","lat":43.28674,"lon":5.38667,"is_reserved":false,"is_disabled":false,"rental_uris":{"android":"levelo://app?vid=5c0c5573-9a7e-4751-8b4c-2051e28b2106","ios":"levelo://app?vid=5c0c5573-9a7e-4751-8b4c-2051e28b2106"},"vehicle_type_id":"4","last_reported":1745676504,"current_range_meters":16400,"station_id":"ce4bh492rcd13ifvqdug","pricing_plan_id":"cebpf4jnsgd1na2vs0mg"},{"bike_id":"0053b840-de47-4900-98aa-cc8575176b05","system_id":"levelo_inurba_marseille","lat":43.24171,"lon":5.36418,"is_reserved":false,"is_disabled":true,"rental_uris":{"android":"levelo://app?vid=0053b840-de47-4900-98aa-cc8575176b05","ios":"levelo://app?vid=0053b840-de47-4900-98aa-cc8575176b05"},"vehicle_type_id":"4","last_reported":1745676504,"current_range_meters":16400,"station_id":"cpo36qri1sfpv3e86is0","pricing_plan_id":"cebpf4jnsgd1na2vs0mg"},{"bike_id":"f793d3e1-d8db-4812-9c67-ca666357a3ee","system_id":"levelo_inurba_marseille","lat":43.29306,"lon":5.37167,"is_reserved":false,"is_disabled":false,"rental_uris":{"android":"levelo://app?vid=f793d3e1-d8db-4812-9c67-ca666357a3ee","ios":"levelo://app?vid=f793d3e1-d8db-4812-9c67-ca666357a3ee"},"vehicle_type_id":"4","last_reported":1745676504,"current_range_meters":16000,"station_id":"ce4bgh92rcd13ifvqb40","pricing_plan_id":"cebpf4jnsgd1na2vs0mg"},{"bike_id":"356b76a1-af1a-4bef-951e-98e5b057a721","system_id":"levelo_inurba_marseille","lat":43.29256,"lon":5.3844,"is_reserved":false,"is_disabled":true,"rental_uris":{"android":"levelo://app?vid=356b76a1-af1a-4bef-951e-98e5b057a721","ios":"levelo://app?vid=356b76a1-af1a-4bef-951e-98e5b057a721"},"vehicle_type_id":"4","last_reported":1745676504,"current_range_meters":16400,"station_id":"ce4bh692rcd13ifvqea0","pricing_plan_id":"cebpf4jnsgd1na2vs0mg"},{"bike_id":"baa0e27c-31fe-47b7-b446-841944798100","system_id":"levelo_inurba_marseille","lat":43.30582,"lon":5.36532,"is_reserved":false,"is_disabled":false,"rental_uris":{"android":"levelo://app?vid=baa0e27c-31fe-47b7-b446-841944798100","ios":"levelo://app?vid=baa0e27c-31fe-47b7-b446-841944798100"},"vehicle_type_id":"4","last_reported":1745676504,"current_range_meters":16400,"station_id":"ce4bgs12rcd13ifvqcag","pricing_plan_id":"cebpf4jnsgd1na2vs0mg"},{"bike_id":"50c147db-60be-4c88-a5f9-d3b77a033a6f","system_id":"levelo_inurba_marseille","lat":43.240697,"lon":5.377713,"is_reserved":false,"is_disabled":false,"rental_uris":{"android":"levelo://app?vid=50c147db-60be-4c88-a5f9-d3b77a033a6f","ios":"levelo://app?vid=50c147db-60be-4c88-a5f9-d3b77a033a6f"},"vehicle_type_id":"4","last_reported":1745676504,"current_range_meters":16400,"station_id":"ce4bhnp2rcd13ifvqgvg","pricing_plan_id":"cebpf4jnsgd1na2vs0mg"},{"bike_id":"cc182510-2a40-4632-967f-a33153b3fc47","system_id":"levelo_inurba_marseille","lat":43.30465,"lon":5.37892,"is_reserved":false,"is_disabled":false,"rental_uris":{"android":"levelo://app?vid=cc182510-2a40-4632-967f-a33153b3fc47","ios":"levelo://app?vid=cc182510-2a40-4632-967f-a33153b3fc47"},"vehicle_type_id":"4","last_reported":1745676504,"current_range_meters":16800,"station_id":"ce4bgup2rcd13ifvqcn0","pricing_plan_id":"cebpf4jnsgd1na2vs0mg"},{"bike_id":"2e77c5ed-3c44-40a8-80ba-3415bf55b163","system_id":"levelo_inurba_marseille","lat":43.30876,"lon":5.3718,"is_reserved":false,"is_disabled":false,"rental_uris":{"android":"levelo://app?vid=2e77c5ed-3c44-40a8-80ba-3415bf55b163","ios":"levelo://app?vid=2e77c5ed-3c44-40a8-80ba-3415bf55b163"},"vehicle_type_id":"4","last_reported":1745676504,"current_range_meters":16800,"station_id":"ce4bguh2rcd13ifvqckg","pricing_plan_id":"cebpf4jnsgd1na2vs0mg"},{"bike_id":"87226611-7c51-4f9a-b70b-2b3b2a8107d2","system_id":"levelo_inurba_marseille","lat":43.29812,"lon":5.40397,"is_reserved":false,"is_disabled":false,"rental_uris":{"android":"levelo://app?vid=87226611-7c51-4f9a-b70b-2b3b2a8107d2","ios":"levelo://app?vid=87226611-7c51-4f9a-b70b-2b3b2a8107d2"},"vehicle_type_id":"4","last_reported":1745676504,"current_range_meters":16800,"station_id":"ce4bh112rcd13ifvqd90","pricing_plan_id":"cebpf4jnsgd1na2vs0mg"},{"bike_id":"1545c628-78da-40c3-8c9e-23e80abea750","system_id":"levelo_inurba_marseille","lat":43.23151,"lon":5.43716,"is_reserved":false,"is_disabled":false,"rental_uris":{"android":"levelo://app?vid=1545c628-78da-40c3-8c9e-23e80abea750","ios":"levelo://app?vid=1545c628-78da-40c3-8c9e-23e80abea750"},"vehicle_type_id":"4","last_reported":1745676504,"current_range_meters":16800,"station_id":"ce4bhmp2rcd13ifvqgog","pricing_plan_id":"cebpf4jnsgd1na2vs0mg"},{"bike_id":"314a7709-793a-4cd8-a4f0-aa8320fcf0cb","system_id":"levelo_inurba_marseille","lat":43.27518,"lon":5.42461,"is_reserved":false,"is_disabled":false,"rental_uris":{"android":"levelo://app?vid=314a7709-793a-4cd8-a4f0-aa8320fcf0cb","ios":"levelo://app?vid=314a7709-793a-4cd8-a4f0-aa8320fcf0cb"},"vehicle_type_id":"4","last_reported":1745676504,"current_range_meters":16800,"station_id":"ce4bhn92rcd13ifvqgrg","pricing_plan_id":"cebpf4jnsgd1na2vs0mg"},{"bike_id":"328d57a3-2c92-4abd-b90f-99d968bc0df3","system_id":"levelo_inurba_marseille","lat":43.296204,"lon":5.377091,"is_reserved":false,"is_disabled":false,"rental_uris":{"android":"levelo://app?vid=328d57a3-2c92-4abd-b90f-99d968bc0df3","ios":"levelo://app?vid=328d57a3-2c92-4abd-b90f-99d968bc0df3"},"vehicle_type_id":"4","last_reported":1745676504,"current_range_meters":16800,"station_id":"ce4bhgh2rcd13ifvqfb0","pricing_plan_id":"cebpf4jnsgd1na2vs0mg"},{"bike_id":"d0d7e6e2-cfae-4f63-b676-9b779f78a3a8","system_id":"levelo_inurba_marseille","lat":43.22929,"lon":5.35376,"is_reserved":false,"is_disabled":false,"rental_uris":{"android":"levelo://app?vid=d0d7e6e2-cfae-4f63-b676-9b779f78a3a8","ios":"levelo://app?vid=d0d7e6e2-cfae-4f63-b676-9b779f78a3a8"},"vehicle_type_id":"4","last_reported":1745676504,"current_range_meters":16800,"station_id":"cpo3532slgdg3j2ikp40","pricing_plan_id":"cebpf4jnsgd1na2vs0mg"},{"bike_id":"dc13e6c9-493d-46d1-88c6-41b911e80700","system_id":"levelo_inurba_marseille","lat":43.26213,"lon":5.37443,"is_reserved":false,"is_disabled":false,"rental_uris":{"android":"levelo://app?vid=dc13e6c9-493d-46d1-88c6-41b911e80700","ios":"levelo://app?vid=dc13e6c9-493d-46d1-88c6-41b911e80700"},"vehicle_type_id":"4","last_reported":1745676504,"current_range_meters":16800,"station_id":"ce4bhgp2rcd13ifvqfc0","pricing_plan_id":"cebpf4jnsgd1na2vs0mg"},{"bike_id":"134b2252-657f-4971-8023-4d50b879a189","system_id":"levelo_inurba_marseille","lat":43.31498,"lon":5.37318,"is_reserved":false,"is_disabled":false,"rental_uris":{"android":"levelo://app?vid=134b2252-657f-4971-8023-4d50b879a189","ios":"levelo://app?vid=134b2252-657f-4971-8023-4d50b879a189"},"vehicle_type_id":"4","last_reported":1745676504,"current_range_meters":16800,"station_id":"ce4bgt12rcd13ifvqcd0","pricing_plan_id":"cebpf4jnsgd1na2vs0mg"},{"bike_id":"421d6b16-71f6-4ae6-b7fe-f15c91a7c04d","system_id":"levelo_inurba_marseille","lat":43.26121,"lon":5.41462,"is_reserved":false,"is_disabled":false,"rental_uris":{"android":"levelo://app?vid=421d6b16-71f6-4ae6-b7fe-f15c91a7c04d","ios":"levelo://app?vid=421d6b16-71f6-4ae6-b7fe-f15c91a7c04d"},"vehicle_type_id":"4","last_reported":1745676504,"current_range_meters":17200,"station_id":"","pricing_plan_id":"cebpf4jnsgd1na2vs0mg"},{"bike_id":"d82d573c-5f64-4664-b714-12e30f87ce49","system_id":"levelo_inurba_marseille","lat":43.32095,"lon":5.36791,"is_reserved":false,"is_disabled":false,"rental_uris":{"android":"levelo://app?vid=d82d573c-5f64-4664-b714-12e30f87ce49","ios":"levelo://app?vid=d82d573c-5f64-4664-b714-12e30f87ce49"},"vehicle_type_id":"4","last_reported":1745676504,"current_range_meters":17200,"station_id":"ce4bhrh2rcd13ifvqhug","pricing_plan_id":"cebpf4jnsgd1na2vs0mg"},{"bike_id":"9de9d996-1620-4858-b125-d2c76650648e","system_id":"levelo_inurba_marseille","lat":43.26029,"lon":5.37551,"is_reserved":false,"is_disabled":false,"rental_uris":{"android":"levelo://app?vid=9de9d996-1620-4858-b125-d2c76650648e","ios":"levelo://app?vid=9de9d996-1620-4858-b125-d2c76650648e"},"vehicle_type_id":"4","last_reported":1745676504,"current_range_meters":17200,"station_id":"ce4bhgh2rcd13ifvqfa0","pricing_plan_id":"cebpf4jnsgd1na2vs0mg"},{"bike_id":"afd33670-82f7-4c5c-9029-2dc1c34e85e4","system_id":"levelo_inurba_marseille","lat":43.2876,"lon":5.39674,"is_reserved":false,"is_disabled":false,"rental_uris":{"android":"levelo://app?vid=afd33670-82f7-4c5c-9029-2dc1c34e85e4","ios":"levelo://app?vid=afd33670-82f7-4c5c-9029-2dc1c34e85e4"},"vehicle_type_id":"4","last_reported":1745676504,"current_range_meters":17200,"station_id":"","pricing_plan_id":"cebpf4jnsgd1na2vs0mg"},{"bike_id":"086697e6-4b20-4c42-8e6a-7429c031d21c","system_id":"levelo_inurba_marseille","lat":43.23198,"lon":5.35554,"is_reserved":false,"is_disabled":false,"rental_uris":{"android":"levelo://app?vid=086697e6-4b20-4c42-8e6a-7429c031d21c","ios":"levelo://app?vid=086697e6-4b20-4c42-8e6a-7429c031d21c"},"vehicle_type_id":"4","last_reported":1745676504,"current_range_meters":17200,"station_id":"ce4bhu92rcd13ifvqi70","pricing_plan_id":"cebpf4jnsgd1na2vs0mg"},{"bike_id":"948daaa3-339f-4d1e-8cb9-4e9f3ecfec5e","system_id":"levelo_inurba_marseille","lat":43.283539,"lon":5.381048,"is_reserved":false,"is_disabled":false,"rental_uris":{"android":"levelo://app?vid=948daaa3-339f-4d1e-8cb9-4e9f3ecfec5e","ios":"levelo://app?vid=948daaa3-339f-4d1e-8cb9-4e9f3ecfec5e"},"vehicle_type_id":"4","last_reported":1745676504,"current_range_meters":17200,"station_id":"ce4bh412rcd13ifvqdr0","pricing_plan_id":"cebpf4jnsgd1na2vs0mg"},{"bike_id":"3e87fa99-96a8-4313-a00d-78c50e8976bd","system_id":"levelo_inurba_marseille","lat":43.288544,"lon":5.393274,"is_reserved":false,"is_disabled":false,"rental_uris":{"android":"levelo://app?vid=3e87fa99-96a8-4313-a00d-78c50e8976bd","ios":"levelo://app?vid=3e87fa99-96a8-4313-a00d-78c50e8976bd"},"vehicle_type_id":"4","last_reported":1745676504,"current_range_meters":17600,"station_id":"ce4bh2p2rcd13ifvqdi0","pricing_plan_id":"cebpf4jnsgd1na2vs0mg"},{"bike_id":"127900f2-8e5c-4b23-89a9-4d15e4c66919","system_id":"levelo_inurba_marseille","lat":43.23153,"lon":5.43731,"is_reserved":false,"is_disabled":false,"rental_uris":{"android":"levelo://app?vid=127900f2-8e5c-4b23-89a9-4d15e4c66919","ios":"levelo://app?vid=127900f2-8e5c-4b23-89a9-4d15e4c66919"},"vehicle_type_id":"4","last_reported":1745676504,"current_range_meters":17600,"station_id":"ce4bhmp2rcd13ifvqgog","pricing_plan_id":"cebpf4jnsgd1na2vs0mg"},{"bike_id":"a08e6535-7d97-4f82-b424-5e6daf2d2362","system_id":"levelo_inurba_marseille","lat":43.29527,"lon":5.39414,"is_reserved":false,"is_disabled":true,"rental_uris":{"android":"levelo://app?vid=a08e6535-7d97-4f82-b424-5e6daf2d2362","ios":"levelo://app?vid=a08e6535-7d97-4f82-b424-5e6daf2d2362"},"vehicle_type_id":"4","last_reported":1745676504,"current_range_meters":17600,"station_id":"ce4bh292rcd13ifvqdf0","pricing_plan_id":"cebpf4jnsgd1na2vs0mg"},{"bike_id":"cb1ca2b3-2582-4009-8502-a241c2c71d2b","system_id":"levelo_inurba_marseille","lat":43.261646,"lon":5.374627,"is_reserved":false,"is_disabled":false,"rental_uris":{"android":"levelo://app?vid=cb1ca2b3-2582-4009-8502-a241c2c71d2b","ios":"levelo://app?vid=cb1ca2b3-2582-4009-8502-a241c2c71d2b"},"vehicle_type_id":"4","last_reported":1745676504,"current_range_meters":17600,"station_id":"ce4bhhp2rcd13ifvqfm0","pricing_plan_id":"cebpf4jnsgd1na2vs0mg"},{"bike_id":"b0783b24-af8d-4e05-a1f7-e136cb9f27e5","system_id":"levelo_inurba_marseille","lat":43.273702,"lon":5.362494,"is_reserved":false,"is_disabled":false,"rental_uris":{"android":"levelo://app?vid=b0783b24-af8d-4e05-a1f7-e136cb9f27e5","ios":"levelo://app?vid=b0783b24-af8d-4e05-a1f7-e136cb9f27e5"},"vehicle_type_id":"4","last_reported":1745676504,"current_range_meters":19600,"station_id":"ce4bhbh2rcd13ifvqeo0","pricing_plan_id":"cebpf4jnsgd1na2vs0mg"},{"bike_id":"560f12bb-1614-4d7c-b78e-ccf5bdec9ea6","system_id":"levelo_inurba_marseille","lat":43.28461,"lon":5.35894,"is_reserved":false,"is_disabled":true,"rental_uris":{"android":"levelo://app?vid=560f12bb-1614-4d7c-b78e-ccf5bdec9ea6","ios":"levelo://app?vid=560f12bb-1614-4d7c-b78e-ccf5bdec9ea6"},"vehicle_type_id":"4","last_reported":1745676504,"current_range_meters":17600,"station_id":"ce4bhah2rcd13ifvqei0","pricing_plan_id":"cebpf4jnsgd1na2vs0mg"},{"bike_id":"555976a1-23c9-4d8e-ab85-9198360a578a","system_id":"levelo_inurba_marseille","lat":43.29714,"lon":5.3769,"is_reserved":false,"is_disabled":false,"rental_uris":{"android":"levelo://app?vid=555976a1-23c9-4d8e-ab85-9198360a578a","ios":"levelo://app?vid=555976a1-23c9-4d8e-ab85-9198360a578a"},"vehicle_type_id":"4","last_reported":1745676504,"current_range_meters":17600,"station_id":"ce4bgkh2rcd13ifvqbl0","pricing_plan_id":"cebpf4jnsgd1na2vs0mg"},{"bike_id":"dd57d76b-38c3-482b-89ad-c9311eeab034","system_id":"levelo_inurba_marseille","lat":43.26785,"lon":5.39415,"is_reserved":false,"is_disabled":false,"rental_uris":{"android":"levelo://app?vid=dd57d76b-38c3-482b-89ad-c9311eeab034","ios":"levelo://app?vid=dd57d76b-38c3-482b-89ad-c9311eeab034"},"vehicle_type_id":"4","last_reported":1745676504,"current_range_meters":17600,"station_id":"ce4bhh12rcd13ifvqfg0","pricing_plan_id":"cebpf4jnsgd1na2vs0mg"},{"bike_id":"1f00fc0b-22e6-45af-8eab-1d3e2c595290","system_id":"levelo_inurba_marseille","lat":43.28079,"lon":5.39652,"is_reserved":false,"is_disabled":false,"rental_uris":{"android":"levelo://app?vid=1f00fc0b-22e6-45af-8eab-1d3e2c595290","ios":"levelo://app?vid=1f00fc0b-22e6-45af-8eab-1d3e2c595290"},"vehicle_type_id":"4","last_reported":1745676504,"current_range_meters":18000,"station_id":"ce4bho12rcd13ifvqh2g","pricing_plan_id":"cebpf4jnsgd1na2vs0mg"},{"bike_id":"034fb786-dca4-4585-9d75-dc55c197e9d4","system_id":"levelo_inurba_marseille","lat":43.23972,"lon":5.36667,"is_reserved":false,"is_disabled":false,"rental_uris":{"android":"levelo://app?vid=034fb786-dca4-4585-9d75-dc55c197e9d4","ios":"levelo://app?vid=034fb786-dca4-4585-9d75-dc55c197e9d4"},"vehicle_type_id":"4","last_reported":1745676504,"current_range_meters":18000,"station_id":"ce4bhi12rcd13ifvqfp0","pricing_plan_id":"cebpf4jnsgd1na2vs0mg"},{"bike_id":"d37431f5-4150-4498-bd42-817889da7248","system_id":"levelo_inurba_marseille","lat":43.31368,"lon":5.38486,"is_reserved":false,"is_disabled":false,"rental_uris":{"android":"levelo://app?vid=d37431f5-4150-4498-bd42-817889da7248","ios":"levelo://app?vid=d37431f5-4150-4498-bd42-817889da7248"},"vehicle_type_id":"4","last_reported":1745676504,"current_range_meters":18000,"station_id":"ce4bgt92rcd13ifvqcf0","pricing_plan_id":"cebpf4jnsgd1na2vs0mg"},{"bike_id":"6c8b5d87-339a-4545-a8b4-19dfd8f4e2e0","system_id":"levelo_inurba_marseille","lat":43.309361,"lon":5.382279,"is_reserved":false,"is_disabled":false,"rental_uris":{"android":"levelo://app?vid=6c8b5d87-339a-4545-a8b4-19dfd8f4e2e0","ios":"levelo://app?vid=6c8b5d87-339a-4545-a8b4-19dfd8f4e2e0"},"vehicle_type_id":"4","last_reported":1745676504,"current_range_meters":18000,"station_id":"ce4bgt12rcd13ifvqce0","pricing_plan_id":"cebpf4jnsgd1na2vs0mg"},{"bike_id":"e6486816-92b4-4ef0-9445-443e011d5268","system_id":"levelo_inurba_marseille","lat":43.30463,"lon":5.37903,"is_reserved":false,"is_disabled":false,"rental_uris":{"android":"levelo://app?vid=e6486816-92b4-4ef0-9445-443e011d5268","ios":"levelo://app?vid=e6486816-92b4-4ef0-9445-443e011d5268"},"vehicle_type_id":"4","last_reported":1745676504,"current_range_meters":18000,"station_id":"ce4bgup2rcd13ifvqcn0","pricing_plan_id":"cebpf4jnsgd1na2vs0mg"},{"bike_id":"1f84cc73-fbc1-48cd-a813-573f806732aa","system_id":"levelo_inurba_marseille","lat":43.30215,"lon":5.39472,"is_reserved":false,"is_disabled":false,"rental_uris":{"android":"levelo://app?vid=1f84cc73-fbc1-48cd-a813-573f806732aa","ios":"levelo://app?vid=1f84cc73-fbc1-48cd-a813-573f806732aa"},"vehicle_type_id":"4","last_reported":1745676504,"current_range_meters":18800,"station_id":"ce4bh0p2rcd13ifvqd70","pricing_plan_id":"cebpf4jnsgd1na2vs0mg"},{"bike_id":"c1f0cbd5-1980-4c74-b021-caa7b61c0a90","system_id":"levelo_inurba_marseille","lat":43.29232,"lon":5.36082,"is_reserved":false,"is_disabled":false,"rental_uris":{"android":"levelo://app?vid=c1f0cbd5-1980-4c74-b021-caa7b61c0a90","ios":"levelo://app?vid=c1f0cbd5-1980-4c74-b021-caa7b61c0a90"},"vehicle_type_id":"4","last_reported":1745676504,"current_range_meters":18800,"station_id":"ce4bhbh2rcd13ifvqeqg","pricing_plan_id":"cebpf4jnsgd1na2vs0mg"},{"bike_id":"da1f83f9-0ee6-4bbf-a8a9-57e394ccaa55","system_id":"levelo_inurba_marseille","lat":43.28433,"lon":5.39183,"is_reserved":false,"is_disabled":false,"rental_uris":{"android":"levelo://app?vid=da1f83f9-0ee6-4bbf-a8a9-57e394ccaa55","ios":"levelo://app?vid=da1f83f9-0ee6-4bbf-a8a9-57e394ccaa55"},"vehicle_type_id":"4","last_reported":1745676504,"current_range_meters":18800,"station_id":"ce4bhoh2rcd13ifvqh5g","pricing_plan_id":"cebpf4jnsgd1na2vs0mg"},{"bike_id":"7a9d9be5-7769-45f0-8a94-cde80a43cbeb","system_id":"levelo_inurba_marseille","lat":43.30631,"lon":5.40055,"is_reserved":false,"is_disabled":false,"rental_uris":{"android":"levelo://app?vid=7a9d9be5-7769-45f0-8a94-cde80a43cbeb","ios":"levelo://app?vid=7a9d9be5-7769-45f0-8a94-cde80a43cbeb"},"vehicle_type_id":"4","last_reported":1745676504,"current_range_meters":18800,"station_id":"ce4bh112rcd13ifvqda0","pricing_plan_id":"cebpf4jnsgd1na2vs0mg"},{"bike_id":"0954714d-5225-46b6-8895-a427c52e8806","system_id":"levelo_inurba_marseille","lat":43.30462,"lon":5.37903,"is_reserved":false,"is_disabled":false,"rental_uris":{"android":"levelo://app?vid=0954714d-5225-46b6-8895-a427c52e8806","ios":"levelo://app?vid=0954714d-5225-46b6-8895-a427c52e8806"},"vehicle_type_id":"4","last_reported":1745676504,"current_range_meters":18800,"station_id":"ce4bgup2rcd13ifvqcn0","pricing_plan_id":"cebpf4jnsgd1na2vs0mg"},{"bike_id":"9400eaf0-9994-4b35-85ce-22818c9143cc","system_id":"levelo_inurba_marseille","lat":43.2418,"lon":5.3641,"is_reserved":false,"is_disabled":false,"rental_uris":{"android":"levelo://app?vid=9400eaf0-9994-4b35-85ce-22818c9143cc","ios":"levelo://app?vid=9400eaf0-9994-4b35-85ce-22818c9143cc"},"vehicle_type_id":"4","last_reported":1745676504,"current_range_meters":18800,"station_id":"cpo36qri1sfpv3e86is0","pricing_plan_id":"cebpf4jnsgd1na2vs0mg"},{"bike_id":"57ebd52c-bbc8-4a4d-8d80-2da8f6250dbd","system_id":"levelo_inurba_marseille","lat":43.27818,"lon":5.40725,"is_reserved":false,"is_disabled":true,"rental_uris":{"android":"levelo://app?vid=57ebd52c-bbc8-4a4d-8d80-2da8f6250dbd","ios":"levelo://app?vid=57ebd52c-bbc8-4a4d-8d80-2da8f6250dbd"},"vehicle_type_id":"4","last_reported":1745676504,"current_range_meters":18800,"station_id":"ce4bhnh2rcd13ifvqgtg","pricing_plan_id":"cebpf4jnsgd1na2vs0mg"},{"bike_id":"8bcc4440-a141-419c-8178-249064376741","system_id":"levelo_inurba_marseille","lat":43.24811,"lon":5.37456,"is_reserved":false,"is_disabled":false,"rental_uris":{"android":"levelo://app?vid=8bcc4440-a141-419c-8178-249064376741","ios":"levelo://app?vid=8bcc4440-a141-419c-8178-249064376741"},"vehicle_type_id":"4","last_reported":1745676504,"current_range_meters":18800,"station_id":"ce4bhgh2rcd13ifvqfb0","pricing_plan_id":"cebpf4jnsgd1na2vs0mg"},{"bike_id":"6917c20a-9e9e-424e-9e19-ff2c17df722f","system_id":"levelo_inurba_marseille","lat":43.2759,"lon":5.38416,"is_reserved":false,"is_disabled":false,"rental_uris":{"android":"levelo://app?vid=6917c20a-9e9e-424e-9e19-ff2c17df722f","ios":"levelo://app?vid=6917c20a-9e9e-424e-9e19-ff2c17df722f"},"vehicle_type_id":"4","last_reported":1745676504,"current_range_meters":18000,"station_id":"ce4bhh92rcd13ifvqfi0","pricing_plan_id":"cebpf4jnsgd1na2vs0mg"},{"bike_id":"99fba772-da3f-4243-a10a-6678d37977ba","system_id":"levelo_inurba_marseille","lat":43.284082,"lon":5.375103,"is_reserved":false,"is_disabled":false,"rental_uris":{"android":"levelo://app?vid=99fba772-da3f-4243-a10a-6678d37977ba","ios":"levelo://app?vid=99fba772-da3f-4243-a10a-6678d37977ba"},"vehicle_type_id":"4","last_reported":1745676504,"current_range_meters":18800,"station_id":"ce4bh412rcd13ifvqds0","pricing_plan_id":"cebpf4jnsgd1na2vs0mg"},{"bike_id":"5d79860b-862b-4615-8be3-10b552f4fb39","system_id":"levelo_inurba_marseille","lat":43.26217,"lon":5.37444,"is_reserved":false,"is_disabled":false,"rental_uris":{"android":"levelo://app?vid=5d79860b-862b-4615-8be3-10b552f4fb39","ios":"levelo://app?vid=5d79860b-862b-4615-8be3-10b552f4fb39"},"vehicle_type_id":"4","last_reported":1745676504,"current_range_meters":19200,"station_id":"ce4bhgp2rcd13ifvqfc0","pricing_plan_id":"cebpf4jnsgd1na2vs0mg"},{"bike_id":"70cafda6-5d8f-462f-a897-3afb8ea145a1","system_id":"levelo_inurba_marseille","lat":43.28435,"lon":5.39184,"is_reserved":false,"is_disabled":false,"rental_uris":{"android":"levelo://app?vid=70cafda6-5d8f-462f-a897-3afb8ea145a1","ios":"levelo://app?vid=70cafda6-5d8f-462f-a897-3afb8ea145a1"},"vehicle_type_id":"4","last_reported":1745676504,"current_range_meters":19200,"station_id":"ce4bhoh2rcd13ifvqh5g","pricing_plan_id":"cebpf4jnsgd1na2vs0mg"},{"bike_id":"a268bf56-2984-4f4e-9ea7-f3f35ee18eb3","system_id":"levelo_inurba_marseille","lat":43.23145,"lon":5.43707,"is_reserved":false,"is_disabled":false,"rental_uris":{"android":"levelo://app?vid=a268bf56-2984-4f4e-9ea7-f3f35ee18eb3","ios":"levelo://app?vid=a268bf56-2984-4f4e-9ea7-f3f35ee18eb3"},"vehicle_type_id":"4","last_reported":1745676504,"current_range_meters":19200,"station_id":"ce4bhmp2rcd13ifvqgog","pricing_plan_id":"cebpf4jnsgd1na2vs0mg"},