{"last_updated":1756292920,"ttl":60,"version":"2.2","data":{"bikes":[{"bike_id":"314266ff-17eb-4697-bd59-42d62a195052","system_id":"levelo_inurba_marseille","lat":43.28999,"lon":5.35609,"is_reserved":false,"is_disabled":false,"rental_uris":{"android":"levelo://app?vid=314266ff-17eb-4697-bd59-42d62a195052","ios":"levelo://app?vid=314266ff-17eb-4697-bd59-42d62a195052"},"vehicle_type_id":"4","last_reported":1756292920,"current_range_meters":2800,"station_id":"ce4bhb92rcd13ifvqen0","pricing_plan_id":"cebpf4jnsgd1na2vs0mg"},{"bike_id":"e1d3b846-9f7f-4af1-b39f-9388b4940bac","system_id":"levelo_inurba_marseille","lat":43.28937,"lon":5.39621,"is_reserved":false,"is_disabled":false,"rental_uris":{"android":"levelo://app?vid=e1d3b846-9f7f-4af1-b39f-9388b4940bac","ios":"levelo://app?vid=e1d3b846-9f7f-4af1-b39f-9388b4940bac"},"vehicle_type_id":"4","last_reported":1756292920,"current_range_meters":3200,"station_id":"ce4bh3h2rcd13ifvqdn0","pricing_plan_id":"cebpf4jnsgd1na2vs0mg"},{"bike_id":"b7205c11-0333-42ab-a9d5-1f384554885c","system_id":"levelo_inurba_marseille","lat":43.27954,"lon":5.41049,"is_reserved":false,"is_disabled":false,"rental_uris":{"android":"levelo://app?vid=b7205c11-0333-42ab-a9d5-1f384554885c","ios":"levelo://app?vid=b7205c11-0333-42ab-a9d5-1f384554885c"},"vehicle_type_id":"4","last_reported":1756292920,"current_range_meters":3200,"station_id":"ce4bhnp2rcd13ifvqh0g","pricing_plan_id":"cebpf4jnsgd1na2vs0mg"},{"bike_id":"f1aa9282-9b36-4f1f-a8c3-4068b59a4e2b","system_id":"levelo_inurba_marseille","lat":43.2397,"lon":5.36625,"is_reserved":false,"is_disabled":false,"rental_uris":{"android":"levelo://app?vid=f1aa9282-9b36-4f1f-a8c3-4068b59a4e2b","ios":"levelo://app?vid=f1aa9282-9b36-4f1f-a8c3-4068b59a4e2b"},"vehicle_type_id":"4","last_reported":1756292920,"current_range_meters":3600,"station_id":"ce4bhi12rcd13ifvqfp0","pricing_plan_id":"cebpf4jnsgd1na2vs0mg"},{"bike_id":"236f1a17-bd84-4b8e-977f-7df7d8cf402c","system_id":"levelo_inurba_marseille","lat":43.30791,"lon":5.43515,"is_reserved":false,"is_disabled":true,"rental_uris":{"android":"levelo://app?vid=236f1a17-bd84-4b8e-977f-7df7d8cf402c","ios":"levelo://app?vid=236f1a17-bd84-4b8e-977f-7df7d8cf402c"},"vehicle_type_id":"4","last_reported":1756292920,"current_range_meters":3600,"station_id":"ce4bhph2rcd13ifvqheg","pricing_plan_id":"cebpf4jnsgd1na2vs0mg"},{"bike_id":"a8ce67af-948b-44bc-ab0d-bdb98f54e186","system_id":"levelo_inurba_marseille","lat":43.30358,"lon":5.42483,"is_reserved":false,"is_disabled":false,"rental_uris":{"android":"levelo://app?vid=a8ce67af-948b-44bc-ab0d-bdb98f54e186","ios":"levelo://app?vid=a8ce67af-948b-44bc-ab0d-bdb98f54e186"},"vehicle_type_id":"4","last_reported":1756292920,"current_range_meters":3600,"station_id":"ce4bhoh2rcd13ifvqh6g","pricing_plan_id":"cebpf4jnsgd1na2vs0mg"},{"bike_id":"b63423b6-34de-430b-b30f-42c1e8ec62c6","system_id":"levelo_inurba_marseille","lat":43.29289,"lon":5.40122,"is_reserved":false,"is_disabled":false,"rental_uris":{"android":"levelo://app?vid=b63423b6-34de-430b-b30f-42c1e8ec62c6","ios":"levelo://app?vid=b63423b6-34de-430b-b30f-42c1e8ec62c6"},"vehicle_type_id":"4","last_reported":1756292920,"current_range_meters":3600,"station_id":"ce4bh312rcd13ifvqdk0","pricing_plan_id":"cebpf4jnsgd1na2vs0mg"},{"bike_id":"f6bd5b86-eb54-487c-8a4e-3da908b177ef","system_id":"levelo_inurba_marseille","lat":43.29743,"lon":5.37123,"is_reserved":false,"is_disabled":false,"rental_uris":{"android":"levelo://app?vid=f6bd5b86-eb54-487c-8a4e-3da908b177ef","ios":"levelo://app?vid=f6bd5b86-eb54-487c-8a4e-3da908b177ef"},"vehicle_type_id":"4","last_reported":1756292920,"current_range_meters":4000,"station_id":"ce4bgop2rcd13ifvqc1g","pricing_plan_id":"cebpf4jnsgd1na2vs0mg"},{"bike_id":"03be758f-3e6d-4c72-8876-95a4359600d6","system_id":"levelo_inurba_marseille","lat":43.337654,"lon":5.374924,"is_reserved":false,"is_disabled":false,"rental_uris":{"android":"levelo://app?vid=03be758f-3e6d-4c72-8876-95a4359600d6","ios":"levelo://app?vid=03be758f-3e6d-4c72-8876-95a4359600d6"},"vehicle_type_id":"4","last_reported":1756292920,"current_range_meters":4000,"station_id":"","pricing_plan_id":"cebpf4jnsgd1na2vs0mg"},{"bike_id":"3e9c56a6-5f8d-439f-a00f-6543d6b1e862","system_id":"levelo_inurba_marseille","lat":43.30244,"lon":5.40037,"is_reserved":false,"is_disabled":false,"rental_uris":{"android":"levelo://app?vid=3e9c56a6-5f8d-439f-a00f-6543d6b1e862","ios":"levelo://app?vid=3e9c56a6-5f8d-439f-a00f-6543d6b1e862"},"vehicle_type_id":"4","last_reported":1756292920,"current_range_meters":4000,"station_id":"ce4bgvh2rcd13ifvqcs0","pricing_plan_id":"cebpf4jnsgd1na2vs0mg"},{"bike_id":"d42a0b01-be3d-42c4-9e0a-fd6d8c4c094f","system_id":"levelo_inurba_marseille","lat":43.302492,"lon":5.400665,"is_reserved":false,"is_disabled":false,"rental_uris":{"android":"levelo://app?vid=d42a0b01-be3d-42c4-9e0a-fd6d8c4c094f","ios":"levelo://app?vid=d42a0b01-be3d-42c4-9e0a-fd6d8c4c094f"},"vehicle_type_id":"4","last_reported":1756292920,"current_range_meters":4400,"station_id":"ce4bgvh2rcd13ifvqcs0","pricing_plan_id":"cebpf4jnsgd1na2vs0mg"},{"bike_id":"43a14931-dcd0-4ae0-861f-dece37fa7f4d","system_id":"levelo_inurba_marseille","lat":43.3015,"lon":5.39885,"is_reserved":false,"is_disabled":false,"rental_uris":{"android":"levelo://app?vid=43a14931-dcd0-4ae0-861f-dece37fa7f4d","ios":"levelo://app?vid=43a14931-dcd0-4ae0-861f-dece37fa7f4d"},"vehicle_type_id":"4","last_reported":1756292920,"current_range_meters":4800,"station_id":"ce4bh0h2rcd13ifvqd40","pricing_plan_id":"cebpf4jnsgd1na2vs0mg"},{"bike_id":"b46639d3-0e19-46be-a590-754abfdbb7c9","system_id":"levelo_inurba_marseille","lat":43.295337,"lon":5.38546,"is_reserved":false,"is_disabled":true,"rental_uris":{"android":"levelo://app?vid=b46639d3-0e19-46be-a590-754abfdbb7c9","ios":"levelo://app?vid=b46639d3-0e19-46be-a590-754abfdbb7c9"},"vehicle_type_id":"4","last_reported":1756292920,"current_range_meters":5600,"station_id":"ce4bgih2rcd13ifvqba0","pricing_plan_id":"cebpf4jnsgd1na2vs0mg"},{"bike_id":"2f4e8b28-6095-4b3f-ae0a-f9f0c872541a","system_id":"levelo_inurba_marseille","lat":43.29035,"lon":5.37571,"is_reserved":false,"is_disabled":false,"rental_uris":{"android":"levelo://app?vid=2f4e8b28-6095-4b3f-ae0a-f9f0c872541a","ios":"levelo://app?vid=2f4e8b28-6095-4b3f-ae0a-f9f0c872541a"},"vehicle_type_id":"4","last_reported":1756292920,"current_range_meters":6000,"station_id":"ce4bh692rcd13ifvqe90","pricing_plan_id":"cebpf4jnsgd1na2vs0mg"},{"bike_id":"9fdb5c15-e16b-4d0a-a273-c2f8b9791741","system_id":"levelo_inurba_marseille","lat":43.29043,"lon":5.39964,"is_reserved":false,"is_disabled":false,"rental_uris":{"android":"levelo://app?vid=9fdb5c15-e16b-4d0a-a273-c2f8b9791741","ios":"levelo://app?vid=9fdb5c15-e16b-4d0a-a273-c2f8b9791741"},"vehicle_type_id":"4","last_reported":1756292920,"current_range_meters":6000,"station_id":"ce4bh392rcd13ifvqdm0","pricing_plan_id":"cebpf4jnsgd1na2vs0mg"},{"bike_id":"50f08e4a-13d1-464f-85b8-142aeef06773","system_id":"levelo_inurba_marseille","lat":43.28075,"lon":5.39626,"is_reserved":false,"is_disabled":false,"rental_uris":{"android":"levelo://app?vid=50f08e4a-13d1-464f-85b8-142aeef06773","ios":"levelo://app?vid=50f08e4a-13d1-464f-85b8-142aeef06773"},"vehicle_type_id":"4","last_reported":1756292920,"current_range_meters":6000,"station_id":"ce4bho12rcd13ifvqh2g","pricing_plan_id":"cebpf4jnsgd1na2vs0mg"},{"bike_id":"5b8b0ed8-c6b9-44bc-bb31-c9d4b939059b","system_id":"levelo_inurba_marseille","lat":43.29928,"lon":5.36557,"is_reserved":false,"is_disabled":false,"rental_uris":{"android":"levelo://app?vid=5b8b0ed8-c6b9-44bc-bb31-c9d4b939059b","ios":"levelo://app?vid=5b8b0ed8-c6b9-44bc-bb31-c9d4b939059b"},"vehicle_type_id":"4","last_reported":1756292920,"current_range_meters":6400,"station_id":"ce4bgm92rcd13ifvqbr0","pricing_plan_id":"cebpf4jnsgd1na2vs0mg"},{"bike_id":"ee7fb2f4-092a-4426-a336-cbd1b889684c","system_id":"levelo_inurba_marseille","lat":43.295946,"lon":5.381027,"is_reserved":false,"is_disabled":false,"rental_uris":{"android":"levelo://app?vid=ee7fb2f4-092a-4426-a336-cbd1b889684c","ios":"levelo://app?vid=ee7fb2f4-092a-4426-a336-cbd1b889684c"},"vehicle_type_id":"4","last_reported":1756292920,"current_range_meters":6800,"station_id":"ce4bgl12rcd13ifvqbo0","pricing_plan_id":"cebpf4jnsgd1na2vs0mg"},{"bike_id":"9ebbca0f-8b0f-49e0-bbc0-5934ebb0e846","system_id":"levelo_inurba_marseille","lat":43.21185,"lon":5.35077,"is_reserved":false,"is_disabled":false,"rental_uris":{"android":"levelo://app?vid=9ebbca0f-8b0f-49e0-bbc0-5934ebb0e846","ios":"levelo://app?vid=9ebbca0f-8b0f-49e0-bbc0-5934ebb0e846"},"vehicle_type_id":"4","last_reported":1756292920,"current_range_meters":6800,"station_id":"st_cvj6sg6p6f1abm77japg","pricing_plan_id":"cebpf4jnsgd1na2vs0mg"},{"bike_id":"edc4c588-4db1-4b48-bddb-0eba1d72ba9f","system_id":"levelo_inurba_marseille","lat":43.21183,"lon":5.35075,"is_reserved":false,"is_disabled":false,"rental_uris":{"android":"levelo://app?vid=edc4c588-4db1-4b48-bddb-0eba1d72ba9f","ios":"levelo://app?vid=edc4c588-4db1-4b48-bddb-0eba1d72ba9f"},"vehicle_type_id":"4","last_reported":1756292920,"current_range_meters":6800,"station_id":"st_cvj6sg6p6f1abm77japg","pricing_plan_id":"cebpf4jnsgd1na2vs0mg"},{"bike_id":"25c9cae4-61ff-4c7d-8fc8-f7bf27f72b1b","system_id":"levelo_inurba_marseille","lat":43.291359,"lon":5.365442,"is_reserved":false,"is_disabled":true,"rental_uris":{"android":"levelo://app?vid=25c9cae4-61ff-4c7d-8fc8-f7bf27f72b1b","ios":"levelo://app?vid=25c9cae4-61ff-4c7d-8fc8-f7bf27f72b1b"},"vehicle_type_id":"4","last_reported":1756292920,"current_range_meters":6800,"station_id":"ce4bhbp2rcd13ifvqesg","pricing_plan_id":"cebpf4jnsgd1na2vs0mg"},{"bike_id":"e60afc00-cdfb-41f7-bb17-8ce5b46c81bb","system_id":"levelo_inurba_marseille","lat":43.28445,"lon":5.39195,"is_reserved":false,"is_disabled":false,"rental_uris":{"android":"levelo://app?vid=e60afc00-cdfb-41f7-bb17-8ce5b46c81bb","ios":"levelo://app?vid=e60afc00-cdfb-41f7-bb17-8ce5b46c81bb"},"vehicle_type_id":"4","last_reported":1756292920,"current_range_meters":7200,"station_id":"ce4bhoh2rcd13ifvqh5g","pricing_plan_id":"cebpf4jnsgd1na2vs0mg"},{"bike_id":"dd7a27a8-abf7-49e8-8d95-7406ebd8417a","system_id":"levelo_inurba_marseille","lat":43.26938,"lon":5.40259,"is_reserved":false,"is_disabled":false,"rental_uris":{"android":"levelo://app?vid=dd7a27a8-abf7-49e8-8d95-7406ebd8417a","ios":"levelo://app?vid=dd7a27a8-abf7-49e8-8d95-7406ebd8417a"},"vehicle_type_id":"4","last_reported":1756292920,"current_range_meters":6800,"station_id":"cjm6bp8fraef2m0cb0m0","pricing_plan_id":"cebpf4jnsgd1na2vs0mg"},{"bike_id":"2732b203-8d34-41ae-80bd-b4f151d77aad","system_id":"levelo_inurba_marseille","lat":43.30298,"lon":5.40522,"is_reserved":false,"is_disabled":false,"rental_uris":{"android":"levelo://app?vid=2732b203-8d34-41ae-80bd-b4f151d77aad","ios":"levelo://app?vid=2732b203-8d34-41ae-80bd-b4f151d77aad"},"vehicle_type_id":"4","last_reported":1756292920,"current_range_meters":8000,"station_id":"","pricing_plan_id":"cebpf4jnsgd1na2vs0mg"},{"bike_id":"66b7a74b-e6f2-4137-8855-83b32037acd9","system_id":"levelo_inurba_marseille","lat":43.29536,"lon":5.37496,"is_reserved":false,"is_disabled":false,"rental_uris":{"android":"levelo://app?vid=66b7a74b-e6f2-4137-8855-83b32037acd9","ios":"levelo://app?vid=66b7a74b-e6f2-4137-8855-83b32037acd9"},"vehicle_type_id":"4","last_reported":1756292920,"current_range_meters":8400,"station_id":"ce4bgkp2rcd13ifvqbmg","pricing_plan_id":"cebpf4jnsgd1na2vs0mg"},{"bike_id":"0d502687-08ef-4491-8893-8a03d8688be8","system_id":"levelo_inurba_marseille","lat":43.29632,"lon":5.3611,"is_reserved":false,"is_disabled":false,"rental_uris":{"android":"levelo://app?vid=0d502687-08ef-4491-8893-8a03d8688be8","ios":"levelo://app?vid=0d502687-08ef-4491-8893-8a03d8688be8"},"vehicle_type_id":"4","last_reported":1756292920,"current_range_meters":8400,"station_id":"","pricing_plan_id":"cebpf4jnsgd1na2vs0mg"},{"bike_id":"3bb9be74-4a40-4125-85eb-21307bd85c61","system_id":"levelo_inurba_marseille","lat":43.2963,"lon":5.3716,"is_reserved":false,"is_disabled":false,"rental_uris":{"android":"levelo://app?vid=3bb9be74-4a40-4125-85eb-21307bd85c61","ios":"levelo://app?vid=3bb9be74-4a40-4125-85eb-21307bd85c61"},"vehicle_type_id":"4","last_reported":1756292920,"current_range_meters":8800,"station_id":"ce4bgnh2rcd13ifvqc0g","pricing_plan_id":"cebpf4jnsgd1na2vs0mg"},{"bike_id":"69a01144-4cb0-4f43-b8a7-d8bba1210d75","system_id":"levelo_inurba_marseille","lat":43.31578,"lon":5.37395,"is_reserved":false,"is_disabled":false,"rental_uris":{"android":"levelo://app?vid=69a01144-4cb0-4f43-b8a7-d8bba1210d75","ios":"levelo://app?vid=69a01144-4cb0-4f43-b8a7-d8bba1210d75"},"vehicle_type_id":"4","last_reported":1756292920,"current_range_meters":8800,"station_id":"","pricing_plan_id":"cebpf4jnsgd1na2vs0mg"},{"bike_id":"cfd66be3-eb77-4fcb-9808-b084ac439d43","system_id":"levelo_inurba_marseille","lat":43.33767,"lon":5.37454,"is_reserved":false,"is_disabled":false,"rental_uris":{"android":"levelo://app?vid=cfd66be3-eb77-4fcb-9808-b084ac439d43","ios":"levelo://app?vid=cfd66be3-eb77-4fcb-9808-b084ac439d43"},"vehicle_type_id":"4","last_reported":1756292920,"current_range_meters":8800,"station_id":"","pricing_plan_id":"cebpf4jnsgd1na2vs0mg"},{"bike_id":"c7d4482f-13ce-4a4a-b182-42b73304212b","system_id":"levelo_inurba_marseille","lat":43.28152,"lon":5.42642,"is_reserved":false,"is_disabled":false,"rental_uris":{"android":"levelo://app?vid=c7d4482f-13ce-4a4a-b182-42b73304212b","ios":"levelo://app?vid=c7d4482f-13ce-4a4a-b182-42b73304212b"},"vehicle_type_id":"4","last_reported":1756292920,"current_range_meters":9200,"station_id":"ce4bhnh2rcd13ifvqgug","pricing_plan_id":"cebpf4jnsgd1na2vs0mg"},{"bike_id":"fc3a4486-3e3c-46ec-8f6f-f4690c4d0d9b","system_id":"levelo_inurba_marseille","lat":43.2903,"lon":5.39966,"is_reserved":false,"is_disabled":false,"rental_uris":{"android":"levelo://app?vid=fc3a4486-3e3c-46ec-8f6f-f4690c4d0d9b","ios":"levelo://app?vid=fc3a4486-3e3c-46ec-8f6f-f4690c4d0d9b"},"vehicle_type_id":"4","last_reported":1756292920,"current_range_meters":9200,"station_id":"ce4bh392rcd13ifvqdm0","pricing_plan_id":"cebpf4jnsgd1na2vs0mg"},{"bike_id":"3c27b005-25ac-4dc8-b5b3-6196b706529f","system_id":"levelo_inurba_marseille","lat":43.24803,"lon":5.37457,"is_reserved":false,"is_disabled":false,"rental_uris":{"android":"levelo://app?vid=3c27b005-25ac-4dc8-b5b3-6196b706529f","ios":"levelo://app?vid=3c27b005-25ac-4dc8-b5b3-6196b706529f"},"vehicle_type_id":"4","last_reported":1756292920,"current_range_meters":9200,"station_id":"ce4bhgh2rcd13ifvqfb0","pricing_plan_id":"cebpf4jnsgd1na2vs0mg"},{"bike_id":"51842e17-ef10-4624-a23e-c8a182427991","system_id":"levelo_inurba_marseille","lat":43.316098,"lon":5.382122,"is_reserved":false,"is_disabled":false,"rental_uris":{"android":"levelo://app?vid=51842e17-ef10-4624-a23e-c8a182427991","ios":"levelo://app?vid=51842e17-ef10-4624-a23e-c8a182427991"},"vehicle_type_id":"4","last_reported":1756292920,"current_range_meters":9200,"station_id":"","pricing_plan_id":"cebpf4jnsgd1na2vs0mg"},{"bike_id":"aa1f4bbd-2551-4990-babf-fe164318f62b","system_id":"levelo_inurba_marseille","lat":43.2511,"lon":5.40324,"is_reserved":false,"is_disabled":false,"rental_uris":{"android":"levelo://app?vid=aa1f4bbd-2551-4990-babf-fe164318f62b","ios":"levelo://app?vid=aa1f4bbd-2551-4990-babf-fe164318f62b"},"vehicle_type_id":"4","last_reported":1756292920,"current_range_meters":9600,"station_id":"ce4bhlh2rcd13ifvqgig","pricing_plan_id":"cebpf4jnsgd1na2vs0mg"},{"bike_id":"a756ac62-601a-4a65-b168-04bcf168284e","system_id":"levelo_inurba_marseille","lat":43.28461,"lon":5.38412,"is_reserved":false,"is_disabled":false,"rental_uris":{"android":"levelo://app?vid=a756ac62-601a-4a65-b168-04bcf168284e","ios":"levelo://app?vid=a756ac62-601a-4a65-b168-04bcf168284e"},"vehicle_type_id":"4","last_reported":1756292920,"current_range_meters":9600,"station_id":"ce4bh512rcd13ifvqe3g","pricing_plan_id":"cebpf4jnsgd1na2vs0mg"},{"bike_id":"66518a58-9857-48f5-93a2-36f2767e9706","system_id":"levelo_inurba_marseille","lat":43.30139,"lon":5.38782,"is_reserved":false,"is_disabled":false,"rental_uris":{"android":"levelo://app?vid=66518a58-9857-48f5-93a2-36f2767e9706","ios":"levelo://app?vid=66518a58-9857-48f5-93a2-36f2767e9706"},"vehicle_type_id":"4","last_reported":1756292920,"current_range_meters":10000,"station_id":"ce4bghh2rcd13ifvqb60","pricing_plan_id":"cebpf4jnsgd1na2vs0mg"},{"bike_id":"f650c880-0f65-464d-9fab-2781b1b7f074","system_id":"levelo_inurba_marseille","lat":43.27951,"lon":5.41044,"is_reserved":false,"is_disabled":false,"rental_uris":{"android":"levelo://app?vid=f650c880-0f65-464d-9fab-2781b1b7f074","ios":"levelo://app?vid=f650c880-0f65-464d-9fab-2781b1b7f074"},"vehicle_type_id":"4","last_reported":1756292920,"current_range_meters":10000,"station_id":"ce4bhnp2rcd13ifvqh0g","pricing_plan_id":"cebpf4jnsgd1na2vs0mg"},{"bike_id":"6034672e-5719-489f-966d-e36e26a2269b","system_id":"levelo_inurba_marseille","lat":43.21744,"lon":5.34598,"is_reserved":false,"is_disabled":false,"rental_uris":{"android":"levelo://app?vid=6034672e-5719-489f-966d-e36e26a2269b","ios":"levelo://app?vid=6034672e-5719-489f-966d-e36e26a2269b"},"vehicle_type_id":"4","last_reported":1756292920,"current_range_meters":10000,"station_id":"st_cvj6r9ubvosntc0bgbag","pricing_plan_id":"cebpf4jnsgd1na2vs0mg"},{"bike_id":"39002f5b-a23e-4630-90a0-e2481b8443c4","system_id":"levelo_inurba_marseille","lat":43.25006,"lon":5.389113,"is_reserved":false,"is_disabled":true,"rental_uris":{"android":"levelo://app?vid=39002f5b-a23e-4630-90a0-e2481b8443c4","ios":"levelo://app?vid=39002f5b-a23e-4630-90a0-e2481b8443c4"},"vehicle_type_id":"4","last_reported":1756292920,"current_range_meters":10000,"station_id":"","pricing_plan_id":"cebpf4jnsgd1na2vs0mg"},{"bike_id":"219a89b6-3acc-4580-96c0-1e79b05ca4a9","system_id":"levelo_inurba_marseille","lat":43.21185,"lon":5.35075,"is_reserved":false,"is_disabled":false,"rental_uris":{"android":"levelo://app?vid=219a89b6-3acc-4580-96c0-1e79b05ca4a9","ios":"levelo://app?vid=219a89b6-3acc-4580-96c0-1e79b05ca4a9"},"vehicle_type_id":"4","last_reported":1756292920,"current_range_meters":10000,"station_id":"st_cvj6sg6p6f1abm77japg","pricing_plan_id":"cebpf4jnsgd1na2vs0mg"},{"bike_id":"254413ba-ba76-4b5d-8da9-f55a83f4ca59","system_id":"levelo_inurba_marseille","lat":43.32973,"lon":5.39043,"is_reserved":false,"is_disabled":false,"rental_uris":{"android":"levelo://app?vid=254413ba-ba76-4b5d-8da9-f55a83f4ca59","ios":"levelo://app?vid=254413ba-ba76-4b5d-8da9-f55a83f4ca59"},"vehicle_type_id":"4","last_reported":1756292920,"current_range_meters":10800,"station_id":"","pricing_plan_id":"cebpf4jnsgd1na2vs0mg"},{"bike_id":"473bc93c-440d-4fa9-b309-6f5efecfe8a3","system_id":"levelo_inurba_marseille","lat":43.30785,"lon":5.38165,"is_reserved":false,"is_disabled":false,"rental_uris":{"android":"levelo://app?vid=473bc93c-440d-4fa9-b309-6f5efecfe8a3","ios":"levelo://app?vid=473bc93c-440d-4fa9-b309-6f5efecfe8a3"},"vehicle_type_id":"4","last_reported":1756292920,"current_range_meters":10800,"station_id":"ce4bgt12rcd13ifvqce0","pricing_plan_id":"cebpf4jnsgd1na2vs0mg"},{"bike_id":"1027bb83-a668-47de-9094-84302cb909d4","system_id":"levelo_inurba_marseille","lat":43.21196,"lon":5.3507,"is_reserved":false,"is_disabled":false,"rental_uris":{"android":"levelo://app?vid=1027bb83-a668-47de-9094-84302cb909d4","ios":"levelo://app?vid=1027bb83-a668-47de-9094-84302cb909d4"},"vehicle_type_id":"4","last_reported":1756292920,"current_range_meters":10800,"station_id":"st_cvj6sg6p6f1abm77japg","pricing_plan_id":"cebpf4jnsgd1na2vs0mg"},{"bike_id":"c73d9183-822c-4a14-a8c1-53bf72c04baf","system_id":"levelo_inurba_marseille","lat":43.294184,"lon":5.432365,"is_reserved":false,"is_disabled":false,"rental_uris":{"android":"levelo://app?vid=c73d9183-822c-4a14-a8c1-53bf72c04baf","ios":"levelo://app?vid=c73d9183-822c-4a14-a8c1-53bf72c04baf"},"vehicle_type_id":"4","last_reported":1756292920,"current_range_meters":10800,"station_id":"","pricing_plan_id":"cebpf4jnsgd1na2vs0mg"},{"bike_id":"606e1f70-9539-4f0f-9710-cf3fb49379a7","system_id":"levelo_inurba_marseille","lat":43.26027,"lon":5.37549,"is_reserved":false,"is_disabled":false,"rental_uris":{"android":"levelo://app?vid=606e1f70-9539-4f0f-9710-cf3fb49379a7","ios":"levelo://app?vid=606e1f70-9539-4f0f-9710-cf3fb49379a7"},"vehicle_type_id":"4","last_reported":1756292920,"current_range_meters":10800,"station_id":"ce4bhgh2rcd13ifvqfa0","pricing_plan_id":"cebpf4jnsgd1na2vs0mg"},{"bike_id":"6bf766fa-e6a4-4b3b-8676-4ae53a79682b","system_id":"levelo_inurba_marseille","lat":43.3027,"lon":5.37735,"is_reserved":false,"is_disabled":false,"rental_uris":{"android":"levelo://app?vid=6bf766fa-e6a4-4b3b-8676-4ae53a79682b","ios":"levelo://app?vid=6bf766fa-e6a4-4b3b-8676-4ae53a79682b"},"vehicle_type_id":"4","last_reported":1756292920,"current_range_meters":10800,"station_id":"ce4bguh2rcd13ifvqcj0","pricing_plan_id":"cebpf4jnsgd1na2vs0mg"},{"bike_id":"4ad566e2-981c-4232-a327-d50b1d14752d","system_id":"levelo_inurba_marseille","lat":43.31684,"lon":5.40471,"is_reserved":false,"is_disabled":false,"rental_uris":{"android":"levelo://app?vid=4ad566e2-981c-4232-a327-d50b1d14752d","ios":"levelo://app?vid=4ad566e2-981c-4232-a327-d50b1d14752d"},"vehicle_type_id":"4","last_reported":1756292920,"current_range_meters":10800,"station_id":"ce4bh012rcd13ifvqd00","pricing_plan_id":"cebpf4jnsgd1na2vs0mg"},{"bike_id":"f0400c37-c7f6-4929-b1ac-d92430ff6f2d","system_id":"levelo_inurba_marseille","lat":43.275853,"lon":5.396851,"is_reserved":false,"is_disabled":false,"rental_uris":{"android":"levelo://app?vid=f0400c37-c7f6-4929-b1ac-d92430ff6f2d","ios":"levelo://app?vid=f0400c37-c7f6-4929-b1ac-d92430ff6f2d"},"vehicle_type_id":"4","last_reported":1756292920,"current_range_meters":11200,"station_id":"","pricing_plan_id":"cebpf4jnsgd1na2vs0mg"},{"bike_id":"1d7023ef-959e-48df-b075-0a4bd90cc9ae","system_id":"levelo_inurba_marseille","lat":43.27365,"lon":5.36253,"is_reserved":false,"is_disabled":true,"rental_uris":{"android":"levelo://app?vid=1d7023ef-959e-48df-b075-0a4bd90cc9ae","ios":"levelo://app?vid=1d7023ef-959e-48df-b075-0a4bd90cc9ae"},"vehicle_type_id":"4","last_reported":1756292920,"current_range_meters":11200,"station_id":"ce4bhbh2rcd13ifvqeo0","pricing_plan_id":"cebpf4jnsgd1na2vs0mg"},{"bike_id":"14947f10-51c9-4538-82c8-53a5bc644a0e","system_id":"levelo_inurba_marseille","lat":43.32075,"lon":5.41497,"is_reserved":false,"is_disabled":false,"rental_uris":{"android":"levelo://app?vid=14947f10-51c9-4538-82c8-53a5bc644a0e","ios":"levelo://app?vid=14947f10-51c9-4538-82c8-53a5bc644a0e"},"vehicle_type_id":"4","last_reported":1756292920,"current_range_meters":11200,"station_id":"ce4bhq92rcd13ifvqhkg","pricing_plan_id":"cebpf4jnsgd1na2vs0mg"},{"bike_id":"2570a118-42cc-47e4-8859-dc9cfe6e14cf","system_id":"levelo_inurba_marseille","lat":43.29778,"lon":5.3711,"is_reserved":false,"is_disabled":false,"rental_uris":{"android":"levelo://app?vid=2570a118-42cc-47e4-8859-dc9cfe6e14cf","ios":"levelo://app?vid=2570a118-42cc-47e4-8859-dc9cfe6e14cf"},"vehicle_type_id":"4","last_reported":1756292920,"current_range_meters":14400,"station_id":"ce4bgop2rcd13ifvqc1g","pricing_plan_id":"cebpf4jnsgd1na2vs0mg"},{"bike_id":"777a8c83-aed8-4881-84b6-34465956e738","system_id":"levelo_inurba_marseille","lat":43.25745,"lon":5.410159,"is_reserved":false,"is_disabled":false,"rental_uris":{"android":"levelo://app?vid=777a8c83-aed8-4881-84b6-34465956e738","ios":"levelo://app?vid=777a8c83-aed8-4881-84b6-34465956e738"},"vehicle_type_id":"4","last_reported":1756292920,"current_range_meters":11200,"station_id":"","pricing_plan_id":"cebpf4jnsgd1na2vs0mg"},{"bike_id":"2fa711a4-6ca2-4177-b6ba-8589ba6c0d68","system_id":"levelo_inurba_marseille","lat":43.29241,"lon":5.38431,"is_reserved":false,"is_disabled":false,"rental_uris":{"android":"levelo://app?vid=2fa711a4-6ca2-4177-b6ba-8589ba6c0d68","ios":"levelo://app?vid=2fa711a4-6ca2-4177-b6ba-8589ba6c0d68"},"vehicle_type_id":"4","last_reported":1756292920,"current_range_meters":11200,"station_id":"ce4bh692rcd13ifvqea0","pricing_plan_id":"cebpf4jnsgd1na2vs0mg"},{"bike_id":"b5c9d1b5-f19a-4706-a313-2615aac67cfa","system_id":"levelo_inurba_marseille","lat":43.28725,"lon":5.36088,"is_reserved":false,"is_disabled":false,"rental_uris":{"android":"levelo://app?vid=b5c9d1b5-f19a-4706-a313-2615aac67cfa","ios":"levelo://app?vid=b5c9d1b5-f19a-4706-a313-2615aac67cfa"},"vehicle_type_id":"4","last_reported":1756292920,"current_range_meters":11200,"station_id":"cki0cbj6b192h4jlfktg","pricing_plan_id":"cebpf4jnsgd1na2vs0mg"},{"bike_id":"40e89371-449e-4834-b475-32d4d226cf37","system_id":"levelo_inurba_marseille","lat":43.231781,"lon":5.399872,"is_reserved":false,"is_disabled":false,"rental_uris":{"android":"levelo://app?vid=40e89371-449e-4834-b475-32d4d226cf37","ios":"levelo://app?vid=40e89371-449e-4834-b475-32d4d226cf37"},"vehicle_type_id":"4","last_reported":1756292920,"current_range_meters":11600,"station_id":"ce4bhn12rcd13ifvqgqg","pricing_plan_id":"cebpf4jnsgd1na2vs0mg"},{"bike_id":"919403d1-9d41-4322-8f42-253c1dba9d3b","system_id":"levelo_inurba_marseille","lat":43.21752,"lon":5.34602,"is_reserved":false,"is_disabled":false,"rental_uris":{"android":"levelo://app?vid=919403d1-9d41-4322-8f42-253c1dba9d3b","ios":"levelo://app?vid=919403d1-9d41-4322-8f42-253c1dba9d3b"},"vehicle_type_id":"4","last_reported":1756292920,"current_range_meters":11600,"station_id":"","pricing_plan_id":"cebpf4jnsgd1na2vs0mg"},{"bike_id":"e337d582-364a-4312-af91-67d0c81052aa","system_id":"levelo_inurba_marseille","lat":43.325212,"lon":5.364522,"is_reserved":false,"is_disabled":false,"rental_uris":{"android":"levelo://app?vid=e337d582-364a-4312-af91-67d0c81052aa","ios":"levelo://app?vid=e337d582-364a-4312-af91-67d0c81052aa"},"vehicle_type_id":"4","last_reported":1756292920,"current_range_meters":11600,"station_id":"","pricing_plan_id":"cebpf4jnsgd1na2vs0mg"},{"bike_id":"5bce688b-fc81-4596-8277-b66f54be87c1","system_id":"levelo_inurba_marseille","lat":43.33768,"lon":5.37438,"is_reserved":false,"is_disabled":false,"rental_uris":{"android":"levelo://app?vid=5bce688b-fc81-4596-8277-b66f54be87c1","ios":"levelo://app?vid=5bce688b-fc81-4596-8277-b66f54be87c1"},"vehicle_type_id":"4","last_reported":1756292920,"current_range_meters":12000,"station_id":"","pricing_plan_id":"cebpf4jnsgd1na2vs0mg"},{"bike_id":"532cce87-fa0c-4713-b2a7-c2e8a86b6b5b","system_id":"levelo_inurba_marseille","lat":43.241607,"lon":5.397366,"is_reserved":false,"is_disabled":false,"rental_uris":{"android":"levelo://app?vid=532cce87-fa0c-4713-b2a7-c2e8a86b6b5b","ios":"levelo://app?vid=532cce87-fa0c-4713-b2a7-c2e8a86b6b5b"},"vehicle_type_id":"4","last_reported":1756292920,"current_range_meters":12000,"station_id":"ce4bhn12rcd13ifvqgpg","pricing_plan_id":"cebpf4jnsgd1na2vs0mg"},{"bike_id":"34d17ab2-d165-4944-b0ac-df7dfcf13fc6","system_id":"levelo_inurba_marseille","lat":43.25502,"lon":5.3765,"is_reserved":false,"is_disabled":false,"rental_uris":{"android":"levelo://app?vid=34d17ab2-d165-4944-b0ac-df7dfcf13fc6","ios":"levelo://app?vid=34d17ab2-d165-4944-b0ac-df7dfcf13fc6"},"vehicle_type_id":"4","last_reported":1756292920,"current_range_meters":12000,"station_id":"ce4bhh12rcd13ifvqff0","pricing_plan_id":"cebpf4jnsgd1na2vs0mg"},{"bike_id":"0561f6f7-4de8-48ea-a332-2e16d7c4fab4","system_id":"levelo_inurba_marseille","lat":43.21746,"lon":5.34601,"is_reserved":false,"is_disabled":false,"rental_uris":{"android":"levelo://app?vid=0561f6f7-4de8-48ea-a332-2e16d7c4fab4","ios":"levelo://app?vid=0561f6f7-4de8-48ea-a332-2e16d7c4fab4"},"vehicle_type_id":"4","last_reported":1756292920,"current_range_meters":12000,"station_id":"st_cvj6r9ubvosntc0bgbag","pricing_plan_id":"cebpf4jnsgd1na2vs0mg"},{"bike_id":"55806391-7b33-41cb-9701-b69f3515bef3","system_id":"levelo_inurba_marseille","lat":43.25908,"lon":5.40877,"is_reserved":false,"is_disabled":false,"rental_uris":{"android":"levelo://app?vid=55806391-7b33-41cb-9701-b69f3515bef3","ios":"levelo://app?vid=55806391-7b33-41cb-9701-b69f3515bef3"},"vehicle_type_id":"4","last_reported":1756292920,"current_range_meters":12400,"station_id":"ce4bhm92rcd13ifvqglg","pricing_plan_id":"cebpf4jnsgd1na2vs0mg"},{"bike_id":"ab37b802-0625-4f8f-b559-3b10dee34c0c","system_id":"levelo_inurba_marseille","lat":43.27312,"lon":5.39078,"is_reserved":false,"is_disabled":false,"rental_uris":{"android":"levelo://app?vid=ab37b802-0625-4f8f-b559-3b10dee34c0c","ios":"levelo://app?vid=ab37b802-0625-4f8f-b559-3b10dee34c0c"},"vehicle_type_id":"4","last_reported":1756292920,"current_range_meters":12800,"station_id":"ce4bhgp2rcd13ifvqfe0","pricing_plan_id":"cebpf4jnsgd1na2vs0mg"},{"bike_id":"9ac26396-a855-403a-8e0f-20cd0f546e7a","system_id":"levelo_inurba_marseille","lat":43.29589,"lon":5.38102,"is_reserved":false,"is_disabled":false,"rental_uris":{"android":"levelo://app?vid=9ac26396-a855-403a-8e0f-20cd0f546e7a","ios":"levelo://app?vid=9ac26396-a855-403a-8e0f-20cd0f546e7a"},"vehicle_type_id":"4","last_reported":1756292920,"current_range_meters":12800,"station_id":"ce4bgl12rcd13ifvqbo0","pricing_plan_id":"cebpf4jnsgd1na2vs0mg"},{"bike_id":"b79f626f-4cce-45e0-9b7e-79f3f3a6033f","system_id":"levelo_inurba_marseille","lat":43.24613,"lon":5.43152,"is_reserved":false,"is_disabled":false,"rental_uris":{"android":"levelo://app?vid=b79f626f-4cce-45e0-9b7e-79f3f3a6033f","ios":"levelo://app?vid=b79f626f-4cce-45e0-9b7e-79f3f3a6033f"},"vehicle_type_id":"4","last_reported":1756292920,"current_range_meters":12800,"station_id":"st_d2m6c4gdas8pm72e190g","pricing_plan_id":"cebpf4jnsgd1na2vs0mg"},{"bike_id":"6eb6aa40-d34c-45f3-98f9-082b2d2bf605","system_id":"levelo_inurba_marseille","lat":43.26559,"lon":5.3728,"is_reserved":false,"is_disabled":false,"rental_uris":{"android":"levelo://app?vid=6eb6aa40-d34c-45f3-98f9-082b2d2bf605","ios":"levelo://app?vid=6eb6aa40-d34c-45f3-98f9-082b2d2bf605"},"vehicle_type_id":"4","last_reported":1756292920,"current_range_meters":12800,"station_id":"ce4bhg12rcd13ifvqf70","pricing_plan_id":"cebpf4jnsgd1na2vs0mg"},{"bike_id":"a7a53c19-66aa-4d2e-85c1-ae889e6d2638","system_id":"levelo_inurba_marseille","lat":43.3079,"lon":5.4352,"is_reserved":false,"is_disabled":false,"rental_uris":{"android":"levelo://app?vid=a7a53c19-66aa-4d2e-85c1-ae889e6d2638","ios":"levelo://app?vid=a7a53c19-66aa-4d2e-85c1-ae889e6d2638"},"vehicle_type_id":"4","last_reported":1756292920,"current_range_meters":12800,"station_id":"ce4bhph2rcd13ifvqheg","pricing_plan_id":"cebpf4jnsgd1na2vs0mg"},{"bike_id":"ea66f81a-a2d0-493d-aecc-30e905f4feac","system_id":"levelo_inurba_marseille","lat":43.25003,"lon":5.38944,"is_reserved":false,"is_disabled":false,"rental_uris":{"android":"levelo://app?vid=ea66f81a-a2d0-493d-aecc-30e905f4feac","ios":"levelo://app?vid=ea66f81a-a2d0-493d-aecc-30e905f4feac"},"vehicle_type_id":"4","last_reported":1756292920,"current_range_meters":13600,"station_id":"ce4bhgp2rcd13ifvqfd0","pricing_plan_id":"cebpf4jnsgd1na2vs0mg"},{"bike_id":"c167ef4a-e3ad-4fa8-a8d5-802ba2e03f2d","system_id":"levelo_inurba_marseille","lat":43.279573,"lon":5.38733,"is_reserved":false,"is_disabled":false,"rental_uris":{"android":"levelo://app?vid=c167ef4a-e3ad-4fa8-a8d5-802ba2e03f2d","ios":"levelo://app?vid=c167ef4a-e3ad-4fa8-a8d5-802ba2e03f2d"},"vehicle_type_id":"4","last_reported":1756292920,"current_range_meters":13600,"station_id":"ce4bhg12rcd13ifvqf80","pricing_plan_id":"cebpf4jnsgd1na2vs0mg"},{"bike_id":"dcd1879e-ac5d-4aa0-bf26-5aa5113abe6e","system_id":"levelo_inurba_marseille","lat":43.27062,"lon":5.40242,"is_reserved":false,"is_disabled":false,"rental_uris":{"android":"levelo://app?vid=dcd1879e-ac5d-4aa0-bf26-5aa5113abe6e","ios":"levelo://app?vid=dcd1879e-ac5d-4aa0-bf26-5aa5113abe6e"},"vehicle_type_id":"4","last_reported":1756292920,"current_range_meters":14000,"station_id":"ce4bhk92rcd13ifvqgc0","pricing_plan_id":"cebpf4jnsgd1na2vs0mg"},{"bike_id":"e5eabf25-4e1c-476e-b130-9f83cdcfc80c","system_id":"levelo_inurba_marseille","lat":43.29806,"lon":5.41714,"is_reserved":false,"is_disabled":false,"rental_uris":{"android":"levelo://app?vid=e5eabf25-4e1c-476e-b130-9f83cdcfc80c","ios":"levelo://app?vid=e5eabf25-4e1c-476e-b130-9f83cdcfc80c"},"vehicle_type_id":"4","last_reported":1756292920,"current_range_meters":14000,"station_id":"","pricing_plan_id":"cebpf4jnsgd1na2vs0mg"},{"bike_id":"3448e159-471f-45cf-b0bc-dcb672574311","system_id":"levelo_inurba_marseille","lat":43.26194,"lon":5.37458,"is_reserved":false,"is_disabled":true,"rental_uris":{"android":"levelo://app?vid=3448e159-471f-45cf-b0bc-dcb672574311","ios":"levelo://app?vid=3448e159-471f-45cf-b0bc-dcb672574311"},"vehicle_type_id":"4","last_reported":1756292920,"current_range_meters":14000,"station_id":"ce4bhgp2rcd13ifvqfc0","pricing_plan_id":"cebpf4jnsgd1na2vs0mg"},{"bike_id":"d6bb9c59-52f0-4934-9bc4-64c9037dda28","system_id":"levelo_inurba_marseille","lat":43.2306,"lon":5.35489,"is_reserved":false,"is_disabled":false,"rental_uris":{"android":"levelo://app?vid=d6bb9c59-52f0-4934-9bc4-64c9037dda28","ios":"levelo://app?vid=d6bb9c59-52f0-4934-9bc4-64c9037dda28"},"vehicle_type_id":"4","last_reported":1756292920,"current_range_meters":14000,"station_id":"cpo3342slgdg3j2ifvpg","pricing_plan_id":"cebpf4jnsgd1na2vs0mg"},{"bike_id":"d19a0358-746d-40ae-9568-9ab00f927032","system_id":"levelo_inurba_marseille","lat":43.29369,"lon":5.37837,"is_reserved":false,"is_disabled":false,"rental_uris":{"android":"levelo://app?vid=d19a0358-746d-40ae-9568-9ab00f927032","ios":"levelo://app?vid=d19a0358-746d-40ae-9568-9ab00f927032"},"vehicle_type_id":"4","last_reported":1756292920,"current_range_meters":14000,"station_id":"ce4bgjh2rcd13ifvqbf0","pricing_plan_id":"cebpf4jnsgd1na2vs0mg"},{"bike_id":"96be027e-cd23-40d3-a6d7-c019900c29d5","system_id":"levelo_inurba_marseille","lat":43.2721,"lon":5.39178,"is_reserved":false,"is_disabled":false,"rental_uris":{"android":"levelo://app?vid=96be027e-cd23-40d3-a6d7-c019900c29d5","ios":"levelo://app?vid=96be027e-cd23-40d3-a6d7-c019900c29d5"},"vehicle_type_id":"4","last_reported":1756292920,"current_range_meters":13600,"station_id":"ce4bhhp2rcd13ifvqfm0","pricing_plan_id":"cebpf4jnsgd1na2vs0mg"},{"bike_id":"b5ae0016-67e1-4c37-91cb-4d986fbc09a4","system_id":"levelo_inurba_marseille","lat":43.246225,"lon":5.431483,"is_reserved":false,"is_disabled":false,"rental_uris":{"android":"levelo://app?vid=b5ae0016-67e1-4c37-91cb-4d986fbc09a4","ios":"levelo://app?vid=b5ae0016-67e1-4c37-91cb-4d986fbc09a4"},"vehicle_type_id":"4","last_reported":1756292920,"current_range_meters":14400,"station_id":"st_d2m6c4gdas8pm72e190g","pricing_plan_id":"cebpf4jnsgd1na2vs0mg"},{"bike_id":"d9d572f7-d811-4b4d-9ec5-cb85e6210f42","system_id":"levelo_inurba_marseille","lat":43.32105,"lon":5.36825,"is_reserved":false,"is_disabled":false,"rental_uris":{"android":"levelo://app?vid=d9d572f7-d811-4b4d-9ec5-cb85e6210f42","ios":"levelo://app?vid=d9d572f7-d811-4b4d-9ec5-cb85e6210f42"},"vehicle_type_id":"4","last_reported":1756292920,"current_range_meters":14400,"station_id":"ce4bhrh2rcd13ifvqhug","pricing_plan_id":"cebpf4jnsgd1na2vs0mg"},{"bike_id":"e91e6807-b9b7-4e19-b4ac-a618ee153865","system_id":"levelo_inurba_marseille","lat":43.25336,"lon":5.42159,"is_reserved":false,"is_disabled":false,"rental_uris":{"android":"levelo://app?vid=e91e6807-b9b7-4e19-b4ac-a618ee153865","ios":"levelo://app?vid=e91e6807-b9b7-4e19-b4ac-a618ee153865"},"vehicle_type_id":"4","last_reported":1756292920,"current_range_meters":14400,"station_id":"st_d2m65c5bi1j21697t3ng","pricing_plan_id":"cebpf4jnsgd1na2vs0mg"},{"bike_id":"9bc77615-816e-4ca2-9eff-c6628ddccd6e","system_id":"levelo_inurba_marseille","lat":43.29572,"lon":5.37499,"is_reserved":false,"is_disabled":false,"rental_uris":{"android":"levelo://app?vid=9bc77615-816e-4ca2-9eff-c6628ddccd6e","ios":"levelo://app?vid=9bc77615-816e-4ca2-9eff-c6628ddccd6e"},"vehicle_type_id":"4","last_reported":1756292920,"current_range_meters":14400,"station_id":"ce4bgh92rcd13ifvqb50","pricing_plan_id":"cebpf4jnsgd1na2vs0mg"},{"bike_id":"52cc0835-0024-4065-8b8a-9f4448a426dc","system_id":"levelo_inurba_marseille","lat":43.21746,"lon":5.34601,"is_reserved":false,"is_disabled":false,"rental_uris":{"android":"levelo://app?vid=52cc0835-0024-4065-8b8a-9f4448a426dc","ios":"levelo://app?vid=52cc0835-0024-4065-8b8a-9f4448a426dc"},"vehicle_type_id":"4","last_reported":1756292920,"current_range_meters":14400,"station_id":"st_cvj6r9ubvosntc0bgbag","pricing_plan_id":"cebpf4jnsgd1na2vs0mg"},{"bike_id":"9194a3fc-172d-4f97-875f-7949f6a67c46","system_id":"levelo_inurba_marseille","lat":43.291941,"lon":5.393147,"is_reserved":false,"is_disabled":false,"rental_uris":{"android":"levelo://app?vid=9194a3fc-172d-4f97-875f-7949f6a67c46","ios":"levelo://app?vid=9194a3fc-172d-4f97-875f-7949f6a67c46"},"vehicle_type_id":"4","last_reported":1756292920,"current_range_meters":14800,"station_id":"ce4bh192rcd13ifvqdd0","pricing_plan_id":"cebpf4jnsgd1na2vs0mg"},{"bike_id":"b5133710-52a6-42c6-b487-40f265b37cba","system_id":"levelo_inurba_marseille","lat":43.30794,"lon":5.4353,"is_reserved":false,"is_disabled":false,"rental_uris":{"android":"levelo://app?vid=b5133710-52a6-42c6-b487-40f265b37cba","ios":"levelo://app?vid=b5133710-52a6-42c6-b487-40f265b37cba"},"vehicle_type_id":"4","last_reported":1756292920,"current_range_meters":14800,"station_id":"ce4bhph2rcd13ifvqheg","pricing_plan_id":"cebpf4jnsgd1na2vs0mg"},{"bike_id":"41266d51-6993-4501-bccd-8d5d6106a2d8","system_id":"levelo_inurba_marseille","lat":43.29621,"lon":5.37713,"is_reserved":false,"is_disabled":false,"rental_uris":{"android":"levelo://app?vid=41266d51-6993-4501-bccd-8d5d6106a2d8","ios":"levelo://app?vid=41266d51-6993-4501-bccd-8d5d6106a2d8"},"vehicle_type_id":"4","last_reported":1756292920,"current_range_meters":14800,"station_id":"ce4bgi92rcd13ifvqb90","pricing_plan_id":"cebpf4jnsgd1na2vs0mg"},{"bike_id":"685105d1-bcda-4899-9d64-d94adf158a64","system_id":"levelo_inurba_marseille","lat":43.314676,"lon":5.373608,"is_reserved":false,"is_disabled":true,"rental_uris":{"android":"levelo://app?vid=685105d1-bcda-4899-9d64-d94adf158a64","ios":"levelo://app?vid=685105d1-bcda-4899-9d64-d94adf158a64"},"vehicle_type_id":"4","last_reported":1756292920,"current_range_meters":15200,"station_id":"","pricing_plan_id":"cebpf4jnsgd1na2vs0mg"},{"bike_id":"1dec5f96-d953-4203-b13d-0ce3f02e61a0","system_id":"levelo_inurba_marseille","lat":43.2709,"lon":5.42261,"is_reserved":false,"is_disabled":false,"rental_uris":{"android":"levelo://app?vid=1dec5f96-d953-4203-b13d-0ce3f02e61a0","ios":"levelo://app?vid=1dec5f96-d953-4203-b13d-0ce3f02e61a0"},"vehicle_type_id":"4","last_reported":1756292920,"current_range_meters":15200,"station_id":"ce4bhk92rcd13ifvqgb0","pricing_plan_id":"cebpf4jnsgd1na2vs0mg"},{"bike_id":"3f90b47f-2c2f-4ba4-b8d3-1666ede67645","system_id":"levelo_inurba_marseille","lat":43.29748,"lon":5.3772,"is_reserved":false,"is_disabled":false,"rental_uris":{"android":"levelo://app?vid=3f90b47f-2c2f-4ba4-b8d3-1666ede67645","ios":"levelo://app?vid=3f90b47f-2c2f-4ba4-b8d3-1666ede67645"},"vehicle_type_id":"4","last_reported":1756292920,"current_range_meters":15200,"station_id":"","pricing_plan_id":"cebpf4jnsgd1na2vs0mg"},{"bike_id":"3ce18fbc-ec38-4f9e-9dd9-9a3dee5c503d","system_id":"levelo_inurba_marseille","lat":43.26029,"lon":5.37552,"is_reserved":false,"is_disabled":true,"rental_uris":{"android":"levelo://app?vid=3ce18fbc-ec38-4f9e-9dd9-9a3dee5c503d","ios":"levelo://app?vid=3ce18fbc-ec38-4f9e-9dd9-9a3dee5c503d"},"vehicle_type_id":"4","last_reported":1756292920,"current_range_meters":15200,"station_id":"ce4bhgh2rcd13ifvqfa0","pricing_plan_id":"cebpf4jnsgd1na2vs0mg"},{"bike_id":"aeb6680f-c554-4849-80dd-284b39496357","system_id":"levelo_inurba_marseille","lat":43.29211,"lon":5.36063,"is_reserved":false,"is_disabled":false,"rental_uris":{"android":"levelo://app?vid=aeb6680f-c554-4849-80dd-284b39496357","ios":"levelo://app?vid=aeb6680f-c554-4849-80dd-284b39496357"},"vehicle_type_id":"4","last_reported":1756292920,"current_range_meters":15200,"station_id":"ce4bhbh2rcd13ifvqeqg","pricing_plan_id":"cebpf4jnsgd1na2vs0mg"},{"bike_id":"3dff11d5-3872-4ffe-8cce-b5631d6c6058","system_id":"levelo_inurba_marseille","lat":43.32651,"lon":5.39182,"is_reserved":false,"is_disabled":false,"rental_uris":{"android":"levelo://app?vid=3dff11d5-3872-4ffe-8cce-b5631d6c6058","ios":"levelo://app?vid=3dff11d5-3872-4ffe-8cce-b5631d6c6058"},"vehicle_type_id":"4","last_reported":1756292920,"current_range_meters":15200,"station_id":"","pricing_plan_id":"cebpf4jnsgd1na2vs0mg"},{"bike_id":"db526668-1205-422f-99f2-dc09210cda94","system_id":"levelo_inurba_marseille","lat":43.29268,"lon":5.36838,"is_reserved":false,"is_disabled":false,"rental_uris":{"android":"levelo://app?vid=db526668-1205-422f-99f2-dc09210cda94","ios":"levelo://app?vid=db526668-1205-422f-99f2-dc09210cda94"},"vehicle_type_id":"4","last_reported":1756292920,"current_range_meters":16000,"station_id":"ce4bhbp2rcd13ifvqesg","pricing_plan_id":"cebpf4jnsgd1na2vs0mg"},{"bike_id":"71136ea1-3aaf-4521-8084-554abe261412","system_id":"levelo_inurba_marseille","lat":43.303037,"lon":5.369059,"is_reserved":false,"is_disabled":true,"rental_uris":{"android":"levelo://app?vid=71136ea1-3aaf-4521-8084-554abe261412","ios":"levelo://app?vid=71136ea1-3aaf-4521-8084-554abe261412"},"vehicle_type_id":"4","last_reported":1756292920,"current_range_meters":16000,"station_id":"","pricing_plan_id":"cebpf4jnsgd1na2vs0mg"},{"bike_id":"7ccab245-0e8d-4cff-ac74-28c47926c947","system_id":"levelo_inurba_marseille","lat":43.279335,"lon":5.399631,"is_reserved":false,"is_disabled":false,"rental_uris":{"android":"levelo://app?vid=7ccab245-0e8d-4cff-ac74-28c47926c947","ios":"levelo://app?vid=7ccab245-0e8d-4cff-ac74-28c47926c947"},"vehicle_type_id":"4","last_reported":1756292920,"current_range_meters":16000,"station_id":"","pricing_plan_id":"cebpf4jnsgd1na2vs0mg"},{"bike_id":"8bae1035-26b5-4630-b607-139f999eff74","system_id":"levelo_inurba_marseille","lat":43.2846,"lon":5.38416,"is_reserved":false,"is_disabled":false,"rental_uris":{"android":"levelo://app?vid=8bae1035-26b5-4630-b607-139f999eff74","ios":"levelo://app?vid=8bae1035-26b5-4630-b607-139f999eff74"},"vehicle_type_id":"4","last_reported":1756292920,"current_range_meters":16000,"station_id":"ce4bh512rcd13ifvqe3g","pricing_plan_id":"cebpf4jnsgd1na2vs0mg"},{"bike_id":"f67c8e5e-7af8-4847-a4ce-1e12088b4291","system_id":"levelo_inurba_marseille","lat":43.32982,"lon":5.39071,"is_reserved":false,"is_disabled":false,"rental_uris":{"android":"levelo://app?vid=f67c8e5e-7af8-4847-a4ce-1e12088b4291","ios":"levelo://app?vid=f67c8e5e-7af8-4847-a4ce-1e12088b4291"},"vehicle_type_id":"4","last_reported":1756292920,"current_range_meters":16000,"station_id":"","pricing_plan_id":"cebpf4jnsgd1na2vs0mg"},{"bike_id":"cd5c3833-7bf3-4a66-bf65-1a1ed75d3902","system_id":"levelo_inurba_marseille","lat":43.28474,"lon":5.38411,"is_reserved":false,"is_disabled":false,"rental_uris":{"android":"levelo://app?vid=cd5c3833-7bf3-4a66-bf65-1a1ed75d3902","ios":"levelo://app?vid=cd5c3833-7bf3-4a66-bf65-1a1ed75d3902"},"vehicle_type_id":"4","last_reported":1756292920,"current_range_meters":16000,"station_id":"","pricing_plan_id":"cebpf4jnsgd1na2vs0mg"},{"bike_id":"05333f1f-8cc0-4dc9-bbd8-a1f0e18ceb88","system_id":"levelo_inurba_marseille","lat":43.26268,"lon":5.39894,"is_reserved":false,"is_disabled":false,"rental_uris":{"android":"levelo://app?vid=05333f1f-8cc0-4dc9-bbd8-a1f0e18ceb88","ios":"levelo://app?vid=05333f1f-8cc0-4dc9-bbd8-a1f0e18ceb88"},"vehicle_type_id":"4","last_reported":1756292920,"current_range_meters":16000,"station_id":"","pricing_plan_id":"cebpf4jnsgd1na2vs0mg"},{"bike_id":"70725e45-1278-4337-bab4-392de6291b76","system_id":"levelo_inurba_marseille","lat":43.2781,"lon":5.407015,"is_reserved":false,"is_disabled":false,"rental_uris":{"android":"levelo://app?vid=70725e45-1278-4337-bab4-392de6291b76","ios":"levelo://app?vid=70725e45-1278-4337-bab4-392de6291b76"},"vehicle_type_id":"4","last_reported":1756292920,"current_range_meters":16000,"station_id":"ce4bhnh2rcd13ifvqgtg","pricing_plan_id":"cebpf4jnsgd1na2vs0mg"},{"bike_id":"2e55c538-508e-4fef-8f5f-62b4ad8b5b85","system_id":"levelo_inurba_marseille","lat":43.217429,"lon":5.346029,"is_reserved":false,"is_disabled":false,"rental_uris":{"android":"levelo://app?vid=2e55c538-508e-4fef-8f5f-62b4ad8b5b85","ios":"levelo://app?vid=2e55c538-508e-4fef-8f5f-62b4ad8b5b85"},"vehicle_type_id":"4","last_reported":1756292920,"current_range_meters":16000,"station_id":"","pricing_plan_id":"cebpf4jnsgd1na2vs0mg"},{"bike_id":"707de34e-c111-4494-bbe7-db5632188ae6","system_id":"levelo_inurba_marseille","lat":43.28482,"lon":5.38418,"is_reserved":false,"is_disabled":false,"rental_uris":{"android":"levelo://app?vid=707de34e-c111-4494-bbe7-db5632188ae6","ios":"levelo://app?vid=707de34e-c111-4494-bbe7-db5632188ae6"},"vehicle_type_id":"4","last_reported":1756292920,"current_range_meters":16000,"station_id":"ce4bh512rcd13ifvqe3g","pricing_plan_id":"cebpf4jnsgd1na2vs0mg"},{"bike_id":"ee6fcedd-79bc-4eeb-9dbf-f3dac5fafd54","system_id":"levelo_inurba_marseille","lat":43.28612,"lon":5.35108,"is_reserved":false,"is_disabled":false,"rental_uris":{"android":"levelo://app?vid=ee6fcedd-79bc-4eeb-9dbf-f3dac5fafd54","ios":"levelo://app?vid=ee6fcedd-79bc-4eeb-9dbf-f3dac5fafd54"},"vehicle_type_id":"4","last_reported":1756292920,"current_range_meters":16400,"station_id":"ce4bhch2rcd13ifvqeug","pricing_plan_id":"cebpf4jnsgd1na2vs0mg"},{"bike_id":"3677cb8e-75cb-4ce3-82af-837496e47714","system_id":"levelo_inurba_marseille","lat":43.25819,"lon":5.39435,"is_reserved":false,"is_disabled":false,"rental_uris":{"android":"levelo://app?vid=3677cb8e-75cb-4ce3-82af-837496e47714","ios":"levelo://app?vid=3677cb8e-75cb-4ce3-82af-837496e47714"},"vehicle_type_id":"4","last_reported":1756292920,"current_range_meters":16400,"station_id":"ce4bhip2rcd13ifvqft0","pricing_plan_id":"cebpf4jnsgd1na2vs0mg"},{"bike_id":"8e894a67-5583-41f1-b2fe-3ab229cbb998","system_id":"levelo_inurba_marseille","lat":43.29259,"lon":5.37623,"is_reserved":false,"is_disabled":false,"rental_uris":{"android":"levelo://app?vid=8e894a67-5583-41f1-b2fe-3ab229cbb998","ios":"levelo://app?vid=8e894a67-5583-41f1-b2fe-3ab229cbb998"},"vehicle_type_id":"4","last_reported":1756292920,"current_range_meters":16400,"station_id":"ce4bgi12rcd13ifvqb80","pricing_plan_id":"cebpf4jnsgd1na2vs0mg"},{"bike_id":"5c26a54e-1e97-4ad3-a16d-614ad930b130","system_id":"levelo_inurba_marseille","lat":43.321014,"lon":5.367675,"is_reserved":false,"is_disabled":false,"rental_uris":{"android":"levelo://app?vid=5c26a54e-1e97-4ad3-a16d-614ad930b130","ios":"levelo://app?vid=5c26a54e-1e97-4ad3-a16d-614ad930b130"},"vehicle_type_id":"4","last_reported":1756292920,"current_range_meters":16400,"station_id":"ce4bhrh2rcd13ifvqhug","pricing_plan_id":"cebpf4jnsgd1na2vs0mg"},{"bike_id":"cf5344c4-601b-43d9-9e7a-d2847d0c7b32","system_id":"levelo_inurba_marseille","lat":43.29299,"lon":5.37462,"is_reserved":false,"is_disabled":false,"rental_uris":{"android":"levelo://app?vid=cf5344c4-601b-43d9-9e7a-d2847d0c7b32","ios":"levelo://app?vid=cf5344c4-601b-43d9-9e7a-d2847d0c7b32"},"vehicle_type_id":"4","last_reported":1756292920,"current_range_meters":16400,"station_id":"ce4bgi12rcd13ifvqb70","pricing_plan_id":"cebpf4jnsgd1na2vs0mg"},{"bike_id":"6bfe00ab-e481-4a2d-a4d0-3ab6adf70994","system_id":"levelo_inurba_marseille","lat":43.32338,"lon":5.36747,"is_reserved":false,"is_disabled":true,"rental_uris":{"android":"levelo://app?vid=6bfe00ab-e481-4a2d-a4d0-3ab6adf70994","ios":"levelo://app?vid=6bfe00ab-e481-4a2d-a4d0-3ab6adf70994"},"vehicle_type_id":"4","last_reported":1756292920,"current_range_meters":16400,"station_id":"ce4bhsh2rcd13ifvqi2g","pricing_plan_id":"cebpf4jnsgd1na2vs0mg"},{"bike_id":"182848e1-c128-499b-944e-cad0c910e9fb","system_id":"levelo_inurba_marseille","lat":43.21188,"lon":5.35069,"is_reserved":false,"is_disabled":false,"rental_uris":{"android":"levelo://app?vid=182848e1-c128-499b-944e-cad0c910e9fb","ios":"levelo://app?vid=182848e1-c128-499b-944e-cad0c910e9fb"},"vehicle_type_id":"4","last_reported":1756292920,"current_range_meters":16400,"station_id":"st_cvj6sg6p6f1abm77japg","pricing_plan_id":"cebpf4jnsgd1na2vs0mg"},{"bike_id":"96207dea-7bbf-4883-ab9a-820d9c447ab3","system_id":"levelo_inurba_marseille","lat":43.28434,"lon":5.34998,"is_reserved":false,"is_disabled":false,"rental_uris":{"android":"levelo://app?vid=96207dea-7bbf-4883-ab9a-820d9c447ab3","ios":"levelo://app?vid=96207dea-7bbf-4883-ab9a-820d9c447ab3"},"vehicle_type_id":"4","last_reported":1756292920,"current_range_meters":16400,"station_id":"ce4bhbh2rcd13ifvqepg","pricing_plan_id":"cebpf4jnsgd1na2vs0mg"},{"bike_id":"29c846b0-4fd8-40fb-aac1-6d767b2e984a","system_id":"levelo_inurba_marseille","lat":43.29218,"lon":5.36039,"is_reserved":false,"is_disabled":false,"rental_uris":{"android":"levelo://app?vid=29c846b0-4fd8-40fb-aac1-6d767b2e984a","ios":"levelo://app?vid=29c846b0-4fd8-40fb-aac1-6d767b2e984a"},"vehicle_type_id":"4","last_reported":1756292920,"current_range_meters":16400,"station_id":"ce4bhbh2rcd13ifvqeqg","pricing_plan_id":"cebpf4jnsgd1na2vs0mg"},{"bike_id":"33db383b-5b27-4ee3-b77f-51489812521c","system_id":"levelo_inurba_marseille","lat":43.30505,"lon":5.36753,"is_reserved":false,"is_disabled":false,"rental_uris":{"android":"levelo://app?vid=33db383b-5b27-4ee3-b77f-51489812521c","ios":"levelo://app?vid=33db383b-5b27-4ee3-b77f-51489812521c"},"vehicle_type_id":"4","last_reported":1756292920,"current_range_meters":16400,"station_id":"ce4bgrp2rcd13ifvqc9g","pricing_plan_id":"cebpf4jnsgd1na2vs0mg"},{"bike_id":"c6a5edcb-70de-442c-867d-206ab7fa279a","system_id":"levelo_inurba_marseille","lat":43.284717,"lon":5.384275,"is_reserved":false,"is_disabled":false,"rental_uris":{"android":"levelo://app?vid=c6a5edcb-70de-442c-867d-206ab7fa279a","ios":"levelo://app?vid=c6a5edcb-70de-442c-867d-206ab7fa279a"},"vehicle_type_id":"4","last_reported":1756292920,"current_range_meters":16400,"station_id":"ce4bh512rcd13ifvqe3g","pricing_plan_id":"cebpf4jnsgd1na2vs0mg"},{"bike_id":"814645c9-7af5-4408-879c-1836489b0342","system_id":"levelo_inurba_marseille","lat":43.265511,"lon":5.373046,"is_reserved":false,"is_disabled":false,"rental_uris":{"android":"levelo://app?vid=814645c9-7af5-4408-879c-1836489b0342","ios":"levelo://app?vid=814645c9-7af5-4408-879c-1836489b0342"},"vehicle_type_id":"4","last_reported":1756292920,"current_range_meters":16400,"station_id":"ce4bhg12rcd13ifvqf70","pricing_plan_id":"cebpf4jnsgd1na2vs0mg"},{"bike_id":"c561b3be-23f4-46ed-8d38-1fc2450f503d","system_id":"levelo_inurba_marseille","lat":43.23652,"lon":5.36234,"is_reserved":false,"is_disabled":false,"rental_uris":{"android":"levelo://app?vid=c561b3be-23f4-46ed-8d38-1fc2450f503d","ios":"levelo://app?vid=c561b3be-23f4-46ed-8d38-1fc2450f503d"},"vehicle_type_id":"4","last_reported":1756292920,"current_range_meters":16400,"station_id":"","pricing_plan_id":"cebpf4jnsgd1na2vs0mg"},{"bike_id":"dd7083cc-5aa5-45e8-aa01-f809713272d1","system_id":"levelo_inurba_marseille","lat":43.21186,"lon":5.35077,"is_reserved":false,"is_disabled":false,"rental_uris":{"android":"levelo://app?vid=dd7083cc-5aa5-45e8-aa01-f809713272d1","ios":"levelo://app?vid=dd7083cc-5aa5-45e8-aa01-f809713272d1"},"vehicle_type_id":"4","last_reported":1756292920,"current_range_meters":16400,"station_id":"st_cvj6sg6p6f1abm77japg","pricing_plan_id":"cebpf4jnsgd1na2vs0mg"},{"bike_id":"71a96c5c-7541-4ec8-8940-7c8370deca72","system_id":"levelo_inurba_marseille","lat":43.24168,"lon":5.36399,"is_reserved":false,"is_disabled":false,"rental_uris":{"android":"levelo://app?vid=71a96c5c-7541-4ec8-8940-7c8370deca72","ios":"levelo://app?vid=71a96c5c-7541-4ec8-8940-7c8370deca72"},"vehicle_type_id":"4","last_reported":1756292920,"current_range_meters":16400,"station_id":"cpo36qri1sfpv3e86is0","pricing_plan_id":"cebpf4jnsgd1na2vs0mg"},{"bike_id":"5ccf7b1d-6ecc-44d6-b649-a78373ac5a2b","system_id":"levelo_inurba_marseille","lat":43.28621,"lon":5.35099,"is_reserved":false,"is_disabled":false,"rental_uris":{"android":"levelo://app?vid=5ccf7b1d-6ecc-44d6-b649-a78373ac5a2b","ios":"levelo://app?vid=5ccf7b1d-6ecc-44d6-b649-a78373ac5a2b"},"vehicle_type_id":"4","last_reported":1756292920,"current_range_meters":16800,"station_id":"ce4bhch2rcd13ifvqeug","pricing_plan_id":"cebpf4jnsgd1na2vs0mg"},{"bike_id":"ffd21136-ae47-45ee-8fc5-e7f85ea84802","system_id":"levelo_inurba_marseille","lat":43.29822,"lon":5.38242,"is_reserved":false,"is_disabled":false,"rental_uris":{"android":"levelo://app?vid=ffd21136-ae47-45ee-8fc5-e7f85ea84802","ios":"levelo://app?vid=ffd21136-ae47-45ee-8fc5-e7f85ea84802"},"vehicle_type_id":"4","last_reported":1756292920,"current_range_meters":16800,"station_id":"","pricing_plan_id":"cebpf4jnsgd1na2vs0mg"},{"bike_id":"e34cf91a-b86a-44f8-b287-cb73844e58f5","system_id":"levelo_inurba_marseille","lat":43.21741,"lon":5.34601,"is_reserved":false,"is_disabled":true,"rental_uris":{"android":"levelo://app?vid=e34cf91a-b86a-44f8-b287-cb73844e58f5","ios":"levelo://app?vid=e34cf91a-b86a-44f8-b287-cb73844e58f5"},"vehicle_type_id":"4","last_reported":1756292920,"current_range_meters":16800,"station_id":"","pricing_plan_id":"cebpf4jnsgd1na2vs0mg"},{"bike_id":"0c90763b-1a19-48af-bb89-2e41f2da2efd","system_id":"levelo_inurba_marseille","lat":43.23064,"lon":5.35492,"is_reserved":false,"is_disabled":false,"rental_uris":{"android":"levelo://app?vid=0c90763b-1a19-48af-bb89-2e41f2da2efd","ios":"levelo://app?vid=0c90763b-1a19-48af-bb89-2e41f2da2efd"},"vehicle_type_id":"4","last_reported":1756292920,"current_range_meters":16800,"station_id":"cpo3342slgdg3j2ifvpg","pricing_plan_id":"cebpf4jnsgd1na2vs0mg"},{"bike_id":"33767b19-49d2-43d6-9855-7f25ee9dd4ce","system_id":"levelo_inurba_marseille","lat":43.2952,"lon":5.37534,"is_reserved":false,"is_disabled":true,"rental_uris":{"android":"levelo://app?vid=33767b19-49d2-43d6-9855-7f25ee9dd4ce","ios":"levelo://app?vid=33767b19-49d2-43d6-9855-7f25ee9dd4ce"},"vehicle_type_id":"4","last_reported":1756292920,"current_range_meters":16800,"station_id":"ce4bgkp2rcd13ifvqbmg","pricing_plan_id":"cebpf4jnsgd1na2vs0mg"},{"bike_id":"32469966-fef0-44df-9385-7c133471989e","system_id":"levelo_inurba_marseille","lat":43.29006,"lon":5.35608,"is_reserved":false,"is_disabled":false,"rental_uris":{"android":"levelo://app?vid=32469966-fef0-44df-9385-7c133471989e","ios":"levelo://app?vid=32469966-fef0-44df-9385-7c133471989e"},"vehicle_type_id":"4","last_reported":1756292920,"current_range_meters":17200,"station_id":"ce4bhb92rcd13ifvqen0","pricing_plan_id":"cebpf4jnsgd1na2vs0mg"},{"bike_id":"d810acf0-5bd2-4bf1-848d-31cd30d105e6","system_id":"levelo_inurba_marseille","lat":43.269831,"lon":5.392782,"is_reserved":false,"is_disabled":false,"rental_uris":{"android":"levelo://app?vid=d810acf0-5bd2-4bf1-848d-31cd30d105e6","ios":"levelo://app?vid=d810acf0-5bd2-4bf1-848d-31cd30d105e6"},"vehicle_type_id":"4","last_reported":1756292920,"current_range_meters":17200,"station_id":"","pricing_plan_id":"cebpf4jnsgd1na2vs0mg"},{"bike_id":"5dd83fad-2449-4d56-be74-c8599abb9a5e","system_id":"levelo_inurba_marseille","lat":43.26208,"lon":5.37445,"is_reserved":false,"is_disabled":false,"rental_uris":{"android":"levelo://app?vid=5dd83fad-2449-4d56-be74-c8599abb9a5e","ios":"levelo://app?vid=5dd83fad-2449-4d56-be74-c8599abb9a5e"},"vehicle_type_id":"4","last_reported":1756292920,"current_range_meters":17200,"station_id":"ce4bhgp2rcd13ifvqfc0","pricing_plan_id":"cebpf4jnsgd1na2vs0mg"},{"bike_id":"4c82beab-1cad-46f7-a8ca-eb8dcbd949ef","system_id":"levelo_inurba_marseille","lat":43.275738,"lon":5.396782,"is_reserved":false,"is_disabled":false,"rental_uris":{"android":"levelo://app?vid=4c82beab-1cad-46f7-a8ca-eb8dcbd949ef","ios":"levelo://app?vid=4c82beab-1cad-46f7-a8ca-eb8dcbd949ef"},"vehicle_type_id":"4","last_reported":1756292920,"current_range_meters":17200,"station_id":"","pricing_plan_id":"cebpf4jnsgd1na2vs0mg"},{"bike_id":"98c2f530-682d-4c6c-92e1-e7ae1af563d2","system_id":"levelo_inurba_marseille","lat":43.24547,"lon":5.39535,"is_reserved":false,"is_disabled":false,"rental_uris":{"android":"levelo://app?vid=98c2f530-682d-4c6c-92e1-e7ae1af563d2","ios":"levelo://app?vid=98c2f530-682d-4c6c-92e1-e7ae1af563d2"},"vehicle_type_id":"4","last_reported":1756292920,"current_range_meters":17200,"station_id":"ce4bhlp2rcd13ifvqgjg","pricing_plan_id":"cebpf4jnsgd1na2vs0mg"},{"bike_id":"571677a6-2a3b-4242-81b2-6d5f9524ff46","system_id":"levelo_inurba_marseille","lat":43.29299,"lon":5.37174,"is_reserved":false,"is_disabled":false,"rental_uris":{"android":"levelo://app?vid=571677a6-2a3b-4242-81b2-6d5f9524ff46","ios":"levelo://app?vid=571677a6-2a3b-4242-81b2-6d5f9524ff46"},"vehicle_type_id":"4","last_reported":1756292920,"current_range_meters":17200,"station_id":"ce4bgh92rcd13ifvqb40","pricing_plan_id":"cebpf4jnsgd1na2vs0mg"},{"bike_id":"4e9e705b-7667-42c6-adf5-4a09a858987f","system_id":"levelo_inurba_marseille","lat":43.21183,"lon":5.35076,"is_reserved":false,"is_disabled":false,"rental_uris":{"android":"levelo://app?vid=4e9e705b-7667-42c6-adf5-4a09a858987f","ios":"levelo://app?vid=4e9e705b-7667-42c6-adf5-4a09a858987f"},"vehicle_type_id":"4","last_reported":1756292920,"current_range_meters":17200,"station_id":"st_cvj6sg6p6f1abm77japg","pricing_plan_id":"cebpf4jnsgd1na2vs0mg"},{"bike_id":"94c44f36-d45b-48d8-9eb0-02cde482dcfd","system_id":"levelo_inurba_marseille","lat":43.26025,"lon":5.37543,"is_reserved":false,"is_disabled":false,"rental_uris":{"android":"levelo://app?vid=94c44f36-d45b-48d8-9eb0-02cde482dcfd","ios":"levelo://app?vid=94c44f36-d45b-48d8-9eb0-02cde482dcfd"},"vehicle_type_id":"4","last_reported":1756292920,"current_range_meters":17200,"station_id":"ce4bhgh2rcd13ifvqfa0","pricing_plan_id":"cebpf4jnsgd1na2vs0mg"},{"bike_id":"56617e93-dfaa-4db2-9c67-a6ef24f9648e","system_id":"levelo_inurba_marseille","lat":43.231894,"lon":5.355591,"is_reserved":false,"is_disabled":false,"rental_uris":{"android":"levelo://app?vid=56617e93-dfaa-4db2-9c67-a6ef24f9648e","ios":"levelo://app?vid=56617e93-dfaa-4db2-9c67-a6ef24f9648e"},"vehicle_type_id":"4","last_reported":1756292920,"current_range_meters":17200,"station_id":"ce4bhu92rcd13ifvqi70","pricing_plan_id":"cebpf4jnsgd1na2vs0mg"},{"bike_id":"98bd734b-1a92-4a06-bd14-78315dd4e572","system_id":"levelo_inurba_marseille","lat":43.26696,"lon":5.38252,"is_reserved":false,"is_disabled":false,"rental_uris":{"android":"levelo://app?vid=98bd734b-1a92-4a06-bd14-78315dd4e572","ios":"levelo://app?vid=98bd734b-1a92-4a06-bd14-78315dd4e572"},"vehicle_type_id":"4","last_reported":1756292920,"current_range_meters":17200,"station_id":"ce4bhg92rcd13ifvqf90","pricing_plan_id":"cebpf4jnsgd1na2vs0mg"},{"bike_id":"f2ffd311-4b12-4f8a-9de3-52907666b348","system_id":"levelo_inurba_marseille","lat":43.25332,"lon":5.42164,"is_reserved":false,"is_disabled":false,"rental_uris":{"android":"levelo://app?vid=f2ffd311-4b12-4f8a-9de3-52907666b348","ios":"levelo://app?vid=f2ffd311-4b12-4f8a-9de3-52907666b348"},"vehicle_type_id":"4","last_reported":1756292920,"current_range_meters":17600,"station_id":"st_d2m65c5bi1j21697t3ng","pricing_plan_id":"cebpf4jnsgd1na2vs0mg"},{"bike_id":"56c04261-47b9-41fc-b166-0497df898b6e","system_id":"levelo_inurba_marseille","lat":43.27537,"lon":5.38445,"is_reserved":false,"is_disabled":false,"rental_uris":{"android":"levelo://app?vid=56c04261-47b9-41fc-b166-0497df898b6e","ios":"levelo://app?vid=56c04261-47b9-41fc-b166-0497df898b6e"},"vehicle_type_id":"4","last_reported":1756292920,"current_range_meters":17600,"station_id":"ce4bhh92rcd13ifvqfi0","pricing_plan_id":"cebpf4jnsgd1na2vs0mg"},{"bike_id":"05d45e4c-1418-472b-b74a-2e06536c3dfa","system_id":"levelo_inurba_marseille","lat":43.28624,"lon":5.35095,"is_reserved":false,"is_disabled":false,"rental_uris":{"android":"levelo://app?vid=05d45e4c-1418-472b-b74a-2e06536c3dfa","ios":"levelo://app?vid=05d45e4c-1418-472b-b74a-2e06536c3dfa"},"vehicle_type_id":"4","last_reported":1756292920,"current_range_meters":17600,"station_id":"ce4bhch2rcd13ifvqeug","pricing_plan_id":"cebpf4jnsgd1na2vs0mg"},{"bike_id":"ffe6df59-3fc1-4d81-9326-f6f6418e7718","system_id":"levelo_inurba_marseille","lat":43.297543,"lon":5.37315,"is_reserved":false,"is_disabled":false,"rental_uris":{"android":"levelo://app?vid=ffe6df59-3fc1-4d81-9326-f6f6418e7718","ios":"levelo://app?vid=ffe6df59-3fc1-4d81-9326-f6f6418e7718"},"vehicle_type_id":"4","last_reported":1756292920,"current_range_meters":17600,"station_id":"","pricing_plan_id":"cebpf4jnsgd1na2vs0mg"},{"bike_id":"da20f98b-d66c-4692-8e07-f38b03202642","system_id":"levelo_inurba_marseille","lat":43.2808,"lon":5.39658,"is_reserved":false,"is_disabled":false,"rental_uris":{"android":"levelo://app?vid=da20f98b-d66c-4692-8e07-f38b03202642","ios":"levelo://app?vid=da20f98b-d66c-4692-8e07-f38b03202642"},"vehicle_type_id":"4","last_reported":1756292920,"current_range_meters":17600,"station_id":"ce4bho12rcd13ifvqh2g","pricing_plan_id":"cebpf4jnsgd1na2vs0mg"},{"bike_id":"7558b440-1ee7-4da9-91a4-b58bd6acd925","system_id":"levelo_inurba_marseille","lat":43.24537,"lon":5.39525,"is_reserved":false,"is_disabled":false,"rental_uris":{"android":"levelo://app?vid=7558b440-1ee7-4da9-91a4-b58bd6acd925","ios":"levelo://app?vid=7558b440-1ee7-4da9-91a4-b58bd6acd925"},"vehicle_type_id":"4","last_reported":1756292920,"current_range_meters":17600,"station_id":"ce4bhlp2rcd13ifvqgjg","pricing_plan_id":"cebpf4jnsgd1na2vs0mg"},{"bike_id":"3185222d-499b-42d7-98ff-7627ca417833","system_id":"levelo_inurba_marseille","lat":43.30419,"lon":5.38879,"is_reserved":false,"is_disabled":false,"rental_uris":{"android":"levelo://app?vid=3185222d-499b-42d7-98ff-7627ca417833","ios":"levelo://app?vid=3185222d-499b-42d7-98ff-7627ca417833"},"vehicle_type_id":"4","last_reported":1756292920,"current_range_meters":19200,"station_id":"ce4bgk12rcd13ifvqbi0","pricing_plan_id":"cebpf4jnsgd1na2vs0mg"},{"bike_id":"546ac6a4-1566-44ed-9366-4d6163a1b669","system_id":"levelo_inurba_marseille","lat":43.30879,"lon":5.39654,"is_reserved":false,"is_disabled":false,"rental_uris":{"android":"levelo://app?vid=546ac6a4-1566-44ed-9366-4d6163a1b669","ios":"levelo://app?vid=546ac6a4-1566-44ed-9366-4d6163a1b669"},"vehicle_type_id":"4","last_reported":1756292920,"current_range_meters":16000,"station_id":"ce4bh012rcd13ifvqcv0","pricing_plan_id":"cebpf4jnsgd1na2vs0mg"},{"bike_id":"651c04c7-c2f3-4258-98c4-2abdeb471500","system_id":"levelo_inurba_marseille","lat":43.265484,"lon":5.373022,"is_reserved":false,"is_disabled":false,"rental_uris":{"android":"levelo://app?vid=651c04c7-c2f3-4258-98c4-2abdeb471500","ios":"levelo://app?vid=651c04c7-c2f3-4258-98c4-2abdeb471500"},"vehicle_type_id":"4","last_reported":1756292920,"current_range_meters":17600,"station_id":"ce4bhg12rcd13ifvqf70","pricing_plan_id":"cebpf4jnsgd1na2vs0mg"},{"bike_id":"8df4d72a-2534-4225-b0d0-5b48bd4c7385","system_id":"levelo_inurba_marseille","lat":43.294397,"lon":5.397617,"is_reserved":false,"is_disabled":false,"rental_uris":{"android":"levelo://app?vid=8df4d72a-2534-4225-b0d0-5b48bd4c7385","ios":"levelo://app?vid=8df4d72a-2534-4225-b0d0-5b48bd4c7385"},"vehicle_type_id":"4","last_reported":1756292920,"current_range_meters":18000,"station_id":"ce4bh3h2rcd13ifvqdo0","pricing_plan_id":"cebpf4jnsgd1na2vs0mg"},{"bike_id":"bc4c6e1c-d694-4a7d-b3af-90d3bb1a77a1","system_id":"levelo_inurba_marseille","lat":43.21195,"lon":5.3507,"is_reserved":false,"is_disabled":false,"rental_uris":{"android":"levelo://app?vid=bc4c6e1c-d694-4a7d-b3af-90d3bb1a77a1","ios":"levelo://app?vid=bc4c6e1c-d694-4a7d-b3af-90d3bb1a77a1"},"vehicle_type_id":"4","last_reported":1756292920,"current_range_meters":18000,"station_id":"st_cvj6sg6p6f1abm77japg","pricing_plan_id":"cebpf4jnsgd1na2vs0mg"},{"bike_id":"75846cdb-5ccb-4eb7-b4f2-e1a19945f801","system_id":"levelo_inurba_marseille","lat":43.31086,"lon":5.38338,"is_reserved":false,"is_disabled":true,"rental_uris":{"android":"levelo://app?vid=75846cdb-5ccb-4eb7-b4f2-e1a19945f801","ios":"levelo://app?vid=75846cdb-5ccb-4eb7-b4f2-e1a19945f801"},"vehicle_type_id":"4","last_reported":1756292920,"current_range_meters":18000,"station_id":"ce4bgv92rcd13ifvqcr0","pricing_plan_id":"cebpf4jnsgd1na2vs0mg"},{"bike_id":"afd8811d-6bcb-4ec0-84cb-052a2decf227","system_id":"levelo_inurba_marseille","lat":43.31531,"lon":5.38041,"is_reserved":false,"is_disabled":false,"rental_uris":{"android":"levelo://app?vid=afd8811d-6bcb-4ec0-84cb-052a2decf227","ios":"levelo://app?vid=afd8811d-6bcb-4ec0-84cb-052a2decf227"},"vehicle_type_id":"4","last_reported":1756292920,"current_range_meters":17600,"station_id":"ce4bhsp2rcd13ifvqi50","pricing_plan_id":"cebpf4jnsgd1na2vs0mg"},{"bike_id":"19bf8938-c3ac-477a-9c27-edd856e98aab","system_id":"levelo_inurba_marseille","lat":43.28097,"lon":5.37827,"is_reserved":false,"is_disabled":false,"rental_uris":{"android":"levelo://app?vid=19bf8938-c3ac-477a-9c27-edd856e98aab","ios":"levelo://app?vid=19bf8938-c3ac-477a-9c27-edd856e98aab"},"vehicle_type_id":"4","last_reported":1756292920,"current_range_meters":18000,"station_id":"ce4bha12rcd13ifvqee0","pricing_plan_id":"cebpf4jnsgd1na2vs0mg"},{"bike_id":"23ae6fed-deff-411b-8b6e-f95e32ccd4d0","system_id":"levelo_inurba_marseille","lat":43.3213,"lon":5.367768,"is_reserved":false,"is_disabled":false,"rental_uris":{"android":"levelo://app?vid=23ae6fed-deff-411b-8b6e-f95e32ccd4d0","ios":"levelo://app?vid=23ae6fed-deff-411b-8b6e-f95e32ccd4d0"},"vehicle_type_id":"4","last_reported":1756292920,"current_range_meters":18000,"station_id":"ce4bhrh2rcd13ifvqhug","pricing_plan_id":"cebpf4jnsgd1na2vs0mg"},{"bike_id":"714d5c3f-5ed0-416d-abfd-48ed1fa771ef","system_id":"levelo_inurba_marseille","lat":43.21194,"lon":5.35065,"is_reserved":false,"is_disabled":false,"rental_uris":{"android":"levelo://app?vid=714d5c3f-5ed0-416d-abfd-48ed1fa771ef","ios":"levelo://app?vid=714d5c3f-5ed0-416d-abfd-48ed1fa771ef"},"vehicle_type_id":"4","last_reported":1756292920,"current_range_meters":18000,"station_id":"st_cvj6sg6p6f1abm77japg","pricing_plan_id":"cebpf4jnsgd1na2vs0mg"},{"bike_id":"05d97e45-19dc-4128-88fe-ffa6fa61464f","system_id":"levelo_inurba_marseille","lat":43.26226,"lon":5.37451,"is_reserved":false,"is_disabled":false,"rental_uris":{"android":"levelo://app?vid=05d97e45-19dc-4128-88fe-ffa6fa61464f","ios":"levelo://app?vid=05d97e45-19dc-4128-88fe-ffa6fa61464f"},"vehicle_type_id":"4","last_reported":1756292920,"current_range_meters":18000,"station_id":"ce4bhgp2rcd13ifvqfc0","pricing_plan_id":"cebpf4jnsgd1na2vs0mg"},{"bike_id":"ca43582f-1faa-43b9-8bc5-434d17ea2f02","system_id":"levelo_inurba_marseille","lat":43.29221,"lon":5.3606,"is_reserved":false,"is_disabled":false,"rental_uris":{"android":"levelo://app?vid=ca43582f-1faa-43b9-8bc5-434d17ea2f02","ios":"levelo://app?vid=ca43582f-1faa-43b9-8bc5-434d17ea2f02"},"vehicle_type_id":"4","last_reported":1756292920,"current_range_meters":18000,"station_id":"ce4bhbh2rcd13ifvqeqg","pricing_plan_id":"cebpf4jnsgd1na2vs0mg"},{"bike_id":"c1968fbf-12d4-4df0-9440-f7a56cc2364e","system_id":"levelo_inurba_marseille","lat":43.28618,"lon":5.35106,"is_reserved":false,"is_disabled":false,"rental_uris":{"android":"levelo://app?vid=c1968fbf-12d4-4df0-9440-f7a56cc2364e","ios":"levelo://app?vid=c1968fbf-12d4-4df0-9440-f7a56cc2364e"},"vehicle_type_id":"4","last_reported":1756292920,"current_range_meters":18000,"station_id":"ce4bhch2rcd13ifvqeug","pricing_plan_id":"cebpf4jnsgd1na2vs0mg"},{"bike_id":"a5111d90-7a2c-4331-ac7f-caad20168099","system_id":"levelo_inurba_marseille","lat":43.26182,"lon":5.3745,"is_reserved":false,"is_disabled":false,"rental_uris":{"android":"levelo://app?vid=a5111d90-7a2c-4331-ac7f-caad20168099","ios":"levelo://app?vid=a5111d90-7a2c-4331-ac7f-caad20168099"},"vehicle_type_id":"4","last_reported":1756292920,"current_range_meters":18000,"station_id":"ce4bhgp2rcd13ifvqfc0","pricing_plan_id":"cebpf4jnsgd1na2vs0mg"},{"bike_id":"e2fbebd2-5cfb-46ea-9a6c-7ce580038f3c","system_id":"levelo_inurba_marseille","lat":43.3175,"lon":5.39039,"is_reserved":false,"is_disabled":false,"rental_uris":{"android":"levelo://app?vid=e2fbebd2-5cfb-46ea-9a6c-7ce580038f3c","ios":"levelo://app?vid=e2fbebd2-5cfb-46ea-9a6c-7ce580038f3c"},"vehicle_type_id":"4","last_reported":1756292920,"current_range_meters":18000,"station_id":"ce4bhqp2rcd13ifvqhng","pricing_plan_id":"cebpf4jnsgd1na2vs0mg"},{"bike_id":"d5f8e77a-4404-45d4-9f42-9008262ed33e","system_id":"levelo_inurba_marseille","lat":43.26677,"lon":5.38261,"is_reserved":false,"is_disabled":false,"rental_uris":{"android":"levelo://app?vid=d5f8e77a-4404-45d4-9f42-9008262ed33e","ios":"levelo://app?vid=d5f8e77a-4404-45d4-9f42-9008262ed33e"},"vehicle_type_id":"4","last_reported":1756292920,"current_range_meters":18800,"station_id":"ce4bhg92rcd13ifvqf90","pricing_plan_id":"cebpf4jnsgd1na2vs0mg"},{"bike_id":"1091f287-02ee-4a66-888b-59c35fd65791","system_id":"levelo_inurba_marseille","lat":43.231855,"lon":5.35554,"is_reserved":false,"is_disabled":false,"rental_uris":{"android":"levelo://app?vid=1091f287-02ee-4a66-888b-59c35fd65791","ios":"levelo://app?vid=1091f287-02ee-4a66-888b-59c35fd65791"},"vehicle_type_id":"4","last_reported":1756292920,"current_range_meters":18800,"station_id":"ce4bhu92rcd13ifvqi70","pricing_plan_id":"cebpf4jnsgd1na2vs0mg"},{"bike_id":"64d71690-a1ff-46c5-8b53-847ec594fbff","system_id":"levelo_inurba_marseille","lat":43.30437,"lon":5.41254,"is_reserved":false,"is_disabled":false,"rental_uris":{"android":"levelo://app?vid=64d71690-a1ff-46c5-8b53-847ec594fbff","ios":"levelo://app?vid=64d71690-a1ff-46c5-8b53-847ec594fbff"},"vehicle_type_id":"4","last_reported":1756292920,"current_range_meters":18800,"station_id":"ce4bhop2rcd13ifvqh8g","pricing_plan_id":"cebpf4jnsgd1na2vs0mg"},{"bike_id":"ec0f9f0d-0796-42ac-9cf5-bb8596cdf342","system_id":"levelo_inurba_marseille","lat":43.21172,"lon":5.35083,"is_reserved":false,"is_disabled":false,"rental_uris":{"android":"levelo://app?vid=ec0f9f0d-0796-42ac-9cf5-bb8596cdf342","ios":"levelo://app?vid=ec0f9f0d-0796-42ac-9cf5-bb8596cdf342"},"vehicle_type_id":"4","last_reported":1756292920,"current_range_meters":18800,"station_id":"","pricing_plan_id":"cebpf4jnsgd1na2vs0mg"},{"bike_id":"95973e18-1339-4596-a205-8df1bd7fef1f","system_id":"levelo_inurba_marseille","lat":43.23194,"lon":5.35555,"is_reserved":false,"is_disabled":false,"rental_uris":{"android":"levelo://app?vid=95973e18-1339-4596-a205-8df1bd7fef1f","ios":"levelo://app?vid=95973e18-1339-4596-a205-8df1bd7fef1f"},"vehicle_type_id":"4","last_reported":1756292920,"current_range_meters":18800,"station_id":"ce4bhu92rcd13ifvqi70","pricing_plan_id":"cebpf4jnsgd1na2vs0mg"},{"bike_id":"7f96cfc7-6b62-4cd3-a164-5a1ee471a17d","system_id":"levelo_inurba_marseille","lat":43.30546,"lon":5.36551,"is_reserved":false,"is_disabled":false,"rental_uris":{"android":"levelo://app?vid=7f96cfc7-6b62-4cd3-a164-5a1ee471a17d","ios":"levelo://app?vid=7f96cfc7-6b62-4cd3-a164-5a1ee471a17d"},"vehicle_type_id":"4","last_reported":1756292920,"current_range_meters":18800,"station_id":"ce4bgs12rcd13ifvqcag","pricing_plan_id":"cebpf4jnsgd1na2vs0mg"},{"bike_id":"98fd0442-d223-4ab6-99b3-86de3db27ae3","system_id":"levelo_inurba_marseille","lat":43.3052,"lon":5.36554,"is_reserved":false,"is_disabled":false,"rental_uris":{"android":"levelo://app?vid=98fd0442-d223-4ab6-99b3-86de3db27ae3","ios":"levelo://app?vid=98fd0442-d223-4ab6-99b3-86de3db27ae3"},"vehicle_type_id":"4","last_reported":1756292920,"current_range_meters":18800,"station_id":"ce4bgs12rcd13ifvqcag","pricing_plan_id":"cebpf4jnsgd1na2vs0mg"},{"bike_id":"1ec8b81b-517b-4e4a-8544-7fa1a53b41c4","system_id":"levelo_inurba_marseille","lat":43.27204,"lon":5.39185,"is_reserved":false,"is_disabled":false,"rental_uris":{"android":"levelo://app?vid=1ec8b81b-517b-4e4a-8544-7fa1a53b41c4","ios":"levelo://app?vid=1ec8b81b-517b-4e4a-8544-7fa1a53b41c4"},"vehicle_type_id":"4","last_reported":1756292920,"current_range_meters":18800,"station_id":"ce4bhhp2rcd13ifvqfm0","pricing_plan_id":"cebpf4jnsgd1na2vs0mg"},{"bike_id":"273eac3d-362a-419b-83a2-2423e6e318c7","system_id":"levelo_inurba_marseille","lat":43.28485,"lon":5.38425,"is_reserved":false,"is_disabled":false,"rental_uris":{"android":"levelo://app?vid=273eac3d-362a-419b-83a2-2423e6e318c7","ios":"levelo://app?vid=273eac3d-362a-419b-83a2-2423e6e318c7"},"vehicle_type_id":"4","last_reported":1756292920,"current_range_meters":19200,"station_id":"","pricing_plan_id":"cebpf4jnsgd1na2vs0mg"},{"bike_id":"2c246624-962d-4f72-8341-3c6523db29ef","system_id":"levelo_inurba_marseille","lat":43.26556,"lon":5.37276,"is_reserved":false,"is_disabled":true,"rental_uris":{"android":"levelo://app?vid=2c246624-962d-4f72-8341-3c6523db29ef","ios":"levelo://app?vid=2c246624-962d-4f72-8341-3c6523db29ef"},"vehicle_type_id":"4","last_reported":1756292920,"current_range_meters":19200,"station_id":"ce4bhg12rcd13ifvqf70","pricing_plan_id":"cebpf4jnsgd1na2vs0mg"},{"bike_id":"797abf54-96d6-4c79-b182-365fb66c7f57","system_id":"levelo_inurba_marseille","lat":43.28073,"lon":5.39649,"is_reserved":false,"is_disabled":false,"rental_uris":{"android":"levelo://app?vid=797abf54-96d6-4c79-b182-365fb66c7f57","ios":"levelo://app?vid=797abf54-96d6-4c79-b182-365fb66c7f57"},"vehicle_type_id":"4","last_reported":1756292920,"current_range_meters":19200,"station_id":"ce4bho12rcd13ifvqh2g","pricing_plan_id":"cebpf4jnsgd1na2vs0mg"},{"bike_id":"e6355257-0814-4cf5-8dbe-cf3412b6ec52","system_id":"levelo_inurba_marseille","lat":43.271914,"lon":5.410003,"is_reserved":false,"is_disabled":false,"rental_uris":{"android":"levelo://app?vid=e6355257-0814-4cf5-8dbe-cf3412b6ec52","ios":"levelo://app?vid=e6355257-0814-4cf5-8dbe-cf3412b6ec52"},"vehicle_type_id":"4","last_reported":1756292920,"current_range_meters":19200,"station_id":"ce4bhl12rcd13ifvqgf0","pricing_plan_id":"cebpf4jnsgd1na2vs0mg"},{"bike_id":"5c9729a9-14ab-45c9-8df1-449545c4b230","system_id":"levelo_inurba_marseille","lat":43.29586,"lon":5.375227,"is_reserved":false,"is_disabled":false,"rental_uris":{"android":"levelo://app?vid=5c9729a9-14ab-45c9-8df1-449545c4b230","ios":"levelo://app?vid=5c9729a9-14ab-45c9-8df1-449545c4b230"},"vehicle_type_id":"4","last_reported":1756292920,"current_range_meters":19600,"station_id":"","pricing_plan_id":"cebpf4jnsgd1na2vs0mg"},{"bike_id":"d5ddba13-42df-4115-9aa1-5bdce53e55a3","system_id":"levelo_inurba_marseille","lat":43.305413,"lon":5.365297,"is_reserved":false,"is_disabled":false,"rental_uris":{"android":"levelo://app?vid=d5ddba13-42df-4115-9aa1-5bdce53e55a3","ios":"levelo://app?vid=d5ddba13-42df-4115-9aa1-5bdce53e55a3"},"vehicle_type_id":"4","last_reported":1756292920,"current_range_meters":19600,"station_id":"ce4bgs12rcd13ifvqcag","pricing_plan_id":"cebpf4jnsgd1na2vs0mg"},{"bike_id":"831a2354-0919-4530-8e5a-84c32dcc2c03","system_id":"levelo_inurba_marseille","lat":43.272052,"lon":5.391826,"is_reserved":false,"is_disabled":false,"rental_uris":{"android":"levelo://app?vid=831a2354-0919-4530-8e5a-84c32dcc2c03","ios":"levelo://app?vid=831a2354-0919-4530-8e5a-84c32dcc2c03"},"vehicle_type_id":"4","last_reported":1756292920,"current_range_meters":19600,"station_id":"","pricing_plan_id":"cebpf4jnsgd1na2vs0mg"},{"bike_id":"41206d24-710d-406c-91e0-c06bb1a64813","system_id":"levelo_inurba_marseille","lat":43.30569,"lon":5.36555,"is_reserved":false,"is_disabled":false,"rental_uris":{"android":"levelo://app?vid=41206d24-710d-406c-91e0-c06bb1a64813","ios":"levelo://app?vid=41206d24-710d-406c-91e0-c06bb1a64813"},"vehicle_type_id":"4","last_reported":1756292920,"current_range_meters":19600,"station_id":"ce4bgs12rcd13ifvqcag","pricing_plan_id":"cebpf4jnsgd1na2vs0mg"},{"bike_id":"634e033e-c6c9-4f6d-b24f-082380d9fed5","system_id":"levelo_inurba_marseille","lat":43.30261,"lon":5.40064,"is_reserved":false,"is_disabled":false,"rental_uris":{"android":"levelo://app?vid=634e033e-c6c9-4f6d-b24f-082380d9fed5","ios":"levelo://app?vid=634e033e-c6c9-4f6d-b24f-082380d9fed5"},"vehicle_type_id":"4","last_reported":1756292920,"current_range_meters":19600,"station_id":"ce4bgvh2rcd13ifvqcs0","pricing_plan_id":"cebpf4jnsgd1na2vs0mg"},{"bike_id":"07296681-3400-48d5-88e2-c863a00e5bf3","system_id":"levelo_inurba_marseille","lat":43.22916,"lon":5.35388,"is_reserved":false,"is_disabled":false,"rental_uris":{"android":"levelo://app?vid=07296681-3400-48d5-88e2-c863a00e5bf3","ios":"levelo://app?vid=07296681-3400-48d5-88e2-c863a00e5bf3"},"vehicle_type_id":"4","last_reported":1756292920,"current_range_meters":19600,"station_id":"cpo3532slgdg3j2ikp40","pricing_plan_id":"cebpf4jnsgd1na2vs0mg"},{"bike_id":"695fe601-935a-43bf-867a-8f29bf893287","system_id":"levelo_inurba_marseille","lat":43.23059,"lon":5.35497,"is_reserved":false,"is_disabled":false,"rental_uris":{"android":"levelo://app?vid=695fe601-935a-43bf-867a-8f29bf893287","ios":"levelo://app?vid=695fe601-935a-43bf-867a-8f29bf893287"},"vehicle_type_id":"4","last_reported":1756292920,"current_range_meters":19600,"station_id":"cpo3342slgdg3j2ifvpg","pricing_plan_id":"cebpf4jnsgd1na2vs0mg"},{"bike_id":"0360a5ff-a0b5-4e93-bc3b-718c480be5db","system_id":"levelo_inurba_marseille","lat":43.23199,"lon":5.39971,"is_reserved":false,"is_disabled":false,"rental_uris":{"android":"levelo://app?vid=0360a5ff-a0b5-4e93-bc3b-718c480be5db","ios":"levelo://app?vid=0360a5ff-a0b5-4e93-bc3b-718c480be5db"},"vehicle_type_id":"4","last_reported":1756292920,"current_range_meters":19600,"station_id":"ce4bhn12rcd13ifvqgqg","pricing_plan_id":"cebpf4jnsgd1na2vs0mg"},{"bike_id":"9be084f1-f5bd-4a1e-ab52-b30ba261af56","system_id":"levelo_inurba_marseille","lat":43.28269,"lon":5.35057,"is_reserved":false,"is_disabled":false,"rental_uris":{"android":"levelo://app?vid=9be084f1-f5bd-4a1e-ab52-b30ba261af56","ios":"levelo://app?vid=9be084f1-f5bd-4a1e-ab52-b30ba261af56"},"vehicle_type_id":"4","last_reported":1756292920,"current_range_meters":18800,"station_id":"ce4bhbp2rcd13ifvqerg","pricing_plan_id":"cebpf4jnsgd1na2vs0mg"},{"bike_id":"a71d0bca-bc7c-4692-bf55-794c9f5c67fc","system_id":"levelo_inurba_marseille","lat":43.305187,"lon":5.365501,"is_reserved":false,"is_disabled":false,"rental_uris":{"android":"levelo://app?vid=a71d0bca-bc7c-4692-bf55-794c9f5c67fc","ios":"levelo://app?vid=a71d0bca-bc7c-4692-bf55-794c9f5c67fc"},"vehicle_type_id":"4","last_reported":1756292920,"current_range_meters":19600,"station_id":"ce4bgs12rcd13ifvqcag","pricing_plan_id":"cebpf4jnsgd1na2vs0mg"},{"bike_id":"03080dce-1f55-4d92-8992-940a7cb2a486","system_id":"levelo_inurba_marseille","lat":43.21761,"lon":5.34604,"is_reserved":false,"is_disabled":false,"rental_uris":{"android":"levelo://app?vid=03080dce-1f55-4d92-8992-940a7cb2a486","ios":"levelo://app?vid=03080dce-1f55-4d92-8992-940a7cb2a486"},"vehicle_type_id":"4","last_reported":1756292920,"current_range_meters":20000,"station_id":"st_cvj6r9ubvosntc0bgbag","pricing_plan_id":"cebpf4jnsgd1na2vs0mg"},{"bike_id":"f59219bd-e145-4003-b170-75a19dc3bd8e","system_id":"levelo_inurba_marseille","lat":43.322948,"lon":5.38265,"is_reserved":false,"is_disabled":false,"rental_uris":{"android":"levelo://app?vid=f59219bd-e145-4003-b170-75a19dc3bd8e","ios":"levelo://app?vid=f59219bd-e145-4003-b170-75a19dc3bd8e"},"vehicle_type_id":"4","last_reported":1756292920,"current_range_meters":20000,"station_id":"ce4bhr12rcd13ifvqhqg","pricing_plan_id":"cebpf4jnsgd1na2vs0mg"},{"bike_id":"20c40bc5-0fe7-4d2a-aeac-3e4dba377090","system_id":"levelo_inurba_marseille","lat":43.31482,"lon":5.37287,"is_reserved":false,"is_disabled":false,"rental_uris":{"android":"levelo://app?vid=20c40bc5-0fe7-4d2a-aeac-3e4dba377090","ios":"levelo://app?vid=20c40bc5-0fe7-4d2a-aeac-3e4dba377090"},"vehicle_type_id":"4","last_reported":1756292920,"current_range_meters":20000,"station_id":"ce4bgt12rcd13ifvqcd0","pricing_plan_id":"cebpf4jnsgd1na2vs0mg"},{"bike_id":"abc97344-a317-43d8-a6b4-a0d141cf31fe","system_id":"levelo_inurba_marseille","lat":43.30533,"lon":5.38434,"is_reserved":false,"is_disabled":false,"rental_uris":{"android":"levelo://app?vid=abc97344-a317-43d8-a6b4-a0d141cf31fe","ios":"levelo://app?vid=abc97344-a317-43d8-a6b4-a0d141cf31fe"},"vehicle_type_id":"4","last_reported":1756292920,"current_range_meters":20000,"station_id":"ce4bgg92rcd13ifvqb30","pricing_plan_id":"cebpf4jnsgd1na2vs0mg"},{"bike_id":"275304f1-90f0-4ecf-9cb1-10df96313acf","system_id":"levelo_inurba_marseille","lat":43.2991,"lon":5.37475,"is_reserved":false,"is_disabled":false,"rental_uris":{"android":"levelo://app?vid=275304f1-90f0-4ecf-9cb1-10df96313acf","ios":"levelo://app?vid=275304f1-90f0-4ecf-9cb1-10df96313acf"},"vehicle_type_id":"4","last_reported":1756292920,"current_range_meters":20000,"station_id":"ce4bgjh2rcd13ifvqbg0","pricing_plan_id":"cebpf4jnsgd1na2vs0mg"},{"bike_id":"00865bff-72de-47be-acda-9cf6ec16a836","system_id":"levelo_inurba_marseille","lat":43.32093,"lon":5.36776,"is_reserved":false,"is_disabled":false,"rental_uris":{"android":"levelo://app?vid=00865bff-72de-47be-acda-9cf6ec16a836","ios":"levelo://app?vid=00865bff-72de-47be-acda-9cf6ec16a836"},"vehicle_type_id":"4","last_reported":1756292920,"current_range_meters":20000,"station_id":"ce4bhrh2rcd13ifvqhug","pricing_plan_id":"cebpf4jnsgd1na2vs0mg"},{"bike_id":"a8c4a86a-3324-4fab-80e0-61d00eb6f086","system_id":"levelo_inurba_marseille","lat":43.29001,"lon":5.3562,"is_reserved":false,"is_disabled":false,"rental_uris":{"android":"levelo://app?vid=a8c4a86a-3324-4fab-80e0-61d00eb6f086","ios":"levelo://app?vid=a8c4a86a-3324-4fab-80e0-61d00eb6f086"},"vehicle_type_id":"4","last_reported":1756292920,"current_range_meters":20000,"station_id":"ce4bhb92rcd13ifvqen0","pricing_plan_id":"cebpf4jnsgd1na2vs0mg"},{"bike_id":"e6d0c6cc-a89b-4c8d-b488-d35f1c6966c2","system_id":"levelo_inurba_marseille","lat":43.31687,"lon":5.40472,"is_reserved":false,"is_disabled":false,"rental_uris":{"android":"levelo://app?vid=e6d0c6cc-a89b-4c8d-b488-d35f1c6966c2","ios":"levelo://app?vid=e6d0c6cc-a89b-4c8d-b488-d35f1c6966c2"},"vehicle_type_id":"4","last_reported":1756292920,"current_range_meters":20000,"station_id":"ce4bh012rcd13ifvqd00","pricing_plan_id":"cebpf4jnsgd1na2vs0mg"},{"bike_id":"c7947910-f6df-4351-95cb-ad7cab6a3f07","system_id":"levelo_inurba_marseille","lat":43.307871,"lon":5.376491,"is_reserved":false,"is_disabled":true,"rental_uris":{"android":"levelo://app?vid=c7947910-f6df-4351-95cb-ad7cab6a3f07","ios":"levelo://app?vid=c7947910-f6df-4351-95cb-ad7cab6a3f07"},"vehicle_type_id":"4","last_reported":1756292920,"current_range_meters":20000,"station_id":"ce4bgv92rcd13ifvqcq0","pricing_plan_id":"cebpf4jnsgd1na2vs0mg"},{"bike_id":"29c55d68-58c5-4ef2-b442-72bb9c55ddb0","system_id":"levelo_inurba_marseille","lat":43.3237,"lon":5.36759,"is_reserved":false,"is_disabled":false,"rental_uris":{"android":"levelo://app?vid=29c55d68-58c5-4ef2-b442-72bb9c55ddb0","ios":"levelo://app?vid=29c55d68-58c5-4ef2-b442-72bb9c55ddb0"},"vehicle_type_id":"4","last_reported":1756292920,"current_range_meters":20000,"station_id":"ce4bhsh2rcd13ifvqi2g","pricing_plan_id":"cebpf4jnsgd1na2vs0mg"},{"bike_id":"9b376013-1b8a-4834-bd67-7c283f5ae10a","system_id":"levelo_inurba_marseille","lat":43.32338,"lon":5.40615,"is_reserved":false,"is_disabled":false,"rental_uris":{"android":"levelo://app?vid=9b376013-1b8a-4834-bd67-7c283f5ae10a","ios":"levelo://app?vid=9b376013-1b8a-4834-bd67-7c283f5ae10a"},"vehicle_type_id":"4","last_reported":1756292920,"current_range_meters":20400,"station_id":"ce4bhq92rcd13ifvqhjg","pricing_plan_id":"cebpf4jnsgd1na2vs0mg"},{"bike_id":"8e461108-c550-4fb0-ad47-afd78d4c1ee1","system_id":"levelo_inurba_marseille","lat":43.22928,"lon":5.35371,"is_reserved":false,"is_disabled":false,"rental_uris":{"android":"levelo://app?vid=8e461108-c550-4fb0-ad47-afd78d4c1ee1","ios":"levelo://app?vid=8e461108-c550-4fb0-ad47-afd78d4c1ee1"},"vehicle_type_id":"4","last_reported":1756292920,"current_range_meters":20400,"station_id":"cpo3532slgdg3j2ikp40","pricing_plan_id":"cebpf4jnsgd1na2vs0mg"},{"bike_id":"43fb1eda-8f7d-4377-9b57-f38a0ecb5909","system_id":"levelo_inurba_marseille","lat":43.26206,"lon":5.37451,"is_reserved":false,"is_disabled":false,"rental_uris":{"android":"levelo://app?vid=43fb1eda-8f7d-4377-9b57-f38a0ecb5909","ios":"levelo://app?vid=43fb1eda-8f7d-4377-9b57-f38a0ecb5909"},"vehicle_type_id":"4","last_reported":1756292920,"current_range_meters":20400,"station_id":"ce4bhgp2rcd13ifvqfc0","pricing_plan_id":"cebpf4jnsgd1na2vs0mg"},{"bike_id":"efdd5748-f8fc-4667-80db-927ea43ee301","system_id":"levelo_inurba_marseille","lat":43.27995,"lon":5.41656,"is_reserved":false,"is_disabled":false,"rental_uris":{"android":"levelo://app?vid=efdd5748-f8fc-4667-80db-927ea43ee301","ios":"levelo://app?vid=efdd5748-f8fc-4667-80db-927ea43ee301"},"vehicle_type_id":"4","last_reported":1756292920,"current_range_meters":20400,"station_id":"ce4bho12rcd13ifvqh1g","pricing_plan_id":"cebpf4jnsgd1na2vs0mg"},{"bike_id":"da4f82ed-e6c0-4141-96eb-c1599ae89be4","system_id":"levelo_inurba_marseille","lat":43.2719,"lon":5.40128,"is_reserved":false,"is_disabled":false,"rental_uris":{"android":"levelo://app?vid=da4f82ed-e6c0-4141-96eb-c1599ae89be4","ios":"levelo://app?vid=da4f82ed-e6c0-4141-96eb-c1599ae89be4"},"vehicle_type_id":"4","last_reported":1756292920,"current_range_meters":20400,"station_id":"","pricing_plan_id":"cebpf4jnsgd1na2vs0mg"},{"bike_id":"8e8106e7-2d4d-4574-be42-13333a08c600","system_id":"levelo_inurba_marseille","lat":43.26804,"lon":5.40262,"is_reserved":false,"is_disabled":false,"rental_uris":{"android":"levelo://app?vid=8e8106e7-2d4d-4574-be42-13333a08c600","ios":"levelo://app?vid=8e8106e7-2d4d-4574-be42-13333a08c600"},"vehicle_type_id":"4","last_reported":1756292920,"current_range_meters":20400,"station_id":"ce501612rcd8frsf0b60","pricing_plan_id":"cebpf4jnsgd1na2vs0mg"},{"bike_id":"8995d051-3d4a-4bfd-b4ef-e2bb6adc8631","system_id":"levelo_inurba_marseille","lat":43.269567,"lon":5.386173,"is_reserved":false,"is_disabled":false,"rental_uris":{"android":"levelo://app?vid=8995d051-3d4a-4bfd-b4ef-e2bb6adc8631","ios":"levelo://app?vid=8995d051-3d4a-4bfd-b4ef-e2bb6adc8631"},"vehicle_type_id":"4","last_reported":1756292920,"current_range_meters":20400,"station_id":"","pricing_plan_id":"cebpf4jnsgd1na2vs0mg"},{"bike_id":"bb732d82-fb02-4e1d-bff0-a697a0044a92","system_id":"levelo_inurba_marseille","lat":43.28473,"lon":5.38418,"is_reserved":false,"is_disabled":false,"rental_uris":{"android":"levelo://app?vid=bb732d82-fb02-4e1d-bff0-a697a0044a92","ios":"levelo://app?vid=bb732d82-fb02-4e1d-bff0-a697a0044a92"},"vehicle_type_id":"4","last_reported":1756292920,"current_range_meters":19600,"station_id":"ce4bh512rcd13ifvqe3g","pricing_plan_id":"cebpf4jnsgd1na2vs0mg"},{"bike_id":"b097d236-1c29-411e-9c91-3d4a91d8cb88","system_id":"levelo_inurba_marseille","lat":43.29614,"lon":5.37725,"is_reserved":false,"is_disabled":false,"rental_uris":{"android":"levelo://app?vid=b097d236-1c29-411e-9c91-3d4a91d8cb88","ios":"levelo://app?vid=b097d236-1c29-411e-9c91-3d4a91d8cb88"},"vehicle_type_id":"4","last_reported":1756292920,"current_range_meters":20400,"station_id":"ce4bgi92rcd13ifvqb90","pricing_plan_id":"cebpf4jnsgd1na2vs0mg"},{"bike_id":"fd3264d9-d6d9-41c6-bdae-fe1f328ad6ea","system_id":"levelo_inurba_marseille","lat":43.28471,"lon":5.38416,"is_reserved":false,"is_disabled":false,"rental_uris":{"android":"levelo://app?vid=fd3264d9-d6d9-41c6-bdae-fe1f328ad6ea","ios":"levelo://app?vid=fd3264d9-d6d9-41c6-bdae-fe1f328ad6ea"},"vehicle_type_id":"4","last_reported":1756292920,"current_range_meters":20400,"station_id":"ce4bh512rcd13ifvqe3g","pricing_plan_id":"cebpf4jnsgd1na2vs0mg"},{"bike_id":"349ab00a-80d1-4180-a8b3-a7b19c36570e","system_id":"levelo_inurba_marseille","lat":43.28706,"lon":5.3794,"is_reserved":false,"is_disabled":false,"rental_uris":{"android":"levelo://app?vid=349ab00a-80d1-4180-a8b3-a7b19c36570e","ios":"levelo://app?vid=349ab00a-80d1-4180-a8b3-a7b19c36570e"},"vehicle_type_id":"4","last_reported":1756292920,"current_range_meters":18800,"station_id":"ce4bh9p2rcd13ifvqec0","pricing_plan_id":"cebpf4jnsgd1na2vs0mg"},{"bike_id":"034c2756-659a-4cd2-88d3-5edc11dfe03b","system_id":"levelo_inurba_marseille","lat":43.23178,"lon":5.3999,"is_reserved":false,"is_disabled":false,"rental_uris":{"android":"levelo://app?vid=034c2756-659a-4cd2-88d3-5edc11dfe03b","ios":"levelo://app?vid=034c2756-659a-4cd2-88d3-5edc11dfe03b"},"vehicle_type_id":"4","last_reported":1756292920,"current_range_meters":20800,"station_id":"ce4bhn12rcd13ifvqgqg","pricing_plan_id":"cebpf4jnsgd1na2vs0mg"},{"bike_id":"0eb856e3-807d-4866-977d-46d4eb17c322","system_id":"levelo_inurba_marseille","lat":43.317026,"lon":5.377534,"is_reserved":false,"is_disabled":false,"rental_uris":{"android":"levelo://app?vid=0eb856e3-807d-4866-977d-46d4eb17c322","ios":"levelo://app?vid=0eb856e3-807d-4866-977d-46d4eb17c322"},"vehicle_type_id":"4","last_reported":1756292920,"current_range_meters":20800,"station_id":"ce4bgth2rcd13ifvqch0","pricing_plan_id":"cebpf4jnsgd1na2vs0mg"},{"bike_id":"c49fc999-d667-49b3-a295-acf17ab550d3","system_id":"levelo_inurba_marseille","lat":43.28465,"lon":5.38415,"is_reserved":false,"is_disabled":false,"rental_uris":{"android":"levelo://app?vid=c49fc999-d667-49b3-a295-acf17ab550d3","ios":"levelo://app?vid=c49fc999-d667-49b3-a295-acf17ab550d3"},"vehicle_type_id":"4","last_reported":1756292920,"current_range_meters":20800,"station_id":"ce4bh512rcd13ifvqe3g","pricing_plan_id":"cebpf4jnsgd1na2vs0mg"},{"bike_id":"c04f4cd4-1fbf-4ed2-ac09-f0c4945aa47c","system_id":"levelo_inurba_marseille","lat":43.24651,"lon":5.38887,"is_reserved":false,"is_disabled":false,"rental_uris":{"android":"levelo://app?vid=c04f4cd4-1fbf-4ed2-ac09-f0c4945aa47c","ios":"levelo://app?vid=c04f4cd4-1fbf-4ed2-ac09-f0c4945aa47c"},"vehicle_type_id":"4","last_reported":1756292920,"current_range_meters":20800,"station_id":"ce4bhg12rcd13ifvqf60","pricing_plan_id":"cebpf4jnsgd1na2vs0mg"},{"bike_id":"d4411ce1-1269-4134-adda-1eb61c16980f","system_id":"levelo_inurba_marseille","lat":43.28097,"lon":5.37844,"is_reserved":false,"is_disabled":true,"rental_uris":{"android":"levelo://app?vid=d4411ce1-1269-4134-adda-1eb61c16980f","ios":"levelo://app?vid=d4411ce1-1269-4134-adda-1eb61c16980f"},"vehicle_type_id":"4","last_reported":1756292920,"current_range_meters":21600,"station_id":"ce4bha12rcd13ifvqee0","pricing_plan_id":"cebpf4jnsgd1na2vs0mg"},{"bike_id":"4d8bfb0e-2ab6-4b86-a66d-54cc6b68139f","system_id":"levelo_inurba_marseille","lat":43.31165,"lon":5.36864,"is_reserved":false,"is_disabled":false,"rental_uris":{"android":"levelo://app?vid=4d8bfb0e-2ab6-4b86-a66d-54cc6b68139f","ios":"levelo://app?vid=4d8bfb0e-2ab6-4b86-a66d-54cc6b68139f"},"vehicle_type_id":"4","last_reported":1756292920,"current_range_meters":21600,"station_id":"","pricing_plan_id":"cebpf4jnsgd1na2vs0mg"},{"bike_id":"e81a1e92-12ee-49e3-b0c7-28e700da5ebd","system_id":"levelo_inurba_marseille","lat":43.29673,"lon":5.37762,"is_reserved":false,"is_disabled":false,"rental_uris":{"android":"levelo://app?vid=e81a1e92-12ee-49e3-b0c7-28e700da5ebd","ios":"levelo://app?vid=e81a1e92-12ee-49e3-b0c7-28e700da5ebd"},"vehicle_type_id":"4","last_reported":1756292920,"current_range_meters":21600,"station_id":"ce4bgkh2rcd13ifvqbl0","pricing_plan_id":"cebpf4jnsgd1na2vs0mg"},{"bike_id":"c78daf32-b9db-465e-b244-15d8de641b37","system_id":"levelo_inurba_marseille","lat":43.314831,"lon":5.373074,"is_reserved":false,"is_disabled":false,"rental_uris":{"android":"levelo://app?vid=c78daf32-b9db-465e-b244-15d8de641b37","ios":"levelo://app?vid=c78daf32-b9db-465e-b244-15d8de641b37"},"vehicle_type_id":"4","last_reported":1756292920,"current_range_meters":21600,"station_id":"ce4bgt12rcd13ifvqcd0","pricing_plan_id":"cebpf4jnsgd1na2vs0mg"},{"bike_id":"152991b6-cb71-4c71-8b74-02feb30c2d3b","system_id":"levelo_inurba_marseille","lat":43.3043,"lon":5.37932,"is_reserved":false,"is_disabled":false,"rental_uris":{"android":"levelo://app?vid=152991b6-cb71-4c71-8b74-02feb30c2d3b","ios":"levelo://app?vid=152991b6-cb71-4c71-8b74-02feb30c2d3b"},"vehicle_type_id":"4","last_reported":1756292920,"current_range_meters":21600,"station_id":"ce4bgup2rcd13ifvqcn0","pricing_plan_id":"cebpf4jnsgd1na2vs0mg"},{"bike_id":"93b868f4-a766-49ae-b008-83b7cbc97de2","system_id":"levelo_inurba_marseille","lat":43.28077,"lon":5.39666,"is_reserved":false,"is_disabled":false,"rental_uris":{"android":"levelo://app?vid=93b868f4-a766-49ae-b008-83b7cbc97de2","ios":"levelo://app?vid=93b868f4-a766-49ae-b008-83b7cbc97de2"},"vehicle_type_id":"4","last_reported":1756292920,"current_range_meters":21600,"station_id":"ce4bho12rcd13ifvqh2g","pricing_plan_id":"cebpf4jnsgd1na2vs0mg"},{"bike_id":"95757d56-8c89-42b1-ae72-7859d5b6af3c","system_id":"levelo_inurba_marseille","lat":43.30223,"lon":5.39465,"is_reserved":false,"is_disabled":false,"rental_uris":{"android":"levelo://app?vid=95757d56-8c89-42b1-ae72-7859d5b6af3c","ios":"levelo://app?vid=95757d56-8c89-42b1-ae72-7859d5b6af3c"},"vehicle_type_id":"4","last_reported":1756292920,"current_range_meters":21600,"station_id":"ce4bh0p2rcd13ifvqd70","pricing_plan_id":"cebpf4jnsgd1na2vs0mg"},{"bike_id":"997bcc02-6c3f-4c05-aee6-6c221b841212","system_id":"levelo_inurba_marseille","lat":43.28708,"lon":5.37937,"is_reserved":false,"is_disabled":false,"rental_uris":{"android":"levelo://app?vid=997bcc02-6c3f-4c05-aee6-6c221b841212","ios":"levelo://app?vid=997bcc02-6c3f-4c05-aee6-6c221b841212"},"vehicle_type_id":"4","last_reported":1756292920,"current_range_meters":21600,"station_id":"ce4bh9p2rcd13ifvqec0","pricing_plan_id":"cebpf4jnsgd1na2vs0mg"},{"bike_id":"f288ee60-a0aa-4e47-a9dd-51fa1334857d","system_id":"levelo_inurba_marseille","lat":43.2993,"lon":5.37219,"is_reserved":false,"is_disabled":false,"rental_uris":{"android":"levelo://app?vid=f288ee60-a0aa-4e47-a9dd-51fa1334857d","ios":"levelo://app?vid=f288ee60-a0aa-4e47-a9dd-51fa1334857d"},"vehicle_type_id":"4","last_reported":1756292920,"current_range_meters":21600,"station_id":"ce4bgr92rcd13ifvqc7g","pricing_plan_id":"cebpf4jnsgd1na2vs0mg"},{"bike_id":"6d3a8ddd-5510-4cb9-9083-3cdfcbf61a69","system_id":"levelo_inurba_marseille","lat":43.30418,"lon":5.41281,"is_reserved":false,"is_disabled":false,"rental_uris":{"android":"levelo://app?vid=6d3a8ddd-5510-4cb9-9083-3cdfcbf61a69","ios":"levelo://app?vid=6d3a8ddd-5510-4cb9-9083-3cdfcbf61a69"},"vehicle_type_id":"4","last_reported":1756292920,"current_range_meters":22400,"station_id":"ce4bhop2rcd13ifvqh8g","pricing_plan_id":"cebpf4jnsgd1na2vs0mg"},{"bike_id":"5d80ac63-7b56-47cb-a225-0bb8cfc56b16","system_id":"levelo_inurba_marseille","lat":43.2827,"lon":5.3506,"is_reserved":false,"is_disabled":false,"rental_uris":{"android":"levelo://app?vid=5d80ac63-7b56-47cb-a225-0bb8cfc56b16","ios":"levelo://app?vid=5d80ac63-7b56-47cb-a225-0bb8cfc56b16"},"vehicle_type_id":"4","last_reported":1756292920,"current_range_meters":20400,"station_id":"ce4bhbp2rcd13ifvqerg","pricing_plan_id":"cebpf4jnsgd1na2vs0mg"},{"bike_id":"ac889f74-7285-4425-b8fa-596a8fed6ce8","system_id":"levelo_inurba_marseille","lat":43.30317,"lon":5.40438,"is_reserved":false,"is_disabled":false,"rental_uris":{"android":"levelo://app?vid=ac889f74-7285-4425-b8fa-596a8fed6ce8","ios":"levelo://app?vid=ac889f74-7285-4425-b8fa-596a8fed6ce8"},"vehicle_type_id":"4","last_reported":1756292920,"current_range_meters":21600,"station_id":"ce4bh012rcd13ifvqd10","pricing_plan_id":"cebpf4jnsgd1na2vs0mg"},{"bike_id":"c8ed8afa-4750-4d5e-b29e-7da3cd8f4dc7","system_id":"levelo_inurba_marseille","lat":43.32326,"lon":5.36596,"is_reserved":false,"is_disabled":false,"rental_uris":{"android":"levelo://app?vid=c8ed8afa-4750-4d5e-b29e-7da3cd8f4dc7","ios":"levelo://app?vid=c8ed8afa-4750-4d5e-b29e-7da3cd8f4dc7"},"vehicle_type_id":"4","last_reported":1756292920,"current_range_meters":21600,"station_id":"ce4bhsh2rcd13ifvqi2g","pricing_plan_id":"cebpf4jnsgd1na2vs0mg"},{"bike_id":"25e5b5d8-a3c9-4e79-8d85-80adeeccbd27","system_id":"levelo_inurba_marseille","lat":43.3054,"lon":5.36437,"is_reserved":false,"is_disabled":false,"rental_uris":{"android":"levelo://app?vid=25e5b5d8-a3c9-4e79-8d85-80adeeccbd27","ios":"levelo://app?vid=25e5b5d8-a3c9-4e79-8d85-80adeeccbd27"},"vehicle_type_id":"4","last_reported":1756292920,"current_range_meters":21600,"station_id":"","pricing_plan_id":"cebpf4jnsgd1na2vs0mg"},{"bike_id":"763e1b7e-999f-4d70-9747-896ee965adc2","system_id":"levelo_inurba_marseille","lat":43.21747,"lon":5.34602,"is_reserved":false,"is_disabled":false,"rental_uris":{"android":"levelo://app?vid=763e1b7e-999f-4d70-9747-896ee965adc2","ios":"levelo://app?vid=763e1b7e-999f-4d70-9747-896ee965adc2"},"vehicle_type_id":"4","last_reported":1756292920,"current_range_meters":21600,"station_id":"st_cvj6r9ubvosntc0bgbag","pricing_plan_id":"cebpf4jnsgd1na2vs0mg"},{"bike_id":"9944892f-c423-49a6-80e3-d21746e0ead9","system_id":"levelo_inurba_marseille","lat":43.3236,"lon":5.36745,"is_reserved":false,"is_disabled":false,"rental_uris":{"android":"levelo://app?vid=9944892f-c423-49a6-80e3-d21746e0ead9","ios":"levelo://app?vid=9944892f-c423-49a6-80e3-d21746e0ead9"},"vehicle_type_id":"4","last_reported":1756292920,"current_range_meters":22000,"station_id":"ce4bhsh2rcd13ifvqi2g","pricing_plan_id":"cebpf4jnsgd1na2vs0mg"},{"bike_id":"f58c2a2a-75d9-4cae-bbf5-33cf0abdf5f0","system_id":"levelo_inurba_marseille","lat":43.28463,"lon":5.35884,"is_reserved":false,"is_disabled":false,"rental_uris":{"android":"levelo://app?vid=f58c2a2a-75d9-4cae-bbf5-33cf0abdf5f0","ios":"levelo://app?vid=f58c2a2a-75d9-4cae-bbf5-33cf0abdf5f0"},"vehicle_type_id":"4","last_reported":1756292920,"current_range_meters":22000,"station_id":"ce4bhah2rcd13ifvqei0","pricing_plan_id":"cebpf4jnsgd1na2vs0mg"},{"bike_id":"98b1c4a8-228b-48e2-8ec0-c18c9c23daa9","system_id":"levelo_inurba_marseille","lat":43.27173,"lon":5.40991,"is_reserved":false,"is_disabled":false,"rental_uris":{"android":"levelo://app?vid=98b1c4a8-228b-48e2-8ec0-c18c9c23daa9","ios":"levelo://app?vid=98b1c4a8-228b-48e2-8ec0-c18c9c23daa9"},"vehicle_type_id":"4","last_reported":1756292920,"current_range_meters":22000,"station_id":"ce4bhl12rcd13ifvqgf0","pricing_plan_id":"cebpf4jnsgd1na2vs0mg"},{"bike_id":"fc71f842-e64d-43bd-9647-da6d65922fdf","system_id":"levelo_inurba_marseille","lat":43.21762,"lon":5.3459,"is_reserved":false,"is_disabled":false,"rental_uris":{"android":"levelo://app?vid=fc71f842-e64d-43bd-9647-da6d65922fdf","ios":"levelo://app?vid=fc71f842-e64d-43bd-9647-da6d65922fdf"},"vehicle_type_id":"4","last_reported":1756292920,"current_range_meters":22000,"station_id":"st_cvj6r9ubvosntc0bgbag","pricing_plan_id":"cebpf4jnsgd1na2vs0mg"},{"bike_id":"2592d48e-4f91-4661-a841-16b2ce57828c","system_id":"levelo_inurba_marseille","lat":43.24222,"lon":5.38735,"is_reserved":false,"is_disabled":false,"rental_uris":{"android":"levelo://app?vid=2592d48e-4f91-4661-a841-16b2ce57828c","ios":"levelo://app?vid=2592d48e-4f91-4661-a841-16b2ce57828c"},"vehicle_type_id":"4","last_reported":1756292920,"current_range_meters":22000,"station_id":"","pricing_plan_id":"cebpf4jnsgd1na2vs0mg"},{"bike_id":"76744d21-9e5e-4c42-9cd7-dc0f506d868c","system_id":"levelo_inurba_marseille","lat":43.295346,"lon":5.385597,"is_reserved":false,"is_disabled":false,"rental_uris":{"android":"levelo://app?vid=76744d21-9e5e-4c42-9cd7-dc0f506d868c","ios":"levelo://app?vid=76744d21-9e5e-4c42-9cd7-dc0f506d868c"},"vehicle_type_id":"4","last_reported":1756292920,"current_range_meters":22000,"station_id":"","pricing_plan_id":"cebpf4jnsgd1na2vs0mg"},{"bike_id":"e77feb4a-3e9f-4a2b-885e-639e119903e3","system_id":"levelo_inurba_marseille","lat":43.29034,"lon":5.37576,"is_reserved":false,"is_disabled":false,"rental_uris":{"android":"levelo://app?vid=e77feb4a-3e9f-4a2b-885e-639e119903e3","ios":"levelo://app?vid=e77feb4a-3e9f-4a2b-885e-639e119903e3"},"vehicle_type_id":"4","last_reported":1756292920,"current_range_meters":22000,"station_id":"ce4bh692rcd13ifvqe90","pricing_plan_id":"cebpf4jnsgd1na2vs0mg"},{"bike_id":"7a2eec57-eec5-4a9e-b79e-b622556fb269","system_id":"levelo_inurba_marseille","lat":43.32121,"lon":5.36763,"is_reserved":false,"is_disabled":false,"rental_uris":{"android":"levelo://app?vid=7a2eec57-eec5-4a9e-b79e-b622556fb269","ios":"levelo://app?vid=7a2eec57-eec5-4a9e-b79e-b622556fb269"},"vehicle_type_id":"4","last_reported":1756292920,"current_range_meters":22000,"station_id":"ce4bhrh2rcd13ifvqhug","pricing_plan_id":"cebpf4jnsgd1na2vs0mg"},