{"last_updated":1702454997,"ttl":30,"version":"2.2","data":{"bikes":[{"bike_id":"3da9b715-16fa-4475-bbc5-32aace7b5088","system_id":"levelo_inurba_marseille","lat":43.31341,"lon":5.367098,"is_reserved":false,"is_disabled":false,"rental_uris":{"android":"levelo://app?vid=3da9b715-16fa-4475-bbc5-32aace7b5088","ios":"levelo://app?vid=3da9b715-16fa-4475-bbc5-32aace7b5088"},"vehicle_type_id":"4","last_reported":1702454997,"current_range_meters":24000,"station_id":"ce4bgr92rcd13ifvqc6g","pricing_plan_id":"free"},{"bike_id":"d542da0b-e0fa-4803-a431-e8b5325d2f46","system_id":"levelo_inurba_marseille","lat":43.313391,"lon":5.36706,"is_reserved":false,"is_disabled":false,"rental_uris":{"android":"levelo://app?vid=d542da0b-e0fa-4803-a431-e8b5325d2f46","ios":"levelo://app?vid=d542da0b-e0fa-4803-a431-e8b5325d2f46"},"vehicle_type_id":"4","last_reported":1702454997,"current_range_meters":21600,"station_id":"ce4bgr92rcd13ifvqc6g","pricing_plan_id":"free"},{"bike_id":"f82fb867-fc5d-44de-8d5c-3ff43cdeb374","system_id":"levelo_inurba_marseille","lat":43.313391,"lon":5.36706,"is_reserved":false,"is_disabled":false,"rental_uris":{"android":"levelo://app?vid=f82fb867-fc5d-44de-8d5c-3ff43cdeb374","ios":"levelo://app?vid=f82fb867-fc5d-44de-8d5c-3ff43cdeb374"},"vehicle_type_id":"4","last_reported":1702454997,"current_range_meters":17600,"station_id":"ce4bgr92rcd13ifvqc6g","pricing_plan_id":"free"},{"bike_id":"13c1f4fb-885a-44dc-99cf-87eaca28e421","system_id":"levelo_inurba_marseille","lat":43.313391,"lon":5.36706,"is_reserved":false,"is_disabled":false,"rental_uris":{"android":"levelo://app?vid=13c1f4fb-885a-44dc-99cf-87eaca28e421","ios":"levelo://app?vid=13c1f4fb-885a-44dc-99cf-87eaca28e421"},"vehicle_type_id":"4","last_reported":1702454997,"current_range_meters":11600,"station_id":"ce4bgr92rcd13ifvqc6g","pricing_plan_id":"free"},{"bike_id":"dc281cec-6353-4181-94e6-3172f87cf78c","system_id":"levelo_inurba_marseille","lat":43.309076,"lon":5.368465,"is_reserved":false,"is_disabled":false,"rental_uris":{"android":"levelo://app?vid=dc281cec-6353-4181-94e6-3172f87cf78c","ios":"levelo://app?vid=dc281cec-6353-4181-94e6-3172f87cf78c"},"vehicle_type_id":"4","last_reported":1702454997,"current_range_meters":20000,"station_id":"ce4bgn92rcd13ifvqbvg","pricing_plan_id":"free"},{"bike_id":"e2695bd0-ce67-4f77-90a9-96930a84434f","system_id":"levelo_inurba_marseille","lat":43.309076,"lon":5.368465,"is_reserved":false,"is_disabled":false,"rental_uris":{"android":"levelo://app?vid=e2695bd0-ce67-4f77-90a9-96930a84434f","ios":"levelo://app?vid=e2695bd0-ce67-4f77-90a9-96930a84434f"},"vehicle_type_id":"4","last_reported":1702454997,"current_range_meters":14800,"station_id":"ce4bgn92rcd13ifvqbvg","pricing_plan_id":"free"},{"bike_id":"3d8c2391-28a6-4a80-a1f9-65d545b62b01","system_id":"levelo_inurba_marseille","lat":43.309076,"lon":5.368465,"is_reserved":false,"is_disabled":false,"rental_uris":{"android":"levelo://app?vid=3d8c2391-28a6-4a80-a1f9-65d545b62b01","ios":"levelo://app?vid=3d8c2391-28a6-4a80-a1f9-65d545b62b01"},"vehicle_type_id":"4","last_reported":1702454997,"current_range_meters":13200,"station_id":"ce4bgn92rcd13ifvqbvg","pricing_plan_id":"free"},{"bike_id":"0dd2f660-148f-4849-8371-c686346643a4","system_id":"levelo_inurba_marseille","lat":43.309076,"lon":5.368465,"is_reserved":false,"is_disabled":false,"rental_uris":{"android":"levelo://app?vid=0dd2f660-148f-4849-8371-c686346643a4","ios":"levelo://app?vid=0dd2f660-148f-4849-8371-c686346643a4"},"vehicle_type_id":"4","last_reported":1702454997,"current_range_meters":20800,"station_id":"ce4bgn92rcd13ifvqbvg","pricing_plan_id":"free"},{"bike_id":"3f8b821f-e430-4a35-bf14-f8b6e777ea11","system_id":"levelo_inurba_marseille","lat":43.313939,"lon":5.375306,"is_reserved":false,"is_disabled":false,"rental_uris":{"android":"levelo://app?vid=3f8b821f-e430-4a35-bf14-f8b6e777ea11","ios":"levelo://app?vid=3f8b821f-e430-4a35-bf14-f8b6e777ea11"},"vehicle_type_id":"4","last_reported":1702454997,"current_range_meters":8400,"station_id":"","pricing_plan_id":"free"},{"bike_id":"a7201270-8f1f-4665-8fef-97ca02bb948f","system_id":"levelo_inurba_marseille","lat":43.30537,"lon":5.367345,"is_reserved":false,"is_disabled":false,"rental_uris":{"android":"levelo://app?vid=a7201270-8f1f-4665-8fef-97ca02bb948f","ios":"levelo://app?vid=a7201270-8f1f-4665-8fef-97ca02bb948f"},"vehicle_type_id":"4","last_reported":1702454997,"current_range_meters":25200,"station_id":"ce4bgrp2rcd13ifvqc9g","pricing_plan_id":"free"},{"bike_id":"776b510a-c95f-4c5e-9998-95124761512a","system_id":"levelo_inurba_marseille","lat":43.30539,"lon":5.3671,"is_reserved":false,"is_disabled":false,"rental_uris":{"android":"levelo://app?vid=776b510a-c95f-4c5e-9998-95124761512a","ios":"levelo://app?vid=776b510a-c95f-4c5e-9998-95124761512a"},"vehicle_type_id":"4","last_reported":1702454997,"current_range_meters":6800,"station_id":"ce4bgrp2rcd13ifvqc9g","pricing_plan_id":"free"},{"bike_id":"989966cb-3017-4205-bf39-dcbc6eac310f","system_id":"levelo_inurba_marseille","lat":43.30536,"lon":5.36717,"is_reserved":false,"is_disabled":false,"rental_uris":{"android":"levelo://app?vid=989966cb-3017-4205-bf39-dcbc6eac310f","ios":"levelo://app?vid=989966cb-3017-4205-bf39-dcbc6eac310f"},"vehicle_type_id":"4","last_reported":1702454997,"current_range_meters":10800,"station_id":"ce4bgrp2rcd13ifvqc9g","pricing_plan_id":"free"},{"bike_id":"f53d492f-17a5-4060-97b5-a29ab653a1a7","system_id":"levelo_inurba_marseille","lat":43.305368,"lon":5.367343,"is_reserved":false,"is_disabled":false,"rental_uris":{"android":"levelo://app?vid=f53d492f-17a5-4060-97b5-a29ab653a1a7","ios":"levelo://app?vid=f53d492f-17a5-4060-97b5-a29ab653a1a7"},"vehicle_type_id":"4","last_reported":1702454997,"current_range_meters":25600,"station_id":"ce4bgrp2rcd13ifvqc9g","pricing_plan_id":"free"},{"bike_id":"955e4ab2-16e5-44e8-a986-a2f50ff96c06","system_id":"levelo_inurba_marseille","lat":43.305382,"lon":5.365389,"is_reserved":false,"is_disabled":false,"rental_uris":{"android":"levelo://app?vid=955e4ab2-16e5-44e8-a986-a2f50ff96c06","ios":"levelo://app?vid=955e4ab2-16e5-44e8-a986-a2f50ff96c06"},"vehicle_type_id":"4","last_reported":1702454997,"current_range_meters":28000,"station_id":"","pricing_plan_id":"free"},{"bike_id":"280b7189-a7a1-49e5-a142-f2b9ad80cfae","system_id":"levelo_inurba_marseille","lat":43.30529,"lon":5.36711,"is_reserved":false,"is_disabled":false,"rental_uris":{"android":"levelo://app?vid=280b7189-a7a1-49e5-a142-f2b9ad80cfae","ios":"levelo://app?vid=280b7189-a7a1-49e5-a142-f2b9ad80cfae"},"vehicle_type_id":"4","last_reported":1702454997,"current_range_meters":19200,"station_id":"ce4bgrp2rcd13ifvqc9g","pricing_plan_id":"free"},{"bike_id":"31d73def-4038-4a71-bb25-805788dde480","system_id":"levelo_inurba_marseille","lat":43.305706,"lon":5.365654,"is_reserved":false,"is_disabled":false,"rental_uris":{"android":"levelo://app?vid=31d73def-4038-4a71-bb25-805788dde480","ios":"levelo://app?vid=31d73def-4038-4a71-bb25-805788dde480"},"vehicle_type_id":"4","last_reported":1702454997,"current_range_meters":29600,"station_id":"ce4bgs12rcd13ifvqcag","pricing_plan_id":"free"},{"bike_id":"5068c8cc-dfdf-49ae-a09e-68aac06cdd58","system_id":"levelo_inurba_marseille","lat":43.305714,"lon":5.365633,"is_reserved":false,"is_disabled":false,"rental_uris":{"android":"levelo://app?vid=5068c8cc-dfdf-49ae-a09e-68aac06cdd58","ios":"levelo://app?vid=5068c8cc-dfdf-49ae-a09e-68aac06cdd58"},"vehicle_type_id":"4","last_reported":1702454997,"current_range_meters":26400,"station_id":"ce4bgs12rcd13ifvqcag","pricing_plan_id":"free"},{"bike_id":"dc68debd-6203-4696-b9a5-55eea857c5a0","system_id":"levelo_inurba_marseille","lat":43.317185,"lon":5.376794,"is_reserved":false,"is_disabled":false,"rental_uris":{"android":"levelo://app?vid=dc68debd-6203-4696-b9a5-55eea857c5a0","ios":"levelo://app?vid=dc68debd-6203-4696-b9a5-55eea857c5a0"},"vehicle_type_id":"4","last_reported":1702454997,"current_range_meters":24400,"station_id":"ce4bgth2rcd13ifvqch0","pricing_plan_id":"free"},{"bike_id":"f0547b77-6f20-423d-98ca-ff544c3c1d23","system_id":"levelo_inurba_marseille","lat":43.317,"lon":5.37827,"is_reserved":false,"is_disabled":false,"rental_uris":{"android":"levelo://app?vid=f0547b77-6f20-423d-98ca-ff544c3c1d23","ios":"levelo://app?vid=f0547b77-6f20-423d-98ca-ff544c3c1d23"},"vehicle_type_id":"4","last_reported":1702454997,"current_range_meters":21600,"station_id":"","pricing_plan_id":"free"},{"bike_id":"522b3a57-8e3d-40a7-8376-c8a37ac3b5b3","system_id":"levelo_inurba_marseille","lat":43.303046,"lon":5.368981,"is_reserved":false,"is_disabled":false,"rental_uris":{"android":"levelo://app?vid=522b3a57-8e3d-40a7-8376-c8a37ac3b5b3","ios":"levelo://app?vid=522b3a57-8e3d-40a7-8376-c8a37ac3b5b3"},"vehicle_type_id":"4","last_reported":1702454997,"current_range_meters":15600,"station_id":"ce4bgqh2rcd13ifvqc5g","pricing_plan_id":"free"},{"bike_id":"8a496f0c-4091-459d-8299-63383324f1b9","system_id":"levelo_inurba_marseille","lat":43.303046,"lon":5.368981,"is_reserved":false,"is_disabled":false,"rental_uris":{"android":"levelo://app?vid=8a496f0c-4091-459d-8299-63383324f1b9","ios":"levelo://app?vid=8a496f0c-4091-459d-8299-63383324f1b9"},"vehicle_type_id":"4","last_reported":1702454997,"current_range_meters":25200,"station_id":"ce4bgqh2rcd13ifvqc5g","pricing_plan_id":"free"},{"bike_id":"0eadf1ef-40cf-4bf6-990c-383ee2fd4472","system_id":"levelo_inurba_marseille","lat":43.303046,"lon":5.368981,"is_reserved":false,"is_disabled":false,"rental_uris":{"android":"levelo://app?vid=0eadf1ef-40cf-4bf6-990c-383ee2fd4472","ios":"levelo://app?vid=0eadf1ef-40cf-4bf6-990c-383ee2fd4472"},"vehicle_type_id":"4","last_reported":1702454997,"current_range_meters":12000,"station_id":"ce4bgqh2rcd13ifvqc5g","pricing_plan_id":"free"},{"bike_id":"6448e185-b705-4f45-9847-29bf2e5840be","system_id":"levelo_inurba_marseille","lat":43.301939,"lon":5.366286,"is_reserved":false,"is_disabled":false,"rental_uris":{"android":"levelo://app?vid=6448e185-b705-4f45-9847-29bf2e5840be","ios":"levelo://app?vid=6448e185-b705-4f45-9847-29bf2e5840be"},"vehicle_type_id":"4","last_reported":1702454997,"current_range_meters":12800,"station_id":"ce4bgrh2rcd13ifvqc8g","pricing_plan_id":"free"},{"bike_id":"3a118ee2-1f07-4a0b-8dfd-d10f4724bd17","system_id":"levelo_inurba_marseille","lat":43.301939,"lon":5.366286,"is_reserved":false,"is_disabled":false,"rental_uris":{"android":"levelo://app?vid=3a118ee2-1f07-4a0b-8dfd-d10f4724bd17","ios":"levelo://app?vid=3a118ee2-1f07-4a0b-8dfd-d10f4724bd17"},"vehicle_type_id":"4","last_reported":1702454997,"current_range_meters":21200,"station_id":"ce4bgrh2rcd13ifvqc8g","pricing_plan_id":"free"},{"bike_id":"806d1095-eba4-4b4e-a978-6519c4d6aea4","system_id":"levelo_inurba_marseille","lat":43.30456,"lon":5.37902,"is_reserved":false,"is_disabled":false,"rental_uris":{"android":"levelo://app?vid=806d1095-eba4-4b4e-a978-6519c4d6aea4","ios":"levelo://app?vid=806d1095-eba4-4b4e-a978-6519c4d6aea4"},"vehicle_type_id":"4","last_reported":1702454997,"current_range_meters":0,"station_id":"ce4bgup2rcd13ifvqcn0","pricing_plan_id":"free"},{"bike_id":"443495d3-5c95-4ec2-bf2b-82b8d38de0b4","system_id":"levelo_inurba_marseille","lat":43.324771,"lon":5.36557,"is_reserved":false,"is_disabled":false,"rental_uris":{"android":"levelo://app?vid=443495d3-5c95-4ec2-bf2b-82b8d38de0b4","ios":"levelo://app?vid=443495d3-5c95-4ec2-bf2b-82b8d38de0b4"},"vehicle_type_id":"4","last_reported":1702454997,"current_range_meters":22000,"station_id":"ce4bhs12rcd13ifvqhvg","pricing_plan_id":"free"},{"bike_id":"aa3cdc10-a2b4-4348-a58d-ea513d683fe2","system_id":"levelo_inurba_marseille","lat":43.324771,"lon":5.36557,"is_reserved":false,"is_disabled":false,"rental_uris":{"android":"levelo://app?vid=aa3cdc10-a2b4-4348-a58d-ea513d683fe2","ios":"levelo://app?vid=aa3cdc10-a2b4-4348-a58d-ea513d683fe2"},"vehicle_type_id":"4","last_reported":1702454997,"current_range_meters":23600,"station_id":"ce4bhs12rcd13ifvqhvg","pricing_plan_id":"free"},{"bike_id":"52aa6ea4-0821-40ea-878b-8773a1b09047","system_id":"levelo_inurba_marseille","lat":43.324771,"lon":5.36557,"is_reserved":false,"is_disabled":false,"rental_uris":{"android":"levelo://app?vid=52aa6ea4-0821-40ea-878b-8773a1b09047","ios":"levelo://app?vid=52aa6ea4-0821-40ea-878b-8773a1b09047"},"vehicle_type_id":"4","last_reported":1702454997,"current_range_meters":15600,"station_id":"ce4bhs12rcd13ifvqhvg","pricing_plan_id":"free"},{"bike_id":"0fd0db61-ebb4-4455-aef7-bb54207b54a5","system_id":"levelo_inurba_marseille","lat":43.302784,"lon":5.377158,"is_reserved":false,"is_disabled":false,"rental_uris":{"android":"levelo://app?vid=0fd0db61-ebb4-4455-aef7-bb54207b54a5","ios":"levelo://app?vid=0fd0db61-ebb4-4455-aef7-bb54207b54a5"},"vehicle_type_id":"4","last_reported":1702454997,"current_range_meters":16800,"station_id":"ce4bguh2rcd13ifvqcj0","pricing_plan_id":"free"},{"bike_id":"3e60f8d4-1b80-45cd-b38f-53b415941602","system_id":"levelo_inurba_marseille","lat":43.30143,"lon":5.37413,"is_reserved":false,"is_disabled":false,"rental_uris":{"android":"levelo://app?vid=3e60f8d4-1b80-45cd-b38f-53b415941602","ios":"levelo://app?vid=3e60f8d4-1b80-45cd-b38f-53b415941602"},"vehicle_type_id":"4","last_reported":1702454997,"current_range_meters":13600,"station_id":"ce4bgs92rcd13ifvqcc0","pricing_plan_id":"free"},{"bike_id":"9429d4af-cc6f-4e11-a50d-4877d91a62b4","system_id":"levelo_inurba_marseille","lat":43.29848,"lon":5.36284,"is_reserved":false,"is_disabled":false,"rental_uris":{"android":"levelo://app?vid=9429d4af-cc6f-4e11-a50d-4877d91a62b4","ios":"levelo://app?vid=9429d4af-cc6f-4e11-a50d-4877d91a62b4"},"vehicle_type_id":"4","last_reported":1702454997,"current_range_meters":10400,"station_id":"ce4bgpp2rcd13ifvqc3g","pricing_plan_id":"free"},{"bike_id":"2c2b3f82-6c5d-4f0f-8d24-54dd1bcebd06","system_id":"levelo_inurba_marseille","lat":43.298433,"lon":5.362774,"is_reserved":false,"is_disabled":false,"rental_uris":{"android":"levelo://app?vid=2c2b3f82-6c5d-4f0f-8d24-54dd1bcebd06","ios":"levelo://app?vid=2c2b3f82-6c5d-4f0f-8d24-54dd1bcebd06"},"vehicle_type_id":"4","last_reported":1702454997,"current_range_meters":30000,"station_id":"ce4bgpp2rcd13ifvqc3g","pricing_plan_id":"free"},{"bike_id":"a7370a60-af08-4c9a-8fb0-e62c175a6cc5","system_id":"levelo_inurba_marseille","lat":43.298433,"lon":5.362774,"is_reserved":false,"is_disabled":false,"rental_uris":{"android":"levelo://app?vid=a7370a60-af08-4c9a-8fb0-e62c175a6cc5","ios":"levelo://app?vid=a7370a60-af08-4c9a-8fb0-e62c175a6cc5"},"vehicle_type_id":"4","last_reported":1702454997,"current_range_meters":30400,"station_id":"ce4bgpp2rcd13ifvqc3g","pricing_plan_id":"free"},{"bike_id":"77a6c46d-d898-4e4f-8846-efa91689c7f0","system_id":"levelo_inurba_marseille","lat":43.302006,"lon":5.38065,"is_reserved":false,"is_disabled":false,"rental_uris":{"android":"levelo://app?vid=77a6c46d-d898-4e4f-8846-efa91689c7f0","ios":"levelo://app?vid=77a6c46d-d898-4e4f-8846-efa91689c7f0"},"vehicle_type_id":"4","last_reported":1702454997,"current_range_meters":0,"station_id":"","pricing_plan_id":"free"},{"bike_id":"ef62d099-880c-48b4-a857-30e56a94bd16","system_id":"levelo_inurba_marseille","lat":43.322872,"lon":5.382756,"is_reserved":false,"is_disabled":false,"rental_uris":{"android":"levelo://app?vid=ef62d099-880c-48b4-a857-30e56a94bd16","ios":"levelo://app?vid=ef62d099-880c-48b4-a857-30e56a94bd16"},"vehicle_type_id":"4","last_reported":1702454997,"current_range_meters":30800,"station_id":"ce4bhr12rcd13ifvqhqg","pricing_plan_id":"free"},{"bike_id":"2f3bb280-052a-4468-af6b-ff1bc60be439","system_id":"levelo_inurba_marseille","lat":43.32826,"lon":5.366978,"is_reserved":false,"is_disabled":false,"rental_uris":{"android":"levelo://app?vid=2f3bb280-052a-4468-af6b-ff1bc60be439","ios":"levelo://app?vid=2f3bb280-052a-4468-af6b-ff1bc60be439"},"vehicle_type_id":"4","last_reported":1702454997,"current_range_meters":18400,"station_id":"ce4bhs92rcd13ifvqi0g","pricing_plan_id":"free"},{"bike_id":"f6a62362-1831-4aa5-9227-c5f949743ee8","system_id":"levelo_inurba_marseille","lat":43.328371,"lon":5.366909,"is_reserved":false,"is_disabled":false,"rental_uris":{"android":"levelo://app?vid=f6a62362-1831-4aa5-9227-c5f949743ee8","ios":"levelo://app?vid=f6a62362-1831-4aa5-9227-c5f949743ee8"},"vehicle_type_id":"4","last_reported":1702454997,"current_range_meters":27200,"station_id":"ce4bhs92rcd13ifvqi0g","pricing_plan_id":"free"},{"bike_id":"e3935d40-6844-4fe8-8a96-631442334792","system_id":"levelo_inurba_marseille","lat":43.328338,"lon":5.366712,"is_reserved":false,"is_disabled":false,"rental_uris":{"android":"levelo://app?vid=e3935d40-6844-4fe8-8a96-631442334792","ios":"levelo://app?vid=e3935d40-6844-4fe8-8a96-631442334792"},"vehicle_type_id":"4","last_reported":1702454997,"current_range_meters":29200,"station_id":"ce4bhs92rcd13ifvqi0g","pricing_plan_id":"free"},{"bike_id":"7a878ee5-6910-45dd-b3bd-722059d35da7","system_id":"levelo_inurba_marseille","lat":43.29787,"lon":5.37679,"is_reserved":false,"is_disabled":false,"rental_uris":{"android":"levelo://app?vid=7a878ee5-6910-45dd-b3bd-722059d35da7","ios":"levelo://app?vid=7a878ee5-6910-45dd-b3bd-722059d35da7"},"vehicle_type_id":"4","last_reported":1702454997,"current_range_meters":9600,"station_id":"","pricing_plan_id":"free"},{"bike_id":"f149b977-e31c-44b2-9796-7a58e374fb3a","system_id":"levelo_inurba_marseille","lat":43.29573,"lon":5.367355,"is_reserved":false,"is_disabled":false,"rental_uris":{"android":"levelo://app?vid=f149b977-e31c-44b2-9796-7a58e374fb3a","ios":"levelo://app?vid=f149b977-e31c-44b2-9796-7a58e374fb3a"},"vehicle_type_id":"4","last_reported":1702454997,"current_range_meters":26000,"station_id":"ce4bgph2rcd13ifvqc2g","pricing_plan_id":"free"},{"bike_id":"23bbe805-c94b-4a71-b6b3-02557ecd6b8b","system_id":"levelo_inurba_marseille","lat":43.317557,"lon":5.390173,"is_reserved":false,"is_disabled":false,"rental_uris":{"android":"levelo://app?vid=23bbe805-c94b-4a71-b6b3-02557ecd6b8b","ios":"levelo://app?vid=23bbe805-c94b-4a71-b6b3-02557ecd6b8b"},"vehicle_type_id":"4","last_reported":1702454997,"current_range_meters":22800,"station_id":"ce4bhqp2rcd13ifvqhng","pricing_plan_id":"free"},{"bike_id":"116dcc56-7a03-458e-b0b9-fc1c5850abd5","system_id":"levelo_inurba_marseille","lat":43.317557,"lon":5.390173,"is_reserved":false,"is_disabled":false,"rental_uris":{"android":"levelo://app?vid=116dcc56-7a03-458e-b0b9-fc1c5850abd5","ios":"levelo://app?vid=116dcc56-7a03-458e-b0b9-fc1c5850abd5"},"vehicle_type_id":"4","last_reported":1702454997,"current_range_meters":19600,"station_id":"ce4bhqp2rcd13ifvqhng","pricing_plan_id":"free"},{"bike_id":"bee0495d-9de9-4627-a573-6eec5d86e49a","system_id":"levelo_inurba_marseille","lat":43.298037,"lon":5.381066,"is_reserved":false,"is_disabled":false,"rental_uris":{"android":"levelo://app?vid=bee0495d-9de9-4627-a573-6eec5d86e49a","ios":"levelo://app?vid=bee0495d-9de9-4627-a573-6eec5d86e49a"},"vehicle_type_id":"4","last_reported":1702454997,"current_range_meters":19600,"station_id":"ce4bgip2rcd13ifvqbb0","pricing_plan_id":"free"},{"bike_id":"9fafa219-4010-46ac-a092-39e6cd5dabf7","system_id":"levelo_inurba_marseille","lat":43.32364,"lon":5.38883,"is_reserved":false,"is_disabled":false,"rental_uris":{"android":"levelo://app?vid=9fafa219-4010-46ac-a092-39e6cd5dabf7","ios":"levelo://app?vid=9fafa219-4010-46ac-a092-39e6cd5dabf7"},"vehicle_type_id":"4","last_reported":1702454997,"current_range_meters":17600,"station_id":"ce4bhqp2rcd13ifvqhog","pricing_plan_id":"free"},{"bike_id":"167732c8-b026-44d1-98f6-1d19217ac5be","system_id":"levelo_inurba_marseille","lat":43.293259,"lon":5.371586,"is_reserved":false,"is_disabled":false,"rental_uris":{"android":"levelo://app?vid=167732c8-b026-44d1-98f6-1d19217ac5be","ios":"levelo://app?vid=167732c8-b026-44d1-98f6-1d19217ac5be"},"vehicle_type_id":"4","last_reported":1702454997,"current_range_meters":23200,"station_id":"ce4bgh92rcd13ifvqb40","pricing_plan_id":"free"},{"bike_id":"dfbac94d-2b28-48f9-993d-5db05ea354be","system_id":"levelo_inurba_marseille","lat":43.293259,"lon":5.371586,"is_reserved":false,"is_disabled":false,"rental_uris":{"android":"levelo://app?vid=dfbac94d-2b28-48f9-993d-5db05ea354be","ios":"levelo://app?vid=dfbac94d-2b28-48f9-993d-5db05ea354be"},"vehicle_type_id":"4","last_reported":1702454997,"current_range_meters":2400,"station_id":"ce4bgh92rcd13ifvqb40","pricing_plan_id":"free"},{"bike_id":"7b841d87-b3fb-4da8-b0d8-cb9977de3fc4","system_id":"levelo_inurba_marseille","lat":43.2936,"lon":5.37835,"is_reserved":false,"is_disabled":false,"rental_uris":{"android":"levelo://app?vid=7b841d87-b3fb-4da8-b0d8-cb9977de3fc4","ios":"levelo://app?vid=7b841d87-b3fb-4da8-b0d8-cb9977de3fc4"},"vehicle_type_id":"4","last_reported":1702454997,"current_range_meters":11600,"station_id":"ce4bgjh2rcd13ifvqbf0","pricing_plan_id":"free"},{"bike_id":"f12a7227-cfea-479b-95d8-74969a84d039","system_id":"levelo_inurba_marseille","lat":43.2936,"lon":5.37835,"is_reserved":false,"is_disabled":false,"rental_uris":{"android":"levelo://app?vid=f12a7227-cfea-479b-95d8-74969a84d039","ios":"levelo://app?vid=f12a7227-cfea-479b-95d8-74969a84d039"},"vehicle_type_id":"4","last_reported":1702454997,"current_range_meters":10400,"station_id":"ce4bgjh2rcd13ifvqbf0","pricing_plan_id":"free"},{"bike_id":"af03e5aa-ccfc-4a17-a10d-76025824d200","system_id":"levelo_inurba_marseille","lat":43.292311,"lon":5.360731,"is_reserved":false,"is_disabled":false,"rental_uris":{"android":"levelo://app?vid=af03e5aa-ccfc-4a17-a10d-76025824d200","ios":"levelo://app?vid=af03e5aa-ccfc-4a17-a10d-76025824d200"},"vehicle_type_id":"4","last_reported":1702454997,"current_range_meters":18000,"station_id":"ce4bhbh2rcd13ifvqeqg","pricing_plan_id":"free"},{"bike_id":"d9596bc5-2b14-4201-98f0-6c2ffad61b43","system_id":"levelo_inurba_marseille","lat":43.292311,"lon":5.360731,"is_reserved":false,"is_disabled":false,"rental_uris":{"android":"levelo://app?vid=d9596bc5-2b14-4201-98f0-6c2ffad61b43","ios":"levelo://app?vid=d9596bc5-2b14-4201-98f0-6c2ffad61b43"},"vehicle_type_id":"4","last_reported":1702454997,"current_range_meters":24400,"station_id":"ce4bhbh2rcd13ifvqeqg","pricing_plan_id":"free"},{"bike_id":"b89ed264-045c-4f91-8a5c-b39308bd41fa","system_id":"levelo_inurba_marseille","lat":43.292663,"lon":5.376389,"is_reserved":false,"is_disabled":false,"rental_uris":{"android":"levelo://app?vid=b89ed264-045c-4f91-8a5c-b39308bd41fa","ios":"levelo://app?vid=b89ed264-045c-4f91-8a5c-b39308bd41fa"},"vehicle_type_id":"4","last_reported":1702454997,"current_range_meters":18000,"station_id":"ce4bgi12rcd13ifvqb80","pricing_plan_id":"free"},{"bike_id":"9167911e-1000-4a48-9110-55ade0cb300f","system_id":"levelo_inurba_marseille","lat":43.290779,"lon":5.371482,"is_reserved":false,"is_disabled":false,"rental_uris":{"android":"levelo://app?vid=9167911e-1000-4a48-9110-55ade0cb300f","ios":"levelo://app?vid=9167911e-1000-4a48-9110-55ade0cb300f"},"vehicle_type_id":"4","last_reported":1702454997,"current_range_meters":15200,"station_id":"ce4bh5p2rcd13ifvqe4g","pricing_plan_id":"free"},{"bike_id":"678ba1ed-2544-4c00-91b3-be369ff3b312","system_id":"levelo_inurba_marseille","lat":43.302008,"lon":5.394694,"is_reserved":false,"is_disabled":false,"rental_uris":{"android":"levelo://app?vid=678ba1ed-2544-4c00-91b3-be369ff3b312","ios":"levelo://app?vid=678ba1ed-2544-4c00-91b3-be369ff3b312"},"vehicle_type_id":"4","last_reported":1702454997,"current_range_meters":28400,"station_id":"ce4bh0p2rcd13ifvqd70","pricing_plan_id":"free"},{"bike_id":"5b25297c-02a4-4eb1-8fde-7f60f8a4a862","system_id":"levelo_inurba_marseille","lat":43.29044,"lon":5.37588,"is_reserved":false,"is_disabled":false,"rental_uris":{"android":"levelo://app?vid=5b25297c-02a4-4eb1-8fde-7f60f8a4a862","ios":"levelo://app?vid=5b25297c-02a4-4eb1-8fde-7f60f8a4a862"},"vehicle_type_id":"4","last_reported":1702454997,"current_range_meters":23200,"station_id":"","pricing_plan_id":"free"},{"bike_id":"8472bbbc-66c0-4128-b0ca-7540bd6a33c1","system_id":"levelo_inurba_marseille","lat":43.28945,"lon":5.36403,"is_reserved":false,"is_disabled":false,"rental_uris":{"android":"levelo://app?vid=8472bbbc-66c0-4128-b0ca-7540bd6a33c1","ios":"levelo://app?vid=8472bbbc-66c0-4128-b0ca-7540bd6a33c1"},"vehicle_type_id":"4","last_reported":1702454997,"current_range_meters":26800,"station_id":"ce4bhc92rcd13ifvqetg","pricing_plan_id":"free"},{"bike_id":"f8f0686e-72b5-4342-8af6-2000be4c3eec","system_id":"levelo_inurba_marseille","lat":43.290161,"lon":5.375651,"is_reserved":false,"is_disabled":false,"rental_uris":{"android":"levelo://app?vid=f8f0686e-72b5-4342-8af6-2000be4c3eec","ios":"levelo://app?vid=f8f0686e-72b5-4342-8af6-2000be4c3eec"},"vehicle_type_id":"4","last_reported":1702454997,"current_range_meters":0,"station_id":"","pricing_plan_id":"free"},{"bike_id":"89ba6ff3-74d1-4623-a56c-4d8688cc7b53","system_id":"levelo_inurba_marseille","lat":43.289743,"lon":5.378304,"is_reserved":false,"is_disabled":false,"rental_uris":{"android":"levelo://app?vid=89ba6ff3-74d1-4623-a56c-4d8688cc7b53","ios":"levelo://app?vid=89ba6ff3-74d1-4623-a56c-4d8688cc7b53"},"vehicle_type_id":"4","last_reported":1702454997,"current_range_meters":20000,"station_id":"ce4bh9p2rcd13ifvqed0","pricing_plan_id":"free"},{"bike_id":"67a71298-f781-4402-8d03-cdb5dd11acae","system_id":"levelo_inurba_marseille","lat":43.337451,"lon":5.37463,"is_reserved":false,"is_disabled":false,"rental_uris":{"android":"levelo://app?vid=67a71298-f781-4402-8d03-cdb5dd11acae","ios":"levelo://app?vid=67a71298-f781-4402-8d03-cdb5dd11acae"},"vehicle_type_id":"4","last_reported":1702454997,"current_range_meters":28400,"station_id":"","pricing_plan_id":"free"},{"bike_id":"709bebcd-7a96-4a30-894a-152bbb656aa7","system_id":"levelo_inurba_marseille","lat":43.33768,"lon":5.37475,"is_reserved":false,"is_disabled":false,"rental_uris":{"android":"levelo://app?vid=709bebcd-7a96-4a30-894a-152bbb656aa7","ios":"levelo://app?vid=709bebcd-7a96-4a30-894a-152bbb656aa7"},"vehicle_type_id":"4","last_reported":1702454997,"current_range_meters":17200,"station_id":"","pricing_plan_id":"free"},{"bike_id":"3cbcbb37-a92d-4f78-b689-2f73f286e701","system_id":"levelo_inurba_marseille","lat":43.33769,"lon":5.37476,"is_reserved":false,"is_disabled":false,"rental_uris":{"android":"levelo://app?vid=3cbcbb37-a92d-4f78-b689-2f73f286e701","ios":"levelo://app?vid=3cbcbb37-a92d-4f78-b689-2f73f286e701"},"vehicle_type_id":"4","last_reported":1702454997,"current_range_meters":14400,"station_id":"","pricing_plan_id":"free"},{"bike_id":"d352aa9b-fb9f-419f-b29c-7e24f8ab570d","system_id":"levelo_inurba_marseille","lat":43.301117,"lon":5.398795,"is_reserved":false,"is_disabled":false,"rental_uris":{"android":"levelo://app?vid=d352aa9b-fb9f-419f-b29c-7e24f8ab570d","ios":"levelo://app?vid=d352aa9b-fb9f-419f-b29c-7e24f8ab570d"},"vehicle_type_id":"4","last_reported":1702454997,"current_range_meters":27600,"station_id":"ce4bh0h2rcd13ifvqd40","pricing_plan_id":"free"},{"bike_id":"071bd6a6-845c-4531-965f-2d20fd696870","system_id":"levelo_inurba_marseille","lat":43.286961,"lon":5.373785,"is_reserved":false,"is_disabled":false,"rental_uris":{"android":"levelo://app?vid=071bd6a6-845c-4531-965f-2d20fd696870","ios":"levelo://app?vid=071bd6a6-845c-4531-965f-2d20fd696870"},"vehicle_type_id":"4","last_reported":1702454997,"current_range_meters":28000,"station_id":"ce4bh3p2rcd13ifvqdq0","pricing_plan_id":"free"},{"bike_id":"c6f51b3a-e34b-4807-900d-ce4e1dc52ae1","system_id":"levelo_inurba_marseille","lat":43.257079,"lon":5.411051,"is_reserved":false,"is_disabled":false,"rental_uris":{"android":"levelo://app?vid=c6f51b3a-e34b-4807-900d-ce4e1dc52ae1","ios":"levelo://app?vid=c6f51b3a-e34b-4807-900d-ce4e1dc52ae1"},"vehicle_type_id":"4","last_reported":1702454997,"current_range_meters":11600,"station_id":"ce4bhkp2rcd13ifvqgd0","pricing_plan_id":"free"},{"bike_id":"27bef41d-6651-4b71-bb60-de8e85706049","system_id":"levelo_inurba_marseille","lat":43.298681,"lon":5.397225,"is_reserved":false,"is_disabled":false,"rental_uris":{"android":"levelo://app?vid=27bef41d-6651-4b71-bb60-de8e85706049","ios":"levelo://app?vid=27bef41d-6651-4b71-bb60-de8e85706049"},"vehicle_type_id":"4","last_reported":1702454997,"current_range_meters":25600,"station_id":"ce4bh0h2rcd13ifvqd50","pricing_plan_id":"free"},{"bike_id":"2664540a-62df-46c6-85a7-62261b5674b1","system_id":"levelo_inurba_marseille","lat":43.286593,"lon":5.363346,"is_reserved":false,"is_disabled":false,"rental_uris":{"android":"levelo://app?vid=2664540a-62df-46c6-85a7-62261b5674b1","ios":"levelo://app?vid=2664540a-62df-46c6-85a7-62261b5674b1"},"vehicle_type_id":"4","last_reported":1702454997,"current_range_meters":30400,"station_id":"ce4bhah2rcd13ifvqej0","pricing_plan_id":"free"},{"bike_id":"a86b5bcb-605a-4fb0-b3de-4443dd13ac70","system_id":"levelo_inurba_marseille","lat":43.295196,"lon":5.39397,"is_reserved":false,"is_disabled":false,"rental_uris":{"android":"levelo://app?vid=a86b5bcb-605a-4fb0-b3de-4443dd13ac70","ios":"levelo://app?vid=a86b5bcb-605a-4fb0-b3de-4443dd13ac70"},"vehicle_type_id":"4","last_reported":1702454997,"current_range_meters":20400,"station_id":"ce4bh292rcd13ifvqdf0","pricing_plan_id":"free"},{"bike_id":"9159c8e3-8f67-426b-bcea-7b00cf37f53d","system_id":"levelo_inurba_marseille","lat":43.290336,"lon":5.386425,"is_reserved":false,"is_disabled":false,"rental_uris":{"android":"levelo://app?vid=9159c8e3-8f67-426b-bcea-7b00cf37f53d","ios":"levelo://app?vid=9159c8e3-8f67-426b-bcea-7b00cf37f53d"},"vehicle_type_id":"4","last_reported":1702454997,"current_range_meters":28000,"station_id":"ce4bh4p2rcd13ifvqe0g","pricing_plan_id":"free"},{"bike_id":"302a48de-139a-4a79-a939-3b469ec87209","system_id":"levelo_inurba_marseille","lat":43.29021,"lon":5.38639,"is_reserved":false,"is_disabled":false,"rental_uris":{"android":"levelo://app?vid=302a48de-139a-4a79-a939-3b469ec87209","ios":"levelo://app?vid=302a48de-139a-4a79-a939-3b469ec87209"},"vehicle_type_id":"4","last_reported":1702454997,"current_range_meters":0,"station_id":"ce4bh4p2rcd13ifvqe0g","pricing_plan_id":"free"},{"bike_id":"3f1f88cc-6360-407a-b029-5e15a777397b","system_id":"levelo_inurba_marseille","lat":43.286039,"lon":5.370679,"is_reserved":false,"is_disabled":false,"rental_uris":{"android":"levelo://app?vid=3f1f88cc-6360-407a-b029-5e15a777397b","ios":"levelo://app?vid=3f1f88cc-6360-407a-b029-5e15a777397b"},"vehicle_type_id":"4","last_reported":1702454997,"current_range_meters":17200,"station_id":"ce4bht12rcd13ifvqi60","pricing_plan_id":"free"},{"bike_id":"5809f8e1-7f90-46a2-abd9-3a6d72035e63","system_id":"levelo_inurba_marseille","lat":43.287185,"lon":5.379373,"is_reserved":false,"is_disabled":false,"rental_uris":{"android":"levelo://app?vid=5809f8e1-7f90-46a2-abd9-3a6d72035e63","ios":"levelo://app?vid=5809f8e1-7f90-46a2-abd9-3a6d72035e63"},"vehicle_type_id":"4","last_reported":1702454997,"current_range_meters":23200,"station_id":"ce4bh9p2rcd13ifvqec0","pricing_plan_id":"free"},{"bike_id":"bbb47c2f-fbd8-4725-b125-ea68c60eaec7","system_id":"levelo_inurba_marseille","lat":43.316828,"lon":5.404723,"is_reserved":false,"is_disabled":false,"rental_uris":{"android":"levelo://app?vid=bbb47c2f-fbd8-4725-b125-ea68c60eaec7","ios":"levelo://app?vid=bbb47c2f-fbd8-4725-b125-ea68c60eaec7"},"vehicle_type_id":"4","last_reported":1702454997,"current_range_meters":12000,"station_id":"ce4bh012rcd13ifvqd00","pricing_plan_id":"free"},{"bike_id":"53d92f0d-30e8-4a7b-8426-6846b15cdf61","system_id":"levelo_inurba_marseille","lat":43.29612,"lon":5.40023,"is_reserved":false,"is_disabled":false,"rental_uris":{"android":"levelo://app?vid=53d92f0d-30e8-4a7b-8426-6846b15cdf61","ios":"levelo://app?vid=53d92f0d-30e8-4a7b-8426-6846b15cdf61"},"vehicle_type_id":"4","last_reported":1702454997,"current_range_meters":15600,"station_id":"","pricing_plan_id":"free"},{"bike_id":"a49c5c64-bff0-47bf-af2c-aa258506df4f","system_id":"levelo_inurba_marseille","lat":43.323353,"lon":5.406124,"is_reserved":false,"is_disabled":false,"rental_uris":{"android":"levelo://app?vid=a49c5c64-bff0-47bf-af2c-aa258506df4f","ios":"levelo://app?vid=a49c5c64-bff0-47bf-af2c-aa258506df4f"},"vehicle_type_id":"4","last_reported":1702454997,"current_range_meters":31200,"station_id":"ce4bhq92rcd13ifvqhjg","pricing_plan_id":"free"},{"bike_id":"7647af49-1e2c-4b8e-8271-8a0e041d1483","system_id":"levelo_inurba_marseille","lat":43.32344,"lon":5.40624,"is_reserved":false,"is_disabled":false,"rental_uris":{"android":"levelo://app?vid=7647af49-1e2c-4b8e-8271-8a0e041d1483","ios":"levelo://app?vid=7647af49-1e2c-4b8e-8271-8a0e041d1483"},"vehicle_type_id":"4","last_reported":1702454997,"current_range_meters":0,"station_id":"ce4bhq92rcd13ifvqhjg","pricing_plan_id":"free"},{"bike_id":"02b736b5-3933-4c7a-9b06-0188c462dd77","system_id":"levelo_inurba_marseille","lat":43.284793,"lon":5.384119,"is_reserved":false,"is_disabled":false,"rental_uris":{"android":"levelo://app?vid=02b736b5-3933-4c7a-9b06-0188c462dd77","ios":"levelo://app?vid=02b736b5-3933-4c7a-9b06-0188c462dd77"},"vehicle_type_id":"4","last_reported":1702454997,"current_range_meters":11200,"station_id":"ce4bh512rcd13ifvqe3g","pricing_plan_id":"free"},{"bike_id":"5d3f83ed-fd59-4813-b3f2-cc845ff9fb08","system_id":"levelo_inurba_marseille","lat":43.283494,"lon":5.380945,"is_reserved":false,"is_disabled":false,"rental_uris":{"android":"levelo://app?vid=5d3f83ed-fd59-4813-b3f2-cc845ff9fb08","ios":"levelo://app?vid=5d3f83ed-fd59-4813-b3f2-cc845ff9fb08"},"vehicle_type_id":"4","last_reported":1702454997,"current_range_meters":11600,"station_id":"ce4bh412rcd13ifvqdr0","pricing_plan_id":"free"},{"bike_id":"079a9048-a019-4927-9572-7503858f6af7","system_id":"levelo_inurba_marseille","lat":43.289363,"lon":5.396322,"is_reserved":false,"is_disabled":false,"rental_uris":{"android":"levelo://app?vid=079a9048-a019-4927-9572-7503858f6af7","ios":"levelo://app?vid=079a9048-a019-4927-9572-7503858f6af7"},"vehicle_type_id":"4","last_reported":1702454997,"current_range_meters":17600,"station_id":"ce4bh3h2rcd13ifvqdn0","pricing_plan_id":"free"},{"bike_id":"ac47d4d2-ac64-4ad4-a28a-c9993ec60e8c","system_id":"levelo_inurba_marseille","lat":43.290404,"lon":5.399612,"is_reserved":false,"is_disabled":false,"rental_uris":{"android":"levelo://app?vid=ac47d4d2-ac64-4ad4-a28a-c9993ec60e8c","ios":"levelo://app?vid=ac47d4d2-ac64-4ad4-a28a-c9993ec60e8c"},"vehicle_type_id":"4","last_reported":1702454997,"current_range_meters":30400,"station_id":"","pricing_plan_id":"free"},{"bike_id":"c2a97232-1ab8-4ede-9f0c-879f2c3be379","system_id":"levelo_inurba_marseille","lat":43.28573,"lon":5.394992,"is_reserved":false,"is_disabled":false,"rental_uris":{"android":"levelo://app?vid=c2a97232-1ab8-4ede-9f0c-879f2c3be379","ios":"levelo://app?vid=c2a97232-1ab8-4ede-9f0c-879f2c3be379"},"vehicle_type_id":"4","last_reported":1702454997,"current_range_meters":20400,"station_id":"ce4bh292rcd13ifvqdg0","pricing_plan_id":"free"},{"bike_id":"9f0a0553-ca14-40a5-987d-77f17f2a9d5b","system_id":"levelo_inurba_marseille","lat":43.28573,"lon":5.394992,"is_reserved":false,"is_disabled":false,"rental_uris":{"android":"levelo://app?vid=9f0a0553-ca14-40a5-987d-77f17f2a9d5b","ios":"levelo://app?vid=9f0a0553-ca14-40a5-987d-77f17f2a9d5b"},"vehicle_type_id":"4","last_reported":1702454997,"current_range_meters":13200,"station_id":"ce4bh292rcd13ifvqdg0","pricing_plan_id":"free"},{"bike_id":"3a4d2c9d-3dd0-44b2-bd24-6f65c04f3652","system_id":"levelo_inurba_marseille","lat":43.326605,"lon":5.409903,"is_reserved":false,"is_disabled":false,"rental_uris":{"android":"levelo://app?vid=3a4d2c9d-3dd0-44b2-bd24-6f65c04f3652","ios":"levelo://app?vid=3a4d2c9d-3dd0-44b2-bd24-6f65c04f3652"},"vehicle_type_id":"4","last_reported":1702454997,"current_range_meters":26400,"station_id":"ce4bhpp2rcd13ifvqhgg","pricing_plan_id":"free"},{"bike_id":"7b12e561-7dea-43fb-a938-03acb4d64507","system_id":"levelo_inurba_marseille","lat":43.304188,"lon":5.412904,"is_reserved":false,"is_disabled":false,"rental_uris":{"android":"levelo://app?vid=7b12e561-7dea-43fb-a938-03acb4d64507","ios":"levelo://app?vid=7b12e561-7dea-43fb-a938-03acb4d64507"},"vehicle_type_id":"4","last_reported":1702454997,"current_range_meters":28800,"station_id":"ce4bhop2rcd13ifvqh8g","pricing_plan_id":"free"},{"bike_id":"85b05ecc-80c0-46f5-959a-727551c6cbc9","system_id":"levelo_inurba_marseille","lat":43.32049,"lon":5.41544,"is_reserved":false,"is_disabled":false,"rental_uris":{"android":"levelo://app?vid=85b05ecc-80c0-46f5-959a-727551c6cbc9","ios":"levelo://app?vid=85b05ecc-80c0-46f5-959a-727551c6cbc9"},"vehicle_type_id":"4","last_reported":1702454997,"current_range_meters":0,"station_id":"ce4bhq92rcd13ifvqhkg","pricing_plan_id":"free"},{"bike_id":"5ef148be-4bb8-4878-91e5-9c6211c24cd3","system_id":"levelo_inurba_marseille","lat":43.279742,"lon":5.38744,"is_reserved":false,"is_disabled":false,"rental_uris":{"android":"levelo://app?vid=5ef148be-4bb8-4878-91e5-9c6211c24cd3","ios":"levelo://app?vid=5ef148be-4bb8-4878-91e5-9c6211c24cd3"},"vehicle_type_id":"4","last_reported":1702454997,"current_range_meters":19200,"station_id":"ce4bhg12rcd13ifvqf80","pricing_plan_id":"free"},{"bike_id":"f19f1f04-095c-4be9-a206-f9a6def78940","system_id":"levelo_inurba_marseille","lat":43.3262,"lon":5.41359,"is_reserved":false,"is_disabled":false,"rental_uris":{"android":"levelo://app?vid=f19f1f04-095c-4be9-a206-f9a6def78940","ios":"levelo://app?vid=f19f1f04-095c-4be9-a206-f9a6def78940"},"vehicle_type_id":"4","last_reported":1702454997,"current_range_meters":8400,"station_id":"","pricing_plan_id":"free"},{"bike_id":"41daf4f4-70c1-4e6a-9103-754401046825","system_id":"levelo_inurba_marseille","lat":43.325233,"lon":5.414318,"is_reserved":false,"is_disabled":false,"rental_uris":{"android":"levelo://app?vid=41daf4f4-70c1-4e6a-9103-754401046825","ios":"levelo://app?vid=41daf4f4-70c1-4e6a-9103-754401046825"},"vehicle_type_id":"4","last_reported":1702454997,"current_range_meters":14000,"station_id":"ce4bhq12rcd13ifvqhhg","pricing_plan_id":"free"},{"bike_id":"d2decb6a-0615-4ef5-91a0-17ea7a9b1868","system_id":"levelo_inurba_marseille","lat":43.325243,"lon":5.414326,"is_reserved":false,"is_disabled":false,"rental_uris":{"android":"levelo://app?vid=d2decb6a-0615-4ef5-91a0-17ea7a9b1868","ios":"levelo://app?vid=d2decb6a-0615-4ef5-91a0-17ea7a9b1868"},"vehicle_type_id":"4","last_reported":1702454997,"current_range_meters":16800,"station_id":"ce4bhq12rcd13ifvqhhg","pricing_plan_id":"free"},{"bike_id":"cdad76ba-aaf3-43f5-bf77-e53b8e256e12","system_id":"levelo_inurba_marseille","lat":43.325233,"lon":5.414318,"is_reserved":false,"is_disabled":false,"rental_uris":{"android":"levelo://app?vid=cdad76ba-aaf3-43f5-bf77-e53b8e256e12","ios":"levelo://app?vid=cdad76ba-aaf3-43f5-bf77-e53b8e256e12"},"vehicle_type_id":"4","last_reported":1702454997,"current_range_meters":24800,"station_id":"ce4bhq12rcd13ifvqhhg","pricing_plan_id":"free"},{"bike_id":"8e814ecb-5dbf-4da1-91b3-8823fe935348","system_id":"levelo_inurba_marseille","lat":43.325233,"lon":5.414318,"is_reserved":false,"is_disabled":false,"rental_uris":{"android":"levelo://app?vid=8e814ecb-5dbf-4da1-91b3-8823fe935348","ios":"levelo://app?vid=8e814ecb-5dbf-4da1-91b3-8823fe935348"},"vehicle_type_id":"4","last_reported":1702454997,"current_range_meters":20400,"station_id":"ce4bhq12rcd13ifvqhhg","pricing_plan_id":"free"},{"bike_id":"13ed7864-5e28-4879-bef0-43ec97cea419","system_id":"levelo_inurba_marseille","lat":43.325243,"lon":5.414326,"is_reserved":false,"is_disabled":false,"rental_uris":{"android":"levelo://app?vid=13ed7864-5e28-4879-bef0-43ec97cea419","ios":"levelo://app?vid=13ed7864-5e28-4879-bef0-43ec97cea419"},"vehicle_type_id":"4","last_reported":1702454997,"current_range_meters":20400,"station_id":"ce4bhq12rcd13ifvqhhg","pricing_plan_id":"free"},{"bike_id":"bca5a27f-c25f-433b-ad08-f15021e37e7e","system_id":"levelo_inurba_marseille","lat":43.325243,"lon":5.414326,"is_reserved":false,"is_disabled":false,"rental_uris":{"android":"levelo://app?vid=bca5a27f-c25f-433b-ad08-f15021e37e7e","ios":"levelo://app?vid=bca5a27f-c25f-433b-ad08-f15021e37e7e"},"vehicle_type_id":"4","last_reported":1702454997,"current_range_meters":28400,"station_id":"ce4bhq12rcd13ifvqhhg","pricing_plan_id":"free"},{"bike_id":"7fef914d-05f6-48cb-9574-76e6499d4dc4","system_id":"levelo_inurba_marseille","lat":43.325243,"lon":5.414326,"is_reserved":false,"is_disabled":false,"rental_uris":{"android":"levelo://app?vid=7fef914d-05f6-48cb-9574-76e6499d4dc4","ios":"levelo://app?vid=7fef914d-05f6-48cb-9574-76e6499d4dc4"},"vehicle_type_id":"4","last_reported":1702454997,"current_range_meters":23600,"station_id":"ce4bhq12rcd13ifvqhhg","pricing_plan_id":"free"},{"bike_id":"2ebed63a-d06c-4bf2-8fe7-0a8769e4a4fb","system_id":"levelo_inurba_marseille","lat":43.336148,"lon":5.410349,"is_reserved":false,"is_disabled":false,"rental_uris":{"android":"levelo://app?vid=2ebed63a-d06c-4bf2-8fe7-0a8769e4a4fb","ios":"levelo://app?vid=2ebed63a-d06c-4bf2-8fe7-0a8769e4a4fb"},"vehicle_type_id":"4","last_reported":1702454997,"current_range_meters":18400,"station_id":"ce4bhqh2rcd13ifvqhmg","pricing_plan_id":"free"},{"bike_id":"b2c7d88c-210a-4321-850f-bfd0a5784e43","system_id":"levelo_inurba_marseille","lat":43.33606,"lon":5.41031,"is_reserved":false,"is_disabled":false,"rental_uris":{"android":"levelo://app?vid=b2c7d88c-210a-4321-850f-bfd0a5784e43","ios":"levelo://app?vid=b2c7d88c-210a-4321-850f-bfd0a5784e43"},"vehicle_type_id":"4","last_reported":1702454997,"current_range_meters":26400,"station_id":"ce4bhqh2rcd13ifvqhmg","pricing_plan_id":"free"},{"bike_id":"615d6c0f-be02-4cf9-b9de-3f3c234ab430","system_id":"levelo_inurba_marseille","lat":43.336148,"lon":5.410349,"is_reserved":false,"is_disabled":false,"rental_uris":{"android":"levelo://app?vid=615d6c0f-be02-4cf9-b9de-3f3c234ab430","ios":"levelo://app?vid=615d6c0f-be02-4cf9-b9de-3f3c234ab430"},"vehicle_type_id":"4","last_reported":1702454997,"current_range_meters":18800,"station_id":"ce4bhqh2rcd13ifvqhmg","pricing_plan_id":"free"},{"bike_id":"65422a31-db74-4478-a36d-e9073245d27e","system_id":"levelo_inurba_marseille","lat":43.276771,"lon":5.388799,"is_reserved":false,"is_disabled":false,"rental_uris":{"android":"levelo://app?vid=65422a31-db74-4478-a36d-e9073245d27e","ios":"levelo://app?vid=65422a31-db74-4478-a36d-e9073245d27e"},"vehicle_type_id":"4","last_reported":1702454997,"current_range_meters":16000,"station_id":"ce4bhi12rcd13ifvqfo0","pricing_plan_id":"free"},{"bike_id":"9f4aac77-b9fd-4e02-8da1-4b39cb263313","system_id":"levelo_inurba_marseille","lat":43.336148,"lon":5.410349,"is_reserved":false,"is_disabled":false,"rental_uris":{"android":"levelo://app?vid=9f4aac77-b9fd-4e02-8da1-4b39cb263313","ios":"levelo://app?vid=9f4aac77-b9fd-4e02-8da1-4b39cb263313"},"vehicle_type_id":"4","last_reported":1702454997,"current_range_meters":9600,"station_id":"ce4bhqh2rcd13ifvqhmg","pricing_plan_id":"free"},{"bike_id":"f5d8aa2c-7e1b-4102-94f6-752202b8b1ea","system_id":"levelo_inurba_marseille","lat":43.276771,"lon":5.388799,"is_reserved":false,"is_disabled":false,"rental_uris":{"android":"levelo://app?vid=f5d8aa2c-7e1b-4102-94f6-752202b8b1ea","ios":"levelo://app?vid=f5d8aa2c-7e1b-4102-94f6-752202b8b1ea"},"vehicle_type_id":"4","last_reported":1702454997,"current_range_meters":10000,"station_id":"ce4bhi12rcd13ifvqfo0","pricing_plan_id":"free"},{"bike_id":"c7a377fe-e35a-4e86-82a2-c842b4abbc25","system_id":"levelo_inurba_marseille","lat":43.276769,"lon":5.388787,"is_reserved":false,"is_disabled":false,"rental_uris":{"android":"levelo://app?vid=c7a377fe-e35a-4e86-82a2-c842b4abbc25","ios":"levelo://app?vid=c7a377fe-e35a-4e86-82a2-c842b4abbc25"},"vehicle_type_id":"4","last_reported":1702454997,"current_range_meters":21200,"station_id":"ce4bhi12rcd13ifvqfo0","pricing_plan_id":"free"},{"bike_id":"fe0a789f-e57a-472a-b8c8-b3b0f92ab63e","system_id":"levelo_inurba_marseille","lat":43.317121,"lon":5.423936,"is_reserved":false,"is_disabled":false,"rental_uris":{"android":"levelo://app?vid=fe0a789f-e57a-472a-b8c8-b3b0f92ab63e","ios":"levelo://app?vid=fe0a789f-e57a-472a-b8c8-b3b0f92ab63e"},"vehicle_type_id":"4","last_reported":1702454997,"current_range_meters":6800,"station_id":"ce4bhp92rcd13ifvqhbg","pricing_plan_id":"free"},{"bike_id":"3f2ff6f7-f4b7-4970-a83f-c76ac30a4fae","system_id":"levelo_inurba_marseille","lat":43.310832,"lon":5.424281,"is_reserved":false,"is_disabled":false,"rental_uris":{"android":"levelo://app?vid=3f2ff6f7-f4b7-4970-a83f-c76ac30a4fae","ios":"levelo://app?vid=3f2ff6f7-f4b7-4970-a83f-c76ac30a4fae"},"vehicle_type_id":"4","last_reported":1702454997,"current_range_meters":11200,"station_id":"","pricing_plan_id":"free"},{"bike_id":"e15fcb76-150b-4e94-ba14-1765fbabad44","system_id":"levelo_inurba_marseille","lat":43.310785,"lon":5.424305,"is_reserved":false,"is_disabled":false,"rental_uris":{"android":"levelo://app?vid=e15fcb76-150b-4e94-ba14-1765fbabad44","ios":"levelo://app?vid=e15fcb76-150b-4e94-ba14-1765fbabad44"},"vehicle_type_id":"4","last_reported":1702454997,"current_range_meters":31200,"station_id":"ce4bhp92rcd13ifvqhag","pricing_plan_id":"free"},{"bike_id":"66a0ee86-9264-40d0-8482-8ebef1989e38","system_id":"levelo_inurba_marseille","lat":43.27623,"lon":5.394892,"is_reserved":false,"is_disabled":false,"rental_uris":{"android":"levelo://app?vid=66a0ee86-9264-40d0-8482-8ebef1989e38","ios":"levelo://app?vid=66a0ee86-9264-40d0-8482-8ebef1989e38"},"vehicle_type_id":"4","last_reported":1702454997,"current_range_meters":0,"station_id":"","pricing_plan_id":"free"},{"bike_id":"b1c028eb-0fe1-4afa-b35c-b9783a0e9537","system_id":"levelo_inurba_marseille","lat":43.31723,"lon":5.42405,"is_reserved":false,"is_disabled":false,"rental_uris":{"android":"levelo://app?vid=b1c028eb-0fe1-4afa-b35c-b9783a0e9537","ios":"levelo://app?vid=b1c028eb-0fe1-4afa-b35c-b9783a0e9537"},"vehicle_type_id":"4","last_reported":1702454997,"current_range_meters":2800,"station_id":"ce4bhp92rcd13ifvqhbg","pricing_plan_id":"free"},{"bike_id":"1d5ae7fc-d788-4e3b-9e50-c093618912d7","system_id":"levelo_inurba_marseille","lat":43.310785,"lon":5.424305,"is_reserved":false,"is_disabled":false,"rental_uris":{"android":"levelo://app?vid=1d5ae7fc-d788-4e3b-9e50-c093618912d7","ios":"levelo://app?vid=1d5ae7fc-d788-4e3b-9e50-c093618912d7"},"vehicle_type_id":"4","last_reported":1702454997,"current_range_meters":23600,"station_id":"ce4bhp92rcd13ifvqhag","pricing_plan_id":"free"},{"bike_id":"280c51f4-a63c-441a-8bb6-1199267e463c","system_id":"levelo_inurba_marseille","lat":43.340804,"lon":5.410219,"is_reserved":false,"is_disabled":false,"rental_uris":{"android":"levelo://app?vid=280c51f4-a63c-441a-8bb6-1199267e463c","ios":"levelo://app?vid=280c51f4-a63c-441a-8bb6-1199267e463c"},"vehicle_type_id":"4","last_reported":1702454997,"current_range_meters":21200,"station_id":"ce4bhqh2rcd13ifvqhlg","pricing_plan_id":"free"},{"bike_id":"8efdea31-6d8e-4c78-81e8-b21d5fe06482","system_id":"levelo_inurba_marseille","lat":43.340804,"lon":5.410219,"is_reserved":false,"is_disabled":false,"rental_uris":{"android":"levelo://app?vid=8efdea31-6d8e-4c78-81e8-b21d5fe06482","ios":"levelo://app?vid=8efdea31-6d8e-4c78-81e8-b21d5fe06482"},"vehicle_type_id":"4","last_reported":1702454997,"current_range_meters":27200,"station_id":"ce4bhqh2rcd13ifvqhlg","pricing_plan_id":"free"},{"bike_id":"61a9b484-7355-4cf6-8693-c63404a20eed","system_id":"levelo_inurba_marseille","lat":43.340804,"lon":5.410219,"is_reserved":false,"is_disabled":false,"rental_uris":{"android":"levelo://app?vid=61a9b484-7355-4cf6-8693-c63404a20eed","ios":"levelo://app?vid=61a9b484-7355-4cf6-8693-c63404a20eed"},"vehicle_type_id":"4","last_reported":1702454997,"current_range_meters":18000,"station_id":"ce4bhqh2rcd13ifvqhlg","pricing_plan_id":"free"},{"bike_id":"3ca2c2d2-99b0-4aa6-a05d-e30f02e6a7fb","system_id":"levelo_inurba_marseille","lat":43.27588,"lon":5.39495,"is_reserved":false,"is_disabled":false,"rental_uris":{"android":"levelo://app?vid=3ca2c2d2-99b0-4aa6-a05d-e30f02e6a7fb","ios":"levelo://app?vid=3ca2c2d2-99b0-4aa6-a05d-e30f02e6a7fb"},"vehicle_type_id":"4","last_reported":1702454997,"current_range_meters":17200,"station_id":"","pricing_plan_id":"free"},{"bike_id":"d7a6c85d-a811-4fa8-800a-8c7d7fbad1e5","system_id":"levelo_inurba_marseille","lat":43.28654,"lon":5.413063,"is_reserved":false,"is_disabled":false,"rental_uris":{"android":"levelo://app?vid=d7a6c85d-a811-4fa8-800a-8c7d7fbad1e5","ios":"levelo://app?vid=d7a6c85d-a811-4fa8-800a-8c7d7fbad1e5"},"vehicle_type_id":"4","last_reported":1702454997,"current_range_meters":0,"station_id":"","pricing_plan_id":"free"},{"bike_id":"714bb3db-074d-41a5-b776-6fb3a9d0aa80","system_id":"levelo_inurba_marseille","lat":43.274099,"lon":5.394019,"is_reserved":false,"is_disabled":false,"rental_uris":{"android":"levelo://app?vid=714bb3db-074d-41a5-b776-6fb3a9d0aa80","ios":"levelo://app?vid=714bb3db-074d-41a5-b776-6fb3a9d0aa80"},"vehicle_type_id":"4","last_reported":1702454997,"current_range_meters":6400,"station_id":"ce4bhdp2rcd13ifvqf20","pricing_plan_id":"free"},{"bike_id":"4a36bfe2-5dc6-4085-b52c-6dae1120d621","system_id":"levelo_inurba_marseille","lat":43.304096,"lon":5.425385,"is_reserved":false,"is_disabled":false,"rental_uris":{"android":"levelo://app?vid=4a36bfe2-5dc6-4085-b52c-6dae1120d621","ios":"levelo://app?vid=4a36bfe2-5dc6-4085-b52c-6dae1120d621"},"vehicle_type_id":"4","last_reported":1702454997,"current_range_meters":28400,"station_id":"ce4bhoh2rcd13ifvqh6g","pricing_plan_id":"free"},{"bike_id":"4e1627ea-4460-4169-a925-874b52096169","system_id":"levelo_inurba_marseille","lat":43.295511,"lon":5.422926,"is_reserved":false,"is_disabled":false,"rental_uris":{"android":"levelo://app?vid=4e1627ea-4460-4169-a925-874b52096169","ios":"levelo://app?vid=4e1627ea-4460-4169-a925-874b52096169"},"vehicle_type_id":"4","last_reported":1702454997,"current_range_meters":30400,"station_id":"ce4bhph2rcd13ifvqhdg","pricing_plan_id":"free"},{"bike_id":"b570eaa6-73a8-460a-a0b7-1c0a1b9e5833","system_id":"levelo_inurba_marseille","lat":43.295523,"lon":5.422926,"is_reserved":false,"is_disabled":false,"rental_uris":{"android":"levelo://app?vid=b570eaa6-73a8-460a-a0b7-1c0a1b9e5833","ios":"levelo://app?vid=b570eaa6-73a8-460a-a0b7-1c0a1b9e5833"},"vehicle_type_id":"4","last_reported":1702454997,"current_range_meters":21200,"station_id":"ce4bhph2rcd13ifvqhdg","pricing_plan_id":"free"},{"bike_id":"6ff25550-737c-4744-88be-829d08788ea1","system_id":"levelo_inurba_marseille","lat":43.269467,"lon":5.386439,"is_reserved":false,"is_disabled":false,"rental_uris":{"android":"levelo://app?vid=6ff25550-737c-4744-88be-829d08788ea1","ios":"levelo://app?vid=6ff25550-737c-4744-88be-829d08788ea1"},"vehicle_type_id":"4","last_reported":1702454997,"current_range_meters":16000,"station_id":"ce4bhh92rcd13ifvqfh0","pricing_plan_id":"free"},{"bike_id":"0446c0ad-4fca-4998-aeec-6fc43f9edeae","system_id":"levelo_inurba_marseille","lat":43.269467,"lon":5.386439,"is_reserved":false,"is_disabled":false,"rental_uris":{"android":"levelo://app?vid=0446c0ad-4fca-4998-aeec-6fc43f9edeae","ios":"levelo://app?vid=0446c0ad-4fca-4998-aeec-6fc43f9edeae"},"vehicle_type_id":"4","last_reported":1702454997,"current_range_meters":26000,"station_id":"ce4bhh92rcd13ifvqfh0","pricing_plan_id":"free"},{"bike_id":"143f1605-18cc-4949-98ed-981ab0a5cc37","system_id":"levelo_inurba_marseille","lat":43.269467,"lon":5.386439,"is_reserved":false,"is_disabled":false,"rental_uris":{"android":"levelo://app?vid=143f1605-18cc-4949-98ed-981ab0a5cc37","ios":"levelo://app?vid=143f1605-18cc-4949-98ed-981ab0a5cc37"},"vehicle_type_id":"4","last_reported":1702454997,"current_range_meters":17600,"station_id":"ce4bhh92rcd13ifvqfh0","pricing_plan_id":"free"},{"bike_id":"e41fb344-6480-4030-b49f-569bf61b6764","system_id":"levelo_inurba_marseille","lat":43.269467,"lon":5.386439,"is_reserved":false,"is_disabled":false,"rental_uris":{"android":"levelo://app?vid=e41fb344-6480-4030-b49f-569bf61b6764","ios":"levelo://app?vid=e41fb344-6480-4030-b49f-569bf61b6764"},"vehicle_type_id":"4","last_reported":1702454997,"current_range_meters":22400,"station_id":"ce4bhh92rcd13ifvqfh0","pricing_plan_id":"free"},{"bike_id":"33566000-1e76-439c-bafd-e73bc3e16c5f","system_id":"levelo_inurba_marseille","lat":43.279465,"lon":5.410561,"is_reserved":false,"is_disabled":false,"rental_uris":{"android":"levelo://app?vid=33566000-1e76-439c-bafd-e73bc3e16c5f","ios":"levelo://app?vid=33566000-1e76-439c-bafd-e73bc3e16c5f"},"vehicle_type_id":"4","last_reported":1702454997,"current_range_meters":0,"station_id":"ce4bhnp2rcd13ifvqh0g","pricing_plan_id":"free"},{"bike_id":"b4f71b67-1e4e-4956-ae98-6d02bfb54408","system_id":"levelo_inurba_marseille","lat":43.2668,"lon":5.38263,"is_reserved":false,"is_disabled":false,"rental_uris":{"android":"levelo://app?vid=b4f71b67-1e4e-4956-ae98-6d02bfb54408","ios":"levelo://app?vid=b4f71b67-1e4e-4956-ae98-6d02bfb54408"},"vehicle_type_id":"4","last_reported":1702454997,"current_range_meters":6000,"station_id":"ce4bhg92rcd13ifvqf90","pricing_plan_id":"free"},{"bike_id":"e9b64e48-2906-4cee-bb0b-04fb577a4c2b","system_id":"levelo_inurba_marseille","lat":43.2668,"lon":5.38267,"is_reserved":false,"is_disabled":false,"rental_uris":{"android":"levelo://app?vid=e9b64e48-2906-4cee-bb0b-04fb577a4c2b","ios":"levelo://app?vid=e9b64e48-2906-4cee-bb0b-04fb577a4c2b"},"vehicle_type_id":"4","last_reported":1702454997,"current_range_meters":8800,"station_id":"ce4bhg92rcd13ifvqf90","pricing_plan_id":"free"},{"bike_id":"1279f38c-9ffd-4f96-b2e2-0d61915e3e76","system_id":"levelo_inurba_marseille","lat":43.26681,"lon":5.382694,"is_reserved":false,"is_disabled":false,"rental_uris":{"android":"levelo://app?vid=1279f38c-9ffd-4f96-b2e2-0d61915e3e76","ios":"levelo://app?vid=1279f38c-9ffd-4f96-b2e2-0d61915e3e76"},"vehicle_type_id":"4","last_reported":1702454997,"current_range_meters":12400,"station_id":"ce4bhg92rcd13ifvqf90","pricing_plan_id":"free"},{"bike_id":"f73fa7d0-061f-4631-87d4-cc0b2401aaa6","system_id":"levelo_inurba_marseille","lat":43.26674,"lon":5.38262,"is_reserved":false,"is_disabled":false,"rental_uris":{"android":"levelo://app?vid=f73fa7d0-061f-4631-87d4-cc0b2401aaa6","ios":"levelo://app?vid=f73fa7d0-061f-4631-87d4-cc0b2401aaa6"},"vehicle_type_id":"4","last_reported":1702454997,"current_range_meters":25600,"station_id":"ce4bhg92rcd13ifvqf90","pricing_plan_id":"free"},{"bike_id":"e4f2e677-90f8-4480-80cd-9b1d93b79e1a","system_id":"levelo_inurba_marseille","lat":43.27996,"lon":5.416624,"is_reserved":false,"is_disabled":false,"rental_uris":{"android":"levelo://app?vid=e4f2e677-90f8-4480-80cd-9b1d93b79e1a","ios":"levelo://app?vid=e4f2e677-90f8-4480-80cd-9b1d93b79e1a"},"vehicle_type_id":"4","last_reported":1702454997,"current_range_meters":15200,"station_id":"ce4bho12rcd13ifvqh1g","pricing_plan_id":"free"},{"bike_id":"a7749ee7-26ae-4a4b-894c-bb44de118883","system_id":"levelo_inurba_marseille","lat":43.265659,"lon":5.390084,"is_reserved":false,"is_disabled":false,"rental_uris":{"android":"levelo://app?vid=a7749ee7-26ae-4a4b-894c-bb44de118883","ios":"levelo://app?vid=a7749ee7-26ae-4a4b-894c-bb44de118883"},"vehicle_type_id":"4","last_reported":1702454997,"current_range_meters":23200,"station_id":"ce4bhe12rcd13ifvqf30","pricing_plan_id":"free"},{"bike_id":"2ea87c76-085e-4e3c-8cf6-dc0ef786ad68","system_id":"levelo_inurba_marseille","lat":43.2656,"lon":5.390245,"is_reserved":false,"is_disabled":false,"rental_uris":{"android":"levelo://app?vid=2ea87c76-085e-4e3c-8cf6-dc0ef786ad68","ios":"levelo://app?vid=2ea87c76-085e-4e3c-8cf6-dc0ef786ad68"},"vehicle_type_id":"4","last_reported":1702454997,"current_range_meters":23200,"station_id":"ce4bhe12rcd13ifvqf30","pricing_plan_id":"free"},{"bike_id":"7010811e-5d6a-4506-8f86-a2839f396acc","system_id":"levelo_inurba_marseille","lat":43.26202,"lon":5.379299,"is_reserved":false,"is_disabled":false,"rental_uris":{"android":"levelo://app?vid=7010811e-5d6a-4506-8f86-a2839f396acc","ios":"levelo://app?vid=7010811e-5d6a-4506-8f86-a2839f396acc"},"vehicle_type_id":"4","last_reported":1702454997,"current_range_meters":30000,"station_id":"ce4bhjp2rcd13ifvqg90","pricing_plan_id":"free"},{"bike_id":"bc2f9279-5d9e-4c6c-9489-ecc06d1146aa","system_id":"levelo_inurba_marseille","lat":43.271368,"lon":5.40928,"is_reserved":false,"is_disabled":false,"rental_uris":{"android":"levelo://app?vid=bc2f9279-5d9e-4c6c-9489-ecc06d1146aa","ios":"levelo://app?vid=bc2f9279-5d9e-4c6c-9489-ecc06d1146aa"},"vehicle_type_id":"4","last_reported":1702454997,"current_range_meters":14400,"station_id":"ce4bhl12rcd13ifvqgf0","pricing_plan_id":"free"},{"bike_id":"383e139c-3bb6-4daf-a45c-7a9d4e30f140","system_id":"levelo_inurba_marseille","lat":43.281548,"lon":5.42643,"is_reserved":false,"is_disabled":false,"rental_uris":{"android":"levelo://app?vid=383e139c-3bb6-4daf-a45c-7a9d4e30f140","ios":"levelo://app?vid=383e139c-3bb6-4daf-a45c-7a9d4e30f140"},"vehicle_type_id":"4","last_reported":1702454997,"current_range_meters":26800,"station_id":"ce4bhnh2rcd13ifvqgug","pricing_plan_id":"free"},{"bike_id":"a31174c0-f5c2-4cad-8cc4-913df26114f0","system_id":"levelo_inurba_marseille","lat":43.28152,"lon":5.42642,"is_reserved":false,"is_disabled":false,"rental_uris":{"android":"levelo://app?vid=a31174c0-f5c2-4cad-8cc4-913df26114f0","ios":"levelo://app?vid=a31174c0-f5c2-4cad-8cc4-913df26114f0"},"vehicle_type_id":"4","last_reported":1702454997,"current_range_meters":20000,"station_id":"ce4bhnh2rcd13ifvqgug","pricing_plan_id":"free"},{"bike_id":"64125827-a0af-4771-8f6f-85000e0dbd9a","system_id":"levelo_inurba_marseille","lat":43.28154,"lon":5.42646,"is_reserved":false,"is_disabled":false,"rental_uris":{"android":"levelo://app?vid=64125827-a0af-4771-8f6f-85000e0dbd9a","ios":"levelo://app?vid=64125827-a0af-4771-8f6f-85000e0dbd9a"},"vehicle_type_id":"4","last_reported":1702454997,"current_range_meters":18800,"station_id":"ce4bhnh2rcd13ifvqgug","pricing_plan_id":"free"},{"bike_id":"22629fef-dcbc-451f-99d9-ae21da47c622","system_id":"levelo_inurba_marseille","lat":43.281534,"lon":5.426466,"is_reserved":false,"is_disabled":false,"rental_uris":{"android":"levelo://app?vid=22629fef-dcbc-451f-99d9-ae21da47c622","ios":"levelo://app?vid=22629fef-dcbc-451f-99d9-ae21da47c622"},"vehicle_type_id":"4","last_reported":1702454997,"current_range_meters":11600,"station_id":"ce4bhnh2rcd13ifvqgug","pricing_plan_id":"free"},{"bike_id":"28e52ee3-390e-4359-8953-9e6647d18e16","system_id":"levelo_inurba_marseille","lat":43.28152,"lon":5.42651,"is_reserved":false,"is_disabled":false,"rental_uris":{"android":"levelo://app?vid=28e52ee3-390e-4359-8953-9e6647d18e16","ios":"levelo://app?vid=28e52ee3-390e-4359-8953-9e6647d18e16"},"vehicle_type_id":"4","last_reported":1702454997,"current_range_meters":26000,"station_id":"ce4bhnh2rcd13ifvqgug","pricing_plan_id":"free"},{"bike_id":"af0fd724-f210-4160-9045-dce816492d5d","system_id":"levelo_inurba_marseille","lat":43.2607,"lon":5.393983,"is_reserved":false,"is_disabled":false,"rental_uris":{"android":"levelo://app?vid=af0fd724-f210-4160-9045-dce816492d5d","ios":"levelo://app?vid=af0fd724-f210-4160-9045-dce816492d5d"},"vehicle_type_id":"4","last_reported":1702454997,"current_range_meters":19600,"station_id":"ce4bhh92rcd13ifvqfj0","pricing_plan_id":"free"},{"bike_id":"145ba03e-f3d6-4f34-83d2-a2ba7062a026","system_id":"levelo_inurba_marseille","lat":43.275028,"lon":5.424534,"is_reserved":false,"is_disabled":false,"rental_uris":{"android":"levelo://app?vid=145ba03e-f3d6-4f34-83d2-a2ba7062a026","ios":"levelo://app?vid=145ba03e-f3d6-4f34-83d2-a2ba7062a026"},"vehicle_type_id":"4","last_reported":1702454997,"current_range_meters":22000,"station_id":"ce4bhn92rcd13ifvqgrg","pricing_plan_id":"free"},{"bike_id":"90d5fbb3-db78-4dbf-b663-2e69a4f8cc1b","system_id":"levelo_inurba_marseille","lat":43.275028,"lon":5.424534,"is_reserved":false,"is_disabled":false,"rental_uris":{"android":"levelo://app?vid=90d5fbb3-db78-4dbf-b663-2e69a4f8cc1b","ios":"levelo://app?vid=90d5fbb3-db78-4dbf-b663-2e69a4f8cc1b"},"vehicle_type_id":"4","last_reported":1702454997,"current_range_meters":25200,"station_id":"ce4bhn92rcd13ifvqgrg","pricing_plan_id":"free"},{"bike_id":"cce728e5-10f1-441c-af03-90a0c1e29896","system_id":"levelo_inurba_marseille","lat":43.275028,"lon":5.424534,"is_reserved":false,"is_disabled":false,"rental_uris":{"android":"levelo://app?vid=cce728e5-10f1-441c-af03-90a0c1e29896","ios":"levelo://app?vid=cce728e5-10f1-441c-af03-90a0c1e29896"},"vehicle_type_id":"4","last_reported":1702454997,"current_range_meters":23200,"station_id":"ce4bhn92rcd13ifvqgrg","pricing_plan_id":"free"},{"bike_id":"55676f63-e2aa-41d4-a9aa-18ad58bf432e","system_id":"levelo_inurba_marseille","lat":43.275028,"lon":5.424534,"is_reserved":false,"is_disabled":false,"rental_uris":{"android":"levelo://app?vid=55676f63-e2aa-41d4-a9aa-18ad58bf432e","ios":"levelo://app?vid=55676f63-e2aa-41d4-a9aa-18ad58bf432e"},"vehicle_type_id":"4","last_reported":1702454997,"current_range_meters":31200,"station_id":"ce4bhn92rcd13ifvqgrg","pricing_plan_id":"free"},{"bike_id":"30ad3222-c02e-46dc-9cb8-03a31a79a834","system_id":"levelo_inurba_marseille","lat":43.275028,"lon":5.424534,"is_reserved":false,"is_disabled":false,"rental_uris":{"android":"levelo://app?vid=30ad3222-c02e-46dc-9cb8-03a31a79a834","ios":"levelo://app?vid=30ad3222-c02e-46dc-9cb8-03a31a79a834"},"vehicle_type_id":"4","last_reported":1702454997,"current_range_meters":22800,"station_id":"ce4bhn92rcd13ifvqgrg","pricing_plan_id":"free"},{"bike_id":"edf103af-f9ea-4edb-a620-2936127ea68c","system_id":"levelo_inurba_marseille","lat":43.275028,"lon":5.424534,"is_reserved":false,"is_disabled":false,"rental_uris":{"android":"levelo://app?vid=edf103af-f9ea-4edb-a620-2936127ea68c","ios":"levelo://app?vid=edf103af-f9ea-4edb-a620-2936127ea68c"},"vehicle_type_id":"4","last_reported":1702454997,"current_range_meters":22800,"station_id":"ce4bhn92rcd13ifvqgrg","pricing_plan_id":"free"},{"bike_id":"52f7521e-0075-46ee-a221-ef2c80e3548a","system_id":"levelo_inurba_marseille","lat":43.275028,"lon":5.424534,"is_reserved":false,"is_disabled":false,"rental_uris":{"android":"levelo://app?vid=52f7521e-0075-46ee-a221-ef2c80e3548a","ios":"levelo://app?vid=52f7521e-0075-46ee-a221-ef2c80e3548a"},"vehicle_type_id":"4","last_reported":1702454997,"current_range_meters":13200,"station_id":"ce4bhn92rcd13ifvqgrg","pricing_plan_id":"free"},{"bike_id":"230d1998-3a5c-4ebd-ab97-43fbf67c09a6","system_id":"levelo_inurba_marseille","lat":43.27495,"lon":5.42451,"is_reserved":false,"is_disabled":false,"rental_uris":{"android":"levelo://app?vid=230d1998-3a5c-4ebd-ab97-43fbf67c09a6","ios":"levelo://app?vid=230d1998-3a5c-4ebd-ab97-43fbf67c09a6"},"vehicle_type_id":"4","last_reported":1702454997,"current_range_meters":24400,"station_id":"ce4bhn92rcd13ifvqgrg","pricing_plan_id":"free"},{"bike_id":"a9e69201-3094-4c70-b8ec-d9ce766ff471","system_id":"levelo_inurba_marseille","lat":43.275028,"lon":5.424534,"is_reserved":false,"is_disabled":false,"rental_uris":{"android":"levelo://app?vid=a9e69201-3094-4c70-b8ec-d9ce766ff471","ios":"levelo://app?vid=a9e69201-3094-4c70-b8ec-d9ce766ff471"},"vehicle_type_id":"4","last_reported":1702454997,"current_range_meters":14000,"station_id":"ce4bhn92rcd13ifvqgrg","pricing_plan_id":"free"},{"bike_id":"3e01b48c-bd05-4752-8a77-1daac3ba9d41","system_id":"levelo_inurba_marseille","lat":43.27494,"lon":5.42451,"is_reserved":false,"is_disabled":false,"rental_uris":{"android":"levelo://app?vid=3e01b48c-bd05-4752-8a77-1daac3ba9d41","ios":"levelo://app?vid=3e01b48c-bd05-4752-8a77-1daac3ba9d41"},"vehicle_type_id":"4","last_reported":1702454997,"current_range_meters":21600,"station_id":"ce4bhn92rcd13ifvqgrg","pricing_plan_id":"free"},{"bike_id":"1451ed9b-fe84-419a-b1d5-e8f84e0ed322","system_id":"levelo_inurba_marseille","lat":43.27494,"lon":5.42451,"is_reserved":false,"is_disabled":false,"rental_uris":{"android":"levelo://app?vid=1451ed9b-fe84-419a-b1d5-e8f84e0ed322","ios":"levelo://app?vid=1451ed9b-fe84-419a-b1d5-e8f84e0ed322"},"vehicle_type_id":"4","last_reported":1702454997,"current_range_meters":31200,"station_id":"ce4bhn92rcd13ifvqgrg","pricing_plan_id":"free"},{"bike_id":"dab504f2-a48e-41d7-a364-675c81464ffc","system_id":"levelo_inurba_marseille","lat":43.27493,"lon":5.4245,"is_reserved":false,"is_disabled":false,"rental_uris":{"android":"levelo://app?vid=dab504f2-a48e-41d7-a364-675c81464ffc","ios":"levelo://app?vid=dab504f2-a48e-41d7-a364-675c81464ffc"},"vehicle_type_id":"4","last_reported":1702454997,"current_range_meters":18000,"station_id":"ce4bhn92rcd13ifvqgrg","pricing_plan_id":"free"},{"bike_id":"706d3d5b-8bb8-44aa-92cc-e2f166556867","system_id":"levelo_inurba_marseille","lat":43.27493,"lon":5.4245,"is_reserved":false,"is_disabled":false,"rental_uris":{"android":"levelo://app?vid=706d3d5b-8bb8-44aa-92cc-e2f166556867","ios":"levelo://app?vid=706d3d5b-8bb8-44aa-92cc-e2f166556867"},"vehicle_type_id":"4","last_reported":1702454997,"current_range_meters":22800,"station_id":"ce4bhn92rcd13ifvqgrg","pricing_plan_id":"free"},{"bike_id":"4d368ea5-0e8b-4103-8838-19e15b49f25a","system_id":"levelo_inurba_marseille","lat":43.275028,"lon":5.424534,"is_reserved":false,"is_disabled":false,"rental_uris":{"android":"levelo://app?vid=4d368ea5-0e8b-4103-8838-19e15b49f25a","ios":"levelo://app?vid=4d368ea5-0e8b-4103-8838-19e15b49f25a"},"vehicle_type_id":"4","last_reported":1702454997,"current_range_meters":18800,"station_id":"ce4bhn92rcd13ifvqgrg","pricing_plan_id":"free"},{"bike_id":"96435139-4e80-4111-a2d3-eddd6fd8d6da","system_id":"levelo_inurba_marseille","lat":43.275028,"lon":5.424534,"is_reserved":false,"is_disabled":false,"rental_uris":{"android":"levelo://app?vid=96435139-4e80-4111-a2d3-eddd6fd8d6da","ios":"levelo://app?vid=96435139-4e80-4111-a2d3-eddd6fd8d6da"},"vehicle_type_id":"4","last_reported":1702454997,"current_range_meters":10800,"station_id":"ce4bhn92rcd13ifvqgrg","pricing_plan_id":"free"},{"bike_id":"4d0c71de-ce50-4c6f-9f30-74445d5a83ae","system_id":"levelo_inurba_marseille","lat":43.25587,"lon":5.38233,"is_reserved":false,"is_disabled":false,"rental_uris":{"android":"levelo://app?vid=4d0c71de-ce50-4c6f-9f30-74445d5a83ae","ios":"levelo://app?vid=4d0c71de-ce50-4c6f-9f30-74445d5a83ae"},"vehicle_type_id":"4","last_reported":1702454997,"current_range_meters":27600,"station_id":"ce4bhih2rcd13ifvqfs0","pricing_plan_id":"free"},{"bike_id":"bb0e086c-001f-41f5-bf8b-943d0f6db280","system_id":"levelo_inurba_marseille","lat":43.258224,"lon":5.394369,"is_reserved":false,"is_disabled":false,"rental_uris":{"android":"levelo://app?vid=bb0e086c-001f-41f5-bf8b-943d0f6db280","ios":"levelo://app?vid=bb0e086c-001f-41f5-bf8b-943d0f6db280"},"vehicle_type_id":"4","last_reported":1702454997,"current_range_meters":24000,"station_id":"ce4bhip2rcd13ifvqft0","pricing_plan_id":"free"},{"bike_id":"edecca3c-871e-48a1-9d9b-680ef11d2673","system_id":"levelo_inurba_marseille","lat":43.25575,"lon":5.3823,"is_reserved":false,"is_disabled":false,"rental_uris":{"android":"levelo://app?vid=edecca3c-871e-48a1-9d9b-680ef11d2673","ios":"levelo://app?vid=edecca3c-871e-48a1-9d9b-680ef11d2673"},"vehicle_type_id":"4","last_reported":1702454997,"current_range_meters":20000,"station_id":"ce4bhih2rcd13ifvqfs0","pricing_plan_id":"free"},{"bike_id":"8f82f722-baf6-4a17-b4d5-1d388e742d98","system_id":"levelo_inurba_marseille","lat":43.25575,"lon":5.38238,"is_reserved":false,"is_disabled":false,"rental_uris":{"android":"levelo://app?vid=8f82f722-baf6-4a17-b4d5-1d388e742d98","ios":"levelo://app?vid=8f82f722-baf6-4a17-b4d5-1d388e742d98"},"vehicle_type_id":"4","last_reported":1702454997,"current_range_meters":14000,"station_id":"ce4bhih2rcd13ifvqfs0","pricing_plan_id":"free"},{"bike_id":"7641d20a-3297-445a-9fc5-52085faa8582","system_id":"levelo_inurba_marseille","lat":43.270721,"lon":5.422764,"is_reserved":false,"is_disabled":false,"rental_uris":{"android":"levelo://app?vid=7641d20a-3297-445a-9fc5-52085faa8582","ios":"levelo://app?vid=7641d20a-3297-445a-9fc5-52085faa8582"},"vehicle_type_id":"4","last_reported":1702454997,"current_range_meters":23200,"station_id":"ce4bhk92rcd13ifvqgb0","pricing_plan_id":"free"},{"bike_id":"5f61d5d9-fb62-4351-8a4d-470de39e72a2","system_id":"levelo_inurba_marseille","lat":43.258658,"lon":5.398935,"is_reserved":false,"is_disabled":false,"rental_uris":{"android":"levelo://app?vid=5f61d5d9-fb62-4351-8a4d-470de39e72a2","ios":"levelo://app?vid=5f61d5d9-fb62-4351-8a4d-470de39e72a2"},"vehicle_type_id":"4","last_reported":1702454997,"current_range_meters":29200,"station_id":"ce4bhl92rcd13ifvqghg","pricing_plan_id":"free"},{"bike_id":"0a9cdefe-88ec-469b-9af2-cc7ead3d85b0","system_id":"levelo_inurba_marseille","lat":43.258658,"lon":5.398935,"is_reserved":false,"is_disabled":false,"rental_uris":{"android":"levelo://app?vid=0a9cdefe-88ec-469b-9af2-cc7ead3d85b0","ios":"levelo://app?vid=0a9cdefe-88ec-469b-9af2-cc7ead3d85b0"},"vehicle_type_id":"4","last_reported":1702454997,"current_range_meters":27200,"station_id":"ce4bhl92rcd13ifvqghg","pricing_plan_id":"free"},{"bike_id":"1fe35241-90af-400e-bfa5-b9dcb4673da0","system_id":"levelo_inurba_marseille","lat":43.25936,"lon":5.40912,"is_reserved":false,"is_disabled":false,"rental_uris":{"android":"levelo://app?vid=1fe35241-90af-400e-bfa5-b9dcb4673da0","ios":"levelo://app?vid=1fe35241-90af-400e-bfa5-b9dcb4673da0"},"vehicle_type_id":"4","last_reported":1702454997,"current_range_meters":21200,"station_id":"ce4bhm92rcd13ifvqglg","pricing_plan_id":"free"},{"bike_id":"24bd5834-b673-4cb0-a1e8-d6c03ecdae8d","system_id":"levelo_inurba_marseille","lat":43.259013,"lon":5.409301,"is_reserved":false,"is_disabled":false,"rental_uris":{"android":"levelo://app?vid=24bd5834-b673-4cb0-a1e8-d6c03ecdae8d","ios":"levelo://app?vid=24bd5834-b673-4cb0-a1e8-d6c03ecdae8d"},"vehicle_type_id":"4","last_reported":1702454997,"current_range_meters":2800,"station_id":"ce4bhm92rcd13ifvqglg","pricing_plan_id":"free"},{"bike_id":"19e4093a-ac82-432d-8bbc-43176b7dbed3","system_id":"levelo_inurba_marseille","lat":43.25934,"lon":5.40913,"is_reserved":false,"is_disabled":false,"rental_uris":{"android":"levelo://app?vid=19e4093a-ac82-432d-8bbc-43176b7dbed3","ios":"levelo://app?vid=19e4093a-ac82-432d-8bbc-43176b7dbed3"},"vehicle_type_id":"4","last_reported":1702454997,"current_range_meters":0,"station_id":"ce4bhm92rcd13ifvqglg","pricing_plan_id":"free"},{"bike_id":"95aceb84-4e62-4a22-a3ba-b7c2cf268896","system_id":"levelo_inurba_marseille","lat":43.259013,"lon":5.409301,"is_reserved":false,"is_disabled":false,"rental_uris":{"android":"levelo://app?vid=95aceb84-4e62-4a22-a3ba-b7c2cf268896","ios":"levelo://app?vid=95aceb84-4e62-4a22-a3ba-b7c2cf268896"},"vehicle_type_id":"4","last_reported":1702454997,"current_range_meters":19600,"station_id":"ce4bhm92rcd13ifvqglg","pricing_plan_id":"free"},{"bike_id":"5738a85a-6cbb-4d59-b6cd-81dd22a29cb5","system_id":"levelo_inurba_marseille","lat":43.25931,"lon":5.40912,"is_reserved":false,"is_disabled":false,"rental_uris":{"android":"levelo://app?vid=5738a85a-6cbb-4d59-b6cd-81dd22a29cb5","ios":"levelo://app?vid=5738a85a-6cbb-4d59-b6cd-81dd22a29cb5"},"vehicle_type_id":"4","last_reported":1702454997,"current_range_meters":30400,"station_id":"ce4bhm92rcd13ifvqglg","pricing_plan_id":"free"},{"bike_id":"7ce61fdd-204c-4f58-9fa5-f402abbb3ad3","system_id":"levelo_inurba_marseille","lat":43.250023,"lon":5.38919,"is_reserved":false,"is_disabled":false,"rental_uris":{"android":"levelo://app?vid=7ce61fdd-204c-4f58-9fa5-f402abbb3ad3","ios":"levelo://app?vid=7ce61fdd-204c-4f58-9fa5-f402abbb3ad3"},"vehicle_type_id":"4","last_reported":1702454997,"current_range_meters":24400,"station_id":"ce4bhgp2rcd13ifvqfd0","pricing_plan_id":"free"},{"bike_id":"84a00949-e09c-4203-b244-a13c3671162a","system_id":"levelo_inurba_marseille","lat":43.25102,"lon":5.403214,"is_reserved":false,"is_disabled":false,"rental_uris":{"android":"levelo://app?vid=84a00949-e09c-4203-b244-a13c3671162a","ios":"levelo://app?vid=84a00949-e09c-4203-b244-a13c3671162a"},"vehicle_type_id":"4","last_reported":1702454997,"current_range_meters":20800,"station_id":"ce4bhlh2rcd13ifvqgig","pricing_plan_id":"free"},{"bike_id":"337fcd4a-fff1-4eab-b27d-7ad0e5c5a0c7","system_id":"levelo_inurba_marseille","lat":43.240623,"lon":5.377642,"is_reserved":false,"is_disabled":false,"rental_uris":{"android":"levelo://app?vid=337fcd4a-fff1-4eab-b27d-7ad0e5c5a0c7","ios":"levelo://app?vid=337fcd4a-fff1-4eab-b27d-7ad0e5c5a0c7"},"vehicle_type_id":"4","last_reported":1702454997,"current_range_meters":22800,"station_id":"ce4bhnp2rcd13ifvqgvg","pricing_plan_id":"free"},{"bike_id":"c2a1c464-7bfa-4950-8dd1-fe287bf0bada","system_id":"levelo_inurba_marseille","lat":43.24077,"lon":5.37764,"is_reserved":false,"is_disabled":false,"rental_uris":{"android":"levelo://app?vid=c2a1c464-7bfa-4950-8dd1-fe287bf0bada","ios":"levelo://app?vid=c2a1c464-7bfa-4950-8dd1-fe287bf0bada"},"vehicle_type_id":"4","last_reported":1702454997,"current_range_meters":23200,"station_id":"ce4bhnp2rcd13ifvqgvg","pricing_plan_id":"free"},{"bike_id":"54aef1ee-ab23-4a10-b3b4-ed98e73a5d51","system_id":"levelo_inurba_marseille","lat":43.24075,"lon":5.37759,"is_reserved":false,"is_disabled":false,"rental_uris":{"android":"levelo://app?vid=54aef1ee-ab23-4a10-b3b4-ed98e73a5d51","ios":"levelo://app?vid=54aef1ee-ab23-4a10-b3b4-ed98e73a5d51"},"vehicle_type_id":"4","last_reported":1702454997,"current_range_meters":24800,"station_id":"ce4bhnp2rcd13ifvqgvg","pricing_plan_id":"free"},{"bike_id":"5b726ebf-359b-4d8e-8046-55590f3d5a03","system_id":"levelo_inurba_marseille","lat":43.24075,"lon":5.37762,"is_reserved":false,"is_disabled":false,"rental_uris":{"android":"levelo://app?vid=5b726ebf-359b-4d8e-8046-55590f3d5a03","ios":"levelo://app?vid=5b726ebf-359b-4d8e-8046-55590f3d5a03"},"vehicle_type_id":"4","last_reported":1702454997,"current_range_meters":15600,"station_id":"ce4bhnp2rcd13ifvqgvg","pricing_plan_id":"free"},{"bike_id":"cb8321c9-5e50-49f0-827e-7cebadcbe5be","system_id":"levelo_inurba_marseille","lat":43.24074,"lon":5.37758,"is_reserved":false,"is_disabled":false,"rental_uris":{"android":"levelo://app?vid=cb8321c9-5e50-49f0-827e-7cebadcbe5be","ios":"levelo://app?vid=cb8321c9-5e50-49f0-827e-7cebadcbe5be"},"vehicle_type_id":"4","last_reported":1702454997,"current_range_meters":6800,"station_id":"ce4bhnp2rcd13ifvqgvg","pricing_plan_id":"free"},{"bike_id":"80289aa4-c94c-4905-809a-46bc23059906","system_id":"levelo_inurba_marseille","lat":43.24074,"lon":5.37762,"is_reserved":false,"is_disabled":false,"rental_uris":{"android":"levelo://app?vid=80289aa4-c94c-4905-809a-46bc23059906","ios":"levelo://app?vid=80289aa4-c94c-4905-809a-46bc23059906"},"vehicle_type_id":"4","last_reported":1702454997,"current_range_meters":18000,"station_id":"ce4bhnp2rcd13ifvqgvg","pricing_plan_id":"free"},{"bike_id":"e77c93c9-0723-4044-83a0-03e110542231","system_id":"levelo_inurba_marseille","lat":43.24073,"lon":5.3776,"is_reserved":false,"is_disabled":false,"rental_uris":{"android":"levelo://app?vid=e77c93c9-0723-4044-83a0-03e110542231","ios":"levelo://app?vid=e77c93c9-0723-4044-83a0-03e110542231"},"vehicle_type_id":"4","last_reported":1702454997,"current_range_meters":21600,"station_id":"ce4bhnp2rcd13ifvqgvg","pricing_plan_id":"free"},{"bike_id":"d1f26f1c-66c7-4318-906f-15aa2b56ee47","system_id":"levelo_inurba_marseille","lat":43.240623,"lon":5.377642,"is_reserved":false,"is_disabled":false,"rental_uris":{"android":"levelo://app?vid=d1f26f1c-66c7-4318-906f-15aa2b56ee47","ios":"levelo://app?vid=d1f26f1c-66c7-4318-906f-15aa2b56ee47"},"vehicle_type_id":"4","last_reported":1702454997,"current_range_meters":28400,"station_id":"ce4bhnp2rcd13ifvqgvg","pricing_plan_id":"free"},{"bike_id":"0bba32c0-a216-45cd-bf6e-6247f051d79f","system_id":"levelo_inurba_marseille","lat":43.24073,"lon":5.37767,"is_reserved":false,"is_disabled":false,"rental_uris":{"android":"levelo://app?vid=0bba32c0-a216-45cd-bf6e-6247f051d79f","ios":"levelo://app?vid=0bba32c0-a216-45cd-bf6e-6247f051d79f"},"vehicle_type_id":"4","last_reported":1702454997,"current_range_meters":11600,"station_id":"ce4bhnp2rcd13ifvqgvg","pricing_plan_id":"free"},{"bike_id":"6bce1200-d534-49ab-b8cc-042a0f168b35","system_id":"levelo_inurba_marseille","lat":43.24072,"lon":5.37758,"is_reserved":false,"is_disabled":false,"rental_uris":{"android":"levelo://app?vid=6bce1200-d534-49ab-b8cc-042a0f168b35","ios":"levelo://app?vid=6bce1200-d534-49ab-b8cc-042a0f168b35"},"vehicle_type_id":"4","last_reported":1702454997,"current_range_meters":25600,"station_id":"ce4bhnp2rcd13ifvqgvg","pricing_plan_id":"free"},{"bike_id":"772993c4-fd92-4b63-8462-d7105dc5ef04","system_id":"levelo_inurba_marseille","lat":43.24072,"lon":5.37762,"is_reserved":false,"is_disabled":false,"rental_uris":{"android":"levelo://app?vid=772993c4-fd92-4b63-8462-d7105dc5ef04","ios":"levelo://app?vid=772993c4-fd92-4b63-8462-d7105dc5ef04"},"vehicle_type_id":"4","last_reported":1702454997,"current_range_meters":22000,"station_id":"ce4bhnp2rcd13ifvqgvg","pricing_plan_id":"free"},{"bike_id":"8a77754a-6e23-4e54-bc1d-929316518d0e","system_id":"levelo_inurba_marseille","lat":43.240716,"lon":5.377633,"is_reserved":false,"is_disabled":false,"rental_uris":{"android":"levelo://app?vid=8a77754a-6e23-4e54-bc1d-929316518d0e","ios":"levelo://app?vid=8a77754a-6e23-4e54-bc1d-929316518d0e"},"vehicle_type_id":"4","last_reported":1702454997,"current_range_meters":18400,"station_id":"ce4bhnp2rcd13ifvqgvg","pricing_plan_id":"free"},{"bike_id":"69e1da8e-98e0-4ba5-b026-aa706efb71d3","system_id":"levelo_inurba_marseille","lat":43.24071,"lon":5.37763,"is_reserved":false,"is_disabled":false,"rental_uris":{"android":"levelo://app?vid=69e1da8e-98e0-4ba5-b026-aa706efb71d3","ios":"levelo://app?vid=69e1da8e-98e0-4ba5-b026-aa706efb71d3"},"vehicle_type_id":"4","last_reported":1702454997,"current_range_meters":10000,"station_id":"ce4bhnp2rcd13ifvqgvg","pricing_plan_id":"free"},{"bike_id":"cb91079b-2941-45dc-b920-63a6cb07441d","system_id":"levelo_inurba_marseille","lat":43.24071,"lon":5.37765,"is_reserved":false,"is_disabled":false,"rental_uris":{"android":"levelo://app?vid=cb91079b-2941-45dc-b920-63a6cb07441d","ios":"levelo://app?vid=cb91079b-2941-45dc-b920-63a6cb07441d"},"vehicle_type_id":"4","last_reported":1702454997,"current_range_meters":26000,"station_id":"ce4bhnp2rcd13ifvqgvg","pricing_plan_id":"free"},{"bike_id":"7260f420-0839-438c-9ce1-1f48e433ff87","system_id":"levelo_inurba_marseille","lat":43.240623,"lon":5.377642,"is_reserved":false,"is_disabled":false,"rental_uris":{"android":"levelo://app?vid=7260f420-0839-438c-9ce1-1f48e433ff87","ios":"levelo://app?vid=7260f420-0839-438c-9ce1-1f48e433ff87"},"vehicle_type_id":"4","last_reported":1702454997,"current_range_meters":31200,"station_id":"ce4bhnp2rcd13ifvqgvg","pricing_plan_id":"free"},{"bike_id":"5f4ca600-4fc7-4435-aaab-68a96bfc7934","system_id":"levelo_inurba_marseille","lat":43.24069,"lon":5.37763,"is_reserved":false,"is_disabled":false,"rental_uris":{"android":"levelo://app?vid=5f4ca600-4fc7-4435-aaab-68a96bfc7934","ios":"levelo://app?vid=5f4ca600-4fc7-4435-aaab-68a96bfc7934"},"vehicle_type_id":"4","last_reported":1702454997,"current_range_meters":14400,"station_id":"ce4bhnp2rcd13ifvqgvg","pricing_plan_id":"free"},{"bike_id":"65907040-647d-4b31-9062-759da46767a7","system_id":"levelo_inurba_marseille","lat":43.24069,"lon":5.37767,"is_reserved":false,"is_disabled":false,"rental_uris":{"android":"levelo://app?vid=65907040-647d-4b31-9062-759da46767a7","ios":"levelo://app?vid=65907040-647d-4b31-9062-759da46767a7"},"vehicle_type_id":"4","last_reported":1702454997,"current_range_meters":12400,"station_id":"ce4bhnp2rcd13ifvqgvg","pricing_plan_id":"free"},{"bike_id":"9c22ab75-65a5-4b82-b9cb-34c34de7d97f","system_id":"levelo_inurba_marseille","lat":43.240623,"lon":5.377642,"is_reserved":false,"is_disabled":false,"rental_uris":{"android":"levelo://app?vid=9c22ab75-65a5-4b82-b9cb-34c34de7d97f","ios":"levelo://app?vid=9c22ab75-65a5-4b82-b9cb-34c34de7d97f"},"vehicle_type_id":"4","last_reported":1702454997,"current_range_meters":31200,"station_id":"ce4bhnp2rcd13ifvqgvg","pricing_plan_id":"free"},{"bike_id":"d4b297b9-d170-42ac-9006-3276fea62c18","system_id":"levelo_inurba_marseille","lat":43.24067,"lon":5.37753,"is_reserved":false,"is_disabled":false,"rental_uris":{"android":"levelo://app?vid=d4b297b9-d170-42ac-9006-3276fea62c18","ios":"levelo://app?vid=d4b297b9-d170-42ac-9006-3276fea62c18"},"vehicle_type_id":"4","last_reported":1702454997,"current_range_meters":10400,"station_id":"ce4bhnp2rcd13ifvqgvg","pricing_plan_id":"free"},{"bike_id":"e60c3cae-a4ef-4d7c-8342-1aebcbbac30d","system_id":"levelo_inurba_marseille","lat":43.24068,"lon":5.37766,"is_reserved":false,"is_disabled":false,"rental_uris":{"android":"levelo://app?vid=e60c3cae-a4ef-4d7c-8342-1aebcbbac30d","ios":"levelo://app?vid=e60c3cae-a4ef-4d7c-8342-1aebcbbac30d"},"vehicle_type_id":"4","last_reported":1702454997,"current_range_meters":26000,"station_id":"ce4bhnp2rcd13ifvqgvg","pricing_plan_id":"free"},{"bike_id":"116f3e1c-dc64-4d91-b944-45d1251c0c8e","system_id":"levelo_inurba_marseille","lat":43.24066,"lon":5.37757,"is_reserved":false,"is_disabled":false,"rental_uris":{"android":"levelo://app?vid=116f3e1c-dc64-4d91-b944-45d1251c0c8e","ios":"levelo://app?vid=116f3e1c-dc64-4d91-b944-45d1251c0c8e"},"vehicle_type_id":"4","last_reported":1702454997,"current_range_meters":12800,"station_id":"ce4bhnp2rcd13ifvqgvg","pricing_plan_id":"free"},{"bike_id":"045720db-19db-465c-8429-c03704b24fad","system_id":"levelo_inurba_marseille","lat":43.239588,"lon":5.366238,"is_reserved":false,"is_disabled":false,"rental_uris":{"android":"levelo://app?vid=045720db-19db-465c-8429-c03704b24fad","ios":"levelo://app?vid=045720db-19db-465c-8429-c03704b24fad"},"vehicle_type_id":"4","last_reported":1702454997,"current_range_meters":4000,"station_id":"ce4bhi12rcd13ifvqfp0","pricing_plan_id":"free"},{"bike_id":"d4f10a46-c26b-49e3-95d5-9f8c8454ced6","system_id":"levelo_inurba_marseille","lat":43.241782,"lon":5.397261,"is_reserved":false,"is_disabled":false,"rental_uris":{"android":"levelo://app?vid=d4f10a46-c26b-49e3-95d5-9f8c8454ced6","ios":"levelo://app?vid=d4f10a46-c26b-49e3-95d5-9f8c8454ced6"},"vehicle_type_id":"4","last_reported":1702454997,"current_range_meters":21200,"station_id":"ce4bhn12rcd13ifvqgpg","pricing_plan_id":"free"},{"bike_id":"6fb06ddb-97a9-4e82-97f4-85f411863478","system_id":"levelo_inurba_marseille","lat":43.231919,"lon":5.355532,"is_reserved":false,"is_disabled":false,"rental_uris":{"android":"levelo://app?vid=6fb06ddb-97a9-4e82-97f4-85f411863478","ios":"levelo://app?vid=6fb06ddb-97a9-4e82-97f4-85f411863478"},"vehicle_type_id":"4","last_reported":1702454997,"current_range_meters":27200,"station_id":"ce4bhu92rcd13ifvqi70","pricing_plan_id":"free"},{"bike_id":"9a98bb3c-9036-4450-ac50-69f372e3f4af","system_id":"levelo_inurba_marseille","lat":43.23194,"lon":5.35547,"is_reserved":false,"is_disabled":false,"rental_uris":{"android":"levelo://app?vid=9a98bb3c-9036-4450-ac50-69f372e3f4af","ios":"levelo://app?vid=9a98bb3c-9036-4450-ac50-69f372e3f4af"},"vehicle_type_id":"4","last_reported":1702454997,"current_range_meters":10800,"station_id":"ce4bhu92rcd13ifvqi70","pricing_plan_id":"free"},{"bike_id":"ebb80fa1-e0b5-4738-af00-71e836845110","system_id":"levelo_inurba_marseille","lat":43.231562,"lon":5.436933,"is_reserved":false,"is_disabled":false,"rental_uris":{"android":"levelo://app?vid=ebb80fa1-e0b5-4738-af00-71e836845110","ios":"levelo://app?vid=ebb80fa1-e0b5-4738-af00-71e836845110"},"vehicle_type_id":"4","last_reported":1702454997,"current_range_meters":26400,"station_id":"ce4bhmp2rcd13ifvqgog","pricing_plan_id":"free"},{"bike_id":"58ad7b1b-1e96-4241-8f3b-6d49dc932f71","system_id":"levelo_inurba_marseille","lat":43.23149,"lon":5.43719,"is_reserved":false,"is_disabled":false,"rental_uris":{"android":"levelo://app?vid=58ad7b1b-1e96-4241-8f3b-6d49dc932f71","ios":"levelo://app?vid=58ad7b1b-1e96-4241-8f3b-6d49dc932f71"},"vehicle_type_id":"4","last_reported":1702454997,"current_range_meters":11600,"station_id":"ce4bhmp2rcd13ifvqgog","pricing_plan_id":"free"},{"bike_id":"f7b60400-fc08-4a89-bfab-a480add7ef96","system_id":"levelo_inurba_marseille","lat":43.231562,"lon":5.436933,"is_reserved":false,"is_disabled":false,"rental_uris":{"android":"levelo://app?vid=f7b60400-fc08-4a89-bfab-a480add7ef96","ios":"levelo://app?vid=f7b60400-fc08-4a89-bfab-a480add7ef96"},"vehicle_type_id":"4","last_reported":1702454997,"current_range_meters":25600,"station_id":"ce4bhmp2rcd13ifvqgog","pricing_plan_id":"free"}]}}