{"last_updated":1722982108,"ttl":30,"version":"2.2","data":{"bikes":[{"bike_id":"975384cd-ae21-4513-8b38-0b2490f29c82","system_id":"levelo_inurba_marseille","lat":43.313391,"lon":5.36706,"is_reserved":false,"is_disabled":false,"rental_uris":{"android":"levelo://app?vid=975384cd-ae21-4513-8b38-0b2490f29c82","ios":"levelo://app?vid=975384cd-ae21-4513-8b38-0b2490f29c82"},"vehicle_type_id":"4","last_reported":1722982108,"current_range_meters":26800,"station_id":"ce4bgr92rcd13ifvqc6g","pricing_plan_id":"cebpf4jnsgd1na2vs0mg"},{"bike_id":"40b24afa-6a23-4d3e-a1dd-5ca50e528348","system_id":"levelo_inurba_marseille","lat":43.313531,"lon":5.367341,"is_reserved":false,"is_disabled":false,"rental_uris":{"android":"levelo://app?vid=40b24afa-6a23-4d3e-a1dd-5ca50e528348","ios":"levelo://app?vid=40b24afa-6a23-4d3e-a1dd-5ca50e528348"},"vehicle_type_id":"4","last_reported":1722982108,"current_range_meters":24400,"station_id":"ce4bgr92rcd13ifvqc6g","pricing_plan_id":"cebpf4jnsgd1na2vs0mg"},{"bike_id":"d4aee46c-da03-4207-9c61-d07d324fd9ea","system_id":"levelo_inurba_marseille","lat":43.312239,"lon":5.368562,"is_reserved":false,"is_disabled":false,"rental_uris":{"android":"levelo://app?vid=d4aee46c-da03-4207-9c61-d07d324fd9ea","ios":"levelo://app?vid=d4aee46c-da03-4207-9c61-d07d324fd9ea"},"vehicle_type_id":"4","last_reported":1722982108,"current_range_meters":13200,"station_id":"ce4bgl92rcd13ifvqbq0","pricing_plan_id":"cebpf4jnsgd1na2vs0mg"},{"bike_id":"c0be0523-38bf-4c0f-aa56-e90176ccf9e7","system_id":"levelo_inurba_marseille","lat":43.314811,"lon":5.373103,"is_reserved":false,"is_disabled":false,"rental_uris":{"android":"levelo://app?vid=c0be0523-38bf-4c0f-aa56-e90176ccf9e7","ios":"levelo://app?vid=c0be0523-38bf-4c0f-aa56-e90176ccf9e7"},"vehicle_type_id":"4","last_reported":1722982108,"current_range_meters":24000,"station_id":"ce4bgt12rcd13ifvqcd0","pricing_plan_id":"cebpf4jnsgd1na2vs0mg"},{"bike_id":"d5028120-295a-4852-809a-fb0c35dbf6b1","system_id":"levelo_inurba_marseille","lat":43.314811,"lon":5.373103,"is_reserved":false,"is_disabled":false,"rental_uris":{"android":"levelo://app?vid=d5028120-295a-4852-809a-fb0c35dbf6b1","ios":"levelo://app?vid=d5028120-295a-4852-809a-fb0c35dbf6b1"},"vehicle_type_id":"4","last_reported":1722982108,"current_range_meters":13600,"station_id":"ce4bgt12rcd13ifvqcd0","pricing_plan_id":"cebpf4jnsgd1na2vs0mg"},{"bike_id":"6853167f-44aa-4b0a-bfd8-dfe95c5a3cf7","system_id":"levelo_inurba_marseille","lat":43.314811,"lon":5.373103,"is_reserved":false,"is_disabled":false,"rental_uris":{"android":"levelo://app?vid=6853167f-44aa-4b0a-bfd8-dfe95c5a3cf7","ios":"levelo://app?vid=6853167f-44aa-4b0a-bfd8-dfe95c5a3cf7"},"vehicle_type_id":"4","last_reported":1722982108,"current_range_meters":400,"station_id":"ce4bgt12rcd13ifvqcd0","pricing_plan_id":"cebpf4jnsgd1na2vs0mg"},{"bike_id":"4196d311-fa54-4281-889b-5e3be4f4e0a5","system_id":"levelo_inurba_marseille","lat":43.309039,"lon":5.371797,"is_reserved":false,"is_disabled":false,"rental_uris":{"android":"levelo://app?vid=4196d311-fa54-4281-889b-5e3be4f4e0a5","ios":"levelo://app?vid=4196d311-fa54-4281-889b-5e3be4f4e0a5"},"vehicle_type_id":"4","last_reported":1722982108,"current_range_meters":2800,"station_id":"ce4bguh2rcd13ifvqckg","pricing_plan_id":"cebpf4jnsgd1na2vs0mg"},{"bike_id":"3e4df37c-35db-46b2-8279-b37cf4c2de10","system_id":"levelo_inurba_marseille","lat":43.31445,"lon":5.37384,"is_reserved":false,"is_disabled":false,"rental_uris":{"android":"levelo://app?vid=3e4df37c-35db-46b2-8279-b37cf4c2de10","ios":"levelo://app?vid=3e4df37c-35db-46b2-8279-b37cf4c2de10"},"vehicle_type_id":"4","last_reported":1722982108,"current_range_meters":30800,"station_id":"","pricing_plan_id":"cebpf4jnsgd1na2vs0mg"},{"bike_id":"7ab2ced7-fa9c-42c2-ae40-070e2bd80d78","system_id":"levelo_inurba_marseille","lat":43.31712,"lon":5.37319,"is_reserved":false,"is_disabled":false,"rental_uris":{"android":"levelo://app?vid=7ab2ced7-fa9c-42c2-ae40-070e2bd80d78","ios":"levelo://app?vid=7ab2ced7-fa9c-42c2-ae40-070e2bd80d78"},"vehicle_type_id":"4","last_reported":1722982108,"current_range_meters":6400,"station_id":"","pricing_plan_id":"cebpf4jnsgd1na2vs0mg"},{"bike_id":"271fcc76-ab6b-492a-ab2f-2e35c6c27f86","system_id":"levelo_inurba_marseille","lat":43.30937,"lon":5.374823,"is_reserved":false,"is_disabled":false,"rental_uris":{"android":"levelo://app?vid=271fcc76-ab6b-492a-ab2f-2e35c6c27f86","ios":"levelo://app?vid=271fcc76-ab6b-492a-ab2f-2e35c6c27f86"},"vehicle_type_id":"4","last_reported":1722982108,"current_range_meters":4400,"station_id":"","pricing_plan_id":"cebpf4jnsgd1na2vs0mg"},{"bike_id":"59b6578e-c612-467a-a3a3-3d786c5f3597","system_id":"levelo_inurba_marseille","lat":43.305712,"lon":5.365641,"is_reserved":false,"is_disabled":false,"rental_uris":{"android":"levelo://app?vid=59b6578e-c612-467a-a3a3-3d786c5f3597","ios":"levelo://app?vid=59b6578e-c612-467a-a3a3-3d786c5f3597"},"vehicle_type_id":"4","last_reported":1722982108,"current_range_meters":0,"station_id":"ce4bgs12rcd13ifvqcag","pricing_plan_id":"cebpf4jnsgd1na2vs0mg"},{"bike_id":"d09b62ea-0166-41ee-9955-5cd97f063bcf","system_id":"levelo_inurba_marseille","lat":43.31596,"lon":5.37609,"is_reserved":false,"is_disabled":false,"rental_uris":{"android":"levelo://app?vid=d09b62ea-0166-41ee-9955-5cd97f063bcf","ios":"levelo://app?vid=d09b62ea-0166-41ee-9955-5cd97f063bcf"},"vehicle_type_id":"4","last_reported":1722982108,"current_range_meters":29200,"station_id":"","pricing_plan_id":"cebpf4jnsgd1na2vs0mg"},{"bike_id":"365f5ecd-e67a-4719-8557-e1491500c202","system_id":"levelo_inurba_marseille","lat":43.305706,"lon":5.365654,"is_reserved":false,"is_disabled":false,"rental_uris":{"android":"levelo://app?vid=365f5ecd-e67a-4719-8557-e1491500c202","ios":"levelo://app?vid=365f5ecd-e67a-4719-8557-e1491500c202"},"vehicle_type_id":"4","last_reported":1722982108,"current_range_meters":19200,"station_id":"ce4bgs12rcd13ifvqcag","pricing_plan_id":"cebpf4jnsgd1na2vs0mg"},{"bike_id":"925acf2a-e2f2-43fc-bd32-14f89ab4ad22","system_id":"levelo_inurba_marseille","lat":43.305706,"lon":5.365654,"is_reserved":false,"is_disabled":false,"rental_uris":{"android":"levelo://app?vid=925acf2a-e2f2-43fc-bd32-14f89ab4ad22","ios":"levelo://app?vid=925acf2a-e2f2-43fc-bd32-14f89ab4ad22"},"vehicle_type_id":"4","last_reported":1722982108,"current_range_meters":25200,"station_id":"ce4bgs12rcd13ifvqcag","pricing_plan_id":"cebpf4jnsgd1na2vs0mg"},{"bike_id":"2f912263-9d98-4ead-9f47-5c0db4db017a","system_id":"levelo_inurba_marseille","lat":43.305368,"lon":5.367343,"is_reserved":false,"is_disabled":false,"rental_uris":{"android":"levelo://app?vid=2f912263-9d98-4ead-9f47-5c0db4db017a","ios":"levelo://app?vid=2f912263-9d98-4ead-9f47-5c0db4db017a"},"vehicle_type_id":"4","last_reported":1722982108,"current_range_meters":18400,"station_id":"ce4bgrp2rcd13ifvqc9g","pricing_plan_id":"cebpf4jnsgd1na2vs0mg"},{"bike_id":"203d2e83-782f-42c0-89c2-a6a2a120f54e","system_id":"levelo_inurba_marseille","lat":43.311131,"lon":5.377651,"is_reserved":false,"is_disabled":false,"rental_uris":{"android":"levelo://app?vid=203d2e83-782f-42c0-89c2-a6a2a120f54e","ios":"levelo://app?vid=203d2e83-782f-42c0-89c2-a6a2a120f54e"},"vehicle_type_id":"4","last_reported":1722982108,"current_range_meters":21600,"station_id":"ce4bgt92rcd13ifvqcg0","pricing_plan_id":"cebpf4jnsgd1na2vs0mg"},{"bike_id":"6f47f706-9ae4-481c-a66b-6d6cf8f12fe9","system_id":"levelo_inurba_marseille","lat":43.311131,"lon":5.377651,"is_reserved":false,"is_disabled":false,"rental_uris":{"android":"levelo://app?vid=6f47f706-9ae4-481c-a66b-6d6cf8f12fe9","ios":"levelo://app?vid=6f47f706-9ae4-481c-a66b-6d6cf8f12fe9"},"vehicle_type_id":"4","last_reported":1722982108,"current_range_meters":2800,"station_id":"ce4bgt92rcd13ifvqcg0","pricing_plan_id":"cebpf4jnsgd1na2vs0mg"},{"bike_id":"4d4c029e-950b-4d18-86db-c857d9ad3c87","system_id":"levelo_inurba_marseille","lat":43.31106,"lon":5.3778,"is_reserved":false,"is_disabled":false,"rental_uris":{"android":"levelo://app?vid=4d4c029e-950b-4d18-86db-c857d9ad3c87","ios":"levelo://app?vid=4d4c029e-950b-4d18-86db-c857d9ad3c87"},"vehicle_type_id":"4","last_reported":1722982108,"current_range_meters":30000,"station_id":"ce4bgt92rcd13ifvqcg0","pricing_plan_id":"cebpf4jnsgd1na2vs0mg"},{"bike_id":"29752e75-7b0e-4512-a73c-8451050f46fa","system_id":"levelo_inurba_marseille","lat":43.304846,"lon":5.370853,"is_reserved":false,"is_disabled":false,"rental_uris":{"android":"levelo://app?vid=29752e75-7b0e-4512-a73c-8451050f46fa","ios":"levelo://app?vid=29752e75-7b0e-4512-a73c-8451050f46fa"},"vehicle_type_id":"4","last_reported":1722982108,"current_range_meters":8400,"station_id":"","pricing_plan_id":"cebpf4jnsgd1na2vs0mg"},{"bike_id":"b32cf76f-2431-4a4f-91b3-1ac65d5f22bf","system_id":"levelo_inurba_marseille","lat":43.307945,"lon":5.376487,"is_reserved":false,"is_disabled":false,"rental_uris":{"android":"levelo://app?vid=b32cf76f-2431-4a4f-91b3-1ac65d5f22bf","ios":"levelo://app?vid=b32cf76f-2431-4a4f-91b3-1ac65d5f22bf"},"vehicle_type_id":"4","last_reported":1722982108,"current_range_meters":31200,"station_id":"ce4bgv92rcd13ifvqcq0","pricing_plan_id":"cebpf4jnsgd1na2vs0mg"},{"bike_id":"29d24b92-2ee5-46d4-aec6-62da727206fe","system_id":"levelo_inurba_marseille","lat":43.317075,"lon":5.377367,"is_reserved":false,"is_disabled":false,"rental_uris":{"android":"levelo://app?vid=29d24b92-2ee5-46d4-aec6-62da727206fe","ios":"levelo://app?vid=29d24b92-2ee5-46d4-aec6-62da727206fe"},"vehicle_type_id":"4","last_reported":1722982108,"current_range_meters":29600,"station_id":"ce4bgth2rcd13ifvqch0","pricing_plan_id":"cebpf4jnsgd1na2vs0mg"},{"bike_id":"1f755b1d-e73c-4bd5-8215-4e526e353092","system_id":"levelo_inurba_marseille","lat":43.317075,"lon":5.377367,"is_reserved":false,"is_disabled":false,"rental_uris":{"android":"levelo://app?vid=1f755b1d-e73c-4bd5-8215-4e526e353092","ios":"levelo://app?vid=1f755b1d-e73c-4bd5-8215-4e526e353092"},"vehicle_type_id":"4","last_reported":1722982108,"current_range_meters":21600,"station_id":"ce4bgth2rcd13ifvqch0","pricing_plan_id":"cebpf4jnsgd1na2vs0mg"},{"bike_id":"a8dcecd9-a508-4e2d-959d-8a35b391a12f","system_id":"levelo_inurba_marseille","lat":43.305493,"lon":5.37546,"is_reserved":false,"is_disabled":false,"rental_uris":{"android":"levelo://app?vid=a8dcecd9-a508-4e2d-959d-8a35b391a12f","ios":"levelo://app?vid=a8dcecd9-a508-4e2d-959d-8a35b391a12f"},"vehicle_type_id":"4","last_reported":1722982108,"current_range_meters":5600,"station_id":"","pricing_plan_id":"cebpf4jnsgd1na2vs0mg"},{"bike_id":"22e9df7f-3f65-45a7-816d-9bdd5827b3aa","system_id":"levelo_inurba_marseille","lat":43.303046,"lon":5.368981,"is_reserved":false,"is_disabled":false,"rental_uris":{"android":"levelo://app?vid=22e9df7f-3f65-45a7-816d-9bdd5827b3aa","ios":"levelo://app?vid=22e9df7f-3f65-45a7-816d-9bdd5827b3aa"},"vehicle_type_id":"4","last_reported":1722982108,"current_range_meters":3600,"station_id":"ce4bgqh2rcd13ifvqc5g","pricing_plan_id":"cebpf4jnsgd1na2vs0mg"},{"bike_id":"12ce42fd-51fd-47d3-8dfa-b9767be1de94","system_id":"levelo_inurba_marseille","lat":43.303046,"lon":5.368981,"is_reserved":false,"is_disabled":false,"rental_uris":{"android":"levelo://app?vid=12ce42fd-51fd-47d3-8dfa-b9767be1de94","ios":"levelo://app?vid=12ce42fd-51fd-47d3-8dfa-b9767be1de94"},"vehicle_type_id":"4","last_reported":1722982108,"current_range_meters":28000,"station_id":"ce4bgqh2rcd13ifvqc5g","pricing_plan_id":"cebpf4jnsgd1na2vs0mg"},{"bike_id":"15371d03-4f7f-49fd-a9be-5014ff877113","system_id":"levelo_inurba_marseille","lat":43.30304,"lon":5.368987,"is_reserved":false,"is_disabled":false,"rental_uris":{"android":"levelo://app?vid=15371d03-4f7f-49fd-a9be-5014ff877113","ios":"levelo://app?vid=15371d03-4f7f-49fd-a9be-5014ff877113"},"vehicle_type_id":"4","last_reported":1722982108,"current_range_meters":25200,"station_id":"ce4bgqh2rcd13ifvqc5g","pricing_plan_id":"cebpf4jnsgd1na2vs0mg"},{"bike_id":"63d9e7e3-ce1e-4193-b668-bbd6917544d2","system_id":"levelo_inurba_marseille","lat":43.315112,"lon":5.380266,"is_reserved":false,"is_disabled":false,"rental_uris":{"android":"levelo://app?vid=63d9e7e3-ce1e-4193-b668-bbd6917544d2","ios":"levelo://app?vid=63d9e7e3-ce1e-4193-b668-bbd6917544d2"},"vehicle_type_id":"4","last_reported":1722982108,"current_range_meters":4000,"station_id":"ce4bhsp2rcd13ifvqi50","pricing_plan_id":"cebpf4jnsgd1na2vs0mg"},{"bike_id":"4dcf867c-d764-4bc5-8158-74eed7430209","system_id":"levelo_inurba_marseille","lat":43.3153,"lon":5.380277,"is_reserved":false,"is_disabled":false,"rental_uris":{"android":"levelo://app?vid=4dcf867c-d764-4bc5-8158-74eed7430209","ios":"levelo://app?vid=4dcf867c-d764-4bc5-8158-74eed7430209"},"vehicle_type_id":"4","last_reported":1722982108,"current_range_meters":3600,"station_id":"ce4bhsp2rcd13ifvqi50","pricing_plan_id":"cebpf4jnsgd1na2vs0mg"},{"bike_id":"6dfa9aa5-419c-4f87-bf9f-33238458232b","system_id":"levelo_inurba_marseille","lat":43.301939,"lon":5.366286,"is_reserved":false,"is_disabled":false,"rental_uris":{"android":"levelo://app?vid=6dfa9aa5-419c-4f87-bf9f-33238458232b","ios":"levelo://app?vid=6dfa9aa5-419c-4f87-bf9f-33238458232b"},"vehicle_type_id":"4","last_reported":1722982108,"current_range_meters":17600,"station_id":"ce4bgrh2rcd13ifvqc8g","pricing_plan_id":"cebpf4jnsgd1na2vs0mg"},{"bike_id":"dce7e977-6f08-41af-a5c7-e34e662f035b","system_id":"levelo_inurba_marseille","lat":43.301939,"lon":5.366286,"is_reserved":false,"is_disabled":false,"rental_uris":{"android":"levelo://app?vid=dce7e977-6f08-41af-a5c7-e34e662f035b","ios":"levelo://app?vid=dce7e977-6f08-41af-a5c7-e34e662f035b"},"vehicle_type_id":"4","last_reported":1722982108,"current_range_meters":800,"station_id":"ce4bgrh2rcd13ifvqc8g","pricing_plan_id":"cebpf4jnsgd1na2vs0mg"},{"bike_id":"7cf9719f-b95e-439c-811c-97926231fb40","system_id":"levelo_inurba_marseille","lat":43.301939,"lon":5.366286,"is_reserved":false,"is_disabled":false,"rental_uris":{"android":"levelo://app?vid=7cf9719f-b95e-439c-811c-97926231fb40","ios":"levelo://app?vid=7cf9719f-b95e-439c-811c-97926231fb40"},"vehicle_type_id":"4","last_reported":1722982108,"current_range_meters":10800,"station_id":"ce4bgrh2rcd13ifvqc8g","pricing_plan_id":"cebpf4jnsgd1na2vs0mg"},{"bike_id":"f3521be7-6a34-42b4-b246-d22e8e181542","system_id":"levelo_inurba_marseille","lat":43.308012,"lon":5.381511,"is_reserved":false,"is_disabled":false,"rental_uris":{"android":"levelo://app?vid=f3521be7-6a34-42b4-b246-d22e8e181542","ios":"levelo://app?vid=f3521be7-6a34-42b4-b246-d22e8e181542"},"vehicle_type_id":"4","last_reported":1722982108,"current_range_meters":15600,"station_id":"ce4bgt12rcd13ifvqce0","pricing_plan_id":"cebpf4jnsgd1na2vs0mg"},{"bike_id":"ede58024-3e06-41ab-a3ae-82abc72946db","system_id":"levelo_inurba_marseille","lat":43.308012,"lon":5.381511,"is_reserved":false,"is_disabled":false,"rental_uris":{"android":"levelo://app?vid=ede58024-3e06-41ab-a3ae-82abc72946db","ios":"levelo://app?vid=ede58024-3e06-41ab-a3ae-82abc72946db"},"vehicle_type_id":"4","last_reported":1722982108,"current_range_meters":8400,"station_id":"ce4bgt12rcd13ifvqce0","pricing_plan_id":"cebpf4jnsgd1na2vs0mg"},{"bike_id":"15b8a000-ea24-4fa5-95f7-5b667e0a51bf","system_id":"levelo_inurba_marseille","lat":43.308012,"lon":5.381511,"is_reserved":false,"is_disabled":false,"rental_uris":{"android":"levelo://app?vid=15b8a000-ea24-4fa5-95f7-5b667e0a51bf","ios":"levelo://app?vid=15b8a000-ea24-4fa5-95f7-5b667e0a51bf"},"vehicle_type_id":"4","last_reported":1722982108,"current_range_meters":27200,"station_id":"ce4bgt12rcd13ifvqce0","pricing_plan_id":"cebpf4jnsgd1na2vs0mg"},{"bike_id":"92bdd86c-71cf-46cb-bae9-34465b3bd057","system_id":"levelo_inurba_marseille","lat":43.308012,"lon":5.381511,"is_reserved":false,"is_disabled":false,"rental_uris":{"android":"levelo://app?vid=92bdd86c-71cf-46cb-bae9-34465b3bd057","ios":"levelo://app?vid=92bdd86c-71cf-46cb-bae9-34465b3bd057"},"vehicle_type_id":"4","last_reported":1722982108,"current_range_meters":12800,"station_id":"ce4bgt12rcd13ifvqce0","pricing_plan_id":"cebpf4jnsgd1na2vs0mg"},{"bike_id":"86ebc100-942a-46fe-9f57-9a98b8f8dcc0","system_id":"levelo_inurba_marseille","lat":43.324771,"lon":5.36557,"is_reserved":false,"is_disabled":false,"rental_uris":{"android":"levelo://app?vid=86ebc100-942a-46fe-9f57-9a98b8f8dcc0","ios":"levelo://app?vid=86ebc100-942a-46fe-9f57-9a98b8f8dcc0"},"vehicle_type_id":"4","last_reported":1722982108,"current_range_meters":5600,"station_id":"ce4bhs12rcd13ifvqhvg","pricing_plan_id":"cebpf4jnsgd1na2vs0mg"},{"bike_id":"cab79253-85eb-4d6a-b149-8fe8f1b2de7c","system_id":"levelo_inurba_marseille","lat":43.324771,"lon":5.36557,"is_reserved":false,"is_disabled":false,"rental_uris":{"android":"levelo://app?vid=cab79253-85eb-4d6a-b149-8fe8f1b2de7c","ios":"levelo://app?vid=cab79253-85eb-4d6a-b149-8fe8f1b2de7c"},"vehicle_type_id":"4","last_reported":1722982108,"current_range_meters":15600,"station_id":"ce4bhs12rcd13ifvqhvg","pricing_plan_id":"cebpf4jnsgd1na2vs0mg"},{"bike_id":"67236220-b290-4733-96c4-a8c424b17241","system_id":"levelo_inurba_marseille","lat":43.3247,"lon":5.36567,"is_reserved":false,"is_disabled":false,"rental_uris":{"android":"levelo://app?vid=67236220-b290-4733-96c4-a8c424b17241","ios":"levelo://app?vid=67236220-b290-4733-96c4-a8c424b17241"},"vehicle_type_id":"4","last_reported":1722982108,"current_range_meters":3600,"station_id":"ce4bhs12rcd13ifvqhvg","pricing_plan_id":"cebpf4jnsgd1na2vs0mg"},{"bike_id":"b37d20bd-a720-4085-ba55-0f66c50dbc8d","system_id":"levelo_inurba_marseille","lat":43.324771,"lon":5.36557,"is_reserved":false,"is_disabled":false,"rental_uris":{"android":"levelo://app?vid=b37d20bd-a720-4085-ba55-0f66c50dbc8d","ios":"levelo://app?vid=b37d20bd-a720-4085-ba55-0f66c50dbc8d"},"vehicle_type_id":"4","last_reported":1722982108,"current_range_meters":8400,"station_id":"ce4bhs12rcd13ifvqhvg","pricing_plan_id":"cebpf4jnsgd1na2vs0mg"},{"bike_id":"ec4810b9-099c-4e7d-a0c2-34bd5fc15777","system_id":"levelo_inurba_marseille","lat":43.32473,"lon":5.36563,"is_reserved":false,"is_disabled":false,"rental_uris":{"android":"levelo://app?vid=ec4810b9-099c-4e7d-a0c2-34bd5fc15777","ios":"levelo://app?vid=ec4810b9-099c-4e7d-a0c2-34bd5fc15777"},"vehicle_type_id":"4","last_reported":1722982108,"current_range_meters":5600,"station_id":"ce4bhs12rcd13ifvqhvg","pricing_plan_id":"cebpf4jnsgd1na2vs0mg"},{"bike_id":"772d074a-288d-45ec-b8ed-d85931569abe","system_id":"levelo_inurba_marseille","lat":43.304606,"lon":5.379026,"is_reserved":false,"is_disabled":false,"rental_uris":{"android":"levelo://app?vid=772d074a-288d-45ec-b8ed-d85931569abe","ios":"levelo://app?vid=772d074a-288d-45ec-b8ed-d85931569abe"},"vehicle_type_id":"4","last_reported":1722982108,"current_range_meters":7200,"station_id":"ce4bgup2rcd13ifvqcn0","pricing_plan_id":"cebpf4jnsgd1na2vs0mg"},{"bike_id":"c4af26d5-b0d4-4154-812a-7fdc23b0ac8c","system_id":"levelo_inurba_marseille","lat":43.32475,"lon":5.36561,"is_reserved":false,"is_disabled":false,"rental_uris":{"android":"levelo://app?vid=c4af26d5-b0d4-4154-812a-7fdc23b0ac8c","ios":"levelo://app?vid=c4af26d5-b0d4-4154-812a-7fdc23b0ac8c"},"vehicle_type_id":"4","last_reported":1722982108,"current_range_meters":8800,"station_id":"ce4bhs12rcd13ifvqhvg","pricing_plan_id":"cebpf4jnsgd1na2vs0mg"},{"bike_id":"09f2a512-b5c3-4e26-8512-b27406e139eb","system_id":"levelo_inurba_marseille","lat":43.324771,"lon":5.36557,"is_reserved":false,"is_disabled":false,"rental_uris":{"android":"levelo://app?vid=09f2a512-b5c3-4e26-8512-b27406e139eb","ios":"levelo://app?vid=09f2a512-b5c3-4e26-8512-b27406e139eb"},"vehicle_type_id":"4","last_reported":1722982108,"current_range_meters":16000,"station_id":"ce4bhs12rcd13ifvqhvg","pricing_plan_id":"cebpf4jnsgd1na2vs0mg"},{"bike_id":"0c3cf877-5fce-4372-9396-cfd0ff380805","system_id":"levelo_inurba_marseille","lat":43.324771,"lon":5.36557,"is_reserved":false,"is_disabled":false,"rental_uris":{"android":"levelo://app?vid=0c3cf877-5fce-4372-9396-cfd0ff380805","ios":"levelo://app?vid=0c3cf877-5fce-4372-9396-cfd0ff380805"},"vehicle_type_id":"4","last_reported":1722982108,"current_range_meters":28400,"station_id":"ce4bhs12rcd13ifvqhvg","pricing_plan_id":"cebpf4jnsgd1na2vs0mg"},{"bike_id":"6c7e1867-22e1-4774-8386-93bdcd21f723","system_id":"levelo_inurba_marseille","lat":43.324771,"lon":5.36557,"is_reserved":false,"is_disabled":false,"rental_uris":{"android":"levelo://app?vid=6c7e1867-22e1-4774-8386-93bdcd21f723","ios":"levelo://app?vid=6c7e1867-22e1-4774-8386-93bdcd21f723"},"vehicle_type_id":"4","last_reported":1722982108,"current_range_meters":9200,"station_id":"ce4bhs12rcd13ifvqhvg","pricing_plan_id":"cebpf4jnsgd1na2vs0mg"},{"bike_id":"0fa3bca1-936c-4735-ac76-eea62a1b2047","system_id":"levelo_inurba_marseille","lat":43.324771,"lon":5.36557,"is_reserved":false,"is_disabled":false,"rental_uris":{"android":"levelo://app?vid=0fa3bca1-936c-4735-ac76-eea62a1b2047","ios":"levelo://app?vid=0fa3bca1-936c-4735-ac76-eea62a1b2047"},"vehicle_type_id":"4","last_reported":1722982108,"current_range_meters":15600,"station_id":"ce4bhs12rcd13ifvqhvg","pricing_plan_id":"cebpf4jnsgd1na2vs0mg"},{"bike_id":"03e38786-cc36-4649-a90e-f8f46159e822","system_id":"levelo_inurba_marseille","lat":43.324771,"lon":5.36557,"is_reserved":false,"is_disabled":false,"rental_uris":{"android":"levelo://app?vid=03e38786-cc36-4649-a90e-f8f46159e822","ios":"levelo://app?vid=03e38786-cc36-4649-a90e-f8f46159e822"},"vehicle_type_id":"4","last_reported":1722982108,"current_range_meters":26400,"station_id":"ce4bhs12rcd13ifvqhvg","pricing_plan_id":"cebpf4jnsgd1na2vs0mg"},{"bike_id":"6c2a97c4-c472-418e-a8c2-c3aeebcb4250","system_id":"levelo_inurba_marseille","lat":43.324771,"lon":5.36557,"is_reserved":false,"is_disabled":false,"rental_uris":{"android":"levelo://app?vid=6c2a97c4-c472-418e-a8c2-c3aeebcb4250","ios":"levelo://app?vid=6c2a97c4-c472-418e-a8c2-c3aeebcb4250"},"vehicle_type_id":"4","last_reported":1722982108,"current_range_meters":14000,"station_id":"ce4bhs12rcd13ifvqhvg","pricing_plan_id":"cebpf4jnsgd1na2vs0mg"},{"bike_id":"e59842e6-65ae-4bcd-ae87-db816f11b6c5","system_id":"levelo_inurba_marseille","lat":43.324771,"lon":5.36557,"is_reserved":false,"is_disabled":false,"rental_uris":{"android":"levelo://app?vid=e59842e6-65ae-4bcd-ae87-db816f11b6c5","ios":"levelo://app?vid=e59842e6-65ae-4bcd-ae87-db816f11b6c5"},"vehicle_type_id":"4","last_reported":1722982108,"current_range_meters":31600,"station_id":"ce4bhs12rcd13ifvqhvg","pricing_plan_id":"cebpf4jnsgd1na2vs0mg"},{"bike_id":"8c4daa72-9c24-496e-8ea5-456936fb71a6","system_id":"levelo_inurba_marseille","lat":43.324771,"lon":5.36557,"is_reserved":false,"is_disabled":false,"rental_uris":{"android":"levelo://app?vid=8c4daa72-9c24-496e-8ea5-456936fb71a6","ios":"levelo://app?vid=8c4daa72-9c24-496e-8ea5-456936fb71a6"},"vehicle_type_id":"4","last_reported":1722982108,"current_range_meters":16800,"station_id":"ce4bhs12rcd13ifvqhvg","pricing_plan_id":"cebpf4jnsgd1na2vs0mg"},{"bike_id":"f9cf28b0-44ab-4b7c-bad1-12ae49b2b053","system_id":"levelo_inurba_marseille","lat":43.324771,"lon":5.36557,"is_reserved":false,"is_disabled":false,"rental_uris":{"android":"levelo://app?vid=f9cf28b0-44ab-4b7c-bad1-12ae49b2b053","ios":"levelo://app?vid=f9cf28b0-44ab-4b7c-bad1-12ae49b2b053"},"vehicle_type_id":"4","last_reported":1722982108,"current_range_meters":12800,"station_id":"ce4bhs12rcd13ifvqhvg","pricing_plan_id":"cebpf4jnsgd1na2vs0mg"},{"bike_id":"eb22bc54-df53-49f2-848b-c5d3881298f1","system_id":"levelo_inurba_marseille","lat":43.310804,"lon":5.38359,"is_reserved":false,"is_disabled":false,"rental_uris":{"android":"levelo://app?vid=eb22bc54-df53-49f2-848b-c5d3881298f1","ios":"levelo://app?vid=eb22bc54-df53-49f2-848b-c5d3881298f1"},"vehicle_type_id":"4","last_reported":1722982108,"current_range_meters":28800,"station_id":"ce4bgv92rcd13ifvqcr0","pricing_plan_id":"cebpf4jnsgd1na2vs0mg"},{"bike_id":"eeb75424-e787-4cfc-8a42-5387846e42de","system_id":"levelo_inurba_marseille","lat":43.30187,"lon":5.37491,"is_reserved":false,"is_disabled":false,"rental_uris":{"android":"levelo://app?vid=eeb75424-e787-4cfc-8a42-5387846e42de","ios":"levelo://app?vid=eeb75424-e787-4cfc-8a42-5387846e42de"},"vehicle_type_id":"4","last_reported":1722982108,"current_range_meters":8000,"station_id":"","pricing_plan_id":"cebpf4jnsgd1na2vs0mg"},{"bike_id":"497fe46a-bf8a-4551-ad85-d2e838cdcd2b","system_id":"levelo_inurba_marseille","lat":43.310804,"lon":5.38359,"is_reserved":false,"is_disabled":false,"rental_uris":{"android":"levelo://app?vid=497fe46a-bf8a-4551-ad85-d2e838cdcd2b","ios":"levelo://app?vid=497fe46a-bf8a-4551-ad85-d2e838cdcd2b"},"vehicle_type_id":"4","last_reported":1722982108,"current_range_meters":27200,"station_id":"ce4bgv92rcd13ifvqcr0","pricing_plan_id":"cebpf4jnsgd1na2vs0mg"},{"bike_id":"37ab2d42-fef4-4401-9880-b26f20646747","system_id":"levelo_inurba_marseille","lat":43.310804,"lon":5.38359,"is_reserved":false,"is_disabled":false,"rental_uris":{"android":"levelo://app?vid=37ab2d42-fef4-4401-9880-b26f20646747","ios":"levelo://app?vid=37ab2d42-fef4-4401-9880-b26f20646747"},"vehicle_type_id":"4","last_reported":1722982108,"current_range_meters":28400,"station_id":"ce4bgv92rcd13ifvqcr0","pricing_plan_id":"cebpf4jnsgd1na2vs0mg"},{"bike_id":"2316a210-162c-4c52-990b-dbcb9ca7100c","system_id":"levelo_inurba_marseille","lat":43.302784,"lon":5.377158,"is_reserved":false,"is_disabled":false,"rental_uris":{"android":"levelo://app?vid=2316a210-162c-4c52-990b-dbcb9ca7100c","ios":"levelo://app?vid=2316a210-162c-4c52-990b-dbcb9ca7100c"},"vehicle_type_id":"4","last_reported":1722982108,"current_range_meters":7600,"station_id":"ce4bguh2rcd13ifvqcj0","pricing_plan_id":"cebpf4jnsgd1na2vs0mg"},{"bike_id":"6ece644f-2183-47d8-a6ad-111b65d1770b","system_id":"levelo_inurba_marseille","lat":43.30257,"lon":5.3774,"is_reserved":false,"is_disabled":false,"rental_uris":{"android":"levelo://app?vid=6ece644f-2183-47d8-a6ad-111b65d1770b","ios":"levelo://app?vid=6ece644f-2183-47d8-a6ad-111b65d1770b"},"vehicle_type_id":"4","last_reported":1722982108,"current_range_meters":27200,"station_id":"","pricing_plan_id":"cebpf4jnsgd1na2vs0mg"},{"bike_id":"9f3c9633-86d1-43cf-9e47-eb2f9ada7437","system_id":"levelo_inurba_marseille","lat":43.319935,"lon":5.381699,"is_reserved":false,"is_disabled":false,"rental_uris":{"android":"levelo://app?vid=9f3c9633-86d1-43cf-9e47-eb2f9ada7437","ios":"levelo://app?vid=9f3c9633-86d1-43cf-9e47-eb2f9ada7437"},"vehicle_type_id":"4","last_reported":1722982108,"current_range_meters":21600,"station_id":"ce4bhr12rcd13ifvqhpg","pricing_plan_id":"cebpf4jnsgd1na2vs0mg"},{"bike_id":"1030898f-6ae8-4194-a92a-060fdaeec93e","system_id":"levelo_inurba_marseille","lat":43.319935,"lon":5.381699,"is_reserved":false,"is_disabled":false,"rental_uris":{"android":"levelo://app?vid=1030898f-6ae8-4194-a92a-060fdaeec93e","ios":"levelo://app?vid=1030898f-6ae8-4194-a92a-060fdaeec93e"},"vehicle_type_id":"4","last_reported":1722982108,"current_range_meters":24400,"station_id":"ce4bhr12rcd13ifvqhpg","pricing_plan_id":"cebpf4jnsgd1na2vs0mg"},{"bike_id":"ccd4daea-ba42-4cd7-8a50-3fa93efffa34","system_id":"levelo_inurba_marseille","lat":43.319935,"lon":5.381699,"is_reserved":false,"is_disabled":false,"rental_uris":{"android":"levelo://app?vid=ccd4daea-ba42-4cd7-8a50-3fa93efffa34","ios":"levelo://app?vid=ccd4daea-ba42-4cd7-8a50-3fa93efffa34"},"vehicle_type_id":"4","last_reported":1722982108,"current_range_meters":28800,"station_id":"ce4bhr12rcd13ifvqhpg","pricing_plan_id":"cebpf4jnsgd1na2vs0mg"},{"bike_id":"c4fb209e-28a8-4db9-ab61-6eeefce165de","system_id":"levelo_inurba_marseille","lat":43.319935,"lon":5.381699,"is_reserved":false,"is_disabled":false,"rental_uris":{"android":"levelo://app?vid=c4fb209e-28a8-4db9-ab61-6eeefce165de","ios":"levelo://app?vid=c4fb209e-28a8-4db9-ab61-6eeefce165de"},"vehicle_type_id":"4","last_reported":1722982108,"current_range_meters":9600,"station_id":"ce4bhr12rcd13ifvqhpg","pricing_plan_id":"cebpf4jnsgd1na2vs0mg"},{"bike_id":"8db693f1-fdda-484e-9039-cce7c0fe475b","system_id":"levelo_inurba_marseille","lat":43.319935,"lon":5.381699,"is_reserved":false,"is_disabled":false,"rental_uris":{"android":"levelo://app?vid=8db693f1-fdda-484e-9039-cce7c0fe475b","ios":"levelo://app?vid=8db693f1-fdda-484e-9039-cce7c0fe475b"},"vehicle_type_id":"4","last_reported":1722982108,"current_range_meters":31200,"station_id":"ce4bhr12rcd13ifvqhpg","pricing_plan_id":"cebpf4jnsgd1na2vs0mg"},{"bike_id":"cee43a59-f667-4d4b-8c2c-52f2d3df7807","system_id":"levelo_inurba_marseille","lat":43.3123,"lon":5.38492,"is_reserved":false,"is_disabled":false,"rental_uris":{"android":"levelo://app?vid=cee43a59-f667-4d4b-8c2c-52f2d3df7807","ios":"levelo://app?vid=cee43a59-f667-4d4b-8c2c-52f2d3df7807"},"vehicle_type_id":"4","last_reported":1722982108,"current_range_meters":1600,"station_id":"","pricing_plan_id":"cebpf4jnsgd1na2vs0mg"},{"bike_id":"03282c19-9e9a-4355-aa14-4b2b14132767","system_id":"levelo_inurba_marseille","lat":43.313571,"lon":5.384829,"is_reserved":false,"is_disabled":false,"rental_uris":{"android":"levelo://app?vid=03282c19-9e9a-4355-aa14-4b2b14132767","ios":"levelo://app?vid=03282c19-9e9a-4355-aa14-4b2b14132767"},"vehicle_type_id":"4","last_reported":1722982108,"current_range_meters":29200,"station_id":"ce4bgt92rcd13ifvqcf0","pricing_plan_id":"cebpf4jnsgd1na2vs0mg"},{"bike_id":"82d04625-c96f-4952-86dc-f7925412e8e3","system_id":"levelo_inurba_marseille","lat":43.313571,"lon":5.384829,"is_reserved":false,"is_disabled":false,"rental_uris":{"android":"levelo://app?vid=82d04625-c96f-4952-86dc-f7925412e8e3","ios":"levelo://app?vid=82d04625-c96f-4952-86dc-f7925412e8e3"},"vehicle_type_id":"4","last_reported":1722982108,"current_range_meters":10000,"station_id":"ce4bgt92rcd13ifvqcf0","pricing_plan_id":"cebpf4jnsgd1na2vs0mg"},{"bike_id":"783fc8b6-f0af-4db8-8d85-f15091ba5e13","system_id":"levelo_inurba_marseille","lat":43.313636,"lon":5.384974,"is_reserved":false,"is_disabled":false,"rental_uris":{"android":"levelo://app?vid=783fc8b6-f0af-4db8-8d85-f15091ba5e13","ios":"levelo://app?vid=783fc8b6-f0af-4db8-8d85-f15091ba5e13"},"vehicle_type_id":"4","last_reported":1722982108,"current_range_meters":31200,"station_id":"ce4bgt92rcd13ifvqcf0","pricing_plan_id":"cebpf4jnsgd1na2vs0mg"},{"bike_id":"d518baf2-34eb-4f42-88ae-dbdb57a37e41","system_id":"levelo_inurba_marseille","lat":43.313577,"lon":5.384993,"is_reserved":false,"is_disabled":false,"rental_uris":{"android":"levelo://app?vid=d518baf2-34eb-4f42-88ae-dbdb57a37e41","ios":"levelo://app?vid=d518baf2-34eb-4f42-88ae-dbdb57a37e41"},"vehicle_type_id":"4","last_reported":1722982108,"current_range_meters":29600,"station_id":"ce4bgt92rcd13ifvqcf0","pricing_plan_id":"cebpf4jnsgd1na2vs0mg"},{"bike_id":"fea3f0da-38c4-4853-a068-0f73ef340a8c","system_id":"levelo_inurba_marseille","lat":43.313571,"lon":5.384829,"is_reserved":false,"is_disabled":false,"rental_uris":{"android":"levelo://app?vid=fea3f0da-38c4-4853-a068-0f73ef340a8c","ios":"levelo://app?vid=fea3f0da-38c4-4853-a068-0f73ef340a8c"},"vehicle_type_id":"4","last_reported":1722982108,"current_range_meters":20400,"station_id":"ce4bgt92rcd13ifvqcf0","pricing_plan_id":"cebpf4jnsgd1na2vs0mg"},{"bike_id":"1085f984-4bd6-4dd3-8320-4eb14ce03c77","system_id":"levelo_inurba_marseille","lat":43.30526,"lon":5.38231,"is_reserved":false,"is_disabled":false,"rental_uris":{"android":"levelo://app?vid=1085f984-4bd6-4dd3-8320-4eb14ce03c77","ios":"levelo://app?vid=1085f984-4bd6-4dd3-8320-4eb14ce03c77"},"vehicle_type_id":"4","last_reported":1722982108,"current_range_meters":18400,"station_id":"","pricing_plan_id":"cebpf4jnsgd1na2vs0mg"},{"bike_id":"1f168c90-5ead-4590-a8d8-90b06c09034f","system_id":"levelo_inurba_marseille","lat":43.319935,"lon":5.381699,"is_reserved":false,"is_disabled":false,"rental_uris":{"android":"levelo://app?vid=1f168c90-5ead-4590-a8d8-90b06c09034f","ios":"levelo://app?vid=1f168c90-5ead-4590-a8d8-90b06c09034f"},"vehicle_type_id":"4","last_reported":1722982108,"current_range_meters":11200,"station_id":"ce4bhr12rcd13ifvqhpg","pricing_plan_id":"cebpf4jnsgd1na2vs0mg"},{"bike_id":"d6e26a65-1282-49c2-be26-daa6b5f2eaa7","system_id":"levelo_inurba_marseille","lat":43.305364,"lon":5.384119,"is_reserved":false,"is_disabled":false,"rental_uris":{"android":"levelo://app?vid=d6e26a65-1282-49c2-be26-daa6b5f2eaa7","ios":"levelo://app?vid=d6e26a65-1282-49c2-be26-daa6b5f2eaa7"},"vehicle_type_id":"4","last_reported":1722982108,"current_range_meters":18000,"station_id":"ce4bgg92rcd13ifvqb30","pricing_plan_id":"cebpf4jnsgd1na2vs0mg"},{"bike_id":"e145fd66-8b43-44c9-ae9d-13f8190f059f","system_id":"levelo_inurba_marseille","lat":43.29828,"lon":5.36373,"is_reserved":false,"is_disabled":false,"rental_uris":{"android":"levelo://app?vid=e145fd66-8b43-44c9-ae9d-13f8190f059f","ios":"levelo://app?vid=e145fd66-8b43-44c9-ae9d-13f8190f059f"},"vehicle_type_id":"4","last_reported":1722982108,"current_range_meters":14800,"station_id":"","pricing_plan_id":"cebpf4jnsgd1na2vs0mg"},{"bike_id":"503ca7b6-702e-4725-bae9-11ff6d6ebc7d","system_id":"levelo_inurba_marseille","lat":43.30528,"lon":5.384345,"is_reserved":false,"is_disabled":false,"rental_uris":{"android":"levelo://app?vid=503ca7b6-702e-4725-bae9-11ff6d6ebc7d","ios":"levelo://app?vid=503ca7b6-702e-4725-bae9-11ff6d6ebc7d"},"vehicle_type_id":"4","last_reported":1722982108,"current_range_meters":28800,"station_id":"ce4bgg92rcd13ifvqb30","pricing_plan_id":"cebpf4jnsgd1na2vs0mg"},{"bike_id":"e4f54b4b-6cb4-4d58-9384-fe8a3572d1bf","system_id":"levelo_inurba_marseille","lat":43.305364,"lon":5.384119,"is_reserved":false,"is_disabled":false,"rental_uris":{"android":"levelo://app?vid=e4f54b4b-6cb4-4d58-9384-fe8a3572d1bf","ios":"levelo://app?vid=e4f54b4b-6cb4-4d58-9384-fe8a3572d1bf"},"vehicle_type_id":"4","last_reported":1722982108,"current_range_meters":14800,"station_id":"ce4bgg92rcd13ifvqb30","pricing_plan_id":"cebpf4jnsgd1na2vs0mg"},{"bike_id":"adda2793-e6e6-4abf-bc64-a0063dfac5cf","system_id":"levelo_inurba_marseille","lat":43.311722,"lon":5.387247,"is_reserved":false,"is_disabled":false,"rental_uris":{"android":"levelo://app?vid=adda2793-e6e6-4abf-bc64-a0063dfac5cf","ios":"levelo://app?vid=adda2793-e6e6-4abf-bc64-a0063dfac5cf"},"vehicle_type_id":"4","last_reported":1722982108,"current_range_meters":9200,"station_id":"ce4bgv12rcd13ifvqcp0","pricing_plan_id":"cebpf4jnsgd1na2vs0mg"},{"bike_id":"e44e3fd7-47af-4c17-9a72-faaeecafd5e4","system_id":"levelo_inurba_marseille","lat":43.311722,"lon":5.387247,"is_reserved":false,"is_disabled":false,"rental_uris":{"android":"levelo://app?vid=e44e3fd7-47af-4c17-9a72-faaeecafd5e4","ios":"levelo://app?vid=e44e3fd7-47af-4c17-9a72-faaeecafd5e4"},"vehicle_type_id":"4","last_reported":1722982108,"current_range_meters":16000,"station_id":"ce4bgv12rcd13ifvqcp0","pricing_plan_id":"cebpf4jnsgd1na2vs0mg"},{"bike_id":"2e292509-e79f-4af4-a1ee-939a84e83af5","system_id":"levelo_inurba_marseille","lat":43.311722,"lon":5.387247,"is_reserved":false,"is_disabled":false,"rental_uris":{"android":"levelo://app?vid=2e292509-e79f-4af4-a1ee-939a84e83af5","ios":"levelo://app?vid=2e292509-e79f-4af4-a1ee-939a84e83af5"},"vehicle_type_id":"4","last_reported":1722982108,"current_range_meters":27200,"station_id":"ce4bgv12rcd13ifvqcp0","pricing_plan_id":"cebpf4jnsgd1na2vs0mg"},{"bike_id":"7ad7ed47-e3b1-415f-8de9-98cf96c37e0f","system_id":"levelo_inurba_marseille","lat":43.311722,"lon":5.387247,"is_reserved":false,"is_disabled":false,"rental_uris":{"android":"levelo://app?vid=7ad7ed47-e3b1-415f-8de9-98cf96c37e0f","ios":"levelo://app?vid=7ad7ed47-e3b1-415f-8de9-98cf96c37e0f"},"vehicle_type_id":"4","last_reported":1722982108,"current_range_meters":5200,"station_id":"ce4bgv12rcd13ifvqcp0","pricing_plan_id":"cebpf4jnsgd1na2vs0mg"},{"bike_id":"46a7c710-7b55-4c17-9477-4a28d13a5ee4","system_id":"levelo_inurba_marseille","lat":43.311722,"lon":5.387247,"is_reserved":false,"is_disabled":false,"rental_uris":{"android":"levelo://app?vid=46a7c710-7b55-4c17-9477-4a28d13a5ee4","ios":"levelo://app?vid=46a7c710-7b55-4c17-9477-4a28d13a5ee4"},"vehicle_type_id":"4","last_reported":1722982108,"current_range_meters":20000,"station_id":"ce4bgv12rcd13ifvqcp0","pricing_plan_id":"cebpf4jnsgd1na2vs0mg"},{"bike_id":"f1c1d28c-66d1-4416-95c1-0d2f23d50c38","system_id":"levelo_inurba_marseille","lat":43.311722,"lon":5.387247,"is_reserved":false,"is_disabled":false,"rental_uris":{"android":"levelo://app?vid=f1c1d28c-66d1-4416-95c1-0d2f23d50c38","ios":"levelo://app?vid=f1c1d28c-66d1-4416-95c1-0d2f23d50c38"},"vehicle_type_id":"4","last_reported":1722982108,"current_range_meters":5600,"station_id":"ce4bgv12rcd13ifvqcp0","pricing_plan_id":"cebpf4jnsgd1na2vs0mg"},{"bike_id":"e849082b-e0ab-41ef-af7c-c58d643c0d0a","system_id":"levelo_inurba_marseille","lat":43.30146,"lon":5.38087,"is_reserved":false,"is_disabled":false,"rental_uris":{"android":"levelo://app?vid=e849082b-e0ab-41ef-af7c-c58d643c0d0a","ios":"levelo://app?vid=e849082b-e0ab-41ef-af7c-c58d643c0d0a"},"vehicle_type_id":"4","last_reported":1722982108,"current_range_meters":23600,"station_id":"","pricing_plan_id":"cebpf4jnsgd1na2vs0mg"},{"bike_id":"4f6808a1-8d10-495c-a120-94ce080ac3f1","system_id":"levelo_inurba_marseille","lat":43.322872,"lon":5.382756,"is_reserved":false,"is_disabled":false,"rental_uris":{"android":"levelo://app?vid=4f6808a1-8d10-495c-a120-94ce080ac3f1","ios":"levelo://app?vid=4f6808a1-8d10-495c-a120-94ce080ac3f1"},"vehicle_type_id":"4","last_reported":1722982108,"current_range_meters":30400,"station_id":"ce4bhr12rcd13ifvqhqg","pricing_plan_id":"cebpf4jnsgd1na2vs0mg"},{"bike_id":"10347cb0-ee34-4409-9da4-fc8edd24c596","system_id":"levelo_inurba_marseille","lat":43.322872,"lon":5.382756,"is_reserved":false,"is_disabled":false,"rental_uris":{"android":"levelo://app?vid=10347cb0-ee34-4409-9da4-fc8edd24c596","ios":"levelo://app?vid=10347cb0-ee34-4409-9da4-fc8edd24c596"},"vehicle_type_id":"4","last_reported":1722982108,"current_range_meters":31200,"station_id":"ce4bhr12rcd13ifvqhqg","pricing_plan_id":"cebpf4jnsgd1na2vs0mg"},{"bike_id":"0792bba9-7222-439f-98eb-b66f7523ce05","system_id":"levelo_inurba_marseille","lat":43.322872,"lon":5.382756,"is_reserved":false,"is_disabled":false,"rental_uris":{"android":"levelo://app?vid=0792bba9-7222-439f-98eb-b66f7523ce05","ios":"levelo://app?vid=0792bba9-7222-439f-98eb-b66f7523ce05"},"vehicle_type_id":"4","last_reported":1722982108,"current_range_meters":19200,"station_id":"ce4bhr12rcd13ifvqhqg","pricing_plan_id":"cebpf4jnsgd1na2vs0mg"},{"bike_id":"b02d1d9b-94ad-4d5f-a0bb-0ad3c0d5897d","system_id":"levelo_inurba_marseille","lat":43.322872,"lon":5.382756,"is_reserved":false,"is_disabled":false,"rental_uris":{"android":"levelo://app?vid=b02d1d9b-94ad-4d5f-a0bb-0ad3c0d5897d","ios":"levelo://app?vid=b02d1d9b-94ad-4d5f-a0bb-0ad3c0d5897d"},"vehicle_type_id":"4","last_reported":1722982108,"current_range_meters":14000,"station_id":"ce4bhr12rcd13ifvqhqg","pricing_plan_id":"cebpf4jnsgd1na2vs0mg"},{"bike_id":"24d2d92e-b738-42d1-812d-5a6ecdd5f836","system_id":"levelo_inurba_marseille","lat":43.29769,"lon":5.37108,"is_reserved":false,"is_disabled":false,"rental_uris":{"android":"levelo://app?vid=24d2d92e-b738-42d1-812d-5a6ecdd5f836","ios":"levelo://app?vid=24d2d92e-b738-42d1-812d-5a6ecdd5f836"},"vehicle_type_id":"4","last_reported":1722982108,"current_range_meters":800,"station_id":"","pricing_plan_id":"cebpf4jnsgd1na2vs0mg"},{"bike_id":"970b0739-7ffd-4036-9c41-2674f56f5f5c","system_id":"levelo_inurba_marseille","lat":43.322872,"lon":5.382756,"is_reserved":false,"is_disabled":false,"rental_uris":{"android":"levelo://app?vid=970b0739-7ffd-4036-9c41-2674f56f5f5c","ios":"levelo://app?vid=970b0739-7ffd-4036-9c41-2674f56f5f5c"},"vehicle_type_id":"4","last_reported":1722982108,"current_range_meters":27200,"station_id":"ce4bhr12rcd13ifvqhqg","pricing_plan_id":"cebpf4jnsgd1na2vs0mg"},{"bike_id":"e104ae70-54a9-468e-98f9-c1863975610f","system_id":"levelo_inurba_marseille","lat":43.31971,"lon":5.38617,"is_reserved":false,"is_disabled":false,"rental_uris":{"android":"levelo://app?vid=e104ae70-54a9-468e-98f9-c1863975610f","ios":"levelo://app?vid=e104ae70-54a9-468e-98f9-c1863975610f"},"vehicle_type_id":"4","last_reported":1722982108,"current_range_meters":1600,"station_id":"","pricing_plan_id":"cebpf4jnsgd1na2vs0mg"},{"bike_id":"9ab0fab9-a157-4ff3-a624-3c388282d219","system_id":"levelo_inurba_marseille","lat":43.297163,"lon":5.365866,"is_reserved":false,"is_disabled":false,"rental_uris":{"android":"levelo://app?vid=9ab0fab9-a157-4ff3-a624-3c388282d219","ios":"levelo://app?vid=9ab0fab9-a157-4ff3-a624-3c388282d219"},"vehicle_type_id":"4","last_reported":1722982108,"current_range_meters":24000,"station_id":"ce4bgn12rcd13ifvqbt0","pricing_plan_id":"cebpf4jnsgd1na2vs0mg"},{"bike_id":"216240ef-238f-48ba-bd26-5d1c9cf540df","system_id":"levelo_inurba_marseille","lat":43.320453,"lon":5.386014,"is_reserved":false,"is_disabled":false,"rental_uris":{"android":"levelo://app?vid=216240ef-238f-48ba-bd26-5d1c9cf540df","ios":"levelo://app?vid=216240ef-238f-48ba-bd26-5d1c9cf540df"},"vehicle_type_id":"4","last_reported":1722982108,"current_range_meters":5600,"station_id":"","pricing_plan_id":"cebpf4jnsgd1na2vs0mg"},{"bike_id":"df95c2e9-6a30-43c1-8c28-64129848640c","system_id":"levelo_inurba_marseille","lat":43.29619,"lon":5.37175,"is_reserved":false,"is_disabled":false,"rental_uris":{"android":"levelo://app?vid=df95c2e9-6a30-43c1-8c28-64129848640c","ios":"levelo://app?vid=df95c2e9-6a30-43c1-8c28-64129848640c"},"vehicle_type_id":"4","last_reported":1722982108,"current_range_meters":29200,"station_id":"","pricing_plan_id":"cebpf4jnsgd1na2vs0mg"},{"bike_id":"3d68700e-65c5-4304-b23a-d2d640763b16","system_id":"levelo_inurba_marseille","lat":43.32333,"lon":5.38521,"is_reserved":false,"is_disabled":false,"rental_uris":{"android":"levelo://app?vid=3d68700e-65c5-4304-b23a-d2d640763b16","ios":"levelo://app?vid=3d68700e-65c5-4304-b23a-d2d640763b16"},"vehicle_type_id":"4","last_reported":1722982108,"current_range_meters":19600,"station_id":"","pricing_plan_id":"cebpf4jnsgd1na2vs0mg"},{"bike_id":"ec24488e-9c93-4e87-9ebf-b06db89a6a05","system_id":"levelo_inurba_marseille","lat":43.30968,"lon":5.39003,"is_reserved":false,"is_disabled":false,"rental_uris":{"android":"levelo://app?vid=ec24488e-9c93-4e87-9ebf-b06db89a6a05","ios":"levelo://app?vid=ec24488e-9c93-4e87-9ebf-b06db89a6a05"},"vehicle_type_id":"4","last_reported":1722982108,"current_range_meters":400,"station_id":"","pricing_plan_id":"cebpf4jnsgd1na2vs0mg"},{"bike_id":"f658c457-ac19-42f3-9783-6f16b90f0dae","system_id":"levelo_inurba_marseille","lat":43.309589,"lon":5.390258,"is_reserved":false,"is_disabled":false,"rental_uris":{"android":"levelo://app?vid=f658c457-ac19-42f3-9783-6f16b90f0dae","ios":"levelo://app?vid=f658c457-ac19-42f3-9783-6f16b90f0dae"},"vehicle_type_id":"4","last_reported":1722982108,"current_range_meters":24000,"station_id":"ce4bgup2rcd13ifvqco0","pricing_plan_id":"cebpf4jnsgd1na2vs0mg"},{"bike_id":"69d48249-5c53-41c6-be03-918423a3ed5b","system_id":"levelo_inurba_marseille","lat":43.309589,"lon":5.390258,"is_reserved":false,"is_disabled":false,"rental_uris":{"android":"levelo://app?vid=69d48249-5c53-41c6-be03-918423a3ed5b","ios":"levelo://app?vid=69d48249-5c53-41c6-be03-918423a3ed5b"},"vehicle_type_id":"4","last_reported":1722982108,"current_range_meters":31200,"station_id":"ce4bgup2rcd13ifvqco0","pricing_plan_id":"cebpf4jnsgd1na2vs0mg"},{"bike_id":"0264f7ac-b9e2-47db-96f9-79804cabbc11","system_id":"levelo_inurba_marseille","lat":43.296935,"lon":5.376544,"is_reserved":false,"is_disabled":false,"rental_uris":{"android":"levelo://app?vid=0264f7ac-b9e2-47db-96f9-79804cabbc11","ios":"levelo://app?vid=0264f7ac-b9e2-47db-96f9-79804cabbc11"},"vehicle_type_id":"4","last_reported":1722982108,"current_range_meters":31200,"station_id":"ce4bgkh2rcd13ifvqbl0","pricing_plan_id":"cebpf4jnsgd1na2vs0mg"},{"bike_id":"b49fa772-ca5a-4025-b5ea-e06fd674a5fd","system_id":"levelo_inurba_marseille","lat":43.309589,"lon":5.390258,"is_reserved":false,"is_disabled":false,"rental_uris":{"android":"levelo://app?vid=b49fa772-ca5a-4025-b5ea-e06fd674a5fd","ios":"levelo://app?vid=b49fa772-ca5a-4025-b5ea-e06fd674a5fd"},"vehicle_type_id":"4","last_reported":1722982108,"current_range_meters":28400,"station_id":"ce4bgup2rcd13ifvqco0","pricing_plan_id":"cebpf4jnsgd1na2vs0mg"},{"bike_id":"dbb0db9e-6642-4436-8e66-20de0b23fb74","system_id":"levelo_inurba_marseille","lat":43.309589,"lon":5.390258,"is_reserved":false,"is_disabled":false,"rental_uris":{"android":"levelo://app?vid=dbb0db9e-6642-4436-8e66-20de0b23fb74","ios":"levelo://app?vid=dbb0db9e-6642-4436-8e66-20de0b23fb74"},"vehicle_type_id":"4","last_reported":1722982108,"current_range_meters":2800,"station_id":"ce4bgup2rcd13ifvqco0","pricing_plan_id":"cebpf4jnsgd1na2vs0mg"},{"bike_id":"80f20dc2-443e-4c7e-98ee-64fe1a44ab16","system_id":"levelo_inurba_marseille","lat":43.309589,"lon":5.390258,"is_reserved":false,"is_disabled":false,"rental_uris":{"android":"levelo://app?vid=80f20dc2-443e-4c7e-98ee-64fe1a44ab16","ios":"levelo://app?vid=80f20dc2-443e-4c7e-98ee-64fe1a44ab16"},"vehicle_type_id":"4","last_reported":1722982108,"current_range_meters":31200,"station_id":"ce4bgup2rcd13ifvqco0","pricing_plan_id":"cebpf4jnsgd1na2vs0mg"},{"bike_id":"1596d363-f980-4f5f-ad84-bc4afb3ae8df","system_id":"levelo_inurba_marseille","lat":43.309589,"lon":5.390258,"is_reserved":false,"is_disabled":false,"rental_uris":{"android":"levelo://app?vid=1596d363-f980-4f5f-ad84-bc4afb3ae8df","ios":"levelo://app?vid=1596d363-f980-4f5f-ad84-bc4afb3ae8df"},"vehicle_type_id":"4","last_reported":1722982108,"current_range_meters":18800,"station_id":"ce4bgup2rcd13ifvqco0","pricing_plan_id":"cebpf4jnsgd1na2vs0mg"},{"bike_id":"43ad2016-7e8f-4975-913f-05d5c7182c80","system_id":"levelo_inurba_marseille","lat":43.309589,"lon":5.390258,"is_reserved":false,"is_disabled":false,"rental_uris":{"android":"levelo://app?vid=43ad2016-7e8f-4975-913f-05d5c7182c80","ios":"levelo://app?vid=43ad2016-7e8f-4975-913f-05d5c7182c80"},"vehicle_type_id":"4","last_reported":1722982108,"current_range_meters":0,"station_id":"ce4bgup2rcd13ifvqco0","pricing_plan_id":"cebpf4jnsgd1na2vs0mg"},{"bike_id":"a95da88a-3242-4e23-a3b7-226c7958b133","system_id":"levelo_inurba_marseille","lat":43.309589,"lon":5.390258,"is_reserved":false,"is_disabled":false,"rental_uris":{"android":"levelo://app?vid=a95da88a-3242-4e23-a3b7-226c7958b133","ios":"levelo://app?vid=a95da88a-3242-4e23-a3b7-226c7958b133"},"vehicle_type_id":"4","last_reported":1722982108,"current_range_meters":31600,"station_id":"ce4bgup2rcd13ifvqco0","pricing_plan_id":"cebpf4jnsgd1na2vs0mg"},{"bike_id":"b222d89c-3b32-465f-bf2d-0fb73a2b194e","system_id":"levelo_inurba_marseille","lat":43.296921,"lon":5.376579,"is_reserved":false,"is_disabled":false,"rental_uris":{"android":"levelo://app?vid=b222d89c-3b32-465f-bf2d-0fb73a2b194e","ios":"levelo://app?vid=b222d89c-3b32-465f-bf2d-0fb73a2b194e"},"vehicle_type_id":"4","last_reported":1722982108,"current_range_meters":31200,"station_id":"ce4bgkh2rcd13ifvqbl0","pricing_plan_id":"cebpf4jnsgd1na2vs0mg"},{"bike_id":"72d5f5eb-831f-4895-b159-e67232f6a052","system_id":"levelo_inurba_marseille","lat":43.309589,"lon":5.390258,"is_reserved":false,"is_disabled":false,"rental_uris":{"android":"levelo://app?vid=72d5f5eb-831f-4895-b159-e67232f6a052","ios":"levelo://app?vid=72d5f5eb-831f-4895-b159-e67232f6a052"},"vehicle_type_id":"4","last_reported":1722982108,"current_range_meters":0,"station_id":"ce4bgup2rcd13ifvqco0","pricing_plan_id":"cebpf4jnsgd1na2vs0mg"},{"bike_id":"34eeb3ea-ed36-4872-95ee-5fd067e756ba","system_id":"levelo_inurba_marseille","lat":43.309589,"lon":5.390258,"is_reserved":false,"is_disabled":false,"rental_uris":{"android":"levelo://app?vid=34eeb3ea-ed36-4872-95ee-5fd067e756ba","ios":"levelo://app?vid=34eeb3ea-ed36-4872-95ee-5fd067e756ba"},"vehicle_type_id":"4","last_reported":1722982108,"current_range_meters":4400,"station_id":"ce4bgup2rcd13ifvqco0","pricing_plan_id":"cebpf4jnsgd1na2vs0mg"},{"bike_id":"6456170c-e4ed-472f-ab7b-ff36f5b60c52","system_id":"levelo_inurba_marseille","lat":43.297475,"lon":5.378766,"is_reserved":false,"is_disabled":false,"rental_uris":{"android":"levelo://app?vid=6456170c-e4ed-472f-ab7b-ff36f5b60c52","ios":"levelo://app?vid=6456170c-e4ed-472f-ab7b-ff36f5b60c52"},"vehicle_type_id":"4","last_reported":1722982108,"current_range_meters":25200,"station_id":"","pricing_plan_id":"cebpf4jnsgd1na2vs0mg"},{"bike_id":"ae104666-0983-4a43-89f5-2e4ad0140fa9","system_id":"levelo_inurba_marseille","lat":43.317557,"lon":5.390173,"is_reserved":false,"is_disabled":false,"rental_uris":{"android":"levelo://app?vid=ae104666-0983-4a43-89f5-2e4ad0140fa9","ios":"levelo://app?vid=ae104666-0983-4a43-89f5-2e4ad0140fa9"},"vehicle_type_id":"4","last_reported":1722982108,"current_range_meters":32000,"station_id":"ce4bhqp2rcd13ifvqhng","pricing_plan_id":"cebpf4jnsgd1na2vs0mg"},{"bike_id":"e4a32eff-9127-45ed-820b-391fa9048642","system_id":"levelo_inurba_marseille","lat":43.317557,"lon":5.390173,"is_reserved":false,"is_disabled":false,"rental_uris":{"android":"levelo://app?vid=e4a32eff-9127-45ed-820b-391fa9048642","ios":"levelo://app?vid=e4a32eff-9127-45ed-820b-391fa9048642"},"vehicle_type_id":"4","last_reported":1722982108,"current_range_meters":10400,"station_id":"ce4bhqp2rcd13ifvqhng","pricing_plan_id":"cebpf4jnsgd1na2vs0mg"},{"bike_id":"9f32367c-97cd-4c18-8ff9-c50c420dbefa","system_id":"levelo_inurba_marseille","lat":43.317557,"lon":5.390173,"is_reserved":false,"is_disabled":false,"rental_uris":{"android":"levelo://app?vid=9f32367c-97cd-4c18-8ff9-c50c420dbefa","ios":"levelo://app?vid=9f32367c-97cd-4c18-8ff9-c50c420dbefa"},"vehicle_type_id":"4","last_reported":1722982108,"current_range_meters":31600,"station_id":"ce4bhqp2rcd13ifvqhng","pricing_plan_id":"cebpf4jnsgd1na2vs0mg"},{"bike_id":"dcd157a6-2749-4746-be19-4b6f9d5824a9","system_id":"levelo_inurba_marseille","lat":43.317557,"lon":5.390173,"is_reserved":false,"is_disabled":false,"rental_uris":{"android":"levelo://app?vid=dcd157a6-2749-4746-be19-4b6f9d5824a9","ios":"levelo://app?vid=dcd157a6-2749-4746-be19-4b6f9d5824a9"},"vehicle_type_id":"4","last_reported":1722982108,"current_range_meters":6000,"station_id":"ce4bhqp2rcd13ifvqhng","pricing_plan_id":"cebpf4jnsgd1na2vs0mg"},{"bike_id":"4135400c-effb-4920-8806-27f5c62d53ec","system_id":"levelo_inurba_marseille","lat":43.32277,"lon":5.38688,"is_reserved":false,"is_disabled":false,"rental_uris":{"android":"levelo://app?vid=4135400c-effb-4920-8806-27f5c62d53ec","ios":"levelo://app?vid=4135400c-effb-4920-8806-27f5c62d53ec"},"vehicle_type_id":"4","last_reported":1722982108,"current_range_meters":11600,"station_id":"","pricing_plan_id":"cebpf4jnsgd1na2vs0mg"},{"bike_id":"0ec19712-cced-4714-a2ba-f0065dba1d80","system_id":"levelo_inurba_marseille","lat":43.317557,"lon":5.390173,"is_reserved":false,"is_disabled":false,"rental_uris":{"android":"levelo://app?vid=0ec19712-cced-4714-a2ba-f0065dba1d80","ios":"levelo://app?vid=0ec19712-cced-4714-a2ba-f0065dba1d80"},"vehicle_type_id":"4","last_reported":1722982108,"current_range_meters":19200,"station_id":"ce4bhqp2rcd13ifvqhng","pricing_plan_id":"cebpf4jnsgd1na2vs0mg"},{"bike_id":"2eb021d6-4c2b-442a-ad22-31f0675cbd83","system_id":"levelo_inurba_marseille","lat":43.32341,"lon":5.38629,"is_reserved":false,"is_disabled":false,"rental_uris":{"android":"levelo://app?vid=2eb021d6-4c2b-442a-ad22-31f0675cbd83","ios":"levelo://app?vid=2eb021d6-4c2b-442a-ad22-31f0675cbd83"},"vehicle_type_id":"4","last_reported":1722982108,"current_range_meters":24400,"station_id":"","pricing_plan_id":"cebpf4jnsgd1na2vs0mg"},{"bike_id":"ad35e46f-d285-4a0f-83a9-78608906cfef","system_id":"levelo_inurba_marseille","lat":43.29573,"lon":5.37507,"is_reserved":false,"is_disabled":false,"rental_uris":{"android":"levelo://app?vid=ad35e46f-d285-4a0f-83a9-78608906cfef","ios":"levelo://app?vid=ad35e46f-d285-4a0f-83a9-78608906cfef"},"vehicle_type_id":"4","last_reported":1722982108,"current_range_meters":25200,"station_id":"ce4bgh92rcd13ifvqb50","pricing_plan_id":"cebpf4jnsgd1na2vs0mg"},{"bike_id":"5a130d4a-0139-4607-8445-9aac9a5f05fd","system_id":"levelo_inurba_marseille","lat":43.29572,"lon":5.37518,"is_reserved":false,"is_disabled":false,"rental_uris":{"android":"levelo://app?vid=5a130d4a-0139-4607-8445-9aac9a5f05fd","ios":"levelo://app?vid=5a130d4a-0139-4607-8445-9aac9a5f05fd"},"vehicle_type_id":"4","last_reported":1722982108,"current_range_meters":25200,"station_id":"ce4bgh92rcd13ifvqb50","pricing_plan_id":"cebpf4jnsgd1na2vs0mg"},{"bike_id":"b86b4257-9b02-45db-bf42-ba5be13ed49f","system_id":"levelo_inurba_marseille","lat":43.304278,"lon":5.388868,"is_reserved":false,"is_disabled":false,"rental_uris":{"android":"levelo://app?vid=b86b4257-9b02-45db-bf42-ba5be13ed49f","ios":"levelo://app?vid=b86b4257-9b02-45db-bf42-ba5be13ed49f"},"vehicle_type_id":"4","last_reported":1722982108,"current_range_meters":25600,"station_id":"ce4bgk12rcd13ifvqbi0","pricing_plan_id":"cebpf4jnsgd1na2vs0mg"},{"bike_id":"e5fd5a09-0c7e-4621-9b00-da59e902f46b","system_id":"levelo_inurba_marseille","lat":43.304278,"lon":5.388868,"is_reserved":false,"is_disabled":false,"rental_uris":{"android":"levelo://app?vid=e5fd5a09-0c7e-4621-9b00-da59e902f46b","ios":"levelo://app?vid=e5fd5a09-0c7e-4621-9b00-da59e902f46b"},"vehicle_type_id":"4","last_reported":1722982108,"current_range_meters":18400,"station_id":"ce4bgk12rcd13ifvqbi0","pricing_plan_id":"cebpf4jnsgd1na2vs0mg"},{"bike_id":"2a366dd6-cc7b-422c-b06e-14bcb42ee73a","system_id":"levelo_inurba_marseille","lat":43.304274,"lon":5.388873,"is_reserved":false,"is_disabled":false,"rental_uris":{"android":"levelo://app?vid=2a366dd6-cc7b-422c-b06e-14bcb42ee73a","ios":"levelo://app?vid=2a366dd6-cc7b-422c-b06e-14bcb42ee73a"},"vehicle_type_id":"4","last_reported":1722982108,"current_range_meters":25200,"station_id":"ce4bgk12rcd13ifvqbi0","pricing_plan_id":"cebpf4jnsgd1na2vs0mg"},{"bike_id":"4b302e9b-8da5-4420-bca9-97b9abc44430","system_id":"levelo_inurba_marseille","lat":43.304274,"lon":5.388873,"is_reserved":false,"is_disabled":false,"rental_uris":{"android":"levelo://app?vid=4b302e9b-8da5-4420-bca9-97b9abc44430","ios":"levelo://app?vid=4b302e9b-8da5-4420-bca9-97b9abc44430"},"vehicle_type_id":"4","last_reported":1722982108,"current_range_meters":26000,"station_id":"ce4bgk12rcd13ifvqbi0","pricing_plan_id":"cebpf4jnsgd1na2vs0mg"},{"bike_id":"8987b7cc-3a2e-4541-a7a7-74758615de28","system_id":"levelo_inurba_marseille","lat":43.304278,"lon":5.388868,"is_reserved":false,"is_disabled":false,"rental_uris":{"android":"levelo://app?vid=8987b7cc-3a2e-4541-a7a7-74758615de28","ios":"levelo://app?vid=8987b7cc-3a2e-4541-a7a7-74758615de28"},"vehicle_type_id":"4","last_reported":1722982108,"current_range_meters":28000,"station_id":"ce4bgk12rcd13ifvqbi0","pricing_plan_id":"cebpf4jnsgd1na2vs0mg"},{"bike_id":"da82dad8-7cf8-4fac-886a-1e6482320c63","system_id":"levelo_inurba_marseille","lat":43.304278,"lon":5.388868,"is_reserved":false,"is_disabled":false,"rental_uris":{"android":"levelo://app?vid=da82dad8-7cf8-4fac-886a-1e6482320c63","ios":"levelo://app?vid=da82dad8-7cf8-4fac-886a-1e6482320c63"},"vehicle_type_id":"4","last_reported":1722982108,"current_range_meters":31600,"station_id":"ce4bgk12rcd13ifvqbi0","pricing_plan_id":"cebpf4jnsgd1na2vs0mg"},{"bike_id":"d02ff127-eac0-46c4-bcdc-7d946bf34dcb","system_id":"levelo_inurba_marseille","lat":43.304278,"lon":5.388868,"is_reserved":false,"is_disabled":false,"rental_uris":{"android":"levelo://app?vid=d02ff127-eac0-46c4-bcdc-7d946bf34dcb","ios":"levelo://app?vid=d02ff127-eac0-46c4-bcdc-7d946bf34dcb"},"vehicle_type_id":"4","last_reported":1722982108,"current_range_meters":31200,"station_id":"ce4bgk12rcd13ifvqbi0","pricing_plan_id":"cebpf4jnsgd1na2vs0mg"},{"bike_id":"1c5e073a-d5c2-4005-a576-2e852d69ac0a","system_id":"levelo_inurba_marseille","lat":43.32463,"lon":5.386,"is_reserved":false,"is_disabled":false,"rental_uris":{"android":"levelo://app?vid=1c5e073a-d5c2-4005-a576-2e852d69ac0a","ios":"levelo://app?vid=1c5e073a-d5c2-4005-a576-2e852d69ac0a"},"vehicle_type_id":"4","last_reported":1722982108,"current_range_meters":30400,"station_id":"","pricing_plan_id":"cebpf4jnsgd1na2vs0mg"},{"bike_id":"3f0f73bc-8b7e-4eb8-8efb-6164d0bba84c","system_id":"levelo_inurba_marseille","lat":43.304278,"lon":5.388868,"is_reserved":false,"is_disabled":false,"rental_uris":{"android":"levelo://app?vid=3f0f73bc-8b7e-4eb8-8efb-6164d0bba84c","ios":"levelo://app?vid=3f0f73bc-8b7e-4eb8-8efb-6164d0bba84c"},"vehicle_type_id":"4","last_reported":1722982108,"current_range_meters":18800,"station_id":"ce4bgk12rcd13ifvqbi0","pricing_plan_id":"cebpf4jnsgd1na2vs0mg"},{"bike_id":"23612ef5-dcf2-4596-8d1f-70b4d0cadadf","system_id":"levelo_inurba_marseille","lat":43.295748,"lon":5.37522,"is_reserved":false,"is_disabled":false,"rental_uris":{"android":"levelo://app?vid=23612ef5-dcf2-4596-8d1f-70b4d0cadadf","ios":"levelo://app?vid=23612ef5-dcf2-4596-8d1f-70b4d0cadadf"},"vehicle_type_id":"4","last_reported":1722982108,"current_range_meters":28800,"station_id":"ce4bgh92rcd13ifvqb50","pricing_plan_id":"cebpf4jnsgd1na2vs0mg"},{"bike_id":"18bf678d-2eed-40f9-ad55-df5d550760e0","system_id":"levelo_inurba_marseille","lat":43.31456,"lon":5.39203,"is_reserved":false,"is_disabled":false,"rental_uris":{"android":"levelo://app?vid=18bf678d-2eed-40f9-ad55-df5d550760e0","ios":"levelo://app?vid=18bf678d-2eed-40f9-ad55-df5d550760e0"},"vehicle_type_id":"4","last_reported":1722982108,"current_range_meters":20000,"station_id":"","pricing_plan_id":"cebpf4jnsgd1na2vs0mg"},{"bike_id":"1d0b3ad2-729e-4660-b810-911f2eb27126","system_id":"levelo_inurba_marseille","lat":43.295279,"lon":5.375048,"is_reserved":false,"is_disabled":false,"rental_uris":{"android":"levelo://app?vid=1d0b3ad2-729e-4660-b810-911f2eb27126","ios":"levelo://app?vid=1d0b3ad2-729e-4660-b810-911f2eb27126"},"vehicle_type_id":"4","last_reported":1722982108,"current_range_meters":31200,"station_id":"ce4bgkp2rcd13ifvqbmg","pricing_plan_id":"cebpf4jnsgd1na2vs0mg"},{"bike_id":"d189b877-d64e-4764-a1d3-3efa91e7755f","system_id":"levelo_inurba_marseille","lat":43.30955,"lon":5.39241,"is_reserved":false,"is_disabled":false,"rental_uris":{"android":"levelo://app?vid=d189b877-d64e-4764-a1d3-3efa91e7755f","ios":"levelo://app?vid=d189b877-d64e-4764-a1d3-3efa91e7755f"},"vehicle_type_id":"4","last_reported":1722982108,"current_range_meters":31200,"station_id":"","pricing_plan_id":"cebpf4jnsgd1na2vs0mg"},{"bike_id":"d8c51528-a786-4bf8-88a8-471220762fbb","system_id":"levelo_inurba_marseille","lat":43.314348,"lon":5.392903,"is_reserved":false,"is_disabled":false,"rental_uris":{"android":"levelo://app?vid=d8c51528-a786-4bf8-88a8-471220762fbb","ios":"levelo://app?vid=d8c51528-a786-4bf8-88a8-471220762fbb"},"vehicle_type_id":"4","last_reported":1722982108,"current_range_meters":11600,"station_id":"","pricing_plan_id":"cebpf4jnsgd1na2vs0mg"},{"bike_id":"9968a4eb-b8af-40df-8a3a-56e458ce4850","system_id":"levelo_inurba_marseille","lat":43.301396,"lon":5.387812,"is_reserved":false,"is_disabled":false,"rental_uris":{"android":"levelo://app?vid=9968a4eb-b8af-40df-8a3a-56e458ce4850","ios":"levelo://app?vid=9968a4eb-b8af-40df-8a3a-56e458ce4850"},"vehicle_type_id":"4","last_reported":1722982108,"current_range_meters":7200,"station_id":"ce4bghh2rcd13ifvqb60","pricing_plan_id":"cebpf4jnsgd1na2vs0mg"},{"bike_id":"4b63efaa-59a5-4ad8-9d24-de678eb90cd6","system_id":"levelo_inurba_marseille","lat":43.297163,"lon":5.365866,"is_reserved":false,"is_disabled":false,"rental_uris":{"android":"levelo://app?vid=4b63efaa-59a5-4ad8-9d24-de678eb90cd6","ios":"levelo://app?vid=4b63efaa-59a5-4ad8-9d24-de678eb90cd6"},"vehicle_type_id":"4","last_reported":1722982108,"current_range_meters":8800,"station_id":"ce4bgn12rcd13ifvqbt0","pricing_plan_id":"cebpf4jnsgd1na2vs0mg"},{"bike_id":"e511b15f-0d2b-4913-9476-9641cba1ddcf","system_id":"levelo_inurba_marseille","lat":43.32367,"lon":5.388836,"is_reserved":false,"is_disabled":false,"rental_uris":{"android":"levelo://app?vid=e511b15f-0d2b-4913-9476-9641cba1ddcf","ios":"levelo://app?vid=e511b15f-0d2b-4913-9476-9641cba1ddcf"},"vehicle_type_id":"4","last_reported":1722982108,"current_range_meters":30800,"station_id":"ce4bhqp2rcd13ifvqhog","pricing_plan_id":"cebpf4jnsgd1na2vs0mg"},{"bike_id":"614ca04c-428d-4313-95ad-47e7aac5afcb","system_id":"levelo_inurba_marseille","lat":43.32359,"lon":5.38887,"is_reserved":false,"is_disabled":false,"rental_uris":{"android":"levelo://app?vid=614ca04c-428d-4313-95ad-47e7aac5afcb","ios":"levelo://app?vid=614ca04c-428d-4313-95ad-47e7aac5afcb"},"vehicle_type_id":"4","last_reported":1722982108,"current_range_meters":10400,"station_id":"ce4bhqp2rcd13ifvqhog","pricing_plan_id":"cebpf4jnsgd1na2vs0mg"},{"bike_id":"6c8456ed-f9dc-4dc6-ad8b-14d91edddba0","system_id":"levelo_inurba_marseille","lat":43.32367,"lon":5.388836,"is_reserved":false,"is_disabled":false,"rental_uris":{"android":"levelo://app?vid=6c8456ed-f9dc-4dc6-ad8b-14d91edddba0","ios":"levelo://app?vid=6c8456ed-f9dc-4dc6-ad8b-14d91edddba0"},"vehicle_type_id":"4","last_reported":1722982108,"current_range_meters":22800,"station_id":"ce4bhqp2rcd13ifvqhog","pricing_plan_id":"cebpf4jnsgd1na2vs0mg"},{"bike_id":"2f78e8ce-c079-4ce3-a1b4-8ca459024ba3","system_id":"levelo_inurba_marseille","lat":43.32367,"lon":5.3889,"is_reserved":false,"is_disabled":false,"rental_uris":{"android":"levelo://app?vid=2f78e8ce-c079-4ce3-a1b4-8ca459024ba3","ios":"levelo://app?vid=2f78e8ce-c079-4ce3-a1b4-8ca459024ba3"},"vehicle_type_id":"4","last_reported":1722982108,"current_range_meters":16400,"station_id":"ce4bhqp2rcd13ifvqhog","pricing_plan_id":"cebpf4jnsgd1na2vs0mg"},{"bike_id":"6db8d5ba-8c43-4e8c-be44-dfab21f0747d","system_id":"levelo_inurba_marseille","lat":43.32367,"lon":5.388836,"is_reserved":false,"is_disabled":false,"rental_uris":{"android":"levelo://app?vid=6db8d5ba-8c43-4e8c-be44-dfab21f0747d","ios":"levelo://app?vid=6db8d5ba-8c43-4e8c-be44-dfab21f0747d"},"vehicle_type_id":"4","last_reported":1722982108,"current_range_meters":20800,"station_id":"ce4bhqp2rcd13ifvqhog","pricing_plan_id":"cebpf4jnsgd1na2vs0mg"},{"bike_id":"a9141b12-d913-49f9-a660-73e990a60c11","system_id":"levelo_inurba_marseille","lat":43.33043,"lon":5.3554,"is_reserved":false,"is_disabled":false,"rental_uris":{"android":"levelo://app?vid=a9141b12-d913-49f9-a660-73e990a60c11","ios":"levelo://app?vid=a9141b12-d913-49f9-a660-73e990a60c11"},"vehicle_type_id":"4","last_reported":1722982108,"current_range_meters":0,"station_id":"","pricing_plan_id":"cebpf4jnsgd1na2vs0mg"},{"bike_id":"60b5301b-602a-4de9-859a-b8c9f87f65ec","system_id":"levelo_inurba_marseille","lat":43.29602,"lon":5.381084,"is_reserved":false,"is_disabled":false,"rental_uris":{"android":"levelo://app?vid=60b5301b-602a-4de9-859a-b8c9f87f65ec","ios":"levelo://app?vid=60b5301b-602a-4de9-859a-b8c9f87f65ec"},"vehicle_type_id":"4","last_reported":1722982108,"current_range_meters":0,"station_id":"ce4bgl12rcd13ifvqbo0","pricing_plan_id":"cebpf4jnsgd1na2vs0mg"},{"bike_id":"bdce7987-d4a3-4acf-b3ef-bd05e6ab50e7","system_id":"levelo_inurba_marseille","lat":43.29602,"lon":5.381084,"is_reserved":false,"is_disabled":false,"rental_uris":{"android":"levelo://app?vid=bdce7987-d4a3-4acf-b3ef-bd05e6ab50e7","ios":"levelo://app?vid=bdce7987-d4a3-4acf-b3ef-bd05e6ab50e7"},"vehicle_type_id":"4","last_reported":1722982108,"current_range_meters":0,"station_id":"ce4bgl12rcd13ifvqbo0","pricing_plan_id":"cebpf4jnsgd1na2vs0mg"},{"bike_id":"47f3bcd2-c3e1-4dbc-bd0e-7f25a0763f4c","system_id":"levelo_inurba_marseille","lat":43.29602,"lon":5.381084,"is_reserved":false,"is_disabled":false,"rental_uris":{"android":"levelo://app?vid=47f3bcd2-c3e1-4dbc-bd0e-7f25a0763f4c","ios":"levelo://app?vid=47f3bcd2-c3e1-4dbc-bd0e-7f25a0763f4c"},"vehicle_type_id":"4","last_reported":1722982108,"current_range_meters":31600,"station_id":"ce4bgl12rcd13ifvqbo0","pricing_plan_id":"cebpf4jnsgd1na2vs0mg"},{"bike_id":"daebaa35-2523-497e-8bee-579b1f320d38","system_id":"levelo_inurba_marseille","lat":43.293249,"lon":5.371578,"is_reserved":false,"is_disabled":false,"rental_uris":{"android":"levelo://app?vid=daebaa35-2523-497e-8bee-579b1f320d38","ios":"levelo://app?vid=daebaa35-2523-497e-8bee-579b1f320d38"},"vehicle_type_id":"4","last_reported":1722982108,"current_range_meters":0,"station_id":"ce4bgh92rcd13ifvqb40","pricing_plan_id":"cebpf4jnsgd1na2vs0mg"},{"bike_id":"830f7e2c-121f-474e-80c5-f2de58d94188","system_id":"levelo_inurba_marseille","lat":43.29261,"lon":5.36851,"is_reserved":false,"is_disabled":false,"rental_uris":{"android":"levelo://app?vid=830f7e2c-121f-474e-80c5-f2de58d94188","ios":"levelo://app?vid=830f7e2c-121f-474e-80c5-f2de58d94188"},"vehicle_type_id":"4","last_reported":1722982108,"current_range_meters":31200,"station_id":"ce4bhbp2rcd13ifvqesg","pricing_plan_id":"cebpf4jnsgd1na2vs0mg"},{"bike_id":"0df0b183-d855-417c-98ad-c8a107ae143d","system_id":"levelo_inurba_marseille","lat":43.305994,"lon":5.393687,"is_reserved":false,"is_disabled":false,"rental_uris":{"android":"levelo://app?vid=0df0b183-d855-417c-98ad-c8a107ae143d","ios":"levelo://app?vid=0df0b183-d855-417c-98ad-c8a107ae143d"},"vehicle_type_id":"4","last_reported":1722982108,"current_range_meters":21600,"station_id":"ce4bh0p2rcd13ifvqd80","pricing_plan_id":"cebpf4jnsgd1na2vs0mg"},{"bike_id":"359b5fbf-b012-4449-aef5-d138b39fa27e","system_id":"levelo_inurba_marseille","lat":43.305994,"lon":5.393687,"is_reserved":false,"is_disabled":false,"rental_uris":{"android":"levelo://app?vid=359b5fbf-b012-4449-aef5-d138b39fa27e","ios":"levelo://app?vid=359b5fbf-b012-4449-aef5-d138b39fa27e"},"vehicle_type_id":"4","last_reported":1722982108,"current_range_meters":6800,"station_id":"ce4bh0p2rcd13ifvqd80","pricing_plan_id":"cebpf4jnsgd1na2vs0mg"},{"bike_id":"22ada8d3-5f71-4cc5-b86d-deb6c9f8fad8","system_id":"levelo_inurba_marseille","lat":43.305994,"lon":5.393687,"is_reserved":false,"is_disabled":false,"rental_uris":{"android":"levelo://app?vid=22ada8d3-5f71-4cc5-b86d-deb6c9f8fad8","ios":"levelo://app?vid=22ada8d3-5f71-4cc5-b86d-deb6c9f8fad8"},"vehicle_type_id":"4","last_reported":1722982108,"current_range_meters":20000,"station_id":"ce4bh0p2rcd13ifvqd80","pricing_plan_id":"cebpf4jnsgd1na2vs0mg"},{"bike_id":"8f67542b-2065-47ff-9d3a-656f131d0f20","system_id":"levelo_inurba_marseille","lat":43.305994,"lon":5.393687,"is_reserved":false,"is_disabled":false,"rental_uris":{"android":"levelo://app?vid=8f67542b-2065-47ff-9d3a-656f131d0f20","ios":"levelo://app?vid=8f67542b-2065-47ff-9d3a-656f131d0f20"},"vehicle_type_id":"4","last_reported":1722982108,"current_range_meters":17600,"station_id":"ce4bh0p2rcd13ifvqd80","pricing_plan_id":"cebpf4jnsgd1na2vs0mg"},{"bike_id":"5b87b788-d7d9-4c02-8926-b486c81ba536","system_id":"levelo_inurba_marseille","lat":43.305994,"lon":5.393687,"is_reserved":false,"is_disabled":false,"rental_uris":{"android":"levelo://app?vid=5b87b788-d7d9-4c02-8926-b486c81ba536","ios":"levelo://app?vid=5b87b788-d7d9-4c02-8926-b486c81ba536"},"vehicle_type_id":"4","last_reported":1722982108,"current_range_meters":20000,"station_id":"ce4bh0p2rcd13ifvqd80","pricing_plan_id":"cebpf4jnsgd1na2vs0mg"},{"bike_id":"e31f997b-3268-466e-9204-0586d84b0ac0","system_id":"levelo_inurba_marseille","lat":43.305994,"lon":5.393687,"is_reserved":false,"is_disabled":false,"rental_uris":{"android":"levelo://app?vid=e31f997b-3268-466e-9204-0586d84b0ac0","ios":"levelo://app?vid=e31f997b-3268-466e-9204-0586d84b0ac0"},"vehicle_type_id":"4","last_reported":1722982108,"current_range_meters":29200,"station_id":"ce4bh0p2rcd13ifvqd80","pricing_plan_id":"cebpf4jnsgd1na2vs0mg"},{"bike_id":"e9ed4407-c485-4a68-be35-a975e85b1771","system_id":"levelo_inurba_marseille","lat":43.293009,"lon":5.374584,"is_reserved":false,"is_disabled":false,"rental_uris":{"android":"levelo://app?vid=e9ed4407-c485-4a68-be35-a975e85b1771","ios":"levelo://app?vid=e9ed4407-c485-4a68-be35-a975e85b1771"},"vehicle_type_id":"4","last_reported":1722982108,"current_range_meters":0,"station_id":"ce4bgi12rcd13ifvqb70","pricing_plan_id":"cebpf4jnsgd1na2vs0mg"},{"bike_id":"3f1b0137-c3a1-44c5-8d1c-a1cb29e5186b","system_id":"levelo_inurba_marseille","lat":43.303002,"lon":5.392142,"is_reserved":false,"is_disabled":false,"rental_uris":{"android":"levelo://app?vid=3f1b0137-c3a1-44c5-8d1c-a1cb29e5186b","ios":"levelo://app?vid=3f1b0137-c3a1-44c5-8d1c-a1cb29e5186b"},"vehicle_type_id":"4","last_reported":1722982108,"current_range_meters":15600,"station_id":"ce4bgkh2rcd13ifvqbk0","pricing_plan_id":"cebpf4jnsgd1na2vs0mg"},{"bike_id":"9ac665cb-59e5-4eda-92d4-f2ddafc8e9c5","system_id":"levelo_inurba_marseille","lat":43.3313,"lon":5.38003,"is_reserved":false,"is_disabled":false,"rental_uris":{"android":"levelo://app?vid=9ac665cb-59e5-4eda-92d4-f2ddafc8e9c5","ios":"levelo://app?vid=9ac665cb-59e5-4eda-92d4-f2ddafc8e9c5"},"vehicle_type_id":"4","last_reported":1722982108,"current_range_meters":5200,"station_id":"","pricing_plan_id":"cebpf4jnsgd1na2vs0mg"},{"bike_id":"c87533bf-096c-4715-be3f-bfccd88205f3","system_id":"levelo_inurba_marseille","lat":43.302992,"lon":5.392136,"is_reserved":false,"is_disabled":false,"rental_uris":{"android":"levelo://app?vid=c87533bf-096c-4715-be3f-bfccd88205f3","ios":"levelo://app?vid=c87533bf-096c-4715-be3f-bfccd88205f3"},"vehicle_type_id":"4","last_reported":1722982108,"current_range_meters":0,"station_id":"ce4bgkh2rcd13ifvqbk0","pricing_plan_id":"cebpf4jnsgd1na2vs0mg"},{"bike_id":"39a0da00-09be-4797-99fb-200ccbe7a528","system_id":"levelo_inurba_marseille","lat":43.29359,"lon":5.37871,"is_reserved":false,"is_disabled":false,"rental_uris":{"android":"levelo://app?vid=39a0da00-09be-4797-99fb-200ccbe7a528","ios":"levelo://app?vid=39a0da00-09be-4797-99fb-200ccbe7a528"},"vehicle_type_id":"4","last_reported":1722982108,"current_range_meters":0,"station_id":"ce4bgjh2rcd13ifvqbf0","pricing_plan_id":"cebpf4jnsgd1na2vs0mg"},{"bike_id":"b784e57d-7c9d-4b42-b9d2-234a8be36556","system_id":"levelo_inurba_marseille","lat":43.32648,"lon":5.38876,"is_reserved":false,"is_disabled":false,"rental_uris":{"android":"levelo://app?vid=b784e57d-7c9d-4b42-b9d2-234a8be36556","ios":"levelo://app?vid=b784e57d-7c9d-4b42-b9d2-234a8be36556"},"vehicle_type_id":"4","last_reported":1722982108,"current_range_meters":24800,"station_id":"","pricing_plan_id":"cebpf4jnsgd1na2vs0mg"},{"bike_id":"0b330049-a930-4e1f-a50c-4efc082a1edc","system_id":"levelo_inurba_marseille","lat":43.31354,"lon":5.396,"is_reserved":false,"is_disabled":false,"rental_uris":{"android":"levelo://app?vid=0b330049-a930-4e1f-a50c-4efc082a1edc","ios":"levelo://app?vid=0b330049-a930-4e1f-a50c-4efc082a1edc"},"vehicle_type_id":"4","last_reported":1722982108,"current_range_meters":27200,"station_id":"","pricing_plan_id":"cebpf4jnsgd1na2vs0mg"},{"bike_id":"5a4f62cc-66ab-42cb-86cb-f90870b10fd9","system_id":"levelo_inurba_marseille","lat":43.298764,"lon":5.388973,"is_reserved":false,"is_disabled":false,"rental_uris":{"android":"levelo://app?vid=5a4f62cc-66ab-42cb-86cb-f90870b10fd9","ios":"levelo://app?vid=5a4f62cc-66ab-42cb-86cb-f90870b10fd9"},"vehicle_type_id":"4","last_reported":1722982108,"current_range_meters":23200,"station_id":"ce4bh392rcd13ifvqdl0","pricing_plan_id":"cebpf4jnsgd1na2vs0mg"},{"bike_id":"b0657586-52a6-406f-8042-7f5f327f974e","system_id":"levelo_inurba_marseille","lat":43.298764,"lon":5.388973,"is_reserved":false,"is_disabled":false,"rental_uris":{"android":"levelo://app?vid=b0657586-52a6-406f-8042-7f5f327f974e","ios":"levelo://app?vid=b0657586-52a6-406f-8042-7f5f327f974e"},"vehicle_type_id":"4","last_reported":1722982108,"current_range_meters":24400,"station_id":"ce4bh392rcd13ifvqdl0","pricing_plan_id":"cebpf4jnsgd1na2vs0mg"},{"bike_id":"ad7c2a07-d14f-404d-94e7-2a12432a84fb","system_id":"levelo_inurba_marseille","lat":43.3324,"lon":5.37828,"is_reserved":false,"is_disabled":false,"rental_uris":{"android":"levelo://app?vid=ad7c2a07-d14f-404d-94e7-2a12432a84fb","ios":"levelo://app?vid=ad7c2a07-d14f-404d-94e7-2a12432a84fb"},"vehicle_type_id":"4","last_reported":1722982108,"current_range_meters":0,"station_id":"","pricing_plan_id":"cebpf4jnsgd1na2vs0mg"},{"bike_id":"7fb6f128-45fc-404e-8444-ed119323ac64","system_id":"levelo_inurba_marseille","lat":43.298764,"lon":5.388973,"is_reserved":false,"is_disabled":false,"rental_uris":{"android":"levelo://app?vid=7fb6f128-45fc-404e-8444-ed119323ac64","ios":"levelo://app?vid=7fb6f128-45fc-404e-8444-ed119323ac64"},"vehicle_type_id":"4","last_reported":1722982108,"current_range_meters":31200,"station_id":"ce4bh392rcd13ifvqdl0","pricing_plan_id":"cebpf4jnsgd1na2vs0mg"},{"bike_id":"b7b29733-c3ed-485d-9f53-e79f720bdc10","system_id":"levelo_inurba_marseille","lat":43.298764,"lon":5.388973,"is_reserved":false,"is_disabled":false,"rental_uris":{"android":"levelo://app?vid=b7b29733-c3ed-485d-9f53-e79f720bdc10","ios":"levelo://app?vid=b7b29733-c3ed-485d-9f53-e79f720bdc10"},"vehicle_type_id":"4","last_reported":1722982108,"current_range_meters":26400,"station_id":"ce4bh392rcd13ifvqdl0","pricing_plan_id":"cebpf4jnsgd1na2vs0mg"},{"bike_id":"fb90e73e-99ac-418f-af54-3a3a098945a6","system_id":"levelo_inurba_marseille","lat":43.29193,"lon":5.35921,"is_reserved":false,"is_disabled":false,"rental_uris":{"android":"levelo://app?vid=fb90e73e-99ac-418f-af54-3a3a098945a6","ios":"levelo://app?vid=fb90e73e-99ac-418f-af54-3a3a098945a6"},"vehicle_type_id":"4","last_reported":1722982108,"current_range_meters":0,"station_id":"","pricing_plan_id":"cebpf4jnsgd1na2vs0mg"},{"bike_id":"ad0d1afe-a762-4df1-b3f5-3c19f80026d6","system_id":"levelo_inurba_marseille","lat":43.309038,"lon":5.396546,"is_reserved":false,"is_disabled":false,"rental_uris":{"android":"levelo://app?vid=ad0d1afe-a762-4df1-b3f5-3c19f80026d6","ios":"levelo://app?vid=ad0d1afe-a762-4df1-b3f5-3c19f80026d6"},"vehicle_type_id":"4","last_reported":1722982108,"current_range_meters":20800,"station_id":"ce4bh012rcd13ifvqcv0","pricing_plan_id":"cebpf4jnsgd1na2vs0mg"},{"bike_id":"cde25ac8-1b92-4a5c-8914-20281bb4e060","system_id":"levelo_inurba_marseille","lat":43.3088,"lon":5.39645,"is_reserved":false,"is_disabled":false,"rental_uris":{"android":"levelo://app?vid=cde25ac8-1b92-4a5c-8914-20281bb4e060","ios":"levelo://app?vid=cde25ac8-1b92-4a5c-8914-20281bb4e060"},"vehicle_type_id":"4","last_reported":1722982108,"current_range_meters":18000,"station_id":"ce4bh012rcd13ifvqcv0","pricing_plan_id":"cebpf4jnsgd1na2vs0mg"},{"bike_id":"c46936b7-7ba3-464f-9ad3-a9bcd5b60803","system_id":"levelo_inurba_marseille","lat":43.313291,"lon":5.396838,"is_reserved":false,"is_disabled":false,"rental_uris":{"android":"levelo://app?vid=c46936b7-7ba3-464f-9ad3-a9bcd5b60803","ios":"levelo://app?vid=c46936b7-7ba3-464f-9ad3-a9bcd5b60803"},"vehicle_type_id":"4","last_reported":1722982108,"current_range_meters":29600,"station_id":"ce4bgvp2rcd13ifvqcu0","pricing_plan_id":"cebpf4jnsgd1na2vs0mg"},{"bike_id":"e71ff304-5ba0-4837-b46a-f1756e43d224","system_id":"levelo_inurba_marseille","lat":43.313291,"lon":5.396838,"is_reserved":false,"is_disabled":false,"rental_uris":{"android":"levelo://app?vid=e71ff304-5ba0-4837-b46a-f1756e43d224","ios":"levelo://app?vid=e71ff304-5ba0-4837-b46a-f1756e43d224"},"vehicle_type_id":"4","last_reported":1722982108,"current_range_meters":11600,"station_id":"ce4bgvp2rcd13ifvqcu0","pricing_plan_id":"cebpf4jnsgd1na2vs0mg"},{"bike_id":"274a4e7b-607f-4926-a386-ce9a68782f3d","system_id":"levelo_inurba_marseille","lat":43.313291,"lon":5.396838,"is_reserved":false,"is_disabled":false,"rental_uris":{"android":"levelo://app?vid=274a4e7b-607f-4926-a386-ce9a68782f3d","ios":"levelo://app?vid=274a4e7b-607f-4926-a386-ce9a68782f3d"},"vehicle_type_id":"4","last_reported":1722982108,"current_range_meters":18800,"station_id":"ce4bgvp2rcd13ifvqcu0","pricing_plan_id":"cebpf4jnsgd1na2vs0mg"},{"bike_id":"97af5a05-14d8-4892-b066-a7dd7fd01d9c","system_id":"levelo_inurba_marseille","lat":43.309038,"lon":5.396546,"is_reserved":false,"is_disabled":false,"rental_uris":{"android":"levelo://app?vid=97af5a05-14d8-4892-b066-a7dd7fd01d9c","ios":"levelo://app?vid=97af5a05-14d8-4892-b066-a7dd7fd01d9c"},"vehicle_type_id":"4","last_reported":1722982108,"current_range_meters":21600,"station_id":"ce4bh012rcd13ifvqcv0","pricing_plan_id":"cebpf4jnsgd1na2vs0mg"},{"bike_id":"7e7e1472-7b3b-4407-ae0b-1d853e8f3194","system_id":"levelo_inurba_marseille","lat":43.309047,"lon":5.396551,"is_reserved":false,"is_disabled":false,"rental_uris":{"android":"levelo://app?vid=7e7e1472-7b3b-4407-ae0b-1d853e8f3194","ios":"levelo://app?vid=7e7e1472-7b3b-4407-ae0b-1d853e8f3194"},"vehicle_type_id":"4","last_reported":1722982108,"current_range_meters":19600,"station_id":"ce4bh012rcd13ifvqcv0","pricing_plan_id":"cebpf4jnsgd1na2vs0mg"},{"bike_id":"b9ae9740-01dc-4ae4-bb9e-92dd149ca5d9","system_id":"levelo_inurba_marseille","lat":43.29542,"lon":5.38546,"is_reserved":false,"is_disabled":false,"rental_uris":{"android":"levelo://app?vid=b9ae9740-01dc-4ae4-bb9e-92dd149ca5d9","ios":"levelo://app?vid=b9ae9740-01dc-4ae4-bb9e-92dd149ca5d9"},"vehicle_type_id":"4","last_reported":1722982108,"current_range_meters":31200,"station_id":"ce4bgih2rcd13ifvqba0","pricing_plan_id":"cebpf4jnsgd1na2vs0mg"},{"bike_id":"bfe98473-859d-423e-b891-2fc6f1502235","system_id":"levelo_inurba_marseille","lat":43.309038,"lon":5.396546,"is_reserved":false,"is_disabled":false,"rental_uris":{"android":"levelo://app?vid=bfe98473-859d-423e-b891-2fc6f1502235","ios":"levelo://app?vid=bfe98473-859d-423e-b891-2fc6f1502235"},"vehicle_type_id":"4","last_reported":1722982108,"current_range_meters":1200,"station_id":"ce4bh012rcd13ifvqcv0","pricing_plan_id":"cebpf4jnsgd1na2vs0mg"},{"bike_id":"8c155f70-dd48-40f2-b0e6-875b24c0b7c9","system_id":"levelo_inurba_marseille","lat":43.29532,"lon":5.38552,"is_reserved":false,"is_disabled":false,"rental_uris":{"android":"levelo://app?vid=8c155f70-dd48-40f2-b0e6-875b24c0b7c9","ios":"levelo://app?vid=8c155f70-dd48-40f2-b0e6-875b24c0b7c9"},"vehicle_type_id":"4","last_reported":1722982108,"current_range_meters":31200,"station_id":"ce4bgih2rcd13ifvqba0","pricing_plan_id":"cebpf4jnsgd1na2vs0mg"},{"bike_id":"c57e1e0f-b897-43aa-9a54-85b90065d272","system_id":"levelo_inurba_marseille","lat":43.2953,"lon":5.38551,"is_reserved":false,"is_disabled":false,"rental_uris":{"android":"levelo://app?vid=c57e1e0f-b897-43aa-9a54-85b90065d272","ios":"levelo://app?vid=c57e1e0f-b897-43aa-9a54-85b90065d272"},"vehicle_type_id":"4","last_reported":1722982108,"current_range_meters":0,"station_id":"ce4bgih2rcd13ifvqba0","pricing_plan_id":"cebpf4jnsgd1na2vs0mg"},{"bike_id":"373f6d34-87a4-4d66-8cee-3fae695297ee","system_id":"levelo_inurba_marseille","lat":43.29526,"lon":5.38546,"is_reserved":false,"is_disabled":false,"rental_uris":{"android":"levelo://app?vid=373f6d34-87a4-4d66-8cee-3fae695297ee","ios":"levelo://app?vid=373f6d34-87a4-4d66-8cee-3fae695297ee"},"vehicle_type_id":"4","last_reported":1722982108,"current_range_meters":28400,"station_id":"ce4bgih2rcd13ifvqba0","pricing_plan_id":"cebpf4jnsgd1na2vs0mg"},{"bike_id":"893d8e3f-76c9-4b57-b317-67194c73b242","system_id":"levelo_inurba_marseille","lat":43.29526,"lon":5.38549,"is_reserved":false,"is_disabled":false,"rental_uris":{"android":"levelo://app?vid=893d8e3f-76c9-4b57-b317-67194c73b242","ios":"levelo://app?vid=893d8e3f-76c9-4b57-b317-67194c73b242"},"vehicle_type_id":"4","last_reported":1722982108,"current_range_meters":0,"station_id":"ce4bgih2rcd13ifvqba0","pricing_plan_id":"cebpf4jnsgd1na2vs0mg"},{"bike_id":"261e8b40-587f-4a8c-853d-554104e269b1","system_id":"levelo_inurba_marseille","lat":43.29524,"lon":5.38552,"is_reserved":false,"is_disabled":false,"rental_uris":{"android":"levelo://app?vid=261e8b40-587f-4a8c-853d-554104e269b1","ios":"levelo://app?vid=261e8b40-587f-4a8c-853d-554104e269b1"},"vehicle_type_id":"4","last_reported":1722982108,"current_range_meters":26000,"station_id":"ce4bgih2rcd13ifvqba0","pricing_plan_id":"cebpf4jnsgd1na2vs0mg"},{"bike_id":"175b3dc7-4f96-46f6-9ec9-8fdce3b3eb59","system_id":"levelo_inurba_marseille","lat":43.29068,"lon":5.371553,"is_reserved":false,"is_disabled":false,"rental_uris":{"android":"levelo://app?vid=175b3dc7-4f96-46f6-9ec9-8fdce3b3eb59","ios":"levelo://app?vid=175b3dc7-4f96-46f6-9ec9-8fdce3b3eb59"},"vehicle_type_id":"4","last_reported":1722982108,"current_range_meters":0,"station_id":"ce4bh5p2rcd13ifvqe4g","pricing_plan_id":"cebpf4jnsgd1na2vs0mg"},{"bike_id":"df9576f1-05bf-453c-87bd-4d9ce893cd46","system_id":"levelo_inurba_marseille","lat":43.29942,"lon":5.39199,"is_reserved":false,"is_disabled":false,"rental_uris":{"android":"levelo://app?vid=df9576f1-05bf-453c-87bd-4d9ce893cd46","ios":"levelo://app?vid=df9576f1-05bf-453c-87bd-4d9ce893cd46"},"vehicle_type_id":"4","last_reported":1722982108,"current_range_meters":2400,"station_id":"","pricing_plan_id":"cebpf4jnsgd1na2vs0mg"},{"bike_id":"5fbf8245-de8b-48ec-ba2a-3681bdfdf7c4","system_id":"levelo_inurba_marseille","lat":43.302008,"lon":5.394694,"is_reserved":false,"is_disabled":false,"rental_uris":{"android":"levelo://app?vid=5fbf8245-de8b-48ec-ba2a-3681bdfdf7c4","ios":"levelo://app?vid=5fbf8245-de8b-48ec-ba2a-3681bdfdf7c4"},"vehicle_type_id":"4","last_reported":1722982108,"current_range_meters":16800,"station_id":"ce4bh0p2rcd13ifvqd70","pricing_plan_id":"cebpf4jnsgd1na2vs0mg"},{"bike_id":"f77af2a3-5dd9-4abf-9e96-5f18cc52e7b2","system_id":"levelo_inurba_marseille","lat":43.302008,"lon":5.394694,"is_reserved":false,"is_disabled":false,"rental_uris":{"android":"levelo://app?vid=f77af2a3-5dd9-4abf-9e96-5f18cc52e7b2","ios":"levelo://app?vid=f77af2a3-5dd9-4abf-9e96-5f18cc52e7b2"},"vehicle_type_id":"4","last_reported":1722982108,"current_range_meters":6000,"station_id":"ce4bh0p2rcd13ifvqd70","pricing_plan_id":"cebpf4jnsgd1na2vs0mg"},{"bike_id":"0ffac720-3e59-4de9-b870-365abf75c482","system_id":"levelo_inurba_marseille","lat":43.302008,"lon":5.394694,"is_reserved":false,"is_disabled":false,"rental_uris":{"android":"levelo://app?vid=0ffac720-3e59-4de9-b870-365abf75c482","ios":"levelo://app?vid=0ffac720-3e59-4de9-b870-365abf75c482"},"vehicle_type_id":"4","last_reported":1722982108,"current_range_meters":26800,"station_id":"ce4bh0p2rcd13ifvqd70","pricing_plan_id":"cebpf4jnsgd1na2vs0mg"},{"bike_id":"e160f637-74d6-41ba-8ad8-2366f3fcc712","system_id":"levelo_inurba_marseille","lat":43.306075,"lon":5.397559,"is_reserved":false,"is_disabled":false,"rental_uris":{"android":"levelo://app?vid=e160f637-74d6-41ba-8ad8-2366f3fcc712","ios":"levelo://app?vid=e160f637-74d6-41ba-8ad8-2366f3fcc712"},"vehicle_type_id":"4","last_reported":1722982108,"current_range_meters":0,"station_id":"","pricing_plan_id":"cebpf4jnsgd1na2vs0mg"},{"bike_id":"652e26c4-9252-434f-b612-87ee1e71bf57","system_id":"levelo_inurba_marseille","lat":43.29418,"lon":5.38626,"is_reserved":false,"is_disabled":false,"rental_uris":{"android":"levelo://app?vid=652e26c4-9252-434f-b612-87ee1e71bf57","ios":"levelo://app?vid=652e26c4-9252-434f-b612-87ee1e71bf57"},"vehicle_type_id":"4","last_reported":1722982108,"current_range_meters":0,"station_id":"ce4bh2h2rcd13ifvqdh0","pricing_plan_id":"cebpf4jnsgd1na2vs0mg"},{"bike_id":"57c4ef36-13b2-4de5-8127-19311633c18e","system_id":"levelo_inurba_marseille","lat":43.29417,"lon":5.38627,"is_reserved":false,"is_disabled":false,"rental_uris":{"android":"levelo://app?vid=57c4ef36-13b2-4de5-8127-19311633c18e","ios":"levelo://app?vid=57c4ef36-13b2-4de5-8127-19311633c18e"},"vehicle_type_id":"4","last_reported":1722982108,"current_range_meters":0,"station_id":"ce4bh2h2rcd13ifvqdh0","pricing_plan_id":"cebpf4jnsgd1na2vs0mg"},{"bike_id":"00733c78-d5ca-4acd-877b-24555ea38b8c","system_id":"levelo_inurba_marseille","lat":43.29414,"lon":5.38624,"is_reserved":false,"is_disabled":false,"rental_uris":{"android":"levelo://app?vid=00733c78-d5ca-4acd-877b-24555ea38b8c","ios":"levelo://app?vid=00733c78-d5ca-4acd-877b-24555ea38b8c"},"vehicle_type_id":"4","last_reported":1722982108,"current_range_meters":0,"station_id":"ce4bh2h2rcd13ifvqdh0","pricing_plan_id":"cebpf4jnsgd1na2vs0mg"},{"bike_id":"65da5ea8-2b0a-42f9-830e-6fdffe31e2a7","system_id":"levelo_inurba_marseille","lat":43.29413,"lon":5.3863,"is_reserved":false,"is_disabled":false,"rental_uris":{"android":"levelo://app?vid=65da5ea8-2b0a-42f9-830e-6fdffe31e2a7","ios":"levelo://app?vid=65da5ea8-2b0a-42f9-830e-6fdffe31e2a7"},"vehicle_type_id":"4","last_reported":1722982108,"current_range_meters":0,"station_id":"ce4bh2h2rcd13ifvqdh0","pricing_plan_id":"cebpf4jnsgd1na2vs0mg"},{"bike_id":"6157a819-1934-4751-8dba-2263877ea4a3","system_id":"levelo_inurba_marseille","lat":43.294162,"lon":5.386292,"is_reserved":false,"is_disabled":false,"rental_uris":{"android":"levelo://app?vid=6157a819-1934-4751-8dba-2263877ea4a3","ios":"levelo://app?vid=6157a819-1934-4751-8dba-2263877ea4a3"},"vehicle_type_id":"4","last_reported":1722982108,"current_range_meters":0,"station_id":"ce4bh2h2rcd13ifvqdh0","pricing_plan_id":"cebpf4jnsgd1na2vs0mg"},{"bike_id":"8813979c-3ac8-4b81-b5ef-a5b959516f01","system_id":"levelo_inurba_marseille","lat":43.28937,"lon":5.36648,"is_reserved":false,"is_disabled":false,"rental_uris":{"android":"levelo://app?vid=8813979c-3ac8-4b81-b5ef-a5b959516f01","ios":"levelo://app?vid=8813979c-3ac8-4b81-b5ef-a5b959516f01"},"vehicle_type_id":"4","last_reported":1722982108,"current_range_meters":26000,"station_id":"ce4bhap2rcd13ifvqek0","pricing_plan_id":"cebpf4jnsgd1na2vs0mg"},{"bike_id":"836a70b5-ea84-45b4-a07f-86c8a56bf24b","system_id":"levelo_inurba_marseille","lat":43.28934,"lon":5.36642,"is_reserved":false,"is_disabled":false,"rental_uris":{"android":"levelo://app?vid=836a70b5-ea84-45b4-a07f-86c8a56bf24b","ios":"levelo://app?vid=836a70b5-ea84-45b4-a07f-86c8a56bf24b"},"vehicle_type_id":"4","last_reported":1722982108,"current_range_meters":0,"station_id":"ce4bhap2rcd13ifvqek0","pricing_plan_id":"cebpf4jnsgd1na2vs0mg"},{"bike_id":"5248948e-0241-4bf1-926a-43373d0c130a","system_id":"levelo_inurba_marseille","lat":43.289468,"lon":5.363719,"is_reserved":false,"is_disabled":false,"rental_uris":{"android":"levelo://app?vid=5248948e-0241-4bf1-926a-43373d0c130a","ios":"levelo://app?vid=5248948e-0241-4bf1-926a-43373d0c130a"},"vehicle_type_id":"4","last_reported":1722982108,"current_range_meters":12800,"station_id":"ce4bhc92rcd13ifvqetg","pricing_plan_id":"cebpf4jnsgd1na2vs0mg"},{"bike_id":"324d8ddb-f857-4291-bd28-59d9b074a1c3","system_id":"levelo_inurba_marseille","lat":43.289468,"lon":5.363719,"is_reserved":false,"is_disabled":false,"rental_uris":{"android":"levelo://app?vid=324d8ddb-f857-4291-bd28-59d9b074a1c3","ios":"levelo://app?vid=324d8ddb-f857-4291-bd28-59d9b074a1c3"},"vehicle_type_id":"4","last_reported":1722982108,"current_range_meters":0,"station_id":"ce4bhc92rcd13ifvqetg","pricing_plan_id":"cebpf4jnsgd1na2vs0mg"},{"bike_id":"17730473-25c3-441b-b026-052ede88cc21","system_id":"levelo_inurba_marseille","lat":43.29272,"lon":5.3844,"is_reserved":false,"is_disabled":false,"rental_uris":{"android":"levelo://app?vid=17730473-25c3-441b-b026-052ede88cc21","ios":"levelo://app?vid=17730473-25c3-441b-b026-052ede88cc21"},"vehicle_type_id":"4","last_reported":1722982108,"current_range_meters":28400,"station_id":"ce4bh692rcd13ifvqea0","pricing_plan_id":"cebpf4jnsgd1na2vs0mg"},{"bike_id":"0e036c74-3e25-4b52-91af-93189daa7898","system_id":"levelo_inurba_marseille","lat":43.2927,"lon":5.3845,"is_reserved":false,"is_disabled":false,"rental_uris":{"android":"levelo://app?vid=0e036c74-3e25-4b52-91af-93189daa7898","ios":"levelo://app?vid=0e036c74-3e25-4b52-91af-93189daa7898"},"vehicle_type_id":"4","last_reported":1722982108,"current_range_meters":30800,"station_id":"ce4bh692rcd13ifvqea0","pricing_plan_id":"cebpf4jnsgd1na2vs0mg"},{"bike_id":"c61e8296-0cc7-46ec-99a9-bc5166f0171e","system_id":"levelo_inurba_marseille","lat":43.304274,"lon":5.397513,"is_reserved":false,"is_disabled":false,"rental_uris":{"android":"levelo://app?vid=c61e8296-0cc7-46ec-99a9-bc5166f0171e","ios":"levelo://app?vid=c61e8296-0cc7-46ec-99a9-bc5166f0171e"},"vehicle_type_id":"4","last_reported":1722982108,"current_range_meters":25200,"station_id":"ce4bh092rcd13ifvqd20","pricing_plan_id":"cebpf4jnsgd1na2vs0mg"},{"bike_id":"53a7164f-ce5b-443c-8d72-0dcecd3e3f82","system_id":"levelo_inurba_marseille","lat":43.29004,"lon":5.35604,"is_reserved":false,"is_disabled":false,"rental_uris":{"android":"levelo://app?vid=53a7164f-ce5b-443c-8d72-0dcecd3e3f82","ios":"levelo://app?vid=53a7164f-ce5b-443c-8d72-0dcecd3e3f82"},"vehicle_type_id":"4","last_reported":1722982108,"current_range_meters":0,"station_id":"ce4bhb92rcd13ifvqen0","pricing_plan_id":"cebpf4jnsgd1na2vs0mg"},{"bike_id":"373fdba1-99f4-46eb-9fff-54c445894ed7","system_id":"levelo_inurba_marseille","lat":43.295169,"lon":5.390426,"is_reserved":false,"is_disabled":false,"rental_uris":{"android":"levelo://app?vid=373fdba1-99f4-46eb-9fff-54c445894ed7","ios":"levelo://app?vid=373fdba1-99f4-46eb-9fff-54c445894ed7"},"vehicle_type_id":"4","last_reported":1722982108,"current_range_meters":31600,"station_id":"ce4bh3p2rcd13ifvqdp0","pricing_plan_id":"cebpf4jnsgd1na2vs0mg"},{"bike_id":"7a9548cb-5c9c-40d3-a8f8-7cf418d708c0","system_id":"levelo_inurba_marseille","lat":43.297807,"lon":5.393533,"is_reserved":false,"is_disabled":false,"rental_uris":{"android":"levelo://app?vid=7a9548cb-5c9c-40d3-a8f8-7cf418d708c0","ios":"levelo://app?vid=7a9548cb-5c9c-40d3-a8f8-7cf418d708c0"},"vehicle_type_id":"4","last_reported":1722982108,"current_range_meters":22800,"station_id":"chh1huq6cuj3fo74tm60","pricing_plan_id":"cebpf4jnsgd1na2vs0mg"},{"bike_id":"9db48618-2454-4f44-84b9-1084496e8af3","system_id":"levelo_inurba_marseille","lat":43.297807,"lon":5.393533,"is_reserved":false,"is_disabled":false,"rental_uris":{"android":"levelo://app?vid=9db48618-2454-4f44-84b9-1084496e8af3","ios":"levelo://app?vid=9db48618-2454-4f44-84b9-1084496e8af3"},"vehicle_type_id":"4","last_reported":1722982108,"current_range_meters":6000,"station_id":"chh1huq6cuj3fo74tm60","pricing_plan_id":"cebpf4jnsgd1na2vs0mg"},{"bike_id":"5ff356dc-baa8-41ce-a5e6-7bc78bcf4166","system_id":"levelo_inurba_marseille","lat":43.297807,"lon":5.393533,"is_reserved":false,"is_disabled":false,"rental_uris":{"android":"levelo://app?vid=5ff356dc-baa8-41ce-a5e6-7bc78bcf4166","ios":"levelo://app?vid=5ff356dc-baa8-41ce-a5e6-7bc78bcf4166"},"vehicle_type_id":"4","last_reported":1722982108,"current_range_meters":32000,"station_id":"chh1huq6cuj3fo74tm60","pricing_plan_id":"cebpf4jnsgd1na2vs0mg"},{"bike_id":"a91e133b-607e-42fe-9316-19ac19195bd6","system_id":"levelo_inurba_marseille","lat":43.297807,"lon":5.393533,"is_reserved":false,"is_disabled":false,"rental_uris":{"android":"levelo://app?vid=a91e133b-607e-42fe-9316-19ac19195bd6","ios":"levelo://app?vid=a91e133b-607e-42fe-9316-19ac19195bd6"},"vehicle_type_id":"4","last_reported":1722982108,"current_range_meters":11600,"station_id":"chh1huq6cuj3fo74tm60","pricing_plan_id":"cebpf4jnsgd1na2vs0mg"},{"bike_id":"a27ae82f-8042-4070-af4c-6c151198be48","system_id":"levelo_inurba_marseille","lat":43.297807,"lon":5.393533,"is_reserved":false,"is_disabled":false,"rental_uris":{"android":"levelo://app?vid=a27ae82f-8042-4070-af4c-6c151198be48","ios":"levelo://app?vid=a27ae82f-8042-4070-af4c-6c151198be48"},"vehicle_type_id":"4","last_reported":1722982108,"current_range_meters":17600,"station_id":"chh1huq6cuj3fo74tm60","pricing_plan_id":"cebpf4jnsgd1na2vs0mg"},{"bike_id":"3afb9a48-48de-4a0a-8776-da5a46399495","system_id":"levelo_inurba_marseille","lat":43.297807,"lon":5.393533,"is_reserved":false,"is_disabled":false,"rental_uris":{"android":"levelo://app?vid=3afb9a48-48de-4a0a-8776-da5a46399495","ios":"levelo://app?vid=3afb9a48-48de-4a0a-8776-da5a46399495"},"vehicle_type_id":"4","last_reported":1722982108,"current_range_meters":29200,"station_id":"chh1huq6cuj3fo74tm60","pricing_plan_id":"cebpf4jnsgd1na2vs0mg"},{"bike_id":"a3964289-7e79-4581-9c95-4e84571b20be","system_id":"levelo_inurba_marseille","lat":43.297815,"lon":5.393548,"is_reserved":false,"is_disabled":false,"rental_uris":{"android":"levelo://app?vid=a3964289-7e79-4581-9c95-4e84571b20be","ios":"levelo://app?vid=a3964289-7e79-4581-9c95-4e84571b20be"},"vehicle_type_id":"4","last_reported":1722982108,"current_range_meters":17200,"station_id":"chh1huq6cuj3fo74tm60","pricing_plan_id":"cebpf4jnsgd1na2vs0mg"},{"bike_id":"c3bdf5ad-35e2-4f7b-968e-8e82f43e377c","system_id":"levelo_inurba_marseille","lat":43.297815,"lon":5.393548,"is_reserved":false,"is_disabled":false,"rental_uris":{"android":"levelo://app?vid=c3bdf5ad-35e2-4f7b-968e-8e82f43e377c","ios":"levelo://app?vid=c3bdf5ad-35e2-4f7b-968e-8e82f43e377c"},"vehicle_type_id":"4","last_reported":1722982108,"current_range_meters":15200,"station_id":"chh1huq6cuj3fo74tm60","pricing_plan_id":"cebpf4jnsgd1na2vs0mg"},{"bike_id":"9f3b6745-d544-4568-88b9-7275f5977259","system_id":"levelo_inurba_marseille","lat":43.297807,"lon":5.393533,"is_reserved":false,"is_disabled":false,"rental_uris":{"android":"levelo://app?vid=9f3b6745-d544-4568-88b9-7275f5977259","ios":"levelo://app?vid=9f3b6745-d544-4568-88b9-7275f5977259"},"vehicle_type_id":"4","last_reported":1722982108,"current_range_meters":29600,"station_id":"chh1huq6cuj3fo74tm60","pricing_plan_id":"cebpf4jnsgd1na2vs0mg"},{"bike_id":"27b66f40-a1c6-419c-8ade-2800bf79c3ea","system_id":"levelo_inurba_marseille","lat":43.297807,"lon":5.393533,"is_reserved":false,"is_disabled":false,"rental_uris":{"android":"levelo://app?vid=27b66f40-a1c6-419c-8ade-2800bf79c3ea","ios":"levelo://app?vid=27b66f40-a1c6-419c-8ade-2800bf79c3ea"},"vehicle_type_id":"4","last_reported":1722982108,"current_range_meters":20000,"station_id":"chh1huq6cuj3fo74tm60","pricing_plan_id":"cebpf4jnsgd1na2vs0mg"},{"bike_id":"745372f5-6d06-44a2-a61b-14c02e295493","system_id":"levelo_inurba_marseille","lat":43.297807,"lon":5.393533,"is_reserved":false,"is_disabled":false,"rental_uris":{"android":"levelo://app?vid=745372f5-6d06-44a2-a61b-14c02e295493","ios":"levelo://app?vid=745372f5-6d06-44a2-a61b-14c02e295493"},"vehicle_type_id":"4","last_reported":1722982108,"current_range_meters":32000,"station_id":"chh1huq6cuj3fo74tm60","pricing_plan_id":"cebpf4jnsgd1na2vs0mg"},{"bike_id":"e9dd68fc-451c-418c-9944-7dd0bfc197ac","system_id":"levelo_inurba_marseille","lat":43.3302,"lon":5.39041,"is_reserved":false,"is_disabled":false,"rental_uris":{"android":"levelo://app?vid=e9dd68fc-451c-418c-9944-7dd0bfc197ac","ios":"levelo://app?vid=e9dd68fc-451c-418c-9944-7dd0bfc197ac"},"vehicle_type_id":"4","last_reported":1722982108,"current_range_meters":8000,"station_id":"ce4bhr92rcd13ifvqhrg","pricing_plan_id":"cebpf4jnsgd1na2vs0mg"},{"bike_id":"1c8f5238-3e8b-4dc7-8533-42eb112e75a2","system_id":"levelo_inurba_marseille","lat":43.330442,"lon":5.389148,"is_reserved":false,"is_disabled":false,"rental_uris":{"android":"levelo://app?vid=1c8f5238-3e8b-4dc7-8533-42eb112e75a2","ios":"levelo://app?vid=1c8f5238-3e8b-4dc7-8533-42eb112e75a2"},"vehicle_type_id":"4","last_reported":1722982108,"current_range_meters":5600,"station_id":"ce4bhr92rcd13ifvqhrg","pricing_plan_id":"cebpf4jnsgd1na2vs0mg"},{"bike_id":"80969bfc-9d33-44e7-ba5c-686954335a83","system_id":"levelo_inurba_marseille","lat":43.29778,"lon":5.39351,"is_reserved":false,"is_disabled":false,"rental_uris":{"android":"levelo://app?vid=80969bfc-9d33-44e7-ba5c-686954335a83","ios":"levelo://app?vid=80969bfc-9d33-44e7-ba5c-686954335a83"},"vehicle_type_id":"4","last_reported":1722982108,"current_range_meters":31200,"station_id":"chh1huq6cuj3fo74tm60","pricing_plan_id":"cebpf4jnsgd1na2vs0mg"},{"bike_id":"80674fea-f8f8-48a6-b3ee-ba5b890d7c15","system_id":"levelo_inurba_marseille","lat":43.33023,"lon":5.39044,"is_reserved":false,"is_disabled":false,"rental_uris":{"android":"levelo://app?vid=80674fea-f8f8-48a6-b3ee-ba5b890d7c15","ios":"levelo://app?vid=80674fea-f8f8-48a6-b3ee-ba5b890d7c15"},"vehicle_type_id":"4","last_reported":1722982108,"current_range_meters":0,"station_id":"ce4bhr92rcd13ifvqhrg","pricing_plan_id":"cebpf4jnsgd1na2vs0mg"},{"bike_id":"2faeec82-8b38-4091-8a1c-0414005c0396","system_id":"levelo_inurba_marseille","lat":43.297815,"lon":5.393548,"is_reserved":false,"is_disabled":false,"rental_uris":{"android":"levelo://app?vid=2faeec82-8b38-4091-8a1c-0414005c0396","ios":"levelo://app?vid=2faeec82-8b38-4091-8a1c-0414005c0396"},"vehicle_type_id":"4","last_reported":1722982108,"current_range_meters":15200,"station_id":"chh1huq6cuj3fo74tm60","pricing_plan_id":"cebpf4jnsgd1na2vs0mg"},{"bike_id":"3e272c6b-c01b-49be-8223-7f115ed7c3f5","system_id":"levelo_inurba_marseille","lat":43.297807,"lon":5.393533,"is_reserved":false,"is_disabled":false,"rental_uris":{"android":"levelo://app?vid=3e272c6b-c01b-49be-8223-7f115ed7c3f5","ios":"levelo://app?vid=3e272c6b-c01b-49be-8223-7f115ed7c3f5"},"vehicle_type_id":"4","last_reported":1722982108,"current_range_meters":31200,"station_id":"chh1huq6cuj3fo74tm60","pricing_plan_id":"cebpf4jnsgd1na2vs0mg"},{"bike_id":"e132f4bf-2a14-439b-89ba-ad3e8905099f","system_id":"levelo_inurba_marseille","lat":43.330442,"lon":5.389148,"is_reserved":false,"is_disabled":false,"rental_uris":{"android":"levelo://app?vid=e132f4bf-2a14-439b-89ba-ad3e8905099f","ios":"levelo://app?vid=e132f4bf-2a14-439b-89ba-ad3e8905099f"},"vehicle_type_id":"4","last_reported":1722982108,"current_range_meters":25200,"station_id":"ce4bhr92rcd13ifvqhrg","pricing_plan_id":"cebpf4jnsgd1na2vs0mg"},{"bike_id":"e9aca814-cb31-4412-8e27-bc0fc751068f","system_id":"levelo_inurba_marseille","lat":43.295169,"lon":5.390426,"is_reserved":false,"is_disabled":false,"rental_uris":{"android":"levelo://app?vid=e9aca814-cb31-4412-8e27-bc0fc751068f","ios":"levelo://app?vid=e9aca814-cb31-4412-8e27-bc0fc751068f"},"vehicle_type_id":"4","last_reported":1722982108,"current_range_meters":31200,"station_id":"ce4bh3p2rcd13ifvqdp0","pricing_plan_id":"cebpf4jnsgd1na2vs0mg"},{"bike_id":"6106f179-7d72-4257-b6a7-9d64af08838a","system_id":"levelo_inurba_marseille","lat":43.2901,"lon":5.381269,"is_reserved":false,"is_disabled":false,"rental_uris":{"android":"levelo://app?vid=6106f179-7d72-4257-b6a7-9d64af08838a","ios":"levelo://app?vid=6106f179-7d72-4257-b6a7-9d64af08838a"},"vehicle_type_id":"4","last_reported":1722982108,"current_range_meters":0,"station_id":"ce4bh4p2rcd13ifvqe1g","pricing_plan_id":"cebpf4jnsgd1na2vs0mg"},{"bike_id":"d7394cc4-1568-4ec2-a77c-b31c3f81a021","system_id":"levelo_inurba_marseille","lat":43.31065,"lon":5.40089,"is_reserved":false,"is_disabled":false,"rental_uris":{"android":"levelo://app?vid=d7394cc4-1568-4ec2-a77c-b31c3f81a021","ios":"levelo://app?vid=d7394cc4-1568-4ec2-a77c-b31c3f81a021"},"vehicle_type_id":"4","last_reported":1722982108,"current_range_meters":2000,"station_id":"","pricing_plan_id":"cebpf4jnsgd1na2vs0mg"},{"bike_id":"0bc4a9b0-c2a4-4e87-b2bf-395c2d45d70f","system_id":"levelo_inurba_marseille","lat":43.310716,"lon":5.400926,"is_reserved":false,"is_disabled":false,"rental_uris":{"android":"levelo://app?vid=0bc4a9b0-c2a4-4e87-b2bf-395c2d45d70f","ios":"levelo://app?vid=0bc4a9b0-c2a4-4e87-b2bf-395c2d45d70f"},"vehicle_type_id":"4","last_reported":1722982108,"current_range_meters":29200,"station_id":"","pricing_plan_id":"cebpf4jnsgd1na2vs0mg"},{"bike_id":"fdfebfc3-3d6b-4726-aac0-ab932962aa97","system_id":"levelo_inurba_marseille","lat":43.310662,"lon":5.400928,"is_reserved":false,"is_disabled":false,"rental_uris":{"android":"levelo://app?vid=fdfebfc3-3d6b-4726-aac0-ab932962aa97","ios":"levelo://app?vid=fdfebfc3-3d6b-4726-aac0-ab932962aa97"},"vehicle_type_id":"4","last_reported":1722982108,"current_range_meters":26800,"station_id":"","pricing_plan_id":"cebpf4jnsgd1na2vs0mg"},{"bike_id":"71cf5f6e-1aa1-4aee-820b-fec8a9f815d6","system_id":"levelo_inurba_marseille","lat":43.31067,"lon":5.40102,"is_reserved":false,"is_disabled":false,"rental_uris":{"android":"levelo://app?vid=71cf5f6e-1aa1-4aee-820b-fec8a9f815d6","ios":"levelo://app?vid=71cf5f6e-1aa1-4aee-820b-fec8a9f815d6"},"vehicle_type_id":"4","last_reported":1722982108,"current_range_meters":30000,"station_id":"","pricing_plan_id":"cebpf4jnsgd1na2vs0mg"},{"bike_id":"2672a590-297c-44b4-a5f1-0e2a78174849","system_id":"levelo_inurba_marseille","lat":43.28856,"lon":5.358371,"is_reserved":false,"is_disabled":false,"rental_uris":{"android":"levelo://app?vid=2672a590-297c-44b4-a5f1-0e2a78174849","ios":"levelo://app?vid=2672a590-297c-44b4-a5f1-0e2a78174849"},"vehicle_type_id":"4","last_reported":1722982108,"current_range_meters":19600,"station_id":"ce4bhb12rcd13ifvqem0","pricing_plan_id":"cebpf4jnsgd1na2vs0mg"},