{"last_updated":1698253503,"ttl":30,"version":"2.2","data":{"bikes":[{"bike_id":"cb7576bb-0362-4fbf-baa4-dcb32e287db2","system_id":"levelo_inurba_marseille","lat":43.31314,"lon":5.3676,"is_reserved":false,"is_disabled":false,"rental_uris":{"android":"levelo://app?vid=cb7576bb-0362-4fbf-baa4-dcb32e287db2","ios":"levelo://app?vid=cb7576bb-0362-4fbf-baa4-dcb32e287db2"},"vehicle_type_id":"4","last_reported":1698253503,"current_range_meters":31200,"station_id":"","pricing_plan_id":"free"},{"bike_id":"a20483b7-65cc-4502-9b00-acf4fd022db2","system_id":"levelo_inurba_marseille","lat":43.31323,"lon":5.36767,"is_reserved":false,"is_disabled":false,"rental_uris":{"android":"levelo://app?vid=a20483b7-65cc-4502-9b00-acf4fd022db2","ios":"levelo://app?vid=a20483b7-65cc-4502-9b00-acf4fd022db2"},"vehicle_type_id":"4","last_reported":1698253503,"current_range_meters":28800,"station_id":"","pricing_plan_id":"free"},{"bike_id":"f5c58904-aeb7-4548-b4b5-9f5e83f269ce","system_id":"levelo_inurba_marseille","lat":43.309797,"lon":5.368093,"is_reserved":false,"is_disabled":false,"rental_uris":{"android":"levelo://app?vid=f5c58904-aeb7-4548-b4b5-9f5e83f269ce","ios":"levelo://app?vid=f5c58904-aeb7-4548-b4b5-9f5e83f269ce"},"vehicle_type_id":"4","last_reported":1698253503,"current_range_meters":3200,"station_id":"ce4bgn92rcd13ifvqbvg","pricing_plan_id":"free"},{"bike_id":"c5ef0ca8-27df-4976-a969-31b9ecb53e9b","system_id":"levelo_inurba_marseille","lat":43.31519,"lon":5.37175,"is_reserved":false,"is_disabled":false,"rental_uris":{"android":"levelo://app?vid=c5ef0ca8-27df-4976-a969-31b9ecb53e9b","ios":"levelo://app?vid=c5ef0ca8-27df-4976-a969-31b9ecb53e9b"},"vehicle_type_id":"4","last_reported":1698253503,"current_range_meters":0,"station_id":"","pricing_plan_id":"free"},{"bike_id":"dbbdea51-7e3d-4271-bd96-c3aabecbd7e2","system_id":"levelo_inurba_marseille","lat":43.315783,"lon":5.372523,"is_reserved":false,"is_disabled":false,"rental_uris":{"android":"levelo://app?vid=dbbdea51-7e3d-4271-bd96-c3aabecbd7e2","ios":"levelo://app?vid=dbbdea51-7e3d-4271-bd96-c3aabecbd7e2"},"vehicle_type_id":"4","last_reported":1698253503,"current_range_meters":19200,"station_id":"","pricing_plan_id":"free"},{"bike_id":"528aea5e-05eb-47bf-8d95-74169986a73d","system_id":"levelo_inurba_marseille","lat":43.309039,"lon":5.371797,"is_reserved":false,"is_disabled":false,"rental_uris":{"android":"levelo://app?vid=528aea5e-05eb-47bf-8d95-74169986a73d","ios":"levelo://app?vid=528aea5e-05eb-47bf-8d95-74169986a73d"},"vehicle_type_id":"4","last_reported":1698253503,"current_range_meters":19200,"station_id":"ce4bguh2rcd13ifvqckg","pricing_plan_id":"free"},{"bike_id":"28d91daa-bf2a-466b-8cf6-56dbc3683808","system_id":"levelo_inurba_marseille","lat":43.317514,"lon":5.373043,"is_reserved":false,"is_disabled":false,"rental_uris":{"android":"levelo://app?vid=28d91daa-bf2a-466b-8cf6-56dbc3683808","ios":"levelo://app?vid=28d91daa-bf2a-466b-8cf6-56dbc3683808"},"vehicle_type_id":"4","last_reported":1698253503,"current_range_meters":31200,"station_id":"","pricing_plan_id":"free"},{"bike_id":"f252b071-dddd-4e5f-ad07-506846af6d1a","system_id":"levelo_inurba_marseille","lat":43.30541,"lon":5.36537,"is_reserved":false,"is_disabled":false,"rental_uris":{"android":"levelo://app?vid=f252b071-dddd-4e5f-ad07-506846af6d1a","ios":"levelo://app?vid=f252b071-dddd-4e5f-ad07-506846af6d1a"},"vehicle_type_id":"4","last_reported":1698253503,"current_range_meters":11600,"station_id":"ce4bgs12rcd13ifvqcag","pricing_plan_id":"free"},{"bike_id":"683b306e-3d3b-4378-97b5-b4070d38b550","system_id":"levelo_inurba_marseille","lat":43.305989,"lon":5.37225,"is_reserved":false,"is_disabled":false,"rental_uris":{"android":"levelo://app?vid=683b306e-3d3b-4378-97b5-b4070d38b550","ios":"levelo://app?vid=683b306e-3d3b-4378-97b5-b4070d38b550"},"vehicle_type_id":"4","last_reported":1698253503,"current_range_meters":16400,"station_id":"ce4bgqh2rcd13ifvqc4g","pricing_plan_id":"free"},{"bike_id":"2fe6addf-3f28-4e18-9be7-8e324eee151f","system_id":"levelo_inurba_marseille","lat":43.30501,"lon":5.37088,"is_reserved":false,"is_disabled":false,"rental_uris":{"android":"levelo://app?vid=2fe6addf-3f28-4e18-9be7-8e324eee151f","ios":"levelo://app?vid=2fe6addf-3f28-4e18-9be7-8e324eee151f"},"vehicle_type_id":"4","last_reported":1698253503,"current_range_meters":13600,"station_id":"","pricing_plan_id":"free"},{"bike_id":"5c2b8f23-f2aa-4696-9697-f03dd2ede8ee","system_id":"levelo_inurba_marseille","lat":43.321848,"lon":5.37506,"is_reserved":false,"is_disabled":false,"rental_uris":{"android":"levelo://app?vid=5c2b8f23-f2aa-4696-9697-f03dd2ede8ee","ios":"levelo://app?vid=5c2b8f23-f2aa-4696-9697-f03dd2ede8ee"},"vehicle_type_id":"4","last_reported":1698253503,"current_range_meters":16400,"station_id":"","pricing_plan_id":"free"},{"bike_id":"afffb223-9ef4-4224-9739-523626c0f71c","system_id":"levelo_inurba_marseille","lat":43.30799,"lon":5.38158,"is_reserved":false,"is_disabled":false,"rental_uris":{"android":"levelo://app?vid=afffb223-9ef4-4224-9739-523626c0f71c","ios":"levelo://app?vid=afffb223-9ef4-4224-9739-523626c0f71c"},"vehicle_type_id":"4","last_reported":1698253503,"current_range_meters":22000,"station_id":"ce4bgt12rcd13ifvqce0","pricing_plan_id":"free"},{"bike_id":"e6db9884-b50a-4fef-a866-32a59c14dbdc","system_id":"levelo_inurba_marseille","lat":43.308012,"lon":5.381511,"is_reserved":false,"is_disabled":false,"rental_uris":{"android":"levelo://app?vid=e6db9884-b50a-4fef-a866-32a59c14dbdc","ios":"levelo://app?vid=e6db9884-b50a-4fef-a866-32a59c14dbdc"},"vehicle_type_id":"4","last_reported":1698253503,"current_range_meters":0,"station_id":"ce4bgt12rcd13ifvqce0","pricing_plan_id":"free"},{"bike_id":"f2616ad7-2405-4e60-af77-b6b89710053e","system_id":"levelo_inurba_marseille","lat":43.30455,"lon":5.37908,"is_reserved":false,"is_disabled":false,"rental_uris":{"android":"levelo://app?vid=f2616ad7-2405-4e60-af77-b6b89710053e","ios":"levelo://app?vid=f2616ad7-2405-4e60-af77-b6b89710053e"},"vehicle_type_id":"4","last_reported":1698253503,"current_range_meters":31600,"station_id":"ce4bgup2rcd13ifvqcn0","pricing_plan_id":"free"},{"bike_id":"1047bcc5-10ff-460b-bd6f-eac1d4a67db4","system_id":"levelo_inurba_marseille","lat":43.31745,"lon":5.382537,"is_reserved":false,"is_disabled":false,"rental_uris":{"android":"levelo://app?vid=1047bcc5-10ff-460b-bd6f-eac1d4a67db4","ios":"levelo://app?vid=1047bcc5-10ff-460b-bd6f-eac1d4a67db4"},"vehicle_type_id":"4","last_reported":1698253503,"current_range_meters":3600,"station_id":"","pricing_plan_id":"free"},{"bike_id":"e9bc18c1-5883-4ccd-b040-f7d6f0a361f7","system_id":"levelo_inurba_marseille","lat":43.30359,"lon":5.37859,"is_reserved":false,"is_disabled":false,"rental_uris":{"android":"levelo://app?vid=e9bc18c1-5883-4ccd-b040-f7d6f0a361f7","ios":"levelo://app?vid=e9bc18c1-5883-4ccd-b040-f7d6f0a361f7"},"vehicle_type_id":"4","last_reported":1698253503,"current_range_meters":20400,"station_id":"","pricing_plan_id":"free"},{"bike_id":"ab12af31-c8a2-48d1-ac9c-3f79e8867396","system_id":"levelo_inurba_marseille","lat":43.302784,"lon":5.377158,"is_reserved":false,"is_disabled":false,"rental_uris":{"android":"levelo://app?vid=ab12af31-c8a2-48d1-ac9c-3f79e8867396","ios":"levelo://app?vid=ab12af31-c8a2-48d1-ac9c-3f79e8867396"},"vehicle_type_id":"4","last_reported":1698253503,"current_range_meters":6400,"station_id":"ce4bguh2rcd13ifvqcj0","pricing_plan_id":"free"},{"bike_id":"73c6c664-2c4e-403f-b0c3-393f4315b035","system_id":"levelo_inurba_marseille","lat":43.319917,"lon":5.381197,"is_reserved":false,"is_disabled":false,"rental_uris":{"android":"levelo://app?vid=73c6c664-2c4e-403f-b0c3-393f4315b035","ios":"levelo://app?vid=73c6c664-2c4e-403f-b0c3-393f4315b035"},"vehicle_type_id":"4","last_reported":1698253503,"current_range_meters":27200,"station_id":"ce4bhr12rcd13ifvqhpg","pricing_plan_id":"free"},{"bike_id":"46e59620-997e-486c-a36f-24a6f0541ad5","system_id":"levelo_inurba_marseille","lat":43.319937,"lon":5.381563,"is_reserved":false,"is_disabled":false,"rental_uris":{"android":"levelo://app?vid=46e59620-997e-486c-a36f-24a6f0541ad5","ios":"levelo://app?vid=46e59620-997e-486c-a36f-24a6f0541ad5"},"vehicle_type_id":"4","last_reported":1698253503,"current_range_meters":13600,"station_id":"","pricing_plan_id":"free"},{"bike_id":"d34028e0-3792-4cc5-93dd-0a721f8927d4","system_id":"levelo_inurba_marseille","lat":43.319947,"lon":5.381627,"is_reserved":false,"is_disabled":false,"rental_uris":{"android":"levelo://app?vid=d34028e0-3792-4cc5-93dd-0a721f8927d4","ios":"levelo://app?vid=d34028e0-3792-4cc5-93dd-0a721f8927d4"},"vehicle_type_id":"4","last_reported":1698253503,"current_range_meters":19200,"station_id":"ce4bhr12rcd13ifvqhpg","pricing_plan_id":"free"},{"bike_id":"75096c6e-b0df-47e6-a585-0a61cd72c884","system_id":"levelo_inurba_marseille","lat":43.313571,"lon":5.384829,"is_reserved":false,"is_disabled":false,"rental_uris":{"android":"levelo://app?vid=75096c6e-b0df-47e6-a585-0a61cd72c884","ios":"levelo://app?vid=75096c6e-b0df-47e6-a585-0a61cd72c884"},"vehicle_type_id":"4","last_reported":1698253503,"current_range_meters":18400,"station_id":"ce4bgt92rcd13ifvqcf0","pricing_plan_id":"free"},{"bike_id":"bd64b184-b9d1-4db9-a99e-d31734862d38","system_id":"levelo_inurba_marseille","lat":43.299222,"lon":5.365554,"is_reserved":false,"is_disabled":false,"rental_uris":{"android":"levelo://app?vid=bd64b184-b9d1-4db9-a99e-d31734862d38","ios":"levelo://app?vid=bd64b184-b9d1-4db9-a99e-d31734862d38"},"vehicle_type_id":"4","last_reported":1698253503,"current_range_meters":14000,"station_id":"ce4bgm92rcd13ifvqbr0","pricing_plan_id":"free"},{"bike_id":"97997ef7-b347-4148-ba57-9a15ecc4912d","system_id":"levelo_inurba_marseille","lat":43.320945,"lon":5.38306,"is_reserved":false,"is_disabled":false,"rental_uris":{"android":"levelo://app?vid=97997ef7-b347-4148-ba57-9a15ecc4912d","ios":"levelo://app?vid=97997ef7-b347-4148-ba57-9a15ecc4912d"},"vehicle_type_id":"4","last_reported":1698253503,"current_range_meters":4000,"station_id":"","pricing_plan_id":"free"},{"bike_id":"723819fa-91b8-4314-a895-61409eae7906","system_id":"levelo_inurba_marseille","lat":43.305364,"lon":5.384119,"is_reserved":false,"is_disabled":false,"rental_uris":{"android":"levelo://app?vid=723819fa-91b8-4314-a895-61409eae7906","ios":"levelo://app?vid=723819fa-91b8-4314-a895-61409eae7906"},"vehicle_type_id":"4","last_reported":1698253503,"current_range_meters":25200,"station_id":"ce4bgg92rcd13ifvqb30","pricing_plan_id":"free"},{"bike_id":"c9f22466-257b-44f4-b9d1-d921a6967f13","system_id":"levelo_inurba_marseille","lat":43.311722,"lon":5.387247,"is_reserved":false,"is_disabled":false,"rental_uris":{"android":"levelo://app?vid=c9f22466-257b-44f4-b9d1-d921a6967f13","ios":"levelo://app?vid=c9f22466-257b-44f4-b9d1-d921a6967f13"},"vehicle_type_id":"4","last_reported":1698253503,"current_range_meters":23600,"station_id":"ce4bgv12rcd13ifvqcp0","pricing_plan_id":"free"},{"bike_id":"87f7631b-26c5-4eb0-923d-e25d7a172ef2","system_id":"levelo_inurba_marseille","lat":43.311722,"lon":5.387247,"is_reserved":false,"is_disabled":false,"rental_uris":{"android":"levelo://app?vid=87f7631b-26c5-4eb0-923d-e25d7a172ef2","ios":"levelo://app?vid=87f7631b-26c5-4eb0-923d-e25d7a172ef2"},"vehicle_type_id":"4","last_reported":1698253503,"current_range_meters":17600,"station_id":"ce4bgv12rcd13ifvqcp0","pricing_plan_id":"free"},{"bike_id":"570e7dd9-3e2e-4b11-a9fc-5afd5d1994f2","system_id":"levelo_inurba_marseille","lat":43.311722,"lon":5.387247,"is_reserved":false,"is_disabled":false,"rental_uris":{"android":"levelo://app?vid=570e7dd9-3e2e-4b11-a9fc-5afd5d1994f2","ios":"levelo://app?vid=570e7dd9-3e2e-4b11-a9fc-5afd5d1994f2"},"vehicle_type_id":"4","last_reported":1698253503,"current_range_meters":18400,"station_id":"ce4bgv12rcd13ifvqcp0","pricing_plan_id":"free"},{"bike_id":"858504dd-fa00-46ba-bb65-7e47e3029a75","system_id":"levelo_inurba_marseille","lat":43.311722,"lon":5.387247,"is_reserved":false,"is_disabled":false,"rental_uris":{"android":"levelo://app?vid=858504dd-fa00-46ba-bb65-7e47e3029a75","ios":"levelo://app?vid=858504dd-fa00-46ba-bb65-7e47e3029a75"},"vehicle_type_id":"4","last_reported":1698253503,"current_range_meters":13600,"station_id":"ce4bgv12rcd13ifvqcp0","pricing_plan_id":"free"},{"bike_id":"42ad4fea-616a-44bc-a8e3-bcf5cd7085d3","system_id":"levelo_inurba_marseille","lat":43.297774,"lon":5.370875,"is_reserved":false,"is_disabled":false,"rental_uris":{"android":"levelo://app?vid=42ad4fea-616a-44bc-a8e3-bcf5cd7085d3","ios":"levelo://app?vid=42ad4fea-616a-44bc-a8e3-bcf5cd7085d3"},"vehicle_type_id":"4","last_reported":1698253503,"current_range_meters":26400,"station_id":"ce4bgop2rcd13ifvqc1g","pricing_plan_id":"free"},{"bike_id":"2cb55403-67fb-4dc4-a23d-ed44a0a6b4f7","system_id":"levelo_inurba_marseille","lat":43.32827,"lon":5.36679,"is_reserved":false,"is_disabled":false,"rental_uris":{"android":"levelo://app?vid=2cb55403-67fb-4dc4-a23d-ed44a0a6b4f7","ios":"levelo://app?vid=2cb55403-67fb-4dc4-a23d-ed44a0a6b4f7"},"vehicle_type_id":"4","last_reported":1698253503,"current_range_meters":0,"station_id":"","pricing_plan_id":"free"},{"bike_id":"06e5816c-1a41-4671-9990-eddc8c155d29","system_id":"levelo_inurba_marseille","lat":43.328295,"lon":5.366915,"is_reserved":false,"is_disabled":false,"rental_uris":{"android":"levelo://app?vid=06e5816c-1a41-4671-9990-eddc8c155d29","ios":"levelo://app?vid=06e5816c-1a41-4671-9990-eddc8c155d29"},"vehicle_type_id":"4","last_reported":1698253503,"current_range_meters":7200,"station_id":"ce4bhs92rcd13ifvqi0g","pricing_plan_id":"free"},{"bike_id":"512a0d9b-8f6a-4f7e-ad27-a3386323b43f","system_id":"levelo_inurba_marseille","lat":43.328297,"lon":5.36684,"is_reserved":false,"is_disabled":false,"rental_uris":{"android":"levelo://app?vid=512a0d9b-8f6a-4f7e-ad27-a3386323b43f","ios":"levelo://app?vid=512a0d9b-8f6a-4f7e-ad27-a3386323b43f"},"vehicle_type_id":"4","last_reported":1698253503,"current_range_meters":23600,"station_id":"ce4bhs92rcd13ifvqi0g","pricing_plan_id":"free"},{"bike_id":"2bf09692-7151-4aba-9fa7-8ce1d6106004","system_id":"levelo_inurba_marseille","lat":43.328303,"lon":5.366873,"is_reserved":false,"is_disabled":false,"rental_uris":{"android":"levelo://app?vid=2bf09692-7151-4aba-9fa7-8ce1d6106004","ios":"levelo://app?vid=2bf09692-7151-4aba-9fa7-8ce1d6106004"},"vehicle_type_id":"4","last_reported":1698253503,"current_range_meters":24000,"station_id":"","pricing_plan_id":"free"},{"bike_id":"2c8d871e-33f9-4907-9fbe-e41455273434","system_id":"levelo_inurba_marseille","lat":43.297016,"lon":5.366081,"is_reserved":false,"is_disabled":false,"rental_uris":{"android":"levelo://app?vid=2c8d871e-33f9-4907-9fbe-e41455273434","ios":"levelo://app?vid=2c8d871e-33f9-4907-9fbe-e41455273434"},"vehicle_type_id":"4","last_reported":1698253503,"current_range_meters":31200,"station_id":"ce4bgn12rcd13ifvqbt0","pricing_plan_id":"free"},{"bike_id":"d47d7d3e-b4c1-44eb-a6ba-f360d4459c52","system_id":"levelo_inurba_marseille","lat":43.2991,"lon":5.37943,"is_reserved":false,"is_disabled":false,"rental_uris":{"android":"levelo://app?vid=d47d7d3e-b4c1-44eb-a6ba-f360d4459c52","ios":"levelo://app?vid=d47d7d3e-b4c1-44eb-a6ba-f360d4459c52"},"vehicle_type_id":"4","last_reported":1698253503,"current_range_meters":20400,"station_id":"","pricing_plan_id":"free"},{"bike_id":"39ed8ad1-077d-44ff-a16e-e08e2981e37c","system_id":"levelo_inurba_marseille","lat":43.296267,"lon":5.36341,"is_reserved":false,"is_disabled":false,"rental_uris":{"android":"levelo://app?vid=39ed8ad1-077d-44ff-a16e-e08e2981e37c","ios":"levelo://app?vid=39ed8ad1-077d-44ff-a16e-e08e2981e37c"},"vehicle_type_id":"4","last_reported":1698253503,"current_range_meters":10800,"station_id":"","pricing_plan_id":"free"},{"bike_id":"81e72559-a875-44a8-ac20-cb14be191031","system_id":"levelo_inurba_marseille","lat":43.29619,"lon":5.37151,"is_reserved":false,"is_disabled":false,"rental_uris":{"android":"levelo://app?vid=81e72559-a875-44a8-ac20-cb14be191031","ios":"levelo://app?vid=81e72559-a875-44a8-ac20-cb14be191031"},"vehicle_type_id":"4","last_reported":1698253503,"current_range_meters":0,"station_id":"ce4bgk12rcd13ifvqbj0","pricing_plan_id":"free"},{"bike_id":"f3d0381f-7a2d-409e-a12f-bd3d9095653d","system_id":"levelo_inurba_marseille","lat":43.329673,"lon":5.365468,"is_reserved":false,"is_disabled":false,"rental_uris":{"android":"levelo://app?vid=f3d0381f-7a2d-409e-a12f-bd3d9095653d","ios":"levelo://app?vid=f3d0381f-7a2d-409e-a12f-bd3d9095653d"},"vehicle_type_id":"4","last_reported":1698253503,"current_range_meters":16000,"station_id":"","pricing_plan_id":"free"},{"bike_id":"2055b919-2818-4c9d-9134-086b990aec24","system_id":"levelo_inurba_marseille","lat":43.296921,"lon":5.376579,"is_reserved":false,"is_disabled":false,"rental_uris":{"android":"levelo://app?vid=2055b919-2818-4c9d-9134-086b990aec24","ios":"levelo://app?vid=2055b919-2818-4c9d-9134-086b990aec24"},"vehicle_type_id":"4","last_reported":1698253503,"current_range_meters":0,"station_id":"ce4bgkh2rcd13ifvqbl0","pricing_plan_id":"free"},{"bike_id":"cdce0eb9-ad6f-4650-a82e-943c17113adb","system_id":"levelo_inurba_marseille","lat":43.2971,"lon":5.37698,"is_reserved":false,"is_disabled":false,"rental_uris":{"android":"levelo://app?vid=cdce0eb9-ad6f-4650-a82e-943c17113adb","ios":"levelo://app?vid=cdce0eb9-ad6f-4650-a82e-943c17113adb"},"vehicle_type_id":"4","last_reported":1698253503,"current_range_meters":0,"station_id":"ce4bgkh2rcd13ifvqbl0","pricing_plan_id":"free"},{"bike_id":"6c14c50e-7c92-406e-baea-1ed89cb8398a","system_id":"levelo_inurba_marseille","lat":43.299028,"lon":5.381509,"is_reserved":false,"is_disabled":false,"rental_uris":{"android":"levelo://app?vid=6c14c50e-7c92-406e-baea-1ed89cb8398a","ios":"levelo://app?vid=6c14c50e-7c92-406e-baea-1ed89cb8398a"},"vehicle_type_id":"4","last_reported":1698253503,"current_range_meters":14000,"station_id":"ce4bgj12rcd13ifvqbc0","pricing_plan_id":"free"},{"bike_id":"4fd05cee-456d-4ce1-923f-20c8a28c1c88","system_id":"levelo_inurba_marseille","lat":43.309589,"lon":5.390258,"is_reserved":false,"is_disabled":false,"rental_uris":{"android":"levelo://app?vid=4fd05cee-456d-4ce1-923f-20c8a28c1c88","ios":"levelo://app?vid=4fd05cee-456d-4ce1-923f-20c8a28c1c88"},"vehicle_type_id":"4","last_reported":1698253503,"current_range_meters":19200,"station_id":"ce4bgup2rcd13ifvqco0","pricing_plan_id":"free"},{"bike_id":"3226e51f-674e-4654-a9b1-d9dfd0652ac1","system_id":"levelo_inurba_marseille","lat":43.309589,"lon":5.390258,"is_reserved":false,"is_disabled":false,"rental_uris":{"android":"levelo://app?vid=3226e51f-674e-4654-a9b1-d9dfd0652ac1","ios":"levelo://app?vid=3226e51f-674e-4654-a9b1-d9dfd0652ac1"},"vehicle_type_id":"4","last_reported":1698253503,"current_range_meters":24400,"station_id":"ce4bgup2rcd13ifvqco0","pricing_plan_id":"free"},{"bike_id":"b65c435b-4eef-44f5-a914-0add1668cecb","system_id":"levelo_inurba_marseille","lat":43.309589,"lon":5.390258,"is_reserved":false,"is_disabled":false,"rental_uris":{"android":"levelo://app?vid=b65c435b-4eef-44f5-a914-0add1668cecb","ios":"levelo://app?vid=b65c435b-4eef-44f5-a914-0add1668cecb"},"vehicle_type_id":"4","last_reported":1698253503,"current_range_meters":0,"station_id":"ce4bgup2rcd13ifvqco0","pricing_plan_id":"free"},{"bike_id":"9e74df54-087f-4942-b9d9-6bb8eb029ff0","system_id":"levelo_inurba_marseille","lat":43.317557,"lon":5.390173,"is_reserved":false,"is_disabled":false,"rental_uris":{"android":"levelo://app?vid=9e74df54-087f-4942-b9d9-6bb8eb029ff0","ios":"levelo://app?vid=9e74df54-087f-4942-b9d9-6bb8eb029ff0"},"vehicle_type_id":"4","last_reported":1698253503,"current_range_meters":24000,"station_id":"ce4bhqp2rcd13ifvqhng","pricing_plan_id":"free"},{"bike_id":"af6da7d6-cac7-4a9d-a99e-9e97dc4ffab0","system_id":"levelo_inurba_marseille","lat":43.298037,"lon":5.381066,"is_reserved":false,"is_disabled":false,"rental_uris":{"android":"levelo://app?vid=af6da7d6-cac7-4a9d-a99e-9e97dc4ffab0","ios":"levelo://app?vid=af6da7d6-cac7-4a9d-a99e-9e97dc4ffab0"},"vehicle_type_id":"4","last_reported":1698253503,"current_range_meters":4000,"station_id":"ce4bgip2rcd13ifvqbb0","pricing_plan_id":"free"},{"bike_id":"a0c9e5ba-9ac2-40ce-9282-2f738b7c3416","system_id":"levelo_inurba_marseille","lat":43.299796,"lon":5.385042,"is_reserved":false,"is_disabled":false,"rental_uris":{"android":"levelo://app?vid=a0c9e5ba-9ac2-40ce-9282-2f738b7c3416","ios":"levelo://app?vid=a0c9e5ba-9ac2-40ce-9282-2f738b7c3416"},"vehicle_type_id":"4","last_reported":1698253503,"current_range_meters":2400,"station_id":"","pricing_plan_id":"free"},{"bike_id":"fa24864e-1b4c-497d-b662-691e4f69afb6","system_id":"levelo_inurba_marseille","lat":43.299724,"lon":5.384848,"is_reserved":false,"is_disabled":false,"rental_uris":{"android":"levelo://app?vid=fa24864e-1b4c-497d-b662-691e4f69afb6","ios":"levelo://app?vid=fa24864e-1b4c-497d-b662-691e4f69afb6"},"vehicle_type_id":"4","last_reported":1698253503,"current_range_meters":21200,"station_id":"ce4bgj92rcd13ifvqbd0","pricing_plan_id":"free"},{"bike_id":"50ba0a4e-dc52-4b36-bbea-ef74378b458b","system_id":"levelo_inurba_marseille","lat":43.29698,"lon":5.3812,"is_reserved":false,"is_disabled":false,"rental_uris":{"android":"levelo://app?vid=50ba0a4e-dc52-4b36-bbea-ef74378b458b","ios":"levelo://app?vid=50ba0a4e-dc52-4b36-bbea-ef74378b458b"},"vehicle_type_id":"4","last_reported":1698253503,"current_range_meters":5200,"station_id":"","pricing_plan_id":"free"},{"bike_id":"587c6240-3aea-4ac7-98a2-60c1f38a1764","system_id":"levelo_inurba_marseille","lat":43.32367,"lon":5.388836,"is_reserved":false,"is_disabled":false,"rental_uris":{"android":"levelo://app?vid=587c6240-3aea-4ac7-98a2-60c1f38a1764","ios":"levelo://app?vid=587c6240-3aea-4ac7-98a2-60c1f38a1764"},"vehicle_type_id":"4","last_reported":1698253503,"current_range_meters":13200,"station_id":"ce4bhqp2rcd13ifvqhog","pricing_plan_id":"free"},{"bike_id":"56f25917-9d88-476d-a60d-dac2ff0f725d","system_id":"levelo_inurba_marseille","lat":43.323585,"lon":5.389425,"is_reserved":false,"is_disabled":false,"rental_uris":{"android":"levelo://app?vid=56f25917-9d88-476d-a60d-dac2ff0f725d","ios":"levelo://app?vid=56f25917-9d88-476d-a60d-dac2ff0f725d"},"vehicle_type_id":"4","last_reported":1698253503,"current_range_meters":1200,"station_id":"ce4bhqp2rcd13ifvqhog","pricing_plan_id":"free"},{"bike_id":"a2da83ff-4156-4a3b-982c-690558b32a97","system_id":"levelo_inurba_marseille","lat":43.295923,"lon":5.380968,"is_reserved":false,"is_disabled":false,"rental_uris":{"android":"levelo://app?vid=a2da83ff-4156-4a3b-982c-690558b32a97","ios":"levelo://app?vid=a2da83ff-4156-4a3b-982c-690558b32a97"},"vehicle_type_id":"4","last_reported":1698253503,"current_range_meters":8800,"station_id":"ce4bgl12rcd13ifvqbo0","pricing_plan_id":"free"},{"bike_id":"bbab7e28-ee01-4080-b12e-dd8baccd43d0","system_id":"levelo_inurba_marseille","lat":43.32394,"lon":5.389747,"is_reserved":false,"is_disabled":false,"rental_uris":{"android":"levelo://app?vid=bbab7e28-ee01-4080-b12e-dd8baccd43d0","ios":"levelo://app?vid=bbab7e28-ee01-4080-b12e-dd8baccd43d0"},"vehicle_type_id":"4","last_reported":1698253503,"current_range_meters":20000,"station_id":"","pricing_plan_id":"free"},{"bike_id":"bb82c854-6356-48f0-bcf0-c0437b5cd142","system_id":"levelo_inurba_marseille","lat":43.302246,"lon":5.390422,"is_reserved":false,"is_disabled":false,"rental_uris":{"android":"levelo://app?vid=bb82c854-6356-48f0-bcf0-c0437b5cd142","ios":"levelo://app?vid=bb82c854-6356-48f0-bcf0-c0437b5cd142"},"vehicle_type_id":"4","last_reported":1698253503,"current_range_meters":30400,"station_id":"","pricing_plan_id":"free"},{"bike_id":"367aa50b-858e-4a3c-8570-16ecff65c58c","system_id":"levelo_inurba_marseille","lat":43.292929,"lon":5.371462,"is_reserved":false,"is_disabled":false,"rental_uris":{"android":"levelo://app?vid=367aa50b-858e-4a3c-8570-16ecff65c58c","ios":"levelo://app?vid=367aa50b-858e-4a3c-8570-16ecff65c58c"},"vehicle_type_id":"4","last_reported":1698253503,"current_range_meters":27600,"station_id":"ce4bgh92rcd13ifvqb40","pricing_plan_id":"free"},{"bike_id":"58b26ac8-2acd-43e5-9889-9b7b72f6a74c","system_id":"levelo_inurba_marseille","lat":43.305994,"lon":5.393687,"is_reserved":false,"is_disabled":false,"rental_uris":{"android":"levelo://app?vid=58b26ac8-2acd-43e5-9889-9b7b72f6a74c","ios":"levelo://app?vid=58b26ac8-2acd-43e5-9889-9b7b72f6a74c"},"vehicle_type_id":"4","last_reported":1698253503,"current_range_meters":22800,"station_id":"ce4bh0p2rcd13ifvqd80","pricing_plan_id":"free"},{"bike_id":"da0a12b8-f825-4a7c-949e-4289a5573100","system_id":"levelo_inurba_marseille","lat":43.305994,"lon":5.393687,"is_reserved":false,"is_disabled":false,"rental_uris":{"android":"levelo://app?vid=da0a12b8-f825-4a7c-949e-4289a5573100","ios":"levelo://app?vid=da0a12b8-f825-4a7c-949e-4289a5573100"},"vehicle_type_id":"4","last_reported":1698253503,"current_range_meters":18800,"station_id":"ce4bh0p2rcd13ifvqd80","pricing_plan_id":"free"},{"bike_id":"64ebd6ec-f326-4096-bced-779364470a3b","system_id":"levelo_inurba_marseille","lat":43.292311,"lon":5.360731,"is_reserved":false,"is_disabled":false,"rental_uris":{"android":"levelo://app?vid=64ebd6ec-f326-4096-bced-779364470a3b","ios":"levelo://app?vid=64ebd6ec-f326-4096-bced-779364470a3b"},"vehicle_type_id":"4","last_reported":1698253503,"current_range_meters":11600,"station_id":"ce4bhbh2rcd13ifvqeqg","pricing_plan_id":"free"},{"bike_id":"62f36a98-1070-4d3e-86b4-3ba9d5b2ad16","system_id":"levelo_inurba_marseille","lat":43.300852,"lon":5.390859,"is_reserved":false,"is_disabled":false,"rental_uris":{"android":"levelo://app?vid=62f36a98-1070-4d3e-86b4-3ba9d5b2ad16","ios":"levelo://app?vid=62f36a98-1070-4d3e-86b4-3ba9d5b2ad16"},"vehicle_type_id":"4","last_reported":1698253503,"current_range_meters":22800,"station_id":"ce4bh192rcd13ifvqdb0","pricing_plan_id":"free"},{"bike_id":"ad703e5b-33ac-4efc-b601-5ddacd5a06f5","system_id":"levelo_inurba_marseille","lat":43.300852,"lon":5.390859,"is_reserved":false,"is_disabled":false,"rental_uris":{"android":"levelo://app?vid=ad703e5b-33ac-4efc-b601-5ddacd5a06f5","ios":"levelo://app?vid=ad703e5b-33ac-4efc-b601-5ddacd5a06f5"},"vehicle_type_id":"4","last_reported":1698253503,"current_range_meters":18400,"station_id":"ce4bh192rcd13ifvqdb0","pricing_plan_id":"free"},{"bike_id":"41a6cd79-e97b-4cf4-8a3f-58a23a3c6c2d","system_id":"levelo_inurba_marseille","lat":43.298764,"lon":5.388973,"is_reserved":false,"is_disabled":false,"rental_uris":{"android":"levelo://app?vid=41a6cd79-e97b-4cf4-8a3f-58a23a3c6c2d","ios":"levelo://app?vid=41a6cd79-e97b-4cf4-8a3f-58a23a3c6c2d"},"vehicle_type_id":"4","last_reported":1698253503,"current_range_meters":10400,"station_id":"ce4bh392rcd13ifvqdl0","pricing_plan_id":"free"},{"bike_id":"bf5c77b6-4273-4959-a965-1f46fda61655","system_id":"levelo_inurba_marseille","lat":43.29256,"lon":5.37625,"is_reserved":false,"is_disabled":false,"rental_uris":{"android":"levelo://app?vid=bf5c77b6-4273-4959-a965-1f46fda61655","ios":"levelo://app?vid=bf5c77b6-4273-4959-a965-1f46fda61655"},"vehicle_type_id":"4","last_reported":1698253503,"current_range_meters":0,"station_id":"ce4bgi12rcd13ifvqb80","pricing_plan_id":"free"},{"bike_id":"cc033b2a-3491-4664-aa3b-332307492a38","system_id":"levelo_inurba_marseille","lat":43.298764,"lon":5.388973,"is_reserved":false,"is_disabled":false,"rental_uris":{"android":"levelo://app?vid=cc033b2a-3491-4664-aa3b-332307492a38","ios":"levelo://app?vid=cc033b2a-3491-4664-aa3b-332307492a38"},"vehicle_type_id":"4","last_reported":1698253503,"current_range_meters":1200,"station_id":"ce4bh392rcd13ifvqdl0","pricing_plan_id":"free"},{"bike_id":"be4b1c77-614e-488f-b9db-86567b67d644","system_id":"levelo_inurba_marseille","lat":43.298764,"lon":5.388973,"is_reserved":false,"is_disabled":false,"rental_uris":{"android":"levelo://app?vid=be4b1c77-614e-488f-b9db-86567b67d644","ios":"levelo://app?vid=be4b1c77-614e-488f-b9db-86567b67d644"},"vehicle_type_id":"4","last_reported":1698253503,"current_range_meters":24000,"station_id":"ce4bh392rcd13ifvqdl0","pricing_plan_id":"free"},{"bike_id":"966e8bc0-c624-4ff9-929d-33a4cb92574a","system_id":"levelo_inurba_marseille","lat":43.29246,"lon":5.37632,"is_reserved":false,"is_disabled":false,"rental_uris":{"android":"levelo://app?vid=966e8bc0-c624-4ff9-929d-33a4cb92574a","ios":"levelo://app?vid=966e8bc0-c624-4ff9-929d-33a4cb92574a"},"vehicle_type_id":"4","last_reported":1698253503,"current_range_meters":1600,"station_id":"ce4bgi12rcd13ifvqb80","pricing_plan_id":"free"},{"bike_id":"e9195cc3-4a3b-4ad7-b5f6-eacfb5513fa0","system_id":"levelo_inurba_marseille","lat":43.298764,"lon":5.388973,"is_reserved":false,"is_disabled":false,"rental_uris":{"android":"levelo://app?vid=e9195cc3-4a3b-4ad7-b5f6-eacfb5513fa0","ios":"levelo://app?vid=e9195cc3-4a3b-4ad7-b5f6-eacfb5513fa0"},"vehicle_type_id":"4","last_reported":1698253503,"current_range_meters":10000,"station_id":"ce4bh392rcd13ifvqdl0","pricing_plan_id":"free"},{"bike_id":"6500bbcf-77e9-4ad5-8683-eecd17f7185a","system_id":"levelo_inurba_marseille","lat":43.313385,"lon":5.396817,"is_reserved":false,"is_disabled":false,"rental_uris":{"android":"levelo://app?vid=6500bbcf-77e9-4ad5-8683-eecd17f7185a","ios":"levelo://app?vid=6500bbcf-77e9-4ad5-8683-eecd17f7185a"},"vehicle_type_id":"4","last_reported":1698253503,"current_range_meters":12400,"station_id":"ce4bgvp2rcd13ifvqcu0","pricing_plan_id":"free"},{"bike_id":"26767cb2-0a8d-4ebc-be94-c95b801ac813","system_id":"levelo_inurba_marseille","lat":43.29196,"lon":5.35792,"is_reserved":false,"is_disabled":false,"rental_uris":{"android":"levelo://app?vid=26767cb2-0a8d-4ebc-be94-c95b801ac813","ios":"levelo://app?vid=26767cb2-0a8d-4ebc-be94-c95b801ac813"},"vehicle_type_id":"4","last_reported":1698253503,"current_range_meters":30800,"station_id":"ce4bhb12rcd13ifvqel0","pricing_plan_id":"free"},{"bike_id":"65ce0417-34d1-4c1a-b95c-188874ee33b0","system_id":"levelo_inurba_marseille","lat":43.313291,"lon":5.396838,"is_reserved":false,"is_disabled":false,"rental_uris":{"android":"levelo://app?vid=65ce0417-34d1-4c1a-b95c-188874ee33b0","ios":"levelo://app?vid=65ce0417-34d1-4c1a-b95c-188874ee33b0"},"vehicle_type_id":"4","last_reported":1698253503,"current_range_meters":2400,"station_id":"ce4bgvp2rcd13ifvqcu0","pricing_plan_id":"free"},{"bike_id":"e86c5a56-3e89-43f0-9c99-313bc3a96a03","system_id":"levelo_inurba_marseille","lat":43.31326,"lon":5.39695,"is_reserved":false,"is_disabled":false,"rental_uris":{"android":"levelo://app?vid=e86c5a56-3e89-43f0-9c99-313bc3a96a03","ios":"levelo://app?vid=e86c5a56-3e89-43f0-9c99-313bc3a96a03"},"vehicle_type_id":"4","last_reported":1698253503,"current_range_meters":20400,"station_id":"ce4bgvp2rcd13ifvqcu0","pricing_plan_id":"free"},{"bike_id":"fc88918f-dc23-4aa2-abf9-dafe37782d44","system_id":"levelo_inurba_marseille","lat":43.31331,"lon":5.39695,"is_reserved":false,"is_disabled":false,"rental_uris":{"android":"levelo://app?vid=fc88918f-dc23-4aa2-abf9-dafe37782d44","ios":"levelo://app?vid=fc88918f-dc23-4aa2-abf9-dafe37782d44"},"vehicle_type_id":"4","last_reported":1698253503,"current_range_meters":18800,"station_id":"ce4bgvp2rcd13ifvqcu0","pricing_plan_id":"free"},{"bike_id":"6054a652-3a79-406f-9cfb-dcce4fc5b048","system_id":"levelo_inurba_marseille","lat":43.31324,"lon":5.39696,"is_reserved":false,"is_disabled":false,"rental_uris":{"android":"levelo://app?vid=6054a652-3a79-406f-9cfb-dcce4fc5b048","ios":"levelo://app?vid=6054a652-3a79-406f-9cfb-dcce4fc5b048"},"vehicle_type_id":"4","last_reported":1698253503,"current_range_meters":1200,"station_id":"ce4bgvp2rcd13ifvqcu0","pricing_plan_id":"free"},{"bike_id":"479dc7f6-f166-44b5-ac36-fb75d1b687a5","system_id":"levelo_inurba_marseille","lat":43.309038,"lon":5.396546,"is_reserved":false,"is_disabled":false,"rental_uris":{"android":"levelo://app?vid=479dc7f6-f166-44b5-ac36-fb75d1b687a5","ios":"levelo://app?vid=479dc7f6-f166-44b5-ac36-fb75d1b687a5"},"vehicle_type_id":"4","last_reported":1698253503,"current_range_meters":16800,"station_id":"ce4bh012rcd13ifvqcv0","pricing_plan_id":"free"},{"bike_id":"f43f5088-5c71-490e-9a9d-662a7404e486","system_id":"levelo_inurba_marseille","lat":43.309038,"lon":5.396546,"is_reserved":false,"is_disabled":false,"rental_uris":{"android":"levelo://app?vid=f43f5088-5c71-490e-9a9d-662a7404e486","ios":"levelo://app?vid=f43f5088-5c71-490e-9a9d-662a7404e486"},"vehicle_type_id":"4","last_reported":1698253503,"current_range_meters":26800,"station_id":"ce4bh012rcd13ifvqcv0","pricing_plan_id":"free"},{"bike_id":"3d986b4d-5b04-42b1-a6b0-4edcaa417126","system_id":"levelo_inurba_marseille","lat":43.309047,"lon":5.396551,"is_reserved":false,"is_disabled":false,"rental_uris":{"android":"levelo://app?vid=3d986b4d-5b04-42b1-a6b0-4edcaa417126","ios":"levelo://app?vid=3d986b4d-5b04-42b1-a6b0-4edcaa417126"},"vehicle_type_id":"4","last_reported":1698253503,"current_range_meters":15200,"station_id":"ce4bh012rcd13ifvqcv0","pricing_plan_id":"free"},{"bike_id":"2b190bad-89ed-4a20-8a86-3d5766bf4a7d","system_id":"levelo_inurba_marseille","lat":43.313291,"lon":5.396838,"is_reserved":false,"is_disabled":false,"rental_uris":{"android":"levelo://app?vid=2b190bad-89ed-4a20-8a86-3d5766bf4a7d","ios":"levelo://app?vid=2b190bad-89ed-4a20-8a86-3d5766bf4a7d"},"vehicle_type_id":"4","last_reported":1698253503,"current_range_meters":11600,"station_id":"ce4bgvp2rcd13ifvqcu0","pricing_plan_id":"free"},{"bike_id":"a5c9bcc8-2efa-418b-bafc-bab95419a592","system_id":"levelo_inurba_marseille","lat":43.309047,"lon":5.396551,"is_reserved":false,"is_disabled":false,"rental_uris":{"android":"levelo://app?vid=a5c9bcc8-2efa-418b-bafc-bab95419a592","ios":"levelo://app?vid=a5c9bcc8-2efa-418b-bafc-bab95419a592"},"vehicle_type_id":"4","last_reported":1698253503,"current_range_meters":14800,"station_id":"ce4bh012rcd13ifvqcv0","pricing_plan_id":"free"},{"bike_id":"973db20b-0fdd-4e9c-989d-7f7c902a8444","system_id":"levelo_inurba_marseille","lat":43.309047,"lon":5.396551,"is_reserved":false,"is_disabled":false,"rental_uris":{"android":"levelo://app?vid=973db20b-0fdd-4e9c-989d-7f7c902a8444","ios":"levelo://app?vid=973db20b-0fdd-4e9c-989d-7f7c902a8444"},"vehicle_type_id":"4","last_reported":1698253503,"current_range_meters":8000,"station_id":"ce4bh012rcd13ifvqcv0","pricing_plan_id":"free"},{"bike_id":"98c16a70-af1c-48a0-ad0a-330e5f8b244d","system_id":"levelo_inurba_marseille","lat":43.29529,"lon":5.385581,"is_reserved":false,"is_disabled":false,"rental_uris":{"android":"levelo://app?vid=98c16a70-af1c-48a0-ad0a-330e5f8b244d","ios":"levelo://app?vid=98c16a70-af1c-48a0-ad0a-330e5f8b244d"},"vehicle_type_id":"4","last_reported":1698253503,"current_range_meters":10400,"station_id":"ce4bgih2rcd13ifvqba0","pricing_plan_id":"free"},{"bike_id":"02d7decb-a464-4f1c-b27d-de03e18dc7c2","system_id":"levelo_inurba_marseille","lat":43.29529,"lon":5.385581,"is_reserved":false,"is_disabled":false,"rental_uris":{"android":"levelo://app?vid=02d7decb-a464-4f1c-b27d-de03e18dc7c2","ios":"levelo://app?vid=02d7decb-a464-4f1c-b27d-de03e18dc7c2"},"vehicle_type_id":"4","last_reported":1698253503,"current_range_meters":14400,"station_id":"ce4bgih2rcd13ifvqba0","pricing_plan_id":"free"},{"bike_id":"91513b41-4fe8-4f36-93aa-c1834df487c3","system_id":"levelo_inurba_marseille","lat":43.29529,"lon":5.385581,"is_reserved":false,"is_disabled":false,"rental_uris":{"android":"levelo://app?vid=91513b41-4fe8-4f36-93aa-c1834df487c3","ios":"levelo://app?vid=91513b41-4fe8-4f36-93aa-c1834df487c3"},"vehicle_type_id":"4","last_reported":1698253503,"current_range_meters":21200,"station_id":"ce4bgih2rcd13ifvqba0","pricing_plan_id":"free"},{"bike_id":"56b4b239-4ad6-4e77-9515-1471d8013e9b","system_id":"levelo_inurba_marseille","lat":43.29529,"lon":5.385581,"is_reserved":false,"is_disabled":false,"rental_uris":{"android":"levelo://app?vid=56b4b239-4ad6-4e77-9515-1471d8013e9b","ios":"levelo://app?vid=56b4b239-4ad6-4e77-9515-1471d8013e9b"},"vehicle_type_id":"4","last_reported":1698253503,"current_range_meters":27200,"station_id":"ce4bgih2rcd13ifvqba0","pricing_plan_id":"free"},{"bike_id":"e29c5adc-fd0b-4577-bdfe-ca2ff96a4f53","system_id":"levelo_inurba_marseille","lat":43.29529,"lon":5.385581,"is_reserved":false,"is_disabled":false,"rental_uris":{"android":"levelo://app?vid=e29c5adc-fd0b-4577-bdfe-ca2ff96a4f53","ios":"levelo://app?vid=e29c5adc-fd0b-4577-bdfe-ca2ff96a4f53"},"vehicle_type_id":"4","last_reported":1698253503,"current_range_meters":28400,"station_id":"ce4bgih2rcd13ifvqba0","pricing_plan_id":"free"},{"bike_id":"126d4670-e812-40c6-9f2a-535ee2ec9a6b","system_id":"levelo_inurba_marseille","lat":43.33219,"lon":5.38149,"is_reserved":false,"is_disabled":false,"rental_uris":{"android":"levelo://app?vid=126d4670-e812-40c6-9f2a-535ee2ec9a6b","ios":"levelo://app?vid=126d4670-e812-40c6-9f2a-535ee2ec9a6b"},"vehicle_type_id":"4","last_reported":1698253503,"current_range_meters":6800,"station_id":"","pricing_plan_id":"free"},{"bike_id":"d445e7dc-8f39-4198-8d15-1838ad42556e","system_id":"levelo_inurba_marseille","lat":43.30213,"lon":5.39468,"is_reserved":false,"is_disabled":false,"rental_uris":{"android":"levelo://app?vid=d445e7dc-8f39-4198-8d15-1838ad42556e","ios":"levelo://app?vid=d445e7dc-8f39-4198-8d15-1838ad42556e"},"vehicle_type_id":"4","last_reported":1698253503,"current_range_meters":14000,"station_id":"ce4bh0p2rcd13ifvqd70","pricing_plan_id":"free"},{"bike_id":"3ba9337c-3a4c-4b79-bb22-9c08f678ee27","system_id":"levelo_inurba_marseille","lat":43.3339,"lon":5.37907,"is_reserved":false,"is_disabled":false,"rental_uris":{"android":"levelo://app?vid=3ba9337c-3a4c-4b79-bb22-9c08f678ee27","ios":"levelo://app?vid=3ba9337c-3a4c-4b79-bb22-9c08f678ee27"},"vehicle_type_id":"4","last_reported":1698253503,"current_range_meters":26000,"station_id":"","pricing_plan_id":"free"},{"bike_id":"1e46ed05-d28c-42d1-b14d-971fd35b636c","system_id":"levelo_inurba_marseille","lat":43.290624,"lon":5.359245,"is_reserved":false,"is_disabled":false,"rental_uris":{"android":"levelo://app?vid=1e46ed05-d28c-42d1-b14d-971fd35b636c","ios":"levelo://app?vid=1e46ed05-d28c-42d1-b14d-971fd35b636c"},"vehicle_type_id":"4","last_reported":1698253503,"current_range_meters":31200,"station_id":"ce4bha92rcd13ifvqeg0","pricing_plan_id":"free"},{"bike_id":"72065b1b-24b3-42c7-a973-0d21de0764b7","system_id":"levelo_inurba_marseille","lat":43.29048,"lon":5.35921,"is_reserved":false,"is_disabled":false,"rental_uris":{"android":"levelo://app?vid=72065b1b-24b3-42c7-a973-0d21de0764b7","ios":"levelo://app?vid=72065b1b-24b3-42c7-a973-0d21de0764b7"},"vehicle_type_id":"4","last_reported":1698253503,"current_range_meters":30800,"station_id":"ce4bha92rcd13ifvqeg0","pricing_plan_id":"free"},{"bike_id":"db010902-5cd4-4c5d-aa1b-93af8355edb7","system_id":"levelo_inurba_marseille","lat":43.290631,"lon":5.359244,"is_reserved":false,"is_disabled":false,"rental_uris":{"android":"levelo://app?vid=db010902-5cd4-4c5d-aa1b-93af8355edb7","ios":"levelo://app?vid=db010902-5cd4-4c5d-aa1b-93af8355edb7"},"vehicle_type_id":"4","last_reported":1698253503,"current_range_meters":22000,"station_id":"ce4bha92rcd13ifvqeg0","pricing_plan_id":"free"},{"bike_id":"89ce4a66-9eea-4716-b243-0dc75719a1bc","system_id":"levelo_inurba_marseille","lat":43.294153,"lon":5.386305,"is_reserved":false,"is_disabled":false,"rental_uris":{"android":"levelo://app?vid=89ce4a66-9eea-4716-b243-0dc75719a1bc","ios":"levelo://app?vid=89ce4a66-9eea-4716-b243-0dc75719a1bc"},"vehicle_type_id":"4","last_reported":1698253503,"current_range_meters":20000,"station_id":"ce4bh2h2rcd13ifvqdh0","pricing_plan_id":"free"},{"bike_id":"8a65216a-8da0-4fcc-aaad-75ca2eb8d1fe","system_id":"levelo_inurba_marseille","lat":43.294153,"lon":5.386305,"is_reserved":false,"is_disabled":false,"rental_uris":{"android":"levelo://app?vid=8a65216a-8da0-4fcc-aaad-75ca2eb8d1fe","ios":"levelo://app?vid=8a65216a-8da0-4fcc-aaad-75ca2eb8d1fe"},"vehicle_type_id":"4","last_reported":1698253503,"current_range_meters":12400,"station_id":"ce4bh2h2rcd13ifvqdh0","pricing_plan_id":"free"},{"bike_id":"74b43c96-9131-41d9-acd5-0310f984bfc1","system_id":"levelo_inurba_marseille","lat":43.294153,"lon":5.386305,"is_reserved":false,"is_disabled":false,"rental_uris":{"android":"levelo://app?vid=74b43c96-9131-41d9-acd5-0310f984bfc1","ios":"levelo://app?vid=74b43c96-9131-41d9-acd5-0310f984bfc1"},"vehicle_type_id":"4","last_reported":1698253503,"current_range_meters":12400,"station_id":"ce4bh2h2rcd13ifvqdh0","pricing_plan_id":"free"},{"bike_id":"0458f1af-5f0c-4b3b-a49e-979d1cc4c213","system_id":"levelo_inurba_marseille","lat":43.294153,"lon":5.386305,"is_reserved":false,"is_disabled":false,"rental_uris":{"android":"levelo://app?vid=0458f1af-5f0c-4b3b-a49e-979d1cc4c213","ios":"levelo://app?vid=0458f1af-5f0c-4b3b-a49e-979d1cc4c213"},"vehicle_type_id":"4","last_reported":1698253503,"current_range_meters":2800,"station_id":"ce4bh2h2rcd13ifvqdh0","pricing_plan_id":"free"},{"bike_id":"2186f90e-5bcb-4247-8140-3c9a4dd4981c","system_id":"levelo_inurba_marseille","lat":43.289184,"lon":5.366408,"is_reserved":false,"is_disabled":false,"rental_uris":{"android":"levelo://app?vid=2186f90e-5bcb-4247-8140-3c9a4dd4981c","ios":"levelo://app?vid=2186f90e-5bcb-4247-8140-3c9a4dd4981c"},"vehicle_type_id":"4","last_reported":1698253503,"current_range_meters":30800,"station_id":"ce4bhap2rcd13ifvqek0","pricing_plan_id":"free"},{"bike_id":"1ee87526-77b0-4eda-9e0c-b79f8dc91aa2","system_id":"levelo_inurba_marseille","lat":43.289468,"lon":5.363719,"is_reserved":false,"is_disabled":false,"rental_uris":{"android":"levelo://app?vid=1ee87526-77b0-4eda-9e0c-b79f8dc91aa2","ios":"levelo://app?vid=1ee87526-77b0-4eda-9e0c-b79f8dc91aa2"},"vehicle_type_id":"4","last_reported":1698253503,"current_range_meters":19600,"station_id":"ce4bhc92rcd13ifvqetg","pricing_plan_id":"free"},{"bike_id":"f484fa10-026a-494c-8ea9-916a4ecf91e3","system_id":"levelo_inurba_marseille","lat":43.28932,"lon":5.36637,"is_reserved":false,"is_disabled":false,"rental_uris":{"android":"levelo://app?vid=f484fa10-026a-494c-8ea9-916a4ecf91e3","ios":"levelo://app?vid=f484fa10-026a-494c-8ea9-916a4ecf91e3"},"vehicle_type_id":"4","last_reported":1698253503,"current_range_meters":28400,"station_id":"ce4bhap2rcd13ifvqek0","pricing_plan_id":"free"},{"bike_id":"c5487976-5a5f-4c94-b875-6c0842909ea5","system_id":"levelo_inurba_marseille","lat":43.289468,"lon":5.363719,"is_reserved":false,"is_disabled":false,"rental_uris":{"android":"levelo://app?vid=c5487976-5a5f-4c94-b875-6c0842909ea5","ios":"levelo://app?vid=c5487976-5a5f-4c94-b875-6c0842909ea5"},"vehicle_type_id":"4","last_reported":1698253503,"current_range_meters":31200,"station_id":"ce4bhc92rcd13ifvqetg","pricing_plan_id":"free"},{"bike_id":"7407dfad-54ab-421e-8dc0-1e4b7eb3f5f4","system_id":"levelo_inurba_marseille","lat":43.292642,"lon":5.384254,"is_reserved":false,"is_disabled":false,"rental_uris":{"android":"levelo://app?vid=7407dfad-54ab-421e-8dc0-1e4b7eb3f5f4","ios":"levelo://app?vid=7407dfad-54ab-421e-8dc0-1e4b7eb3f5f4"},"vehicle_type_id":"4","last_reported":1698253503,"current_range_meters":24400,"station_id":"ce4bh692rcd13ifvqea0","pricing_plan_id":"free"},{"bike_id":"43f52530-2de4-4607-b3eb-cc258b038650","system_id":"levelo_inurba_marseille","lat":43.292644,"lon":5.384257,"is_reserved":false,"is_disabled":false,"rental_uris":{"android":"levelo://app?vid=43f52530-2de4-4607-b3eb-cc258b038650","ios":"levelo://app?vid=43f52530-2de4-4607-b3eb-cc258b038650"},"vehicle_type_id":"4","last_reported":1698253503,"current_range_meters":29200,"station_id":"ce4bh692rcd13ifvqea0","pricing_plan_id":"free"},{"bike_id":"d36853fb-5a36-4d77-85b0-f221893c5388","system_id":"levelo_inurba_marseille","lat":43.29266,"lon":5.38435,"is_reserved":false,"is_disabled":false,"rental_uris":{"android":"levelo://app?vid=d36853fb-5a36-4d77-85b0-f221893c5388","ios":"levelo://app?vid=d36853fb-5a36-4d77-85b0-f221893c5388"},"vehicle_type_id":"4","last_reported":1698253503,"current_range_meters":0,"station_id":"ce4bh692rcd13ifvqea0","pricing_plan_id":"free"},{"bike_id":"dc549f7b-570a-490e-bfa1-7342ce8bb675","system_id":"levelo_inurba_marseille","lat":43.304296,"lon":5.397513,"is_reserved":false,"is_disabled":false,"rental_uris":{"android":"levelo://app?vid=dc549f7b-570a-490e-bfa1-7342ce8bb675","ios":"levelo://app?vid=dc549f7b-570a-490e-bfa1-7342ce8bb675"},"vehicle_type_id":"4","last_reported":1698253503,"current_range_meters":20400,"station_id":"ce4bh092rcd13ifvqd20","pricing_plan_id":"free"},{"bike_id":"4a0c8dbb-741b-48a5-9835-f4fafea69b40","system_id":"levelo_inurba_marseille","lat":43.292644,"lon":5.384257,"is_reserved":false,"is_disabled":false,"rental_uris":{"android":"levelo://app?vid=4a0c8dbb-741b-48a5-9835-f4fafea69b40","ios":"levelo://app?vid=4a0c8dbb-741b-48a5-9835-f4fafea69b40"},"vehicle_type_id":"4","last_reported":1698253503,"current_range_meters":0,"station_id":"ce4bh692rcd13ifvqea0","pricing_plan_id":"free"},{"bike_id":"58eadc0c-3644-4dcf-81ce-5c1e15ed5d8b","system_id":"levelo_inurba_marseille","lat":43.292644,"lon":5.384257,"is_reserved":false,"is_disabled":false,"rental_uris":{"android":"levelo://app?vid=58eadc0c-3644-4dcf-81ce-5c1e15ed5d8b","ios":"levelo://app?vid=58eadc0c-3644-4dcf-81ce-5c1e15ed5d8b"},"vehicle_type_id":"4","last_reported":1698253503,"current_range_meters":5200,"station_id":"ce4bh692rcd13ifvqea0","pricing_plan_id":"free"},{"bike_id":"ad7ceb7f-bf8a-4432-8162-96fb40d772a4","system_id":"levelo_inurba_marseille","lat":43.292642,"lon":5.384254,"is_reserved":false,"is_disabled":false,"rental_uris":{"android":"levelo://app?vid=ad7ceb7f-bf8a-4432-8162-96fb40d772a4","ios":"levelo://app?vid=ad7ceb7f-bf8a-4432-8162-96fb40d772a4"},"vehicle_type_id":"4","last_reported":1698253503,"current_range_meters":26400,"station_id":"ce4bh692rcd13ifvqea0","pricing_plan_id":"free"},{"bike_id":"1ef70c31-4a6a-4d90-912f-586b69c6bf0d","system_id":"levelo_inurba_marseille","lat":43.304274,"lon":5.397513,"is_reserved":false,"is_disabled":false,"rental_uris":{"android":"levelo://app?vid=1ef70c31-4a6a-4d90-912f-586b69c6bf0d","ios":"levelo://app?vid=1ef70c31-4a6a-4d90-912f-586b69c6bf0d"},"vehicle_type_id":"4","last_reported":1698253503,"current_range_meters":2800,"station_id":"ce4bh092rcd13ifvqd20","pricing_plan_id":"free"},{"bike_id":"92281b4a-0bcd-4e12-906c-69343faa4833","system_id":"levelo_inurba_marseille","lat":43.292644,"lon":5.384257,"is_reserved":false,"is_disabled":false,"rental_uris":{"android":"levelo://app?vid=92281b4a-0bcd-4e12-906c-69343faa4833","ios":"levelo://app?vid=92281b4a-0bcd-4e12-906c-69343faa4833"},"vehicle_type_id":"4","last_reported":1698253503,"current_range_meters":27600,"station_id":"ce4bh692rcd13ifvqea0","pricing_plan_id":"free"},{"bike_id":"e8c4a7fd-434d-4066-a81b-0d2d8c526c8a","system_id":"levelo_inurba_marseille","lat":43.292644,"lon":5.384257,"is_reserved":false,"is_disabled":false,"rental_uris":{"android":"levelo://app?vid=e8c4a7fd-434d-4066-a81b-0d2d8c526c8a","ios":"levelo://app?vid=e8c4a7fd-434d-4066-a81b-0d2d8c526c8a"},"vehicle_type_id":"4","last_reported":1698253503,"current_range_meters":2400,"station_id":"ce4bh692rcd13ifvqea0","pricing_plan_id":"free"},{"bike_id":"31011a22-da00-4eba-bedb-5483b1ed7da0","system_id":"levelo_inurba_marseille","lat":43.292642,"lon":5.384254,"is_reserved":false,"is_disabled":false,"rental_uris":{"android":"levelo://app?vid=31011a22-da00-4eba-bedb-5483b1ed7da0","ios":"levelo://app?vid=31011a22-da00-4eba-bedb-5483b1ed7da0"},"vehicle_type_id":"4","last_reported":1698253503,"current_range_meters":8000,"station_id":"ce4bh692rcd13ifvqea0","pricing_plan_id":"free"},{"bike_id":"00a7b980-21f5-4b85-920f-58f25dcb19ee","system_id":"levelo_inurba_marseille","lat":43.292644,"lon":5.384568,"is_reserved":false,"is_disabled":false,"rental_uris":{"android":"levelo://app?vid=00a7b980-21f5-4b85-920f-58f25dcb19ee","ios":"levelo://app?vid=00a7b980-21f5-4b85-920f-58f25dcb19ee"},"vehicle_type_id":"4","last_reported":1698253503,"current_range_meters":0,"station_id":"ce4bh692rcd13ifvqea0","pricing_plan_id":"free"},{"bike_id":"c7a20779-f67c-4864-bde3-91c62166090a","system_id":"levelo_inurba_marseille","lat":43.33042,"lon":5.38922,"is_reserved":false,"is_disabled":false,"rental_uris":{"android":"levelo://app?vid=c7a20779-f67c-4864-bde3-91c62166090a","ios":"levelo://app?vid=c7a20779-f67c-4864-bde3-91c62166090a"},"vehicle_type_id":"4","last_reported":1698253503,"current_range_meters":12000,"station_id":"ce4bhr92rcd13ifvqhrg","pricing_plan_id":"free"},{"bike_id":"09f3b5bc-5a59-49ae-8378-af30dac36712","system_id":"levelo_inurba_marseille","lat":43.33041,"lon":5.38924,"is_reserved":false,"is_disabled":false,"rental_uris":{"android":"levelo://app?vid=09f3b5bc-5a59-49ae-8378-af30dac36712","ios":"levelo://app?vid=09f3b5bc-5a59-49ae-8378-af30dac36712"},"vehicle_type_id":"4","last_reported":1698253503,"current_range_meters":18800,"station_id":"ce4bhr92rcd13ifvqhrg","pricing_plan_id":"free"},{"bike_id":"34ffae5d-26a0-4577-bcdb-ce27e1a32dab","system_id":"levelo_inurba_marseille","lat":43.290104,"lon":5.356111,"is_reserved":false,"is_disabled":false,"rental_uris":{"android":"levelo://app?vid=34ffae5d-26a0-4577-bcdb-ce27e1a32dab","ios":"levelo://app?vid=34ffae5d-26a0-4577-bcdb-ce27e1a32dab"},"vehicle_type_id":"4","last_reported":1698253503,"current_range_meters":4000,"station_id":"ce4bhb92rcd13ifvqen0","pricing_plan_id":"free"},{"bike_id":"dbfbbf81-9566-4f53-9fe5-cb2ee8941873","system_id":"levelo_inurba_marseille","lat":43.289743,"lon":5.378304,"is_reserved":false,"is_disabled":false,"rental_uris":{"android":"levelo://app?vid=dbfbbf81-9566-4f53-9fe5-cb2ee8941873","ios":"levelo://app?vid=dbfbbf81-9566-4f53-9fe5-cb2ee8941873"},"vehicle_type_id":"4","last_reported":1698253503,"current_range_meters":16800,"station_id":"ce4bh9p2rcd13ifvqed0","pricing_plan_id":"free"},{"bike_id":"7ce93384-3785-4aa3-b823-a44e42fece2a","system_id":"levelo_inurba_marseille","lat":43.292642,"lon":5.384254,"is_reserved":false,"is_disabled":false,"rental_uris":{"android":"levelo://app?vid=7ce93384-3785-4aa3-b823-a44e42fece2a","ios":"levelo://app?vid=7ce93384-3785-4aa3-b823-a44e42fece2a"},"vehicle_type_id":"4","last_reported":1698253503,"current_range_meters":14000,"station_id":"ce4bh692rcd13ifvqea0","pricing_plan_id":"free"},{"bike_id":"889eecdb-8a38-4c74-a602-25c352cfc7be","system_id":"levelo_inurba_marseille","lat":43.308243,"lon":5.400358,"is_reserved":false,"is_disabled":false,"rental_uris":{"android":"levelo://app?vid=889eecdb-8a38-4c74-a602-25c352cfc7be","ios":"levelo://app?vid=889eecdb-8a38-4c74-a602-25c352cfc7be"},"vehicle_type_id":"4","last_reported":1698253503,"current_range_meters":7200,"station_id":"","pricing_plan_id":"free"},{"bike_id":"6ff37ba9-6bd4-43e3-bf8a-32ae3021cdf5","system_id":"levelo_inurba_marseille","lat":43.28856,"lon":5.358371,"is_reserved":false,"is_disabled":false,"rental_uris":{"android":"levelo://app?vid=6ff37ba9-6bd4-43e3-bf8a-32ae3021cdf5","ios":"levelo://app?vid=6ff37ba9-6bd4-43e3-bf8a-32ae3021cdf5"},"vehicle_type_id":"4","last_reported":1698253503,"current_range_meters":21600,"station_id":"ce4bhb12rcd13ifvqem0","pricing_plan_id":"free"},{"bike_id":"b05c9310-6428-4ba2-b298-64f0bd0008f3","system_id":"levelo_inurba_marseille","lat":43.309371,"lon":5.401449,"is_reserved":false,"is_disabled":false,"rental_uris":{"android":"levelo://app?vid=b05c9310-6428-4ba2-b298-64f0bd0008f3","ios":"levelo://app?vid=b05c9310-6428-4ba2-b298-64f0bd0008f3"},"vehicle_type_id":"4","last_reported":1698253503,"current_range_meters":12400,"station_id":"ce4bgvp2rcd13ifvqct0","pricing_plan_id":"free"},{"bike_id":"5f976d03-cd24-411b-b6da-05a72ca86ca0","system_id":"levelo_inurba_marseille","lat":43.309371,"lon":5.401449,"is_reserved":false,"is_disabled":false,"rental_uris":{"android":"levelo://app?vid=5f976d03-cd24-411b-b6da-05a72ca86ca0","ios":"levelo://app?vid=5f976d03-cd24-411b-b6da-05a72ca86ca0"},"vehicle_type_id":"4","last_reported":1698253503,"current_range_meters":19600,"station_id":"ce4bgvp2rcd13ifvqct0","pricing_plan_id":"free"},{"bike_id":"fe4af6f9-b861-45c8-a0fe-eeb6c0f4a58f","system_id":"levelo_inurba_marseille","lat":43.312773,"lon":5.401847,"is_reserved":false,"is_disabled":false,"rental_uris":{"android":"levelo://app?vid=fe4af6f9-b861-45c8-a0fe-eeb6c0f4a58f","ios":"levelo://app?vid=fe4af6f9-b861-45c8-a0fe-eeb6c0f4a58f"},"vehicle_type_id":"4","last_reported":1698253503,"current_range_meters":28000,"station_id":"ce4bh092rcd13ifvqd20","pricing_plan_id":"free"},{"bike_id":"8f7b8a71-c733-4eb3-9056-a86fa0bd76e8","system_id":"levelo_inurba_marseille","lat":43.3093,"lon":5.40153,"is_reserved":false,"is_disabled":false,"rental_uris":{"android":"levelo://app?vid=8f7b8a71-c733-4eb3-9056-a86fa0bd76e8","ios":"levelo://app?vid=8f7b8a71-c733-4eb3-9056-a86fa0bd76e8"},"vehicle_type_id":"4","last_reported":1698253503,"current_range_meters":22800,"station_id":"ce4bgvp2rcd13ifvqct0","pricing_plan_id":"free"},{"bike_id":"e061c448-124e-4067-b786-259ad7d1914c","system_id":"levelo_inurba_marseille","lat":43.309371,"lon":5.401449,"is_reserved":false,"is_disabled":false,"rental_uris":{"android":"levelo://app?vid=e061c448-124e-4067-b786-259ad7d1914c","ios":"levelo://app?vid=e061c448-124e-4067-b786-259ad7d1914c"},"vehicle_type_id":"4","last_reported":1698253503,"current_range_meters":4000,"station_id":"ce4bgvp2rcd13ifvqct0","pricing_plan_id":"free"},{"bike_id":"96fd5307-a840-44fc-be17-56128e4d6465","system_id":"levelo_inurba_marseille","lat":43.306412,"lon":5.401035,"is_reserved":false,"is_disabled":false,"rental_uris":{"android":"levelo://app?vid=96fd5307-a840-44fc-be17-56128e4d6465","ios":"levelo://app?vid=96fd5307-a840-44fc-be17-56128e4d6465"},"vehicle_type_id":"4","last_reported":1698253503,"current_range_meters":10400,"station_id":"ce4bh112rcd13ifvqda0","pricing_plan_id":"free"},{"bike_id":"dc78ec6a-9c7a-45f4-8dc8-c1039062d2c6","system_id":"levelo_inurba_marseille","lat":43.306412,"lon":5.401035,"is_reserved":false,"is_disabled":false,"rental_uris":{"android":"levelo://app?vid=dc78ec6a-9c7a-45f4-8dc8-c1039062d2c6","ios":"levelo://app?vid=dc78ec6a-9c7a-45f4-8dc8-c1039062d2c6"},"vehicle_type_id":"4","last_reported":1698253503,"current_range_meters":1600,"station_id":"ce4bh112rcd13ifvqda0","pricing_plan_id":"free"},{"bike_id":"d48aa80e-202d-432f-a3be-cd35017d3b11","system_id":"levelo_inurba_marseille","lat":43.30641,"lon":5.40105,"is_reserved":false,"is_disabled":false,"rental_uris":{"android":"levelo://app?vid=d48aa80e-202d-432f-a3be-cd35017d3b11","ios":"levelo://app?vid=d48aa80e-202d-432f-a3be-cd35017d3b11"},"vehicle_type_id":"4","last_reported":1698253503,"current_range_meters":16400,"station_id":"ce4bh112rcd13ifvqda0","pricing_plan_id":"free"},{"bike_id":"ea0704f8-5a90-4912-8eae-cf3313afab52","system_id":"levelo_inurba_marseille","lat":43.301117,"lon":5.398795,"is_reserved":false,"is_disabled":false,"rental_uris":{"android":"levelo://app?vid=ea0704f8-5a90-4912-8eae-cf3313afab52","ios":"levelo://app?vid=ea0704f8-5a90-4912-8eae-cf3313afab52"},"vehicle_type_id":"4","last_reported":1698253503,"current_range_meters":18800,"station_id":"ce4bh0h2rcd13ifvqd40","pricing_plan_id":"free"},{"bike_id":"4d780b75-9aca-4307-b912-b9e740a52059","system_id":"levelo_inurba_marseille","lat":43.28727,"lon":5.36078,"is_reserved":false,"is_disabled":false,"rental_uris":{"android":"levelo://app?vid=4d780b75-9aca-4307-b912-b9e740a52059","ios":"levelo://app?vid=4d780b75-9aca-4307-b912-b9e740a52059"},"vehicle_type_id":"4","last_reported":1698253503,"current_range_meters":13200,"station_id":"cki0cbj6b192h4jlfktg","pricing_plan_id":"free"},{"bike_id":"05da9223-a34a-4ff9-bb4e-a9e9c9bf5e3c","system_id":"levelo_inurba_marseille","lat":43.28727,"lon":5.36078,"is_reserved":false,"is_disabled":false,"rental_uris":{"android":"levelo://app?vid=05da9223-a34a-4ff9-bb4e-a9e9c9bf5e3c","ios":"levelo://app?vid=05da9223-a34a-4ff9-bb4e-a9e9c9bf5e3c"},"vehicle_type_id":"4","last_reported":1698253503,"current_range_meters":20400,"station_id":"cki0cbj6b192h4jlfktg","pricing_plan_id":"free"},{"bike_id":"8904d4b7-a4a1-4566-b3c4-92cbdfd301d2","system_id":"levelo_inurba_marseille","lat":43.298681,"lon":5.397225,"is_reserved":false,"is_disabled":false,"rental_uris":{"android":"levelo://app?vid=8904d4b7-a4a1-4566-b3c4-92cbdfd301d2","ios":"levelo://app?vid=8904d4b7-a4a1-4566-b3c4-92cbdfd301d2"},"vehicle_type_id":"4","last_reported":1698253503,"current_range_meters":26800,"station_id":"ce4bh0h2rcd13ifvqd50","pricing_plan_id":"free"},{"bike_id":"6d816816-5c5d-4527-8809-9b89c9b18015","system_id":"levelo_inurba_marseille","lat":43.286591,"lon":5.363346,"is_reserved":false,"is_disabled":false,"rental_uris":{"android":"levelo://app?vid=6d816816-5c5d-4527-8809-9b89c9b18015","ios":"levelo://app?vid=6d816816-5c5d-4527-8809-9b89c9b18015"},"vehicle_type_id":"4","last_reported":1698253503,"current_range_meters":23200,"station_id":"ce4bhah2rcd13ifvqej0","pricing_plan_id":"free"},{"bike_id":"ecc6d933-3ed7-4728-a6bd-767b8dac5921","system_id":"levelo_inurba_marseille","lat":43.286647,"lon":5.363603,"is_reserved":false,"is_disabled":false,"rental_uris":{"android":"levelo://app?vid=ecc6d933-3ed7-4728-a6bd-767b8dac5921","ios":"levelo://app?vid=ecc6d933-3ed7-4728-a6bd-767b8dac5921"},"vehicle_type_id":"4","last_reported":1698253503,"current_range_meters":24400,"station_id":"ce4bhah2rcd13ifvqej0","pricing_plan_id":"free"},{"bike_id":"d805f97b-7ed9-43b4-940e-2d5d2fbb64e0","system_id":"levelo_inurba_marseille","lat":43.286961,"lon":5.373785,"is_reserved":false,"is_disabled":false,"rental_uris":{"android":"levelo://app?vid=d805f97b-7ed9-43b4-940e-2d5d2fbb64e0","ios":"levelo://app?vid=d805f97b-7ed9-43b4-940e-2d5d2fbb64e0"},"vehicle_type_id":"4","last_reported":1698253503,"current_range_meters":9200,"station_id":"ce4bh3p2rcd13ifvqdq0","pricing_plan_id":"free"},{"bike_id":"941472a5-3ef0-45eb-9c86-8d8216e2f443","system_id":"levelo_inurba_marseille","lat":43.286593,"lon":5.363346,"is_reserved":false,"is_disabled":false,"rental_uris":{"android":"levelo://app?vid=941472a5-3ef0-45eb-9c86-8d8216e2f443","ios":"levelo://app?vid=941472a5-3ef0-45eb-9c86-8d8216e2f443"},"vehicle_type_id":"4","last_reported":1698253503,"current_range_meters":1200,"station_id":"ce4bhah2rcd13ifvqej0","pricing_plan_id":"free"},{"bike_id":"f49ddbf6-b9f2-4176-b1a5-267de3a7320e","system_id":"levelo_inurba_marseille","lat":43.286593,"lon":5.363346,"is_reserved":false,"is_disabled":false,"rental_uris":{"android":"levelo://app?vid=f49ddbf6-b9f2-4176-b1a5-267de3a7320e","ios":"levelo://app?vid=f49ddbf6-b9f2-4176-b1a5-267de3a7320e"},"vehicle_type_id":"4","last_reported":1698253503,"current_range_meters":21200,"station_id":"ce4bhah2rcd13ifvqej0","pricing_plan_id":"free"},{"bike_id":"c36dd051-cad3-4acf-bca6-5914239947b7","system_id":"levelo_inurba_marseille","lat":43.286591,"lon":5.363346,"is_reserved":false,"is_disabled":false,"rental_uris":{"android":"levelo://app?vid=c36dd051-cad3-4acf-bca6-5914239947b7","ios":"levelo://app?vid=c36dd051-cad3-4acf-bca6-5914239947b7"},"vehicle_type_id":"4","last_reported":1698253503,"current_range_meters":28800,"station_id":"ce4bhah2rcd13ifvqej0","pricing_plan_id":"free"},{"bike_id":"f93aa65e-353d-4da8-a57b-b0c0882a969b","system_id":"levelo_inurba_marseille","lat":43.286961,"lon":5.373785,"is_reserved":false,"is_disabled":false,"rental_uris":{"android":"levelo://app?vid=f93aa65e-353d-4da8-a57b-b0c0882a969b","ios":"levelo://app?vid=f93aa65e-353d-4da8-a57b-b0c0882a969b"},"vehicle_type_id":"4","last_reported":1698253503,"current_range_meters":13200,"station_id":"ce4bh3p2rcd13ifvqdq0","pricing_plan_id":"free"},{"bike_id":"3952e635-2195-40f6-8a09-820c3bef683a","system_id":"levelo_inurba_marseille","lat":43.286593,"lon":5.363346,"is_reserved":false,"is_disabled":false,"rental_uris":{"android":"levelo://app?vid=3952e635-2195-40f6-8a09-820c3bef683a","ios":"levelo://app?vid=3952e635-2195-40f6-8a09-820c3bef683a"},"vehicle_type_id":"4","last_reported":1698253503,"current_range_meters":27200,"station_id":"ce4bhah2rcd13ifvqej0","pricing_plan_id":"free"},{"bike_id":"30a476a6-8925-4338-80b1-ad2f67c1aaa7","system_id":"levelo_inurba_marseille","lat":43.286591,"lon":5.363346,"is_reserved":false,"is_disabled":false,"rental_uris":{"android":"levelo://app?vid=30a476a6-8925-4338-80b1-ad2f67c1aaa7","ios":"levelo://app?vid=30a476a6-8925-4338-80b1-ad2f67c1aaa7"},"vehicle_type_id":"4","last_reported":1698253503,"current_range_meters":31600,"station_id":"ce4bhah2rcd13ifvqej0","pricing_plan_id":"free"},{"bike_id":"ffef3c1d-2192-49c5-bbd2-2cc602d3905f","system_id":"levelo_inurba_marseille","lat":43.286593,"lon":5.363346,"is_reserved":false,"is_disabled":false,"rental_uris":{"android":"levelo://app?vid=ffef3c1d-2192-49c5-bbd2-2cc602d3905f","ios":"levelo://app?vid=ffef3c1d-2192-49c5-bbd2-2cc602d3905f"},"vehicle_type_id":"4","last_reported":1698253503,"current_range_meters":24800,"station_id":"ce4bhah2rcd13ifvqej0","pricing_plan_id":"free"},{"bike_id":"63fdda5a-6cb6-40de-bbc1-125098377625","system_id":"levelo_inurba_marseille","lat":43.28693,"lon":5.37381,"is_reserved":false,"is_disabled":false,"rental_uris":{"android":"levelo://app?vid=63fdda5a-6cb6-40de-bbc1-125098377625","ios":"levelo://app?vid=63fdda5a-6cb6-40de-bbc1-125098377625"},"vehicle_type_id":"4","last_reported":1698253503,"current_range_meters":2800,"station_id":"ce4bh3p2rcd13ifvqdq0","pricing_plan_id":"free"},{"bike_id":"951d193e-1bba-4e8e-9eb9-fa98b7537fc3","system_id":"levelo_inurba_marseille","lat":43.286593,"lon":5.363346,"is_reserved":false,"is_disabled":false,"rental_uris":{"android":"levelo://app?vid=951d193e-1bba-4e8e-9eb9-fa98b7537fc3","ios":"levelo://app?vid=951d193e-1bba-4e8e-9eb9-fa98b7537fc3"},"vehicle_type_id":"4","last_reported":1698253503,"current_range_meters":20000,"station_id":"ce4bhah2rcd13ifvqej0","pricing_plan_id":"free"},{"bike_id":"f3029a9c-c7d5-4074-b4ca-bf5cde00eaea","system_id":"levelo_inurba_marseille","lat":43.286593,"lon":5.363346,"is_reserved":false,"is_disabled":false,"rental_uris":{"android":"levelo://app?vid=f3029a9c-c7d5-4074-b4ca-bf5cde00eaea","ios":"levelo://app?vid=f3029a9c-c7d5-4074-b4ca-bf5cde00eaea"},"vehicle_type_id":"4","last_reported":1698253503,"current_range_meters":30400,"station_id":"ce4bhah2rcd13ifvqej0","pricing_plan_id":"free"},{"bike_id":"9b463d85-47cb-4cda-8cbe-1ca2ad27dca2","system_id":"levelo_inurba_marseille","lat":43.286593,"lon":5.363346,"is_reserved":false,"is_disabled":false,"rental_uris":{"android":"levelo://app?vid=9b463d85-47cb-4cda-8cbe-1ca2ad27dca2","ios":"levelo://app?vid=9b463d85-47cb-4cda-8cbe-1ca2ad27dca2"},"vehicle_type_id":"4","last_reported":1698253503,"current_range_meters":20800,"station_id":"ce4bhah2rcd13ifvqej0","pricing_plan_id":"free"},{"bike_id":"cfd22fb5-74fd-44cc-bbbb-ade909a8ec0c","system_id":"levelo_inurba_marseille","lat":43.286593,"lon":5.363346,"is_reserved":false,"is_disabled":false,"rental_uris":{"android":"levelo://app?vid=cfd22fb5-74fd-44cc-bbbb-ade909a8ec0c","ios":"levelo://app?vid=cfd22fb5-74fd-44cc-bbbb-ade909a8ec0c"},"vehicle_type_id":"4","last_reported":1698253503,"current_range_meters":13200,"station_id":"ce4bhah2rcd13ifvqej0","pricing_plan_id":"free"},{"bike_id":"f44dfbc2-0f30-424b-bdd8-4d10b09f19c6","system_id":"levelo_inurba_marseille","lat":43.295196,"lon":5.39397,"is_reserved":false,"is_disabled":false,"rental_uris":{"android":"levelo://app?vid=f44dfbc2-0f30-424b-bdd8-4d10b09f19c6","ios":"levelo://app?vid=f44dfbc2-0f30-424b-bdd8-4d10b09f19c6"},"vehicle_type_id":"4","last_reported":1698253503,"current_range_meters":25200,"station_id":"ce4bh292rcd13ifvqdf0","pricing_plan_id":"free"},{"bike_id":"5600c6b4-c727-4766-87a6-a9c7d5d24323","system_id":"levelo_inurba_marseille","lat":43.286961,"lon":5.373785,"is_reserved":false,"is_disabled":false,"rental_uris":{"android":"levelo://app?vid=5600c6b4-c727-4766-87a6-a9c7d5d24323","ios":"levelo://app?vid=5600c6b4-c727-4766-87a6-a9c7d5d24323"},"vehicle_type_id":"4","last_reported":1698253503,"current_range_meters":8400,"station_id":"ce4bh3p2rcd13ifvqdq0","pricing_plan_id":"free"},{"bike_id":"5fa3a709-cc23-4320-95fb-7eee6c2a800a","system_id":"levelo_inurba_marseille","lat":43.286039,"lon":5.370681,"is_reserved":false,"is_disabled":false,"rental_uris":{"android":"levelo://app?vid=5fa3a709-cc23-4320-95fb-7eee6c2a800a","ios":"levelo://app?vid=5fa3a709-cc23-4320-95fb-7eee6c2a800a"},"vehicle_type_id":"4","last_reported":1698253503,"current_range_meters":30000,"station_id":"ce4bht12rcd13ifvqi60","pricing_plan_id":"free"},{"bike_id":"1caf9db5-32b9-4eac-b8ac-c7219bb0349f","system_id":"levelo_inurba_marseille","lat":43.295196,"lon":5.39397,"is_reserved":false,"is_disabled":false,"rental_uris":{"android":"levelo://app?vid=1caf9db5-32b9-4eac-b8ac-c7219bb0349f","ios":"levelo://app?vid=1caf9db5-32b9-4eac-b8ac-c7219bb0349f"},"vehicle_type_id":"4","last_reported":1698253503,"current_range_meters":12400,"station_id":"ce4bh292rcd13ifvqdf0","pricing_plan_id":"free"},{"bike_id":"9f301480-d2b0-450b-82cb-6e1d65721748","system_id":"levelo_inurba_marseille","lat":43.302759,"lon":5.400793,"is_reserved":false,"is_disabled":false,"rental_uris":{"android":"levelo://app?vid=9f301480-d2b0-450b-82cb-6e1d65721748","ios":"levelo://app?vid=9f301480-d2b0-450b-82cb-6e1d65721748"},"vehicle_type_id":"4","last_reported":1698253503,"current_range_meters":12800,"station_id":"ce4bgvh2rcd13ifvqcs0","pricing_plan_id":"free"},{"bike_id":"7889a249-7a62-4cdb-a576-3a01404b30c8","system_id":"levelo_inurba_marseille","lat":43.2899,"lon":5.38546,"is_reserved":false,"is_disabled":false,"rental_uris":{"android":"levelo://app?vid=7889a249-7a62-4cdb-a576-3a01404b30c8","ios":"levelo://app?vid=7889a249-7a62-4cdb-a576-3a01404b30c8"},"vehicle_type_id":"4","last_reported":1698253503,"current_range_meters":10400,"station_id":"","pricing_plan_id":"free"},{"bike_id":"aac38bcb-ef62-4937-b215-1de2cef4f4f9","system_id":"levelo_inurba_marseille","lat":43.302523,"lon":5.400637,"is_reserved":false,"is_disabled":false,"rental_uris":{"android":"levelo://app?vid=aac38bcb-ef62-4937-b215-1de2cef4f4f9","ios":"levelo://app?vid=aac38bcb-ef62-4937-b215-1de2cef4f4f9"},"vehicle_type_id":"4","last_reported":1698253503,"current_range_meters":16400,"station_id":"ce4bgvh2rcd13ifvqcs0","pricing_plan_id":"free"},{"bike_id":"709dccd6-575a-40ca-8990-af4f502c7676","system_id":"levelo_inurba_marseille","lat":43.29027,"lon":5.38642,"is_reserved":false,"is_disabled":false,"rental_uris":{"android":"levelo://app?vid=709dccd6-575a-40ca-8990-af4f502c7676","ios":"levelo://app?vid=709dccd6-575a-40ca-8990-af4f502c7676"},"vehicle_type_id":"4","last_reported":1698253503,"current_range_meters":13600,"station_id":"ce4bh4p2rcd13ifvqe0g","pricing_plan_id":"free"},{"bike_id":"738bac65-d5a3-4b42-8072-72a442e59df0","system_id":"levelo_inurba_marseille","lat":43.28923,"lon":5.38399,"is_reserved":false,"is_disabled":false,"rental_uris":{"android":"levelo://app?vid=738bac65-d5a3-4b42-8072-72a442e59df0","ios":"levelo://app?vid=738bac65-d5a3-4b42-8072-72a442e59df0"},"vehicle_type_id":"4","last_reported":1698253503,"current_range_meters":21200,"station_id":"ce4bh612rcd13ifvqe6g","pricing_plan_id":"free"},{"bike_id":"df14529c-32da-47b1-b9f9-b5d4eddaddb2","system_id":"levelo_inurba_marseille","lat":43.29024,"lon":5.38643,"is_reserved":false,"is_disabled":false,"rental_uris":{"android":"levelo://app?vid=df14529c-32da-47b1-b9f9-b5d4eddaddb2","ios":"levelo://app?vid=df14529c-32da-47b1-b9f9-b5d4eddaddb2"},"vehicle_type_id":"4","last_reported":1698253503,"current_range_meters":22800,"station_id":"ce4bh4p2rcd13ifvqe0g","pricing_plan_id":"free"},{"bike_id":"73d4a834-8329-45ed-8d93-09559549fce0","system_id":"levelo_inurba_marseille","lat":43.302759,"lon":5.400793,"is_reserved":false,"is_disabled":false,"rental_uris":{"android":"levelo://app?vid=73d4a834-8329-45ed-8d93-09559549fce0","ios":"levelo://app?vid=73d4a834-8329-45ed-8d93-09559549fce0"},"vehicle_type_id":"4","last_reported":1698253503,"current_range_meters":23200,"station_id":"ce4bgvh2rcd13ifvqcs0","pricing_plan_id":"free"},{"bike_id":"f0c1e88a-b1de-4eed-a118-82c028b75228","system_id":"levelo_inurba_marseille","lat":43.2882,"lon":5.35276,"is_reserved":false,"is_disabled":false,"rental_uris":{"android":"levelo://app?vid=f0c1e88a-b1de-4eed-a118-82c028b75228","ios":"levelo://app?vid=f0c1e88a-b1de-4eed-a118-82c028b75228"},"vehicle_type_id":"4","last_reported":1698253503,"current_range_meters":4400,"station_id":"","pricing_plan_id":"free"},{"bike_id":"949988a4-9e0f-477b-8db8-bb10a8529a9e","system_id":"levelo_inurba_marseille","lat":43.2892,"lon":5.38401,"is_reserved":false,"is_disabled":false,"rental_uris":{"android":"levelo://app?vid=949988a4-9e0f-477b-8db8-bb10a8529a9e","ios":"levelo://app?vid=949988a4-9e0f-477b-8db8-bb10a8529a9e"},"vehicle_type_id":"4","last_reported":1698253503,"current_range_meters":9200,"station_id":"ce4bh612rcd13ifvqe6g","pricing_plan_id":"free"},{"bike_id":"3f9925fb-e7e7-4009-b5e7-ad3e73946c30","system_id":"levelo_inurba_marseille","lat":43.28918,"lon":5.38399,"is_reserved":false,"is_disabled":false,"rental_uris":{"android":"levelo://app?vid=3f9925fb-e7e7-4009-b5e7-ad3e73946c30","ios":"levelo://app?vid=3f9925fb-e7e7-4009-b5e7-ad3e73946c30"},"vehicle_type_id":"4","last_reported":1698253503,"current_range_meters":4000,"station_id":"ce4bh612rcd13ifvqe6g","pricing_plan_id":"free"},{"bike_id":"5c80ce04-dfab-48f2-8d29-5797bd1ba3e5","system_id":"levelo_inurba_marseille","lat":43.29025,"lon":5.38653,"is_reserved":false,"is_disabled":false,"rental_uris":{"android":"levelo://app?vid=5c80ce04-dfab-48f2-8d29-5797bd1ba3e5","ios":"levelo://app?vid=5c80ce04-dfab-48f2-8d29-5797bd1ba3e5"},"vehicle_type_id":"4","last_reported":1698253503,"current_range_meters":6400,"station_id":"ce4bh4p2rcd13ifvqe0g","pricing_plan_id":"free"},{"bike_id":"d810601d-04f1-4555-a57d-3e082c9fc2a3","system_id":"levelo_inurba_marseille","lat":43.302759,"lon":5.400793,"is_reserved":false,"is_disabled":false,"rental_uris":{"android":"levelo://app?vid=d810601d-04f1-4555-a57d-3e082c9fc2a3","ios":"levelo://app?vid=d810601d-04f1-4555-a57d-3e082c9fc2a3"},"vehicle_type_id":"4","last_reported":1698253503,"current_range_meters":8400,"station_id":"ce4bgvh2rcd13ifvqcs0","pricing_plan_id":"free"},{"bike_id":"8f0b79df-1a2b-4e9e-937f-8cf441dd4f12","system_id":"levelo_inurba_marseille","lat":43.302759,"lon":5.400793,"is_reserved":false,"is_disabled":false,"rental_uris":{"android":"levelo://app?vid=8f0b79df-1a2b-4e9e-937f-8cf441dd4f12","ios":"levelo://app?vid=8f0b79df-1a2b-4e9e-937f-8cf441dd4f12"},"vehicle_type_id":"4","last_reported":1698253503,"current_range_meters":27600,"station_id":"ce4bgvh2rcd13ifvqcs0","pricing_plan_id":"free"},{"bike_id":"57b8adef-d1f6-44c4-ad11-4818b3ea79d6","system_id":"levelo_inurba_marseille","lat":43.286039,"lon":5.370679,"is_reserved":false,"is_disabled":false,"rental_uris":{"android":"levelo://app?vid=57b8adef-d1f6-44c4-ad11-4818b3ea79d6","ios":"levelo://app?vid=57b8adef-d1f6-44c4-ad11-4818b3ea79d6"},"vehicle_type_id":"4","last_reported":1698253503,"current_range_meters":4000,"station_id":"ce4bht12rcd13ifvqi60","pricing_plan_id":"free"},{"bike_id":"4c81fbb4-f722-4ece-bc38-cb0126b89e1b","system_id":"levelo_inurba_marseille","lat":43.286104,"lon":5.370668,"is_reserved":false,"is_disabled":false,"rental_uris":{"android":"levelo://app?vid=4c81fbb4-f722-4ece-bc38-cb0126b89e1b","ios":"levelo://app?vid=4c81fbb4-f722-4ece-bc38-cb0126b89e1b"},"vehicle_type_id":"4","last_reported":1698253503,"current_range_meters":23600,"station_id":"","pricing_plan_id":"free"},{"bike_id":"1b1109cc-de8a-42d8-a26b-2acda52637c6","system_id":"levelo_inurba_marseille","lat":43.286039,"lon":5.370681,"is_reserved":false,"is_disabled":false,"rental_uris":{"android":"levelo://app?vid=1b1109cc-de8a-42d8-a26b-2acda52637c6","ios":"levelo://app?vid=1b1109cc-de8a-42d8-a26b-2acda52637c6"},"vehicle_type_id":"4","last_reported":1698253503,"current_range_meters":19600,"station_id":"ce4bht12rcd13ifvqi60","pricing_plan_id":"free"},{"bike_id":"9062ed60-8e86-48fd-bbad-775864dbe1ee","system_id":"levelo_inurba_marseille","lat":43.302759,"lon":5.400793,"is_reserved":false,"is_disabled":false,"rental_uris":{"android":"levelo://app?vid=9062ed60-8e86-48fd-bbad-775864dbe1ee","ios":"levelo://app?vid=9062ed60-8e86-48fd-bbad-775864dbe1ee"},"vehicle_type_id":"4","last_reported":1698253503,"current_range_meters":29200,"station_id":"ce4bgvh2rcd13ifvqcs0","pricing_plan_id":"free"},{"bike_id":"c00d158a-32d4-4117-b161-8941b65687df","system_id":"levelo_inurba_marseille","lat":43.286039,"lon":5.370681,"is_reserved":false,"is_disabled":false,"rental_uris":{"android":"levelo://app?vid=c00d158a-32d4-4117-b161-8941b65687df","ios":"levelo://app?vid=c00d158a-32d4-4117-b161-8941b65687df"},"vehicle_type_id":"4","last_reported":1698253503,"current_range_meters":20400,"station_id":"ce4bht12rcd13ifvqi60","pricing_plan_id":"free"},{"bike_id":"82af1dbd-bfda-4fd8-9d70-7bacf0e14923","system_id":"levelo_inurba_marseille","lat":43.286039,"lon":5.370681,"is_reserved":false,"is_disabled":false,"rental_uris":{"android":"levelo://app?vid=82af1dbd-bfda-4fd8-9d70-7bacf0e14923","ios":"levelo://app?vid=82af1dbd-bfda-4fd8-9d70-7bacf0e14923"},"vehicle_type_id":"4","last_reported":1698253503,"current_range_meters":16400,"station_id":"ce4bht12rcd13ifvqi60","pricing_plan_id":"free"},{"bike_id":"9f112ea3-92d0-4705-82ac-6d18eb2e07f4","system_id":"levelo_inurba_marseille","lat":43.287184,"lon":5.37937,"is_reserved":false,"is_disabled":false,"rental_uris":{"android":"levelo://app?vid=9f112ea3-92d0-4705-82ac-6d18eb2e07f4","ios":"levelo://app?vid=9f112ea3-92d0-4705-82ac-6d18eb2e07f4"},"vehicle_type_id":"4","last_reported":1698253503,"current_range_meters":6800,"station_id":"ce4bh9p2rcd13ifvqec0","pricing_plan_id":"free"},{"bike_id":"c9703df4-1bc1-4105-b9ce-d086f319de9d","system_id":"levelo_inurba_marseille","lat":43.286039,"lon":5.370681,"is_reserved":false,"is_disabled":false,"rental_uris":{"android":"levelo://app?vid=c9703df4-1bc1-4105-b9ce-d086f319de9d","ios":"levelo://app?vid=c9703df4-1bc1-4105-b9ce-d086f319de9d"},"vehicle_type_id":"4","last_reported":1698253503,"current_range_meters":16800,"station_id":"ce4bht12rcd13ifvqi60","pricing_plan_id":"free"},{"bike_id":"bc368e20-93c0-495a-bb4f-cd8ed7ee7f0d","system_id":"levelo_inurba_marseille","lat":43.335307,"lon":5.388143,"is_reserved":false,"is_disabled":false,"rental_uris":{"android":"levelo://app?vid=bc368e20-93c0-495a-bb4f-cd8ed7ee7f0d","ios":"levelo://app?vid=bc368e20-93c0-495a-bb4f-cd8ed7ee7f0d"},"vehicle_type_id":"4","last_reported":1698253503,"current_range_meters":2400,"station_id":"","pricing_plan_id":"free"},{"bike_id":"4554ace8-dfb7-44cb-9be2-f5d69f750c8c","system_id":"levelo_inurba_marseille","lat":43.285398,"lon":5.369874,"is_reserved":false,"is_disabled":false,"rental_uris":{"android":"levelo://app?vid=4554ace8-dfb7-44cb-9be2-f5d69f750c8c","ios":"levelo://app?vid=4554ace8-dfb7-44cb-9be2-f5d69f750c8c"},"vehicle_type_id":"4","last_reported":1698253503,"current_range_meters":0,"station_id":"","pricing_plan_id":"free"},{"bike_id":"5308dd92-0eb4-4581-9e2b-19673ce4400f","system_id":"levelo_inurba_marseille","lat":43.316451,"lon":5.404347,"is_reserved":false,"is_disabled":false,"rental_uris":{"android":"levelo://app?vid=5308dd92-0eb4-4581-9e2b-19673ce4400f","ios":"levelo://app?vid=5308dd92-0eb4-4581-9e2b-19673ce4400f"},"vehicle_type_id":"4","last_reported":1698253503,"current_range_meters":0,"station_id":"ce4bh012rcd13ifvqd00","pricing_plan_id":"free"},{"bike_id":"ccde55db-d719-4cbc-8ccd-6a00e1f3adaf","system_id":"levelo_inurba_marseille","lat":43.29201,"lon":5.39335,"is_reserved":false,"is_disabled":false,"rental_uris":{"android":"levelo://app?vid=ccde55db-d719-4cbc-8ccd-6a00e1f3adaf","ios":"levelo://app?vid=ccde55db-d719-4cbc-8ccd-6a00e1f3adaf"},"vehicle_type_id":"4","last_reported":1698253503,"current_range_meters":0,"station_id":"ce4bh192rcd13ifvqdd0","pricing_plan_id":"free"},{"bike_id":"2280c64b-63ed-437f-8cb4-f201108b224b","system_id":"levelo_inurba_marseille","lat":43.301243,"lon":5.402867,"is_reserved":false,"is_disabled":false,"rental_uris":{"android":"levelo://app?vid=2280c64b-63ed-437f-8cb4-f201108b224b","ios":"levelo://app?vid=2280c64b-63ed-437f-8cb4-f201108b224b"},"vehicle_type_id":"4","last_reported":1698253503,"current_range_meters":2400,"station_id":"","pricing_plan_id":"free"},{"bike_id":"caf0464f-9d6e-45a9-a74a-d115e682f7e6","system_id":"levelo_inurba_marseille","lat":43.284534,"lon":5.358662,"is_reserved":false,"is_disabled":false,"rental_uris":{"android":"levelo://app?vid=caf0464f-9d6e-45a9-a74a-d115e682f7e6","ios":"levelo://app?vid=caf0464f-9d6e-45a9-a74a-d115e682f7e6"},"vehicle_type_id":"4","last_reported":1698253503,"current_range_meters":28000,"station_id":"ce4bhah2rcd13ifvqei0","pricing_plan_id":"free"},{"bike_id":"ae2b166a-aaa4-4686-a054-e1f421dd5d07","system_id":"levelo_inurba_marseille","lat":43.286274,"lon":5.351228,"is_reserved":false,"is_disabled":false,"rental_uris":{"android":"levelo://app?vid=ae2b166a-aaa4-4686-a054-e1f421dd5d07","ios":"levelo://app?vid=ae2b166a-aaa4-4686-a054-e1f421dd5d07"},"vehicle_type_id":"4","last_reported":1698253503,"current_range_meters":12000,"station_id":"ce4bhb92rcd13ifvqen0","pricing_plan_id":"free"},{"bike_id":"1dca676d-f740-40ca-ac56-c3daa1fedc8b","system_id":"levelo_inurba_marseille","lat":43.286169,"lon":5.351108,"is_reserved":false,"is_disabled":false,"rental_uris":{"android":"levelo://app?vid=1dca676d-f740-40ca-ac56-c3daa1fedc8b","ios":"levelo://app?vid=1dca676d-f740-40ca-ac56-c3daa1fedc8b"},"vehicle_type_id":"4","last_reported":1698253503,"current_range_meters":25200,"station_id":"","pricing_plan_id":"free"},{"bike_id":"41fb5d82-a536-4a6a-8a59-5b8da783393c","system_id":"levelo_inurba_marseille","lat":43.285856,"lon":5.350771,"is_reserved":false,"is_disabled":false,"rental_uris":{"android":"levelo://app?vid=41fb5d82-a536-4a6a-8a59-5b8da783393c","ios":"levelo://app?vid=41fb5d82-a536-4a6a-8a59-5b8da783393c"},"vehicle_type_id":"4","last_reported":1698253503,"current_range_meters":30000,"station_id":"ce4bhch2rcd13ifvqeug","pricing_plan_id":"free"},{"bike_id":"92307611-edb0-4c07-a3d0-8e3b635d97cc","system_id":"levelo_inurba_marseille","lat":43.285856,"lon":5.350771,"is_reserved":false,"is_disabled":false,"rental_uris":{"android":"levelo://app?vid=92307611-edb0-4c07-a3d0-8e3b635d97cc","ios":"levelo://app?vid=92307611-edb0-4c07-a3d0-8e3b635d97cc"},"vehicle_type_id":"4","last_reported":1698253503,"current_range_meters":31200,"station_id":"ce4bhch2rcd13ifvqeug","pricing_plan_id":"free"},{"bike_id":"4a73f72b-4841-4884-83d3-574f4389d05f","system_id":"levelo_inurba_marseille","lat":43.285856,"lon":5.350771,"is_reserved":false,"is_disabled":false,"rental_uris":{"android":"levelo://app?vid=4a73f72b-4841-4884-83d3-574f4389d05f","ios":"levelo://app?vid=4a73f72b-4841-4884-83d3-574f4389d05f"},"vehicle_type_id":"4","last_reported":1698253503,"current_range_meters":31200,"station_id":"ce4bhch2rcd13ifvqeug","pricing_plan_id":"free"},{"bike_id":"4d9fef9f-68d5-4c8e-9878-fd92d42f639e","system_id":"levelo_inurba_marseille","lat":43.28614,"lon":5.35107,"is_reserved":false,"is_disabled":false,"rental_uris":{"android":"levelo://app?vid=4d9fef9f-68d5-4c8e-9878-fd92d42f639e","ios":"levelo://app?vid=4d9fef9f-68d5-4c8e-9878-fd92d42f639e"},"vehicle_type_id":"4","last_reported":1698253503,"current_range_meters":22800,"station_id":"ce4bhch2rcd13ifvqeug","pricing_plan_id":"free"},{"bike_id":"7116ec54-d529-4485-9d3a-1f639a1ab954","system_id":"levelo_inurba_marseille","lat":43.285856,"lon":5.350771,"is_reserved":false,"is_disabled":false,"rental_uris":{"android":"levelo://app?vid=7116ec54-d529-4485-9d3a-1f639a1ab954","ios":"levelo://app?vid=7116ec54-d529-4485-9d3a-1f639a1ab954"},"vehicle_type_id":"4","last_reported":1698253503,"current_range_meters":28800,"station_id":"ce4bhch2rcd13ifvqeug","pricing_plan_id":"free"},{"bike_id":"fd1b08fc-0bb7-48c8-8ce7-2501867f992d","system_id":"levelo_inurba_marseille","lat":43.28611,"lon":5.35109,"is_reserved":false,"is_disabled":false,"rental_uris":{"android":"levelo://app?vid=fd1b08fc-0bb7-48c8-8ce7-2501867f992d","ios":"levelo://app?vid=fd1b08fc-0bb7-48c8-8ce7-2501867f992d"},"vehicle_type_id":"4","last_reported":1698253503,"current_range_meters":14000,"station_id":"ce4bhch2rcd13ifvqeug","pricing_plan_id":"free"},{"bike_id":"1e478884-25ed-4340-8809-b3900c073164","system_id":"levelo_inurba_marseille","lat":43.28611,"lon":5.35107,"is_reserved":false,"is_disabled":false,"rental_uris":{"android":"levelo://app?vid=1e478884-25ed-4340-8809-b3900c073164","ios":"levelo://app?vid=1e478884-25ed-4340-8809-b3900c073164"},"vehicle_type_id":"4","last_reported":1698253503,"current_range_meters":30800,"station_id":"ce4bhch2rcd13ifvqeug","pricing_plan_id":"free"},{"bike_id":"b85c7382-bf6b-4f48-924e-de5e2aee9751","system_id":"levelo_inurba_marseille","lat":43.28613,"lon":5.35099,"is_reserved":false,"is_disabled":false,"rental_uris":{"android":"levelo://app?vid=b85c7382-bf6b-4f48-924e-de5e2aee9751","ios":"levelo://app?vid=b85c7382-bf6b-4f48-924e-de5e2aee9751"},"vehicle_type_id":"4","last_reported":1698253503,"current_range_meters":28000,"station_id":"ce4bhch2rcd13ifvqeug","pricing_plan_id":"free"},{"bike_id":"59823c37-c986-4c9d-a426-c216a00bca5b","system_id":"levelo_inurba_marseille","lat":43.285856,"lon":5.350771,"is_reserved":false,"is_disabled":false,"rental_uris":{"android":"levelo://app?vid=59823c37-c986-4c9d-a426-c216a00bca5b","ios":"levelo://app?vid=59823c37-c986-4c9d-a426-c216a00bca5b"},"vehicle_type_id":"4","last_reported":1698253503,"current_range_meters":31200,"station_id":"ce4bhch2rcd13ifvqeug","pricing_plan_id":"free"},{"bike_id":"62a74ff6-8991-4d7f-919b-dfd935bf4962","system_id":"levelo_inurba_marseille","lat":43.283998,"lon":5.375062,"is_reserved":false,"is_disabled":false,"rental_uris":{"android":"levelo://app?vid=62a74ff6-8991-4d7f-919b-dfd935bf4962","ios":"levelo://app?vid=62a74ff6-8991-4d7f-919b-dfd935bf4962"},"vehicle_type_id":"4","last_reported":1698253503,"current_range_meters":18800,"station_id":"ce4bh412rcd13ifvqds0","pricing_plan_id":"free"},{"bike_id":"83c255b3-5228-4860-9cf9-714d89c6e8fc","system_id":"levelo_inurba_marseille","lat":43.2842,"lon":5.37507,"is_reserved":false,"is_disabled":false,"rental_uris":{"android":"levelo://app?vid=83c255b3-5228-4860-9cf9-714d89c6e8fc","ios":"levelo://app?vid=83c255b3-5228-4860-9cf9-714d89c6e8fc"},"vehicle_type_id":"4","last_reported":1698253503,"current_range_meters":24800,"station_id":"ce4bh412rcd13ifvqds0","pricing_plan_id":"free"},{"bike_id":"e477ba6e-8737-43a6-a2c7-8fdc12885caa","system_id":"levelo_inurba_marseille","lat":43.28408,"lon":5.37517,"is_reserved":false,"is_disabled":false,"rental_uris":{"android":"levelo://app?vid=e477ba6e-8737-43a6-a2c7-8fdc12885caa","ios":"levelo://app?vid=e477ba6e-8737-43a6-a2c7-8fdc12885caa"},"vehicle_type_id":"4","last_reported":1698253503,"current_range_meters":30400,"station_id":"ce4bh412rcd13ifvqds0","pricing_plan_id":"free"},{"bike_id":"bdbbbd0a-308e-42ac-8a35-d4238d468733","system_id":"levelo_inurba_marseille","lat":43.295713,"lon":5.399639,"is_reserved":false,"is_disabled":false,"rental_uris":{"android":"levelo://app?vid=bdbbbd0a-308e-42ac-8a35-d4238d468733","ios":"levelo://app?vid=bdbbbd0a-308e-42ac-8a35-d4238d468733"},"vehicle_type_id":"4","last_reported":1698253503,"current_range_meters":18000,"station_id":"ce4bh312rcd13ifvqdj0","pricing_plan_id":"free"},{"bike_id":"a04dca67-8317-445e-90d6-5788929468fd","system_id":"levelo_inurba_marseille","lat":43.33674,"lon":5.39198,"is_reserved":false,"is_disabled":false,"rental_uris":{"android":"levelo://app?vid=a04dca67-8317-445e-90d6-5788929468fd","ios":"levelo://app?vid=a04dca67-8317-445e-90d6-5788929468fd"},"vehicle_type_id":"4","last_reported":1698253503,"current_range_meters":16800,"station_id":"","pricing_plan_id":"free"},{"bike_id":"8cbab1fb-2eea-4a8b-8f4e-bebb3ff82534","system_id":"levelo_inurba_marseille","lat":43.323464,"lon":5.406297,"is_reserved":false,"is_disabled":false,"rental_uris":{"android":"levelo://app?vid=8cbab1fb-2eea-4a8b-8f4e-bebb3ff82534","ios":"levelo://app?vid=8cbab1fb-2eea-4a8b-8f4e-bebb3ff82534"},"vehicle_type_id":"4","last_reported":1698253503,"current_range_meters":2800,"station_id":"ce4bhq92rcd13ifvqhjg","pricing_plan_id":"free"},{"bike_id":"26e3ad1e-233b-4559-81b9-8bf917557f77","system_id":"levelo_inurba_marseille","lat":43.32331,"lon":5.40626,"is_reserved":false,"is_disabled":false,"rental_uris":{"android":"levelo://app?vid=26e3ad1e-233b-4559-81b9-8bf917557f77","ios":"levelo://app?vid=26e3ad1e-233b-4559-81b9-8bf917557f77"},"vehicle_type_id":"4","last_reported":1698253503,"current_range_meters":14800,"station_id":"ce4bhq92rcd13ifvqhjg","pricing_plan_id":"free"},{"bike_id":"04805063-6c80-4724-b6e1-60c5ac4ca812","system_id":"levelo_inurba_marseille","lat":43.323464,"lon":5.406297,"is_reserved":false,"is_disabled":false,"rental_uris":{"android":"levelo://app?vid=04805063-6c80-4724-b6e1-60c5ac4ca812","ios":"levelo://app?vid=04805063-6c80-4724-b6e1-60c5ac4ca812"},"vehicle_type_id":"4","last_reported":1698253503,"current_range_meters":4800,"station_id":"ce4bhq92rcd13ifvqhjg","pricing_plan_id":"free"},{"bike_id":"5c879d53-e8bd-46fb-b3d7-a08ef71ff2e6","system_id":"levelo_inurba_marseille","lat":43.28269,"lon":5.37423,"is_reserved":false,"is_disabled":false,"rental_uris":{"android":"levelo://app?vid=5c879d53-e8bd-46fb-b3d7-a08ef71ff2e6","ios":"levelo://app?vid=5c879d53-e8bd-46fb-b3d7-a08ef71ff2e6"},"vehicle_type_id":"4","last_reported":1698253503,"current_range_meters":800,"station_id":"ce4bh412rcd13ifvqds0","pricing_plan_id":"free"},{"bike_id":"b0c6ec66-9c82-424a-a342-6f2dc83ace4f","system_id":"levelo_inurba_marseille","lat":43.284793,"lon":5.384113,"is_reserved":false,"is_disabled":false,"rental_uris":{"android":"levelo://app?vid=b0c6ec66-9c82-424a-a342-6f2dc83ace4f","ios":"levelo://app?vid=b0c6ec66-9c82-424a-a342-6f2dc83ace4f"},"vehicle_type_id":"4","last_reported":1698253503,"current_range_meters":16800,"station_id":"ce4bh512rcd13ifvqe3g","pricing_plan_id":"free"},{"bike_id":"faacf54e-78ba-492b-a4ef-0e13526f7ca7","system_id":"levelo_inurba_marseille","lat":43.284793,"lon":5.384113,"is_reserved":false,"is_disabled":false,"rental_uris":{"android":"levelo://app?vid=faacf54e-78ba-492b-a4ef-0e13526f7ca7","ios":"levelo://app?vid=faacf54e-78ba-492b-a4ef-0e13526f7ca7"},"vehicle_type_id":"4","last_reported":1698253503,"current_range_meters":14400,"station_id":"ce4bh512rcd13ifvqe3g","pricing_plan_id":"free"},{"bike_id":"a9bd5759-4e65-4d60-8b48-a99502b542b1","system_id":"levelo_inurba_marseille","lat":43.284793,"lon":5.384113,"is_reserved":false,"is_disabled":false,"rental_uris":{"android":"levelo://app?vid=a9bd5759-4e65-4d60-8b48-a99502b542b1","ios":"levelo://app?vid=a9bd5759-4e65-4d60-8b48-a99502b542b1"},"vehicle_type_id":"4","last_reported":1698253503,"current_range_meters":18800,"station_id":"ce4bh512rcd13ifvqe3g","pricing_plan_id":"free"},{"bike_id":"4c5474cb-77d2-437d-94b1-2f8eb407ef6a","system_id":"levelo_inurba_marseille","lat":43.297946,"lon":5.404063,"is_reserved":false,"is_disabled":false,"rental_uris":{"android":"levelo://app?vid=4c5474cb-77d2-437d-94b1-2f8eb407ef6a","ios":"levelo://app?vid=4c5474cb-77d2-437d-94b1-2f8eb407ef6a"},"vehicle_type_id":"4","last_reported":1698253503,"current_range_meters":6800,"station_id":"ce4bh112rcd13ifvqd90","pricing_plan_id":"free"},{"bike_id":"0f0fa63c-3cf5-422e-8188-759cf240f37b","system_id":"levelo_inurba_marseille","lat":43.284793,"lon":5.384119,"is_reserved":false,"is_disabled":false,"rental_uris":{"android":"levelo://app?vid=0f0fa63c-3cf5-422e-8188-759cf240f37b","ios":"levelo://app?vid=0f0fa63c-3cf5-422e-8188-759cf240f37b"},"vehicle_type_id":"4","last_reported":1698253503,"current_range_meters":18800,"station_id":"ce4bh512rcd13ifvqe3g","pricing_plan_id":"free"},{"bike_id":"d6e0f25c-aaad-4436-9a20-7d785d7e759e","system_id":"levelo_inurba_marseille","lat":43.32521,"lon":5.40572,"is_reserved":false,"is_disabled":false,"rental_uris":{"android":"levelo://app?vid=d6e0f25c-aaad-4436-9a20-7d785d7e759e","ios":"levelo://app?vid=d6e0f25c-aaad-4436-9a20-7d785d7e759e"},"vehicle_type_id":"4","last_reported":1698253503,"current_range_meters":4000,"station_id":"","pricing_plan_id":"free"},{"bike_id":"941e9e2e-f600-4afb-b05f-66c297d3002e","system_id":"levelo_inurba_marseille","lat":43.283498,"lon":5.380948,"is_reserved":false,"is_disabled":false,"rental_uris":{"android":"levelo://app?vid=941e9e2e-f600-4afb-b05f-66c297d3002e","ios":"levelo://app?vid=941e9e2e-f600-4afb-b05f-66c297d3002e"},"vehicle_type_id":"4","last_reported":1698253503,"current_range_meters":17600,"station_id":"ce4bh412rcd13ifvqdr0","pricing_plan_id":"free"},{"bike_id":"e190d4eb-7b3c-440b-98f3-2a5fc4fd15c9","system_id":"levelo_inurba_marseille","lat":43.28342,"lon":5.3812,"is_reserved":false,"is_disabled":false,"rental_uris":{"android":"levelo://app?vid=e190d4eb-7b3c-440b-98f3-2a5fc4fd15c9","ios":"levelo://app?vid=e190d4eb-7b3c-440b-98f3-2a5fc4fd15c9"},"vehicle_type_id":"4","last_reported":1698253503,"current_range_meters":28400,"station_id":"ce4bh412rcd13ifvqdr0","pricing_plan_id":"free"},{"bike_id":"184c3bb2-022e-442a-963a-952537aa9c15","system_id":"levelo_inurba_marseille","lat":43.284217,"lon":5.349697,"is_reserved":false,"is_disabled":false,"rental_uris":{"android":"levelo://app?vid=184c3bb2-022e-442a-963a-952537aa9c15","ios":"levelo://app?vid=184c3bb2-022e-442a-963a-952537aa9c15"},"vehicle_type_id":"4","last_reported":1698253503,"current_range_meters":28800,"station_id":"ce4bhbh2rcd13ifvqepg","pricing_plan_id":"free"},{"bike_id":"f014ba79-108c-4d08-bc7d-da65abc3a423","system_id":"levelo_inurba_marseille","lat":43.2827,"lon":5.35069,"is_reserved":false,"is_disabled":false,"rental_uris":{"android":"levelo://app?vid=f014ba79-108c-4d08-bc7d-da65abc3a423","ios":"levelo://app?vid=f014ba79-108c-4d08-bc7d-da65abc3a423"},"vehicle_type_id":"4","last_reported":1698253503,"current_range_meters":31200,"station_id":"ce4bhbp2rcd13ifvqerg","pricing_plan_id":"free"},{"bike_id":"5a69ad30-cc34-4851-803a-8acf020689d5","system_id":"levelo_inurba_marseille","lat":43.282754,"lon":5.350519,"is_reserved":false,"is_disabled":false,"rental_uris":{"android":"levelo://app?vid=5a69ad30-cc34-4851-803a-8acf020689d5","ios":"levelo://app?vid=5a69ad30-cc34-4851-803a-8acf020689d5"},"vehicle_type_id":"4","last_reported":1698253503,"current_range_meters":31200,"station_id":"ce4bhbp2rcd13ifvqerg","pricing_plan_id":"free"},{"bike_id":"3836658b-d5d9-48f5-b7a9-cb69bdf1bda3","system_id":"levelo_inurba_marseille","lat":43.282754,"lon":5.350519,"is_reserved":false,"is_disabled":false,"rental_uris":{"android":"levelo://app?vid=3836658b-d5d9-48f5-b7a9-cb69bdf1bda3","ios":"levelo://app?vid=3836658b-d5d9-48f5-b7a9-cb69bdf1bda3"},"vehicle_type_id":"4","last_reported":1698253503,"current_range_meters":8800,"station_id":"ce4bhbp2rcd13ifvqerg","pricing_plan_id":"free"},{"bike_id":"82c029b9-c9cd-4778-84d7-364ba0c64e04","system_id":"levelo_inurba_marseille","lat":43.28265,"lon":5.35071,"is_reserved":false,"is_disabled":false,"rental_uris":{"android":"levelo://app?vid=82c029b9-c9cd-4778-84d7-364ba0c64e04","ios":"levelo://app?vid=82c029b9-c9cd-4778-84d7-364ba0c64e04"},"vehicle_type_id":"4","last_reported":1698253503,"current_range_meters":28000,"station_id":"ce4bhbp2rcd13ifvqerg","pricing_plan_id":"free"},{"bike_id":"08ebb515-08d5-46c4-ba84-b6a6de75c81c","system_id":"levelo_inurba_marseille","lat":43.282754,"lon":5.350519,"is_reserved":false,"is_disabled":false,"rental_uris":{"android":"levelo://app?vid=08ebb515-08d5-46c4-ba84-b6a6de75c81c","ios":"levelo://app?vid=08ebb515-08d5-46c4-ba84-b6a6de75c81c"},"vehicle_type_id":"4","last_reported":1698253503,"current_range_meters":31200,"station_id":"ce4bhbp2rcd13ifvqerg","pricing_plan_id":"free"},{"bike_id":"9375f9c6-2cc8-4645-95ec-efd73fb48a79","system_id":"levelo_inurba_marseille","lat":43.282744,"lon":5.350533,"is_reserved":false,"is_disabled":false,"rental_uris":{"android":"levelo://app?vid=9375f9c6-2cc8-4645-95ec-efd73fb48a79","ios":"levelo://app?vid=9375f9c6-2cc8-4645-95ec-efd73fb48a79"},"vehicle_type_id":"4","last_reported":1698253503,"current_range_meters":31200,"station_id":"ce4bhbp2rcd13ifvqerg","pricing_plan_id":"free"},{"bike_id":"eb53de78-4f1d-4a46-8882-240a07ff4a93","system_id":"levelo_inurba_marseille","lat":43.282744,"lon":5.350533,"is_reserved":false,"is_disabled":false,"rental_uris":{"android":"levelo://app?vid=eb53de78-4f1d-4a46-8882-240a07ff4a93","ios":"levelo://app?vid=eb53de78-4f1d-4a46-8882-240a07ff4a93"},"vehicle_type_id":"4","last_reported":1698253503,"current_range_meters":28000,"station_id":"ce4bhbp2rcd13ifvqerg","pricing_plan_id":"free"},{"bike_id":"e4ebd68d-a10f-48ce-a618-b36457bc83bd","system_id":"levelo_inurba_marseille","lat":43.280382,"lon":5.369291,"is_reserved":false,"is_disabled":false,"rental_uris":{"android":"levelo://app?vid=e4ebd68d-a10f-48ce-a618-b36457bc83bd","ios":"levelo://app?vid=e4ebd68d-a10f-48ce-a618-b36457bc83bd"},"vehicle_type_id":"4","last_reported":1698253503,"current_range_meters":31200,"station_id":"ce4bha12rcd13ifvqef0","pricing_plan_id":"free"},{"bike_id":"a576c731-0c97-4e23-8710-e64549d89030","system_id":"levelo_inurba_marseille","lat":43.282744,"lon":5.350533,"is_reserved":false,"is_disabled":false,"rental_uris":{"android":"levelo://app?vid=a576c731-0c97-4e23-8710-e64549d89030","ios":"levelo://app?vid=a576c731-0c97-4e23-8710-e64549d89030"},"vehicle_type_id":"4","last_reported":1698253503,"current_range_meters":19600,"station_id":"ce4bhbp2rcd13ifvqerg","pricing_plan_id":"free"},{"bike_id":"8792c4c8-c5e8-432d-9a4e-fdb7e0cec14f","system_id":"levelo_inurba_marseille","lat":43.283502,"lon":5.386471,"is_reserved":false,"is_disabled":false,"rental_uris":{"android":"levelo://app?vid=8792c4c8-c5e8-432d-9a4e-fdb7e0cec14f","ios":"levelo://app?vid=8792c4c8-c5e8-432d-9a4e-fdb7e0cec14f"},"vehicle_type_id":"4","last_reported":1698253503,"current_range_meters":0,"station_id":"ce4bh492rcd13ifvqdvg","pricing_plan_id":"free"},{"bike_id":"2a7ac473-a958-4fd0-bb70-1a1728e932cf","system_id":"levelo_inurba_marseille","lat":43.280382,"lon":5.369291,"is_reserved":false,"is_disabled":false,"rental_uris":{"android":"levelo://app?vid=2a7ac473-a958-4fd0-bb70-1a1728e932cf","ios":"levelo://app?vid=2a7ac473-a958-4fd0-bb70-1a1728e932cf"},"vehicle_type_id":"4","last_reported":1698253503,"current_range_meters":28000,"station_id":"ce4bha12rcd13ifvqef0","pricing_plan_id":"free"},{"bike_id":"e60ee3da-0c73-4579-8e13-cd76a0886763","system_id":"levelo_inurba_marseille","lat":43.30384,"lon":5.410055,"is_reserved":false,"is_disabled":false,"rental_uris":{"android":"levelo://app?vid=e60ee3da-0c73-4579-8e13-cd76a0886763","ios":"levelo://app?vid=e60ee3da-0c73-4579-8e13-cd76a0886763"},"vehicle_type_id":"4","last_reported":1698253503,"current_range_meters":26800,"station_id":"","pricing_plan_id":"free"},{"bike_id":"76498b1d-09eb-4ef8-9cfb-d7872d65a618","system_id":"levelo_inurba_marseille","lat":43.29034,"lon":5.39967,"is_reserved":false,"is_disabled":false,"rental_uris":{"android":"levelo://app?vid=76498b1d-09eb-4ef8-9cfb-d7872d65a618","ios":"levelo://app?vid=76498b1d-09eb-4ef8-9cfb-d7872d65a618"},"vehicle_type_id":"4","last_reported":1698253503,"current_range_meters":0,"station_id":"ce4bh392rcd13ifvqdm0","pricing_plan_id":"free"},{"bike_id":"1ca242fe-6084-4f9b-8b54-35d465872844","system_id":"levelo_inurba_marseille","lat":43.29036,"lon":5.39974,"is_reserved":false,"is_disabled":false,"rental_uris":{"android":"levelo://app?vid=1ca242fe-6084-4f9b-8b54-35d465872844","ios":"levelo://app?vid=1ca242fe-6084-4f9b-8b54-35d465872844"},"vehicle_type_id":"4","last_reported":1698253503,"current_range_meters":22800,"station_id":"ce4bh392rcd13ifvqdm0","pricing_plan_id":"free"},{"bike_id":"d68b1327-0b04-49ec-ba22-086903fb0322","system_id":"levelo_inurba_marseille","lat":43.281044,"lon":5.378308,"is_reserved":false,"is_disabled":false,"rental_uris":{"android":"levelo://app?vid=d68b1327-0b04-49ec-ba22-086903fb0322","ios":"levelo://app?vid=d68b1327-0b04-49ec-ba22-086903fb0322"},"vehicle_type_id":"4","last_reported":1698253503,"current_range_meters":27600,"station_id":"ce4bha12rcd13ifvqee0","pricing_plan_id":"free"},{"bike_id":"98c71133-38da-4bc9-a9ca-429b719f241a","system_id":"levelo_inurba_marseille","lat":43.32393,"lon":5.40923,"is_reserved":false,"is_disabled":false,"rental_uris":{"android":"levelo://app?vid=98c71133-38da-4bc9-a9ca-429b719f241a","ios":"levelo://app?vid=98c71133-38da-4bc9-a9ca-429b719f241a"},"vehicle_type_id":"4","last_reported":1698253503,"current_range_meters":20400,"station_id":"","pricing_plan_id":"free"},{"bike_id":"13ce1ae9-6a7d-4fb3-b8f5-1352468caf34","system_id":"levelo_inurba_marseille","lat":43.281044,"lon":5.378308,"is_reserved":false,"is_disabled":false,"rental_uris":{"android":"levelo://app?vid=13ce1ae9-6a7d-4fb3-b8f5-1352468caf34","ios":"levelo://app?vid=13ce1ae9-6a7d-4fb3-b8f5-1352468caf34"},"vehicle_type_id":"4","last_reported":1698253503,"current_range_meters":27200,"station_id":"ce4bha12rcd13ifvqee0","pricing_plan_id":"free"},{"bike_id":"6661a4e0-b6ef-4927-abae-992ad497ffb3","system_id":"levelo_inurba_marseille","lat":43.281044,"lon":5.378308,"is_reserved":false,"is_disabled":false,"rental_uris":{"android":"levelo://app?vid=6661a4e0-b6ef-4927-abae-992ad497ffb3","ios":"levelo://app?vid=6661a4e0-b6ef-4927-abae-992ad497ffb3"},"vehicle_type_id":"4","last_reported":1698253503,"current_range_meters":0,"station_id":"ce4bha12rcd13ifvqee0","pricing_plan_id":"free"},{"bike_id":"f5ab7782-5d17-468f-bafe-fc960fee3c04","system_id":"levelo_inurba_marseille","lat":43.296263,"lon":5.40601,"is_reserved":false,"is_disabled":false,"rental_uris":{"android":"levelo://app?vid=f5ab7782-5d17-468f-bafe-fc960fee3c04","ios":"levelo://app?vid=f5ab7782-5d17-468f-bafe-fc960fee3c04"},"vehicle_type_id":"4","last_reported":1698253503,"current_range_meters":2000,"station_id":"ce4bh0h2rcd13ifvqd60","pricing_plan_id":"free"},{"bike_id":"1542009d-2bd1-422c-854e-b9ff2265bc70","system_id":"levelo_inurba_marseille","lat":43.281044,"lon":5.378308,"is_reserved":false,"is_disabled":false,"rental_uris":{"android":"levelo://app?vid=1542009d-2bd1-422c-854e-b9ff2265bc70","ios":"levelo://app?vid=1542009d-2bd1-422c-854e-b9ff2265bc70"},"vehicle_type_id":"4","last_reported":1698253503,"current_range_meters":27200,"station_id":"ce4bha12rcd13ifvqee0","pricing_plan_id":"free"},{"bike_id":"a57d0fdb-b213-4e44-87aa-9e931832f41a","system_id":"levelo_inurba_marseille","lat":43.336569,"lon":5.398701,"is_reserved":false,"is_disabled":false,"rental_uris":{"android":"levelo://app?vid=a57d0fdb-b213-4e44-87aa-9e931832f41a","ios":"levelo://app?vid=a57d0fdb-b213-4e44-87aa-9e931832f41a"},"vehicle_type_id":"4","last_reported":1698253503,"current_range_meters":0,"station_id":"","pricing_plan_id":"free"},{"bike_id":"f030cb5a-664a-44a9-a30a-b737b61562f5","system_id":"levelo_inurba_marseille","lat":43.28573,"lon":5.394992,"is_reserved":false,"is_disabled":false,"rental_uris":{"android":"levelo://app?vid=f030cb5a-664a-44a9-a30a-b737b61562f5","ios":"levelo://app?vid=f030cb5a-664a-44a9-a30a-b737b61562f5"},"vehicle_type_id":"4","last_reported":1698253503,"current_range_meters":0,"station_id":"ce4bh292rcd13ifvqdg0","pricing_plan_id":"free"},{"bike_id":"783d8638-b753-4332-985e-d56fc9ebbf78","system_id":"levelo_inurba_marseille","lat":43.304188,"lon":5.412904,"is_reserved":false,"is_disabled":false,"rental_uris":{"android":"levelo://app?vid=783d8638-b753-4332-985e-d56fc9ebbf78","ios":"levelo://app?vid=783d8638-b753-4332-985e-d56fc9ebbf78"},"vehicle_type_id":"4","last_reported":1698253503,"current_range_meters":4000,"station_id":"ce4bhop2rcd13ifvqh8g","pricing_plan_id":"free"},{"bike_id":"e4445aae-b0bc-480d-9499-5681de515369","system_id":"levelo_inurba_marseille","lat":43.279087,"lon":5.380114,"is_reserved":false,"is_disabled":false,"rental_uris":{"android":"levelo://app?vid=e4445aae-b0bc-480d-9499-5681de515369","ios":"levelo://app?vid=e4445aae-b0bc-480d-9499-5681de515369"},"vehicle_type_id":"4","last_reported":1698253503,"current_range_meters":13200,"station_id":"ce4bhf92rcd13ifvqf50","pricing_plan_id":"free"},{"bike_id":"d1ea66f1-5d76-4ee0-ac14-a97ebf1722cb","system_id":"levelo_inurba_marseille","lat":43.28701,"lon":5.39983,"is_reserved":false,"is_disabled":false,"rental_uris":{"android":"levelo://app?vid=d1ea66f1-5d76-4ee0-ac14-a97ebf1722cb","ios":"levelo://app?vid=d1ea66f1-5d76-4ee0-ac14-a97ebf1722cb"},