{"last_updated":1745388895,"ttl":60,"version":"2.2","data":{"bikes":[{"bike_id":"619527b2-ae22-4c40-891b-1091d66478d1","system_id":"levelo_inurba_marseille","lat":43.30145,"lon":5.38066,"is_reserved":false,"is_disabled":false,"rental_uris":{"android":"levelo://app?vid=619527b2-ae22-4c40-891b-1091d66478d1","ios":"levelo://app?vid=619527b2-ae22-4c40-891b-1091d66478d1"},"vehicle_type_id":"4","last_reported":1745388896,"current_range_meters":2800,"station_id":"ce4bgjp2rcd13ifvqbh0","pricing_plan_id":"cebpf4jnsgd1na2vs0mg"},{"bike_id":"c6b9caaf-85ad-42fe-a85b-41a4e6f02d6e","system_id":"levelo_inurba_marseille","lat":43.28436,"lon":5.35027,"is_reserved":false,"is_disabled":false,"rental_uris":{"android":"levelo://app?vid=c6b9caaf-85ad-42fe-a85b-41a4e6f02d6e","ios":"levelo://app?vid=c6b9caaf-85ad-42fe-a85b-41a4e6f02d6e"},"vehicle_type_id":"4","last_reported":1745388896,"current_range_meters":2800,"station_id":"ce4bhbh2rcd13ifvqepg","pricing_plan_id":"cebpf4jnsgd1na2vs0mg"},{"bike_id":"ed64cc80-4f58-4d30-b221-e61f4d99a753","system_id":"levelo_inurba_marseille","lat":43.30146,"lon":5.38065,"is_reserved":false,"is_disabled":false,"rental_uris":{"android":"levelo://app?vid=ed64cc80-4f58-4d30-b221-e61f4d99a753","ios":"levelo://app?vid=ed64cc80-4f58-4d30-b221-e61f4d99a753"},"vehicle_type_id":"4","last_reported":1745388896,"current_range_meters":2800,"station_id":"ce4bgjp2rcd13ifvqbh0","pricing_plan_id":"cebpf4jnsgd1na2vs0mg"},{"bike_id":"eac13683-cee0-48fe-9db9-a72bc04b1f44","system_id":"levelo_inurba_marseille","lat":43.31703,"lon":5.40435,"is_reserved":false,"is_disabled":false,"rental_uris":{"android":"levelo://app?vid=eac13683-cee0-48fe-9db9-a72bc04b1f44","ios":"levelo://app?vid=eac13683-cee0-48fe-9db9-a72bc04b1f44"},"vehicle_type_id":"4","last_reported":1745388896,"current_range_meters":2800,"station_id":"ce4bh012rcd13ifvqd00","pricing_plan_id":"cebpf4jnsgd1na2vs0mg"},{"bike_id":"dd156d41-4186-4eb8-b446-34556325af32","system_id":"levelo_inurba_marseille","lat":43.28943,"lon":5.36643,"is_reserved":false,"is_disabled":false,"rental_uris":{"android":"levelo://app?vid=dd156d41-4186-4eb8-b446-34556325af32","ios":"levelo://app?vid=dd156d41-4186-4eb8-b446-34556325af32"},"vehicle_type_id":"4","last_reported":1745388896,"current_range_meters":2800,"station_id":"ce4bhap2rcd13ifvqek0","pricing_plan_id":"cebpf4jnsgd1na2vs0mg"},{"bike_id":"39b7ee85-9cbf-4904-a10a-75042515f95d","system_id":"levelo_inurba_marseille","lat":43.36261,"lon":5.34794,"is_reserved":false,"is_disabled":false,"rental_uris":{"android":"levelo://app?vid=39b7ee85-9cbf-4904-a10a-75042515f95d","ios":"levelo://app?vid=39b7ee85-9cbf-4904-a10a-75042515f95d"},"vehicle_type_id":"4","last_reported":1745388896,"current_range_meters":2800,"station_id":"","pricing_plan_id":"cebpf4jnsgd1na2vs0mg"},{"bike_id":"a4f7e8ab-5548-4cbb-82d6-5f556d7dbd89","system_id":"levelo_inurba_marseille","lat":43.27494,"lon":5.42452,"is_reserved":false,"is_disabled":false,"rental_uris":{"android":"levelo://app?vid=a4f7e8ab-5548-4cbb-82d6-5f556d7dbd89","ios":"levelo://app?vid=a4f7e8ab-5548-4cbb-82d6-5f556d7dbd89"},"vehicle_type_id":"4","last_reported":1745388896,"current_range_meters":3200,"station_id":"ce4bhn92rcd13ifvqgrg","pricing_plan_id":"cebpf4jnsgd1na2vs0mg"},{"bike_id":"07e18311-389c-4cd0-83d3-a5cafbc7a209","system_id":"levelo_inurba_marseille","lat":43.28952,"lon":5.36655,"is_reserved":false,"is_disabled":false,"rental_uris":{"android":"levelo://app?vid=07e18311-389c-4cd0-83d3-a5cafbc7a209","ios":"levelo://app?vid=07e18311-389c-4cd0-83d3-a5cafbc7a209"},"vehicle_type_id":"4","last_reported":1745388896,"current_range_meters":3600,"station_id":"ce4bhap2rcd13ifvqek0","pricing_plan_id":"cebpf4jnsgd1na2vs0mg"},{"bike_id":"c57e0649-2db4-465a-9d73-2fa32e3a411d","system_id":"levelo_inurba_marseille","lat":43.28958,"lon":5.38394,"is_reserved":false,"is_disabled":false,"rental_uris":{"android":"levelo://app?vid=c57e0649-2db4-465a-9d73-2fa32e3a411d","ios":"levelo://app?vid=c57e0649-2db4-465a-9d73-2fa32e3a411d"},"vehicle_type_id":"4","last_reported":1745388896,"current_range_meters":3600,"station_id":"ce4bh612rcd13ifvqe6g","pricing_plan_id":"cebpf4jnsgd1na2vs0mg"},{"bike_id":"7705082d-fce7-40f3-9a98-6918a946f65a","system_id":"levelo_inurba_marseille","lat":43.2705,"lon":5.40264,"is_reserved":false,"is_disabled":false,"rental_uris":{"android":"levelo://app?vid=7705082d-fce7-40f3-9a98-6918a946f65a","ios":"levelo://app?vid=7705082d-fce7-40f3-9a98-6918a946f65a"},"vehicle_type_id":"4","last_reported":1745388896,"current_range_meters":4000,"station_id":"ce4bhk92rcd13ifvqgc0","pricing_plan_id":"cebpf4jnsgd1na2vs0mg"},{"bike_id":"da24ae5e-6744-4ba9-8a6c-c375426f57b5","system_id":"levelo_inurba_marseille","lat":43.25124,"lon":5.40328,"is_reserved":false,"is_disabled":false,"rental_uris":{"android":"levelo://app?vid=da24ae5e-6744-4ba9-8a6c-c375426f57b5","ios":"levelo://app?vid=da24ae5e-6744-4ba9-8a6c-c375426f57b5"},"vehicle_type_id":"4","last_reported":1745388896,"current_range_meters":4000,"station_id":"ce4bhlh2rcd13ifvqgig","pricing_plan_id":"cebpf4jnsgd1na2vs0mg"},{"bike_id":"685e0e3c-e8c7-47dc-9a5c-5435c3adb342","system_id":"levelo_inurba_marseille","lat":43.33602,"lon":5.41036,"is_reserved":false,"is_disabled":false,"rental_uris":{"android":"levelo://app?vid=685e0e3c-e8c7-47dc-9a5c-5435c3adb342","ios":"levelo://app?vid=685e0e3c-e8c7-47dc-9a5c-5435c3adb342"},"vehicle_type_id":"4","last_reported":1745388896,"current_range_meters":3600,"station_id":"ce4bhqh2rcd13ifvqhmg","pricing_plan_id":"cebpf4jnsgd1na2vs0mg"},{"bike_id":"959cc656-7351-4674-b1c1-75d22c72061d","system_id":"levelo_inurba_marseille","lat":43.27496,"lon":5.42451,"is_reserved":false,"is_disabled":false,"rental_uris":{"android":"levelo://app?vid=959cc656-7351-4674-b1c1-75d22c72061d","ios":"levelo://app?vid=959cc656-7351-4674-b1c1-75d22c72061d"},"vehicle_type_id":"4","last_reported":1745388896,"current_range_meters":4400,"station_id":"ce4bhn92rcd13ifvqgrg","pricing_plan_id":"cebpf4jnsgd1na2vs0mg"},{"bike_id":"46653d45-1103-4509-ac26-1170602d879f","system_id":"levelo_inurba_marseille","lat":43.24071,"lon":5.37765,"is_reserved":false,"is_disabled":false,"rental_uris":{"android":"levelo://app?vid=46653d45-1103-4509-ac26-1170602d879f","ios":"levelo://app?vid=46653d45-1103-4509-ac26-1170602d879f"},"vehicle_type_id":"4","last_reported":1745388896,"current_range_meters":4400,"station_id":"ce4bhnp2rcd13ifvqgvg","pricing_plan_id":"cebpf4jnsgd1na2vs0mg"},{"bike_id":"4cc62d17-7e47-45a6-a814-084001cc72e3","system_id":"levelo_inurba_marseille","lat":43.31691,"lon":5.4047,"is_reserved":false,"is_disabled":false,"rental_uris":{"android":"levelo://app?vid=4cc62d17-7e47-45a6-a814-084001cc72e3","ios":"levelo://app?vid=4cc62d17-7e47-45a6-a814-084001cc72e3"},"vehicle_type_id":"4","last_reported":1745388896,"current_range_meters":4800,"station_id":"ce4bh012rcd13ifvqd00","pricing_plan_id":"cebpf4jnsgd1na2vs0mg"},{"bike_id":"4de92fcb-5cae-4f4e-a6fa-7c761de0b676","system_id":"levelo_inurba_marseille","lat":43.30028,"lon":5.36733,"is_reserved":false,"is_disabled":false,"rental_uris":{"android":"levelo://app?vid=4de92fcb-5cae-4f4e-a6fa-7c761de0b676","ios":"levelo://app?vid=4de92fcb-5cae-4f4e-a6fa-7c761de0b676"},"vehicle_type_id":"4","last_reported":1745388896,"current_range_meters":4800,"station_id":"","pricing_plan_id":"cebpf4jnsgd1na2vs0mg"},{"bike_id":"d42da8b3-5312-4608-a60b-fef54c0c16d1","system_id":"levelo_inurba_marseille","lat":43.28075,"lon":5.39621,"is_reserved":false,"is_disabled":false,"rental_uris":{"android":"levelo://app?vid=d42da8b3-5312-4608-a60b-fef54c0c16d1","ios":"levelo://app?vid=d42da8b3-5312-4608-a60b-fef54c0c16d1"},"vehicle_type_id":"4","last_reported":1745388896,"current_range_meters":4800,"station_id":"ce4bho12rcd13ifvqh2g","pricing_plan_id":"cebpf4jnsgd1na2vs0mg"},{"bike_id":"2e8a2f77-7a52-4157-94dd-5b7ea9336dda","system_id":"levelo_inurba_marseille","lat":43.24084,"lon":5.37758,"is_reserved":false,"is_disabled":false,"rental_uris":{"android":"levelo://app?vid=2e8a2f77-7a52-4157-94dd-5b7ea9336dda","ios":"levelo://app?vid=2e8a2f77-7a52-4157-94dd-5b7ea9336dda"},"vehicle_type_id":"4","last_reported":1745388896,"current_range_meters":4800,"station_id":"ce4bhnp2rcd13ifvqgvg","pricing_plan_id":"cebpf4jnsgd1na2vs0mg"},{"bike_id":"1c755526-7610-4241-9257-348acde561d3","system_id":"levelo_inurba_marseille","lat":43.24862,"lon":5.38219,"is_reserved":false,"is_disabled":false,"rental_uris":{"android":"levelo://app?vid=1c755526-7610-4241-9257-348acde561d3","ios":"levelo://app?vid=1c755526-7610-4241-9257-348acde561d3"},"vehicle_type_id":"4","last_reported":1745388896,"current_range_meters":5600,"station_id":"","pricing_plan_id":"cebpf4jnsgd1na2vs0mg"},{"bike_id":"831cc661-1301-42d7-bb9d-9d48dd51e963","system_id":"levelo_inurba_marseille","lat":43.3044,"lon":5.38883,"is_reserved":false,"is_disabled":false,"rental_uris":{"android":"levelo://app?vid=831cc661-1301-42d7-bb9d-9d48dd51e963","ios":"levelo://app?vid=831cc661-1301-42d7-bb9d-9d48dd51e963"},"vehicle_type_id":"4","last_reported":1745388896,"current_range_meters":5600,"station_id":"ce4bgk12rcd13ifvqbi0","pricing_plan_id":"cebpf4jnsgd1na2vs0mg"},{"bike_id":"65e49bfb-8c95-4e64-8198-27751bcb45b7","system_id":"levelo_inurba_marseille","lat":43.27554,"lon":5.38455,"is_reserved":false,"is_disabled":false,"rental_uris":{"android":"levelo://app?vid=65e49bfb-8c95-4e64-8198-27751bcb45b7","ios":"levelo://app?vid=65e49bfb-8c95-4e64-8198-27751bcb45b7"},"vehicle_type_id":"4","last_reported":1745388896,"current_range_meters":5600,"station_id":"ce4bhh92rcd13ifvqfi0","pricing_plan_id":"cebpf4jnsgd1na2vs0mg"},{"bike_id":"b217c7a4-92b6-4872-91fa-f2c2827250cc","system_id":"levelo_inurba_marseille","lat":43.24075,"lon":5.37752,"is_reserved":false,"is_disabled":true,"rental_uris":{"android":"levelo://app?vid=b217c7a4-92b6-4872-91fa-f2c2827250cc","ios":"levelo://app?vid=b217c7a4-92b6-4872-91fa-f2c2827250cc"},"vehicle_type_id":"4","last_reported":1745388896,"current_range_meters":5600,"station_id":"ce4bhnp2rcd13ifvqgvg","pricing_plan_id":"cebpf4jnsgd1na2vs0mg"},{"bike_id":"aecc2ba0-6283-462e-b188-5f4fc930626f","system_id":"levelo_inurba_marseille","lat":43.29033,"lon":5.39982,"is_reserved":false,"is_disabled":false,"rental_uris":{"android":"levelo://app?vid=aecc2ba0-6283-462e-b188-5f4fc930626f","ios":"levelo://app?vid=aecc2ba0-6283-462e-b188-5f4fc930626f"},"vehicle_type_id":"4","last_reported":1745388896,"current_range_meters":5600,"station_id":"ce4bh392rcd13ifvqdm0","pricing_plan_id":"cebpf4jnsgd1na2vs0mg"},{"bike_id":"f23eb4e2-8f21-4f89-bd71-ac61e9600246","system_id":"levelo_inurba_marseille","lat":43.32478,"lon":5.36565,"is_reserved":false,"is_disabled":false,"rental_uris":{"android":"levelo://app?vid=f23eb4e2-8f21-4f89-bd71-ac61e9600246","ios":"levelo://app?vid=f23eb4e2-8f21-4f89-bd71-ac61e9600246"},"vehicle_type_id":"4","last_reported":1745388896,"current_range_meters":6000,"station_id":"ce4bhs12rcd13ifvqhvg","pricing_plan_id":"cebpf4jnsgd1na2vs0mg"},{"bike_id":"49454987-63e1-48fb-8366-812d15a5c496","system_id":"levelo_inurba_marseille","lat":43.24077,"lon":5.37787,"is_reserved":false,"is_disabled":false,"rental_uris":{"android":"levelo://app?vid=49454987-63e1-48fb-8366-812d15a5c496","ios":"levelo://app?vid=49454987-63e1-48fb-8366-812d15a5c496"},"vehicle_type_id":"4","last_reported":1745388896,"current_range_meters":6000,"station_id":"ce4bhnp2rcd13ifvqgvg","pricing_plan_id":"cebpf4jnsgd1na2vs0mg"},{"bike_id":"8f307e06-e16e-4fe6-b0f1-efeffe1ffbf1","system_id":"levelo_inurba_marseille","lat":43.26785,"lon":5.39417,"is_reserved":false,"is_disabled":false,"rental_uris":{"android":"levelo://app?vid=8f307e06-e16e-4fe6-b0f1-efeffe1ffbf1","ios":"levelo://app?vid=8f307e06-e16e-4fe6-b0f1-efeffe1ffbf1"},"vehicle_type_id":"4","last_reported":1745388896,"current_range_meters":5600,"station_id":"ce4bhh12rcd13ifvqfg0","pricing_plan_id":"cebpf4jnsgd1na2vs0mg"},{"bike_id":"fc5a6fb4-7812-4eee-8e30-3873f67bbd3c","system_id":"levelo_inurba_marseille","lat":43.28935,"lon":5.36642,"is_reserved":false,"is_disabled":false,"rental_uris":{"android":"levelo://app?vid=fc5a6fb4-7812-4eee-8e30-3873f67bbd3c","ios":"levelo://app?vid=fc5a6fb4-7812-4eee-8e30-3873f67bbd3c"},"vehicle_type_id":"4","last_reported":1745388896,"current_range_meters":6000,"station_id":"ce4bhap2rcd13ifvqek0","pricing_plan_id":"cebpf4jnsgd1na2vs0mg"},{"bike_id":"28dbeddd-838b-456e-82ff-c5881d62245f","system_id":"levelo_inurba_marseille","lat":43.229303,"lon":5.353859,"is_reserved":false,"is_disabled":false,"rental_uris":{"android":"levelo://app?vid=28dbeddd-838b-456e-82ff-c5881d62245f","ios":"levelo://app?vid=28dbeddd-838b-456e-82ff-c5881d62245f"},"vehicle_type_id":"4","last_reported":1745388896,"current_range_meters":6400,"station_id":"cpo3532slgdg3j2ikp40","pricing_plan_id":"cebpf4jnsgd1na2vs0mg"},{"bike_id":"59315755-da8f-4211-8848-7d34624a3221","system_id":"levelo_inurba_marseille","lat":43.30158,"lon":5.38099,"is_reserved":false,"is_disabled":false,"rental_uris":{"android":"levelo://app?vid=59315755-da8f-4211-8848-7d34624a3221","ios":"levelo://app?vid=59315755-da8f-4211-8848-7d34624a3221"},"vehicle_type_id":"4","last_reported":1745388896,"current_range_meters":6400,"station_id":"ce4bgjp2rcd13ifvqbh0","pricing_plan_id":"cebpf4jnsgd1na2vs0mg"},{"bike_id":"feb23c94-7c1e-4b05-a58d-7d3f25fc2ea3","system_id":"levelo_inurba_marseille","lat":43.28519,"lon":5.39469,"is_reserved":false,"is_disabled":false,"rental_uris":{"android":"levelo://app?vid=feb23c94-7c1e-4b05-a58d-7d3f25fc2ea3","ios":"levelo://app?vid=feb23c94-7c1e-4b05-a58d-7d3f25fc2ea3"},"vehicle_type_id":"4","last_reported":1745388896,"current_range_meters":6400,"station_id":"","pricing_plan_id":"cebpf4jnsgd1na2vs0mg"},{"bike_id":"812167a7-afd5-4edc-bf10-be9f547fc037","system_id":"levelo_inurba_marseille","lat":43.273206,"lon":5.390681,"is_reserved":false,"is_disabled":false,"rental_uris":{"android":"levelo://app?vid=812167a7-afd5-4edc-bf10-be9f547fc037","ios":"levelo://app?vid=812167a7-afd5-4edc-bf10-be9f547fc037"},"vehicle_type_id":"4","last_reported":1745388896,"current_range_meters":6800,"station_id":"","pricing_plan_id":"cebpf4jnsgd1na2vs0mg"},{"bike_id":"3065a843-6c0d-41dc-b2da-42e990e5583b","system_id":"levelo_inurba_marseille","lat":43.33605,"lon":5.4104,"is_reserved":false,"is_disabled":false,"rental_uris":{"android":"levelo://app?vid=3065a843-6c0d-41dc-b2da-42e990e5583b","ios":"levelo://app?vid=3065a843-6c0d-41dc-b2da-42e990e5583b"},"vehicle_type_id":"4","last_reported":1745388896,"current_range_meters":6800,"station_id":"ce4bhqh2rcd13ifvqhmg","pricing_plan_id":"cebpf4jnsgd1na2vs0mg"},{"bike_id":"626611a5-e3e2-456f-8b5b-0f19bc3a4611","system_id":"levelo_inurba_marseille","lat":43.27489,"lon":5.42446,"is_reserved":false,"is_disabled":false,"rental_uris":{"android":"levelo://app?vid=626611a5-e3e2-456f-8b5b-0f19bc3a4611","ios":"levelo://app?vid=626611a5-e3e2-456f-8b5b-0f19bc3a4611"},"vehicle_type_id":"4","last_reported":1745388896,"current_range_meters":6800,"station_id":"ce4bhn92rcd13ifvqgrg","pricing_plan_id":"cebpf4jnsgd1na2vs0mg"},{"bike_id":"62dacf70-fd83-4be6-9bb9-1992f76ef9aa","system_id":"levelo_inurba_marseille","lat":43.27496,"lon":5.42459,"is_reserved":false,"is_disabled":false,"rental_uris":{"android":"levelo://app?vid=62dacf70-fd83-4be6-9bb9-1992f76ef9aa","ios":"levelo://app?vid=62dacf70-fd83-4be6-9bb9-1992f76ef9aa"},"vehicle_type_id":"4","last_reported":1745388896,"current_range_meters":6800,"station_id":"ce4bhn92rcd13ifvqgrg","pricing_plan_id":"cebpf4jnsgd1na2vs0mg"},{"bike_id":"e7197435-3b98-4061-918e-a34285caf294","system_id":"levelo_inurba_marseille","lat":43.30303,"lon":5.40454,"is_reserved":false,"is_disabled":false,"rental_uris":{"android":"levelo://app?vid=e7197435-3b98-4061-918e-a34285caf294","ios":"levelo://app?vid=e7197435-3b98-4061-918e-a34285caf294"},"vehicle_type_id":"4","last_reported":1745388896,"current_range_meters":6800,"station_id":"ce4bh012rcd13ifvqd10","pricing_plan_id":"cebpf4jnsgd1na2vs0mg"},{"bike_id":"509e6b30-19ce-4443-aef2-732b9a7675fa","system_id":"levelo_inurba_marseille","lat":43.28352,"lon":5.38113,"is_reserved":false,"is_disabled":false,"rental_uris":{"android":"levelo://app?vid=509e6b30-19ce-4443-aef2-732b9a7675fa","ios":"levelo://app?vid=509e6b30-19ce-4443-aef2-732b9a7675fa"},"vehicle_type_id":"4","last_reported":1745388896,"current_range_meters":7200,"station_id":"ce4bh412rcd13ifvqdr0","pricing_plan_id":"cebpf4jnsgd1na2vs0mg"},{"bike_id":"e2419c35-2e7e-467e-ba84-4b7a97df2b37","system_id":"levelo_inurba_marseille","lat":43.32333,"lon":5.40632,"is_reserved":false,"is_disabled":false,"rental_uris":{"android":"levelo://app?vid=e2419c35-2e7e-467e-ba84-4b7a97df2b37","ios":"levelo://app?vid=e2419c35-2e7e-467e-ba84-4b7a97df2b37"},"vehicle_type_id":"4","last_reported":1745388896,"current_range_meters":7200,"station_id":"ce4bhq92rcd13ifvqhjg","pricing_plan_id":"cebpf4jnsgd1na2vs0mg"},{"bike_id":"1be6a0eb-e7bb-4f1b-8976-c00356d99362","system_id":"levelo_inurba_marseille","lat":43.282591,"lon":5.350805,"is_reserved":false,"is_disabled":true,"rental_uris":{"android":"levelo://app?vid=1be6a0eb-e7bb-4f1b-8976-c00356d99362","ios":"levelo://app?vid=1be6a0eb-e7bb-4f1b-8976-c00356d99362"},"vehicle_type_id":"4","last_reported":1745388896,"current_range_meters":8000,"station_id":"ce4bhbp2rcd13ifvqerg","pricing_plan_id":"cebpf4jnsgd1na2vs0mg"},{"bike_id":"71f121ee-fc56-4cf0-a6a7-237b4e50d330","system_id":"levelo_inurba_marseille","lat":43.25121,"lon":5.40327,"is_reserved":false,"is_disabled":false,"rental_uris":{"android":"levelo://app?vid=71f121ee-fc56-4cf0-a6a7-237b4e50d330","ios":"levelo://app?vid=71f121ee-fc56-4cf0-a6a7-237b4e50d330"},"vehicle_type_id":"4","last_reported":1745388896,"current_range_meters":8000,"station_id":"ce4bhlh2rcd13ifvqgig","pricing_plan_id":"cebpf4jnsgd1na2vs0mg"},{"bike_id":"2dc4e79a-33a8-48b0-bf03-f6328f1dc1f6","system_id":"levelo_inurba_marseille","lat":43.32367,"lon":5.38894,"is_reserved":false,"is_disabled":true,"rental_uris":{"android":"levelo://app?vid=2dc4e79a-33a8-48b0-bf03-f6328f1dc1f6","ios":"levelo://app?vid=2dc4e79a-33a8-48b0-bf03-f6328f1dc1f6"},"vehicle_type_id":"4","last_reported":1745388896,"current_range_meters":8000,"station_id":"ce4bhqp2rcd13ifvqhog","pricing_plan_id":"cebpf4jnsgd1na2vs0mg"},{"bike_id":"83b75082-9742-48b0-914d-1a19ef443d4e","system_id":"levelo_inurba_marseille","lat":43.29307,"lon":5.37206,"is_reserved":false,"is_disabled":true,"rental_uris":{"android":"levelo://app?vid=83b75082-9742-48b0-914d-1a19ef443d4e","ios":"levelo://app?vid=83b75082-9742-48b0-914d-1a19ef443d4e"},"vehicle_type_id":"4","last_reported":1745388896,"current_range_meters":8000,"station_id":"ce4bgh92rcd13ifvqb40","pricing_plan_id":"cebpf4jnsgd1na2vs0mg"},{"bike_id":"f6a54cce-ca06-4e26-9db9-a27359909f84","system_id":"levelo_inurba_marseille","lat":43.295489,"lon":5.422949,"is_reserved":false,"is_disabled":false,"rental_uris":{"android":"levelo://app?vid=f6a54cce-ca06-4e26-9db9-a27359909f84","ios":"levelo://app?vid=f6a54cce-ca06-4e26-9db9-a27359909f84"},"vehicle_type_id":"4","last_reported":1745388896,"current_range_meters":8000,"station_id":"ce4bhph2rcd13ifvqhdg","pricing_plan_id":"cebpf4jnsgd1na2vs0mg"},{"bike_id":"a2f407dc-7fa5-4d61-bbb5-5e7c2043ecfd","system_id":"levelo_inurba_marseille","lat":43.33612,"lon":5.41038,"is_reserved":false,"is_disabled":false,"rental_uris":{"android":"levelo://app?vid=a2f407dc-7fa5-4d61-bbb5-5e7c2043ecfd","ios":"levelo://app?vid=a2f407dc-7fa5-4d61-bbb5-5e7c2043ecfd"},"vehicle_type_id":"4","last_reported":1745388896,"current_range_meters":7200,"station_id":"ce4bhqh2rcd13ifvqhmg","pricing_plan_id":"cebpf4jnsgd1na2vs0mg"},{"bike_id":"e005ff08-be3d-4dff-9273-257bea2b9827","system_id":"levelo_inurba_marseille","lat":43.27491,"lon":5.42456,"is_reserved":false,"is_disabled":false,"rental_uris":{"android":"levelo://app?vid=e005ff08-be3d-4dff-9273-257bea2b9827","ios":"levelo://app?vid=e005ff08-be3d-4dff-9273-257bea2b9827"},"vehicle_type_id":"4","last_reported":1745388896,"current_range_meters":8000,"station_id":"ce4bhn92rcd13ifvqgrg","pricing_plan_id":"cebpf4jnsgd1na2vs0mg"},{"bike_id":"70671536-b2e1-456c-8bd8-7804b348f9fc","system_id":"levelo_inurba_marseille","lat":43.31192,"lon":5.41621,"is_reserved":false,"is_disabled":false,"rental_uris":{"android":"levelo://app?vid=70671536-b2e1-456c-8bd8-7804b348f9fc","ios":"levelo://app?vid=70671536-b2e1-456c-8bd8-7804b348f9fc"},"vehicle_type_id":"4","last_reported":1745388896,"current_range_meters":8000,"station_id":"","pricing_plan_id":"cebpf4jnsgd1na2vs0mg"},{"bike_id":"54fb7155-55d2-4ee7-84cb-f30607fd8c24","system_id":"levelo_inurba_marseille","lat":43.29025,"lon":5.37573,"is_reserved":false,"is_disabled":false,"rental_uris":{"android":"levelo://app?vid=54fb7155-55d2-4ee7-84cb-f30607fd8c24","ios":"levelo://app?vid=54fb7155-55d2-4ee7-84cb-f30607fd8c24"},"vehicle_type_id":"4","last_reported":1745388896,"current_range_meters":8000,"station_id":"ce4bh692rcd13ifvqe90","pricing_plan_id":"cebpf4jnsgd1na2vs0mg"},{"bike_id":"1f605da9-74b3-4f53-96b4-ea59ce51acfc","system_id":"levelo_inurba_marseille","lat":43.31185,"lon":5.41612,"is_reserved":false,"is_disabled":false,"rental_uris":{"android":"levelo://app?vid=1f605da9-74b3-4f53-96b4-ea59ce51acfc","ios":"levelo://app?vid=1f605da9-74b3-4f53-96b4-ea59ce51acfc"},"vehicle_type_id":"4","last_reported":1745388896,"current_range_meters":8000,"station_id":"","pricing_plan_id":"cebpf4jnsgd1na2vs0mg"},{"bike_id":"d8d27387-fb66-4c0a-90dc-eef7a69dc87d","system_id":"levelo_inurba_marseille","lat":43.21219,"lon":5.35074,"is_reserved":false,"is_disabled":false,"rental_uris":{"android":"levelo://app?vid=d8d27387-fb66-4c0a-90dc-eef7a69dc87d","ios":"levelo://app?vid=d8d27387-fb66-4c0a-90dc-eef7a69dc87d"},"vehicle_type_id":"4","last_reported":1745388896,"current_range_meters":8000,"station_id":"ce4bgh92rcd13ifvqb40","pricing_plan_id":"cebpf4jnsgd1na2vs0mg"},{"bike_id":"0d1ebedd-3512-4ce4-87fe-745c17edfd96","system_id":"levelo_inurba_marseille","lat":43.27884,"lon":5.35449,"is_reserved":false,"is_disabled":true,"rental_uris":{"android":"levelo://app?vid=0d1ebedd-3512-4ce4-87fe-745c17edfd96","ios":"levelo://app?vid=0d1ebedd-3512-4ce4-87fe-745c17edfd96"},"vehicle_type_id":"4","last_reported":1745388896,"current_range_meters":8400,"station_id":"","pricing_plan_id":"cebpf4jnsgd1na2vs0mg"},{"bike_id":"5bee9c12-7749-49d7-9607-c244324e7c21","system_id":"levelo_inurba_marseille","lat":43.32286,"lon":5.38283,"is_reserved":false,"is_disabled":false,"rental_uris":{"android":"levelo://app?vid=5bee9c12-7749-49d7-9607-c244324e7c21","ios":"levelo://app?vid=5bee9c12-7749-49d7-9607-c244324e7c21"},"vehicle_type_id":"4","last_reported":1745388896,"current_range_meters":8000,"station_id":"ce4bhr12rcd13ifvqhqg","pricing_plan_id":"cebpf4jnsgd1na2vs0mg"},{"bike_id":"0416ed41-a616-445a-a5ab-2ecd2c0439a2","system_id":"levelo_inurba_marseille","lat":43.24076,"lon":5.37746,"is_reserved":false,"is_disabled":false,"rental_uris":{"android":"levelo://app?vid=0416ed41-a616-445a-a5ab-2ecd2c0439a2","ios":"levelo://app?vid=0416ed41-a616-445a-a5ab-2ecd2c0439a2"},"vehicle_type_id":"4","last_reported":1745388896,"current_range_meters":8400,"station_id":"ce4bhnp2rcd13ifvqgvg","pricing_plan_id":"cebpf4jnsgd1na2vs0mg"},{"bike_id":"d5fa6a7e-ae6f-48cd-8dc8-6ec1473fc099","system_id":"levelo_inurba_marseille","lat":43.31341,"lon":5.36739,"is_reserved":false,"is_disabled":true,"rental_uris":{"android":"levelo://app?vid=d5fa6a7e-ae6f-48cd-8dc8-6ec1473fc099","ios":"levelo://app?vid=d5fa6a7e-ae6f-48cd-8dc8-6ec1473fc099"},"vehicle_type_id":"4","last_reported":1745388896,"current_range_meters":8400,"station_id":"ce4bgr92rcd13ifvqc6g","pricing_plan_id":"cebpf4jnsgd1na2vs0mg"},{"bike_id":"be559e14-9ce2-4f4e-9db1-4335f84b15d8","system_id":"levelo_inurba_marseille","lat":43.24075,"lon":5.37764,"is_reserved":false,"is_disabled":false,"rental_uris":{"android":"levelo://app?vid=be559e14-9ce2-4f4e-9db1-4335f84b15d8","ios":"levelo://app?vid=be559e14-9ce2-4f4e-9db1-4335f84b15d8"},"vehicle_type_id":"4","last_reported":1745388896,"current_range_meters":8400,"station_id":"ce4bhnp2rcd13ifvqgvg","pricing_plan_id":"cebpf4jnsgd1na2vs0mg"},{"bike_id":"f416d0ef-f853-49ab-9358-9525a7ed6c57","system_id":"levelo_inurba_marseille","lat":43.31949,"lon":5.38155,"is_reserved":false,"is_disabled":false,"rental_uris":{"android":"levelo://app?vid=f416d0ef-f853-49ab-9358-9525a7ed6c57","ios":"levelo://app?vid=f416d0ef-f853-49ab-9358-9525a7ed6c57"},"vehicle_type_id":"4","last_reported":1745388896,"current_range_meters":8800,"station_id":"","pricing_plan_id":"cebpf4jnsgd1na2vs0mg"},{"bike_id":"2bdf03a8-003d-4fa3-a85d-33448ab28e22","system_id":"levelo_inurba_marseille","lat":43.31691,"lon":5.40468,"is_reserved":false,"is_disabled":false,"rental_uris":{"android":"levelo://app?vid=2bdf03a8-003d-4fa3-a85d-33448ab28e22","ios":"levelo://app?vid=2bdf03a8-003d-4fa3-a85d-33448ab28e22"},"vehicle_type_id":"4","last_reported":1745388896,"current_range_meters":8400,"station_id":"ce4bh012rcd13ifvqd00","pricing_plan_id":"cebpf4jnsgd1na2vs0mg"},{"bike_id":"9f3dcdbf-401c-4040-b227-82887a8e2174","system_id":"levelo_inurba_marseille","lat":43.2749,"lon":5.4247,"is_reserved":false,"is_disabled":false,"rental_uris":{"android":"levelo://app?vid=9f3dcdbf-401c-4040-b227-82887a8e2174","ios":"levelo://app?vid=9f3dcdbf-401c-4040-b227-82887a8e2174"},"vehicle_type_id":"4","last_reported":1745388896,"current_range_meters":9200,"station_id":"ce4bhn92rcd13ifvqgrg","pricing_plan_id":"cebpf4jnsgd1na2vs0mg"},{"bike_id":"9955afde-6d4b-4dfb-9249-7e1b507b3c52","system_id":"levelo_inurba_marseille","lat":43.25087,"lon":5.39532,"is_reserved":false,"is_disabled":false,"rental_uris":{"android":"levelo://app?vid=9955afde-6d4b-4dfb-9249-7e1b507b3c52","ios":"levelo://app?vid=9955afde-6d4b-4dfb-9249-7e1b507b3c52"},"vehicle_type_id":"4","last_reported":1745388896,"current_range_meters":9200,"station_id":"ce4bhm12rcd13ifvqgkg","pricing_plan_id":"cebpf4jnsgd1na2vs0mg"},{"bike_id":"f1300840-291d-4ece-a09c-172514b0678c","system_id":"levelo_inurba_marseille","lat":43.294438,"lon":5.397668,"is_reserved":false,"is_disabled":true,"rental_uris":{"android":"levelo://app?vid=f1300840-291d-4ece-a09c-172514b0678c","ios":"levelo://app?vid=f1300840-291d-4ece-a09c-172514b0678c"},"vehicle_type_id":"4","last_reported":1745388896,"current_range_meters":9200,"station_id":"ce4bh3h2rcd13ifvqdo0","pricing_plan_id":"cebpf4jnsgd1na2vs0mg"},{"bike_id":"feaef43a-fb82-4ca7-8935-c4423ef8e2cb","system_id":"levelo_inurba_marseille","lat":43.28947,"lon":5.36637,"is_reserved":false,"is_disabled":false,"rental_uris":{"android":"levelo://app?vid=feaef43a-fb82-4ca7-8935-c4423ef8e2cb","ios":"levelo://app?vid=feaef43a-fb82-4ca7-8935-c4423ef8e2cb"},"vehicle_type_id":"4","last_reported":1745388896,"current_range_meters":9200,"station_id":"ce4bhap2rcd13ifvqek0","pricing_plan_id":"cebpf4jnsgd1na2vs0mg"},{"bike_id":"70010ffd-0fae-4563-9486-f54ed377fe6f","system_id":"levelo_inurba_marseille","lat":43.30481,"lon":5.37907,"is_reserved":false,"is_disabled":false,"rental_uris":{"android":"levelo://app?vid=70010ffd-0fae-4563-9486-f54ed377fe6f","ios":"levelo://app?vid=70010ffd-0fae-4563-9486-f54ed377fe6f"},"vehicle_type_id":"4","last_reported":1745388896,"current_range_meters":9200,"station_id":"ce4bgup2rcd13ifvqcn0","pricing_plan_id":"cebpf4jnsgd1na2vs0mg"},{"bike_id":"cde58abb-e471-49a0-b5b1-fcfce4e67920","system_id":"levelo_inurba_marseille","lat":43.32,"lon":5.38163,"is_reserved":false,"is_disabled":false,"rental_uris":{"android":"levelo://app?vid=cde58abb-e471-49a0-b5b1-fcfce4e67920","ios":"levelo://app?vid=cde58abb-e471-49a0-b5b1-fcfce4e67920"},"vehicle_type_id":"4","last_reported":1745388896,"current_range_meters":9200,"station_id":"ce4bhr12rcd13ifvqhpg","pricing_plan_id":"cebpf4jnsgd1na2vs0mg"},{"bike_id":"eb7da16d-13f0-45cb-8062-6534332098de","system_id":"levelo_inurba_marseille","lat":43.265765,"lon":5.390278,"is_reserved":false,"is_disabled":false,"rental_uris":{"android":"levelo://app?vid=eb7da16d-13f0-45cb-8062-6534332098de","ios":"levelo://app?vid=eb7da16d-13f0-45cb-8062-6534332098de"},"vehicle_type_id":"4","last_reported":1745388896,"current_range_meters":9200,"station_id":"ce4bhgp2rcd13ifvqfd0","pricing_plan_id":"cebpf4jnsgd1na2vs0mg"},{"bike_id":"f4eff42c-c8d7-4bdf-ad15-bf561f469228","system_id":"levelo_inurba_marseille","lat":43.29034,"lon":5.39969,"is_reserved":false,"is_disabled":false,"rental_uris":{"android":"levelo://app?vid=f4eff42c-c8d7-4bdf-ad15-bf561f469228","ios":"levelo://app?vid=f4eff42c-c8d7-4bdf-ad15-bf561f469228"},"vehicle_type_id":"4","last_reported":1745388896,"current_range_meters":9600,"station_id":"ce4bh392rcd13ifvqdm0","pricing_plan_id":"cebpf4jnsgd1na2vs0mg"},{"bike_id":"78d85bf4-eb84-4474-a60f-8ead863e9ea8","system_id":"levelo_inurba_marseille","lat":43.25727,"lon":5.41115,"is_reserved":false,"is_disabled":false,"rental_uris":{"android":"levelo://app?vid=78d85bf4-eb84-4474-a60f-8ead863e9ea8","ios":"levelo://app?vid=78d85bf4-eb84-4474-a60f-8ead863e9ea8"},"vehicle_type_id":"4","last_reported":1745388896,"current_range_meters":9200,"station_id":"ce4bhkp2rcd13ifvqgd0","pricing_plan_id":"cebpf4jnsgd1na2vs0mg"},{"bike_id":"b8cfef2f-049b-4f5b-9246-18214c8511f6","system_id":"levelo_inurba_marseille","lat":43.279884,"lon":5.400168,"is_reserved":false,"is_disabled":false,"rental_uris":{"android":"levelo://app?vid=b8cfef2f-049b-4f5b-9246-18214c8511f6","ios":"levelo://app?vid=b8cfef2f-049b-4f5b-9246-18214c8511f6"},"vehicle_type_id":"4","last_reported":1745388896,"current_range_meters":9600,"station_id":"ce4bho92rcd13ifvqh4g","pricing_plan_id":"cebpf4jnsgd1na2vs0mg"},{"bike_id":"19fad205-38cb-4e39-b394-f40670b19a74","system_id":"levelo_inurba_marseille","lat":43.30151,"lon":5.38075,"is_reserved":false,"is_disabled":false,"rental_uris":{"android":"levelo://app?vid=19fad205-38cb-4e39-b394-f40670b19a74","ios":"levelo://app?vid=19fad205-38cb-4e39-b394-f40670b19a74"},"vehicle_type_id":"4","last_reported":1745388896,"current_range_meters":9600,"station_id":"ce4bgjp2rcd13ifvqbh0","pricing_plan_id":"cebpf4jnsgd1na2vs0mg"},{"bike_id":"47768a28-4fff-4fc1-b4c4-b5ec8d452deb","system_id":"levelo_inurba_marseille","lat":43.29619,"lon":5.38114,"is_reserved":false,"is_disabled":true,"rental_uris":{"android":"levelo://app?vid=47768a28-4fff-4fc1-b4c4-b5ec8d452deb","ios":"levelo://app?vid=47768a28-4fff-4fc1-b4c4-b5ec8d452deb"},"vehicle_type_id":"4","last_reported":1745388896,"current_range_meters":9600,"station_id":"ce4bgl12rcd13ifvqbo0","pricing_plan_id":"cebpf4jnsgd1na2vs0mg"},{"bike_id":"df1494b4-97ff-4238-a115-ce04fe382692","system_id":"levelo_inurba_marseille","lat":43.30425,"lon":5.39776,"is_reserved":false,"is_disabled":false,"rental_uris":{"android":"levelo://app?vid=df1494b4-97ff-4238-a115-ce04fe382692","ios":"levelo://app?vid=df1494b4-97ff-4238-a115-ce04fe382692"},"vehicle_type_id":"4","last_reported":1745388896,"current_range_meters":9200,"station_id":"ce4bh092rcd13ifvqd20","pricing_plan_id":"cebpf4jnsgd1na2vs0mg"},{"bike_id":"48939965-4329-495f-a3f1-b5cf562d2ecf","system_id":"levelo_inurba_marseille","lat":43.30648,"lon":5.40106,"is_reserved":false,"is_disabled":true,"rental_uris":{"android":"levelo://app?vid=48939965-4329-495f-a3f1-b5cf562d2ecf","ios":"levelo://app?vid=48939965-4329-495f-a3f1-b5cf562d2ecf"},"vehicle_type_id":"4","last_reported":1745388896,"current_range_meters":9600,"station_id":"","pricing_plan_id":"cebpf4jnsgd1na2vs0mg"},{"bike_id":"ecd9c509-3120-4166-8927-f60518d66aaa","system_id":"levelo_inurba_marseille","lat":43.29534,"lon":5.39419,"is_reserved":false,"is_disabled":false,"rental_uris":{"android":"levelo://app?vid=ecd9c509-3120-4166-8927-f60518d66aaa","ios":"levelo://app?vid=ecd9c509-3120-4166-8927-f60518d66aaa"},"vehicle_type_id":"4","last_reported":1745388896,"current_range_meters":9600,"station_id":"ce4bh292rcd13ifvqdf0","pricing_plan_id":"cebpf4jnsgd1na2vs0mg"},{"bike_id":"63562fcd-f021-4cd8-907f-3839cdb843eb","system_id":"levelo_inurba_marseille","lat":43.29976,"lon":5.37184,"is_reserved":false,"is_disabled":false,"rental_uris":{"android":"levelo://app?vid=63562fcd-f021-4cd8-907f-3839cdb843eb","ios":"levelo://app?vid=63562fcd-f021-4cd8-907f-3839cdb843eb"},"vehicle_type_id":"4","last_reported":1745388896,"current_range_meters":9200,"station_id":"ce4bgr92rcd13ifvqc7g","pricing_plan_id":"cebpf4jnsgd1na2vs0mg"},{"bike_id":"ae2462e3-d741-44b9-8175-77a134aeac56","system_id":"levelo_inurba_marseille","lat":43.27962,"lon":5.38702,"is_reserved":false,"is_disabled":true,"rental_uris":{"android":"levelo://app?vid=ae2462e3-d741-44b9-8175-77a134aeac56","ios":"levelo://app?vid=ae2462e3-d741-44b9-8175-77a134aeac56"},"vehicle_type_id":"4","last_reported":1745388896,"current_range_meters":10000,"station_id":"ce4bhg12rcd13ifvqf80","pricing_plan_id":"cebpf4jnsgd1na2vs0mg"},{"bike_id":"8da45441-0f39-4665-ba43-cdfddf67fe67","system_id":"levelo_inurba_marseille","lat":43.32998,"lon":5.43859,"is_reserved":false,"is_disabled":false,"rental_uris":{"android":"levelo://app?vid=8da45441-0f39-4665-ba43-cdfddf67fe67","ios":"levelo://app?vid=8da45441-0f39-4665-ba43-cdfddf67fe67"},"vehicle_type_id":"4","last_reported":1745388896,"current_range_meters":10000,"station_id":"","pricing_plan_id":"cebpf4jnsgd1na2vs0mg"},{"bike_id":"a756bae3-49c1-4d6c-89e8-fcb7b0e7d2e2","system_id":"levelo_inurba_marseille","lat":43.29044,"lon":5.3591,"is_reserved":false,"is_disabled":true,"rental_uris":{"android":"levelo://app?vid=a756bae3-49c1-4d6c-89e8-fcb7b0e7d2e2","ios":"levelo://app?vid=a756bae3-49c1-4d6c-89e8-fcb7b0e7d2e2"},"vehicle_type_id":"4","last_reported":1745388896,"current_range_meters":10000,"station_id":"ce4bha92rcd13ifvqeg0","pricing_plan_id":"cebpf4jnsgd1na2vs0mg"},{"bike_id":"a3635f58-157e-4dba-80d3-dff082e278ab","system_id":"levelo_inurba_marseille","lat":43.27485,"lon":5.4246,"is_reserved":false,"is_disabled":false,"rental_uris":{"android":"levelo://app?vid=a3635f58-157e-4dba-80d3-dff082e278ab","ios":"levelo://app?vid=a3635f58-157e-4dba-80d3-dff082e278ab"},"vehicle_type_id":"4","last_reported":1745388896,"current_range_meters":10000,"station_id":"ce4bhn92rcd13ifvqgrg","pricing_plan_id":"cebpf4jnsgd1na2vs0mg"},{"bike_id":"590686bb-112a-4929-ba8c-c773e81c2138","system_id":"levelo_inurba_marseille","lat":43.23196,"lon":5.35557,"is_reserved":false,"is_disabled":false,"rental_uris":{"android":"levelo://app?vid=590686bb-112a-4929-ba8c-c773e81c2138","ios":"levelo://app?vid=590686bb-112a-4929-ba8c-c773e81c2138"},"vehicle_type_id":"4","last_reported":1745388896,"current_range_meters":10000,"station_id":"ce4bhu92rcd13ifvqi70","pricing_plan_id":"cebpf4jnsgd1na2vs0mg"},{"bike_id":"8d7533b3-5585-4b66-b684-60807f9907c2","system_id":"levelo_inurba_marseille","lat":43.28846,"lon":5.35845,"is_reserved":false,"is_disabled":false,"rental_uris":{"android":"levelo://app?vid=8d7533b3-5585-4b66-b684-60807f9907c2","ios":"levelo://app?vid=8d7533b3-5585-4b66-b684-60807f9907c2"},"vehicle_type_id":"4","last_reported":1745388896,"current_range_meters":10000,"station_id":"ce4bhb12rcd13ifvqem0","pricing_plan_id":"cebpf4jnsgd1na2vs0mg"},{"bike_id":"1421ea77-9b68-4145-8249-126ff866c0b3","system_id":"levelo_inurba_marseille","lat":43.31484,"lon":5.37312,"is_reserved":false,"is_disabled":false,"rental_uris":{"android":"levelo://app?vid=1421ea77-9b68-4145-8249-126ff866c0b3","ios":"levelo://app?vid=1421ea77-9b68-4145-8249-126ff866c0b3"},"vehicle_type_id":"4","last_reported":1745388896,"current_range_meters":10000,"station_id":"ce4bgt12rcd13ifvqcd0","pricing_plan_id":"cebpf4jnsgd1na2vs0mg"},{"bike_id":"49c0f902-eac7-4a79-adf0-d142aff51e11","system_id":"levelo_inurba_marseille","lat":43.24167,"lon":5.36397,"is_reserved":false,"is_disabled":false,"rental_uris":{"android":"levelo://app?vid=49c0f902-eac7-4a79-adf0-d142aff51e11","ios":"levelo://app?vid=49c0f902-eac7-4a79-adf0-d142aff51e11"},"vehicle_type_id":"4","last_reported":1745388896,"current_range_meters":10000,"station_id":"cpo36qri1sfpv3e86is0","pricing_plan_id":"cebpf4jnsgd1na2vs0mg"},{"bike_id":"4ffb491f-099a-46f4-b062-324b1005b615","system_id":"levelo_inurba_marseille","lat":43.31076,"lon":5.38368,"is_reserved":false,"is_disabled":false,"rental_uris":{"android":"levelo://app?vid=4ffb491f-099a-46f4-b062-324b1005b615","ios":"levelo://app?vid=4ffb491f-099a-46f4-b062-324b1005b615"},"vehicle_type_id":"4","last_reported":1745388896,"current_range_meters":10000,"station_id":"ce4bgv92rcd13ifvqcr0","pricing_plan_id":"cebpf4jnsgd1na2vs0mg"},{"bike_id":"a905d545-8ca4-46eb-9c30-f21168e7e6ed","system_id":"levelo_inurba_marseille","lat":43.2903,"lon":5.38143,"is_reserved":false,"is_disabled":false,"rental_uris":{"android":"levelo://app?vid=a905d545-8ca4-46eb-9c30-f21168e7e6ed","ios":"levelo://app?vid=a905d545-8ca4-46eb-9c30-f21168e7e6ed"},"vehicle_type_id":"4","last_reported":1745388896,"current_range_meters":10000,"station_id":"ce4bh4p2rcd13ifvqe1g","pricing_plan_id":"cebpf4jnsgd1na2vs0mg"},{"bike_id":"85804566-32d6-4de5-bd67-1a2d8b6b5f81","system_id":"levelo_inurba_marseille","lat":43.24551,"lon":5.39532,"is_reserved":false,"is_disabled":false,"rental_uris":{"android":"levelo://app?vid=85804566-32d6-4de5-bd67-1a2d8b6b5f81","ios":"levelo://app?vid=85804566-32d6-4de5-bd67-1a2d8b6b5f81"},"vehicle_type_id":"4","last_reported":1745388896,"current_range_meters":10800,"station_id":"ce4bhlp2rcd13ifvqgjg","pricing_plan_id":"cebpf4jnsgd1na2vs0mg"},{"bike_id":"476a9fe5-6154-4202-b562-28b0995b6b4c","system_id":"levelo_inurba_marseille","lat":43.2318,"lon":5.40032,"is_reserved":false,"is_disabled":false,"rental_uris":{"android":"levelo://app?vid=476a9fe5-6154-4202-b562-28b0995b6b4c","ios":"levelo://app?vid=476a9fe5-6154-4202-b562-28b0995b6b4c"},"vehicle_type_id":"4","last_reported":1745388896,"current_range_meters":10800,"station_id":"ce4bhn12rcd13ifvqgqg","pricing_plan_id":"cebpf4jnsgd1na2vs0mg"},{"bike_id":"c7a5824e-86da-4bde-aa00-c6272959d963","system_id":"levelo_inurba_marseille","lat":43.27829,"lon":5.39215,"is_reserved":false,"is_disabled":false,"rental_uris":{"android":"levelo://app?vid=c7a5824e-86da-4bde-aa00-c6272959d963","ios":"levelo://app?vid=c7a5824e-86da-4bde-aa00-c6272959d963"},"vehicle_type_id":"4","last_reported":1745388896,"current_range_meters":10800,"station_id":"ce4bhjp2rcd13ifvqga0","pricing_plan_id":"cebpf4jnsgd1na2vs0mg"},{"bike_id":"34765864-4cc3-4f52-be10-bf93e43415d4","system_id":"levelo_inurba_marseille","lat":43.28152,"lon":5.42646,"is_reserved":false,"is_disabled":false,"rental_uris":{"android":"levelo://app?vid=34765864-4cc3-4f52-be10-bf93e43415d4","ios":"levelo://app?vid=34765864-4cc3-4f52-be10-bf93e43415d4"},"vehicle_type_id":"4","last_reported":1745388896,"current_range_meters":10000,"station_id":"ce4bhnh2rcd13ifvqgug","pricing_plan_id":"cebpf4jnsgd1na2vs0mg"},{"bike_id":"c3627e7a-3d11-4e90-adde-cd92e1e47fc2","system_id":"levelo_inurba_marseille","lat":43.29599,"lon":5.38111,"is_reserved":false,"is_disabled":false,"rental_uris":{"android":"levelo://app?vid=c3627e7a-3d11-4e90-adde-cd92e1e47fc2","ios":"levelo://app?vid=c3627e7a-3d11-4e90-adde-cd92e1e47fc2"},"vehicle_type_id":"4","last_reported":1745388896,"current_range_meters":11200,"station_id":"ce4bgl12rcd13ifvqbo0","pricing_plan_id":"cebpf4jnsgd1na2vs0mg"},{"bike_id":"caccf6b1-eff9-41fc-9278-5e6f421f5468","system_id":"levelo_inurba_marseille","lat":43.28415,"lon":5.35,"is_reserved":false,"is_disabled":false,"rental_uris":{"android":"levelo://app?vid=caccf6b1-eff9-41fc-9278-5e6f421f5468","ios":"levelo://app?vid=caccf6b1-eff9-41fc-9278-5e6f421f5468"},"vehicle_type_id":"4","last_reported":1745388896,"current_range_meters":11200,"station_id":"ce4bhbh2rcd13ifvqepg","pricing_plan_id":"cebpf4jnsgd1na2vs0mg"},{"bike_id":"65d056eb-b2cb-4291-afd1-bd505cd7eb3f","system_id":"levelo_inurba_marseille","lat":43.30947,"lon":5.39035,"is_reserved":false,"is_disabled":false,"rental_uris":{"android":"levelo://app?vid=65d056eb-b2cb-4291-afd1-bd505cd7eb3f","ios":"levelo://app?vid=65d056eb-b2cb-4291-afd1-bd505cd7eb3f"},"vehicle_type_id":"4","last_reported":1745388896,"current_range_meters":10800,"station_id":"ce4bgup2rcd13ifvqco0","pricing_plan_id":"cebpf4jnsgd1na2vs0mg"},{"bike_id":"378d59fa-5c4d-475a-ab80-86c54755eb3c","system_id":"levelo_inurba_marseille","lat":43.30439,"lon":5.37919,"is_reserved":false,"is_disabled":false,"rental_uris":{"android":"levelo://app?vid=378d59fa-5c4d-475a-ab80-86c54755eb3c","ios":"levelo://app?vid=378d59fa-5c4d-475a-ab80-86c54755eb3c"},"vehicle_type_id":"4","last_reported":1745388896,"current_range_meters":11600,"station_id":"ce4bgup2rcd13ifvqcn0","pricing_plan_id":"cebpf4jnsgd1na2vs0mg"},{"bike_id":"678d1ff2-b92f-437a-a478-0a2f054c08e9","system_id":"levelo_inurba_marseille","lat":43.30337,"lon":5.36855,"is_reserved":false,"is_disabled":false,"rental_uris":{"android":"levelo://app?vid=678d1ff2-b92f-437a-a478-0a2f054c08e9","ios":"levelo://app?vid=678d1ff2-b92f-437a-a478-0a2f054c08e9"},"vehicle_type_id":"4","last_reported":1745388896,"current_range_meters":11600,"station_id":"","pricing_plan_id":"cebpf4jnsgd1na2vs0mg"},{"bike_id":"f2f5e38b-d017-4839-98b9-000d8a514893","system_id":"levelo_inurba_marseille","lat":43.306015,"lon":5.372265,"is_reserved":false,"is_disabled":false,"rental_uris":{"android":"levelo://app?vid=f2f5e38b-d017-4839-98b9-000d8a514893","ios":"levelo://app?vid=f2f5e38b-d017-4839-98b9-000d8a514893"},"vehicle_type_id":"4","last_reported":1745388896,"current_range_meters":11200,"station_id":"ce4bgqh2rcd13ifvqc4g","pricing_plan_id":"cebpf4jnsgd1na2vs0mg"},{"bike_id":"ad4da016-5e66-4f52-8d24-42e525173de5","system_id":"levelo_inurba_marseille","lat":43.26684,"lon":5.38273,"is_reserved":false,"is_disabled":false,"rental_uris":{"android":"levelo://app?vid=ad4da016-5e66-4f52-8d24-42e525173de5","ios":"levelo://app?vid=ad4da016-5e66-4f52-8d24-42e525173de5"},"vehicle_type_id":"4","last_reported":1745388896,"current_range_meters":11600,"station_id":"ce4bhg92rcd13ifvqf90","pricing_plan_id":"cebpf4jnsgd1na2vs0mg"},{"bike_id":"19898917-1f1e-4f64-b433-e7ccb2d7e358","system_id":"levelo_inurba_marseille","lat":43.27495,"lon":5.42463,"is_reserved":false,"is_disabled":false,"rental_uris":{"android":"levelo://app?vid=19898917-1f1e-4f64-b433-e7ccb2d7e358","ios":"levelo://app?vid=19898917-1f1e-4f64-b433-e7ccb2d7e358"},"vehicle_type_id":"4","last_reported":1745388896,"current_range_meters":12000,"station_id":"ce4bhn92rcd13ifvqgrg","pricing_plan_id":"cebpf4jnsgd1na2vs0mg"},{"bike_id":"3c1873a4-9e57-4613-8a83-980a19fe39b8","system_id":"levelo_inurba_marseille","lat":43.34142,"lon":5.40906,"is_reserved":false,"is_disabled":false,"rental_uris":{"android":"levelo://app?vid=3c1873a4-9e57-4613-8a83-980a19fe39b8","ios":"levelo://app?vid=3c1873a4-9e57-4613-8a83-980a19fe39b8"},"vehicle_type_id":"4","last_reported":1745388896,"current_range_meters":11600,"station_id":"ce4bhqh2rcd13ifvqhlg","pricing_plan_id":"cebpf4jnsgd1na2vs0mg"},{"bike_id":"c74c4806-b340-4b33-a8ef-ae1db8d6c100","system_id":"levelo_inurba_marseille","lat":43.283456,"lon":5.380985,"is_reserved":false,"is_disabled":false,"rental_uris":{"android":"levelo://app?vid=c74c4806-b340-4b33-a8ef-ae1db8d6c100","ios":"levelo://app?vid=c74c4806-b340-4b33-a8ef-ae1db8d6c100"},"vehicle_type_id":"4","last_reported":1745388896,"current_range_meters":12000,"station_id":"ce4bhnp2rcd13ifvqgvg","pricing_plan_id":"cebpf4jnsgd1na2vs0mg"},{"bike_id":"036edf9e-bc04-4720-8c51-e3084a4443eb","system_id":"levelo_inurba_marseille","lat":43.240728,"lon":5.377625,"is_reserved":false,"is_disabled":false,"rental_uris":{"android":"levelo://app?vid=036edf9e-bc04-4720-8c51-e3084a4443eb","ios":"levelo://app?vid=036edf9e-bc04-4720-8c51-e3084a4443eb"},"vehicle_type_id":"4","last_reported":1745388896,"current_range_meters":12400,"station_id":"ce4bhap2rcd13ifvqek0","pricing_plan_id":"cebpf4jnsgd1na2vs0mg"},{"bike_id":"a6e7893a-fdbe-4af5-b773-120d2288126f","system_id":"levelo_inurba_marseille","lat":43.24179,"lon":5.39731,"is_reserved":false,"is_disabled":false,"rental_uris":{"android":"levelo://app?vid=a6e7893a-fdbe-4af5-b773-120d2288126f","ios":"levelo://app?vid=a6e7893a-fdbe-4af5-b773-120d2288126f"},"vehicle_type_id":"4","last_reported":1745388896,"current_range_meters":12400,"station_id":"ce4bhn12rcd13ifvqgpg","pricing_plan_id":"cebpf4jnsgd1na2vs0mg"},{"bike_id":"d31fa084-bc85-41c7-8c70-f0f9d2738b6a","system_id":"levelo_inurba_marseille","lat":43.28142,"lon":5.42629,"is_reserved":false,"is_disabled":false,"rental_uris":{"android":"levelo://app?vid=d31fa084-bc85-41c7-8c70-f0f9d2738b6a","ios":"levelo://app?vid=d31fa084-bc85-41c7-8c70-f0f9d2738b6a"},"vehicle_type_id":"4","last_reported":1745388896,"current_range_meters":12400,"station_id":"ce4bhnh2rcd13ifvqgug","pricing_plan_id":"cebpf4jnsgd1na2vs0mg"},{"bike_id":"761ae269-6b1f-4092-8e33-c55e4d5d8dff","system_id":"levelo_inurba_marseille","lat":43.22927,"lon":5.35378,"is_reserved":false,"is_disabled":false,"rental_uris":{"android":"levelo://app?vid=761ae269-6b1f-4092-8e33-c55e4d5d8dff","ios":"levelo://app?vid=761ae269-6b1f-4092-8e33-c55e4d5d8dff"},"vehicle_type_id":"4","last_reported":1745388896,"current_range_meters":12400,"station_id":"cpo3532slgdg3j2ikp40","pricing_plan_id":"cebpf4jnsgd1na2vs0mg"},{"bike_id":"895e2774-83ed-45d3-ac91-c323553e326f","system_id":"levelo_inurba_marseille","lat":43.27495,"lon":5.42469,"is_reserved":false,"is_disabled":false,"rental_uris":{"android":"levelo://app?vid=895e2774-83ed-45d3-ac91-c323553e326f","ios":"levelo://app?vid=895e2774-83ed-45d3-ac91-c323553e326f"},"vehicle_type_id":"4","last_reported":1745388896,"current_range_meters":12400,"station_id":"ce4bhn92rcd13ifvqgrg","pricing_plan_id":"cebpf4jnsgd1na2vs0mg"},{"bike_id":"df6ffc41-ed4d-4c2c-af47-12b33fc50735","system_id":"levelo_inurba_marseille","lat":43.25114,"lon":5.40353,"is_reserved":false,"is_disabled":false,"rental_uris":{"android":"levelo://app?vid=df6ffc41-ed4d-4c2c-af47-12b33fc50735","ios":"levelo://app?vid=df6ffc41-ed4d-4c2c-af47-12b33fc50735"},"vehicle_type_id":"4","last_reported":1745388896,"current_range_meters":12800,"station_id":"ce4bhlh2rcd13ifvqgig","pricing_plan_id":"cebpf4jnsgd1na2vs0mg"},{"bike_id":"abd226a8-d003-4133-b9d2-b7c952b7ead1","system_id":"levelo_inurba_marseille","lat":43.2306,"lon":5.35495,"is_reserved":false,"is_disabled":false,"rental_uris":{"android":"levelo://app?vid=abd226a8-d003-4133-b9d2-b7c952b7ead1","ios":"levelo://app?vid=abd226a8-d003-4133-b9d2-b7c952b7ead1"},"vehicle_type_id":"4","last_reported":1745388896,"current_range_meters":13600,"station_id":"cpo3342slgdg3j2ifvpg","pricing_plan_id":"cebpf4jnsgd1na2vs0mg"},{"bike_id":"07d6c779-b747-416b-9c9d-8810ec51503f","system_id":"levelo_inurba_marseille","lat":43.27205,"lon":5.391849,"is_reserved":false,"is_disabled":false,"rental_uris":{"android":"levelo://app?vid=07d6c779-b747-416b-9c9d-8810ec51503f","ios":"levelo://app?vid=07d6c779-b747-416b-9c9d-8810ec51503f"},"vehicle_type_id":"4","last_reported":1745388896,"current_range_meters":14000,"station_id":"ce4bhgp2rcd13ifvqfd0","pricing_plan_id":"cebpf4jnsgd1na2vs0mg"},{"bike_id":"7c110556-51f7-4ebc-a93b-d3e946a92a50","system_id":"levelo_inurba_marseille","lat":43.31713,"lon":5.43708,"is_reserved":false,"is_disabled":false,"rental_uris":{"android":"levelo://app?vid=7c110556-51f7-4ebc-a93b-d3e946a92a50","ios":"levelo://app?vid=7c110556-51f7-4ebc-a93b-d3e946a92a50"},"vehicle_type_id":"4","last_reported":1745388896,"current_range_meters":14000,"station_id":"ce4bhp92rcd13ifvqhcg","pricing_plan_id":"cebpf4jnsgd1na2vs0mg"},{"bike_id":"b96d48d5-fc65-423b-9a30-5d2c864e8939","system_id":"levelo_inurba_marseille","lat":43.22523,"lon":5.34818,"is_reserved":false,"is_disabled":false,"rental_uris":{"android":"levelo://app?vid=b96d48d5-fc65-423b-9a30-5d2c864e8939","ios":"levelo://app?vid=b96d48d5-fc65-423b-9a30-5d2c864e8939"},"vehicle_type_id":"4","last_reported":1745388896,"current_range_meters":14400,"station_id":"st_cvj5dfep6f1abm77gieg","pricing_plan_id":"cebpf4jnsgd1na2vs0mg"},{"bike_id":"548a676c-6329-4f1b-a15f-51e09f419043","system_id":"levelo_inurba_marseille","lat":43.26949,"lon":5.38632,"is_reserved":false,"is_disabled":false,"rental_uris":{"android":"levelo://app?vid=548a676c-6329-4f1b-a15f-51e09f419043","ios":"levelo://app?vid=548a676c-6329-4f1b-a15f-51e09f419043"},"vehicle_type_id":"4","last_reported":1745388896,"current_range_meters":14400,"station_id":"ce4bhh92rcd13ifvqfh0","pricing_plan_id":"cebpf4jnsgd1na2vs0mg"},{"bike_id":"9c5758bf-33b5-4a52-afd2-c8734b4dca48","system_id":"levelo_inurba_marseille","lat":43.31062,"lon":5.38359,"is_reserved":false,"is_disabled":false,"rental_uris":{"android":"levelo://app?vid=9c5758bf-33b5-4a52-afd2-c8734b4dca48","ios":"levelo://app?vid=9c5758bf-33b5-4a52-afd2-c8734b4dca48"},"vehicle_type_id":"4","last_reported":1745388896,"current_range_meters":14400,"station_id":"ce4bgv92rcd13ifvqcr0","pricing_plan_id":"cebpf4jnsgd1na2vs0mg"},{"bike_id":"bac72351-a88e-4107-b318-edd11bc8f783","system_id":"levelo_inurba_marseille","lat":43.25937,"lon":5.40908,"is_reserved":false,"is_disabled":false,"rental_uris":{"android":"levelo://app?vid=bac72351-a88e-4107-b318-edd11bc8f783","ios":"levelo://app?vid=bac72351-a88e-4107-b318-edd11bc8f783"},"vehicle_type_id":"4","last_reported":1745388896,"current_range_meters":14400,"station_id":"ce4bhm92rcd13ifvqglg","pricing_plan_id":"cebpf4jnsgd1na2vs0mg"},{"bike_id":"1b903b38-38de-4714-9a2c-59836acfa168","system_id":"levelo_inurba_marseille","lat":43.31716,"lon":5.43693,"is_reserved":false,"is_disabled":true,"rental_uris":{"android":"levelo://app?vid=1b903b38-38de-4714-9a2c-59836acfa168","ios":"levelo://app?vid=1b903b38-38de-4714-9a2c-59836acfa168"},"vehicle_type_id":"4","last_reported":1745388896,"current_range_meters":14400,"station_id":"ce4bhp92rcd13ifvqhcg","pricing_plan_id":"cebpf4jnsgd1na2vs0mg"},{"bike_id":"6b4e91fc-9e25-4641-b398-65073529ef99","system_id":"levelo_inurba_marseille","lat":43.26784,"lon":5.39413,"is_reserved":false,"is_disabled":false,"rental_uris":{"android":"levelo://app?vid=6b4e91fc-9e25-4641-b398-65073529ef99","ios":"levelo://app?vid=6b4e91fc-9e25-4641-b398-65073529ef99"},"vehicle_type_id":"4","last_reported":1745388896,"current_range_meters":14800,"station_id":"ce4bhh12rcd13ifvqfg0","pricing_plan_id":"cebpf4jnsgd1na2vs0mg"},{"bike_id":"d8ef3988-002f-42dc-b706-ecebe9835e72","system_id":"levelo_inurba_marseille","lat":43.29891,"lon":5.43666,"is_reserved":false,"is_disabled":false,"rental_uris":{"android":"levelo://app?vid=d8ef3988-002f-42dc-b706-ecebe9835e72","ios":"levelo://app?vid=d8ef3988-002f-42dc-b706-ecebe9835e72"},"vehicle_type_id":"4","last_reported":1745388896,"current_range_meters":15200,"station_id":"ce4bhpp2rcd13ifvqhfg","pricing_plan_id":"cebpf4jnsgd1na2vs0mg"},{"bike_id":"9f2e2972-dc86-4c24-8a83-22c0ee111c3e","system_id":"levelo_inurba_marseille","lat":43.31225,"lon":5.36865,"is_reserved":false,"is_disabled":true,"rental_uris":{"android":"levelo://app?vid=9f2e2972-dc86-4c24-8a83-22c0ee111c3e","ios":"levelo://app?vid=9f2e2972-dc86-4c24-8a83-22c0ee111c3e"},"vehicle_type_id":"4","last_reported":1745388896,"current_range_meters":15200,"station_id":"ce4bgl92rcd13ifvqbq0","pricing_plan_id":"cebpf4jnsgd1na2vs0mg"},{"bike_id":"a1835b16-9e05-4b53-baf5-10eeb04320bb","system_id":"levelo_inurba_marseille","lat":43.28706,"lon":5.37404,"is_reserved":false,"is_disabled":true,"rental_uris":{"android":"levelo://app?vid=a1835b16-9e05-4b53-baf5-10eeb04320bb","ios":"levelo://app?vid=a1835b16-9e05-4b53-baf5-10eeb04320bb"},"vehicle_type_id":"4","last_reported":1745388896,"current_range_meters":16000,"station_id":"ce4bh3p2rcd13ifvqdq0","pricing_plan_id":"cebpf4jnsgd1na2vs0mg"},{"bike_id":"c9fbd267-6461-49b6-bc49-a6bd29ccb0c5","system_id":"levelo_inurba_marseille","lat":43.31708,"lon":5.4045,"is_reserved":false,"is_disabled":false,"rental_uris":{"android":"levelo://app?vid=c9fbd267-6461-49b6-bc49-a6bd29ccb0c5","ios":"levelo://app?vid=c9fbd267-6461-49b6-bc49-a6bd29ccb0c5"},"vehicle_type_id":"4","last_reported":1745388896,"current_range_meters":16000,"station_id":"ce4bh012rcd13ifvqd00","pricing_plan_id":"cebpf4jnsgd1na2vs0mg"},{"bike_id":"d5f4c5fa-34de-4734-a385-9832564c68d8","system_id":"levelo_inurba_marseille","lat":43.3015,"lon":5.3808,"is_reserved":false,"is_disabled":false,"rental_uris":{"android":"levelo://app?vid=d5f4c5fa-34de-4734-a385-9832564c68d8","ios":"levelo://app?vid=d5f4c5fa-34de-4734-a385-9832564c68d8"},"vehicle_type_id":"4","last_reported":1745388896,"current_range_meters":16000,"station_id":"ce4bgjp2rcd13ifvqbh0","pricing_plan_id":"cebpf4jnsgd1na2vs0mg"},{"bike_id":"59cb0434-8790-4d26-b628-d1d8b5f30bdd","system_id":"levelo_inurba_marseille","lat":43.324808,"lon":5.365688,"is_reserved":false,"is_disabled":false,"rental_uris":{"android":"levelo://app?vid=59cb0434-8790-4d26-b628-d1d8b5f30bdd","ios":"levelo://app?vid=59cb0434-8790-4d26-b628-d1d8b5f30bdd"},"vehicle_type_id":"4","last_reported":1745388896,"current_range_meters":16000,"station_id":"ce4bhs12rcd13ifvqhvg","pricing_plan_id":"cebpf4jnsgd1na2vs0mg"},{"bike_id":"afc41356-a2b6-4fcb-a539-c3caa81c24b2","system_id":"levelo_inurba_marseille","lat":43.27495,"lon":5.42451,"is_reserved":false,"is_disabled":false,"rental_uris":{"android":"levelo://app?vid=afc41356-a2b6-4fcb-a539-c3caa81c24b2","ios":"levelo://app?vid=afc41356-a2b6-4fcb-a539-c3caa81c24b2"},"vehicle_type_id":"4","last_reported":1745388896,"current_range_meters":16000,"station_id":"ce4bhn92rcd13ifvqgrg","pricing_plan_id":"cebpf4jnsgd1na2vs0mg"},{"bike_id":"0007864b-2fb2-4d4d-9e60-0fc8831d63a6","system_id":"levelo_inurba_marseille","lat":43.3151,"lon":5.37319,"is_reserved":false,"is_disabled":false,"rental_uris":{"android":"levelo://app?vid=0007864b-2fb2-4d4d-9e60-0fc8831d63a6","ios":"levelo://app?vid=0007864b-2fb2-4d4d-9e60-0fc8831d63a6"},"vehicle_type_id":"4","last_reported":1745388896,"current_range_meters":16400,"station_id":"ce4bgt12rcd13ifvqcd0","pricing_plan_id":"cebpf4jnsgd1na2vs0mg"},{"bike_id":"0529d891-2d9b-4d93-af79-27336fdd5c7e","system_id":"levelo_inurba_marseille","lat":43.28039,"lon":5.36967,"is_reserved":false,"is_disabled":false,"rental_uris":{"android":"levelo://app?vid=0529d891-2d9b-4d93-af79-27336fdd5c7e","ios":"levelo://app?vid=0529d891-2d9b-4d93-af79-27336fdd5c7e"},"vehicle_type_id":"4","last_reported":1745388896,"current_range_meters":16400,"station_id":"ce4bha12rcd13ifvqef0","pricing_plan_id":"cebpf4jnsgd1na2vs0mg"},{"bike_id":"57456184-04bf-451c-bc20-99ab41be206e","system_id":"levelo_inurba_marseille","lat":43.32044,"lon":5.41561,"is_reserved":false,"is_disabled":false,"rental_uris":{"android":"levelo://app?vid=57456184-04bf-451c-bc20-99ab41be206e","ios":"levelo://app?vid=57456184-04bf-451c-bc20-99ab41be206e"},"vehicle_type_id":"4","last_reported":1745388896,"current_range_meters":16000,"station_id":"ce4bhq92rcd13ifvqhkg","pricing_plan_id":"cebpf4jnsgd1na2vs0mg"},{"bike_id":"a41bf6b9-f0bc-439a-9c4f-dfa28f557894","system_id":"levelo_inurba_marseille","lat":43.304608,"lon":5.37909,"is_reserved":false,"is_disabled":false,"rental_uris":{"android":"levelo://app?vid=a41bf6b9-f0bc-439a-9c4f-dfa28f557894","ios":"levelo://app?vid=a41bf6b9-f0bc-439a-9c4f-dfa28f557894"},"vehicle_type_id":"4","last_reported":1745388896,"current_range_meters":16400,"station_id":"ce4bgup2rcd13ifvqcn0","pricing_plan_id":"cebpf4jnsgd1na2vs0mg"},{"bike_id":"bceb8cba-0252-464f-a7c9-f9b4548f7a27","system_id":"levelo_inurba_marseille","lat":43.2808,"lon":5.39653,"is_reserved":false,"is_disabled":false,"rental_uris":{"android":"levelo://app?vid=bceb8cba-0252-464f-a7c9-f9b4548f7a27","ios":"levelo://app?vid=bceb8cba-0252-464f-a7c9-f9b4548f7a27"},"vehicle_type_id":"4","last_reported":1745388896,"current_range_meters":16400,"station_id":"ce4bho12rcd13ifvqh2g","pricing_plan_id":"cebpf4jnsgd1na2vs0mg"},{"bike_id":"3e8f0127-96fd-4fdd-97f2-be6e836f9523","system_id":"levelo_inurba_marseille","lat":43.33763,"lon":5.37435,"is_reserved":false,"is_disabled":false,"rental_uris":{"android":"levelo://app?vid=3e8f0127-96fd-4fdd-97f2-be6e836f9523","ios":"levelo://app?vid=3e8f0127-96fd-4fdd-97f2-be6e836f9523"},"vehicle_type_id":"4","last_reported":1745388896,"current_range_meters":16400,"station_id":"","pricing_plan_id":"cebpf4jnsgd1na2vs0mg"},{"bike_id":"12f0f442-3d97-4467-8657-65153654766d","system_id":"levelo_inurba_marseille","lat":43.30467,"lon":5.37917,"is_reserved":false,"is_disabled":false,"rental_uris":{"android":"levelo://app?vid=12f0f442-3d97-4467-8657-65153654766d","ios":"levelo://app?vid=12f0f442-3d97-4467-8657-65153654766d"},"vehicle_type_id":"4","last_reported":1745388896,"current_range_meters":16800,"station_id":"ce4bgup2rcd13ifvqcn0","pricing_plan_id":"cebpf4jnsgd1na2vs0mg"},{"bike_id":"b791a954-cb06-4c27-b140-22fcdc093fdc","system_id":"levelo_inurba_marseille","lat":43.24547,"lon":5.39532,"is_reserved":false,"is_disabled":false,"rental_uris":{"android":"levelo://app?vid=b791a954-cb06-4c27-b140-22fcdc093fdc","ios":"levelo://app?vid=b791a954-cb06-4c27-b140-22fcdc093fdc"},"vehicle_type_id":"4","last_reported":1745388896,"current_range_meters":16800,"station_id":"ce4bhlp2rcd13ifvqgjg","pricing_plan_id":"cebpf4jnsgd1na2vs0mg"},{"bike_id":"275aa500-d362-4b06-aec9-4884c568cc3d","system_id":"levelo_inurba_marseille","lat":43.304169,"lon":5.397526,"is_reserved":false,"is_disabled":false,"rental_uris":{"android":"levelo://app?vid=275aa500-d362-4b06-aec9-4884c568cc3d","ios":"levelo://app?vid=275aa500-d362-4b06-aec9-4884c568cc3d"},"vehicle_type_id":"4","last_reported":1745388896,"current_range_meters":16800,"station_id":"ce4bh092rcd13ifvqd20","pricing_plan_id":"cebpf4jnsgd1na2vs0mg"},{"bike_id":"29190277-9c68-44eb-8885-aafbd2c00a49","system_id":"levelo_inurba_marseille","lat":43.30128,"lon":5.39886,"is_reserved":false,"is_disabled":true,"rental_uris":{"android":"levelo://app?vid=29190277-9c68-44eb-8885-aafbd2c00a49","ios":"levelo://app?vid=29190277-9c68-44eb-8885-aafbd2c00a49"},"vehicle_type_id":"4","last_reported":1745388896,"current_range_meters":16800,"station_id":"ce4bh0h2rcd13ifvqd40","pricing_plan_id":"cebpf4jnsgd1na2vs0mg"},{"bike_id":"02a40b03-b567-43bf-a8de-5120621bb488","system_id":"levelo_inurba_marseille","lat":43.23055,"lon":5.35495,"is_reserved":false,"is_disabled":false,"rental_uris":{"android":"levelo://app?vid=02a40b03-b567-43bf-a8de-5120621bb488","ios":"levelo://app?vid=02a40b03-b567-43bf-a8de-5120621bb488"},"vehicle_type_id":"4","last_reported":1745388896,"current_range_meters":16800,"station_id":"cpo3342slgdg3j2ifvpg","pricing_plan_id":"cebpf4jnsgd1na2vs0mg"},{"bike_id":"f091d3e2-24bc-45c9-be56-c8d4b7bd7d6d","system_id":"levelo_inurba_marseille","lat":43.24071,"lon":5.37763,"is_reserved":false,"is_disabled":true,"rental_uris":{"android":"levelo://app?vid=f091d3e2-24bc-45c9-be56-c8d4b7bd7d6d","ios":"levelo://app?vid=f091d3e2-24bc-45c9-be56-c8d4b7bd7d6d"},"vehicle_type_id":"4","last_reported":1745388896,"current_range_meters":16800,"station_id":"ce4bhnp2rcd13ifvqgvg","pricing_plan_id":"cebpf4jnsgd1na2vs0mg"},{"bike_id":"2685848c-9b18-4d36-80b5-625cbafb53e0","system_id":"levelo_inurba_marseille","lat":43.30159,"lon":5.38088,"is_reserved":false,"is_disabled":false,"rental_uris":{"android":"levelo://app?vid=2685848c-9b18-4d36-80b5-625cbafb53e0","ios":"levelo://app?vid=2685848c-9b18-4d36-80b5-625cbafb53e0"},"vehicle_type_id":"4","last_reported":1745388896,"current_range_meters":16800,"station_id":"ce4bgjp2rcd13ifvqbh0","pricing_plan_id":"cebpf4jnsgd1na2vs0mg"},{"bike_id":"0fc45f9b-42c0-417a-adc3-1ca1da8782a7","system_id":"levelo_inurba_marseille","lat":43.33779,"lon":5.37448,"is_reserved":false,"is_disabled":false,"rental_uris":{"android":"levelo://app?vid=0fc45f9b-42c0-417a-adc3-1ca1da8782a7","ios":"levelo://app?vid=0fc45f9b-42c0-417a-adc3-1ca1da8782a7"},"vehicle_type_id":"4","last_reported":1745388896,"current_range_meters":17200,"station_id":"","pricing_plan_id":"cebpf4jnsgd1na2vs0mg"},{"bike_id":"b5d609bf-0c9b-49e3-9426-ce02cb8383b8","system_id":"levelo_inurba_marseille","lat":43.34135,"lon":5.40921,"is_reserved":false,"is_disabled":true,"rental_uris":{"android":"levelo://app?vid=b5d609bf-0c9b-49e3-9426-ce02cb8383b8","ios":"levelo://app?vid=b5d609bf-0c9b-49e3-9426-ce02cb8383b8"},"vehicle_type_id":"4","last_reported":1745388896,"current_range_meters":17200,"station_id":"ce4bhqh2rcd13ifvqhlg","pricing_plan_id":"cebpf4jnsgd1na2vs0mg"},{"bike_id":"da0e2921-1657-4455-bf6d-ff0242fa6596","system_id":"levelo_inurba_marseille","lat":43.26571,"lon":5.39046,"is_reserved":false,"is_disabled":false,"rental_uris":{"android":"levelo://app?vid=da0e2921-1657-4455-bf6d-ff0242fa6596","ios":"levelo://app?vid=da0e2921-1657-4455-bf6d-ff0242fa6596"},"vehicle_type_id":"4","last_reported":1745388896,"current_range_meters":17200,"station_id":"ce4bhe12rcd13ifvqf30","pricing_plan_id":"cebpf4jnsgd1na2vs0mg"},{"bike_id":"0e14f297-335c-4b13-a29d-8dfe435552fb","system_id":"levelo_inurba_marseille","lat":43.28109,"lon":5.37868,"is_reserved":false,"is_disabled":false,"rental_uris":{"android":"levelo://app?vid=0e14f297-335c-4b13-a29d-8dfe435552fb","ios":"levelo://app?vid=0e14f297-335c-4b13-a29d-8dfe435552fb"},"vehicle_type_id":"4","last_reported":1745388896,"current_range_meters":17200,"station_id":"ce4bha12rcd13ifvqee0","pricing_plan_id":"cebpf4jnsgd1na2vs0mg"},{"bike_id":"b6980b76-ca68-4032-81e7-065b7ecbcd0a","system_id":"levelo_inurba_marseille","lat":43.30954,"lon":5.39044,"is_reserved":false,"is_disabled":false,"rental_uris":{"android":"levelo://app?vid=b6980b76-ca68-4032-81e7-065b7ecbcd0a","ios":"levelo://app?vid=b6980b76-ca68-4032-81e7-065b7ecbcd0a"},"vehicle_type_id":"4","last_reported":1745388896,"current_range_meters":17200,"station_id":"ce4bgup2rcd13ifvqco0","pricing_plan_id":"cebpf4jnsgd1na2vs0mg"},{"bike_id":"a5588965-43f6-457c-a175-2d7ddf9f4595","system_id":"levelo_inurba_marseille","lat":43.32011,"lon":5.38152,"is_reserved":false,"is_disabled":false,"rental_uris":{"android":"levelo://app?vid=a5588965-43f6-457c-a175-2d7ddf9f4595","ios":"levelo://app?vid=a5588965-43f6-457c-a175-2d7ddf9f4595"},"vehicle_type_id":"4","last_reported":1745388896,"current_range_meters":17600,"station_id":"ce4bhr12rcd13ifvqhpg","pricing_plan_id":"cebpf4jnsgd1na2vs0mg"},{"bike_id":"46374c49-3adc-4c5a-8966-e00f056c0d57","system_id":"levelo_inurba_marseille","lat":43.27846,"lon":5.35442,"is_reserved":false,"is_disabled":false,"rental_uris":{"android":"levelo://app?vid=46374c49-3adc-4c5a-8966-e00f056c0d57","ios":"levelo://app?vid=46374c49-3adc-4c5a-8966-e00f056c0d57"},"vehicle_type_id":"4","last_reported":1745388896,"current_range_meters":17600,"station_id":"","pricing_plan_id":"cebpf4jnsgd1na2vs0mg"},{"bike_id":"386e6b11-0c61-4ed0-baa2-45a76e71aa71","system_id":"levelo_inurba_marseille","lat":43.30467,"lon":5.3791,"is_reserved":false,"is_disabled":false,"rental_uris":{"android":"levelo://app?vid=386e6b11-0c61-4ed0-baa2-45a76e71aa71","ios":"levelo://app?vid=386e6b11-0c61-4ed0-baa2-45a76e71aa71"},"vehicle_type_id":"4","last_reported":1745388896,"current_range_meters":17600,"station_id":"ce4bgup2rcd13ifvqcn0","pricing_plan_id":"cebpf4jnsgd1na2vs0mg"},{"bike_id":"96b0f47a-df73-4c76-a290-a8c86dfa6161","system_id":"levelo_inurba_marseille","lat":43.32542,"lon":5.41435,"is_reserved":false,"is_disabled":false,"rental_uris":{"android":"levelo://app?vid=96b0f47a-df73-4c76-a290-a8c86dfa6161","ios":"levelo://app?vid=96b0f47a-df73-4c76-a290-a8c86dfa6161"},"vehicle_type_id":"4","last_reported":1745388896,"current_range_meters":17600,"station_id":"ce4bhq12rcd13ifvqhhg","pricing_plan_id":"cebpf4jnsgd1na2vs0mg"},{"bike_id":"6be482f9-3b4e-437c-a163-4ae50f22af51","system_id":"levelo_inurba_marseille","lat":43.2454,"lon":5.39522,"is_reserved":false,"is_disabled":false,"rental_uris":{"android":"levelo://app?vid=6be482f9-3b4e-437c-a163-4ae50f22af51","ios":"levelo://app?vid=6be482f9-3b4e-437c-a163-4ae50f22af51"},"vehicle_type_id":"4","last_reported":1745388896,"current_range_meters":17600,"station_id":"ce4bhlp2rcd13ifvqgjg","pricing_plan_id":"cebpf4jnsgd1na2vs0mg"},{"bike_id":"ff9806a9-773e-45de-b806-3fb316777ffb","system_id":"levelo_inurba_marseille","lat":43.30264,"lon":5.37722,"is_reserved":false,"is_disabled":false,"rental_uris":{"android":"levelo://app?vid=ff9806a9-773e-45de-b806-3fb316777ffb","ios":"levelo://app?vid=ff9806a9-773e-45de-b806-3fb316777ffb"},"vehicle_type_id":"4","last_reported":1745388896,"current_range_meters":17600,"station_id":"ce4bguh2rcd13ifvqcj0","pricing_plan_id":"cebpf4jnsgd1na2vs0mg"},{"bike_id":"a2f3be8e-6f77-4864-8920-ec72a9ebad7a","system_id":"levelo_inurba_marseille","lat":43.29631,"lon":5.37711,"is_reserved":false,"is_disabled":false,"rental_uris":{"android":"levelo://app?vid=a2f3be8e-6f77-4864-8920-ec72a9ebad7a","ios":"levelo://app?vid=a2f3be8e-6f77-4864-8920-ec72a9ebad7a"},"vehicle_type_id":"4","last_reported":1745388896,"current_range_meters":17600,"station_id":"ce4bgi92rcd13ifvqb90","pricing_plan_id":"cebpf4jnsgd1na2vs0mg"},{"bike_id":"b244cdd7-891e-41d3-bbdf-d6e3de24d190","system_id":"levelo_inurba_marseille","lat":43.29183,"lon":5.35828,"is_reserved":false,"is_disabled":true,"rental_uris":{"android":"levelo://app?vid=b244cdd7-891e-41d3-bbdf-d6e3de24d190","ios":"levelo://app?vid=b244cdd7-891e-41d3-bbdf-d6e3de24d190"},"vehicle_type_id":"4","last_reported":1745388896,"current_range_meters":18000,"station_id":"ce4bhb12rcd13ifvqel0","pricing_plan_id":"cebpf4jnsgd1na2vs0mg"},{"bike_id":"b0ce2799-7f00-4ef2-ab0e-b82d607b9a18","system_id":"levelo_inurba_marseille","lat":43.2408,"lon":5.37755,"is_reserved":false,"is_disabled":false,"rental_uris":{"android":"levelo://app?vid=b0ce2799-7f00-4ef2-ab0e-b82d607b9a18","ios":"levelo://app?vid=b0ce2799-7f00-4ef2-ab0e-b82d607b9a18"},"vehicle_type_id":"4","last_reported":1745388896,"current_range_meters":18000,"station_id":"ce4bhnp2rcd13ifvqgvg","pricing_plan_id":"cebpf4jnsgd1na2vs0mg"},{"bike_id":"34092322-88d5-49d6-98c0-54da3aae8180","system_id":"levelo_inurba_marseille","lat":43.30383,"lon":5.42517,"is_reserved":false,"is_disabled":false,"rental_uris":{"android":"levelo://app?vid=34092322-88d5-49d6-98c0-54da3aae8180","ios":"levelo://app?vid=34092322-88d5-49d6-98c0-54da3aae8180"},"vehicle_type_id":"4","last_reported":1745388896,"current_range_meters":18000,"station_id":"ce4bhoh2rcd13ifvqh6g","pricing_plan_id":"cebpf4jnsgd1na2vs0mg"},{"bike_id":"9966e2c4-c438-4020-9570-af75c54f7699","system_id":"levelo_inurba_marseille","lat":43.25121,"lon":5.40326,"is_reserved":false,"is_disabled":false,"rental_uris":{"android":"levelo://app?vid=9966e2c4-c438-4020-9570-af75c54f7699","ios":"levelo://app?vid=9966e2c4-c438-4020-9570-af75c54f7699"},"vehicle_type_id":"4","last_reported":1745388896,"current_range_meters":18000,"station_id":"ce4bhlh2rcd13ifvqgig","pricing_plan_id":"cebpf4jnsgd1na2vs0mg"},{"bike_id":"012877b6-e9c9-482d-997f-6a78ad0ac83b","system_id":"levelo_inurba_marseille","lat":43.30449,"lon":5.37902,"is_reserved":false,"is_disabled":false,"rental_uris":{"android":"levelo://app?vid=012877b6-e9c9-482d-997f-6a78ad0ac83b","ios":"levelo://app?vid=012877b6-e9c9-482d-997f-6a78ad0ac83b"},"vehicle_type_id":"4","last_reported":1745388896,"current_range_meters":18000,"station_id":"ce4bgup2rcd13ifvqcn0","pricing_plan_id":"cebpf4jnsgd1na2vs0mg"},{"bike_id":"322a8a79-cb7e-471f-a7e5-18773d24c2f1","system_id":"levelo_inurba_marseille","lat":43.30464,"lon":5.37918,"is_reserved":false,"is_disabled":false,"rental_uris":{"android":"levelo://app?vid=322a8a79-cb7e-471f-a7e5-18773d24c2f1","ios":"levelo://app?vid=322a8a79-cb7e-471f-a7e5-18773d24c2f1"},"vehicle_type_id":"4","last_reported":1745388896,"current_range_meters":18800,"station_id":"ce4bgup2rcd13ifvqcn0","pricing_plan_id":"cebpf4jnsgd1na2vs0mg"},{"bike_id":"5606ffef-143b-43c8-b368-323ca82f3053","system_id":"levelo_inurba_marseille","lat":43.23177,"lon":5.39992,"is_reserved":false,"is_disabled":false,"rental_uris":{"android":"levelo://app?vid=5606ffef-143b-43c8-b368-323ca82f3053","ios":"levelo://app?vid=5606ffef-143b-43c8-b368-323ca82f3053"},"vehicle_type_id":"4","last_reported":1745388896,"current_range_meters":18800,"station_id":"ce4bhn12rcd13ifvqgqg","pricing_plan_id":"cebpf4jnsgd1na2vs0mg"},{"bike_id":"7b2dc864-a4e9-468c-9cee-f3075a20977d","system_id":"levelo_inurba_marseille","lat":43.31449,"lon":5.3737,"is_reserved":false,"is_disabled":false,"rental_uris":{"android":"levelo://app?vid=7b2dc864-a4e9-468c-9cee-f3075a20977d","ios":"levelo://app?vid=7b2dc864-a4e9-468c-9cee-f3075a20977d"},"vehicle_type_id":"4","last_reported":1745388896,"current_range_meters":18800,"station_id":"","pricing_plan_id":"cebpf4jnsgd1na2vs0mg"},{"bike_id":"dc0a47a3-e95c-4b5c-91ea-602c9dce4fa5","system_id":"levelo_inurba_marseille","lat":43.23188,"lon":5.39991,"is_reserved":false,"is_disabled":false,"rental_uris":{"android":"levelo://app?vid=dc0a47a3-e95c-4b5c-91ea-602c9dce4fa5","ios":"levelo://app?vid=dc0a47a3-e95c-4b5c-91ea-602c9dce4fa5"},"vehicle_type_id":"4","last_reported":1745388896,"current_range_meters":18800,"station_id":"ce4bhn12rcd13ifvqgqg","pricing_plan_id":"cebpf4jnsgd1na2vs0mg"},{"bike_id":"320ec9d6-8c0f-4a3e-92d3-ff6071a886ea","system_id":"levelo_inurba_marseille","lat":43.284333,"lon":5.382381,"is_reserved":false,"is_disabled":false,"rental_uris":{"android":"levelo://app?vid=320ec9d6-8c0f-4a3e-92d3-ff6071a886ea","ios":"levelo://app?vid=320ec9d6-8c0f-4a3e-92d3-ff6071a886ea"},"vehicle_type_id":"4","last_reported":1745388896,"current_range_meters":18800,"station_id":"","pricing_plan_id":"cebpf4jnsgd1na2vs0mg"},{"bike_id":"2c210749-934e-4075-8f69-64b44da87771","system_id":"levelo_inurba_marseille","lat":43.30286,"lon":5.39217,"is_reserved":false,"is_disabled":true,"rental_uris":{"android":"levelo://app?vid=2c210749-934e-4075-8f69-64b44da87771","ios":"levelo://app?vid=2c210749-934e-4075-8f69-64b44da87771"},"vehicle_type_id":"4","last_reported":1745388896,"current_range_meters":18800,"station_id":"ce4bgkh2rcd13ifvqbk0","pricing_plan_id":"cebpf4jnsgd1na2vs0mg"},{"bike_id":"f14e05df-6b48-48e9-a4b2-0a922790be98","system_id":"levelo_inurba_marseille","lat":43.29268,"lon":5.36852,"is_reserved":false,"is_disabled":true,"rental_uris":{"android":"levelo://app?vid=f14e05df-6b48-48e9-a4b2-0a922790be98","ios":"levelo://app?vid=f14e05df-6b48-48e9-a4b2-0a922790be98"},"vehicle_type_id":"4","last_reported":1745388896,"current_range_meters":18800,"station_id":"ce4bhbp2rcd13ifvqesg","pricing_plan_id":"cebpf4jnsgd1na2vs0mg"},{"bike_id":"6eefc99d-8db8-40d1-b867-e66893ab6dc0","system_id":"levelo_inurba_marseille","lat":43.31703,"lon":5.40463,"is_reserved":false,"is_disabled":false,"rental_uris":{"android":"levelo://app?vid=6eefc99d-8db8-40d1-b867-e66893ab6dc0","ios":"levelo://app?vid=6eefc99d-8db8-40d1-b867-e66893ab6dc0"},"vehicle_type_id":"4","last_reported":1745388896,"current_range_meters":18800,"station_id":"ce4bh012rcd13ifvqd00","pricing_plan_id":"cebpf4jnsgd1na2vs0mg"},{"bike_id":"b7e43787-9056-438f-ba6d-faa629f5a37c","system_id":"levelo_inurba_marseille","lat":43.27498,"lon":5.42476,"is_reserved":false,"is_disabled":false,"rental_uris":{"android":"levelo://app?vid=b7e43787-9056-438f-ba6d-faa629f5a37c","ios":"levelo://app?vid=b7e43787-9056-438f-ba6d-faa629f5a37c"},"vehicle_type_id":"4","last_reported":1745388896,"current_range_meters":18800,"station_id":"ce4bhn92rcd13ifvqgrg","pricing_plan_id":"cebpf4jnsgd1na2vs0mg"},{"bike_id":"0ea362ce-4354-4f0f-acc7-962b146816c7","system_id":"levelo_inurba_marseille","lat":43.25874,"lon":5.3992,"is_reserved":false,"is_disabled":true,"rental_uris":{"android":"levelo://app?vid=0ea362ce-4354-4f0f-acc7-962b146816c7","ios":"levelo://app?vid=0ea362ce-4354-4f0f-acc7-962b146816c7"},"vehicle_type_id":"4","last_reported":1745388896,"current_range_meters":19200,"station_id":"ce4bhl92rcd13ifvqghg","pricing_plan_id":"cebpf4jnsgd1na2vs0mg"},{"bike_id":"6ac5a091-bf9e-44bd-9ec0-d52ac9b0ffe9","system_id":"levelo_inurba_marseille","lat":43.3043,"lon":5.38896,"is_reserved":false,"is_disabled":false,"rental_uris":{"android":"levelo://app?vid=6ac5a091-bf9e-44bd-9ec0-d52ac9b0ffe9","ios":"levelo://app?vid=6ac5a091-bf9e-44bd-9ec0-d52ac9b0ffe9"},"vehicle_type_id":"4","last_reported":1745388896,"current_range_meters":19200,"station_id":"ce4bgk12rcd13ifvqbi0","pricing_plan_id":"cebpf4jnsgd1na2vs0mg"},{"bike_id":"603c2ff0-3c81-4c24-9114-3aae3b9d51c5","system_id":"levelo_inurba_marseille","lat":43.28091,"lon":5.39641,"is_reserved":false,"is_disabled":false,"rental_uris":{"android":"levelo://app?vid=603c2ff0-3c81-4c24-9114-3aae3b9d51c5","ios":"levelo://app?vid=603c2ff0-3c81-4c24-9114-3aae3b9d51c5"},"vehicle_type_id":"4","last_reported":1745388896,"current_range_meters":19200,"station_id":"ce4bho12rcd13ifvqh2g","pricing_plan_id":"cebpf4jnsgd1na2vs0mg"},{"bike_id":"b7659131-3618-4d25-b3b9-e01f5fb01a4d","system_id":"levelo_inurba_marseille","lat":43.31881,"lon":5.40742,"is_reserved":false,"is_disabled":false,"rental_uris":{"android":"levelo://app?vid=b7659131-3618-4d25-b3b9-e01f5fb01a4d","ios":"levelo://app?vid=b7659131-3618-4d25-b3b9-e01f5fb01a4d"},"vehicle_type_id":"4","last_reported":1745388896,"current_range_meters":19200,"station_id":"ce4bhq12rcd13ifvqhig","pricing_plan_id":"cebpf4jnsgd1na2vs0mg"},{"bike_id":"d3c6ac3d-dd80-40ae-be45-9d4ef41cbfb7","system_id":"levelo_inurba_marseille","lat":43.28481,"lon":5.3856,"is_reserved":false,"is_disabled":false,"rental_uris":{"android":"levelo://app?vid=d3c6ac3d-dd80-40ae-be45-9d4ef41cbfb7","ios":"levelo://app?vid=d3c6ac3d-dd80-40ae-be45-9d4ef41cbfb7"},"vehicle_type_id":"4","last_reported":1745388896,"current_range_meters":19200,"station_id":"ce4bh8p2rcd13ifvqeb0","pricing_plan_id":"cebpf4jnsgd1na2vs0mg"},{"bike_id":"f39a5ed8-2be4-4254-916e-d88677df50a0","system_id":"levelo_inurba_marseille","lat":43.27493,"lon":5.42455,"is_reserved":false,"is_disabled":false,"rental_uris":{"android":"levelo://app?vid=f39a5ed8-2be4-4254-916e-d88677df50a0","ios":"levelo://app?vid=f39a5ed8-2be4-4254-916e-d88677df50a0"},"vehicle_type_id":"4","last_reported":1745388896,"current_range_meters":19600,"station_id":"ce4bhn92rcd13ifvqgrg","pricing_plan_id":"cebpf4jnsgd1na2vs0mg"},{"bike_id":"da260a6e-5f6f-4b79-a4a2-c2e8b9d92125","system_id":"levelo_inurba_marseille","lat":43.30878,"lon":5.37197,"is_reserved":false,"is_disabled":false,"rental_uris":{"android":"levelo://app?vid=da260a6e-5f6f-4b79-a4a2-c2e8b9d92125","ios":"levelo://app?vid=da260a6e-5f6f-4b79-a4a2-c2e8b9d92125"},"vehicle_type_id":"4","last_reported":1745388896,"current_range_meters":19600,"station_id":"ce4bguh2rcd13ifvqckg","pricing_plan_id":"cebpf4jnsgd1na2vs0mg"},{"bike_id":"615ab528-f41a-4e8e-8bf5-42b9137b2d9a","system_id":"levelo_inurba_marseille","lat":43.27572,"lon":5.38425,"is_reserved":false,"is_disabled":false,"rental_uris":{"android":"levelo://app?vid=615ab528-f41a-4e8e-8bf5-42b9137b2d9a","ios":"levelo://app?vid=615ab528-f41a-4e8e-8bf5-42b9137b2d9a"},"vehicle_type_id":"4","last_reported":1745388896,"current_range_meters":19600,"station_id":"ce4bhh92rcd13ifvqfi0","pricing_plan_id":"cebpf4jnsgd1na2vs0mg"},{"bike_id":"6da27505-89be-4a96-88ac-febbb1b1d1e6","system_id":"levelo_inurba_marseille","lat":43.273816,"lon":5.362564,"is_reserved":false,"is_disabled":false,"rental_uris":{"android":"levelo://app?vid=6da27505-89be-4a96-88ac-febbb1b1d1e6","ios":"levelo://app?vid=6da27505-89be-4a96-88ac-febbb1b1d1e6"},"vehicle_type_id":"4","last_reported":1745388896,"current_range_meters":19600,"station_id":"ce4bhbh2rcd13ifvqeo0","pricing_plan_id":"cebpf4jnsgd1na2vs0mg"},{"bike_id":"f18546e8-a314-4d49-a0b0-b47a03499807","system_id":"levelo_inurba_marseille","lat":43.3135,"lon":5.36731,"is_reserved":false,"is_disabled":false,"rental_uris":{"android":"levelo://app?vid=f18546e8-a314-4d49-a0b0-b47a03499807","ios":"levelo://app?vid=f18546e8-a314-4d49-a0b0-b47a03499807"},"vehicle_type_id":"4","last_reported":1745388896,"current_range_meters":19600,"station_id":"ce4bgr92rcd13ifvqc6g","pricing_plan_id":"cebpf4jnsgd1na2vs0mg"},{"bike_id":"aa633d40-03f3-4983-9bd2-48b27f513d6d","system_id":"levelo_inurba_marseille","lat":43.27365,"lon":5.42393,"is_reserved":false,"is_disabled":false,"rental_uris":{"android":"levelo://app?vid=aa633d40-03f3-4983-9bd2-48b27f513d6d","ios":"levelo://app?vid=aa633d40-03f3-4983-9bd2-48b27f513d6d"},"vehicle_type_id":"4","last_reported":1745388896,"current_range_meters":19600,"station_id":"","pricing_plan_id":"cebpf4jnsgd1na2vs0mg"},{"bike_id":"5b6263a3-15ba-4eef-97ed-1becd9370504","system_id":"levelo_inurba_marseille","lat":43.29931,"lon":5.36554,"is_reserved":false,"is_disabled":false,"rental_uris":{"android":"levelo://app?vid=5b6263a3-15ba-4eef-97ed-1becd9370504","ios":"levelo://app?vid=5b6263a3-15ba-4eef-97ed-1becd9370504"},"vehicle_type_id":"4","last_reported":1745388896,"current_range_meters":19600,"station_id":"ce4bgm92rcd13ifvqbr0","pricing_plan_id":"cebpf4jnsgd1na2vs0mg"},{"bike_id":"5b94ea54-20c4-4d7c-a801-63e423b7ca07","system_id":"levelo_inurba_marseille","lat":43.28156,"lon":5.42642,"is_reserved":false,"is_disabled":false,"rental_uris":{"android":"levelo://app?vid=5b94ea54-20c4-4d7c-a801-63e423b7ca07","ios":"levelo://app?vid=5b94ea54-20c4-4d7c-a801-63e423b7ca07"},"vehicle_type_id":"4","last_reported":1745388896,"current_range_meters":19600,"station_id":"ce4bhnh2rcd13ifvqgug","pricing_plan_id":"cebpf4jnsgd1na2vs0mg"},{"bike_id":"af167660-e3f2-4643-aae1-702724b5501d","system_id":"levelo_inurba_marseille","lat":43.279716,"lon":5.387017,"is_reserved":false,"is_disabled":false,"rental_uris":{"android":"levelo://app?vid=af167660-e3f2-4643-aae1-702724b5501d","ios":"levelo://app?vid=af167660-e3f2-4643-aae1-702724b5501d"},"vehicle_type_id":"4","last_reported":1745388896,"current_range_meters":19200,"station_id":"ce4bhhp2rcd13ifvqfm0","pricing_plan_id":"cebpf4jnsgd1na2vs0mg"},{"bike_id":"ec1cf0c8-9576-4ab5-8f6d-5e2177f101ac","system_id":"levelo_inurba_marseille","lat":43.30443,"lon":5.38889,"is_reserved":false,"is_disabled":false,"rental_uris":{"android":"levelo://app?vid=ec1cf0c8-9576-4ab5-8f6d-5e2177f101ac","ios":"levelo://app?vid=ec1cf0c8-9576-4ab5-8f6d-5e2177f101ac"},"vehicle_type_id":"4","last_reported":1745388896,"current_range_meters":20000,"station_id":"ce4bgk12rcd13ifvqbi0","pricing_plan_id":"cebpf4jnsgd1na2vs0mg"},{"bike_id":"667e5b45-1a2a-41c4-bb05-a5e14adf5550","system_id":"levelo_inurba_marseille","lat":43.32115,"lon":5.36813,"is_reserved":false,"is_disabled":false,"rental_uris":{"android":"levelo://app?vid=667e5b45-1a2a-41c4-bb05-a5e14adf5550","ios":"levelo://app?vid=667e5b45-1a2a-41c4-bb05-a5e14adf5550"},"vehicle_type_id":"4","last_reported":1745388896,"current_range_meters":20000,"station_id":"ce4bhrh2rcd13ifvqhug","pricing_plan_id":"cebpf4jnsgd1na2vs0mg"},{"bike_id":"99a764d9-c775-4ca6-a51a-b13cec54798f","system_id":"levelo_inurba_marseille","lat":43.30467,"lon":5.37903,"is_reserved":false,"is_disabled":false,"rental_uris":{"android":"levelo://app?vid=99a764d9-c775-4ca6-a51a-b13cec54798f","ios":"levelo://app?vid=99a764d9-c775-4ca6-a51a-b13cec54798f"},"vehicle_type_id":"4","last_reported":1745388896,"current_range_meters":20000,"station_id":"ce4bgup2rcd13ifvqcn0","pricing_plan_id":"cebpf4jnsgd1na2vs0mg"},{"bike_id":"de76bfeb-dd4b-492e-b3f8-88f28c9db3a4","system_id":"levelo_inurba_marseille","lat":43.2837,"lon":5.38126,"is_reserved":false,"is_disabled":false,"rental_uris":{"android":"levelo://app?vid=de76bfeb-dd4b-492e-b3f8-88f28c9db3a4","ios":"levelo://app?vid=de76bfeb-dd4b-492e-b3f8-88f28c9db3a4"},"vehicle_type_id":"4","last_reported":1745388896,"current_range_meters":20400,"station_id":"ce4bh412rcd13ifvqdr0","pricing_plan_id":"cebpf4jnsgd1na2vs0mg"},{"bike_id":"0dbd16cb-d623-476a-8eb6-78bf303e9d95","system_id":"levelo_inurba_marseille","lat":43.24081,"lon":5.37755,"is_reserved":false,"is_disabled":false,"rental_uris":{"android":"levelo://app?vid=0dbd16cb-d623-476a-8eb6-78bf303e9d95","ios":"levelo://app?vid=0dbd16cb-d623-476a-8eb6-78bf303e9d95"},"vehicle_type_id":"4","last_reported":1745388896,"current_range_meters":20400,"station_id":"ce4bhnp2rcd13ifvqgvg","pricing_plan_id":"cebpf4jnsgd1na2vs0mg"},{"bike_id":"2af075b5-3bf0-4bb1-8e77-9f6498b62a90","system_id":"levelo_inurba_marseille","lat":43.33608,"lon":5.41039,"is_reserved":false,"is_disabled":false,"rental_uris":{"android":"levelo://app?vid=2af075b5-3bf0-4bb1-8e77-9f6498b62a90","ios":"levelo://app?vid=2af075b5-3bf0-4bb1-8e77-9f6498b62a90"},"vehicle_type_id":"4","last_reported":1745388896,"current_range_meters":20800,"station_id":"ce4bhqh2rcd13ifvqhmg","pricing_plan_id":"cebpf4jnsgd1na2vs0mg"},{"bike_id":"7a93f214-e369-420b-90b3-c0c05b34e7a9","system_id":"levelo_inurba_marseille","lat":43.28352,"lon":5.38108,"is_reserved":false,"is_disabled":false,"rental_uris":{"android":"levelo://app?vid=7a93f214-e369-420b-90b3-c0c05b34e7a9","ios":"levelo://app?vid=7a93f214-e369-420b-90b3-c0c05b34e7a9"},"vehicle_type_id":"4","last_reported":1745388896,"current_range_meters":20800,"station_id":"ce4bh412rcd13ifvqdr0","pricing_plan_id":"cebpf4jnsgd1na2vs0mg"},{"bike_id":"e8abd739-2476-4f65-8210-f7309aecb71d","system_id":"levelo_inurba_marseille","lat":43.28417,"lon":5.35002,"is_reserved":false,"is_disabled":false,"rental_uris":{"android":"levelo://app?vid=e8abd739-2476-4f65-8210-f7309aecb71d","ios":"levelo://app?vid=e8abd739-2476-4f65-8210-f7309aecb71d"},"vehicle_type_id":"4","last_reported":1745388896,"current_range_meters":20800,"station_id":"ce4bhbh2rcd13ifvqepg","pricing_plan_id":"cebpf4jnsgd1na2vs0mg"},{"bike_id":"12c35821-f10c-40e6-98ef-ce07eb3543c2","system_id":"levelo_inurba_marseille","lat":43.28156,"lon":5.4264,"is_reserved":false,"is_disabled":false,"rental_uris":{"android":"levelo://app?vid=12c35821-f10c-40e6-98ef-ce07eb3543c2","ios":"levelo://app?vid=12c35821-f10c-40e6-98ef-ce07eb3543c2"},"vehicle_type_id":"4","last_reported":1745388896,"current_range_meters":20800,"station_id":"ce4bhnh2rcd13ifvqgug","pricing_plan_id":"cebpf4jnsgd1na2vs0mg"},{"bike_id":"894b8530-885f-4d4d-a2ae-913958cbbe2f","system_id":"levelo_inurba_marseille","lat":43.25945,"lon":5.40949,"is_reserved":false,"is_disabled":true,"rental_uris":{"android":"levelo://app?vid=894b8530-885f-4d4d-a2ae-913958cbbe2f","ios":"levelo://app?vid=894b8530-885f-4d4d-a2ae-913958cbbe2f"},"vehicle_type_id":"4","last_reported":1745388896,"current_range_meters":20800,"station_id":"ce4bhm92rcd13ifvqglg","pricing_plan_id":"cebpf4jnsgd1na2vs0mg"},{"bike_id":"80e3aec3-d517-425a-9c47-8e5fc430cae5","system_id":"levelo_inurba_marseille","lat":43.284009,"lon":5.349883,"is_reserved":false,"is_disabled":false,"rental_uris":{"android":"levelo://app?vid=80e3aec3-d517-425a-9c47-8e5fc430cae5","ios":"levelo://app?vid=80e3aec3-d517-425a-9c47-8e5fc430cae5"},"vehicle_type_id":"4","last_reported":1745388896,"current_range_meters":21600,"station_id":"ce4bhbp2rcd13ifvqerg","pricing_plan_id":"cebpf4jnsgd1na2vs0mg"},{"bike_id":"214bbde7-aa65-480a-8046-2c18c1efb04d","system_id":"levelo_inurba_marseille","lat":43.29789,"lon":5.38118,"is_reserved":false,"is_disabled":false,"rental_uris":{"android":"levelo://app?vid=214bbde7-aa65-480a-8046-2c18c1efb04d","ios":"levelo://app?vid=214bbde7-aa65-480a-8046-2c18c1efb04d"},"vehicle_type_id":"4","last_reported":1745388896,"current_range_meters":21600,"station_id":"ce4bgip2rcd13ifvqbb0","pricing_plan_id":"cebpf4jnsgd1na2vs0mg"},{"bike_id":"3a7a5275-9baa-4450-a86a-30383e731087","system_id":"levelo_inurba_marseille","lat":43.30156,"lon":5.39867,"is_reserved":false,"is_disabled":false,"rental_uris":{"android":"levelo://app?vid=3a7a5275-9baa-4450-a86a-30383e731087","ios":"levelo://app?vid=3a7a5275-9baa-4450-a86a-30383e731087"},"vehicle_type_id":"4","last_reported":1745388896,"current_range_meters":20800,"station_id":"ce4bh0h2rcd13ifvqd40","pricing_plan_id":"cebpf4jnsgd1na2vs0mg"},{"bike_id":"f66edcd1-aaff-4600-b09a-f7b31db50de9","system_id":"levelo_inurba_marseille","lat":43.30363,"lon":5.36778,"is_reserved":false,"is_disabled":false,"rental_uris":{"android":"levelo://app?vid=f66edcd1-aaff-4600-b09a-f7b31db50de9","ios":"levelo://app?vid=f66edcd1-aaff-4600-b09a-f7b31db50de9"},"vehicle_type_id":"4","last_reported":1745388896,"current_range_meters":21600,"station_id":"","pricing_plan_id":"cebpf4jnsgd1na2vs0mg"},{"bike_id":"16f0f08a-d15a-4540-839e-257d9c2d38ef","system_id":"levelo_inurba_marseille","lat":43.290305,"lon":5.386567,"is_reserved":false,"is_disabled":false,"rental_uris":{"android":"levelo://app?vid=16f0f08a-d15a-4540-839e-257d9c2d38ef","ios":"levelo://app?vid=16f0f08a-d15a-4540-839e-257d9c2d38ef"},"vehicle_type_id":"4","last_reported":1745388896,"current_range_meters":21600,"station_id":"ce4bh4p2rcd13ifvqe0g","pricing_plan_id":"cebpf4jnsgd1na2vs0mg"},{"bike_id":"4608b5c7-1942-48f9-a5a3-54a0197a39db","system_id":"levelo_inurba_marseille","lat":43.239641,"lon":5.366349,"is_reserved":false,"is_disabled":false,"rental_uris":{"android":"levelo://app?vid=4608b5c7-1942-48f9-a5a3-54a0197a39db","ios":"levelo://app?vid=4608b5c7-1942-48f9-a5a3-54a0197a39db"},"vehicle_type_id":"4","last_reported":1745388896,"current_range_meters":21600,"station_id":"ce4bhi12rcd13ifvqfp0","pricing_plan_id":"cebpf4jnsgd1na2vs0mg"},{"bike_id":"65c5fe2e-eff6-4a07-8a80-426ebf2900fe","system_id":"levelo_inurba_marseille","lat":43.30155,"lon":5.38081,"is_reserved":false,"is_disabled":false,"rental_uris":{"android":"levelo://app?vid=65c5fe2e-eff6-4a07-8a80-426ebf2900fe","ios":"levelo://app?vid=65c5fe2e-eff6-4a07-8a80-426ebf2900fe"},"vehicle_type_id":"4","last_reported":1745388896,"current_range_meters":20800,"station_id":"ce4bgjp2rcd13ifvqbh0","pricing_plan_id":"cebpf4jnsgd1na2vs0mg"},{"bike_id":"8b13a928-cf73-4379-a0db-2b466786b7d8","system_id":"levelo_inurba_marseille","lat":43.33749,"lon":5.37446,"is_reserved":false,"is_disabled":false,"rental_uris":{"android":"levelo://app?vid=8b13a928-cf73-4379-a0db-2b466786b7d8","ios":"levelo://app?vid=8b13a928-cf73-4379-a0db-2b466786b7d8"},"vehicle_type_id":"4","last_reported":1745388896,"current_range_meters":22000,"station_id":"","pricing_plan_id":"cebpf4jnsgd1na2vs0mg"},{"bike_id":"c0b494ea-d3cd-414e-84dc-0e57379c6aa6","system_id":"levelo_inurba_marseille","lat":43.28485,"lon":5.38559,"is_reserved":false,"is_disabled":false,"rental_uris":{"android":"levelo://app?vid=c0b494ea-d3cd-414e-84dc-0e57379c6aa6","ios":"levelo://app?vid=c0b494ea-d3cd-414e-84dc-0e57379c6aa6"},"vehicle_type_id":"4","last_reported":1745388896,"current_range_meters":21600,"station_id":"ce4bh8p2rcd13ifvqeb0","pricing_plan_id":"cebpf4jnsgd1na2vs0mg"},{"bike_id":"0163b3d8-0ed8-4d28-93d2-9e2db118fd25","system_id":"levelo_inurba_marseille","lat":43.26578,"lon":5.39038,"is_reserved":false,"is_disabled":false,"rental_uris":{"android":"levelo://app?vid=0163b3d8-0ed8-4d28-93d2-9e2db118fd25","ios":"levelo://app?vid=0163b3d8-0ed8-4d28-93d2-9e2db118fd25"},"vehicle_type_id":"4","last_reported":1745388896,"current_range_meters":22400,"station_id":"ce4bhe12rcd13ifvqf30","pricing_plan_id":"cebpf4jnsgd1na2vs0mg"},{"bike_id":"68f204c1-5744-4627-94a0-1455ac857022","system_id":"levelo_inurba_marseille","lat":43.30462,"lon":5.3791,"is_reserved":false,"is_disabled":false,"rental_uris":{"android":"levelo://app?vid=68f204c1-5744-4627-94a0-1455ac857022","ios":"levelo://app?vid=68f204c1-5744-4627-94a0-1455ac857022"},"vehicle_type_id":"4","last_reported":1745388896,"current_range_meters":22400,"station_id":"ce4bgup2rcd13ifvqcn0","pricing_plan_id":"cebpf4jnsgd1na2vs0mg"},{"bike_id":"85daec74-f2d5-42d6-8421-6d6053a20e9b","system_id":"levelo_inurba_marseille","lat":43.30476,"lon":5.3791,"is_reserved":false,"is_disabled":false,"rental_uris":{"android":"levelo://app?vid=85daec74-f2d5-42d6-8421-6d6053a20e9b","ios":"levelo://app?vid=85daec74-f2d5-42d6-8421-6d6053a20e9b"},"vehicle_type_id":"4","last_reported":1745388896,"current_range_meters":22400,"station_id":"ce4bgup2rcd13ifvqcn0","pricing_plan_id":"cebpf4jnsgd1na2vs0mg"},{"bike_id":"8b43b1fb-5cab-4db8-ae05-f66514d8855e","system_id":"levelo_inurba_marseille","lat":43.31272,"lon":5.37299,"is_reserved":false,"is_disabled":false,"rental_uris":{"android":"levelo://app?vid=8b43b1fb-5cab-4db8-ae05-f66514d8855e","ios":"levelo://app?vid=8b43b1fb-5cab-4db8-ae05-f66514d8855e"},"vehicle_type_id":"4","last_reported":1745388896,"current_range_meters":22400,"station_id":"","pricing_plan_id":"cebpf4jnsgd1na2vs0mg"},{"bike_id":"11f4ee4a-7fa1-4c62-b378-a96e1722a902","system_id":"levelo_inurba_marseille","lat":43.30564,"lon":5.36715,"is_reserved":false,"is_disabled":true,"rental_uris":{"android":"levelo://app?vid=11f4ee4a-7fa1-4c62-b378-a96e1722a902","ios":"levelo://app?vid=11f4ee4a-7fa1-4c62-b378-a96e1722a902"},"vehicle_type_id":"4","last_reported":1745388896,"current_range_meters":22800,"station_id":"ce4bgrp2rcd13ifvqc9g","pricing_plan_id":"cebpf4jnsgd1na2vs0mg"},{"bike_id":"be54b61d-e038-471e-9e2e-06320bf336e4","system_id":"levelo_inurba_marseille","lat":43.295634,"lon":5.399519,"is_reserved":false,"is_disabled":true,"rental_uris":{"android":"levelo://app?vid=be54b61d-e038-471e-9e2e-06320bf336e4","ios":"levelo://app?vid=be54b61d-e038-471e-9e2e-06320bf336e4"},"vehicle_type_id":"4","last_reported":1745388896,"current_range_meters":22800,"station_id":"ce4bh312rcd13ifvqdj0","pricing_plan_id":"cebpf4jnsgd1na2vs0mg"},{"bike_id":"019a5a9a-ac10-464a-980a-01bc39d7012e","system_id":"levelo_inurba_marseille","lat":43.316986,"lon":5.377521,"is_reserved":false,"is_disabled":true,"rental_uris":{"android":"levelo://app?vid=019a5a9a-ac10-464a-980a-01bc39d7012e","ios":"levelo://app?vid=019a5a9a-ac10-464a-980a-01bc39d7012e"},"vehicle_type_id":"4","last_reported":1745388896,"current_range_meters":22800,"station_id":"ce4bgth2rcd13ifvqch0","pricing_plan_id":"cebpf4jnsgd1na2vs0mg"},{"bike_id":"a5856b95-9e19-4436-b973-344e5d5dcbd8","system_id":"levelo_inurba_marseille","lat":43.24167,"lon":5.36433,"is_reserved":false,"is_disabled":false,"rental_uris":{"android":"levelo://app?vid=a5856b95-9e19-4436-b973-344e5d5dcbd8","ios":"levelo://app?vid=a5856b95-9e19-4436-b973-344e5d5dcbd8"},"vehicle_type_id":"4","last_reported":1745388896,"current_range_meters":22800,"station_id":"cpo36qri1sfpv3e86is0","pricing_plan_id":"cebpf4jnsgd1na2vs0mg"},{"bike_id":"0a936bfb-389e-4046-b25e-e8822c50d453","system_id":"levelo_inurba_marseille","lat":43.24074,"lon":5.377707,"is_reserved":false,"is_disabled":false,"rental_uris":{"android":"levelo://app?vid=0a936bfb-389e-4046-b25e-e8822c50d453","ios":"levelo://app?vid=0a936bfb-389e-4046-b25e-e8822c50d453"},"vehicle_type_id":"4","last_reported":1745388896,"current_range_meters":22800,"station_id":"ce4bhnp2rcd13ifvqgvg","pricing_plan_id":"cebpf4jnsgd1na2vs0mg"},{"bike_id":"356cfa21-b42d-4bcd-9ca6-ca674f45b452","system_id":"levelo_inurba_marseille","lat":43.284227,"lon":5.349843,"is_reserved":false,"is_disabled":false,"rental_uris":{"android":"levelo://app?vid=356cfa21-b42d-4bcd-9ca6-ca674f45b452","ios":"levelo://app?vid=356cfa21-b42d-4bcd-9ca6-ca674f45b452"},"vehicle_type_id":"4","last_reported":1745388896,"current_range_meters":22800,"station_id":"ce4bhbh2rcd13ifvqepg","pricing_plan_id":"cebpf4jnsgd1na2vs0mg"},{"bike_id":"dfc424fb-3a80-47f5-acb6-71c55bf4dcf6","system_id":"levelo_inurba_marseille","lat":43.31482,"lon":5.37289,"is_reserved":false,"is_disabled":false,"rental_uris":{"android":"levelo://app?vid=dfc424fb-3a80-47f5-acb6-71c55bf4dcf6","ios":"levelo://app?vid=dfc424fb-3a80-47f5-acb6-71c55bf4dcf6"},"vehicle_type_id":"4","last_reported":1745388896,"current_range_meters":22800,"station_id":"ce4bgt12rcd13ifvqcd0","pricing_plan_id":"cebpf4jnsgd1na2vs0mg"},{"bike_id":"ab8406b2-4f8d-4381-8821-3db52b0a4d4d","system_id":"levelo_inurba_marseille","lat":43.27361,"lon":5.37884,"is_reserved":false,"is_disabled":false,"rental_uris":{"android":"levelo://app?vid=ab8406b2-4f8d-4381-8821-3db52b0a4d4d","ios":"levelo://app?vid=ab8406b2-4f8d-4381-8821-3db52b0a4d4d"},"vehicle_type_id":"4","last_reported":1745388896,"current_range_meters":22800,"station_id":"","pricing_plan_id":"cebpf4jnsgd1na2vs0mg"},{"bike_id":"c0c0dd3c-de2b-4b86-aa7c-c794e4af4d94","system_id":"levelo_inurba_marseille","lat":43.30144,"lon":5.37425,"is_reserved":false,"is_disabled":false,"rental_uris":{"android":"levelo://app?vid=c0c0dd3c-de2b-4b86-aa7c-c794e4af4d94","ios":"levelo://app?vid=c0c0dd3c-de2b-4b86-aa7c-c794e4af4d94"},"vehicle_type_id":"4","last_reported":1745388896,"current_range_meters":22800,"station_id":"ce4bgs92rcd13ifvqcc0","pricing_plan_id":"cebpf4jnsgd1na2vs0mg"},{"bike_id":"a178df57-3070-4a0a-94b3-83fd8ea0539b","system_id":"levelo_inurba_marseille","lat":43.241994,"lon":5.376293,"is_reserved":false,"is_disabled":false,"rental_uris":{"android":"levelo://app?vid=a178df57-3070-4a0a-94b3-83fd8ea0539b","ios":"levelo://app?vid=a178df57-3070-4a0a-94b3-83fd8ea0539b"},"vehicle_type_id":"4","last_reported":1745388896,"current_range_meters":22800,"station_id":"ce4bhnp2rcd13ifvqgvg","pricing_plan_id":"cebpf4jnsgd1na2vs0mg"},{"bike_id":"247348da-52a1-435c-ace7-8459ad327fb4","system_id":"levelo_inurba_marseille","lat":43.341384,"lon":5.408963,"is_reserved":false,"is_disabled":false,"rental_uris":{"android":"levelo://app?vid=247348da-52a1-435c-ace7-8459ad327fb4","ios":"levelo://app?vid=247348da-52a1-435c-ace7-8459ad327fb4"},"vehicle_type_id":"4","last_reported":1745388896,"current_range_meters":22800,"station_id":"ce4bhqh2rcd13ifvqhlg","pricing_plan_id":"cebpf4jnsgd1na2vs0mg"},{"bike_id":"bb34c2b6-c6f3-4a4b-bd1f-4541c8d30859","system_id":"levelo_inurba_marseille","lat":43.26063,"lon":5.39402,"is_reserved":false,"is_disabled":false,"rental_uris":{"android":"levelo://app?vid=bb34c2b6-c6f3-4a4b-bd1f-4541c8d30859","ios":"levelo://app?vid=bb34c2b6-c6f3-4a4b-bd1f-4541c8d30859"},"vehicle_type_id":"4","last_reported":1745388896,"current_range_meters":22800,"station_id":"ce4bhh92rcd13ifvqfj0","pricing_plan_id":"cebpf4jnsgd1na2vs0mg"},{"bike_id":"491041ea-9c28-4b2d-849f-fb5d0d3a2e17","system_id":"levelo_inurba_marseille","lat":43.28479,"lon":5.38424,"is_reserved":false,"is_disabled":false,"rental_uris":{"android":"levelo://app?vid=491041ea-9c28-4b2d-849f-fb5d0d3a2e17","ios":"levelo://app?vid=491041ea-9c28-4b2d-849f-fb5d0d3a2e17"},"vehicle_type_id":"4","last_reported":1745388896,"current_range_meters":20800,"station_id":"ce4bh512rcd13ifvqe3g","pricing_plan_id":"cebpf4jnsgd1na2vs0mg"},{"bike_id":"67d250d8-05ec-459c-a12c-6f6771c8dbe1","system_id":"levelo_inurba_marseille","lat":43.32107,"lon":5.36773,"is_reserved":false,"is_disabled":false,"rental_uris":{"android":"levelo://app?vid=67d250d8-05ec-459c-a12c-6f6771c8dbe1","ios":"levelo://app?vid=67d250d8-05ec-459c-a12c-6f6771c8dbe1"},"vehicle_type_id":"4","last_reported":1745388896,"current_range_meters":23200,"station_id":"ce4bhrh2rcd13ifvqhug","pricing_plan_id":"cebpf4jnsgd1na2vs0mg"},{"bike_id":"62b70d35-d42a-4077-8dc9-23edc62381af","system_id":"levelo_inurba_marseille","lat":43.271803,"lon":5.391647,"is_reserved":false,"is_disabled":false,"rental_uris":{"android":"levelo://app?vid=62b70d35-d42a-4077-8dc9-23edc62381af","ios":"levelo://app?vid=62b70d35-d42a-4077-8dc9-23edc62381af"},"vehicle_type_id":"4","last_reported":1745388896,"current_range_meters":23200,"station_id":"ce4bhhp2rcd13ifvqfm0","pricing_plan_id":"cebpf4jnsgd1na2vs0mg"},{"bike_id":"4ab476f0-c979-45ac-ae86-a4c1d83dc8c7","system_id":"levelo_inurba_marseille","lat":43.24077,"lon":5.3775,"is_reserved":false,"is_disabled":false,"rental_uris":{"android":"levelo://app?vid=4ab476f0-c979-45ac-ae86-a4c1d83dc8c7","ios":"levelo://app?vid=4ab476f0-c979-45ac-ae86-a4c1d83dc8c7"},"vehicle_type_id":"4","last_reported":1745388896,"current_range_meters":23200,"station_id":"ce4bhnp2rcd13ifvqgvg","pricing_plan_id":"cebpf4jnsgd1na2vs0mg"},{"bike_id":"4707e09b-7e1f-4866-9d95-71a90ffee5ed","system_id":"levelo_inurba_marseille","lat":43.260142,"lon":5.407818,"is_reserved":false,"is_disabled":false,"rental_uris":{"android":"levelo://app?vid=4707e09b-7e1f-4866-9d95-71a90ffee5ed","ios":"levelo://app?vid=4707e09b-7e1f-4866-9d95-71a90ffee5ed"},"vehicle_type_id":"4","last_reported":1745388896,"current_range_meters":23200,"station_id":"ce4bh412rcd13ifvqdr0","pricing_plan_id":"cebpf4jnsgd1na2vs0mg"},{"bike_id":"07f1b2be-7cff-4551-a273-0a7a5e1a3cd3","system_id":"levelo_inurba_marseille","lat":43.24515,"lon":5.42494,"is_reserved":false,"is_disabled":false,"rental_uris":{"android":"levelo://app?vid=07f1b2be-7cff-4551-a273-0a7a5e1a3cd3","ios":"levelo://app?vid=07f1b2be-7cff-4551-a273-0a7a5e1a3cd3"},"vehicle_type_id":"4","last_reported":1745388896,"current_range_meters":23200,"station_id":"","pricing_plan_id":"cebpf4jnsgd1na2vs0mg"},{"bike_id":"0f16408d-9f74-446f-93ba-2f9532a88ecb","system_id":"levelo_inurba_marseille","lat":43.283074,"lon":5.374587,"is_reserved":false,"is_disabled":false,"rental_uris":{"android":"levelo://app?vid=0f16408d-9f74-446f-93ba-2f9532a88ecb","ios":"levelo://app?vid=0f16408d-9f74-446f-93ba-2f9532a88ecb"},"vehicle_type_id":"4","last_reported":1745388896,"current_range_meters":24000,"station_id":"","pricing_plan_id":"cebpf4jnsgd1na2vs0mg"},{"bike_id":"c7a1edbf-82f1-4c08-af92-786074fdac49","system_id":"levelo_inurba_marseille","lat":43.3059,"lon":5.39355,"is_reserved":false,"is_disabled":false,"rental_uris":{"android":"levelo://app?vid=c7a1edbf-82f1-4c08-af92-786074fdac49","ios":"levelo://app?vid=c7a1edbf-82f1-4c08-af92-786074fdac49"},"vehicle_type_id":"4","last_reported":1745388896,"current_range_meters":24000,"station_id":"ce4bh0p2rcd13ifvqd80","pricing_plan_id":"cebpf4jnsgd1na2vs0mg"},{"bike_id":"f1d0b052-52ba-44ba-8cba-aa8e83af5946","system_id":"levelo_inurba_marseille","lat":43.27343,"lon":5.42038,"is_reserved":false,"is_disabled":false,"rental_uris":{"android":"levelo://app?vid=f1d0b052-52ba-44ba-8cba-aa8e83af5946","ios":"levelo://app?vid=f1d0b052-52ba-44ba-8cba-aa8e83af5946"},"vehicle_type_id":"4","last_reported":1745388896,"current_range_meters":24000,"station_id":"","pricing_plan_id":"cebpf4jnsgd1na2vs0mg"},{"bike_id":"73f40cff-bb71-4b7a-8ad7-f06c69fb0596","system_id":"levelo_inurba_marseille","lat":43.212,"lon":5.35077,"is_reserved":false,"is_disabled":false,"rental_uris":{"android":"levelo://app?vid=73f40cff-bb71-4b7a-8ad7-f06c69fb0596","ios":"levelo://app?vid=73f40cff-bb71-4b7a-8ad7-f06c69fb0596"},"vehicle_type_id":"4","last_reported":1745388896,"current_range_meters":24000,"station_id":"st_cvj6sg6p6f1abm77japg","pricing_plan_id":"cebpf4jnsgd1na2vs0mg"},{"bike_id":"7beaa033-4975-47e8-bb31-fb6561bf39bf","system_id":"levelo_inurba_marseille","lat":43.30463,"lon":5.37911,"is_reserved":false,"is_disabled":false,"rental_uris":{"android":"levelo://app?vid=7beaa033-4975-47e8-bb31-fb6561bf39bf","ios":"levelo://app?vid=7beaa033-4975-47e8-bb31-fb6561bf39bf"},"vehicle_type_id":"4","last_reported":1745388896,"current_range_meters":24000,"station_id":"ce4bgup2rcd13ifvqcn0","pricing_plan_id":"cebpf4jnsgd1na2vs0mg"},{"bike_id":"5eb6c30b-b15d-4109-986d-a418e4537088","system_id":"levelo_inurba_marseille","lat":43.30456,"lon":5.37902,"is_reserved":false,"is_disabled":false,"rental_uris":{"android":"levelo://app?vid=5eb6c30b-b15d-4109-986d-a418e4537088","ios":"levelo://app?vid=5eb6c30b-b15d-4109-986d-a418e4537088"},"vehicle_type_id":"4","last_reported":1745388896,"current_range_meters":24000,"station_id":"ce4bgup2rcd13ifvqcn0","pricing_plan_id":"cebpf4jnsgd1na2vs0mg"},{"bike_id":"5ee00e00-861c-41b3-b8fe-2f3c4872d3e1","system_id":"levelo_inurba_marseille","lat":43.239624,"lon":5.366285,"is_reserved":false,"is_disabled":false,"rental_uris":{"android":"levelo://app?vid=5ee00e00-861c-41b3-b8fe-2f3c4872d3e1","ios":"levelo://app?vid=5ee00e00-861c-41b3-b8fe-2f3c4872d3e1"},"vehicle_type_id":"4","last_reported":1745388896,"current_range_meters":24000,"station_id":"ce4bgh92rcd13ifvqb40","pricing_plan_id":"cebpf4jnsgd1na2vs0mg"},{"bike_id":"d873d4c4-a44d-4539-83e0-8ebf2675c2a5","system_id":"levelo_inurba_marseille","lat":43.28985,"lon":5.37839,"is_reserved":false,"is_disabled":false,"rental_uris":{"android":"levelo://app?vid=d873d4c4-a44d-4539-83e0-8ebf2675c2a5","ios":"levelo://app?vid=d873d4c4-a44d-4539-83e0-8ebf2675c2a5"},"vehicle_type_id":"4","last_reported":1745388896,"current_range_meters":24000,"station_id":"ce4bh9p2rcd13ifvqed0","pricing_plan_id":"cebpf4jnsgd1na2vs0mg"},{"bike_id":"2543fe79-2837-468c-9a42-e0ca56f00c29","system_id":"levelo_inurba_marseille","lat":43.30471,"lon":5.3791,"is_reserved":false,"is_disabled":false,"rental_uris":{"android":"levelo://app?vid=2543fe79-2837-468c-9a42-e0ca56f00c29","ios":"levelo://app?vid=2543fe79-2837-468c-9a42-e0ca56f00c29"},