{"last_updated":1728245347,"ttl":60,"version":"2.2","data":{"bikes":[{"bike_id":"6dfe646a-1d59-458e-a351-73e41db2a61c","system_id":"levelo_inurba_marseille","lat":43.31891,"lon":5.40733,"is_reserved":false,"is_disabled":false,"rental_uris":{"android":"levelo://app?vid=6dfe646a-1d59-458e-a351-73e41db2a61c","ios":"levelo://app?vid=6dfe646a-1d59-458e-a351-73e41db2a61c"},"vehicle_type_id":"4","last_reported":1728245347,"current_range_meters":32400,"station_id":"ce4bhq12rcd13ifvqhig","pricing_plan_id":"cebpf4jnsgd1na2vs0mg"},{"bike_id":"1683a247-7daa-4167-ac82-a263e4f3cd5b","system_id":"levelo_inurba_marseille","lat":43.25081,"lon":5.39519,"is_reserved":false,"is_disabled":false,"rental_uris":{"android":"levelo://app?vid=1683a247-7daa-4167-ac82-a263e4f3cd5b","ios":"levelo://app?vid=1683a247-7daa-4167-ac82-a263e4f3cd5b"},"vehicle_type_id":"4","last_reported":1728245347,"current_range_meters":32000,"station_id":"ce4bhm12rcd13ifvqgkg","pricing_plan_id":"cebpf4jnsgd1na2vs0mg"},{"bike_id":"ffb50058-5078-4c2d-89a8-70983b69fe9b","system_id":"levelo_inurba_marseille","lat":43.28404,"lon":5.37533,"is_reserved":false,"is_disabled":false,"rental_uris":{"android":"levelo://app?vid=ffb50058-5078-4c2d-89a8-70983b69fe9b","ios":"levelo://app?vid=ffb50058-5078-4c2d-89a8-70983b69fe9b"},"vehicle_type_id":"4","last_reported":1728245347,"current_range_meters":28400,"station_id":"ce4bh412rcd13ifvqds0","pricing_plan_id":"cebpf4jnsgd1na2vs0mg"},{"bike_id":"dba4f021-3f0a-4806-ae20-03cd44c447b0","system_id":"levelo_inurba_marseille","lat":43.29414,"lon":5.38625,"is_reserved":false,"is_disabled":false,"rental_uris":{"android":"levelo://app?vid=dba4f021-3f0a-4806-ae20-03cd44c447b0","ios":"levelo://app?vid=dba4f021-3f0a-4806-ae20-03cd44c447b0"},"vehicle_type_id":"4","last_reported":1728245347,"current_range_meters":36000,"station_id":"ce4bh2h2rcd13ifvqdh0","pricing_plan_id":"cebpf4jnsgd1na2vs0mg"},{"bike_id":"07d432b9-404b-43e5-8aed-9265d6827336","system_id":"levelo_inurba_marseille","lat":43.24392,"lon":5.37054,"is_reserved":false,"is_disabled":false,"rental_uris":{"android":"levelo://app?vid=07d432b9-404b-43e5-8aed-9265d6827336","ios":"levelo://app?vid=07d432b9-404b-43e5-8aed-9265d6827336"},"vehicle_type_id":"4","last_reported":1728245347,"current_range_meters":32000,"station_id":"ce4bhhh2rcd13ifvqfk0","pricing_plan_id":"cebpf4jnsgd1na2vs0mg"},{"bike_id":"3edccbad-c604-40df-acb2-6e9d91b67298","system_id":"levelo_inurba_marseille","lat":43.23057,"lon":5.35493,"is_reserved":false,"is_disabled":false,"rental_uris":{"android":"levelo://app?vid=3edccbad-c604-40df-acb2-6e9d91b67298","ios":"levelo://app?vid=3edccbad-c604-40df-acb2-6e9d91b67298"},"vehicle_type_id":"4","last_reported":1728245347,"current_range_meters":24800,"station_id":"cpo3342slgdg3j2ifvpg","pricing_plan_id":"cebpf4jnsgd1na2vs0mg"},{"bike_id":"dc15e7b3-6e2c-4b43-be5f-0e2aceadaa6a","system_id":"levelo_inurba_marseille","lat":43.28922,"lon":5.38391,"is_reserved":false,"is_disabled":false,"rental_uris":{"android":"levelo://app?vid=dc15e7b3-6e2c-4b43-be5f-0e2aceadaa6a","ios":"levelo://app?vid=dc15e7b3-6e2c-4b43-be5f-0e2aceadaa6a"},"vehicle_type_id":"4","last_reported":1728245347,"current_range_meters":14000,"station_id":"ce4bh612rcd13ifvqe6g","pricing_plan_id":"cebpf4jnsgd1na2vs0mg"},{"bike_id":"f5f9b560-8322-4cda-9d0b-b8c9991382e3","system_id":"levelo_inurba_marseille","lat":43.24542,"lon":5.39526,"is_reserved":false,"is_disabled":false,"rental_uris":{"android":"levelo://app?vid=f5f9b560-8322-4cda-9d0b-b8c9991382e3","ios":"levelo://app?vid=f5f9b560-8322-4cda-9d0b-b8c9991382e3"},"vehicle_type_id":"4","last_reported":1728245347,"current_range_meters":25200,"station_id":"ce4bhlp2rcd13ifvqgjg","pricing_plan_id":"cebpf4jnsgd1na2vs0mg"},{"bike_id":"9761f670-26d0-4947-97f5-10eee0607318","system_id":"levelo_inurba_marseille","lat":43.30927,"lon":5.38027,"is_reserved":false,"is_disabled":false,"rental_uris":{"android":"levelo://app?vid=9761f670-26d0-4947-97f5-10eee0607318","ios":"levelo://app?vid=9761f670-26d0-4947-97f5-10eee0607318"},"vehicle_type_id":"4","last_reported":1728245347,"current_range_meters":38000,"station_id":"ce4bgup2rcd13ifvqco0","pricing_plan_id":"cebpf4jnsgd1na2vs0mg"},{"bike_id":"df431191-249d-4495-a9d8-aff7eeb8bb91","system_id":"levelo_inurba_marseille","lat":43.29919,"lon":5.374795,"is_reserved":false,"is_disabled":false,"rental_uris":{"android":"levelo://app?vid=df431191-249d-4495-a9d8-aff7eeb8bb91","ios":"levelo://app?vid=df431191-249d-4495-a9d8-aff7eeb8bb91"},"vehicle_type_id":"4","last_reported":1728245347,"current_range_meters":38800,"station_id":"ce4bgjh2rcd13ifvqbg0","pricing_plan_id":"cebpf4jnsgd1na2vs0mg"},{"bike_id":"1ad003a9-be67-4652-b1c6-a0312551fb2c","system_id":"levelo_inurba_marseille","lat":43.286585,"lon":5.363635,"is_reserved":false,"is_disabled":false,"rental_uris":{"android":"levelo://app?vid=1ad003a9-be67-4652-b1c6-a0312551fb2c","ios":"levelo://app?vid=1ad003a9-be67-4652-b1c6-a0312551fb2c"},"vehicle_type_id":"4","last_reported":1728245347,"current_range_meters":38800,"station_id":"ce4bhah2rcd13ifvqej0","pricing_plan_id":"cebpf4jnsgd1na2vs0mg"},{"bike_id":"3d3e93be-8a67-4628-9af2-2661c9a0daa4","system_id":"levelo_inurba_marseille","lat":43.22936,"lon":5.35381,"is_reserved":false,"is_disabled":false,"rental_uris":{"android":"levelo://app?vid=3d3e93be-8a67-4628-9af2-2661c9a0daa4","ios":"levelo://app?vid=3d3e93be-8a67-4628-9af2-2661c9a0daa4"},"vehicle_type_id":"4","last_reported":1728245347,"current_range_meters":35200,"station_id":"cpo3532slgdg3j2ikp40","pricing_plan_id":"cebpf4jnsgd1na2vs0mg"},{"bike_id":"83bd8e08-648e-4fc6-8901-05219804adac","system_id":"levelo_inurba_marseille","lat":43.22936,"lon":5.35378,"is_reserved":false,"is_disabled":false,"rental_uris":{"android":"levelo://app?vid=83bd8e08-648e-4fc6-8901-05219804adac","ios":"levelo://app?vid=83bd8e08-648e-4fc6-8901-05219804adac"},"vehicle_type_id":"4","last_reported":1728245347,"current_range_meters":28800,"station_id":"cpo3532slgdg3j2ikp40","pricing_plan_id":"cebpf4jnsgd1na2vs0mg"},{"bike_id":"ba1b3c02-e4c1-4a58-b229-cf59f4f91c13","system_id":"levelo_inurba_marseille","lat":43.30421,"lon":5.41286,"is_reserved":false,"is_disabled":false,"rental_uris":{"android":"levelo://app?vid=ba1b3c02-e4c1-4a58-b229-cf59f4f91c13","ios":"levelo://app?vid=ba1b3c02-e4c1-4a58-b229-cf59f4f91c13"},"vehicle_type_id":"4","last_reported":1728245347,"current_range_meters":7200,"station_id":"ce4bhop2rcd13ifvqh8g","pricing_plan_id":"cebpf4jnsgd1na2vs0mg"},{"bike_id":"81b07a05-4c57-4e76-99d6-5f6e3acbb201","system_id":"levelo_inurba_marseille","lat":43.23061,"lon":5.35496,"is_reserved":false,"is_disabled":false,"rental_uris":{"android":"levelo://app?vid=81b07a05-4c57-4e76-99d6-5f6e3acbb201","ios":"levelo://app?vid=81b07a05-4c57-4e76-99d6-5f6e3acbb201"},"vehicle_type_id":"4","last_reported":1728245347,"current_range_meters":16800,"station_id":"cpo3342slgdg3j2ifvpg","pricing_plan_id":"cebpf4jnsgd1na2vs0mg"},{"bike_id":"7b5acb30-7728-4d2f-b8de-cc88114cf385","system_id":"levelo_inurba_marseille","lat":43.23149,"lon":5.43721,"is_reserved":false,"is_disabled":false,"rental_uris":{"android":"levelo://app?vid=7b5acb30-7728-4d2f-b8de-cc88114cf385","ios":"levelo://app?vid=7b5acb30-7728-4d2f-b8de-cc88114cf385"},"vehicle_type_id":"4","last_reported":1728245347,"current_range_meters":38000,"station_id":"ce4bhmp2rcd13ifvqgog","pricing_plan_id":"cebpf4jnsgd1na2vs0mg"},{"bike_id":"9f567c8d-a712-4380-9484-ef3c7ecb9609","system_id":"levelo_inurba_marseille","lat":43.30592,"lon":5.39359,"is_reserved":false,"is_disabled":false,"rental_uris":{"android":"levelo://app?vid=9f567c8d-a712-4380-9484-ef3c7ecb9609","ios":"levelo://app?vid=9f567c8d-a712-4380-9484-ef3c7ecb9609"},"vehicle_type_id":"4","last_reported":1728245347,"current_range_meters":26000,"station_id":"ce4bh0p2rcd13ifvqd80","pricing_plan_id":"cebpf4jnsgd1na2vs0mg"},{"bike_id":"d685cdd8-2cc7-41fe-ac8f-064af163f6fd","system_id":"levelo_inurba_marseille","lat":43.27562,"lon":5.38426,"is_reserved":false,"is_disabled":false,"rental_uris":{"android":"levelo://app?vid=d685cdd8-2cc7-41fe-ac8f-064af163f6fd","ios":"levelo://app?vid=d685cdd8-2cc7-41fe-ac8f-064af163f6fd"},"vehicle_type_id":"4","last_reported":1728245347,"current_range_meters":18800,"station_id":"ce4bhh92rcd13ifvqfi0","pricing_plan_id":"cebpf4jnsgd1na2vs0mg"},{"bike_id":"4d9c0f2f-ec87-45dc-b4e8-9be9be397a90","system_id":"levelo_inurba_marseille","lat":43.30356,"lon":5.4188,"is_reserved":false,"is_disabled":false,"rental_uris":{"android":"levelo://app?vid=4d9c0f2f-ec87-45dc-b4e8-9be9be397a90","ios":"levelo://app?vid=4d9c0f2f-ec87-45dc-b4e8-9be9be397a90"},"vehicle_type_id":"4","last_reported":1728245347,"current_range_meters":33200,"station_id":"ce4bhop2rcd13ifvqh7g","pricing_plan_id":"cebpf4jnsgd1na2vs0mg"},{"bike_id":"249ba857-c21a-4cf9-b612-6eace3a3311f","system_id":"levelo_inurba_marseille","lat":43.2707,"lon":5.42276,"is_reserved":false,"is_disabled":false,"rental_uris":{"android":"levelo://app?vid=249ba857-c21a-4cf9-b612-6eace3a3311f","ios":"levelo://app?vid=249ba857-c21a-4cf9-b612-6eace3a3311f"},"vehicle_type_id":"4","last_reported":1728245347,"current_range_meters":24800,"station_id":"ce4bhk92rcd13ifvqgb0","pricing_plan_id":"cebpf4jnsgd1na2vs0mg"},{"bike_id":"32ab325a-0e98-4bb3-809c-c26d46577549","system_id":"levelo_inurba_marseille","lat":43.22938,"lon":5.35377,"is_reserved":false,"is_disabled":false,"rental_uris":{"android":"levelo://app?vid=32ab325a-0e98-4bb3-809c-c26d46577549","ios":"levelo://app?vid=32ab325a-0e98-4bb3-809c-c26d46577549"},"vehicle_type_id":"4","last_reported":1728245347,"current_range_meters":25200,"station_id":"cpo3532slgdg3j2ikp40","pricing_plan_id":"cebpf4jnsgd1na2vs0mg"},{"bike_id":"21814611-01da-4a56-bde2-76253f0cdaa1","system_id":"levelo_inurba_marseille","lat":43.27065,"lon":5.42282,"is_reserved":false,"is_disabled":false,"rental_uris":{"android":"levelo://app?vid=21814611-01da-4a56-bde2-76253f0cdaa1","ios":"levelo://app?vid=21814611-01da-4a56-bde2-76253f0cdaa1"},"vehicle_type_id":"4","last_reported":1728245347,"current_range_meters":38000,"station_id":"ce4bhk92rcd13ifvqgb0","pricing_plan_id":"cebpf4jnsgd1na2vs0mg"},{"bike_id":"c87ae6bc-af8e-48bc-8433-c3a42ec521e9","system_id":"levelo_inurba_marseille","lat":43.29255,"lon":5.40897,"is_reserved":false,"is_disabled":false,"rental_uris":{"android":"levelo://app?vid=c87ae6bc-af8e-48bc-8433-c3a42ec521e9","ios":"levelo://app?vid=c87ae6bc-af8e-48bc-8433-c3a42ec521e9"},"vehicle_type_id":"4","last_reported":1728245347,"current_range_meters":3200,"station_id":"ce4bh192rcd13ifvqdc0","pricing_plan_id":"cebpf4jnsgd1na2vs0mg"},{"bike_id":"9492ae18-3ba7-4ee9-9b92-85dd49bbf778","system_id":"levelo_inurba_marseille","lat":43.28939,"lon":5.36637,"is_reserved":false,"is_disabled":false,"rental_uris":{"android":"levelo://app?vid=9492ae18-3ba7-4ee9-9b92-85dd49bbf778","ios":"levelo://app?vid=9492ae18-3ba7-4ee9-9b92-85dd49bbf778"},"vehicle_type_id":"4","last_reported":1728245347,"current_range_meters":10000,"station_id":"ce4bh4p2rcd13ifvqe0g","pricing_plan_id":"cebpf4jnsgd1na2vs0mg"},{"bike_id":"03ebdfef-60b9-4383-b780-f6e10ef5dff9","system_id":"levelo_inurba_marseille","lat":43.33749,"lon":5.37451,"is_reserved":false,"is_disabled":false,"rental_uris":{"android":"levelo://app?vid=03ebdfef-60b9-4383-b780-f6e10ef5dff9","ios":"levelo://app?vid=03ebdfef-60b9-4383-b780-f6e10ef5dff9"},"vehicle_type_id":"4","last_reported":1728245347,"current_range_meters":25600,"station_id":"","pricing_plan_id":"cebpf4jnsgd1na2vs0mg"},{"bike_id":"2345fb5f-209d-4ace-ba8e-e17ce21fb05b","system_id":"levelo_inurba_marseille","lat":43.30093,"lon":5.39087,"is_reserved":false,"is_disabled":false,"rental_uris":{"android":"levelo://app?vid=2345fb5f-209d-4ace-ba8e-e17ce21fb05b","ios":"levelo://app?vid=2345fb5f-209d-4ace-ba8e-e17ce21fb05b"},"vehicle_type_id":"4","last_reported":1728245347,"current_range_meters":30000,"station_id":"ce4bh192rcd13ifvqdb0","pricing_plan_id":"cebpf4jnsgd1na2vs0mg"},{"bike_id":"8cf23727-fc4e-4c93-882a-71dd981736a7","system_id":"levelo_inurba_marseille","lat":43.30892,"lon":5.39635,"is_reserved":false,"is_disabled":false,"rental_uris":{"android":"levelo://app?vid=8cf23727-fc4e-4c93-882a-71dd981736a7","ios":"levelo://app?vid=8cf23727-fc4e-4c93-882a-71dd981736a7"},"vehicle_type_id":"4","last_reported":1728245347,"current_range_meters":24000,"station_id":"ce4bh012rcd13ifvqcv0","pricing_plan_id":"cebpf4jnsgd1na2vs0mg"},{"bike_id":"8c4ede2a-8479-4951-912b-e9104b176599","system_id":"levelo_inurba_marseille","lat":43.33726,"lon":5.39193,"is_reserved":false,"is_disabled":false,"rental_uris":{"android":"levelo://app?vid=8c4ede2a-8479-4951-912b-e9104b176599","ios":"levelo://app?vid=8c4ede2a-8479-4951-912b-e9104b176599"},"vehicle_type_id":"4","last_reported":1728245347,"current_range_meters":6400,"station_id":"ce4bhr92rcd13ifvqhsg","pricing_plan_id":"cebpf4jnsgd1na2vs0mg"},{"bike_id":"5af4be8f-9e9c-491e-a64b-e706a69bc035","system_id":"levelo_inurba_marseille","lat":43.2984,"lon":5.40546,"is_reserved":false,"is_disabled":false,"rental_uris":{"android":"levelo://app?vid=5af4be8f-9e9c-491e-a64b-e706a69bc035","ios":"levelo://app?vid=5af4be8f-9e9c-491e-a64b-e706a69bc035"},"vehicle_type_id":"4","last_reported":1728245347,"current_range_meters":20800,"station_id":"","pricing_plan_id":"cebpf4jnsgd1na2vs0mg"},{"bike_id":"dfff6b81-3221-4cd1-bd61-a94f6a2506f3","system_id":"levelo_inurba_marseille","lat":43.29315,"lon":5.37169,"is_reserved":false,"is_disabled":false,"rental_uris":{"android":"levelo://app?vid=dfff6b81-3221-4cd1-bd61-a94f6a2506f3","ios":"levelo://app?vid=dfff6b81-3221-4cd1-bd61-a94f6a2506f3"},"vehicle_type_id":"4","last_reported":1728245347,"current_range_meters":38800,"station_id":"ce4bgh92rcd13ifvqb40","pricing_plan_id":"cebpf4jnsgd1na2vs0mg"},{"bike_id":"86eeea58-2039-4141-a427-be58987e3711","system_id":"levelo_inurba_marseille","lat":43.29193,"lon":5.39328,"is_reserved":false,"is_disabled":false,"rental_uris":{"android":"levelo://app?vid=86eeea58-2039-4141-a427-be58987e3711","ios":"levelo://app?vid=86eeea58-2039-4141-a427-be58987e3711"},"vehicle_type_id":"4","last_reported":1728245347,"current_range_meters":38800,"station_id":"ce4bh192rcd13ifvqdd0","pricing_plan_id":"cebpf4jnsgd1na2vs0mg"},{"bike_id":"4018fa26-9a2a-4214-af21-76b3667a940b","system_id":"levelo_inurba_marseille","lat":43.33757,"lon":5.37437,"is_reserved":false,"is_disabled":false,"rental_uris":{"android":"levelo://app?vid=4018fa26-9a2a-4214-af21-76b3667a940b","ios":"levelo://app?vid=4018fa26-9a2a-4214-af21-76b3667a940b"},"vehicle_type_id":"4","last_reported":1728245347,"current_range_meters":26800,"station_id":"","pricing_plan_id":"cebpf4jnsgd1na2vs0mg"},{"bike_id":"1c171f7c-ff3e-4912-9b7b-48ee5d0e2652","system_id":"levelo_inurba_marseille","lat":43.30597,"lon":5.3936,"is_reserved":false,"is_disabled":false,"rental_uris":{"android":"levelo://app?vid=1c171f7c-ff3e-4912-9b7b-48ee5d0e2652","ios":"levelo://app?vid=1c171f7c-ff3e-4912-9b7b-48ee5d0e2652"},"vehicle_type_id":"4","last_reported":1728245347,"current_range_meters":39200,"station_id":"ce4bh0p2rcd13ifvqd80","pricing_plan_id":"cebpf4jnsgd1na2vs0mg"},{"bike_id":"47eac1fe-2ca6-4418-8b2f-3564461491d6","system_id":"levelo_inurba_marseille","lat":43.27915,"lon":5.39573,"is_reserved":false,"is_disabled":false,"rental_uris":{"android":"levelo://app?vid=47eac1fe-2ca6-4418-8b2f-3564461491d6","ios":"levelo://app?vid=47eac1fe-2ca6-4418-8b2f-3564461491d6"},"vehicle_type_id":"4","last_reported":1728245347,"current_range_meters":28800,"station_id":"ce4bhf92rcd13ifvqf40","pricing_plan_id":"cebpf4jnsgd1na2vs0mg"},{"bike_id":"35db5aab-a536-4286-87d7-90ec43783f24","system_id":"levelo_inurba_marseille","lat":43.23194,"lon":5.35551,"is_reserved":false,"is_disabled":false,"rental_uris":{"android":"levelo://app?vid=35db5aab-a536-4286-87d7-90ec43783f24","ios":"levelo://app?vid=35db5aab-a536-4286-87d7-90ec43783f24"},"vehicle_type_id":"4","last_reported":1728245347,"current_range_meters":38400,"station_id":"ce4bhu92rcd13ifvqi70","pricing_plan_id":"cebpf4jnsgd1na2vs0mg"},{"bike_id":"ac7477e2-647f-4698-b2f1-05ac6bd7ca79","system_id":"levelo_inurba_marseille","lat":43.27376,"lon":5.36257,"is_reserved":false,"is_disabled":false,"rental_uris":{"android":"levelo://app?vid=ac7477e2-647f-4698-b2f1-05ac6bd7ca79","ios":"levelo://app?vid=ac7477e2-647f-4698-b2f1-05ac6bd7ca79"},"vehicle_type_id":"4","last_reported":1728245347,"current_range_meters":31200,"station_id":"ce4bhbh2rcd13ifvqeo0","pricing_plan_id":"cebpf4jnsgd1na2vs0mg"},{"bike_id":"a79e8452-a528-48bc-a1da-3aecfebc05ca","system_id":"levelo_inurba_marseille","lat":43.30597,"lon":5.39369,"is_reserved":false,"is_disabled":false,"rental_uris":{"android":"levelo://app?vid=a79e8452-a528-48bc-a1da-3aecfebc05ca","ios":"levelo://app?vid=a79e8452-a528-48bc-a1da-3aecfebc05ca"},"vehicle_type_id":"4","last_reported":1728245347,"current_range_meters":32400,"station_id":"ce4bh0p2rcd13ifvqd80","pricing_plan_id":"cebpf4jnsgd1na2vs0mg"},{"bike_id":"b22cc370-28d2-4b93-8c00-bdeaf9046871","system_id":"levelo_inurba_marseille","lat":43.31496,"lon":5.37308,"is_reserved":false,"is_disabled":false,"rental_uris":{"android":"levelo://app?vid=b22cc370-28d2-4b93-8c00-bdeaf9046871","ios":"levelo://app?vid=b22cc370-28d2-4b93-8c00-bdeaf9046871"},"vehicle_type_id":"4","last_reported":1728245347,"current_range_meters":38800,"station_id":"ce4bgt12rcd13ifvqcd0","pricing_plan_id":"cebpf4jnsgd1na2vs0mg"},{"bike_id":"8337a30c-604f-4009-babc-119eaa06ea86","system_id":"levelo_inurba_marseille","lat":43.29535,"lon":5.38543,"is_reserved":false,"is_disabled":false,"rental_uris":{"android":"levelo://app?vid=8337a30c-604f-4009-babc-119eaa06ea86","ios":"levelo://app?vid=8337a30c-604f-4009-babc-119eaa06ea86"},"vehicle_type_id":"4","last_reported":1728245347,"current_range_meters":3600,"station_id":"ce4bgih2rcd13ifvqba0","pricing_plan_id":"cebpf4jnsgd1na2vs0mg"},{"bike_id":"62dfd99c-f976-4937-b2d0-5b50f5ae699f","system_id":"levelo_inurba_marseille","lat":43.24169,"lon":5.36401,"is_reserved":false,"is_disabled":false,"rental_uris":{"android":"levelo://app?vid=62dfd99c-f976-4937-b2d0-5b50f5ae699f","ios":"levelo://app?vid=62dfd99c-f976-4937-b2d0-5b50f5ae699f"},"vehicle_type_id":"4","last_reported":1728245347,"current_range_meters":14000,"station_id":"cpo36qri1sfpv3e86is0","pricing_plan_id":"cebpf4jnsgd1na2vs0mg"},{"bike_id":"63540939-65f0-409f-bf3b-7a0d7c41b7d0","system_id":"levelo_inurba_marseille","lat":43.30933,"lon":5.40148,"is_reserved":false,"is_disabled":false,"rental_uris":{"android":"levelo://app?vid=63540939-65f0-409f-bf3b-7a0d7c41b7d0","ios":"levelo://app?vid=63540939-65f0-409f-bf3b-7a0d7c41b7d0"},"vehicle_type_id":"4","last_reported":1728245347,"current_range_meters":8000,"station_id":"ce4bgvp2rcd13ifvqct0","pricing_plan_id":"cebpf4jnsgd1na2vs0mg"},{"bike_id":"b0af1974-3d85-4e7c-b936-bcb7e4032ab4","system_id":"levelo_inurba_marseille","lat":43.28351,"lon":5.38103,"is_reserved":false,"is_disabled":false,"rental_uris":{"android":"levelo://app?vid=b0af1974-3d85-4e7c-b936-bcb7e4032ab4","ios":"levelo://app?vid=b0af1974-3d85-4e7c-b936-bcb7e4032ab4"},"vehicle_type_id":"4","last_reported":1728245347,"current_range_meters":9200,"station_id":"ce4bh412rcd13ifvqdr0","pricing_plan_id":"cebpf4jnsgd1na2vs0mg"},{"bike_id":"491813ec-5bcd-4eda-acb2-c01ccb4e9894","system_id":"levelo_inurba_marseille","lat":43.33753,"lon":5.37435,"is_reserved":false,"is_disabled":false,"rental_uris":{"android":"levelo://app?vid=491813ec-5bcd-4eda-acb2-c01ccb4e9894","ios":"levelo://app?vid=491813ec-5bcd-4eda-acb2-c01ccb4e9894"},"vehicle_type_id":"4","last_reported":1728245347,"current_range_meters":25200,"station_id":"","pricing_plan_id":"cebpf4jnsgd1na2vs0mg"},{"bike_id":"c4afd6a3-a875-408a-b534-9c21a771ecb6","system_id":"levelo_inurba_marseille","lat":43.2866,"lon":5.36358,"is_reserved":false,"is_disabled":false,"rental_uris":{"android":"levelo://app?vid=c4afd6a3-a875-408a-b534-9c21a771ecb6","ios":"levelo://app?vid=c4afd6a3-a875-408a-b534-9c21a771ecb6"},"vehicle_type_id":"4","last_reported":1728245347,"current_range_meters":36000,"station_id":"ce4bhah2rcd13ifvqej0","pricing_plan_id":"cebpf4jnsgd1na2vs0mg"},{"bike_id":"8066cbd9-6f5f-4c8b-82e0-670217342883","system_id":"levelo_inurba_marseille","lat":43.24542,"lon":5.39526,"is_reserved":false,"is_disabled":false,"rental_uris":{"android":"levelo://app?vid=8066cbd9-6f5f-4c8b-82e0-670217342883","ios":"levelo://app?vid=8066cbd9-6f5f-4c8b-82e0-670217342883"},"vehicle_type_id":"4","last_reported":1728245347,"current_range_meters":31200,"station_id":"ce4bhlp2rcd13ifvqgjg","pricing_plan_id":"cebpf4jnsgd1na2vs0mg"},{"bike_id":"870ecdbf-3528-4277-82a5-269de3374c1c","system_id":"levelo_inurba_marseille","lat":43.27066,"lon":5.42282,"is_reserved":false,"is_disabled":false,"rental_uris":{"android":"levelo://app?vid=870ecdbf-3528-4277-82a5-269de3374c1c","ios":"levelo://app?vid=870ecdbf-3528-4277-82a5-269de3374c1c"},"vehicle_type_id":"4","last_reported":1728245347,"current_range_meters":38800,"station_id":"ce4bhk92rcd13ifvqgb0","pricing_plan_id":"cebpf4jnsgd1na2vs0mg"},{"bike_id":"a7c8a6a7-5a32-4a07-be5d-f4b583728d14","system_id":"levelo_inurba_marseille","lat":43.27563,"lon":5.38424,"is_reserved":false,"is_disabled":false,"rental_uris":{"android":"levelo://app?vid=a7c8a6a7-5a32-4a07-be5d-f4b583728d14","ios":"levelo://app?vid=a7c8a6a7-5a32-4a07-be5d-f4b583728d14"},"vehicle_type_id":"4","last_reported":1728245347,"current_range_meters":38800,"station_id":"ce4bhh92rcd13ifvqfi0","pricing_plan_id":"cebpf4jnsgd1na2vs0mg"},{"bike_id":"baba7691-81ff-4c7d-90d9-c89eba9696cb","system_id":"levelo_inurba_marseille","lat":43.25928,"lon":5.40908,"is_reserved":false,"is_disabled":false,"rental_uris":{"android":"levelo://app?vid=baba7691-81ff-4c7d-90d9-c89eba9696cb","ios":"levelo://app?vid=baba7691-81ff-4c7d-90d9-c89eba9696cb"},"vehicle_type_id":"4","last_reported":1728245347,"current_range_meters":30400,"station_id":"ce4bhm92rcd13ifvqglg","pricing_plan_id":"cebpf4jnsgd1na2vs0mg"},{"bike_id":"508c868d-b4cf-48fd-9d1e-5d01762aef39","system_id":"levelo_inurba_marseille","lat":43.30643,"lon":5.40074,"is_reserved":false,"is_disabled":false,"rental_uris":{"android":"levelo://app?vid=508c868d-b4cf-48fd-9d1e-5d01762aef39","ios":"levelo://app?vid=508c868d-b4cf-48fd-9d1e-5d01762aef39"},"vehicle_type_id":"4","last_reported":1728245347,"current_range_meters":11600,"station_id":"ce4bh112rcd13ifvqda0","pricing_plan_id":"cebpf4jnsgd1na2vs0mg"},{"bike_id":"ee5a2003-1fbb-4b27-884a-acd217a98149","system_id":"levelo_inurba_marseille","lat":43.29032,"lon":5.39963,"is_reserved":false,"is_disabled":false,"rental_uris":{"android":"levelo://app?vid=ee5a2003-1fbb-4b27-884a-acd217a98149","ios":"levelo://app?vid=ee5a2003-1fbb-4b27-884a-acd217a98149"},"vehicle_type_id":"4","last_reported":1728245347,"current_range_meters":6000,"station_id":"ce4bh392rcd13ifvqdm0","pricing_plan_id":"cebpf4jnsgd1na2vs0mg"},{"bike_id":"032fcdca-3dfe-4e15-a9c2-8a7be4f9675e","system_id":"levelo_inurba_marseille","lat":43.28675,"lon":5.38664,"is_reserved":false,"is_disabled":false,"rental_uris":{"android":"levelo://app?vid=032fcdca-3dfe-4e15-a9c2-8a7be4f9675e","ios":"levelo://app?vid=032fcdca-3dfe-4e15-a9c2-8a7be4f9675e"},"vehicle_type_id":"4","last_reported":1728245347,"current_range_meters":22800,"station_id":"ce4bh492rcd13ifvqdug","pricing_plan_id":"cebpf4jnsgd1na2vs0mg"},{"bike_id":"c906ace6-02e9-4f80-ad21-12688e141ebb","system_id":"levelo_inurba_marseille","lat":43.3095,"lon":5.39027,"is_reserved":false,"is_disabled":false,"rental_uris":{"android":"levelo://app?vid=c906ace6-02e9-4f80-ad21-12688e141ebb","ios":"levelo://app?vid=c906ace6-02e9-4f80-ad21-12688e141ebb"},"vehicle_type_id":"4","last_reported":1728245347,"current_range_meters":16400,"station_id":"ce4bgup2rcd13ifvqco0","pricing_plan_id":"cebpf4jnsgd1na2vs0mg"},{"bike_id":"6ae7d0e0-1623-4439-8d68-fec3c5db110c","system_id":"levelo_inurba_marseille","lat":43.22932,"lon":5.35378,"is_reserved":false,"is_disabled":false,"rental_uris":{"android":"levelo://app?vid=6ae7d0e0-1623-4439-8d68-fec3c5db110c","ios":"levelo://app?vid=6ae7d0e0-1623-4439-8d68-fec3c5db110c"},"vehicle_type_id":"4","last_reported":1728245347,"current_range_meters":36400,"station_id":"cpo3532slgdg3j2ikp40","pricing_plan_id":"cebpf4jnsgd1na2vs0mg"},{"bike_id":"4af55307-045f-4c66-a045-a91d88bb4c16","system_id":"levelo_inurba_marseille","lat":43.22931,"lon":5.35376,"is_reserved":false,"is_disabled":false,"rental_uris":{"android":"levelo://app?vid=4af55307-045f-4c66-a045-a91d88bb4c16","ios":"levelo://app?vid=4af55307-045f-4c66-a045-a91d88bb4c16"},"vehicle_type_id":"4","last_reported":1728245347,"current_range_meters":29600,"station_id":"cpo3532slgdg3j2ikp40","pricing_plan_id":"cebpf4jnsgd1na2vs0mg"},{"bike_id":"e1b524e6-03eb-4607-981b-c6c2b07008ab","system_id":"levelo_inurba_marseille","lat":43.24667,"lon":5.38167,"is_reserved":false,"is_disabled":false,"rental_uris":{"android":"levelo://app?vid=e1b524e6-03eb-4607-981b-c6c2b07008ab","ios":"levelo://app?vid=e1b524e6-03eb-4607-981b-c6c2b07008ab"},"vehicle_type_id":"4","last_reported":1728245347,"current_range_meters":3600,"station_id":"ce4bhih2rcd13ifvqfr0","pricing_plan_id":"cebpf4jnsgd1na2vs0mg"},{"bike_id":"92ac950a-8e1b-4f8b-baee-0ef65bc2473a","system_id":"levelo_inurba_marseille","lat":43.28701,"lon":5.39976,"is_reserved":false,"is_disabled":false,"rental_uris":{"android":"levelo://app?vid=92ac950a-8e1b-4f8b-baee-0ef65bc2473a","ios":"levelo://app?vid=92ac950a-8e1b-4f8b-baee-0ef65bc2473a"},"vehicle_type_id":"4","last_reported":1728245347,"current_range_meters":14400,"station_id":"ce4bho92rcd13ifvqh3g","pricing_plan_id":"cebpf4jnsgd1na2vs0mg"},{"bike_id":"13a35d1a-1c21-4cdd-9282-17040c700716","system_id":"levelo_inurba_marseille","lat":43.325412,"lon":5.414407,"is_reserved":false,"is_disabled":false,"rental_uris":{"android":"levelo://app?vid=13a35d1a-1c21-4cdd-9282-17040c700716","ios":"levelo://app?vid=13a35d1a-1c21-4cdd-9282-17040c700716"},"vehicle_type_id":"4","last_reported":1728245347,"current_range_meters":33200,"station_id":"ce4bhq12rcd13ifvqhhg","pricing_plan_id":"cebpf4jnsgd1na2vs0mg"},{"bike_id":"6482b1fb-67cb-4384-a7c9-6c0a7b56e3b4","system_id":"levelo_inurba_marseille","lat":43.2885,"lon":5.4333,"is_reserved":false,"is_disabled":false,"rental_uris":{"android":"levelo://app?vid=6482b1fb-67cb-4384-a7c9-6c0a7b56e3b4","ios":"levelo://app?vid=6482b1fb-67cb-4384-a7c9-6c0a7b56e3b4"},"vehicle_type_id":"4","last_reported":1728245347,"current_range_meters":8800,"station_id":"","pricing_plan_id":"cebpf4jnsgd1na2vs0mg"},{"bike_id":"50406f60-0d84-42f0-94b7-a1203815bff7","system_id":"levelo_inurba_marseille","lat":43.3078,"lon":5.376525,"is_reserved":false,"is_disabled":false,"rental_uris":{"android":"levelo://app?vid=50406f60-0d84-42f0-94b7-a1203815bff7","ios":"levelo://app?vid=50406f60-0d84-42f0-94b7-a1203815bff7"},"vehicle_type_id":"4","last_reported":1728245347,"current_range_meters":24000,"station_id":"","pricing_plan_id":"cebpf4jnsgd1na2vs0mg"},{"bike_id":"265b6257-cac5-4700-be81-5022c39ebf02","system_id":"levelo_inurba_marseille","lat":43.24535,"lon":5.3952,"is_reserved":false,"is_disabled":false,"rental_uris":{"android":"levelo://app?vid=265b6257-cac5-4700-be81-5022c39ebf02","ios":"levelo://app?vid=265b6257-cac5-4700-be81-5022c39ebf02"},"vehicle_type_id":"4","last_reported":1728245347,"current_range_meters":30400,"station_id":"ce4bhlp2rcd13ifvqgjg","pricing_plan_id":"cebpf4jnsgd1na2vs0mg"},{"bike_id":"458f5828-3d56-4435-88db-2bbc4971abb9","system_id":"levelo_inurba_marseille","lat":43.23195,"lon":5.39984,"is_reserved":false,"is_disabled":false,"rental_uris":{"android":"levelo://app?vid=458f5828-3d56-4435-88db-2bbc4971abb9","ios":"levelo://app?vid=458f5828-3d56-4435-88db-2bbc4971abb9"},"vehicle_type_id":"4","last_reported":1728245347,"current_range_meters":29600,"station_id":"ce4bhn12rcd13ifvqgqg","pricing_plan_id":"cebpf4jnsgd1na2vs0mg"},{"bike_id":"c1e24837-e2dc-490c-8eee-dc342a8186ee","system_id":"levelo_inurba_marseille","lat":43.29062,"lon":5.37173,"is_reserved":false,"is_disabled":false,"rental_uris":{"android":"levelo://app?vid=c1e24837-e2dc-490c-8eee-dc342a8186ee","ios":"levelo://app?vid=c1e24837-e2dc-490c-8eee-dc342a8186ee"},"vehicle_type_id":"4","last_reported":1728245347,"current_range_meters":14800,"station_id":"ce4bh5p2rcd13ifvqe4g","pricing_plan_id":"cebpf4jnsgd1na2vs0mg"},{"bike_id":"97ef281f-c717-429c-a078-d6a368902950","system_id":"levelo_inurba_marseille","lat":43.24164,"lon":5.36397,"is_reserved":false,"is_disabled":false,"rental_uris":{"android":"levelo://app?vid=97ef281f-c717-429c-a078-d6a368902950","ios":"levelo://app?vid=97ef281f-c717-429c-a078-d6a368902950"},"vehicle_type_id":"4","last_reported":1728245347,"current_range_meters":24000,"station_id":"cpo36qri1sfpv3e86is0","pricing_plan_id":"cebpf4jnsgd1na2vs0mg"},{"bike_id":"59381473-f6c8-4618-8f55-8e810d1dd3a1","system_id":"levelo_inurba_marseille","lat":43.30587,"lon":5.39358,"is_reserved":false,"is_disabled":false,"rental_uris":{"android":"levelo://app?vid=59381473-f6c8-4618-8f55-8e810d1dd3a1","ios":"levelo://app?vid=59381473-f6c8-4618-8f55-8e810d1dd3a1"},"vehicle_type_id":"4","last_reported":1728245347,"current_range_meters":30400,"station_id":"ce4bh0p2rcd13ifvqd80","pricing_plan_id":"cebpf4jnsgd1na2vs0mg"},{"bike_id":"5fc71de8-51c6-4977-ab35-bac20c38e473","system_id":"levelo_inurba_marseille","lat":43.30649,"lon":5.4008,"is_reserved":false,"is_disabled":false,"rental_uris":{"android":"levelo://app?vid=5fc71de8-51c6-4977-ab35-bac20c38e473","ios":"levelo://app?vid=5fc71de8-51c6-4977-ab35-bac20c38e473"},"vehicle_type_id":"4","last_reported":1728245347,"current_range_meters":38800,"station_id":"ce4bh112rcd13ifvqda0","pricing_plan_id":"cebpf4jnsgd1na2vs0mg"},{"bike_id":"1ed0e51c-e98f-4537-a737-327f6b3abf0a","system_id":"levelo_inurba_marseille","lat":43.30325,"lon":5.40441,"is_reserved":false,"is_disabled":false,"rental_uris":{"android":"levelo://app?vid=1ed0e51c-e98f-4537-a737-327f6b3abf0a","ios":"levelo://app?vid=1ed0e51c-e98f-4537-a737-327f6b3abf0a"},"vehicle_type_id":"4","last_reported":1728245347,"current_range_meters":3600,"station_id":"ce4bh012rcd13ifvqd10","pricing_plan_id":"cebpf4jnsgd1na2vs0mg"},{"bike_id":"9b510305-dbb5-455a-afea-ea62ba2f8d36","system_id":"levelo_inurba_marseille","lat":43.23184,"lon":5.39986,"is_reserved":false,"is_disabled":false,"rental_uris":{"android":"levelo://app?vid=9b510305-dbb5-455a-afea-ea62ba2f8d36","ios":"levelo://app?vid=9b510305-dbb5-455a-afea-ea62ba2f8d36"},"vehicle_type_id":"4","last_reported":1728245347,"current_range_meters":9600,"station_id":"ce4bhn12rcd13ifvqgqg","pricing_plan_id":"cebpf4jnsgd1na2vs0mg"},{"bike_id":"511e2553-c346-4039-a913-af4a7c85005d","system_id":"levelo_inurba_marseille","lat":43.31535,"lon":5.38019,"is_reserved":false,"is_disabled":false,"rental_uris":{"android":"levelo://app?vid=511e2553-c346-4039-a913-af4a7c85005d","ios":"levelo://app?vid=511e2553-c346-4039-a913-af4a7c85005d"},"vehicle_type_id":"4","last_reported":1728245347,"current_range_meters":11600,"station_id":"ce4bhsp2rcd13ifvqi50","pricing_plan_id":"cebpf4jnsgd1na2vs0mg"},{"bike_id":"190548a0-05d5-4bdb-bc1f-d4a1ad9e157a","system_id":"levelo_inurba_marseille","lat":43.27995,"lon":5.41658,"is_reserved":false,"is_disabled":false,"rental_uris":{"android":"levelo://app?vid=190548a0-05d5-4bdb-bc1f-d4a1ad9e157a","ios":"levelo://app?vid=190548a0-05d5-4bdb-bc1f-d4a1ad9e157a"},"vehicle_type_id":"4","last_reported":1728245347,"current_range_meters":12800,"station_id":"ce4bho12rcd13ifvqh1g","pricing_plan_id":"cebpf4jnsgd1na2vs0mg"},{"bike_id":"85a8b07e-682b-4725-800e-b0749654fba5","system_id":"levelo_inurba_marseille","lat":43.24167,"lon":5.36398,"is_reserved":false,"is_disabled":false,"rental_uris":{"android":"levelo://app?vid=85a8b07e-682b-4725-800e-b0749654fba5","ios":"levelo://app?vid=85a8b07e-682b-4725-800e-b0749654fba5"},"vehicle_type_id":"4","last_reported":1728245347,"current_range_meters":27200,"station_id":"cpo36qri1sfpv3e86is0","pricing_plan_id":"cebpf4jnsgd1na2vs0mg"},{"bike_id":"304f0f46-778c-4448-8270-d4d4de7ea60c","system_id":"levelo_inurba_marseille","lat":43.27909,"lon":5.39572,"is_reserved":false,"is_disabled":false,"rental_uris":{"android":"levelo://app?vid=304f0f46-778c-4448-8270-d4d4de7ea60c","ios":"levelo://app?vid=304f0f46-778c-4448-8270-d4d4de7ea60c"},"vehicle_type_id":"4","last_reported":1728245347,"current_range_meters":12400,"station_id":"ce4bhf92rcd13ifvqf40","pricing_plan_id":"cebpf4jnsgd1na2vs0mg"},{"bike_id":"8ab34a30-55c6-4dd9-8378-d3c7bd7c01ef","system_id":"levelo_inurba_marseille","lat":43.2815,"lon":5.42653,"is_reserved":false,"is_disabled":false,"rental_uris":{"android":"levelo://app?vid=8ab34a30-55c6-4dd9-8378-d3c7bd7c01ef","ios":"levelo://app?vid=8ab34a30-55c6-4dd9-8378-d3c7bd7c01ef"},"vehicle_type_id":"4","last_reported":1728245347,"current_range_meters":32800,"station_id":"ce4bhnh2rcd13ifvqgug","pricing_plan_id":"cebpf4jnsgd1na2vs0mg"},{"bike_id":"b2ee7e2f-43a2-4a7e-a754-77d0f53ad9a9","system_id":"levelo_inurba_marseille","lat":43.24546,"lon":5.39521,"is_reserved":false,"is_disabled":false,"rental_uris":{"android":"levelo://app?vid=b2ee7e2f-43a2-4a7e-a754-77d0f53ad9a9","ios":"levelo://app?vid=b2ee7e2f-43a2-4a7e-a754-77d0f53ad9a9"},"vehicle_type_id":"4","last_reported":1728245347,"current_range_meters":11600,"station_id":"ce4bhlp2rcd13ifvqgjg","pricing_plan_id":"cebpf4jnsgd1na2vs0mg"},{"bike_id":"05ddab4b-2219-453e-b9f6-9211ae63c830","system_id":"levelo_inurba_marseille","lat":43.24172,"lon":5.36394,"is_reserved":false,"is_disabled":false,"rental_uris":{"android":"levelo://app?vid=05ddab4b-2219-453e-b9f6-9211ae63c830","ios":"levelo://app?vid=05ddab4b-2219-453e-b9f6-9211ae63c830"},"vehicle_type_id":"4","last_reported":1728245347,"current_range_meters":31200,"station_id":"cpo36qri1sfpv3e86is0","pricing_plan_id":"cebpf4jnsgd1na2vs0mg"},{"bike_id":"e60bb475-3382-4c05-98aa-d0e35c325a0f","system_id":"levelo_inurba_marseille","lat":43.2979,"lon":5.39351,"is_reserved":false,"is_disabled":false,"rental_uris":{"android":"levelo://app?vid=e60bb475-3382-4c05-98aa-d0e35c325a0f","ios":"levelo://app?vid=e60bb475-3382-4c05-98aa-d0e35c325a0f"},"vehicle_type_id":"4","last_reported":1728245347,"current_range_meters":18000,"station_id":"chh1huq6cuj3fo74tm60","pricing_plan_id":"cebpf4jnsgd1na2vs0mg"},{"bike_id":"5b5a4382-3222-43c1-8f07-381d1baf8a3c","system_id":"levelo_inurba_marseille","lat":43.27926,"lon":5.39571,"is_reserved":false,"is_disabled":false,"rental_uris":{"android":"levelo://app?vid=5b5a4382-3222-43c1-8f07-381d1baf8a3c","ios":"levelo://app?vid=5b5a4382-3222-43c1-8f07-381d1baf8a3c"},"vehicle_type_id":"4","last_reported":1728245347,"current_range_meters":38800,"station_id":"ce4bhf92rcd13ifvqf40","pricing_plan_id":"cebpf4jnsgd1na2vs0mg"},{"bike_id":"fc62b209-a00b-4705-a54e-9729cc929097","system_id":"levelo_inurba_marseille","lat":43.29192,"lon":5.3933,"is_reserved":false,"is_disabled":false,"rental_uris":{"android":"levelo://app?vid=fc62b209-a00b-4705-a54e-9729cc929097","ios":"levelo://app?vid=fc62b209-a00b-4705-a54e-9729cc929097"},"vehicle_type_id":"4","last_reported":1728245347,"current_range_meters":18800,"station_id":"ce4bh192rcd13ifvqdd0","pricing_plan_id":"cebpf4jnsgd1na2vs0mg"},{"bike_id":"d0ca1193-12e8-4ac2-9a60-4ae6e0040151","system_id":"levelo_inurba_marseille","lat":43.2294,"lon":5.3538,"is_reserved":false,"is_disabled":false,"rental_uris":{"android":"levelo://app?vid=d0ca1193-12e8-4ac2-9a60-4ae6e0040151","ios":"levelo://app?vid=d0ca1193-12e8-4ac2-9a60-4ae6e0040151"},"vehicle_type_id":"4","last_reported":1728245347,"current_range_meters":26800,"station_id":"cpo3532slgdg3j2ikp40","pricing_plan_id":"cebpf4jnsgd1na2vs0mg"},{"bike_id":"6407b479-b396-4c54-b65c-1df4d77faf38","system_id":"levelo_inurba_marseille","lat":43.25085,"lon":5.39513,"is_reserved":false,"is_disabled":false,"rental_uris":{"android":"levelo://app?vid=6407b479-b396-4c54-b65c-1df4d77faf38","ios":"levelo://app?vid=6407b479-b396-4c54-b65c-1df4d77faf38"},"vehicle_type_id":"4","last_reported":1728245347,"current_range_meters":27600,"station_id":"ce4bhm12rcd13ifvqgkg","pricing_plan_id":"cebpf4jnsgd1na2vs0mg"},{"bike_id":"5f757817-8585-4a6e-bc43-dc195daaa659","system_id":"levelo_inurba_marseille","lat":43.29874,"lon":5.39728,"is_reserved":false,"is_disabled":false,"rental_uris":{"android":"levelo://app?vid=5f757817-8585-4a6e-bc43-dc195daaa659","ios":"levelo://app?vid=5f757817-8585-4a6e-bc43-dc195daaa659"},"vehicle_type_id":"4","last_reported":1728245347,"current_range_meters":19200,"station_id":"ce4bh0h2rcd13ifvqd50","pricing_plan_id":"cebpf4jnsgd1na2vs0mg"},{"bike_id":"a35fd4f4-64ed-4448-b17c-4216706395eb","system_id":"levelo_inurba_marseille","lat":43.28413,"lon":5.37525,"is_reserved":false,"is_disabled":false,"rental_uris":{"android":"levelo://app?vid=a35fd4f4-64ed-4448-b17c-4216706395eb","ios":"levelo://app?vid=a35fd4f4-64ed-4448-b17c-4216706395eb"},"vehicle_type_id":"4","last_reported":1728245347,"current_range_meters":24400,"station_id":"ce4bh412rcd13ifvqds0","pricing_plan_id":"cebpf4jnsgd1na2vs0mg"},{"bike_id":"2e602575-4c0a-479c-9d78-9bf18e99e061","system_id":"levelo_inurba_marseille","lat":43.28404,"lon":5.37525,"is_reserved":false,"is_disabled":false,"rental_uris":{"android":"levelo://app?vid=2e602575-4c0a-479c-9d78-9bf18e99e061","ios":"levelo://app?vid=2e602575-4c0a-479c-9d78-9bf18e99e061"},"vehicle_type_id":"4","last_reported":1728245347,"current_range_meters":6800,"station_id":"ce4bh412rcd13ifvqds0","pricing_plan_id":"cebpf4jnsgd1na2vs0mg"},{"bike_id":"2f4ebd60-9b8c-4a24-a959-368ea5517925","system_id":"levelo_inurba_marseille","lat":43.30279,"lon":5.3771,"is_reserved":false,"is_disabled":false,"rental_uris":{"android":"levelo://app?vid=2f4ebd60-9b8c-4a24-a959-368ea5517925","ios":"levelo://app?vid=2f4ebd60-9b8c-4a24-a959-368ea5517925"},"vehicle_type_id":"4","last_reported":1728245347,"current_range_meters":12400,"station_id":"ce4bguh2rcd13ifvqcj0","pricing_plan_id":"cebpf4jnsgd1na2vs0mg"},{"bike_id":"97b3e577-842c-4159-9c4d-a25d9b136036","system_id":"levelo_inurba_marseille","lat":43.3026,"lon":5.37965,"is_reserved":false,"is_disabled":false,"rental_uris":{"android":"levelo://app?vid=97b3e577-842c-4159-9c4d-a25d9b136036","ios":"levelo://app?vid=97b3e577-842c-4159-9c4d-a25d9b136036"},"vehicle_type_id":"4","last_reported":1728245347,"current_range_meters":22400,"station_id":"","pricing_plan_id":"cebpf4jnsgd1na2vs0mg"},{"bike_id":"b331395e-1126-4c2b-bcc1-f57b9247b297","system_id":"levelo_inurba_marseille","lat":43.28571,"lon":5.39488,"is_reserved":false,"is_disabled":false,"rental_uris":{"android":"levelo://app?vid=b331395e-1126-4c2b-bcc1-f57b9247b297","ios":"levelo://app?vid=b331395e-1126-4c2b-bcc1-f57b9247b297"},"vehicle_type_id":"4","last_reported":1728245347,"current_range_meters":3200,"station_id":"ce4bh292rcd13ifvqdg0","pricing_plan_id":"cebpf4jnsgd1na2vs0mg"},{"bike_id":"18cab30f-71a4-424c-a58a-1028931912e7","system_id":"levelo_inurba_marseille","lat":43.27812,"lon":5.40702,"is_reserved":false,"is_disabled":false,"rental_uris":{"android":"levelo://app?vid=18cab30f-71a4-424c-a58a-1028931912e7","ios":"levelo://app?vid=18cab30f-71a4-424c-a58a-1028931912e7"},"vehicle_type_id":"4","last_reported":1728245347,"current_range_meters":29600,"station_id":"ce4bhnh2rcd13ifvqgtg","pricing_plan_id":"cebpf4jnsgd1na2vs0mg"},{"bike_id":"4419686c-8845-4011-bf98-9b66024ba522","system_id":"levelo_inurba_marseille","lat":43.2953,"lon":5.394,"is_reserved":false,"is_disabled":false,"rental_uris":{"android":"levelo://app?vid=4419686c-8845-4011-bf98-9b66024ba522","ios":"levelo://app?vid=4419686c-8845-4011-bf98-9b66024ba522"},"vehicle_type_id":"4","last_reported":1728245347,"current_range_meters":4400,"station_id":"ce4bh292rcd13ifvqdf0","pricing_plan_id":"cebpf4jnsgd1na2vs0mg"},{"bike_id":"e832b6af-407d-4f23-900f-7ef73954a927","system_id":"levelo_inurba_marseille","lat":43.24385,"lon":5.37095,"is_reserved":false,"is_disabled":false,"rental_uris":{"android":"levelo://app?vid=e832b6af-407d-4f23-900f-7ef73954a927","ios":"levelo://app?vid=e832b6af-407d-4f23-900f-7ef73954a927"},"vehicle_type_id":"4","last_reported":1728245347,"current_range_meters":6800,"station_id":"ce4bh492rcd13ifvqdug","pricing_plan_id":"cebpf4jnsgd1na2vs0mg"},{"bike_id":"e8f38f77-6572-42be-9296-0cbe6e7cb972","system_id":"levelo_inurba_marseille","lat":43.23055,"lon":5.35495,"is_reserved":false,"is_disabled":false,"rental_uris":{"android":"levelo://app?vid=e8f38f77-6572-42be-9296-0cbe6e7cb972","ios":"levelo://app?vid=e8f38f77-6572-42be-9296-0cbe6e7cb972"},"vehicle_type_id":"4","last_reported":1728245347,"current_range_meters":38800,"station_id":"cpo3342slgdg3j2ifvpg","pricing_plan_id":"cebpf4jnsgd1na2vs0mg"},{"bike_id":"b93d00a6-19a0-4c88-a41a-175cfd71e538","system_id":"levelo_inurba_marseille","lat":43.30433,"lon":5.38888,"is_reserved":false,"is_disabled":false,"rental_uris":{"android":"levelo://app?vid=b93d00a6-19a0-4c88-a41a-175cfd71e538","ios":"levelo://app?vid=b93d00a6-19a0-4c88-a41a-175cfd71e538"},"vehicle_type_id":"4","last_reported":1728245347,"current_range_meters":28000,"station_id":"ce4bgk12rcd13ifvqbi0","pricing_plan_id":"cebpf4jnsgd1na2vs0mg"},{"bike_id":"6e6af65e-29e7-4906-a118-0f7d164f38e5","system_id":"levelo_inurba_marseille","lat":43.311585,"lon":5.387262,"is_reserved":false,"is_disabled":false,"rental_uris":{"android":"levelo://app?vid=6e6af65e-29e7-4906-a118-0f7d164f38e5","ios":"levelo://app?vid=6e6af65e-29e7-4906-a118-0f7d164f38e5"},"vehicle_type_id":"4","last_reported":1728245347,"current_range_meters":38800,"station_id":"ce4bgv12rcd13ifvqcp0","pricing_plan_id":"cebpf4jnsgd1na2vs0mg"},{"bike_id":"22e088d0-a690-4242-acd0-54b03b6f20fe","system_id":"levelo_inurba_marseille","lat":43.28714,"lon":5.37946,"is_reserved":false,"is_disabled":false,"rental_uris":{"android":"levelo://app?vid=22e088d0-a690-4242-acd0-54b03b6f20fe","ios":"levelo://app?vid=22e088d0-a690-4242-acd0-54b03b6f20fe"},"vehicle_type_id":"4","last_reported":1728245347,"current_range_meters":20800,"station_id":"ce4bh9p2rcd13ifvqec0","pricing_plan_id":"cebpf4jnsgd1na2vs0mg"},{"bike_id":"94edce63-e861-4f0b-9ec3-ee0d2406d14e","system_id":"levelo_inurba_marseille","lat":43.27973,"lon":5.38736,"is_reserved":false,"is_disabled":false,"rental_uris":{"android":"levelo://app?vid=94edce63-e861-4f0b-9ec3-ee0d2406d14e","ios":"levelo://app?vid=94edce63-e861-4f0b-9ec3-ee0d2406d14e"},"vehicle_type_id":"4","last_reported":1728245347,"current_range_meters":21600,"station_id":"ce4bhg12rcd13ifvqf80","pricing_plan_id":"cebpf4jnsgd1na2vs0mg"},{"bike_id":"fbe2db3f-9b7b-451a-ad48-131ae931cad3","system_id":"levelo_inurba_marseille","lat":43.25726,"lon":5.41118,"is_reserved":false,"is_disabled":false,"rental_uris":{"android":"levelo://app?vid=fbe2db3f-9b7b-451a-ad48-131ae931cad3","ios":"levelo://app?vid=fbe2db3f-9b7b-451a-ad48-131ae931cad3"},"vehicle_type_id":"4","last_reported":1728245347,"current_range_meters":14000,"station_id":"ce4bhkp2rcd13ifvqgd0","pricing_plan_id":"cebpf4jnsgd1na2vs0mg"},{"bike_id":"490889b1-cee9-4892-9db5-299333956c90","system_id":"levelo_inurba_marseille","lat":43.34143,"lon":5.40906,"is_reserved":false,"is_disabled":false,"rental_uris":{"android":"levelo://app?vid=490889b1-cee9-4892-9db5-299333956c90","ios":"levelo://app?vid=490889b1-cee9-4892-9db5-299333956c90"},"vehicle_type_id":"4","last_reported":1728245347,"current_range_meters":38400,"station_id":"ce4bhqh2rcd13ifvqhlg","pricing_plan_id":"cebpf4jnsgd1na2vs0mg"},{"bike_id":"ea30e775-8466-430d-96e1-a121d270f1bd","system_id":"levelo_inurba_marseille","lat":43.246465,"lon":5.388905,"is_reserved":false,"is_disabled":false,"rental_uris":{"android":"levelo://app?vid=ea30e775-8466-430d-96e1-a121d270f1bd","ios":"levelo://app?vid=ea30e775-8466-430d-96e1-a121d270f1bd"},"vehicle_type_id":"4","last_reported":1728245347,"current_range_meters":38800,"station_id":"ce4bhg12rcd13ifvqf60","pricing_plan_id":"cebpf4jnsgd1na2vs0mg"},{"bike_id":"fbfafa39-8e8e-43d0-ad01-3d738647c745","system_id":"levelo_inurba_marseille","lat":43.286997,"lon":5.399798,"is_reserved":false,"is_disabled":false,"rental_uris":{"android":"levelo://app?vid=fbfafa39-8e8e-43d0-ad01-3d738647c745","ios":"levelo://app?vid=fbfafa39-8e8e-43d0-ad01-3d738647c745"},"vehicle_type_id":"4","last_reported":1728245347,"current_range_meters":35600,"station_id":"ce4bho92rcd13ifvqh3g","pricing_plan_id":"cebpf4jnsgd1na2vs0mg"},{"bike_id":"4378a0dd-7ddd-4246-9294-1e2af02e0700","system_id":"levelo_inurba_marseille","lat":43.23196,"lon":5.35552,"is_reserved":false,"is_disabled":false,"rental_uris":{"android":"levelo://app?vid=4378a0dd-7ddd-4246-9294-1e2af02e0700","ios":"levelo://app?vid=4378a0dd-7ddd-4246-9294-1e2af02e0700"},"vehicle_type_id":"4","last_reported":1728245347,"current_range_meters":8400,"station_id":"ce4bhu92rcd13ifvqi70","pricing_plan_id":"cebpf4jnsgd1na2vs0mg"},{"bike_id":"c656545f-1946-4086-8c48-8ebfeeddee78","system_id":"levelo_inurba_marseille","lat":43.2982,"lon":5.40347,"is_reserved":false,"is_disabled":false,"rental_uris":{"android":"levelo://app?vid=c656545f-1946-4086-8c48-8ebfeeddee78","ios":"levelo://app?vid=c656545f-1946-4086-8c48-8ebfeeddee78"},"vehicle_type_id":"4","last_reported":1728245347,"current_range_meters":28800,"station_id":"","pricing_plan_id":"cebpf4jnsgd1na2vs0mg"},{"bike_id":"19657177-a128-445d-88b3-9f9f9bff6229","system_id":"levelo_inurba_marseille","lat":43.25109,"lon":5.40322,"is_reserved":false,"is_disabled":false,"rental_uris":{"android":"levelo://app?vid=19657177-a128-445d-88b3-9f9f9bff6229","ios":"levelo://app?vid=19657177-a128-445d-88b3-9f9f9bff6229"},"vehicle_type_id":"4","last_reported":1728245347,"current_range_meters":38800,"station_id":"ce4bhlh2rcd13ifvqgig","pricing_plan_id":"cebpf4jnsgd1na2vs0mg"},{"bike_id":"98fab8a1-a284-40da-8df2-14f71a37d57b","system_id":"levelo_inurba_marseille","lat":43.24542,"lon":5.39525,"is_reserved":false,"is_disabled":false,"rental_uris":{"android":"levelo://app?vid=98fab8a1-a284-40da-8df2-14f71a37d57b","ios":"levelo://app?vid=98fab8a1-a284-40da-8df2-14f71a37d57b"},"vehicle_type_id":"4","last_reported":1728245347,"current_range_meters":30400,"station_id":"ce4bhlp2rcd13ifvqgjg","pricing_plan_id":"cebpf4jnsgd1na2vs0mg"},{"bike_id":"ca497d73-ca95-45d5-92b1-f420a9b2ab33","system_id":"levelo_inurba_marseille","lat":43.3133,"lon":5.39697,"is_reserved":false,"is_disabled":false,"rental_uris":{"android":"levelo://app?vid=ca497d73-ca95-45d5-92b1-f420a9b2ab33","ios":"levelo://app?vid=ca497d73-ca95-45d5-92b1-f420a9b2ab33"},"vehicle_type_id":"4","last_reported":1728245347,"current_range_meters":6400,"station_id":"ce4bgvp2rcd13ifvqcu0","pricing_plan_id":"cebpf4jnsgd1na2vs0mg"},{"bike_id":"21288de7-f927-43a6-aeff-787f443177ba","system_id":"levelo_inurba_marseille","lat":43.27908,"lon":5.38011,"is_reserved":false,"is_disabled":false,"rental_uris":{"android":"levelo://app?vid=21288de7-f927-43a6-aeff-787f443177ba","ios":"levelo://app?vid=21288de7-f927-43a6-aeff-787f443177ba"},"vehicle_type_id":"4","last_reported":1728245347,"current_range_meters":36800,"station_id":"ce4bhf92rcd13ifvqf50","pricing_plan_id":"cebpf4jnsgd1na2vs0mg"},{"bike_id":"93d45870-2e1c-4ed1-9664-7b219a4ed443","system_id":"levelo_inurba_marseille","lat":43.22926,"lon":5.3538,"is_reserved":false,"is_disabled":false,"rental_uris":{"android":"levelo://app?vid=93d45870-2e1c-4ed1-9664-7b219a4ed443","ios":"levelo://app?vid=93d45870-2e1c-4ed1-9664-7b219a4ed443"},"vehicle_type_id":"4","last_reported":1728245347,"current_range_meters":38800,"station_id":"cpo3532slgdg3j2ikp40","pricing_plan_id":"cebpf4jnsgd1na2vs0mg"},{"bike_id":"2ff6bac0-f386-428c-89aa-655b212c895e","system_id":"levelo_inurba_marseille","lat":43.33018,"lon":5.3904,"is_reserved":false,"is_disabled":false,"rental_uris":{"android":"levelo://app?vid=2ff6bac0-f386-428c-89aa-655b212c895e","ios":"levelo://app?vid=2ff6bac0-f386-428c-89aa-655b212c895e"},"vehicle_type_id":"4","last_reported":1728245347,"current_range_meters":10000,"station_id":"ce4bhr92rcd13ifvqhrg","pricing_plan_id":"cebpf4jnsgd1na2vs0mg"},{"bike_id":"6e512044-ef12-457b-bcca-26bd86c5618a","system_id":"levelo_inurba_marseille","lat":43.23058,"lon":5.35498,"is_reserved":false,"is_disabled":false,"rental_uris":{"android":"levelo://app?vid=6e512044-ef12-457b-bcca-26bd86c5618a","ios":"levelo://app?vid=6e512044-ef12-457b-bcca-26bd86c5618a"},"vehicle_type_id":"4","last_reported":1728245347,"current_range_meters":38800,"station_id":"cpo3342slgdg3j2ifvpg","pricing_plan_id":"cebpf4jnsgd1na2vs0mg"},{"bike_id":"d18846cc-861c-4232-b8a3-fe40eea38d70","system_id":"levelo_inurba_marseille","lat":43.298645,"lon":5.397326,"is_reserved":false,"is_disabled":false,"rental_uris":{"android":"levelo://app?vid=d18846cc-861c-4232-b8a3-fe40eea38d70","ios":"levelo://app?vid=d18846cc-861c-4232-b8a3-fe40eea38d70"},"vehicle_type_id":"4","last_reported":1728245347,"current_range_meters":24800,"station_id":"ce4bh0h2rcd13ifvqd50","pricing_plan_id":"cebpf4jnsgd1na2vs0mg"},{"bike_id":"e3476c14-2ab0-48da-b93e-0d3624cd9013","system_id":"levelo_inurba_marseille","lat":43.26062,"lon":5.39397,"is_reserved":false,"is_disabled":false,"rental_uris":{"android":"levelo://app?vid=e3476c14-2ab0-48da-b93e-0d3624cd9013","ios":"levelo://app?vid=e3476c14-2ab0-48da-b93e-0d3624cd9013"},"vehicle_type_id":"4","last_reported":1728245347,"current_range_meters":14000,"station_id":"ce4bhh92rcd13ifvqfj0","pricing_plan_id":"cebpf4jnsgd1na2vs0mg"},{"bike_id":"09533919-e196-4089-9f9c-66783c87f530","system_id":"levelo_inurba_marseille","lat":43.30888,"lon":5.39629,"is_reserved":false,"is_disabled":false,"rental_uris":{"android":"levelo://app?vid=09533919-e196-4089-9f9c-66783c87f530","ios":"levelo://app?vid=09533919-e196-4089-9f9c-66783c87f530"},"vehicle_type_id":"4","last_reported":1728245347,"current_range_meters":22000,"station_id":"ce4bh012rcd13ifvqcv0","pricing_plan_id":"cebpf4jnsgd1na2vs0mg"},{"bike_id":"d3b2dac8-dc60-44c6-9a69-a480956aa78c","system_id":"levelo_inurba_marseille","lat":43.25086,"lon":5.39522,"is_reserved":false,"is_disabled":false,"rental_uris":{"android":"levelo://app?vid=d3b2dac8-dc60-44c6-9a69-a480956aa78c","ios":"levelo://app?vid=d3b2dac8-dc60-44c6-9a69-a480956aa78c"},"vehicle_type_id":"4","last_reported":1728245347,"current_range_meters":2800,"station_id":"ce4bhm12rcd13ifvqgkg","pricing_plan_id":"cebpf4jnsgd1na2vs0mg"},{"bike_id":"270b90ca-7521-4165-af49-e1c727e5fa34","system_id":"levelo_inurba_marseille","lat":43.24167,"lon":5.36397,"is_reserved":false,"is_disabled":false,"rental_uris":{"android":"levelo://app?vid=270b90ca-7521-4165-af49-e1c727e5fa34","ios":"levelo://app?vid=270b90ca-7521-4165-af49-e1c727e5fa34"},"vehicle_type_id":"4","last_reported":1728245347,"current_range_meters":32400,"station_id":"cpo36qri1sfpv3e86is0","pricing_plan_id":"cebpf4jnsgd1na2vs0mg"},{"bike_id":"611d6115-26cb-4221-ba38-d0cfdcb796c1","system_id":"levelo_inurba_marseille","lat":43.28025,"lon":5.36947,"is_reserved":false,"is_disabled":false,"rental_uris":{"android":"levelo://app?vid=611d6115-26cb-4221-ba38-d0cfdcb796c1","ios":"levelo://app?vid=611d6115-26cb-4221-ba38-d0cfdcb796c1"},"vehicle_type_id":"4","last_reported":1728245347,"current_range_meters":35200,"station_id":"ce4bha12rcd13ifvqef0","pricing_plan_id":"cebpf4jnsgd1na2vs0mg"},{"bike_id":"a6e9d49a-4dd9-456d-ad6e-07a36ec96123","system_id":"levelo_inurba_marseille","lat":43.29001,"lon":5.35615,"is_reserved":false,"is_disabled":false,"rental_uris":{"android":"levelo://app?vid=a6e9d49a-4dd9-456d-ad6e-07a36ec96123","ios":"levelo://app?vid=a6e9d49a-4dd9-456d-ad6e-07a36ec96123"},"vehicle_type_id":"4","last_reported":1728245347,"current_range_meters":31200,"station_id":"ce4bhb92rcd13ifvqen0","pricing_plan_id":"cebpf4jnsgd1na2vs0mg"},{"bike_id":"be08b9a4-99f3-4bb5-a4d3-50501eeeaae9","system_id":"levelo_inurba_marseille","lat":43.30325,"lon":5.40433,"is_reserved":false,"is_disabled":false,"rental_uris":{"android":"levelo://app?vid=be08b9a4-99f3-4bb5-a4d3-50501eeeaae9","ios":"levelo://app?vid=be08b9a4-99f3-4bb5-a4d3-50501eeeaae9"},"vehicle_type_id":"4","last_reported":1728245347,"current_range_meters":14800,"station_id":"ce4bh012rcd13ifvqd10","pricing_plan_id":"cebpf4jnsgd1na2vs0mg"},{"bike_id":"824e294a-c810-4688-b9ec-efc7382fd889","system_id":"levelo_inurba_marseille","lat":43.31084,"lon":5.42431,"is_reserved":false,"is_disabled":false,"rental_uris":{"android":"levelo://app?vid=824e294a-c810-4688-b9ec-efc7382fd889","ios":"levelo://app?vid=824e294a-c810-4688-b9ec-efc7382fd889"},"vehicle_type_id":"4","last_reported":1728245347,"current_range_meters":32000,"station_id":"ce4bhp92rcd13ifvqhag","pricing_plan_id":"cebpf4jnsgd1na2vs0mg"},{"bike_id":"fe5ef45b-b542-4623-9a70-41457f7ea616","system_id":"levelo_inurba_marseille","lat":43.305908,"lon":5.393661,"is_reserved":false,"is_disabled":false,"rental_uris":{"android":"levelo://app?vid=fe5ef45b-b542-4623-9a70-41457f7ea616","ios":"levelo://app?vid=fe5ef45b-b542-4623-9a70-41457f7ea616"},"vehicle_type_id":"4","last_reported":1728245347,"current_range_meters":34800,"station_id":"ce4bh0p2rcd13ifvqd80","pricing_plan_id":"cebpf4jnsgd1na2vs0mg"},{"bike_id":"ca5f4c34-3469-41d3-9f12-b240f1be893e","system_id":"levelo_inurba_marseille","lat":43.22936,"lon":5.35377,"is_reserved":false,"is_disabled":false,"rental_uris":{"android":"levelo://app?vid=ca5f4c34-3469-41d3-9f12-b240f1be893e","ios":"levelo://app?vid=ca5f4c34-3469-41d3-9f12-b240f1be893e"},"vehicle_type_id":"4","last_reported":1728245347,"current_range_meters":19200,"station_id":"cpo3532slgdg3j2ikp40","pricing_plan_id":"cebpf4jnsgd1na2vs0mg"},{"bike_id":"7fd2b43a-5cb7-4600-8d0a-a36d7f80af5d","system_id":"levelo_inurba_marseille","lat":43.27682,"lon":5.38898,"is_reserved":false,"is_disabled":false,"rental_uris":{"android":"levelo://app?vid=7fd2b43a-5cb7-4600-8d0a-a36d7f80af5d","ios":"levelo://app?vid=7fd2b43a-5cb7-4600-8d0a-a36d7f80af5d"},"vehicle_type_id":"4","last_reported":1728245347,"current_range_meters":5600,"station_id":"ce4bhi12rcd13ifvqfo0","pricing_plan_id":"cebpf4jnsgd1na2vs0mg"},{"bike_id":"5c29256c-7d2c-4023-84f8-14c128e3fa6d","system_id":"levelo_inurba_marseille","lat":43.2903,"lon":5.38133,"is_reserved":false,"is_disabled":false,"rental_uris":{"android":"levelo://app?vid=5c29256c-7d2c-4023-84f8-14c128e3fa6d","ios":"levelo://app?vid=5c29256c-7d2c-4023-84f8-14c128e3fa6d"},"vehicle_type_id":"4","last_reported":1728245347,"current_range_meters":36400,"station_id":"ce4bh4p2rcd13ifvqe1g","pricing_plan_id":"cebpf4jnsgd1na2vs0mg"},{"bike_id":"d8a99f42-e569-442c-9ff5-86e714e6f437","system_id":"levelo_inurba_marseille","lat":43.31331,"lon":5.39691,"is_reserved":false,"is_disabled":false,"rental_uris":{"android":"levelo://app?vid=d8a99f42-e569-442c-9ff5-86e714e6f437","ios":"levelo://app?vid=d8a99f42-e569-442c-9ff5-86e714e6f437"},"vehicle_type_id":"4","last_reported":1728245347,"current_range_meters":30000,"station_id":"ce4bgvp2rcd13ifvqcu0","pricing_plan_id":"cebpf4jnsgd1na2vs0mg"},{"bike_id":"85081b74-3c48-4b75-b6b6-b181683e784a","system_id":"levelo_inurba_marseille","lat":43.25727,"lon":5.41117,"is_reserved":false,"is_disabled":false,"rental_uris":{"android":"levelo://app?vid=85081b74-3c48-4b75-b6b6-b181683e784a","ios":"levelo://app?vid=85081b74-3c48-4b75-b6b6-b181683e784a"},"vehicle_type_id":"4","last_reported":1728245347,"current_range_meters":37600,"station_id":"ce4bhkp2rcd13ifvqgd0","pricing_plan_id":"cebpf4jnsgd1na2vs0mg"},{"bike_id":"ca150432-5632-417f-a220-d6e10e3598a2","system_id":"levelo_inurba_marseille","lat":43.29894,"lon":5.43663,"is_reserved":false,"is_disabled":false,"rental_uris":{"android":"levelo://app?vid=ca150432-5632-417f-a220-d6e10e3598a2","ios":"levelo://app?vid=ca150432-5632-417f-a220-d6e10e3598a2"},"vehicle_type_id":"4","last_reported":1728245347,"current_range_meters":38800,"station_id":"ce4bhpp2rcd13ifvqhfg","pricing_plan_id":"cebpf4jnsgd1na2vs0mg"},{"bike_id":"b1cbe098-b772-4fa8-8f53-20e8557fecfb","system_id":"levelo_inurba_marseille","lat":43.28931,"lon":5.38388,"is_reserved":false,"is_disabled":false,"rental_uris":{"android":"levelo://app?vid=b1cbe098-b772-4fa8-8f53-20e8557fecfb","ios":"levelo://app?vid=b1cbe098-b772-4fa8-8f53-20e8557fecfb"},"vehicle_type_id":"4","last_reported":1728245347,"current_range_meters":27600,"station_id":"ce4bh612rcd13ifvqe6g","pricing_plan_id":"cebpf4jnsgd1na2vs0mg"},{"bike_id":"8791dffb-0fe7-4d2d-bb33-d23dba1351a1","system_id":"levelo_inurba_marseille","lat":43.29789,"lon":5.3934,"is_reserved":false,"is_disabled":false,"rental_uris":{"android":"levelo://app?vid=8791dffb-0fe7-4d2d-bb33-d23dba1351a1","ios":"levelo://app?vid=8791dffb-0fe7-4d2d-bb33-d23dba1351a1"},"vehicle_type_id":"4","last_reported":1728245347,"current_range_meters":28400,"station_id":"chh1huq6cuj3fo74tm60","pricing_plan_id":"cebpf4jnsgd1na2vs0mg"},{"bike_id":"7cba0374-be77-4d49-8476-e0da3cccc891","system_id":"levelo_inurba_marseille","lat":43.24172,"lon":5.36387,"is_reserved":false,"is_disabled":false,"rental_uris":{"android":"levelo://app?vid=7cba0374-be77-4d49-8476-e0da3cccc891","ios":"levelo://app?vid=7cba0374-be77-4d49-8476-e0da3cccc891"},"vehicle_type_id":"4","last_reported":1728245347,"current_range_meters":30400,"station_id":"cpo36qri1sfpv3e86is0","pricing_plan_id":"cebpf4jnsgd1na2vs0mg"},{"bike_id":"de7b61ce-9a77-48b8-b281-c8a3b04be6be","system_id":"levelo_inurba_marseille","lat":43.30588,"lon":5.36569,"is_reserved":false,"is_disabled":false,"rental_uris":{"android":"levelo://app?vid=de7b61ce-9a77-48b8-b281-c8a3b04be6be","ios":"levelo://app?vid=de7b61ce-9a77-48b8-b281-c8a3b04be6be"},"vehicle_type_id":"4","last_reported":1728245347,"current_range_meters":27200,"station_id":"ce4bgs12rcd13ifvqcag","pricing_plan_id":"cebpf4jnsgd1na2vs0mg"},{"bike_id":"aa5aabb5-a1bc-4dff-b2ee-76520014c6a4","system_id":"levelo_inurba_marseille","lat":43.31714,"lon":5.43708,"is_reserved":false,"is_disabled":false,"rental_uris":{"android":"levelo://app?vid=aa5aabb5-a1bc-4dff-b2ee-76520014c6a4","ios":"levelo://app?vid=aa5aabb5-a1bc-4dff-b2ee-76520014c6a4"},"vehicle_type_id":"4","last_reported":1728245347,"current_range_meters":20800,"station_id":"ce4bhp92rcd13ifvqhcg","pricing_plan_id":"cebpf4jnsgd1na2vs0mg"},{"bike_id":"d0f999e2-85b5-4009-bc94-0921606f50d6","system_id":"levelo_inurba_marseille","lat":43.29188,"lon":5.39319,"is_reserved":false,"is_disabled":false,"rental_uris":{"android":"levelo://app?vid=d0f999e2-85b5-4009-bc94-0921606f50d6","ios":"levelo://app?vid=d0f999e2-85b5-4009-bc94-0921606f50d6"},"vehicle_type_id":"4","last_reported":1728245347,"current_range_meters":4800,"station_id":"ce4bh192rcd13ifvqdd0","pricing_plan_id":"cebpf4jnsgd1na2vs0mg"},{"bike_id":"2de7f8f1-0b0c-4a5b-bf58-dbb733d786c3","system_id":"levelo_inurba_marseille","lat":43.25109,"lon":5.40325,"is_reserved":false,"is_disabled":false,"rental_uris":{"android":"levelo://app?vid=2de7f8f1-0b0c-4a5b-bf58-dbb733d786c3","ios":"levelo://app?vid=2de7f8f1-0b0c-4a5b-bf58-dbb733d786c3"},"vehicle_type_id":"4","last_reported":1728245347,"current_range_meters":13600,"station_id":"ce4bhlh2rcd13ifvqgig","pricing_plan_id":"cebpf4jnsgd1na2vs0mg"},{"bike_id":"9f0a7e36-c7be-47e4-bbde-7d2bb79cb06f","system_id":"levelo_inurba_marseille","lat":43.28677,"lon":5.3866,"is_reserved":false,"is_disabled":false,"rental_uris":{"android":"levelo://app?vid=9f0a7e36-c7be-47e4-bbde-7d2bb79cb06f","ios":"levelo://app?vid=9f0a7e36-c7be-47e4-bbde-7d2bb79cb06f"},"vehicle_type_id":"4","last_reported":1728245347,"current_range_meters":8800,"station_id":"ce4bh492rcd13ifvqdug","pricing_plan_id":"cebpf4jnsgd1na2vs0mg"},{"bike_id":"d6a904eb-96a5-4bea-a586-e8aaeedf5f4c","system_id":"levelo_inurba_marseille","lat":43.25722,"lon":5.41108,"is_reserved":false,"is_disabled":false,"rental_uris":{"android":"levelo://app?vid=d6a904eb-96a5-4bea-a586-e8aaeedf5f4c","ios":"levelo://app?vid=d6a904eb-96a5-4bea-a586-e8aaeedf5f4c"},"vehicle_type_id":"4","last_reported":1728245347,"current_range_meters":38000,"station_id":"ce4bhkp2rcd13ifvqgd0","pricing_plan_id":"cebpf4jnsgd1na2vs0mg"},{"bike_id":"09fb0b57-2324-4bd9-a741-e90822f89c25","system_id":"levelo_inurba_marseille","lat":43.2407,"lon":5.37763,"is_reserved":false,"is_disabled":false,"rental_uris":{"android":"levelo://app?vid=09fb0b57-2324-4bd9-a741-e90822f89c25","ios":"levelo://app?vid=09fb0b57-2324-4bd9-a741-e90822f89c25"},"vehicle_type_id":"4","last_reported":1728245347,"current_range_meters":7200,"station_id":"ce4bhnp2rcd13ifvqgvg","pricing_plan_id":"cebpf4jnsgd1na2vs0mg"},{"bike_id":"50849c11-3cff-4996-ab52-beb01f8836c7","system_id":"levelo_inurba_marseille","lat":43.26063,"lon":5.39401,"is_reserved":false,"is_disabled":false,"rental_uris":{"android":"levelo://app?vid=50849c11-3cff-4996-ab52-beb01f8836c7","ios":"levelo://app?vid=50849c11-3cff-4996-ab52-beb01f8836c7"},"vehicle_type_id":"4","last_reported":1728245347,"current_range_meters":9200,"station_id":"ce4bhh92rcd13ifvqfj0","pricing_plan_id":"cebpf4jnsgd1na2vs0mg"},{"bike_id":"b4da9d8b-9301-478c-9f01-3fa9f5b15d66","system_id":"levelo_inurba_marseille","lat":43.33607,"lon":5.41016,"is_reserved":false,"is_disabled":false,"rental_uris":{"android":"levelo://app?vid=b4da9d8b-9301-478c-9f01-3fa9f5b15d66","ios":"levelo://app?vid=b4da9d8b-9301-478c-9f01-3fa9f5b15d66"},"vehicle_type_id":"4","last_reported":1728245347,"current_range_meters":38800,"station_id":"ce4bhqh2rcd13ifvqhmg","pricing_plan_id":"cebpf4jnsgd1na2vs0mg"},{"bike_id":"7a348d21-f2e8-43e7-9c15-c14bb9bb72a2","system_id":"levelo_inurba_marseille","lat":43.29956,"lon":5.41324,"is_reserved":false,"is_disabled":false,"rental_uris":{"android":"levelo://app?vid=7a348d21-f2e8-43e7-9c15-c14bb9bb72a2","ios":"levelo://app?vid=7a348d21-f2e8-43e7-9c15-c14bb9bb72a2"},"vehicle_type_id":"4","last_reported":1728245347,"current_range_meters":22400,"station_id":"ce4bhp12rcd13ifvqh9g","pricing_plan_id":"cebpf4jnsgd1na2vs0mg"},{"bike_id":"e337e2fc-66bb-45cf-accc-092f6809fbeb","system_id":"levelo_inurba_marseille","lat":43.24675,"lon":5.38163,"is_reserved":false,"is_disabled":false,"rental_uris":{"android":"levelo://app?vid=e337e2fc-66bb-45cf-accc-092f6809fbeb","ios":"levelo://app?vid=e337e2fc-66bb-45cf-accc-092f6809fbeb"},"vehicle_type_id":"4","last_reported":1728245347,"current_range_meters":38400,"station_id":"ce4bhih2rcd13ifvqfr0","pricing_plan_id":"cebpf4jnsgd1na2vs0mg"},{"bike_id":"6b85f1aa-8089-48ad-94d4-250fceea6bae","system_id":"levelo_inurba_marseille","lat":43.28029,"lon":5.36948,"is_reserved":false,"is_disabled":false,"rental_uris":{"android":"levelo://app?vid=6b85f1aa-8089-48ad-94d4-250fceea6bae","ios":"levelo://app?vid=6b85f1aa-8089-48ad-94d4-250fceea6bae"},"vehicle_type_id":"4","last_reported":1728245347,"current_range_meters":24400,"station_id":"ce4bha12rcd13ifvqef0","pricing_plan_id":"cebpf4jnsgd1na2vs0mg"},{"bike_id":"8bd16631-5fed-4070-bcdf-51a0bee6bb63","system_id":"levelo_inurba_marseille","lat":43.27934,"lon":5.41042,"is_reserved":false,"is_disabled":false,"rental_uris":{"android":"levelo://app?vid=8bd16631-5fed-4070-bcdf-51a0bee6bb63","ios":"levelo://app?vid=8bd16631-5fed-4070-bcdf-51a0bee6bb63"},"vehicle_type_id":"4","last_reported":1728245347,"current_range_meters":25600,"station_id":"ce4bhnp2rcd13ifvqh0g","pricing_plan_id":"cebpf4jnsgd1na2vs0mg"},{"bike_id":"6f9298d0-5f53-433b-9c4a-49e3bb21c6ea","system_id":"levelo_inurba_marseille","lat":43.28354,"lon":5.38103,"is_reserved":false,"is_disabled":false,"rental_uris":{"android":"levelo://app?vid=6f9298d0-5f53-433b-9c4a-49e3bb21c6ea","ios":"levelo://app?vid=6f9298d0-5f53-433b-9c4a-49e3bb21c6ea"},"vehicle_type_id":"4","last_reported":1728245347,"current_range_meters":24800,"station_id":"ce4bh412rcd13ifvqdr0","pricing_plan_id":"cebpf4jnsgd1na2vs0mg"},{"bike_id":"66a81085-1a96-4f65-934a-3195a2059afa","system_id":"levelo_inurba_marseille","lat":43.24656,"lon":5.38903,"is_reserved":false,"is_disabled":false,"rental_uris":{"android":"levelo://app?vid=66a81085-1a96-4f65-934a-3195a2059afa","ios":"levelo://app?vid=66a81085-1a96-4f65-934a-3195a2059afa"},"vehicle_type_id":"4","last_reported":1728245347,"current_range_meters":29600,"station_id":"ce4bhg12rcd13ifvqf60","pricing_plan_id":"cebpf4jnsgd1na2vs0mg"},{"bike_id":"de418b94-658a-4cf4-80c0-81d87cf7e675","system_id":"levelo_inurba_marseille","lat":43.2925,"lon":5.40914,"is_reserved":false,"is_disabled":false,"rental_uris":{"android":"levelo://app?vid=de418b94-658a-4cf4-80c0-81d87cf7e675","ios":"levelo://app?vid=de418b94-658a-4cf4-80c0-81d87cf7e675"},"vehicle_type_id":"4","last_reported":1728245347,"current_range_meters":24000,"station_id":"ce4bh192rcd13ifvqdc0","pricing_plan_id":"cebpf4jnsgd1na2vs0mg"},{"bike_id":"2bea7207-ca58-43c7-a5dc-8427afd5fc98","system_id":"levelo_inurba_marseille","lat":43.25473,"lon":5.41242,"is_reserved":false,"is_disabled":false,"rental_uris":{"android":"levelo://app?vid=2bea7207-ca58-43c7-a5dc-8427afd5fc98","ios":"levelo://app?vid=2bea7207-ca58-43c7-a5dc-8427afd5fc98"},"vehicle_type_id":"4","last_reported":1728245347,"current_range_meters":3200,"station_id":"","pricing_plan_id":"cebpf4jnsgd1na2vs0mg"},{"bike_id":"61bec512-5c79-4055-a048-77e59c5d1c57","system_id":"levelo_inurba_marseille","lat":43.2847,"lon":5.35876,"is_reserved":false,"is_disabled":false,"rental_uris":{"android":"levelo://app?vid=61bec512-5c79-4055-a048-77e59c5d1c57","ios":"levelo://app?vid=61bec512-5c79-4055-a048-77e59c5d1c57"},"vehicle_type_id":"4","last_reported":1728245347,"current_range_meters":35200,"station_id":"ce4bhah2rcd13ifvqei0","pricing_plan_id":"cebpf4jnsgd1na2vs0mg"},{"bike_id":"b15507aa-9663-460a-acd3-1d919ec55220","system_id":"levelo_inurba_marseille","lat":43.23188,"lon":5.39982,"is_reserved":false,"is_disabled":false,"rental_uris":{"android":"levelo://app?vid=b15507aa-9663-460a-acd3-1d919ec55220","ios":"levelo://app?vid=b15507aa-9663-460a-acd3-1d919ec55220"},"vehicle_type_id":"4","last_reported":1728245347,"current_range_meters":38800,"station_id":"ce4bhn12rcd13ifvqgqg","pricing_plan_id":"cebpf4jnsgd1na2vs0mg"},{"bike_id":"1c6ced08-6c65-4e22-a8e3-0734c3156234","system_id":"levelo_inurba_marseille","lat":43.25723,"lon":5.41114,"is_reserved":false,"is_disabled":false,"rental_uris":{"android":"levelo://app?vid=1c6ced08-6c65-4e22-a8e3-0734c3156234","ios":"levelo://app?vid=1c6ced08-6c65-4e22-a8e3-0734c3156234"},"vehicle_type_id":"4","last_reported":1728245347,"current_range_meters":38000,"station_id":"ce4bhkp2rcd13ifvqgd0","pricing_plan_id":"cebpf4jnsgd1na2vs0mg"},{"bike_id":"e5336800-d8c8-4239-9cb7-6dfcdbd9bc7f","system_id":"levelo_inurba_marseille","lat":43.29519,"lon":5.39039,"is_reserved":false,"is_disabled":false,"rental_uris":{"android":"levelo://app?vid=e5336800-d8c8-4239-9cb7-6dfcdbd9bc7f","ios":"levelo://app?vid=e5336800-d8c8-4239-9cb7-6dfcdbd9bc7f"},"vehicle_type_id":"4","last_reported":1728245347,"current_range_meters":17200,"station_id":"ce4bh3p2rcd13ifvqdp0","pricing_plan_id":"cebpf4jnsgd1na2vs0mg"},{"bike_id":"f778ad0e-484b-4fc7-9fd1-05f22ac4addc","system_id":"levelo_inurba_marseille","lat":43.303986,"lon":5.368186,"is_reserved":false,"is_disabled":false,"rental_uris":{"android":"levelo://app?vid=f778ad0e-484b-4fc7-9fd1-05f22ac4addc","ios":"levelo://app?vid=f778ad0e-484b-4fc7-9fd1-05f22ac4addc"},"vehicle_type_id":"4","last_reported":1728245347,"current_range_meters":27200,"station_id":"ce4bgqh2rcd13ifvqc5g","pricing_plan_id":"cebpf4jnsgd1na2vs0mg"},{"bike_id":"9c3c6e29-f85a-4bf4-9052-4821a3e5d6d2","system_id":"levelo_inurba_marseille","lat":43.28674,"lon":5.38669,"is_reserved":false,"is_disabled":false,"rental_uris":{"android":"levelo://app?vid=9c3c6e29-f85a-4bf4-9052-4821a3e5d6d2","ios":"levelo://app?vid=9c3c6e29-f85a-4bf4-9052-4821a3e5d6d2"},"vehicle_type_id":"4","last_reported":1728245347,"current_range_meters":8400,"station_id":"ce4bh492rcd13ifvqdug","pricing_plan_id":"cebpf4jnsgd1na2vs0mg"},{"bike_id":"68b77a88-2067-422a-ab7b-e29094a40dcc","system_id":"levelo_inurba_marseille","lat":43.25122,"lon":5.40313,"is_reserved":false,"is_disabled":false,"rental_uris":{"android":"levelo://app?vid=68b77a88-2067-422a-ab7b-e29094a40dcc","ios":"levelo://app?vid=68b77a88-2067-422a-ab7b-e29094a40dcc"},"vehicle_type_id":"4","last_reported":1728245347,"current_range_meters":38800,"station_id":"ce4bhlh2rcd13ifvqgig","pricing_plan_id":"cebpf4jnsgd1na2vs0mg"},{"bike_id":"d51eaf5d-1b71-4452-a5f4-f94770573444","system_id":"levelo_inurba_marseille","lat":43.30136,"lon":5.37408,"is_reserved":false,"is_disabled":false,"rental_uris":{"android":"levelo://app?vid=d51eaf5d-1b71-4452-a5f4-f94770573444","ios":"levelo://app?vid=d51eaf5d-1b71-4452-a5f4-f94770573444"},"vehicle_type_id":"4","last_reported":1728245347,"current_range_meters":35600,"station_id":"ce4bgs92rcd13ifvqcc0","pricing_plan_id":"cebpf4jnsgd1na2vs0mg"},{"bike_id":"8b5d7733-b439-4eff-8c2f-be6f7c9f03aa","system_id":"levelo_inurba_marseille","lat":43.28935,"lon":5.36395,"is_reserved":false,"is_disabled":false,"rental_uris":{"android":"levelo://app?vid=8b5d7733-b439-4eff-8c2f-be6f7c9f03aa","ios":"levelo://app?vid=8b5d7733-b439-4eff-8c2f-be6f7c9f03aa"},"vehicle_type_id":"4","last_reported":1728245347,"current_range_meters":6400,"station_id":"ce4bhc92rcd13ifvqetg","pricing_plan_id":"cebpf4jnsgd1na2vs0mg"},{"bike_id":"c0b8ebee-27ae-4c0f-a6ac-85e96575653e","system_id":"levelo_inurba_marseille","lat":43.28458,"lon":5.35884,"is_reserved":false,"is_disabled":false,"rental_uris":{"android":"levelo://app?vid=c0b8ebee-27ae-4c0f-a6ac-85e96575653e","ios":"levelo://app?vid=c0b8ebee-27ae-4c0f-a6ac-85e96575653e"},"vehicle_type_id":"4","last_reported":1728245347,"current_range_meters":10800,"station_id":"ce4bhah2rcd13ifvqei0","pricing_plan_id":"cebpf4jnsgd1na2vs0mg"},{"bike_id":"fd7017ae-b3c1-486d-9a11-7c66a0a1bb00","system_id":"levelo_inurba_marseille","lat":43.29791,"lon":5.39345,"is_reserved":false,"is_disabled":false,"rental_uris":{"android":"levelo://app?vid=fd7017ae-b3c1-486d-9a11-7c66a0a1bb00","ios":"levelo://app?vid=fd7017ae-b3c1-486d-9a11-7c66a0a1bb00"},"vehicle_type_id":"4","last_reported":1728245347,"current_range_meters":28800,"station_id":"chh1huq6cuj3fo74tm60","pricing_plan_id":"cebpf4jnsgd1na2vs0mg"},{"bike_id":"e6355a35-2b07-4c2a-9762-5b0e3c26ab07","system_id":"levelo_inurba_marseille","lat":43.30529,"lon":5.36547,"is_reserved":false,"is_disabled":false,"rental_uris":{"android":"levelo://app?vid=e6355a35-2b07-4c2a-9762-5b0e3c26ab07","ios":"levelo://app?vid=e6355a35-2b07-4c2a-9762-5b0e3c26ab07"},"vehicle_type_id":"4","last_reported":1728245347,"current_range_meters":27600,"station_id":"ce4bgs12rcd13ifvqcag","pricing_plan_id":"cebpf4jnsgd1na2vs0mg"},{"bike_id":"e51864b4-b2df-4b37-9671-7625c60fadc4","system_id":"levelo_inurba_marseille","lat":43.28963,"lon":5.3916,"is_reserved":false,"is_disabled":false,"rental_uris":{"android":"levelo://app?vid=e51864b4-b2df-4b37-9671-7625c60fadc4","ios":"levelo://app?vid=e51864b4-b2df-4b37-9671-7625c60fadc4"},"vehicle_type_id":"4","last_reported":1728245347,"current_range_meters":36400,"station_id":"","pricing_plan_id":"cebpf4jnsgd1na2vs0mg"},{"bike_id":"ad8b4a48-8d2c-4456-93da-970dbca9306e","system_id":"levelo_inurba_marseille","lat":43.31007,"lon":5.378174,"is_reserved":false,"is_disabled":false,"rental_uris":{"android":"levelo://app?vid=ad8b4a48-8d2c-4456-93da-970dbca9306e","ios":"levelo://app?vid=ad8b4a48-8d2c-4456-93da-970dbca9306e"},"vehicle_type_id":"4","last_reported":1728245347,"current_range_meters":38800,"station_id":"","pricing_plan_id":"cebpf4jnsgd1na2vs0mg"},{"bike_id":"a285724e-d8b9-484f-a9d0-bf71614174b2","system_id":"levelo_inurba_marseille","lat":43.29554,"lon":5.42289,"is_reserved":false,"is_disabled":false,"rental_uris":{"android":"levelo://app?vid=a285724e-d8b9-484f-a9d0-bf71614174b2","ios":"levelo://app?vid=a285724e-d8b9-484f-a9d0-bf71614174b2"},"vehicle_type_id":"4","last_reported":1728245347,"current_range_meters":39200,"station_id":"ce4bhph2rcd13ifvqhdg","pricing_plan_id":"cebpf4jnsgd1na2vs0mg"},{"bike_id":"5c95c647-d3eb-4ba6-881d-3b353c9a2f59","system_id":"levelo_inurba_marseille","lat":43.28106,"lon":5.3784,"is_reserved":false,"is_disabled":false,"rental_uris":{"android":"levelo://app?vid=5c95c647-d3eb-4ba6-881d-3b353c9a2f59","ios":"levelo://app?vid=5c95c647-d3eb-4ba6-881d-3b353c9a2f59"},"vehicle_type_id":"4","last_reported":1728245347,"current_range_meters":38000,"station_id":"ce4bha12rcd13ifvqee0","pricing_plan_id":"cebpf4jnsgd1na2vs0mg"},{"bike_id":"27c5f2a9-8158-45c6-b742-4db159c5f60d","system_id":"levelo_inurba_marseille","lat":43.31334,"lon":5.39692,"is_reserved":false,"is_disabled":false,"rental_uris":{"android":"levelo://app?vid=27c5f2a9-8158-45c6-b742-4db159c5f60d","ios":"levelo://app?vid=27c5f2a9-8158-45c6-b742-4db159c5f60d"},"vehicle_type_id":"4","last_reported":1728245347,"current_range_meters":30000,"station_id":"ce4bgvp2rcd13ifvqcu0","pricing_plan_id":"cebpf4jnsgd1na2vs0mg"},{"bike_id":"7b370d99-5247-45ef-a303-548109cf04e4","system_id":"levelo_inurba_marseille","lat":43.25731,"lon":5.41112,"is_reserved":false,"is_disabled":false,"rental_uris":{"android":"levelo://app?vid=7b370d99-5247-45ef-a303-548109cf04e4","ios":"levelo://app?vid=7b370d99-5247-45ef-a303-548109cf04e4"},"vehicle_type_id":"4","last_reported":1728245347,"current_range_meters":6400,"station_id":"ce4bhkp2rcd13ifvqgd0","pricing_plan_id":"cebpf4jnsgd1na2vs0mg"},{"bike_id":"f7452467-f43b-421e-891e-59c26efa3cb6","system_id":"levelo_inurba_marseille","lat":43.3249,"lon":5.36561,"is_reserved":false,"is_disabled":false,"rental_uris":{"android":"levelo://app?vid=f7452467-f43b-421e-891e-59c26efa3cb6","ios":"levelo://app?vid=f7452467-f43b-421e-891e-59c26efa3cb6"},"vehicle_type_id":"4","last_reported":1728245347,"current_range_meters":25200,"station_id":"ce4bhs12rcd13ifvqhvg","pricing_plan_id":"cebpf4jnsgd1na2vs0mg"},{"bike_id":"c62e897f-55d4-4bb1-acea-fc1f3f75a824","system_id":"levelo_inurba_marseille","lat":43.26209,"lon":5.37441,"is_reserved":false,"is_disabled":false,"rental_uris":{"android":"levelo://app?vid=c62e897f-55d4-4bb1-acea-fc1f3f75a824","ios":"levelo://app?vid=c62e897f-55d4-4bb1-acea-fc1f3f75a824"},"vehicle_type_id":"4","last_reported":1728245347,"current_range_meters":38800,"station_id":"ce4bhgp2rcd13ifvqfc0","pricing_plan_id":"cebpf4jnsgd1na2vs0mg"},{"bike_id":"46111dd5-309e-46c2-94a5-fd1026f78ab1","system_id":"levelo_inurba_marseille","lat":43.31125,"lon":5.37753,"is_reserved":false,"is_disabled":false,"rental_uris":{"android":"levelo://app?vid=46111dd5-309e-46c2-94a5-fd1026f78ab1","ios":"levelo://app?vid=46111dd5-309e-46c2-94a5-fd1026f78ab1"},"vehicle_type_id":"4","last_reported":1728245347,"current_range_meters":18000,"station_id":"ce4bgt92rcd13ifvqcg0","pricing_plan_id":"cebpf4jnsgd1na2vs0mg"},{"bike_id":"a6efd440-64c2-4bc6-9a2b-c6f1c2b5dae0","system_id":"levelo_inurba_marseille","lat":43.31076,"lon":5.383539,"is_reserved":false,"is_disabled":false,"rental_uris":{"android":"levelo://app?vid=a6efd440-64c2-4bc6-9a2b-c6f1c2b5dae0","ios":"levelo://app?vid=a6efd440-64c2-4bc6-9a2b-c6f1c2b5dae0"},"vehicle_type_id":"4","last_reported":1728245347,"current_range_meters":26000,"station_id":"ce4bgv92rcd13ifvqcr0","pricing_plan_id":"cebpf4jnsgd1na2vs0mg"},{"bike_id":"3af48eb3-1d1f-4a32-a948-7cc05add2405","system_id":"levelo_inurba_marseille","lat":43.24542,"lon":5.39524,"is_reserved":false,"is_disabled":false,"rental_uris":{"android":"levelo://app?vid=3af48eb3-1d1f-4a32-a948-7cc05add2405","ios":"levelo://app?vid=3af48eb3-1d1f-4a32-a948-7cc05add2405"},"vehicle_type_id":"4","last_reported":1728245347,"current_range_meters":29600,"station_id":"ce4bhlp2rcd13ifvqgjg","pricing_plan_id":"cebpf4jnsgd1na2vs0mg"},{"bike_id":"77e44f96-8992-4ec5-ba2c-5e51b9e5b288","system_id":"levelo_inurba_marseille","lat":43.27055,"lon":5.38785,"is_reserved":false,"is_disabled":false,"rental_uris":{"android":"levelo://app?vid=77e44f96-8992-4ec5-ba2c-5e51b9e5b288","ios":"levelo://app?vid=77e44f96-8992-4ec5-ba2c-5e51b9e5b288"},"vehicle_type_id":"4","last_reported":1728245347,"current_range_meters":35200,"station_id":"","pricing_plan_id":"cebpf4jnsgd1na2vs0mg"},{"bike_id":"e483c2df-b264-469a-9770-b5566865794c","system_id":"levelo_inurba_marseille","lat":43.28698,"lon":5.39986,"is_reserved":false,"is_disabled":false,"rental_uris":{"android":"levelo://app?vid=e483c2df-b264-469a-9770-b5566865794c","ios":"levelo://app?vid=e483c2df-b264-469a-9770-b5566865794c"},"vehicle_type_id":"4","last_reported":1728245347,"current_range_meters":36800,"station_id":"ce4bho92rcd13ifvqh3g","pricing_plan_id":"cebpf4jnsgd1na2vs0mg"},{"bike_id":"67c4d9dd-ea85-4b87-a82f-9d128e46f7d4","system_id":"levelo_inurba_marseille","lat":43.24547,"lon":5.39527,"is_reserved":false,"is_disabled":false,"rental_uris":{"android":"levelo://app?vid=67c4d9dd-ea85-4b87-a82f-9d128e46f7d4","ios":"levelo://app?vid=67c4d9dd-ea85-4b87-a82f-9d128e46f7d4"},"vehicle_type_id":"4","last_reported":1728245347,"current_range_meters":37600,"station_id":"ce4bhlp2rcd13ifvqgjg","pricing_plan_id":"cebpf4jnsgd1na2vs0mg"},{"bike_id":"b51ee6d2-4574-4587-a7f0-3852397ae634","system_id":"levelo_inurba_marseille","lat":43.22928,"lon":5.35385,"is_reserved":false,"is_disabled":false,"rental_uris":{"android":"levelo://app?vid=b51ee6d2-4574-4587-a7f0-3852397ae634","ios":"levelo://app?vid=b51ee6d2-4574-4587-a7f0-3852397ae634"},"vehicle_type_id":"4","last_reported":1728245347,"current_range_meters":35200,"station_id":"cpo3532slgdg3j2ikp40","pricing_plan_id":"cebpf4jnsgd1na2vs0mg"},{"bike_id":"b78de78d-efbe-4aaf-8db4-ebbfd97eb2d2","system_id":"levelo_inurba_marseille","lat":43.27368,"lon":5.36251,"is_reserved":false,"is_disabled":false,"rental_uris":{"android":"levelo://app?vid=b78de78d-efbe-4aaf-8db4-ebbfd97eb2d2","ios":"levelo://app?vid=b78de78d-efbe-4aaf-8db4-ebbfd97eb2d2"},"vehicle_type_id":"4","last_reported":1728245347,"current_range_meters":38400,"station_id":"ce4bhbh2rcd13ifvqeo0","pricing_plan_id":"cebpf4jnsgd1na2vs0mg"},{"bike_id":"8f2380c9-f987-4d57-93d3-6a20bde9aa94","system_id":"levelo_inurba_marseille","lat":43.32049,"lon":5.41553,"is_reserved":false,"is_disabled":false,"rental_uris":{"android":"levelo://app?vid=8f2380c9-f987-4d57-93d3-6a20bde9aa94","ios":"levelo://app?vid=8f2380c9-f987-4d57-93d3-6a20bde9aa94"},"vehicle_type_id":"4","last_reported":1728245347,"current_range_meters":38800,"station_id":"ce4bhq92rcd13ifvqhkg","pricing_plan_id":"cebpf4jnsgd1na2vs0mg"},{"bike_id":"5f60c541-6cd8-440c-af1b-186c8381e736","system_id":"levelo_inurba_marseille","lat":43.28437,"lon":5.39184,"is_reserved":false,"is_disabled":false,"rental_uris":{"android":"levelo://app?vid=5f60c541-6cd8-440c-af1b-186c8381e736","ios":"levelo://app?vid=5f60c541-6cd8-440c-af1b-186c8381e736"},"vehicle_type_id":"4","last_reported":1728245347,"current_range_meters":17200,"station_id":"ce4bhoh2rcd13ifvqh5g","pricing_plan_id":"cebpf4jnsgd1na2vs0mg"},{"bike_id":"98ea7e99-1a07-4ec1-a0c4-0774783d526f","system_id":"levelo_inurba_marseille","lat":43.27905,"lon":5.38003,"is_reserved":false,"is_disabled":false,"rental_uris":{"android":"levelo://app?vid=98ea7e99-1a07-4ec1-a0c4-0774783d526f","ios":"levelo://app?vid=98ea7e99-1a07-4ec1-a0c4-0774783d526f"},"vehicle_type_id":"4","last_reported":1728245347,"current_range_meters":7200,"station_id":"ce4bhf92rcd13ifvqf50","pricing_plan_id":"cebpf4jnsgd1na2vs0mg"},{"bike_id":"4e0c83a2-b0c3-4894-8559-e509681998d3","system_id":"levelo_inurba_marseille","lat":43.31112,"lon":5.38325,"is_reserved":false,"is_disabled":false,"rental_uris":{"android":"levelo://app?vid=4e0c83a2-b0c3-4894-8559-e509681998d3","ios":"levelo://app?vid=4e0c83a2-b0c3-4894-8559-e509681998d3"},"vehicle_type_id":"4","last_reported":1728245347,"current_range_meters":8000,"station_id":"ce4bgv92rcd13ifvqcr0","pricing_plan_id":"cebpf4jnsgd1na2vs0mg"},{"bike_id":"a76ee3fd-363a-4d57-9618-b37ded534ce5","system_id":"levelo_inurba_marseille","lat":43.24392,"lon":5.37068,"is_reserved":false,"is_disabled":false,"rental_uris":{"android":"levelo://app?vid=a76ee3fd-363a-4d57-9618-b37ded534ce5","ios":"levelo://app?vid=a76ee3fd-363a-4d57-9618-b37ded534ce5"},"vehicle_type_id":"4","last_reported":1728245347,"current_range_meters":38000,"station_id":"ce4bhhh2rcd13ifvqfk0","pricing_plan_id":"cebpf4jnsgd1na2vs0mg"},{"bike_id":"b67db4f7-fde6-480c-8d2e-68a212fd648f","system_id":"levelo_inurba_marseille","lat":43.28265,"lon":5.3506,"is_reserved":false,"is_disabled":false,"rental_uris":{"android":"levelo://app?vid=b67db4f7-fde6-480c-8d2e-68a212fd648f","ios":"levelo://app?vid=b67db4f7-fde6-480c-8d2e-68a212fd648f"},"vehicle_type_id":"4","last_reported":1728245347,"current_range_meters":27600,"station_id":"ce4bhbp2rcd13ifvqerg","pricing_plan_id":"cebpf4jnsgd1na2vs0mg"},{"bike_id":"ae53a9d1-01ac-447b-a4c7-269e1c5ac403","system_id":"levelo_inurba_marseille","lat":43.31822,"lon":5.40632,"is_reserved":false,"is_disabled":false,"rental_uris":{"android":"levelo://app?vid=ae53a9d1-01ac-447b-a4c7-269e1c5ac403","ios":"levelo://app?vid=ae53a9d1-01ac-447b-a4c7-269e1c5ac403"},"vehicle_type_id":"4","last_reported":1728245347,"current_range_meters":10000,"station_id":"","pricing_plan_id":"cebpf4jnsgd1na2vs0mg"},{"bike_id":"583707f1-0e79-4991-97d9-91493229adea","system_id":"levelo_inurba_marseille","lat":43.32658,"lon":5.40995,"is_reserved":false,"is_disabled":false,"rental_uris":{"android":"levelo://app?vid=583707f1-0e79-4991-97d9-91493229adea","ios":"levelo://app?vid=583707f1-0e79-4991-97d9-91493229adea"},"vehicle_type_id":"4","last_reported":1728245347,"current_range_meters":38800,"station_id":"ce4bhpp2rcd13ifvqhgg","pricing_plan_id":"cebpf4jnsgd1na2vs0mg"},{"bike_id":"08b70c8a-f66e-4961-9183-062e687ee9f9","system_id":"levelo_inurba_marseille","lat":43.28458,"lon":5.3588,"is_reserved":false,"is_disabled":false,"rental_uris":{"android":"levelo://app?vid=08b70c8a-f66e-4961-9183-062e687ee9f9","ios":"levelo://app?vid=08b70c8a-f66e-4961-9183-062e687ee9f9"},"vehicle_type_id":"4","last_reported":1728245347,"current_range_meters":24000,"station_id":"ce4bhah2rcd13ifvqei0","pricing_plan_id":"cebpf4jnsgd1na2vs0mg"},{"bike_id":"f78d3fb0-9f99-4c45-ae1f-edf0a6e323e2","system_id":"levelo_inurba_marseille","lat":43.28463,"lon":5.35888,"is_reserved":false,"is_disabled":false,"rental_uris":{"android":"levelo://app?vid=f78d3fb0-9f99-4c45-ae1f-edf0a6e323e2","ios":"levelo://app?vid=f78d3fb0-9f99-4c45-ae1f-edf0a6e323e2"},"vehicle_type_id":"4","last_reported":1728245347,"current_range_meters":18800,"station_id":"ce4bhah2rcd13ifvqei0","pricing_plan_id":"cebpf4jnsgd1na2vs0mg"},{"bike_id":"8dea3b3f-b6ec-4739-9037-42b898bbb532","system_id":"levelo_inurba_marseille","lat":43.31329,"lon":5.39698,"is_reserved":false,"is_disabled":false,"rental_uris":{"android":"levelo://app?vid=8dea3b3f-b6ec-4739-9037-42b898bbb532","ios":"levelo://app?vid=8dea3b3f-b6ec-4739-9037-42b898bbb532"},"vehicle_type_id":"4","last_reported":1728245347,"current_range_meters":19600,"station_id":"ce4bgvp2rcd13ifvqcu0","pricing_plan_id":"cebpf4jnsgd1na2vs0mg"},{"bike_id":"c50e441c-d247-4c47-85e3-c59071bb20fa","system_id":"levelo_inurba_marseille","lat":43.24542,"lon":5.39528,"is_reserved":false,"is_disabled":false,"rental_uris":{"android":"levelo://app?vid=c50e441c-d247-4c47-85e3-c59071bb20fa","ios":"levelo://app?vid=c50e441c-d247-4c47-85e3-c59071bb20fa"},"vehicle_type_id":"4","last_reported":1728245347,"current_range_meters":28000,"station_id":"ce4bhlp2rcd13ifvqgjg","pricing_plan_id":"cebpf4jnsgd1na2vs0mg"},{"bike_id":"cb0c4bb6-cb6f-4371-b1cd-d16d8e1b0e2d","system_id":"levelo_inurba_marseille","lat":43.23186,"lon":5.39985,"is_reserved":false,"is_disabled":false,"rental_uris":{"android":"levelo://app?vid=cb0c4bb6-cb6f-4371-b1cd-d16d8e1b0e2d","ios":"levelo://app?vid=cb0c4bb6-cb6f-4371-b1cd-d16d8e1b0e2d"},"vehicle_type_id":"4","last_reported":1728245347,"current_range_meters":38800,"station_id":"ce4bhn12rcd13ifvqgqg","pricing_plan_id":"cebpf4jnsgd1na2vs0mg"},{"bike_id":"dedca5b6-ecdf-4e7e-9f3d-a9e55b21a234","system_id":"levelo_inurba_marseille","lat":43.29922,"lon":5.3746,"is_reserved":false,"is_disabled":false,"rental_uris":{"android":"levelo://app?vid=dedca5b6-ecdf-4e7e-9f3d-a9e55b21a234","ios":"levelo://app?vid=dedca5b6-ecdf-4e7e-9f3d-a9e55b21a234"},"vehicle_type_id":"4","last_reported":1728245347,"current_range_meters":36000,"station_id":"ce4bgjh2rcd13ifvqbg0","pricing_plan_id":"cebpf4jnsgd1na2vs0mg"},{"bike_id":"2c3e549a-0bb2-4fb9-bd22-57595391bba7","system_id":"levelo_inurba_marseille","lat":43.28474,"lon":5.3843,"is_reserved":false,"is_disabled":false,"rental_uris":{"android":"levelo://app?vid=2c3e549a-0bb2-4fb9-bd22-57595391bba7","ios":"levelo://app?vid=2c3e549a-0bb2-4fb9-bd22-57595391bba7"},"vehicle_type_id":"4","last_reported":1728245347,"current_range_meters":38800,"station_id":"ce4bh512rcd13ifvqe3g","pricing_plan_id":"cebpf4jnsgd1na2vs0mg"},{"bike_id":"6b4618ac-bf15-42bd-b8ce-f62f3e28352b","system_id":"levelo_inurba_marseille","lat":43.23196,"lon":5.35552,"is_reserved":false,"is_disabled":false,"rental_uris":{"android":"levelo://app?vid=6b4618ac-bf15-42bd-b8ce-f62f3e28352b","ios":"levelo://app?vid=6b4618ac-bf15-42bd-b8ce-f62f3e28352b"},"vehicle_type_id":"4","last_reported":1728245347,"current_range_meters":37600,"station_id":"ce4bhu92rcd13ifvqi70","pricing_plan_id":"cebpf4jnsgd1na2vs0mg"},{"bike_id":"3c47f2a0-ff0a-43bf-95de-f3b0ac5d3814","system_id":"levelo_inurba_marseille","lat":43.27839,"lon":5.39208,"is_reserved":false,"is_disabled":false,"rental_uris":{"android":"levelo://app?vid=3c47f2a0-ff0a-43bf-95de-f3b0ac5d3814","ios":"levelo://app?vid=3c47f2a0-ff0a-43bf-95de-f3b0ac5d3814"},"vehicle_type_id":"4","last_reported":1728245347,"current_range_meters":4000,"station_id":"ce4bhjp2rcd13ifvqga0","pricing_plan_id":"cebpf4jnsgd1na2vs0mg"},{"bike_id":"d81e8b70-0cec-4a83-ac18-c99848066d32","system_id":"levelo_inurba_marseille","lat":43.2408,"lon":5.37754,"is_reserved":false,"is_disabled":false,"rental_uris":{"android":"levelo://app?vid=d81e8b70-0cec-4a83-ac18-c99848066d32","ios":"levelo://app?vid=d81e8b70-0cec-4a83-ac18-c99848066d32"},"vehicle_type_id":"4","last_reported":1728245347,"current_range_meters":4000,"station_id":"ce4bhnp2rcd13ifvqgvg","pricing_plan_id":"cebpf4jnsgd1na2vs0mg"},{"bike_id":"33b7d013-2eae-430c-96ad-2d53089f744f","system_id":"levelo_inurba_marseille","lat":43.28708,"lon":5.39983,"is_reserved":false,"is_disabled":false,"rental_uris":{"android":"levelo://app?vid=33b7d013-2eae-430c-96ad-2d53089f744f","ios":"levelo://app?vid=33b7d013-2eae-430c-96ad-2d53089f744f"},"vehicle_type_id":"4","last_reported":1728245347,"current_range_meters":26800,"station_id":"ce4bho92rcd13ifvqh3g","pricing_plan_id":"cebpf4jnsgd1na2vs0mg"},{"bike_id":"bdefae95-7cc5-4880-bfcb-b1af39586be0","system_id":"levelo_inurba_marseille","lat":43.32657,"lon":5.41001,"is_reserved":false,"is_disabled":false,"rental_uris":{"android":"levelo://app?vid=bdefae95-7cc5-4880-bfcb-b1af39586be0","ios":"levelo://app?vid=bdefae95-7cc5-4880-bfcb-b1af39586be0"},"vehicle_type_id":"4","last_reported":1728245347,"current_range_meters":35600,"station_id":"ce4bhpp2rcd13ifvqhgg","pricing_plan_id":"cebpf4jnsgd1na2vs0mg"},{"bike_id":"7f2584c3-186b-4ca9-b416-bee639b50e12","system_id":"levelo_inurba_marseille","lat":43.22935,"lon":5.35379,"is_reserved":false,"is_disabled":false,"rental_uris":{"android":"levelo://app?vid=7f2584c3-186b-4ca9-b416-bee639b50e12","ios":"levelo://app?vid=7f2584c3-186b-4ca9-b416-bee639b50e12"},"vehicle_type_id":"4","last_reported":1728245347,"current_range_meters":28000,"station_id":"cpo3532slgdg3j2ikp40","pricing_plan_id":"cebpf4jnsgd1na2vs0mg"},{"bike_id":"57a613bc-e975-4da8-b28d-8c1363841008","system_id":"levelo_inurba_marseille","lat":43.30311,"lon":5.36894,"is_reserved":false,"is_disabled":false,"rental_uris":{"android":"levelo://app?vid=57a613bc-e975-4da8-b28d-8c1363841008","ios":"levelo://app?vid=57a613bc-e975-4da8-b28d-8c1363841008"},"vehicle_type_id":"4","last_reported":1728245347,"current_range_meters":39200,"station_id":"ce4bgqh2rcd13ifvqc5g","pricing_plan_id":"cebpf4jnsgd1na2vs0mg"},{"bike_id":"1d152269-c2fa-4900-bfa9-f20a095e29df","system_id":"levelo_inurba_marseille","lat":43.25721,"lon":5.41116,"is_reserved":false,"is_disabled":false,"rental_uris":{"android":"levelo://app?vid=1d152269-c2fa-4900-bfa9-f20a095e29df","ios":"levelo://app?vid=1d152269-c2fa-4900-bfa9-f20a095e29df"},"vehicle_type_id":"4","last_reported":1728245347,"current_range_meters":38400,"station_id":"ce4bhkp2rcd13ifvqgd0","pricing_plan_id":"cebpf4jnsgd1na2vs0mg"},{"bike_id":"eaca2dd7-3623-456a-a5a3-868893c89918","system_id":"levelo_inurba_marseille","lat":43.32291,"lon":5.38275,"is_reserved":false,"is_disabled":false,"rental_uris":{"android":"levelo://app?vid=eaca2dd7-3623-456a-a5a3-868893c89918","ios":"levelo://app?vid=eaca2dd7-3623-456a-a5a3-868893c89918"},"vehicle_type_id":"4","last_reported":1728245347,"current_range_meters":30000,"station_id":"ce4bhr12rcd13ifvqhqg","pricing_plan_id":"cebpf4jnsgd1na2vs0mg"},{"bike_id":"5182113f-8908-4825-903e-5a46e19bca5b","system_id":"levelo_inurba_marseille","lat":43.32472,"lon":5.3657,"is_reserved":false,"is_disabled":false,"rental_uris":{"android":"levelo://app?vid=5182113f-8908-4825-903e-5a46e19bca5b","ios":"levelo://app?vid=5182113f-8908-4825-903e-5a46e19bca5b"},"vehicle_type_id":"4","last_reported":1728245347,"current_range_meters":4400,"station_id":"ce4bhs12rcd13ifvqhvg","pricing_plan_id":"cebpf4jnsgd1na2vs0mg"},{"bike_id":"e03c9d0c-17ae-4003-b903-fd8aa9951041","system_id":"levelo_inurba_marseille","lat":43.33741,"lon":5.37447,"is_reserved":false,"is_disabled":false,"rental_uris":{"android":"levelo://app?vid=e03c9d0c-17ae-4003-b903-fd8aa9951041","ios":"levelo://app?vid=e03c9d0c-17ae-4003-b903-fd8aa9951041"},"vehicle_type_id":"4","last_reported":1728245347,"current_range_meters":32400,"station_id":"","pricing_plan_id":"cebpf4jnsgd1na2vs0mg"},{"bike_id":"34b03ad7-e8c3-4254-8ee4-4046b70e76be","system_id":"levelo_inurba_marseille","lat":43.28713,"lon":5.37928,"is_reserved":false,"is_disabled":false,"rental_uris":{"android":"levelo://app?vid=34b03ad7-e8c3-4254-8ee4-4046b70e76be","ios":"levelo://app?vid=34b03ad7-e8c3-4254-8ee4-4046b70e76be"},"vehicle_type_id":"4","last_reported":1728245347,"current_range_meters":38800,"station_id":"ce4bh9p2rcd13ifvqec0","pricing_plan_id":"cebpf4jnsgd1na2vs0mg"},{"bike_id":"818a31ed-61cf-418f-9ae1-fb2000acd187","system_id":"levelo_inurba_marseille","lat":43.28941,"lon":5.39624,"is_reserved":false,"is_disabled":false,"rental_uris":{"android":"levelo://app?vid=818a31ed-61cf-418f-9ae1-fb2000acd187","ios":"levelo://app?vid=818a31ed-61cf-418f-9ae1-fb2000acd187"},"vehicle_type_id":"4","last_reported":1728245347,"current_range_meters":7200,"station_id":"ce4bh3h2rcd13ifvqdn0","pricing_plan_id":"cebpf4jnsgd1na2vs0mg"},{"bike_id":"a2c46f7d-2232-4ba3-9358-e384a20c24fd","system_id":"levelo_inurba_marseille","lat":43.29913,"lon":5.37461,"is_reserved":false,"is_disabled":false,"rental_uris":{"android":"levelo://app?vid=a2c46f7d-2232-4ba3-9358-e384a20c24fd","ios":"levelo://app?vid=a2c46f7d-2232-4ba3-9358-e384a20c24fd"},"vehicle_type_id":"4","last_reported":1728245347,"current_range_meters":34800,"station_id":"ce4bgjh2rcd13ifvqbg0","pricing_plan_id":"cebpf4jnsgd1na2vs0mg"},{"bike_id":"e4bc0f18-6308-4df0-83a6-94be43b24696","system_id":"levelo_inurba_marseille","lat":43.307927,"lon":5.381353,"is_reserved":false,"is_disabled":false,"rental_uris":{"android":"levelo://app?vid=e4bc0f18-6308-4df0-83a6-94be43b24696","ios":"levelo://app?vid=e4bc0f18-6308-4df0-83a6-94be43b24696"},"vehicle_type_id":"4","last_reported":1728245347,"current_range_meters":35200,"station_id":"ce4bgqh2rcd13ifvqc4g","pricing_plan_id":"cebpf4jnsgd1na2vs0mg"},{"bike_id":"6f16e727-874c-457d-910c-26485a12cda0","system_id":"levelo_inurba_marseille","lat":43.27802,"lon":5.39217,"is_reserved":false,"is_disabled":false,"rental_uris":{"android":"levelo://app?vid=6f16e727-874c-457d-910c-26485a12cda0","ios":"levelo://app?vid=6f16e727-874c-457d-910c-26485a12cda0"},"vehicle_type_id":"4","last_reported":1728245347,"current_range_meters":28400,"station_id":"ce4bhjp2rcd13ifvqga0","pricing_plan_id":"cebpf4jnsgd1na2vs0mg"},{"bike_id":"a485b0d4-2721-435c-b41c-eed272d33850","system_id":"levelo_inurba_marseille","lat":43.25938,"lon":5.40903,"is_reserved":false,"is_disabled":false,"rental_uris":{"android":"levelo://app?vid=a485b0d4-2721-435c-b41c-eed272d33850","ios":"levelo://app?vid=a485b0d4-2721-435c-b41c-eed272d33850"},"vehicle_type_id":"4","last_reported":1728245347,"current_range_meters":25600,"station_id":"ce4bhm92rcd13ifvqglg","pricing_plan_id":"cebpf4jnsgd1na2vs0mg"},{"bike_id":"1311dd66-c7bc-4ab1-a000-6449f0aba32d","system_id":"levelo_inurba_marseille","lat":43.31329,"lon":5.39711,"is_reserved":false,"is_disabled":false,"rental_uris":{"android":"levelo://app?vid=1311dd66-c7bc-4ab1-a000-6449f0aba32d","ios":"levelo://app?vid=1311dd66-c7bc-4ab1-a000-6449f0aba32d"},"vehicle_type_id":"4","last_reported":1728245347,"current_range_meters":18800,"station_id":"ce4bgvp2rcd13ifvqcu0","pricing_plan_id":"cebpf4jnsgd1na2vs0mg"},{"bike_id":"3c75bc1c-1fd7-4134-887c-62313c63b0f0","system_id":"levelo_inurba_marseille","lat":43.3093,"lon":5.40148,"is_reserved":false,"is_disabled":false,"rental_uris":{"android":"levelo://app?vid=3c75bc1c-1fd7-4134-887c-62313c63b0f0","ios":"levelo://app?vid=3c75bc1c-1fd7-4134-887c-62313c63b0f0"},"vehicle_type_id":"4","last_reported":1728245347,"current_range_meters":9200,"station_id":"ce4bgvp2rcd13ifvqct0","pricing_plan_id":"cebpf4jnsgd1na2vs0mg"},{"bike_id":"3c595724-7662-406f-a849-68d1bbdb21b8","system_id":"levelo_inurba_marseille","lat":43.29169,"lon":5.37145,"is_reserved":false,"is_disabled":false,"rental_uris":{"android":"levelo://app?vid=3c595724-7662-406f-a849-68d1bbdb21b8","ios":"levelo://app?vid=3c595724-7662-406f-a849-68d1bbdb21b8"},"vehicle_type_id":"4","last_reported":1728245347,"current_range_meters":36800,"station_id":"ce4bha92rcd13ifvqeh0","pricing_plan_id":"cebpf4jnsgd1na2vs0mg"},{"bike_id":"d225f5ba-4021-4fcf-8bdd-acf0abf5705f","system_id":"levelo_inurba_marseille","lat":43.28155,"lon":5.4265,"is_reserved":false,"is_disabled":false,"rental_uris":{"android":"levelo://app?vid=d225f5ba-4021-4fcf-8bdd-acf0abf5705f","ios":"levelo://app?vid=d225f5ba-4021-4fcf-8bdd-acf0abf5705f"},"vehicle_type_id":"4","last_reported":1728245347,"current_range_meters":38800,"station_id":"ce4bhnh2rcd13ifvqgug","pricing_plan_id":"cebpf4jnsgd1na2vs0mg"},{"bike_id":"b399b2a6-b49b-4e13-9372-4ad753ff997a","system_id":"levelo_inurba_marseille","lat":43.32364,"lon":5.38889,"is_reserved":false,"is_disabled":false,"rental_uris":{"android":"levelo://app?vid=b399b2a6-b49b-4e13-9372-4ad753ff997a","ios":"levelo://app?vid=b399b2a6-b49b-4e13-9372-4ad753ff997a"},"vehicle_type_id":"4","last_reported":1728245347,"current_range_meters":9600,"station_id":"ce4bhqp2rcd13ifvqhog","pricing_plan_id":"cebpf4jnsgd1na2vs0mg"},{"bike_id":"24963a71-29fc-4b78-bc58-245c9bead978","system_id":"levelo_inurba_marseille","lat":43.33027,"lon":5.39034,"is_reserved":false,"is_disabled":false,"rental_uris":{"android":"levelo://app?vid=24963a71-29fc-4b78-bc58-245c9bead978","ios":"levelo://app?vid=24963a71-29fc-4b78-bc58-245c9bead978"},"vehicle_type_id":"4","last_reported":1728245347,"current_range_meters":38800,"station_id":"ce4bhr92rcd13ifvqhrg","pricing_plan_id":"cebpf4jnsgd1na2vs0mg"},{"bike_id":"f6624e50-1465-49ba-8d31-cff50dcde1ea","system_id":"levelo_inurba_marseille","lat":43.28853,"lon":5.39305,"is_reserved":false,"is_disabled":false,"rental_uris":{"android":"levelo://app?vid=f6624e50-1465-49ba-8d31-cff50dcde1ea","ios":"levelo://app?vid=f6624e50-1465-49ba-8d31-cff50dcde1ea"},"vehicle_type_id":"4","last_reported":1728245347,"current_range_meters":39200,"station_id":"ce4bh2p2rcd13ifvqdi0","pricing_plan_id":"cebpf4jnsgd1na2vs0mg"},{"bike_id":"0e19ddb6-6b85-4f53-a309-557f590b598b","system_id":"levelo_inurba_marseille","lat":43.23198,"lon":5.35548,"is_reserved":false,"is_disabled":false,"rental_uris":{"android":"levelo://app?vid=0e19ddb6-6b85-4f53-a309-557f590b598b","ios":"levelo://app?vid=0e19ddb6-6b85-4f53-a309-557f590b598b"},"vehicle_type_id":"4","last_reported":1728245347,"current_range_meters":30400,"station_id":"ce4bhu92rcd13ifvqi70","pricing_plan_id":"cebpf4jnsgd1na2vs0mg"},{"bike_id":"2ca2eab4-33f4-40dc-9934-5696c17296ed","system_id":"levelo_inurba_marseille","lat":43.28038,"lon":5.3694,"is_reserved":false,"is_disabled":false,"rental_uris":{"android":"levelo://app?vid=2ca2eab4-33f4-40dc-9934-5696c17296ed","ios":"levelo://app?vid=2ca2eab4-33f4-40dc-9934-5696c17296ed"},"vehicle_type_id":"4","last_reported":1728245347,"current_range_meters":22000,"station_id":"ce4bha12rcd13ifvqef0","pricing_plan_id":"cebpf4jnsgd1na2vs0mg"},{"bike_id":"4bce4647-55ab-4ef7-a3c7-b5fbbdf7fb03","system_id":"levelo_inurba_marseille","lat":43.337444,"lon":5.374475,"is_reserved":false,"is_disabled":false,"rental_uris":{"android":"levelo://app?vid=4bce4647-55ab-4ef7-a3c7-b5fbbdf7fb03","ios":"levelo://app?vid=4bce4647-55ab-4ef7-a3c7-b5fbbdf7fb03"},"vehicle_type_id":"4","last_reported":1728245347,"current_range_meters":3200,"station_id":"ce4bh092rcd13ifvqd30","pricing_plan_id":"cebpf4jnsgd1na2vs0mg"},{"bike_id":"c40e7473-eda8-467d-b04f-a7296f10feec","system_id":"levelo_inurba_marseille","lat":43.29697,"lon":5.3729,"is_reserved":false,"is_disabled":false,"rental_uris":{"android":"levelo://app?vid=c40e7473-eda8-467d-b04f-a7296f10feec","ios":"levelo://app?vid=c40e7473-eda8-467d-b04f-a7296f10feec"},"vehicle_type_id":"4","last_reported":1728245347,"current_range_meters":27600,"station_id":"ce4bgk12rcd13ifvqbj0","pricing_plan_id":"cebpf4jnsgd1na2vs0mg"},{"bike_id":"ad314c54-47cf-4b54-b628-eb4640061b9a","system_id":"levelo_inurba_marseille","lat":43.29019,"lon":5.38644,"is_reserved":false,"is_disabled":false,"rental_uris":{"android":"levelo://app?vid=ad314c54-47cf-4b54-b628-eb4640061b9a","ios":"levelo://app?vid=ad314c54-47cf-4b54-b628-eb4640061b9a"},"vehicle_type_id":"4","last_reported":1728245347,"current_range_meters":8000,"station_id":"ce4bh4p2rcd13ifvqe0g","pricing_plan_id":"cebpf4jnsgd1na2vs0mg"},{"bike_id":"e66da8c7-a84c-4985-baaf-b2561dc3e790","system_id":"levelo_inurba_marseille","lat":43.33021,"lon":5.39046,"is_reserved":false,"is_disabled":false,"rental_uris":{"android":"levelo://app?vid=e66da8c7-a84c-4985-baaf-b2561dc3e790","ios":"levelo://app?vid=e66da8c7-a84c-4985-baaf-b2561dc3e790"},"vehicle_type_id":"4","last_reported":1728245347,"current_range_meters":28000,"station_id":"ce4bhr92rcd13ifvqhrg","pricing_plan_id":"cebpf4jnsgd1na2vs0mg"},{"bike_id":"cabc8b22-23d1-4c1a-828e-b90289d4d027","system_id":"levelo_inurba_marseille","lat":43.28662,"lon":5.3636,"is_reserved":false,"is_disabled":false,"rental_uris":{"android":"levelo://app?vid=cabc8b22-23d1-4c1a-828e-b90289d4d027","ios":"levelo://app?vid=cabc8b22-23d1-4c1a-828e-b90289d4d027"},"vehicle_type_id":"4","last_reported":1728245347,"current_range_meters":8000,"station_id":"ce4bhah2rcd13ifvqej0","pricing_plan_id":"cebpf4jnsgd1na2vs0mg"},{"bike_id":"cf1a1b3b-49ea-4caa-8fab-0b8aa1173a1c","system_id":"levelo_inurba_marseille","lat":43.27372,"lon":5.36261,"is_reserved":false,"is_disabled":false,"rental_uris":{"android":"levelo://app?vid=cf1a1b3b-49ea-4caa-8fab-0b8aa1173a1c","ios":"levelo://app?vid=cf1a1b3b-49ea-4caa-8fab-0b8aa1173a1c"},"vehicle_type_id":"4","last_reported":1728245347,"current_range_meters":39200,"station_id":"ce4bhbh2rcd13ifvqeo0","pricing_plan_id":"cebpf4jnsgd1na2vs0mg"},{"bike_id":"dede0ffe-4b87-4984-abfa-91e1e5db514a","system_id":"levelo_inurba_marseille","lat":43.33732,"lon":5.39187,"is_reserved":false,"is_disabled":false,"rental_uris":{"android":"levelo://app?vid=dede0ffe-4b87-4984-abfa-91e1e5db514a","ios":"levelo://app?vid=dede0ffe-4b87-4984-abfa-91e1e5db514a"},"vehicle_type_id":"4","last_reported":1728245347,"current_range_meters":8000,"station_id":"ce4bhr92rcd13ifvqhsg","pricing_plan_id":"cebpf4jnsgd1na2vs0mg"},{"bike_id":"e38be91b-d0fb-4d9e-a680-a2ebe110a774","system_id":"levelo_inurba_marseille","lat":43.29373,"lon":5.37838,"is_reserved":false,"is_disabled":false,"rental_uris":{"android":"levelo://app?vid=e38be91b-d0fb-4d9e-a680-a2ebe110a774","ios":"levelo://app?vid=e38be91b-d0fb-4d9e-a680-a2ebe110a774"},"vehicle_type_id":"4","last_reported":1728245347,"current_range_meters":38000,"station_id":"ce4bgjh2rcd13ifvqbf0","pricing_plan_id":"cebpf4jnsgd1na2vs0mg"},