{"last_updated":1743764909,"ttl":60,"version":"2.2","data":{"bikes":[{"bike_id":"ef0c480a-5d24-4e45-8cab-d201b055cccb","system_id":"levelo_inurba_marseille","lat":43.27073,"lon":5.42277,"is_reserved":false,"is_disabled":false,"rental_uris":{"android":"levelo://app?vid=ef0c480a-5d24-4e45-8cab-d201b055cccb","ios":"levelo://app?vid=ef0c480a-5d24-4e45-8cab-d201b055cccb"},"vehicle_type_id":"4","last_reported":1743764909,"current_range_meters":2800,"station_id":"ce4bhk92rcd13ifvqgb0","pricing_plan_id":"cebpf4jnsgd1na2vs0mg"},{"bike_id":"32a978e0-d0c2-43d4-9b03-19a5c41c27de","system_id":"levelo_inurba_marseille","lat":43.31072,"lon":5.38348,"is_reserved":false,"is_disabled":true,"rental_uris":{"android":"levelo://app?vid=32a978e0-d0c2-43d4-9b03-19a5c41c27de","ios":"levelo://app?vid=32a978e0-d0c2-43d4-9b03-19a5c41c27de"},"vehicle_type_id":"4","last_reported":1743764909,"current_range_meters":3200,"station_id":"ce4bgv92rcd13ifvqcr0","pricing_plan_id":"cebpf4jnsgd1na2vs0mg"},{"bike_id":"428910d6-d925-4ece-8638-92d3931c2825","system_id":"levelo_inurba_marseille","lat":43.29527,"lon":5.38545,"is_reserved":false,"is_disabled":false,"rental_uris":{"android":"levelo://app?vid=428910d6-d925-4ece-8638-92d3931c2825","ios":"levelo://app?vid=428910d6-d925-4ece-8638-92d3931c2825"},"vehicle_type_id":"4","last_reported":1743764909,"current_range_meters":3600,"station_id":"ce4bgih2rcd13ifvqba0","pricing_plan_id":"cebpf4jnsgd1na2vs0mg"},{"bike_id":"fe803eb6-bcdd-4dc8-b068-c1e5632d26a5","system_id":"levelo_inurba_marseille","lat":43.2695,"lon":5.38626,"is_reserved":false,"is_disabled":false,"rental_uris":{"android":"levelo://app?vid=fe803eb6-bcdd-4dc8-b068-c1e5632d26a5","ios":"levelo://app?vid=fe803eb6-bcdd-4dc8-b068-c1e5632d26a5"},"vehicle_type_id":"4","last_reported":1743764909,"current_range_meters":3600,"station_id":"ce4bhh92rcd13ifvqfh0","pricing_plan_id":"cebpf4jnsgd1na2vs0mg"},{"bike_id":"c9c26386-4b0b-4882-b06b-20fcea815c98","system_id":"levelo_inurba_marseille","lat":43.28093,"lon":5.37843,"is_reserved":false,"is_disabled":false,"rental_uris":{"android":"levelo://app?vid=c9c26386-4b0b-4882-b06b-20fcea815c98","ios":"levelo://app?vid=c9c26386-4b0b-4882-b06b-20fcea815c98"},"vehicle_type_id":"4","last_reported":1743764909,"current_range_meters":4400,"station_id":"ce4bha12rcd13ifvqee0","pricing_plan_id":"cebpf4jnsgd1na2vs0mg"},{"bike_id":"0afdd983-da10-47f7-84de-7334a01a2289","system_id":"levelo_inurba_marseille","lat":43.28362,"lon":5.38621,"is_reserved":false,"is_disabled":false,"rental_uris":{"android":"levelo://app?vid=0afdd983-da10-47f7-84de-7334a01a2289","ios":"levelo://app?vid=0afdd983-da10-47f7-84de-7334a01a2289"},"vehicle_type_id":"4","last_reported":1743764909,"current_range_meters":6000,"station_id":"ce4bh492rcd13ifvqdvg","pricing_plan_id":"cebpf4jnsgd1na2vs0mg"},{"bike_id":"a07ab0b8-f608-4f6a-bfd9-787035bea85a","system_id":"levelo_inurba_marseille","lat":43.298465,"lon":5.376779,"is_reserved":false,"is_disabled":false,"rental_uris":{"android":"levelo://app?vid=a07ab0b8-f608-4f6a-bfd9-787035bea85a","ios":"levelo://app?vid=a07ab0b8-f608-4f6a-bfd9-787035bea85a"},"vehicle_type_id":"4","last_reported":1743764909,"current_range_meters":6000,"station_id":"ce4bgkh2rcd13ifvqbl0","pricing_plan_id":"cebpf4jnsgd1na2vs0mg"},{"bike_id":"1a804f64-f95a-400b-983a-8f77c05ea42b","system_id":"levelo_inurba_marseille","lat":43.29571,"lon":5.39972,"is_reserved":false,"is_disabled":false,"rental_uris":{"android":"levelo://app?vid=1a804f64-f95a-400b-983a-8f77c05ea42b","ios":"levelo://app?vid=1a804f64-f95a-400b-983a-8f77c05ea42b"},"vehicle_type_id":"4","last_reported":1743764909,"current_range_meters":4000,"station_id":"ce4bh312rcd13ifvqdj0","pricing_plan_id":"cebpf4jnsgd1na2vs0mg"},{"bike_id":"e3168bbd-8a47-4b77-af61-ad7c986679b7","system_id":"levelo_inurba_marseille","lat":43.24659,"lon":5.38152,"is_reserved":false,"is_disabled":false,"rental_uris":{"android":"levelo://app?vid=e3168bbd-8a47-4b77-af61-ad7c986679b7","ios":"levelo://app?vid=e3168bbd-8a47-4b77-af61-ad7c986679b7"},"vehicle_type_id":"4","last_reported":1743764909,"current_range_meters":4000,"station_id":"ce4bhih2rcd13ifvqfr0","pricing_plan_id":"cebpf4jnsgd1na2vs0mg"},{"bike_id":"b6f3950e-fa4f-4d0b-8571-e2b5e41c0620","system_id":"levelo_inurba_marseille","lat":43.30479,"lon":5.37912,"is_reserved":false,"is_disabled":false,"rental_uris":{"android":"levelo://app?vid=b6f3950e-fa4f-4d0b-8571-e2b5e41c0620","ios":"levelo://app?vid=b6f3950e-fa4f-4d0b-8571-e2b5e41c0620"},"vehicle_type_id":"4","last_reported":1743764909,"current_range_meters":4000,"station_id":"ce4bgup2rcd13ifvqcn0","pricing_plan_id":"cebpf4jnsgd1na2vs0mg"},{"bike_id":"e5aae8f7-b9d5-4a92-879e-94441741d923","system_id":"levelo_inurba_marseille","lat":43.27208,"lon":5.39179,"is_reserved":false,"is_disabled":false,"rental_uris":{"android":"levelo://app?vid=e5aae8f7-b9d5-4a92-879e-94441741d923","ios":"levelo://app?vid=e5aae8f7-b9d5-4a92-879e-94441741d923"},"vehicle_type_id":"4","last_reported":1743764909,"current_range_meters":3600,"station_id":"ce4bh0h2rcd13ifvqd40","pricing_plan_id":"cebpf4jnsgd1na2vs0mg"},{"bike_id":"c060267e-8471-4497-865f-6760088869e9","system_id":"levelo_inurba_marseille","lat":43.27325,"lon":5.39113,"is_reserved":false,"is_disabled":true,"rental_uris":{"android":"levelo://app?vid=c060267e-8471-4497-865f-6760088869e9","ios":"levelo://app?vid=c060267e-8471-4497-865f-6760088869e9"},"vehicle_type_id":"4","last_reported":1743764909,"current_range_meters":4400,"station_id":"ce4bhgp2rcd13ifvqfe0","pricing_plan_id":"cebpf4jnsgd1na2vs0mg"},{"bike_id":"fd79db7f-be0e-478f-b638-826514d749f9","system_id":"levelo_inurba_marseille","lat":43.29579,"lon":5.39979,"is_reserved":false,"is_disabled":false,"rental_uris":{"android":"levelo://app?vid=fd79db7f-be0e-478f-b638-826514d749f9","ios":"levelo://app?vid=fd79db7f-be0e-478f-b638-826514d749f9"},"vehicle_type_id":"4","last_reported":1743764909,"current_range_meters":4400,"station_id":"ce4bh312rcd13ifvqdj0","pricing_plan_id":"cebpf4jnsgd1na2vs0mg"},{"bike_id":"af8ff05e-2f5d-4114-91ba-5f6ae43b1e2c","system_id":"levelo_inurba_marseille","lat":43.295047,"lon":5.394054,"is_reserved":false,"is_disabled":false,"rental_uris":{"android":"levelo://app?vid=af8ff05e-2f5d-4114-91ba-5f6ae43b1e2c","ios":"levelo://app?vid=af8ff05e-2f5d-4114-91ba-5f6ae43b1e2c"},"vehicle_type_id":"4","last_reported":1743764909,"current_range_meters":4400,"station_id":"ce4bh292rcd13ifvqdf0","pricing_plan_id":"cebpf4jnsgd1na2vs0mg"},{"bike_id":"15ea3e20-e3c1-434f-8b50-88d1ebba3f71","system_id":"levelo_inurba_marseille","lat":43.23197,"lon":5.35574,"is_reserved":false,"is_disabled":false,"rental_uris":{"android":"levelo://app?vid=15ea3e20-e3c1-434f-8b50-88d1ebba3f71","ios":"levelo://app?vid=15ea3e20-e3c1-434f-8b50-88d1ebba3f71"},"vehicle_type_id":"4","last_reported":1743764909,"current_range_meters":4400,"station_id":"ce4bhu92rcd13ifvqi70","pricing_plan_id":"cebpf4jnsgd1na2vs0mg"},{"bike_id":"c2e6881a-04a3-4a38-9cc0-75cacf165e78","system_id":"levelo_inurba_marseille","lat":43.28832,"lon":5.364645,"is_reserved":false,"is_disabled":false,"rental_uris":{"android":"levelo://app?vid=c2e6881a-04a3-4a38-9cc0-75cacf165e78","ios":"levelo://app?vid=c2e6881a-04a3-4a38-9cc0-75cacf165e78"},"vehicle_type_id":"4","last_reported":1743764909,"current_range_meters":4800,"station_id":"","pricing_plan_id":"cebpf4jnsgd1na2vs0mg"},{"bike_id":"7a0b7cfe-63cd-4fa0-8706-ebbd07aea1a5","system_id":"levelo_inurba_marseille","lat":43.30593,"lon":5.37227,"is_reserved":false,"is_disabled":false,"rental_uris":{"android":"levelo://app?vid=7a0b7cfe-63cd-4fa0-8706-ebbd07aea1a5","ios":"levelo://app?vid=7a0b7cfe-63cd-4fa0-8706-ebbd07aea1a5"},"vehicle_type_id":"4","last_reported":1743764909,"current_range_meters":4800,"station_id":"ce4bgqh2rcd13ifvqc4g","pricing_plan_id":"cebpf4jnsgd1na2vs0mg"},{"bike_id":"e12ffc7a-0aab-41ab-9b8d-9a407753147d","system_id":"levelo_inurba_marseille","lat":43.31078,"lon":5.42428,"is_reserved":false,"is_disabled":false,"rental_uris":{"android":"levelo://app?vid=e12ffc7a-0aab-41ab-9b8d-9a407753147d","ios":"levelo://app?vid=e12ffc7a-0aab-41ab-9b8d-9a407753147d"},"vehicle_type_id":"4","last_reported":1743764909,"current_range_meters":4800,"station_id":"ce4bhp92rcd13ifvqhag","pricing_plan_id":"cebpf4jnsgd1na2vs0mg"},{"bike_id":"cfac7f2f-9679-4b60-a420-122c25601ef1","system_id":"levelo_inurba_marseille","lat":43.25595,"lon":5.3822,"is_reserved":false,"is_disabled":false,"rental_uris":{"android":"levelo://app?vid=cfac7f2f-9679-4b60-a420-122c25601ef1","ios":"levelo://app?vid=cfac7f2f-9679-4b60-a420-122c25601ef1"},"vehicle_type_id":"4","last_reported":1743764909,"current_range_meters":5600,"station_id":"ce4bhih2rcd13ifvqfs0","pricing_plan_id":"cebpf4jnsgd1na2vs0mg"},{"bike_id":"2f5ebb33-56ac-48ac-8004-513ec8b3c9df","system_id":"levelo_inurba_marseille","lat":43.25915,"lon":5.40905,"is_reserved":false,"is_disabled":false,"rental_uris":{"android":"levelo://app?vid=2f5ebb33-56ac-48ac-8004-513ec8b3c9df","ios":"levelo://app?vid=2f5ebb33-56ac-48ac-8004-513ec8b3c9df"},"vehicle_type_id":"4","last_reported":1743764909,"current_range_meters":5600,"station_id":"ce4bhm92rcd13ifvqglg","pricing_plan_id":"cebpf4jnsgd1na2vs0mg"},{"bike_id":"b25d5c52-a3b2-4e1d-9f2c-658fc628f8df","system_id":"levelo_inurba_marseille","lat":43.23201,"lon":5.35551,"is_reserved":false,"is_disabled":false,"rental_uris":{"android":"levelo://app?vid=b25d5c52-a3b2-4e1d-9f2c-658fc628f8df","ios":"levelo://app?vid=b25d5c52-a3b2-4e1d-9f2c-658fc628f8df"},"vehicle_type_id":"4","last_reported":1743764909,"current_range_meters":5600,"station_id":"ce4bhu92rcd13ifvqi70","pricing_plan_id":"cebpf4jnsgd1na2vs0mg"},{"bike_id":"5a61e0e9-ffe3-4301-82f1-052a02e20b73","system_id":"levelo_inurba_marseille","lat":43.29964,"lon":5.38492,"is_reserved":false,"is_disabled":false,"rental_uris":{"android":"levelo://app?vid=5a61e0e9-ffe3-4301-82f1-052a02e20b73","ios":"levelo://app?vid=5a61e0e9-ffe3-4301-82f1-052a02e20b73"},"vehicle_type_id":"4","last_reported":1743764909,"current_range_meters":4800,"station_id":"ce4bgj92rcd13ifvqbd0","pricing_plan_id":"cebpf4jnsgd1na2vs0mg"},{"bike_id":"fee6c8b8-57fd-4ef1-a793-b3a9a5ae15c1","system_id":"levelo_inurba_marseille","lat":43.27617,"lon":5.36117,"is_reserved":false,"is_disabled":false,"rental_uris":{"android":"levelo://app?vid=fee6c8b8-57fd-4ef1-a793-b3a9a5ae15c1","ios":"levelo://app?vid=fee6c8b8-57fd-4ef1-a793-b3a9a5ae15c1"},"vehicle_type_id":"4","last_reported":1743764909,"current_range_meters":5600,"station_id":"ce4bgj92rcd13ifvqbe0","pricing_plan_id":"cebpf4jnsgd1na2vs0mg"},{"bike_id":"94438c74-d1ef-4e8b-90c0-f1b0e700e81c","system_id":"levelo_inurba_marseille","lat":43.29192,"lon":5.39322,"is_reserved":false,"is_disabled":false,"rental_uris":{"android":"levelo://app?vid=94438c74-d1ef-4e8b-90c0-f1b0e700e81c","ios":"levelo://app?vid=94438c74-d1ef-4e8b-90c0-f1b0e700e81c"},"vehicle_type_id":"4","last_reported":1743764909,"current_range_meters":5600,"station_id":"ce4bh192rcd13ifvqdd0","pricing_plan_id":"cebpf4jnsgd1na2vs0mg"},{"bike_id":"cd83c8ac-ed09-4369-9279-b6f36f2bbd3c","system_id":"levelo_inurba_marseille","lat":43.337444,"lon":5.374475,"is_reserved":false,"is_disabled":false,"rental_uris":{"android":"levelo://app?vid=cd83c8ac-ed09-4369-9279-b6f36f2bbd3c","ios":"levelo://app?vid=cd83c8ac-ed09-4369-9279-b6f36f2bbd3c"},"vehicle_type_id":"4","last_reported":1743764909,"current_range_meters":6000,"station_id":"","pricing_plan_id":"cebpf4jnsgd1na2vs0mg"},{"bike_id":"bb546962-1fa1-425a-8552-959fd9ef7dda","system_id":"levelo_inurba_marseille","lat":43.26348,"lon":5.40459,"is_reserved":false,"is_disabled":false,"rental_uris":{"android":"levelo://app?vid=bb546962-1fa1-425a-8552-959fd9ef7dda","ios":"levelo://app?vid=bb546962-1fa1-425a-8552-959fd9ef7dda"},"vehicle_type_id":"4","last_reported":1743764909,"current_range_meters":6000,"station_id":"","pricing_plan_id":"cebpf4jnsgd1na2vs0mg"},{"bike_id":"08074c37-7f06-443b-8d16-528896b24dae","system_id":"levelo_inurba_marseille","lat":43.30556,"lon":5.36544,"is_reserved":false,"is_disabled":false,"rental_uris":{"android":"levelo://app?vid=08074c37-7f06-443b-8d16-528896b24dae","ios":"levelo://app?vid=08074c37-7f06-443b-8d16-528896b24dae"},"vehicle_type_id":"4","last_reported":1743764909,"current_range_meters":6400,"station_id":"ce4bgs12rcd13ifvqcag","pricing_plan_id":"cebpf4jnsgd1na2vs0mg"},{"bike_id":"4f38af3b-4c47-48d5-adf4-781343848b4a","system_id":"levelo_inurba_marseille","lat":43.30541,"lon":5.36528,"is_reserved":false,"is_disabled":false,"rental_uris":{"android":"levelo://app?vid=4f38af3b-4c47-48d5-adf4-781343848b4a","ios":"levelo://app?vid=4f38af3b-4c47-48d5-adf4-781343848b4a"},"vehicle_type_id":"4","last_reported":1743764909,"current_range_meters":6400,"station_id":"ce4bgs12rcd13ifvqcag","pricing_plan_id":"cebpf4jnsgd1na2vs0mg"},{"bike_id":"51b37761-f4db-4850-a6e4-1f3b516e8001","system_id":"levelo_inurba_marseille","lat":43.23125,"lon":5.43736,"is_reserved":false,"is_disabled":false,"rental_uris":{"android":"levelo://app?vid=51b37761-f4db-4850-a6e4-1f3b516e8001","ios":"levelo://app?vid=51b37761-f4db-4850-a6e4-1f3b516e8001"},"vehicle_type_id":"4","last_reported":1743764909,"current_range_meters":6400,"station_id":"ce4bhmp2rcd13ifvqgog","pricing_plan_id":"cebpf4jnsgd1na2vs0mg"},{"bike_id":"809559b0-fffd-4acf-812a-331838cb517f","system_id":"levelo_inurba_marseille","lat":43.239605,"lon":5.36607,"is_reserved":false,"is_disabled":false,"rental_uris":{"android":"levelo://app?vid=809559b0-fffd-4acf-812a-331838cb517f","ios":"levelo://app?vid=809559b0-fffd-4acf-812a-331838cb517f"},"vehicle_type_id":"4","last_reported":1743764909,"current_range_meters":6400,"station_id":"ce4bhi12rcd13ifvqfp0","pricing_plan_id":"cebpf4jnsgd1na2vs0mg"},{"bike_id":"71e55f99-90e5-4133-8167-5af8b2b35d7e","system_id":"levelo_inurba_marseille","lat":43.23057,"lon":5.35496,"is_reserved":false,"is_disabled":false,"rental_uris":{"android":"levelo://app?vid=71e55f99-90e5-4133-8167-5af8b2b35d7e","ios":"levelo://app?vid=71e55f99-90e5-4133-8167-5af8b2b35d7e"},"vehicle_type_id":"4","last_reported":1743764909,"current_range_meters":6400,"station_id":"cpo3342slgdg3j2ifvpg","pricing_plan_id":"cebpf4jnsgd1na2vs0mg"},{"bike_id":"084cbb04-8ff3-49f5-9fa5-4dfe1bb456da","system_id":"levelo_inurba_marseille","lat":43.30531,"lon":5.36722,"is_reserved":false,"is_disabled":false,"rental_uris":{"android":"levelo://app?vid=084cbb04-8ff3-49f5-9fa5-4dfe1bb456da","ios":"levelo://app?vid=084cbb04-8ff3-49f5-9fa5-4dfe1bb456da"},"vehicle_type_id":"4","last_reported":1743764909,"current_range_meters":6800,"station_id":"ce4bgrp2rcd13ifvqc9g","pricing_plan_id":"cebpf4jnsgd1na2vs0mg"},{"bike_id":"6c90095a-ea79-437b-84bd-d289fecb6911","system_id":"levelo_inurba_marseille","lat":43.26541,"lon":5.37285,"is_reserved":false,"is_disabled":false,"rental_uris":{"android":"levelo://app?vid=6c90095a-ea79-437b-84bd-d289fecb6911","ios":"levelo://app?vid=6c90095a-ea79-437b-84bd-d289fecb6911"},"vehicle_type_id":"4","last_reported":1743764909,"current_range_meters":6800,"station_id":"ce4bhg12rcd13ifvqf70","pricing_plan_id":"cebpf4jnsgd1na2vs0mg"},{"bike_id":"306c58b5-5ed7-4475-8447-122559db3f5d","system_id":"levelo_inurba_marseille","lat":43.25498,"lon":5.376504,"is_reserved":false,"is_disabled":false,"rental_uris":{"android":"levelo://app?vid=306c58b5-5ed7-4475-8447-122559db3f5d","ios":"levelo://app?vid=306c58b5-5ed7-4475-8447-122559db3f5d"},"vehicle_type_id":"4","last_reported":1743764909,"current_range_meters":6800,"station_id":"ce4bhh12rcd13ifvqff0","pricing_plan_id":"cebpf4jnsgd1na2vs0mg"},{"bike_id":"c13336a2-47ce-488c-b5b6-77c01a3ac1d1","system_id":"levelo_inurba_marseille","lat":43.31899,"lon":5.40744,"is_reserved":false,"is_disabled":true,"rental_uris":{"android":"levelo://app?vid=c13336a2-47ce-488c-b5b6-77c01a3ac1d1","ios":"levelo://app?vid=c13336a2-47ce-488c-b5b6-77c01a3ac1d1"},"vehicle_type_id":"4","last_reported":1743764909,"current_range_meters":6800,"station_id":"ce4bhq12rcd13ifvqhig","pricing_plan_id":"cebpf4jnsgd1na2vs0mg"},{"bike_id":"08412614-9a7f-42c5-91c9-6bf43ea0736a","system_id":"levelo_inurba_marseille","lat":43.23158,"lon":5.43714,"is_reserved":false,"is_disabled":false,"rental_uris":{"android":"levelo://app?vid=08412614-9a7f-42c5-91c9-6bf43ea0736a","ios":"levelo://app?vid=08412614-9a7f-42c5-91c9-6bf43ea0736a"},"vehicle_type_id":"4","last_reported":1743764909,"current_range_meters":6800,"station_id":"ce4bhmp2rcd13ifvqgog","pricing_plan_id":"cebpf4jnsgd1na2vs0mg"},{"bike_id":"73d854ad-9eb6-4d68-8878-e9b2295ae65a","system_id":"levelo_inurba_marseille","lat":43.23062,"lon":5.35492,"is_reserved":false,"is_disabled":false,"rental_uris":{"android":"levelo://app?vid=73d854ad-9eb6-4d68-8878-e9b2295ae65a","ios":"levelo://app?vid=73d854ad-9eb6-4d68-8878-e9b2295ae65a"},"vehicle_type_id":"4","last_reported":1743764909,"current_range_meters":7200,"station_id":"cpo3342slgdg3j2ifvpg","pricing_plan_id":"cebpf4jnsgd1na2vs0mg"},{"bike_id":"9b0d6412-5793-43c9-83e8-2932555d825f","system_id":"levelo_inurba_marseille","lat":43.26561,"lon":5.39006,"is_reserved":false,"is_disabled":false,"rental_uris":{"android":"levelo://app?vid=9b0d6412-5793-43c9-83e8-2932555d825f","ios":"levelo://app?vid=9b0d6412-5793-43c9-83e8-2932555d825f"},"vehicle_type_id":"4","last_reported":1743764909,"current_range_meters":7200,"station_id":"ce4bhe12rcd13ifvqf30","pricing_plan_id":"cebpf4jnsgd1na2vs0mg"},{"bike_id":"92e1f810-fbcc-48c8-afed-fc585a214326","system_id":"levelo_inurba_marseille","lat":43.30931,"lon":5.401812,"is_reserved":false,"is_disabled":false,"rental_uris":{"android":"levelo://app?vid=92e1f810-fbcc-48c8-afed-fc585a214326","ios":"levelo://app?vid=92e1f810-fbcc-48c8-afed-fc585a214326"},"vehicle_type_id":"4","last_reported":1743764909,"current_range_meters":6800,"station_id":"ce4bgvp2rcd13ifvqct0","pricing_plan_id":"cebpf4jnsgd1na2vs0mg"},{"bike_id":"ee788175-bf94-430f-84ae-b13766bc400d","system_id":"levelo_inurba_marseille","lat":43.27979,"lon":5.38733,"is_reserved":false,"is_disabled":false,"rental_uris":{"android":"levelo://app?vid=ee788175-bf94-430f-84ae-b13766bc400d","ios":"levelo://app?vid=ee788175-bf94-430f-84ae-b13766bc400d"},"vehicle_type_id":"4","last_reported":1743764909,"current_range_meters":4400,"station_id":"ce4bhg12rcd13ifvqf80","pricing_plan_id":"cebpf4jnsgd1na2vs0mg"},{"bike_id":"8d7eab5b-bc43-48f5-9c97-0948b42ca6cf","system_id":"levelo_inurba_marseille","lat":43.22935,"lon":5.35391,"is_reserved":false,"is_disabled":false,"rental_uris":{"android":"levelo://app?vid=8d7eab5b-bc43-48f5-9c97-0948b42ca6cf","ios":"levelo://app?vid=8d7eab5b-bc43-48f5-9c97-0948b42ca6cf"},"vehicle_type_id":"4","last_reported":1743764909,"current_range_meters":7200,"station_id":"cpo3532slgdg3j2ikp40","pricing_plan_id":"cebpf4jnsgd1na2vs0mg"},{"bike_id":"3853ede3-0cd9-497c-8f5d-b068e5128efb","system_id":"levelo_inurba_marseille","lat":43.2466,"lon":5.38162,"is_reserved":false,"is_disabled":false,"rental_uris":{"android":"levelo://app?vid=3853ede3-0cd9-497c-8f5d-b068e5128efb","ios":"levelo://app?vid=3853ede3-0cd9-497c-8f5d-b068e5128efb"},"vehicle_type_id":"4","last_reported":1743764909,"current_range_meters":8000,"station_id":"ce4bhih2rcd13ifvqfr0","pricing_plan_id":"cebpf4jnsgd1na2vs0mg"},{"bike_id":"a9cf6f5d-bf0a-4d16-89b9-b1cc7fcfeff8","system_id":"levelo_inurba_marseille","lat":43.30143,"lon":5.37423,"is_reserved":false,"is_disabled":false,"rental_uris":{"android":"levelo://app?vid=a9cf6f5d-bf0a-4d16-89b9-b1cc7fcfeff8","ios":"levelo://app?vid=a9cf6f5d-bf0a-4d16-89b9-b1cc7fcfeff8"},"vehicle_type_id":"4","last_reported":1743764909,"current_range_meters":8000,"station_id":"ce4bgs92rcd13ifvqcc0","pricing_plan_id":"cebpf4jnsgd1na2vs0mg"},{"bike_id":"e3a29d38-a611-4b12-87ef-2fb8a21c41d5","system_id":"levelo_inurba_marseille","lat":43.22933,"lon":5.3537,"is_reserved":false,"is_disabled":false,"rental_uris":{"android":"levelo://app?vid=e3a29d38-a611-4b12-87ef-2fb8a21c41d5","ios":"levelo://app?vid=e3a29d38-a611-4b12-87ef-2fb8a21c41d5"},"vehicle_type_id":"4","last_reported":1743764909,"current_range_meters":8000,"station_id":"cpo3532slgdg3j2ikp40","pricing_plan_id":"cebpf4jnsgd1na2vs0mg"},{"bike_id":"efddeda7-6eb2-4c14-868d-fa0ce0b35ef3","system_id":"levelo_inurba_marseille","lat":43.31286,"lon":5.38296,"is_reserved":false,"is_disabled":false,"rental_uris":{"android":"levelo://app?vid=efddeda7-6eb2-4c14-868d-fa0ce0b35ef3","ios":"levelo://app?vid=efddeda7-6eb2-4c14-868d-fa0ce0b35ef3"},"vehicle_type_id":"4","last_reported":1743764909,"current_range_meters":8000,"station_id":"","pricing_plan_id":"cebpf4jnsgd1na2vs0mg"},{"bike_id":"19f632ac-ecac-4d78-926b-cb5cb48b0091","system_id":"levelo_inurba_marseille","lat":43.33608,"lon":5.41005,"is_reserved":false,"is_disabled":false,"rental_uris":{"android":"levelo://app?vid=19f632ac-ecac-4d78-926b-cb5cb48b0091","ios":"levelo://app?vid=19f632ac-ecac-4d78-926b-cb5cb48b0091"},"vehicle_type_id":"4","last_reported":1743764909,"current_range_meters":8000,"station_id":"ce4bhqh2rcd13ifvqhmg","pricing_plan_id":"cebpf4jnsgd1na2vs0mg"},{"bike_id":"2ff3068f-074f-4569-bb32-aaa56c528ef2","system_id":"levelo_inurba_marseille","lat":43.27915,"lon":5.39581,"is_reserved":false,"is_disabled":false,"rental_uris":{"android":"levelo://app?vid=2ff3068f-074f-4569-bb32-aaa56c528ef2","ios":"levelo://app?vid=2ff3068f-074f-4569-bb32-aaa56c528ef2"},"vehicle_type_id":"4","last_reported":1743764909,"current_range_meters":8000,"station_id":"ce4bhf92rcd13ifvqf40","pricing_plan_id":"cebpf4jnsgd1na2vs0mg"},{"bike_id":"b3eac9c5-b95b-4848-a104-d84634d1a70c","system_id":"levelo_inurba_marseille","lat":43.337444,"lon":5.374475,"is_reserved":false,"is_disabled":false,"rental_uris":{"android":"levelo://app?vid=b3eac9c5-b95b-4848-a104-d84634d1a70c","ios":"levelo://app?vid=b3eac9c5-b95b-4848-a104-d84634d1a70c"},"vehicle_type_id":"4","last_reported":1743764909,"current_range_meters":8000,"station_id":"","pricing_plan_id":"cebpf4jnsgd1na2vs0mg"},{"bike_id":"d5e6a452-d2f8-4072-9937-a25391b3ae0a","system_id":"levelo_inurba_marseille","lat":43.281,"lon":5.3783,"is_reserved":false,"is_disabled":false,"rental_uris":{"android":"levelo://app?vid=d5e6a452-d2f8-4072-9937-a25391b3ae0a","ios":"levelo://app?vid=d5e6a452-d2f8-4072-9937-a25391b3ae0a"},"vehicle_type_id":"4","last_reported":1743764909,"current_range_meters":8000,"station_id":"ce4bha12rcd13ifvqee0","pricing_plan_id":"cebpf4jnsgd1na2vs0mg"},{"bike_id":"832a2c8f-6e92-47ce-92d5-6b41675d215c","system_id":"levelo_inurba_marseille","lat":43.23181,"lon":5.43693,"is_reserved":false,"is_disabled":false,"rental_uris":{"android":"levelo://app?vid=832a2c8f-6e92-47ce-92d5-6b41675d215c","ios":"levelo://app?vid=832a2c8f-6e92-47ce-92d5-6b41675d215c"},"vehicle_type_id":"4","last_reported":1743764909,"current_range_meters":8000,"station_id":"ce4bhmp2rcd13ifvqgog","pricing_plan_id":"cebpf4jnsgd1na2vs0mg"},{"bike_id":"4a0cb5ec-891f-471c-8860-9d6c3a83a3a9","system_id":"levelo_inurba_marseille","lat":43.30391,"lon":5.42481,"is_reserved":false,"is_disabled":false,"rental_uris":{"android":"levelo://app?vid=4a0cb5ec-891f-471c-8860-9d6c3a83a3a9","ios":"levelo://app?vid=4a0cb5ec-891f-471c-8860-9d6c3a83a3a9"},"vehicle_type_id":"4","last_reported":1743764909,"current_range_meters":8000,"station_id":"ce4bhoh2rcd13ifvqh6g","pricing_plan_id":"cebpf4jnsgd1na2vs0mg"},{"bike_id":"cc9f2530-ceb9-46b1-bdfd-cad1a0645b48","system_id":"levelo_inurba_marseille","lat":43.26065,"lon":5.39393,"is_reserved":false,"is_disabled":false,"rental_uris":{"android":"levelo://app?vid=cc9f2530-ceb9-46b1-bdfd-cad1a0645b48","ios":"levelo://app?vid=cc9f2530-ceb9-46b1-bdfd-cad1a0645b48"},"vehicle_type_id":"4","last_reported":1743764909,"current_range_meters":8000,"station_id":"ce4bhh92rcd13ifvqfj0","pricing_plan_id":"cebpf4jnsgd1na2vs0mg"},{"bike_id":"ca4ac817-b6ef-4c9f-9992-fbf0bd1ba468","system_id":"levelo_inurba_marseille","lat":43.287068,"lon":5.379516,"is_reserved":false,"is_disabled":false,"rental_uris":{"android":"levelo://app?vid=ca4ac817-b6ef-4c9f-9992-fbf0bd1ba468","ios":"levelo://app?vid=ca4ac817-b6ef-4c9f-9992-fbf0bd1ba468"},"vehicle_type_id":"4","last_reported":1743764909,"current_range_meters":8400,"station_id":"ce4bh412rcd13ifvqdr0","pricing_plan_id":"cebpf4jnsgd1na2vs0mg"},{"bike_id":"3cf22d29-90b6-4c79-a643-886bc3743ca7","system_id":"levelo_inurba_marseille","lat":43.33414,"lon":5.40067,"is_reserved":false,"is_disabled":false,"rental_uris":{"android":"levelo://app?vid=3cf22d29-90b6-4c79-a643-886bc3743ca7","ios":"levelo://app?vid=3cf22d29-90b6-4c79-a643-886bc3743ca7"},"vehicle_type_id":"4","last_reported":1743764909,"current_range_meters":8400,"station_id":"","pricing_plan_id":"cebpf4jnsgd1na2vs0mg"},{"bike_id":"6b78a5a6-362c-449d-9b1a-3d3751f3b2d3","system_id":"levelo_inurba_marseille","lat":43.29009,"lon":5.38133,"is_reserved":false,"is_disabled":false,"rental_uris":{"android":"levelo://app?vid=6b78a5a6-362c-449d-9b1a-3d3751f3b2d3","ios":"levelo://app?vid=6b78a5a6-362c-449d-9b1a-3d3751f3b2d3"},"vehicle_type_id":"4","last_reported":1743764909,"current_range_meters":8400,"station_id":"ce4bh4p2rcd13ifvqe1g","pricing_plan_id":"cebpf4jnsgd1na2vs0mg"},{"bike_id":"87f5a95c-06f1-4229-90b2-c6c53b1de7d0","system_id":"levelo_inurba_marseille","lat":43.23175,"lon":5.40005,"is_reserved":false,"is_disabled":false,"rental_uris":{"android":"levelo://app?vid=87f5a95c-06f1-4229-90b2-c6c53b1de7d0","ios":"levelo://app?vid=87f5a95c-06f1-4229-90b2-c6c53b1de7d0"},"vehicle_type_id":"4","last_reported":1743764909,"current_range_meters":8000,"station_id":"ce4bhn12rcd13ifvqgqg","pricing_plan_id":"cebpf4jnsgd1na2vs0mg"},{"bike_id":"c959dc82-cdf6-487f-a7ee-0cb98b2f8bdb","system_id":"levelo_inurba_marseille","lat":43.27614,"lon":5.36111,"is_reserved":false,"is_disabled":false,"rental_uris":{"android":"levelo://app?vid=c959dc82-cdf6-487f-a7ee-0cb98b2f8bdb","ios":"levelo://app?vid=c959dc82-cdf6-487f-a7ee-0cb98b2f8bdb"},"vehicle_type_id":"4","last_reported":1743764909,"current_range_meters":8400,"station_id":"ce4bgj92rcd13ifvqbe0","pricing_plan_id":"cebpf4jnsgd1na2vs0mg"},{"bike_id":"d76832c4-3604-4de9-b7a5-182f7c6e995c","system_id":"levelo_inurba_marseille","lat":43.31355,"lon":5.3849,"is_reserved":false,"is_disabled":true,"rental_uris":{"android":"levelo://app?vid=d76832c4-3604-4de9-b7a5-182f7c6e995c","ios":"levelo://app?vid=d76832c4-3604-4de9-b7a5-182f7c6e995c"},"vehicle_type_id":"4","last_reported":1743764909,"current_range_meters":8400,"station_id":"ce4bgt92rcd13ifvqcf0","pricing_plan_id":"cebpf4jnsgd1na2vs0mg"},{"bike_id":"358f186a-28be-483d-89ec-9c9433cf4641","system_id":"levelo_inurba_marseille","lat":43.28154,"lon":5.42643,"is_reserved":false,"is_disabled":false,"rental_uris":{"android":"levelo://app?vid=358f186a-28be-483d-89ec-9c9433cf4641","ios":"levelo://app?vid=358f186a-28be-483d-89ec-9c9433cf4641"},"vehicle_type_id":"4","last_reported":1743764909,"current_range_meters":8400,"station_id":"ce4bhnh2rcd13ifvqgug","pricing_plan_id":"cebpf4jnsgd1na2vs0mg"},{"bike_id":"349eff65-458e-4ac7-acad-e47b15044981","system_id":"levelo_inurba_marseille","lat":43.24177,"lon":5.39727,"is_reserved":false,"is_disabled":false,"rental_uris":{"android":"levelo://app?vid=349eff65-458e-4ac7-acad-e47b15044981","ios":"levelo://app?vid=349eff65-458e-4ac7-acad-e47b15044981"},"vehicle_type_id":"4","last_reported":1743764909,"current_range_meters":8400,"station_id":"ce4bhn12rcd13ifvqgpg","pricing_plan_id":"cebpf4jnsgd1na2vs0mg"},{"bike_id":"19224d95-e048-4cbb-8884-43e0e6b3db9b","system_id":"levelo_inurba_marseille","lat":43.29874,"lon":5.39744,"is_reserved":false,"is_disabled":true,"rental_uris":{"android":"levelo://app?vid=19224d95-e048-4cbb-8884-43e0e6b3db9b","ios":"levelo://app?vid=19224d95-e048-4cbb-8884-43e0e6b3db9b"},"vehicle_type_id":"4","last_reported":1743764909,"current_range_meters":8400,"station_id":"ce4bh0h2rcd13ifvqd50","pricing_plan_id":"cebpf4jnsgd1na2vs0mg"},{"bike_id":"3a42c58e-1d6e-4134-a0c6-87f36c889124","system_id":"levelo_inurba_marseille","lat":43.27994,"lon":5.40009,"is_reserved":false,"is_disabled":false,"rental_uris":{"android":"levelo://app?vid=3a42c58e-1d6e-4134-a0c6-87f36c889124","ios":"levelo://app?vid=3a42c58e-1d6e-4134-a0c6-87f36c889124"},"vehicle_type_id":"4","last_reported":1743764909,"current_range_meters":8400,"station_id":"ce4bho92rcd13ifvqh4g","pricing_plan_id":"cebpf4jnsgd1na2vs0mg"},{"bike_id":"9fd1db98-81d3-4150-b516-93c9e5e39fda","system_id":"levelo_inurba_marseille","lat":43.23146,"lon":5.43719,"is_reserved":false,"is_disabled":false,"rental_uris":{"android":"levelo://app?vid=9fd1db98-81d3-4150-b516-93c9e5e39fda","ios":"levelo://app?vid=9fd1db98-81d3-4150-b516-93c9e5e39fda"},"vehicle_type_id":"4","last_reported":1743764909,"current_range_meters":8400,"station_id":"ce4bhmp2rcd13ifvqgog","pricing_plan_id":"cebpf4jnsgd1na2vs0mg"},{"bike_id":"60ddb400-da26-4b7e-8922-eda4ccd378d1","system_id":"levelo_inurba_marseille","lat":43.34139,"lon":5.40909,"is_reserved":false,"is_disabled":false,"rental_uris":{"android":"levelo://app?vid=60ddb400-da26-4b7e-8922-eda4ccd378d1","ios":"levelo://app?vid=60ddb400-da26-4b7e-8922-eda4ccd378d1"},"vehicle_type_id":"4","last_reported":1743764909,"current_range_meters":8400,"station_id":"ce4bhqh2rcd13ifvqhlg","pricing_plan_id":"cebpf4jnsgd1na2vs0mg"},{"bike_id":"18d89147-ad14-4ed9-a1df-c775f6d73f2d","system_id":"levelo_inurba_marseille","lat":43.313244,"lon":5.396856,"is_reserved":false,"is_disabled":false,"rental_uris":{"android":"levelo://app?vid=18d89147-ad14-4ed9-a1df-c775f6d73f2d","ios":"levelo://app?vid=18d89147-ad14-4ed9-a1df-c775f6d73f2d"},"vehicle_type_id":"4","last_reported":1743764909,"current_range_meters":12400,"station_id":"ce4bgvp2rcd13ifvqcu0","pricing_plan_id":"cebpf4jnsgd1na2vs0mg"},{"bike_id":"03816fdf-2fa9-4f33-a46f-c2904673af85","system_id":"levelo_inurba_marseille","lat":43.31112,"lon":5.37765,"is_reserved":false,"is_disabled":false,"rental_uris":{"android":"levelo://app?vid=03816fdf-2fa9-4f33-a46f-c2904673af85","ios":"levelo://app?vid=03816fdf-2fa9-4f33-a46f-c2904673af85"},"vehicle_type_id":"4","last_reported":1743764909,"current_range_meters":8800,"station_id":"ce4bgt92rcd13ifvqcg0","pricing_plan_id":"cebpf4jnsgd1na2vs0mg"},{"bike_id":"a22a3f17-ae37-4230-8e73-1e9301b19278","system_id":"levelo_inurba_marseille","lat":43.25582,"lon":5.3823,"is_reserved":false,"is_disabled":false,"rental_uris":{"android":"levelo://app?vid=a22a3f17-ae37-4230-8e73-1e9301b19278","ios":"levelo://app?vid=a22a3f17-ae37-4230-8e73-1e9301b19278"},"vehicle_type_id":"4","last_reported":1743764909,"current_range_meters":8800,"station_id":"ce4bhih2rcd13ifvqfs0","pricing_plan_id":"cebpf4jnsgd1na2vs0mg"},{"bike_id":"d83d8646-a96a-4b87-b900-aa718344d298","system_id":"levelo_inurba_marseille","lat":43.28354,"lon":5.38106,"is_reserved":false,"is_disabled":false,"rental_uris":{"android":"levelo://app?vid=d83d8646-a96a-4b87-b900-aa718344d298","ios":"levelo://app?vid=d83d8646-a96a-4b87-b900-aa718344d298"},"vehicle_type_id":"4","last_reported":1743764909,"current_range_meters":10800,"station_id":"ce4bh412rcd13ifvqdr0","pricing_plan_id":"cebpf4jnsgd1na2vs0mg"},{"bike_id":"77e1cca1-9afa-4062-8d36-bac30c3b0ae7","system_id":"levelo_inurba_marseille","lat":43.32367,"lon":5.36757,"is_reserved":false,"is_disabled":false,"rental_uris":{"android":"levelo://app?vid=77e1cca1-9afa-4062-8d36-bac30c3b0ae7","ios":"levelo://app?vid=77e1cca1-9afa-4062-8d36-bac30c3b0ae7"},"vehicle_type_id":"4","last_reported":1743764909,"current_range_meters":8800,"station_id":"ce4bhsh2rcd13ifvqi2g","pricing_plan_id":"cebpf4jnsgd1na2vs0mg"},{"bike_id":"63139285-137c-4e8d-8e95-6c2a275f8333","system_id":"levelo_inurba_marseille","lat":43.32104,"lon":5.36796,"is_reserved":false,"is_disabled":false,"rental_uris":{"android":"levelo://app?vid=63139285-137c-4e8d-8e95-6c2a275f8333","ios":"levelo://app?vid=63139285-137c-4e8d-8e95-6c2a275f8333"},"vehicle_type_id":"4","last_reported":1743764909,"current_range_meters":8800,"station_id":"ce4bhrh2rcd13ifvqhug","pricing_plan_id":"cebpf4jnsgd1na2vs0mg"},{"bike_id":"5f46717b-05d1-4f34-a220-8087932d755b","system_id":"levelo_inurba_marseille","lat":43.30099,"lon":5.369408,"is_reserved":false,"is_disabled":false,"rental_uris":{"android":"levelo://app?vid=5f46717b-05d1-4f34-a220-8087932d755b","ios":"levelo://app?vid=5f46717b-05d1-4f34-a220-8087932d755b"},"vehicle_type_id":"4","last_reported":1743764909,"current_range_meters":8800,"station_id":"","pricing_plan_id":"cebpf4jnsgd1na2vs0mg"},{"bike_id":"d74de204-9eaa-4988-914f-f6377f761c47","system_id":"levelo_inurba_marseille","lat":43.29196,"lon":5.35798,"is_reserved":false,"is_disabled":false,"rental_uris":{"android":"levelo://app?vid=d74de204-9eaa-4988-914f-f6377f761c47","ios":"levelo://app?vid=d74de204-9eaa-4988-914f-f6377f761c47"},"vehicle_type_id":"4","last_reported":1743764909,"current_range_meters":8800,"station_id":"ce4bhb12rcd13ifvqel0","pricing_plan_id":"cebpf4jnsgd1na2vs0mg"},{"bike_id":"5e99151a-1fda-4794-b5fd-ba46169efeb1","system_id":"levelo_inurba_marseille","lat":43.28946,"lon":5.36401,"is_reserved":false,"is_disabled":false,"rental_uris":{"android":"levelo://app?vid=5e99151a-1fda-4794-b5fd-ba46169efeb1","ios":"levelo://app?vid=5e99151a-1fda-4794-b5fd-ba46169efeb1"},"vehicle_type_id":"4","last_reported":1743764909,"current_range_meters":9200,"station_id":"ce4bhc92rcd13ifvqetg","pricing_plan_id":"cebpf4jnsgd1na2vs0mg"},{"bike_id":"6f8e08d2-d131-470c-a3f3-a743893102e1","system_id":"levelo_inurba_marseille","lat":43.298498,"lon":5.362845,"is_reserved":false,"is_disabled":false,"rental_uris":{"android":"levelo://app?vid=6f8e08d2-d131-470c-a3f3-a743893102e1","ios":"levelo://app?vid=6f8e08d2-d131-470c-a3f3-a743893102e1"},"vehicle_type_id":"4","last_reported":1743764909,"current_range_meters":9200,"station_id":"ce4bgpp2rcd13ifvqc3g","pricing_plan_id":"cebpf4jnsgd1na2vs0mg"},{"bike_id":"69c0db05-6ded-4dc6-9720-2452c83c1020","system_id":"levelo_inurba_marseille","lat":43.22948,"lon":5.35396,"is_reserved":false,"is_disabled":false,"rental_uris":{"android":"levelo://app?vid=69c0db05-6ded-4dc6-9720-2452c83c1020","ios":"levelo://app?vid=69c0db05-6ded-4dc6-9720-2452c83c1020"},"vehicle_type_id":"4","last_reported":1743764909,"current_range_meters":9200,"station_id":"cpo3532slgdg3j2ikp40","pricing_plan_id":"cebpf4jnsgd1na2vs0mg"},{"bike_id":"ddca5218-543c-41d1-bd44-dd0d8995fa9b","system_id":"levelo_inurba_marseille","lat":43.29899,"lon":5.4367,"is_reserved":false,"is_disabled":false,"rental_uris":{"android":"levelo://app?vid=ddca5218-543c-41d1-bd44-dd0d8995fa9b","ios":"levelo://app?vid=ddca5218-543c-41d1-bd44-dd0d8995fa9b"},"vehicle_type_id":"4","last_reported":1743764909,"current_range_meters":8800,"station_id":"ce4bhpp2rcd13ifvqhfg","pricing_plan_id":"cebpf4jnsgd1na2vs0mg"},{"bike_id":"4aa58d7a-942d-4903-b11a-a4c4b1c787bc","system_id":"levelo_inurba_marseille","lat":43.33599,"lon":5.41029,"is_reserved":false,"is_disabled":false,"rental_uris":{"android":"levelo://app?vid=4aa58d7a-942d-4903-b11a-a4c4b1c787bc","ios":"levelo://app?vid=4aa58d7a-942d-4903-b11a-a4c4b1c787bc"},"vehicle_type_id":"4","last_reported":1743764909,"current_range_meters":9200,"station_id":"ce4bhqh2rcd13ifvqhmg","pricing_plan_id":"cebpf4jnsgd1na2vs0mg"},{"bike_id":"5c611aa4-ce8b-45e6-90b4-76ba4765914b","system_id":"levelo_inurba_marseille","lat":43.33036,"lon":5.3903,"is_reserved":false,"is_disabled":false,"rental_uris":{"android":"levelo://app?vid=5c611aa4-ce8b-45e6-90b4-76ba4765914b","ios":"levelo://app?vid=5c611aa4-ce8b-45e6-90b4-76ba4765914b"},"vehicle_type_id":"4","last_reported":1743764909,"current_range_meters":9600,"station_id":"ce4bhr92rcd13ifvqhrg","pricing_plan_id":"cebpf4jnsgd1na2vs0mg"},{"bike_id":"ab7b44af-23e1-4c7e-9733-1ae6e5b52612","system_id":"levelo_inurba_marseille","lat":43.26554,"lon":5.37287,"is_reserved":false,"is_disabled":false,"rental_uris":{"android":"levelo://app?vid=ab7b44af-23e1-4c7e-9733-1ae6e5b52612","ios":"levelo://app?vid=ab7b44af-23e1-4c7e-9733-1ae6e5b52612"},"vehicle_type_id":"4","last_reported":1743764909,"current_range_meters":9600,"station_id":"ce4bhg12rcd13ifvqf70","pricing_plan_id":"cebpf4jnsgd1na2vs0mg"},{"bike_id":"78e5bb22-d409-467d-afbe-ec82c44f55e7","system_id":"levelo_inurba_marseille","lat":43.27809,"lon":5.40709,"is_reserved":false,"is_disabled":false,"rental_uris":{"android":"levelo://app?vid=78e5bb22-d409-467d-afbe-ec82c44f55e7","ios":"levelo://app?vid=78e5bb22-d409-467d-afbe-ec82c44f55e7"},"vehicle_type_id":"4","last_reported":1743764909,"current_range_meters":16400,"station_id":"ce4bhnh2rcd13ifvqgtg","pricing_plan_id":"cebpf4jnsgd1na2vs0mg"},{"bike_id":"80538649-1945-45e9-99ba-56f08f5ca6f8","system_id":"levelo_inurba_marseille","lat":43.26676,"lon":5.3828,"is_reserved":false,"is_disabled":false,"rental_uris":{"android":"levelo://app?vid=80538649-1945-45e9-99ba-56f08f5ca6f8","ios":"levelo://app?vid=80538649-1945-45e9-99ba-56f08f5ca6f8"},"vehicle_type_id":"4","last_reported":1743764909,"current_range_meters":9600,"station_id":"ce4bhg92rcd13ifvqf90","pricing_plan_id":"cebpf4jnsgd1na2vs0mg"},{"bike_id":"d1f730fa-fe43-4d3c-876c-f4d875823f16","system_id":"levelo_inurba_marseille","lat":43.33604,"lon":5.4103,"is_reserved":false,"is_disabled":false,"rental_uris":{"android":"levelo://app?vid=d1f730fa-fe43-4d3c-876c-f4d875823f16","ios":"levelo://app?vid=d1f730fa-fe43-4d3c-876c-f4d875823f16"},"vehicle_type_id":"4","last_reported":1743764909,"current_range_meters":9600,"station_id":"ce4bhqh2rcd13ifvqhmg","pricing_plan_id":"cebpf4jnsgd1na2vs0mg"},{"bike_id":"7ddb89ea-e174-45c5-9a5d-0fc2a141f04b","system_id":"levelo_inurba_marseille","lat":43.26691,"lon":5.38255,"is_reserved":false,"is_disabled":false,"rental_uris":{"android":"levelo://app?vid=7ddb89ea-e174-45c5-9a5d-0fc2a141f04b","ios":"levelo://app?vid=7ddb89ea-e174-45c5-9a5d-0fc2a141f04b"},"vehicle_type_id":"4","last_reported":1743764909,"current_range_meters":9600,"station_id":"ce4bhg92rcd13ifvqf90","pricing_plan_id":"cebpf4jnsgd1na2vs0mg"},{"bike_id":"d3a96a13-4a02-478a-968c-10907d944f94","system_id":"levelo_inurba_marseille","lat":43.337444,"lon":5.374475,"is_reserved":false,"is_disabled":false,"rental_uris":{"android":"levelo://app?vid=d3a96a13-4a02-478a-968c-10907d944f94","ios":"levelo://app?vid=d3a96a13-4a02-478a-968c-10907d944f94"},"vehicle_type_id":"4","last_reported":1743764909,"current_range_meters":9600,"station_id":"","pricing_plan_id":"cebpf4jnsgd1na2vs0mg"},{"bike_id":"327f3a69-0046-4741-8ee4-8622f7ea1f98","system_id":"levelo_inurba_marseille","lat":43.29272,"lon":5.38438,"is_reserved":false,"is_disabled":false,"rental_uris":{"android":"levelo://app?vid=327f3a69-0046-4741-8ee4-8622f7ea1f98","ios":"levelo://app?vid=327f3a69-0046-4741-8ee4-8622f7ea1f98"},"vehicle_type_id":"4","last_reported":1743764909,"current_range_meters":10000,"station_id":"ce4bh692rcd13ifvqea0","pricing_plan_id":"cebpf4jnsgd1na2vs0mg"},{"bike_id":"b1728db0-5470-4627-9f32-e315c68821c7","system_id":"levelo_inurba_marseille","lat":43.26782,"lon":5.39422,"is_reserved":false,"is_disabled":false,"rental_uris":{"android":"levelo://app?vid=b1728db0-5470-4627-9f32-e315c68821c7","ios":"levelo://app?vid=b1728db0-5470-4627-9f32-e315c68821c7"},"vehicle_type_id":"4","last_reported":1743764909,"current_range_meters":10000,"station_id":"ce4bhh12rcd13ifvqfg0","pricing_plan_id":"cebpf4jnsgd1na2vs0mg"},{"bike_id":"44b61f32-a937-441d-8af1-1badf1fcd7f0","system_id":"levelo_inurba_marseille","lat":43.24997,"lon":5.38935,"is_reserved":false,"is_disabled":false,"rental_uris":{"android":"levelo://app?vid=44b61f32-a937-441d-8af1-1badf1fcd7f0","ios":"levelo://app?vid=44b61f32-a937-441d-8af1-1badf1fcd7f0"},"vehicle_type_id":"4","last_reported":1743764909,"current_range_meters":10000,"station_id":"ce4bhgp2rcd13ifvqfd0","pricing_plan_id":"cebpf4jnsgd1na2vs0mg"},{"bike_id":"64cd3283-8a55-4240-818a-8735273cc3b9","system_id":"levelo_inurba_marseille","lat":43.26745,"lon":5.38286,"is_reserved":false,"is_disabled":false,"rental_uris":{"android":"levelo://app?vid=64cd3283-8a55-4240-818a-8735273cc3b9","ios":"levelo://app?vid=64cd3283-8a55-4240-818a-8735273cc3b9"},"vehicle_type_id":"4","last_reported":1743764909,"current_range_meters":10000,"station_id":"","pricing_plan_id":"cebpf4jnsgd1na2vs0mg"},{"bike_id":"66320bc1-008b-48fe-b35a-1ba41c7b488a","system_id":"levelo_inurba_marseille","lat":43.30546,"lon":5.3652,"is_reserved":false,"is_disabled":false,"rental_uris":{"android":"levelo://app?vid=66320bc1-008b-48fe-b35a-1ba41c7b488a","ios":"levelo://app?vid=66320bc1-008b-48fe-b35a-1ba41c7b488a"},"vehicle_type_id":"4","last_reported":1743764909,"current_range_meters":10000,"station_id":"ce4bgs12rcd13ifvqcag","pricing_plan_id":"cebpf4jnsgd1na2vs0mg"},{"bike_id":"62d902fc-c569-47ca-b93f-b88ddc7d0241","system_id":"levelo_inurba_marseille","lat":43.25492,"lon":5.37647,"is_reserved":false,"is_disabled":false,"rental_uris":{"android":"levelo://app?vid=62d902fc-c569-47ca-b93f-b88ddc7d0241","ios":"levelo://app?vid=62d902fc-c569-47ca-b93f-b88ddc7d0241"},"vehicle_type_id":"4","last_reported":1743764909,"current_range_meters":10000,"station_id":"ce4bhh12rcd13ifvqff0","pricing_plan_id":"cebpf4jnsgd1na2vs0mg"},{"bike_id":"758c2355-846a-4f3d-bcd8-eac4b3145cd6","system_id":"levelo_inurba_marseille","lat":43.23192,"lon":5.35553,"is_reserved":false,"is_disabled":false,"rental_uris":{"android":"levelo://app?vid=758c2355-846a-4f3d-bcd8-eac4b3145cd6","ios":"levelo://app?vid=758c2355-846a-4f3d-bcd8-eac4b3145cd6"},"vehicle_type_id":"4","last_reported":1743764909,"current_range_meters":10000,"station_id":"ce4bhu92rcd13ifvqi70","pricing_plan_id":"cebpf4jnsgd1na2vs0mg"},{"bike_id":"4bfcfef7-f4a0-4f2f-a34d-e83e7e93e9bf","system_id":"levelo_inurba_marseille","lat":43.23135,"lon":5.4369,"is_reserved":false,"is_disabled":false,"rental_uris":{"android":"levelo://app?vid=4bfcfef7-f4a0-4f2f-a34d-e83e7e93e9bf","ios":"levelo://app?vid=4bfcfef7-f4a0-4f2f-a34d-e83e7e93e9bf"},"vehicle_type_id":"4","last_reported":1743764909,"current_range_meters":10000,"station_id":"ce4bhmp2rcd13ifvqgog","pricing_plan_id":"cebpf4jnsgd1na2vs0mg"},{"bike_id":"ed034283-1492-4da7-9409-35bdead80f30","system_id":"levelo_inurba_marseille","lat":43.30131,"lon":5.38774,"is_reserved":false,"is_disabled":true,"rental_uris":{"android":"levelo://app?vid=ed034283-1492-4da7-9409-35bdead80f30","ios":"levelo://app?vid=ed034283-1492-4da7-9409-35bdead80f30"},"vehicle_type_id":"4","last_reported":1743764909,"current_range_meters":10000,"station_id":"ce4bghh2rcd13ifvqb60","pricing_plan_id":"cebpf4jnsgd1na2vs0mg"},{"bike_id":"065530e5-eb75-41ab-880e-f113563d77d6","system_id":"levelo_inurba_marseille","lat":43.34144,"lon":5.40907,"is_reserved":false,"is_disabled":false,"rental_uris":{"android":"levelo://app?vid=065530e5-eb75-41ab-880e-f113563d77d6","ios":"levelo://app?vid=065530e5-eb75-41ab-880e-f113563d77d6"},"vehicle_type_id":"4","last_reported":1743764909,"current_range_meters":10000,"station_id":"ce4bhqh2rcd13ifvqhlg","pricing_plan_id":"cebpf4jnsgd1na2vs0mg"},{"bike_id":"f1e5f20d-e5bb-4349-9a72-f7ab8a004414","system_id":"levelo_inurba_marseille","lat":43.30321,"lon":5.40453,"is_reserved":false,"is_disabled":true,"rental_uris":{"android":"levelo://app?vid=f1e5f20d-e5bb-4349-9a72-f7ab8a004414","ios":"levelo://app?vid=f1e5f20d-e5bb-4349-9a72-f7ab8a004414"},"vehicle_type_id":"4","last_reported":1743764909,"current_range_meters":10000,"station_id":"ce4bh012rcd13ifvqd10","pricing_plan_id":"cebpf4jnsgd1na2vs0mg"},{"bike_id":"74a13a18-430a-4f50-ba26-e7dfbad23482","system_id":"levelo_inurba_marseille","lat":43.23067,"lon":5.35497,"is_reserved":false,"is_disabled":false,"rental_uris":{"android":"levelo://app?vid=74a13a18-430a-4f50-ba26-e7dfbad23482","ios":"levelo://app?vid=74a13a18-430a-4f50-ba26-e7dfbad23482"},"vehicle_type_id":"4","last_reported":1743764909,"current_range_meters":10000,"station_id":"cpo3342slgdg3j2ifvpg","pricing_plan_id":"cebpf4jnsgd1na2vs0mg"},{"bike_id":"386f038a-a86c-4c6a-bf90-638d2a627842","system_id":"levelo_inurba_marseille","lat":43.3248,"lon":5.36557,"is_reserved":false,"is_disabled":false,"rental_uris":{"android":"levelo://app?vid=386f038a-a86c-4c6a-bf90-638d2a627842","ios":"levelo://app?vid=386f038a-a86c-4c6a-bf90-638d2a627842"},"vehicle_type_id":"4","last_reported":1743764909,"current_range_meters":10800,"station_id":"ce4bhs12rcd13ifvqhvg","pricing_plan_id":"cebpf4jnsgd1na2vs0mg"},{"bike_id":"cc253bef-6def-41a4-b762-467b44f1ffda","system_id":"levelo_inurba_marseille","lat":43.2621,"lon":5.37452,"is_reserved":false,"is_disabled":false,"rental_uris":{"android":"levelo://app?vid=cc253bef-6def-41a4-b762-467b44f1ffda","ios":"levelo://app?vid=cc253bef-6def-41a4-b762-467b44f1ffda"},"vehicle_type_id":"4","last_reported":1743764909,"current_range_meters":11200,"station_id":"ce4bhgp2rcd13ifvqfc0","pricing_plan_id":"cebpf4jnsgd1na2vs0mg"},{"bike_id":"3a0b0f90-790c-4160-b50c-b4d5547d0490","system_id":"levelo_inurba_marseille","lat":43.30421,"lon":5.42447,"is_reserved":false,"is_disabled":false,"rental_uris":{"android":"levelo://app?vid=3a0b0f90-790c-4160-b50c-b4d5547d0490","ios":"levelo://app?vid=3a0b0f90-790c-4160-b50c-b4d5547d0490"},"vehicle_type_id":"4","last_reported":1743764909,"current_range_meters":10800,"station_id":"ce4bghh2rcd13ifvqb60","pricing_plan_id":"cebpf4jnsgd1na2vs0mg"},{"bike_id":"99da7029-d510-4ac8-b5d9-67f7d248f346","system_id":"levelo_inurba_marseille","lat":43.26567,"lon":5.39023,"is_reserved":false,"is_disabled":false,"rental_uris":{"android":"levelo://app?vid=99da7029-d510-4ac8-b5d9-67f7d248f346","ios":"levelo://app?vid=99da7029-d510-4ac8-b5d9-67f7d248f346"},"vehicle_type_id":"4","last_reported":1743764909,"current_range_meters":10800,"station_id":"ce4bhe12rcd13ifvqf30","pricing_plan_id":"cebpf4jnsgd1na2vs0mg"},{"bike_id":"c50f0a17-1ad5-4d42-89bd-1dcf0e97396e","system_id":"levelo_inurba_marseille","lat":43.29171,"lon":5.37148,"is_reserved":false,"is_disabled":false,"rental_uris":{"android":"levelo://app?vid=c50f0a17-1ad5-4d42-89bd-1dcf0e97396e","ios":"levelo://app?vid=c50f0a17-1ad5-4d42-89bd-1dcf0e97396e"},"vehicle_type_id":"4","last_reported":1743764909,"current_range_meters":10800,"station_id":"ce4bha92rcd13ifvqeh0","pricing_plan_id":"cebpf4jnsgd1na2vs0mg"},{"bike_id":"a634c53a-737a-4a95-b45c-5ed2c975b044","system_id":"levelo_inurba_marseille","lat":43.30881,"lon":5.39654,"is_reserved":false,"is_disabled":false,"rental_uris":{"android":"levelo://app?vid=a634c53a-737a-4a95-b45c-5ed2c975b044","ios":"levelo://app?vid=a634c53a-737a-4a95-b45c-5ed2c975b044"},"vehicle_type_id":"4","last_reported":1743764909,"current_range_meters":10000,"station_id":"ce4bh012rcd13ifvqcv0","pricing_plan_id":"cebpf4jnsgd1na2vs0mg"},{"bike_id":"2dd6e525-a4e2-4869-8f36-7e980c15dd43","system_id":"levelo_inurba_marseille","lat":43.30354,"lon":5.41878,"is_reserved":false,"is_disabled":false,"rental_uris":{"android":"levelo://app?vid=2dd6e525-a4e2-4869-8f36-7e980c15dd43","ios":"levelo://app?vid=2dd6e525-a4e2-4869-8f36-7e980c15dd43"},"vehicle_type_id":"4","last_reported":1743764909,"current_range_meters":10000,"station_id":"ce4bhop2rcd13ifvqh7g","pricing_plan_id":"cebpf4jnsgd1na2vs0mg"},{"bike_id":"8438d33e-ed0b-49df-8805-1fc5a116b182","system_id":"levelo_inurba_marseille","lat":43.30152,"lon":5.38089,"is_reserved":false,"is_disabled":false,"rental_uris":{"android":"levelo://app?vid=8438d33e-ed0b-49df-8805-1fc5a116b182","ios":"levelo://app?vid=8438d33e-ed0b-49df-8805-1fc5a116b182"},"vehicle_type_id":"4","last_reported":1743764909,"current_range_meters":10800,"station_id":"ce4bgjp2rcd13ifvqbh0","pricing_plan_id":"cebpf4jnsgd1na2vs0mg"},{"bike_id":"9f435781-6108-4eb0-9409-665d106ca540","system_id":"levelo_inurba_marseille","lat":43.27203,"lon":5.39185,"is_reserved":false,"is_disabled":false,"rental_uris":{"android":"levelo://app?vid=9f435781-6108-4eb0-9409-665d106ca540","ios":"levelo://app?vid=9f435781-6108-4eb0-9409-665d106ca540"},"vehicle_type_id":"4","last_reported":1743764909,"current_range_meters":10800,"station_id":"ce4bhhp2rcd13ifvqfm0","pricing_plan_id":"cebpf4jnsgd1na2vs0mg"},{"bike_id":"9396f31d-e485-4f45-a818-9888089b5bb6","system_id":"levelo_inurba_marseille","lat":43.231946,"lon":5.355601,"is_reserved":false,"is_disabled":false,"rental_uris":{"android":"levelo://app?vid=9396f31d-e485-4f45-a818-9888089b5bb6","ios":"levelo://app?vid=9396f31d-e485-4f45-a818-9888089b5bb6"},"vehicle_type_id":"4","last_reported":1743764909,"current_range_meters":10800,"station_id":"ce4bhu92rcd13ifvqi70","pricing_plan_id":"cebpf4jnsgd1na2vs0mg"},{"bike_id":"3ec4dc73-7262-456c-922e-69e231ce4170","system_id":"levelo_inurba_marseille","lat":43.30926,"lon":5.40145,"is_reserved":false,"is_disabled":false,"rental_uris":{"android":"levelo://app?vid=3ec4dc73-7262-456c-922e-69e231ce4170","ios":"levelo://app?vid=3ec4dc73-7262-456c-922e-69e231ce4170"},"vehicle_type_id":"4","last_reported":1743764909,"current_range_meters":16000,"station_id":"ce4bgvp2rcd13ifvqct0","pricing_plan_id":"cebpf4jnsgd1na2vs0mg"},{"bike_id":"fb348b09-6abb-47a4-a266-91f2eeaee291","system_id":"levelo_inurba_marseille","lat":43.32101,"lon":5.36773,"is_reserved":false,"is_disabled":false,"rental_uris":{"android":"levelo://app?vid=fb348b09-6abb-47a4-a266-91f2eeaee291","ios":"levelo://app?vid=fb348b09-6abb-47a4-a266-91f2eeaee291"},"vehicle_type_id":"4","last_reported":1743764909,"current_range_meters":11200,"station_id":"ce4bhrh2rcd13ifvqhug","pricing_plan_id":"cebpf4jnsgd1na2vs0mg"},{"bike_id":"1d7abf9c-7c41-4a45-b7c4-a1777c806afe","system_id":"levelo_inurba_marseille","lat":43.271702,"lon":5.409974,"is_reserved":false,"is_disabled":false,"rental_uris":{"android":"levelo://app?vid=1d7abf9c-7c41-4a45-b7c4-a1777c806afe","ios":"levelo://app?vid=1d7abf9c-7c41-4a45-b7c4-a1777c806afe"},"vehicle_type_id":"4","last_reported":1743764909,"current_range_meters":11200,"station_id":"ce4bhl12rcd13ifvqgf0","pricing_plan_id":"cebpf4jnsgd1na2vs0mg"},{"bike_id":"b3c4e869-854e-478c-a2d4-b26e8bb047e3","system_id":"levelo_inurba_marseille","lat":43.30806,"lon":5.37642,"is_reserved":false,"is_disabled":false,"rental_uris":{"android":"levelo://app?vid=b3c4e869-854e-478c-a2d4-b26e8bb047e3","ios":"levelo://app?vid=b3c4e869-854e-478c-a2d4-b26e8bb047e3"},"vehicle_type_id":"4","last_reported":1743764909,"current_range_meters":11200,"station_id":"ce4bgv92rcd13ifvqcq0","pricing_plan_id":"cebpf4jnsgd1na2vs0mg"},{"bike_id":"89050ec4-63d9-4dbb-9f59-aab07f50c3d3","system_id":"levelo_inurba_marseille","lat":43.2901,"lon":5.38119,"is_reserved":false,"is_disabled":false,"rental_uris":{"android":"levelo://app?vid=89050ec4-63d9-4dbb-9f59-aab07f50c3d3","ios":"levelo://app?vid=89050ec4-63d9-4dbb-9f59-aab07f50c3d3"},"vehicle_type_id":"4","last_reported":1743764909,"current_range_meters":10800,"station_id":"ce4bh4p2rcd13ifvqe1g","pricing_plan_id":"cebpf4jnsgd1na2vs0mg"},{"bike_id":"55ebdf25-0357-4ec1-a3b5-737d5b6b88c2","system_id":"levelo_inurba_marseille","lat":43.305546,"lon":5.365368,"is_reserved":false,"is_disabled":false,"rental_uris":{"android":"levelo://app?vid=55ebdf25-0357-4ec1-a3b5-737d5b6b88c2","ios":"levelo://app?vid=55ebdf25-0357-4ec1-a3b5-737d5b6b88c2"},"vehicle_type_id":"4","last_reported":1743764909,"current_range_meters":11200,"station_id":"ce4bgs12rcd13ifvqcag","pricing_plan_id":"cebpf4jnsgd1na2vs0mg"},{"bike_id":"13d2fc71-0bd7-4aa6-9b95-ef2ae21a78e6","system_id":"levelo_inurba_marseille","lat":43.246481,"lon":5.394393,"is_reserved":false,"is_disabled":false,"rental_uris":{"android":"levelo://app?vid=13d2fc71-0bd7-4aa6-9b95-ef2ae21a78e6","ios":"levelo://app?vid=13d2fc71-0bd7-4aa6-9b95-ef2ae21a78e6"},"vehicle_type_id":"4","last_reported":1743764909,"current_range_meters":11200,"station_id":"ce4bh492rcd13ifvqdug","pricing_plan_id":"cebpf4jnsgd1na2vs0mg"},{"bike_id":"bd461fec-475a-4874-a5fb-a9219d0c9034","system_id":"levelo_inurba_marseille","lat":43.27967,"lon":5.38738,"is_reserved":false,"is_disabled":false,"rental_uris":{"android":"levelo://app?vid=bd461fec-475a-4874-a5fb-a9219d0c9034","ios":"levelo://app?vid=bd461fec-475a-4874-a5fb-a9219d0c9034"},"vehicle_type_id":"4","last_reported":1743764909,"current_range_meters":11600,"station_id":"ce4bhg12rcd13ifvqf80","pricing_plan_id":"cebpf4jnsgd1na2vs0mg"},{"bike_id":"bfb11b41-82f2-4c9c-851a-97bba3e1d8be","system_id":"levelo_inurba_marseille","lat":43.28929,"lon":5.38806,"is_reserved":false,"is_disabled":true,"rental_uris":{"android":"levelo://app?vid=bfb11b41-82f2-4c9c-851a-97bba3e1d8be","ios":"levelo://app?vid=bfb11b41-82f2-4c9c-851a-97bba3e1d8be"},"vehicle_type_id":"4","last_reported":1743764909,"current_range_meters":11600,"station_id":"","pricing_plan_id":"cebpf4jnsgd1na2vs0mg"},{"bike_id":"b7304c20-2911-4f42-aeca-cfdb9060ab29","system_id":"levelo_inurba_marseille","lat":43.26555,"lon":5.37283,"is_reserved":false,"is_disabled":false,"rental_uris":{"android":"levelo://app?vid=b7304c20-2911-4f42-aeca-cfdb9060ab29","ios":"levelo://app?vid=b7304c20-2911-4f42-aeca-cfdb9060ab29"},"vehicle_type_id":"4","last_reported":1743764909,"current_range_meters":11600,"station_id":"ce4bhg12rcd13ifvqf70","pricing_plan_id":"cebpf4jnsgd1na2vs0mg"},{"bike_id":"4621ad45-29bf-48cb-8077-88f2e1f7279f","system_id":"levelo_inurba_marseille","lat":43.2317,"lon":5.35601,"is_reserved":false,"is_disabled":false,"rental_uris":{"android":"levelo://app?vid=4621ad45-29bf-48cb-8077-88f2e1f7279f","ios":"levelo://app?vid=4621ad45-29bf-48cb-8077-88f2e1f7279f"},"vehicle_type_id":"4","last_reported":1743764909,"current_range_meters":12000,"station_id":"ce4bhu92rcd13ifvqi70","pricing_plan_id":"cebpf4jnsgd1na2vs0mg"},{"bike_id":"13da2d5c-e1b9-4efd-bdf8-02dde8c4b553","system_id":"levelo_inurba_marseille","lat":43.280375,"lon":5.369462,"is_reserved":false,"is_disabled":false,"rental_uris":{"android":"levelo://app?vid=13da2d5c-e1b9-4efd-bdf8-02dde8c4b553","ios":"levelo://app?vid=13da2d5c-e1b9-4efd-bdf8-02dde8c4b553"},"vehicle_type_id":"4","last_reported":1743764909,"current_range_meters":12000,"station_id":"ce4bha12rcd13ifvqef0","pricing_plan_id":"cebpf4jnsgd1na2vs0mg"},{"bike_id":"1b07f5d0-df62-4495-a42c-4a12cca8ef22","system_id":"levelo_inurba_marseille","lat":43.30196,"lon":5.40025,"is_reserved":false,"is_disabled":true,"rental_uris":{"android":"levelo://app?vid=1b07f5d0-df62-4495-a42c-4a12cca8ef22","ios":"levelo://app?vid=1b07f5d0-df62-4495-a42c-4a12cca8ef22"},"vehicle_type_id":"4","last_reported":1743764909,"current_range_meters":12000,"station_id":"ce4bgvh2rcd13ifvqcs0","pricing_plan_id":"cebpf4jnsgd1na2vs0mg"},{"bike_id":"dd8381f0-c087-470b-9c55-2749722e29d0","system_id":"levelo_inurba_marseille","lat":43.290015,"lon":5.356126,"is_reserved":false,"is_disabled":false,"rental_uris":{"android":"levelo://app?vid=dd8381f0-c087-470b-9c55-2749722e29d0","ios":"levelo://app?vid=dd8381f0-c087-470b-9c55-2749722e29d0"},"vehicle_type_id":"4","last_reported":1743764909,"current_range_meters":12000,"station_id":"ce4bhb92rcd13ifvqen0","pricing_plan_id":"cebpf4jnsgd1na2vs0mg"},{"bike_id":"46e40aa5-72ae-444f-9358-a676d369a477","system_id":"levelo_inurba_marseille","lat":43.33005,"lon":5.43771,"is_reserved":false,"is_disabled":false,"rental_uris":{"android":"levelo://app?vid=46e40aa5-72ae-444f-9358-a676d369a477","ios":"levelo://app?vid=46e40aa5-72ae-444f-9358-a676d369a477"},"vehicle_type_id":"4","last_reported":1743764909,"current_range_meters":12000,"station_id":"","pricing_plan_id":"cebpf4jnsgd1na2vs0mg"},{"bike_id":"32026cd8-8711-4bd4-96d8-6ee07c160724","system_id":"levelo_inurba_marseille","lat":43.29594,"lon":5.38109,"is_reserved":false,"is_disabled":false,"rental_uris":{"android":"levelo://app?vid=32026cd8-8711-4bd4-96d8-6ee07c160724","ios":"levelo://app?vid=32026cd8-8711-4bd4-96d8-6ee07c160724"},"vehicle_type_id":"4","last_reported":1743764909,"current_range_meters":12000,"station_id":"ce4bgl12rcd13ifvqbo0","pricing_plan_id":"cebpf4jnsgd1na2vs0mg"},{"bike_id":"2a877350-b835-4223-9491-4ace09844217","system_id":"levelo_inurba_marseille","lat":43.23151,"lon":5.43729,"is_reserved":false,"is_disabled":false,"rental_uris":{"android":"levelo://app?vid=2a877350-b835-4223-9491-4ace09844217","ios":"levelo://app?vid=2a877350-b835-4223-9491-4ace09844217"},"vehicle_type_id":"4","last_reported":1743764909,"current_range_meters":12000,"station_id":"ce4bhmp2rcd13ifvqgog","pricing_plan_id":"cebpf4jnsgd1na2vs0mg"},{"bike_id":"c1330435-40b2-43ee-85a0-9fc2642caa1c","system_id":"levelo_inurba_marseille","lat":43.23145,"lon":5.43709,"is_reserved":false,"is_disabled":false,"rental_uris":{"android":"levelo://app?vid=c1330435-40b2-43ee-85a0-9fc2642caa1c","ios":"levelo://app?vid=c1330435-40b2-43ee-85a0-9fc2642caa1c"},"vehicle_type_id":"4","last_reported":1743764909,"current_range_meters":12000,"station_id":"ce4bhmp2rcd13ifvqgog","pricing_plan_id":"cebpf4jnsgd1na2vs0mg"},{"bike_id":"d3f77abb-0326-4389-a555-1c7355a7ad07","system_id":"levelo_inurba_marseille","lat":43.30646,"lon":5.40101,"is_reserved":false,"is_disabled":false,"rental_uris":{"android":"levelo://app?vid=d3f77abb-0326-4389-a555-1c7355a7ad07","ios":"levelo://app?vid=d3f77abb-0326-4389-a555-1c7355a7ad07"},"vehicle_type_id":"4","last_reported":1743764909,"current_range_meters":12400,"station_id":"ce4bh112rcd13ifvqda0","pricing_plan_id":"cebpf4jnsgd1na2vs0mg"},{"bike_id":"dc2648d0-4c5e-4df2-abbe-85a297b3e14f","system_id":"levelo_inurba_marseille","lat":43.2732,"lon":5.39101,"is_reserved":false,"is_disabled":false,"rental_uris":{"android":"levelo://app?vid=dc2648d0-4c5e-4df2-abbe-85a297b3e14f","ios":"levelo://app?vid=dc2648d0-4c5e-4df2-abbe-85a297b3e14f"},"vehicle_type_id":"4","last_reported":1743764909,"current_range_meters":12400,"station_id":"ce4bhgp2rcd13ifvqfe0","pricing_plan_id":"cebpf4jnsgd1na2vs0mg"},{"bike_id":"8336c2e5-6021-4a8f-8e32-78361134cd8d","system_id":"levelo_inurba_marseille","lat":43.26728,"lon":5.38255,"is_reserved":false,"is_disabled":false,"rental_uris":{"android":"levelo://app?vid=8336c2e5-6021-4a8f-8e32-78361134cd8d","ios":"levelo://app?vid=8336c2e5-6021-4a8f-8e32-78361134cd8d"},"vehicle_type_id":"4","last_reported":1743764909,"current_range_meters":12400,"station_id":"","pricing_plan_id":"cebpf4jnsgd1na2vs0mg"},{"bike_id":"3fdad51f-c24e-4ecd-943d-8da00be16e6e","system_id":"levelo_inurba_marseille","lat":43.30643,"lon":5.40073,"is_reserved":false,"is_disabled":false,"rental_uris":{"android":"levelo://app?vid=3fdad51f-c24e-4ecd-943d-8da00be16e6e","ios":"levelo://app?vid=3fdad51f-c24e-4ecd-943d-8da00be16e6e"},"vehicle_type_id":"4","last_reported":1743764909,"current_range_meters":12400,"station_id":"ce4bh112rcd13ifvqda0","pricing_plan_id":"cebpf4jnsgd1na2vs0mg"},{"bike_id":"f40fc4e8-cfdd-40aa-8507-3bd8857476a8","system_id":"levelo_inurba_marseille","lat":43.30246,"lon":5.40055,"is_reserved":false,"is_disabled":true,"rental_uris":{"android":"levelo://app?vid=f40fc4e8-cfdd-40aa-8507-3bd8857476a8","ios":"levelo://app?vid=f40fc4e8-cfdd-40aa-8507-3bd8857476a8"},"vehicle_type_id":"4","last_reported":1743764909,"current_range_meters":12800,"station_id":"ce4bgvh2rcd13ifvqcs0","pricing_plan_id":"cebpf4jnsgd1na2vs0mg"},{"bike_id":"c9ab5bfd-fa91-4b45-8fa2-52813c43fa45","system_id":"levelo_inurba_marseille","lat":43.23058,"lon":5.35491,"is_reserved":false,"is_disabled":false,"rental_uris":{"android":"levelo://app?vid=c9ab5bfd-fa91-4b45-8fa2-52813c43fa45","ios":"levelo://app?vid=c9ab5bfd-fa91-4b45-8fa2-52813c43fa45"},"vehicle_type_id":"4","last_reported":1743764909,"current_range_meters":12800,"station_id":"cpo3342slgdg3j2ifvpg","pricing_plan_id":"cebpf4jnsgd1na2vs0mg"},{"bike_id":"7c2eac4b-d558-469f-a675-0ea3336d084f","system_id":"levelo_inurba_marseille","lat":43.29273,"lon":5.36844,"is_reserved":false,"is_disabled":false,"rental_uris":{"android":"levelo://app?vid=7c2eac4b-d558-469f-a675-0ea3336d084f","ios":"levelo://app?vid=7c2eac4b-d558-469f-a675-0ea3336d084f"},"vehicle_type_id":"4","last_reported":1743764909,"current_range_meters":12800,"station_id":"ce4bhbp2rcd13ifvqesg","pricing_plan_id":"cebpf4jnsgd1na2vs0mg"},{"bike_id":"64fdbb2b-e20c-450b-87b0-deaa705d4ef0","system_id":"levelo_inurba_marseille","lat":43.31372,"lon":5.36709,"is_reserved":false,"is_disabled":false,"rental_uris":{"android":"levelo://app?vid=64fdbb2b-e20c-450b-87b0-deaa705d4ef0","ios":"levelo://app?vid=64fdbb2b-e20c-450b-87b0-deaa705d4ef0"},"vehicle_type_id":"4","last_reported":1743764909,"current_range_meters":12800,"station_id":"ce4bgr92rcd13ifvqc6g","pricing_plan_id":"cebpf4jnsgd1na2vs0mg"},{"bike_id":"a5767c78-124d-4df5-9a34-444b742cb735","system_id":"levelo_inurba_marseille","lat":43.24191,"lon":5.39713,"is_reserved":false,"is_disabled":false,"rental_uris":{"android":"levelo://app?vid=a5767c78-124d-4df5-9a34-444b742cb735","ios":"levelo://app?vid=a5767c78-124d-4df5-9a34-444b742cb735"},"vehicle_type_id":"4","last_reported":1743764909,"current_range_meters":12800,"station_id":"ce4bhn12rcd13ifvqgpg","pricing_plan_id":"cebpf4jnsgd1na2vs0mg"},{"bike_id":"781c6dc2-1bde-4af0-b85b-b78f16f17c60","system_id":"levelo_inurba_marseille","lat":43.25084,"lon":5.39513,"is_reserved":false,"is_disabled":false,"rental_uris":{"android":"levelo://app?vid=781c6dc2-1bde-4af0-b85b-b78f16f17c60","ios":"levelo://app?vid=781c6dc2-1bde-4af0-b85b-b78f16f17c60"},"vehicle_type_id":"4","last_reported":1743764909,"current_range_meters":13600,"station_id":"ce4bhm12rcd13ifvqgkg","pricing_plan_id":"cebpf4jnsgd1na2vs0mg"},{"bike_id":"538954b0-bc54-45c5-9cef-16a29fd18cc8","system_id":"levelo_inurba_marseille","lat":43.25939,"lon":5.40913,"is_reserved":false,"is_disabled":false,"rental_uris":{"android":"levelo://app?vid=538954b0-bc54-45c5-9cef-16a29fd18cc8","ios":"levelo://app?vid=538954b0-bc54-45c5-9cef-16a29fd18cc8"},"vehicle_type_id":"4","last_reported":1743764909,"current_range_meters":13600,"station_id":"ce4bhm92rcd13ifvqglg","pricing_plan_id":"cebpf4jnsgd1na2vs0mg"},{"bike_id":"63a2950c-d9f1-419a-864c-47b62f5a3c09","system_id":"levelo_inurba_marseille","lat":43.29591,"lon":5.38102,"is_reserved":false,"is_disabled":false,"rental_uris":{"android":"levelo://app?vid=63a2950c-d9f1-419a-864c-47b62f5a3c09","ios":"levelo://app?vid=63a2950c-d9f1-419a-864c-47b62f5a3c09"},"vehicle_type_id":"4","last_reported":1743764909,"current_range_meters":13600,"station_id":"ce4bgl12rcd13ifvqbo0","pricing_plan_id":"cebpf4jnsgd1na2vs0mg"},{"bike_id":"9a463b8e-7c0c-4f41-b5ec-11f0f6ca585c","system_id":"levelo_inurba_marseille","lat":43.28405,"lon":5.37513,"is_reserved":false,"is_disabled":false,"rental_uris":{"android":"levelo://app?vid=9a463b8e-7c0c-4f41-b5ec-11f0f6ca585c","ios":"levelo://app?vid=9a463b8e-7c0c-4f41-b5ec-11f0f6ca585c"},"vehicle_type_id":"4","last_reported":1743764909,"current_range_meters":13600,"station_id":"ce4bh412rcd13ifvqds0","pricing_plan_id":"cebpf4jnsgd1na2vs0mg"},{"bike_id":"4d7c6378-f5ff-4d9e-baeb-eb19988cd4d9","system_id":"levelo_inurba_marseille","lat":43.318918,"lon":5.40742,"is_reserved":false,"is_disabled":false,"rental_uris":{"android":"levelo://app?vid=4d7c6378-f5ff-4d9e-baeb-eb19988cd4d9","ios":"levelo://app?vid=4d7c6378-f5ff-4d9e-baeb-eb19988cd4d9"},"vehicle_type_id":"4","last_reported":1743764909,"current_range_meters":14000,"station_id":"ce4bgvp2rcd13ifvqct0","pricing_plan_id":"cebpf4jnsgd1na2vs0mg"},{"bike_id":"3b4ad8c6-6244-4378-90d7-dac703d1508d","system_id":"levelo_inurba_marseille","lat":43.231919,"lon":5.355757,"is_reserved":false,"is_disabled":false,"rental_uris":{"android":"levelo://app?vid=3b4ad8c6-6244-4378-90d7-dac703d1508d","ios":"levelo://app?vid=3b4ad8c6-6244-4378-90d7-dac703d1508d"},"vehicle_type_id":"4","last_reported":1743764909,"current_range_meters":14000,"station_id":"ce4bhu92rcd13ifvqi70","pricing_plan_id":"cebpf4jnsgd1na2vs0mg"},{"bike_id":"a6303451-5b45-435c-bf0e-748f94cc010d","system_id":"levelo_inurba_marseille","lat":43.23197,"lon":5.35555,"is_reserved":false,"is_disabled":false,"rental_uris":{"android":"levelo://app?vid=a6303451-5b45-435c-bf0e-748f94cc010d","ios":"levelo://app?vid=a6303451-5b45-435c-bf0e-748f94cc010d"},"vehicle_type_id":"4","last_reported":1743764909,"current_range_meters":14000,"station_id":"ce4bhu92rcd13ifvqi70","pricing_plan_id":"cebpf4jnsgd1na2vs0mg"},{"bike_id":"ccbaad60-ee1e-4837-a1f8-1af8e79dfa40","system_id":"levelo_inurba_marseille","lat":43.30595,"lon":5.39338,"is_reserved":false,"is_disabled":true,"rental_uris":{"android":"levelo://app?vid=ccbaad60-ee1e-4837-a1f8-1af8e79dfa40","ios":"levelo://app?vid=ccbaad60-ee1e-4837-a1f8-1af8e79dfa40"},"vehicle_type_id":"4","last_reported":1743764909,"current_range_meters":14000,"station_id":"ce4bh0p2rcd13ifvqd80","pricing_plan_id":"cebpf4jnsgd1na2vs0mg"},{"bike_id":"8cc06451-f19e-41d3-8a0a-c56c2227937f","system_id":"levelo_inurba_marseille","lat":43.30459,"lon":5.37904,"is_reserved":false,"is_disabled":false,"rental_uris":{"android":"levelo://app?vid=8cc06451-f19e-41d3-8a0a-c56c2227937f","ios":"levelo://app?vid=8cc06451-f19e-41d3-8a0a-c56c2227937f"},"vehicle_type_id":"4","last_reported":1743764909,"current_range_meters":13600,"station_id":"ce4bgup2rcd13ifvqcn0","pricing_plan_id":"cebpf4jnsgd1na2vs0mg"},{"bike_id":"05d00f93-8e3a-4dda-843a-8c55f4e7abcc","system_id":"levelo_inurba_marseille","lat":43.31382,"lon":5.36686,"is_reserved":false,"is_disabled":false,"rental_uris":{"android":"levelo://app?vid=05d00f93-8e3a-4dda-843a-8c55f4e7abcc","ios":"levelo://app?vid=05d00f93-8e3a-4dda-843a-8c55f4e7abcc"},"vehicle_type_id":"4","last_reported":1743764909,"current_range_meters":14000,"station_id":"","pricing_plan_id":"cebpf4jnsgd1na2vs0mg"},{"bike_id":"0eb30f16-826e-404e-9494-cbd59d704ab7","system_id":"levelo_inurba_marseille","lat":43.29009,"lon":5.3863,"is_reserved":false,"is_disabled":true,"rental_uris":{"android":"levelo://app?vid=0eb30f16-826e-404e-9494-cbd59d704ab7","ios":"levelo://app?vid=0eb30f16-826e-404e-9494-cbd59d704ab7"},"vehicle_type_id":"4","last_reported":1743764909,"current_range_meters":14000,"station_id":"ce4bh4p2rcd13ifvqe0g","pricing_plan_id":"cebpf4jnsgd1na2vs0mg"},{"bike_id":"978f00e3-47d2-481d-80c8-31e1e7283ad6","system_id":"levelo_inurba_marseille","lat":43.22926,"lon":5.3537,"is_reserved":false,"is_disabled":false,"rental_uris":{"android":"levelo://app?vid=978f00e3-47d2-481d-80c8-31e1e7283ad6","ios":"levelo://app?vid=978f00e3-47d2-481d-80c8-31e1e7283ad6"},"vehicle_type_id":"4","last_reported":1743764909,"current_range_meters":14000,"station_id":"cpo3532slgdg3j2ikp40","pricing_plan_id":"cebpf4jnsgd1na2vs0mg"},{"bike_id":"c2055a2a-1cff-4f19-a52d-9b52baeaa63f","system_id":"levelo_inurba_marseille","lat":43.32025,"lon":5.38122,"is_reserved":false,"is_disabled":true,"rental_uris":{"android":"levelo://app?vid=c2055a2a-1cff-4f19-a52d-9b52baeaa63f","ios":"levelo://app?vid=c2055a2a-1cff-4f19-a52d-9b52baeaa63f"},"vehicle_type_id":"4","last_reported":1743764909,"current_range_meters":14000,"station_id":"","pricing_plan_id":"cebpf4jnsgd1na2vs0mg"},{"bike_id":"27ebc7eb-5de4-43f0-933c-44535f627bc9","system_id":"levelo_inurba_marseille","lat":43.253875,"lon":5.418576,"is_reserved":false,"is_disabled":false,"rental_uris":{"android":"levelo://app?vid=27ebc7eb-5de4-43f0-933c-44535f627bc9","ios":"levelo://app?vid=27ebc7eb-5de4-43f0-933c-44535f627bc9"},"vehicle_type_id":"4","last_reported":1743764909,"current_range_meters":14400,"station_id":"","pricing_plan_id":"cebpf4jnsgd1na2vs0mg"},{"bike_id":"9e3ae1dd-c7a8-4219-bc8e-72f59c08ace6","system_id":"levelo_inurba_marseille","lat":43.303311,"lon":5.404468,"is_reserved":false,"is_disabled":false,"rental_uris":{"android":"levelo://app?vid=9e3ae1dd-c7a8-4219-bc8e-72f59c08ace6","ios":"levelo://app?vid=9e3ae1dd-c7a8-4219-bc8e-72f59c08ace6"},"vehicle_type_id":"4","last_reported":1743764909,"current_range_meters":14400,"station_id":"ce4bh012rcd13ifvqd10","pricing_plan_id":"cebpf4jnsgd1na2vs0mg"},{"bike_id":"0e971649-0408-4b65-a036-b992dd17429e","system_id":"levelo_inurba_marseille","lat":43.23195,"lon":5.35542,"is_reserved":false,"is_disabled":false,"rental_uris":{"android":"levelo://app?vid=0e971649-0408-4b65-a036-b992dd17429e","ios":"levelo://app?vid=0e971649-0408-4b65-a036-b992dd17429e"},"vehicle_type_id":"4","last_reported":1743764909,"current_range_meters":14400,"station_id":"ce4bhu92rcd13ifvqi70","pricing_plan_id":"cebpf4jnsgd1na2vs0mg"},{"bike_id":"e5b526e7-ec31-474e-80a5-d714716e222a","system_id":"levelo_inurba_marseille","lat":43.27827,"lon":5.40704,"is_reserved":false,"is_disabled":false,"rental_uris":{"android":"levelo://app?vid=e5b526e7-ec31-474e-80a5-d714716e222a","ios":"levelo://app?vid=e5b526e7-ec31-474e-80a5-d714716e222a"},"vehicle_type_id":"4","last_reported":1743764909,"current_range_meters":14000,"station_id":"ce4bhnh2rcd13ifvqgtg","pricing_plan_id":"cebpf4jnsgd1na2vs0mg"},{"bike_id":"042fa4be-508d-4a56-bf6f-ee2edbfb3aa2","system_id":"levelo_inurba_marseille","lat":43.3188,"lon":5.40733,"is_reserved":false,"is_disabled":false,"rental_uris":{"android":"levelo://app?vid=042fa4be-508d-4a56-bf6f-ee2edbfb3aa2","ios":"levelo://app?vid=042fa4be-508d-4a56-bf6f-ee2edbfb3aa2"},"vehicle_type_id":"4","last_reported":1743764909,"current_range_meters":14400,"station_id":"ce4bhq12rcd13ifvqhig","pricing_plan_id":"cebpf4jnsgd1na2vs0mg"},{"bike_id":"aae8a605-9803-4e9d-986b-c72365489c91","system_id":"levelo_inurba_marseille","lat":43.31704,"lon":5.37736,"is_reserved":false,"is_disabled":false,"rental_uris":{"android":"levelo://app?vid=aae8a605-9803-4e9d-986b-c72365489c91","ios":"levelo://app?vid=aae8a605-9803-4e9d-986b-c72365489c91"},"vehicle_type_id":"4","last_reported":1743764909,"current_range_meters":14000,"station_id":"ce4bgth2rcd13ifvqch0","pricing_plan_id":"cebpf4jnsgd1na2vs0mg"},{"bike_id":"7d85f003-c3a1-4c0d-9cdf-55e5a2724582","system_id":"levelo_inurba_marseille","lat":43.28719,"lon":5.36083,"is_reserved":false,"is_disabled":false,"rental_uris":{"android":"levelo://app?vid=7d85f003-c3a1-4c0d-9cdf-55e5a2724582","ios":"levelo://app?vid=7d85f003-c3a1-4c0d-9cdf-55e5a2724582"},"vehicle_type_id":"4","last_reported":1743764909,"current_range_meters":14000,"station_id":"cki0cbj6b192h4jlfktg","pricing_plan_id":"cebpf4jnsgd1na2vs0mg"},{"bike_id":"cccce150-77a7-4565-8ca1-36858ce9e6b0","system_id":"levelo_inurba_marseille","lat":43.32132,"lon":5.36782,"is_reserved":false,"is_disabled":false,"rental_uris":{"android":"levelo://app?vid=cccce150-77a7-4565-8ca1-36858ce9e6b0","ios":"levelo://app?vid=cccce150-77a7-4565-8ca1-36858ce9e6b0"},"vehicle_type_id":"4","last_reported":1743764909,"current_range_meters":14800,"station_id":"ce4bhrh2rcd13ifvqhug","pricing_plan_id":"cebpf4jnsgd1na2vs0mg"},{"bike_id":"f397083a-7278-4370-9f76-94acaecef0b0","system_id":"levelo_inurba_marseille","lat":43.26022,"lon":5.41746,"is_reserved":false,"is_disabled":false,"rental_uris":{"android":"levelo://app?vid=f397083a-7278-4370-9f76-94acaecef0b0","ios":"levelo://app?vid=f397083a-7278-4370-9f76-94acaecef0b0"},"vehicle_type_id":"4","last_reported":1743764909,"current_range_meters":14800,"station_id":"","pricing_plan_id":"cebpf4jnsgd1na2vs0mg"},{"bike_id":"1d5ef6d0-a413-45b3-8100-7222d11689f2","system_id":"levelo_inurba_marseille","lat":43.28908,"lon":5.38411,"is_reserved":false,"is_disabled":true,"rental_uris":{"android":"levelo://app?vid=1d5ef6d0-a413-45b3-8100-7222d11689f2","ios":"levelo://app?vid=1d5ef6d0-a413-45b3-8100-7222d11689f2"},"vehicle_type_id":"4","last_reported":1743764909,"current_range_meters":14800,"station_id":"ce4bh612rcd13ifvqe6g","pricing_plan_id":"cebpf4jnsgd1na2vs0mg"},{"bike_id":"48ec1fe3-fdf4-49a5-977a-526829b4e2e3","system_id":"levelo_inurba_marseille","lat":43.23054,"lon":5.35492,"is_reserved":false,"is_disabled":false,"rental_uris":{"android":"levelo://app?vid=48ec1fe3-fdf4-49a5-977a-526829b4e2e3","ios":"levelo://app?vid=48ec1fe3-fdf4-49a5-977a-526829b4e2e3"},"vehicle_type_id":"4","last_reported":1743764909,"current_range_meters":15200,"station_id":"cpo3342slgdg3j2ifvpg","pricing_plan_id":"cebpf4jnsgd1na2vs0mg"},{"bike_id":"5695fe4e-e5f9-45e9-8176-dba5a9e7b393","system_id":"levelo_inurba_marseille","lat":43.28722,"lon":5.37926,"is_reserved":false,"is_disabled":false,"rental_uris":{"android":"levelo://app?vid=5695fe4e-e5f9-45e9-8176-dba5a9e7b393","ios":"levelo://app?vid=5695fe4e-e5f9-45e9-8176-dba5a9e7b393"},"vehicle_type_id":"4","last_reported":1743764909,"current_range_meters":15200,"station_id":"ce4bh9p2rcd13ifvqec0","pricing_plan_id":"cebpf4jnsgd1na2vs0mg"},{"bike_id":"85a8a139-63f0-45e5-ad0d-96cacc866ce9","system_id":"levelo_inurba_marseille","lat":43.28697,"lon":5.39983,"is_reserved":false,"is_disabled":false,"rental_uris":{"android":"levelo://app?vid=85a8a139-63f0-45e5-ad0d-96cacc866ce9","ios":"levelo://app?vid=85a8a139-63f0-45e5-ad0d-96cacc866ce9"},"vehicle_type_id":"4","last_reported":1743764909,"current_range_meters":16800,"station_id":"ce4bho92rcd13ifvqh3g","pricing_plan_id":"cebpf4jnsgd1na2vs0mg"},{"bike_id":"188e01b9-65db-4a5b-b580-c3a2d1a3e000","system_id":"levelo_inurba_marseille","lat":43.28736,"lon":5.37095,"is_reserved":false,"is_disabled":false,"rental_uris":{"android":"levelo://app?vid=188e01b9-65db-4a5b-b580-c3a2d1a3e000","ios":"levelo://app?vid=188e01b9-65db-4a5b-b580-c3a2d1a3e000"},"vehicle_type_id":"4","last_reported":1743764909,"current_range_meters":15200,"station_id":"","pricing_plan_id":"cebpf4jnsgd1na2vs0mg"},{"bike_id":"6d9715e6-045f-417b-844a-144b6e5c1132","system_id":"levelo_inurba_marseille","lat":43.292103,"lon":5.357188,"is_reserved":false,"is_disabled":false,"rental_uris":{"android":"levelo://app?vid=6d9715e6-045f-417b-844a-144b6e5c1132","ios":"levelo://app?vid=6d9715e6-045f-417b-844a-144b6e5c1132"},"vehicle_type_id":"4","last_reported":1743764909,"current_range_meters":15200,"station_id":"","pricing_plan_id":"cebpf4jnsgd1na2vs0mg"},{"bike_id":"eb79d1f9-7c91-4ea2-b5f8-796189743e1a","system_id":"levelo_inurba_marseille","lat":43.3372,"lon":5.39173,"is_reserved":false,"is_disabled":false,"rental_uris":{"android":"levelo://app?vid=eb79d1f9-7c91-4ea2-b5f8-796189743e1a","ios":"levelo://app?vid=eb79d1f9-7c91-4ea2-b5f8-796189743e1a"},"vehicle_type_id":"4","last_reported":1743764909,"current_range_meters":16000,"station_id":"ce4bhr92rcd13ifvqhsg","pricing_plan_id":"cebpf4jnsgd1na2vs0mg"},{"bike_id":"ab062ce8-39f4-48d1-b673-67b8cac62008","system_id":"levelo_inurba_marseille","lat":43.26498,"lon":5.39533,"is_reserved":false,"is_disabled":false,"rental_uris":{"android":"levelo://app?vid=ab062ce8-39f4-48d1-b673-67b8cac62008","ios":"levelo://app?vid=ab062ce8-39f4-48d1-b673-67b8cac62008"},"vehicle_type_id":"4","last_reported":1743764909,"current_range_meters":16000,"station_id":"ce4bhi12rcd13ifvqfq0","pricing_plan_id":"cebpf4jnsgd1na2vs0mg"},{"bike_id":"50024206-6f84-4931-88f8-a23f3f6e5889","system_id":"levelo_inurba_marseille","lat":43.301785,"lon":5.366223,"is_reserved":false,"is_disabled":false,"rental_uris":{"android":"levelo://app?vid=50024206-6f84-4931-88f8-a23f3f6e5889","ios":"levelo://app?vid=50024206-6f84-4931-88f8-a23f3f6e5889"},"vehicle_type_id":"4","last_reported":1743764909,"current_range_meters":16000,"station_id":"","pricing_plan_id":"cebpf4jnsgd1na2vs0mg"},{"bike_id":"19b80c7f-db25-40c8-945f-67fe43b6cc5f","system_id":"levelo_inurba_marseille","lat":43.30586,"lon":5.36487,"is_reserved":false,"is_disabled":false,"rental_uris":{"android":"levelo://app?vid=19b80c7f-db25-40c8-945f-67fe43b6cc5f","ios":"levelo://app?vid=19b80c7f-db25-40c8-945f-67fe43b6cc5f"},"vehicle_type_id":"4","last_reported":1743764909,"current_range_meters":16000,"station_id":"ce4bgs12rcd13ifvqcag","pricing_plan_id":"cebpf4jnsgd1na2vs0mg"},{"bike_id":"4cc915fe-54e0-47b4-9307-0269c0cfcf8e","system_id":"levelo_inurba_marseille","lat":43.28725,"lon":5.36095,"is_reserved":false,"is_disabled":false,"rental_uris":{"android":"levelo://app?vid=4cc915fe-54e0-47b4-9307-0269c0cfcf8e","ios":"levelo://app?vid=4cc915fe-54e0-47b4-9307-0269c0cfcf8e"},"vehicle_type_id":"4","last_reported":1743764909,"current_range_meters":15200,"station_id":"cki0cbj6b192h4jlfktg","pricing_plan_id":"cebpf4jnsgd1na2vs0mg"},{"bike_id":"c8af96dd-d13b-488c-ac0f-84c9acc30ac9","system_id":"levelo_inurba_marseille","lat":43.29004,"lon":5.379633,"is_reserved":false,"is_disabled":false,"rental_uris":{"android":"levelo://app?vid=c8af96dd-d13b-488c-ac0f-84c9acc30ac9","ios":"levelo://app?vid=c8af96dd-d13b-488c-ac0f-84c9acc30ac9"},"vehicle_type_id":"4","last_reported":1743764909,"current_range_meters":10800,"station_id":"ce4bhb92rcd13ifvqen0","pricing_plan_id":"cebpf4jnsgd1na2vs0mg"},{"bike_id":"24efc0e5-50e4-4002-a77f-6309831ac946","system_id":"levelo_inurba_marseille","lat":43.29533,"lon":5.42271,"is_reserved":false,"is_disabled":false,"rental_uris":{"android":"levelo://app?vid=24efc0e5-50e4-4002-a77f-6309831ac946","ios":"levelo://app?vid=24efc0e5-50e4-4002-a77f-6309831ac946"},"vehicle_type_id":"4","last_reported":1743764909,"current_range_meters":16000,"station_id":"ce4bhph2rcd13ifvqhdg","pricing_plan_id":"cebpf4jnsgd1na2vs0mg"},{"bike_id":"7b0a39f9-bca4-4060-8ce2-61f72600fc0e","system_id":"levelo_inurba_marseille","lat":43.29929,"lon":5.36555,"is_reserved":false,"is_disabled":false,"rental_uris":{"android":"levelo://app?vid=7b0a39f9-bca4-4060-8ce2-61f72600fc0e","ios":"levelo://app?vid=7b0a39f9-bca4-4060-8ce2-61f72600fc0e"},"vehicle_type_id":"4","last_reported":1743764909,"current_range_meters":16000,"station_id":"ce4bgm92rcd13ifvqbr0","pricing_plan_id":"cebpf4jnsgd1na2vs0mg"},{"bike_id":"8911234b-0f99-4975-ba04-6b2cc60eaf76","system_id":"levelo_inurba_marseille","lat":43.24184,"lon":5.39731,"is_reserved":false,"is_disabled":false,"rental_uris":{"android":"levelo://app?vid=8911234b-0f99-4975-ba04-6b2cc60eaf76","ios":"levelo://app?vid=8911234b-0f99-4975-ba04-6b2cc60eaf76"},"vehicle_type_id":"4","last_reported":1743764909,"current_range_meters":16000,"station_id":"ce4bhn12rcd13ifvqgpg","pricing_plan_id":"cebpf4jnsgd1na2vs0mg"},{"bike_id":"d890bb47-ee18-45ae-9f78-adf9c6c379b0","system_id":"levelo_inurba_marseille","lat":43.28366,"lon":5.38627,"is_reserved":false,"is_disabled":false,"rental_uris":{"android":"levelo://app?vid=d890bb47-ee18-45ae-9f78-adf9c6c379b0","ios":"levelo://app?vid=d890bb47-ee18-45ae-9f78-adf9c6c379b0"},"vehicle_type_id":"4","last_reported":1743764909,"current_range_meters":16000,"station_id":"ce4bh492rcd13ifvqdvg","pricing_plan_id":"cebpf4jnsgd1na2vs0mg"},{"bike_id":"d0c7698b-732c-49a4-838d-c6d0ba855467","system_id":"levelo_inurba_marseille","lat":43.30469,"lon":5.37899,"is_reserved":false,"is_disabled":false,"rental_uris":{"android":"levelo://app?vid=d0c7698b-732c-49a4-838d-c6d0ba855467","ios":"levelo://app?vid=d0c7698b-732c-49a4-838d-c6d0ba855467"},"vehicle_type_id":"4","last_reported":1743764909,"current_range_meters":16000,"station_id":"ce4bgup2rcd13ifvqcn0","pricing_plan_id":"cebpf4jnsgd1na2vs0mg"},{"bike_id":"cf406d63-9b19-44cb-8973-779d6a6c0651","system_id":"levelo_inurba_marseille","lat":43.30146,"lon":5.37405,"is_reserved":false,"is_disabled":false,"rental_uris":{"android":"levelo://app?vid=cf406d63-9b19-44cb-8973-779d6a6c0651","ios":"levelo://app?vid=cf406d63-9b19-44cb-8973-779d6a6c0651"},"vehicle_type_id":"4","last_reported":1743764909,"current_range_meters":16000,"station_id":"ce4bgs92rcd13ifvqcc0","pricing_plan_id":"cebpf4jnsgd1na2vs0mg"},{"bike_id":"a7fc3855-9e34-4559-8a9f-b4d7b25206f5","system_id":"levelo_inurba_marseille","lat":43.31251,"lon":5.36864,"is_reserved":false,"is_disabled":false,"rental_uris":{"android":"levelo://app?vid=a7fc3855-9e34-4559-8a9f-b4d7b25206f5","ios":"levelo://app?vid=a7fc3855-9e34-4559-8a9f-b4d7b25206f5"},"vehicle_type_id":"4","last_reported":1743764909,"current_range_meters":16400,"station_id":"ce4bgl92rcd13ifvqbq0","pricing_plan_id":"cebpf4jnsgd1na2vs0mg"},{"bike_id":"eaf859a6-ff3d-4281-be3e-7de787fa533a","system_id":"levelo_inurba_marseille","lat":43.30306,"lon":5.39205,"is_reserved":false,"is_disabled":true,"rental_uris":{"android":"levelo://app?vid=eaf859a6-ff3d-4281-be3e-7de787fa533a","ios":"levelo://app?vid=eaf859a6-ff3d-4281-be3e-7de787fa533a"},"vehicle_type_id":"4","last_reported":1743764909,"current_range_meters":16400,"station_id":"ce4bgkh2rcd13ifvqbk0","pricing_plan_id":"cebpf4jnsgd1na2vs0mg"},{"bike_id":"d72ae546-019d-42c4-ab8a-aa9b8ed4f063","system_id":"levelo_inurba_marseille","lat":43.30462,"lon":5.37901,"is_reserved":false,"is_disabled":false,"rental_uris":{"android":"levelo://app?vid=d72ae546-019d-42c4-ab8a-aa9b8ed4f063","ios":"levelo://app?vid=d72ae546-019d-42c4-ab8a-aa9b8ed4f063"},"vehicle_type_id":"4","last_reported":1743764909,"current_range_meters":16400,"station_id":"ce4bgup2rcd13ifvqcn0","pricing_plan_id":"cebpf4jnsgd1na2vs0mg"},{"bike_id":"85ea2a9c-8124-4772-a144-afc738e57457","system_id":"levelo_inurba_marseille","lat":43.30469,"lon":5.37929,"is_reserved":false,"is_disabled":false,"rental_uris":{"android":"levelo://app?vid=85ea2a9c-8124-4772-a144-afc738e57457","ios":"levelo://app?vid=85ea2a9c-8124-4772-a144-afc738e57457"},"vehicle_type_id":"4","last_reported":1743764909,"current_range_meters":16400,"station_id":"ce4bgup2rcd13ifvqcn0","pricing_plan_id":"cebpf4jnsgd1na2vs0mg"},{"bike_id":"83d0940d-16a1-4e3b-811a-8e2e5c78f7c1","system_id":"levelo_inurba_marseille","lat":43.3083,"lon":5.37609,"is_reserved":false,"is_disabled":false,"rental_uris":{"android":"levelo://app?vid=83d0940d-16a1-4e3b-811a-8e2e5c78f7c1","ios":"levelo://app?vid=83d0940d-16a1-4e3b-811a-8e2e5c78f7c1"},"vehicle_type_id":"4","last_reported":1743764909,"current_range_meters":16400,"station_id":"ce4bgv92rcd13ifvqcq0","pricing_plan_id":"cebpf4jnsgd1na2vs0mg"},{"bike_id":"874b7937-24b4-49a5-94f4-b7d68fb4fbb2","system_id":"levelo_inurba_marseille","lat":43.29914,"lon":5.37477,"is_reserved":false,"is_disabled":false,"rental_uris":{"android":"levelo://app?vid=874b7937-24b4-49a5-94f4-b7d68fb4fbb2","ios":"levelo://app?vid=874b7937-24b4-49a5-94f4-b7d68fb4fbb2"},"vehicle_type_id":"4","last_reported":1743764909,"current_range_meters":17600,"station_id":"ce4bgjh2rcd13ifvqbg0","pricing_plan_id":"cebpf4jnsgd1na2vs0mg"},{"bike_id":"fa3e5d89-fa1e-4836-97d3-3e5628c401c7","system_id":"levelo_inurba_marseille","lat":43.28614,"lon":5.37057,"is_reserved":false,"is_disabled":false,"rental_uris":{"android":"levelo://app?vid=fa3e5d89-fa1e-4836-97d3-3e5628c401c7","ios":"levelo://app?vid=fa3e5d89-fa1e-4836-97d3-3e5628c401c7"},"vehicle_type_id":"4","last_reported":1743764909,"current_range_meters":16400,"station_id":"ce4bht12rcd13ifvqi60","pricing_plan_id":"cebpf4jnsgd1na2vs0mg"},{"bike_id":"c716ab79-0808-41d1-922b-1c4b3d003d40","system_id":"levelo_inurba_marseille","lat":43.31983,"lon":5.38189,"is_reserved":false,"is_disabled":false,"rental_uris":{"android":"levelo://app?vid=c716ab79-0808-41d1-922b-1c4b3d003d40","ios":"levelo://app?vid=c716ab79-0808-41d1-922b-1c4b3d003d40"},"vehicle_type_id":"4","last_reported":1743764909,"current_range_meters":16400,"station_id":"ce4bhr12rcd13ifvqhpg","pricing_plan_id":"cebpf4jnsgd1na2vs0mg"},{"bike_id":"e859a5c4-75ad-49fa-85bc-88f6fd522faa","system_id":"levelo_inurba_marseille","lat":43.24168,"lon":5.36394,"is_reserved":false,"is_disabled":false,"rental_uris":{"android":"levelo://app?vid=e859a5c4-75ad-49fa-85bc-88f6fd522faa","ios":"levelo://app?vid=e859a5c4-75ad-49fa-85bc-88f6fd522faa"},"vehicle_type_id":"4","last_reported":1743764909,"current_range_meters":16400,"station_id":"cpo36qri1sfpv3e86is0","pricing_plan_id":"cebpf4jnsgd1na2vs0mg"},{"bike_id":"1c6a9a4d-5ef6-476b-b921-e44abfffd79e","system_id":"levelo_inurba_marseille","lat":43.25914,"lon":5.40895,"is_reserved":false,"is_disabled":false,"rental_uris":{"android":"levelo://app?vid=1c6a9a4d-5ef6-476b-b921-e44abfffd79e","ios":"levelo://app?vid=1c6a9a4d-5ef6-476b-b921-e44abfffd79e"},"vehicle_type_id":"4","last_reported":1743764909,"current_range_meters":16800,"station_id":"ce4bhm92rcd13ifvqglg","pricing_plan_id":"cebpf4jnsgd1na2vs0mg"},{"bike_id":"873934dc-376b-4de8-9351-e83fa6178468","system_id":"levelo_inurba_marseille","lat":43.24167,"lon":5.36387,"is_reserved":false,"is_disabled":false,"rental_uris":{"android":"levelo://app?vid=873934dc-376b-4de8-9351-e83fa6178468","ios":"levelo://app?vid=873934dc-376b-4de8-9351-e83fa6178468"},"vehicle_type_id":"4","last_reported":1743764909,"current_range_meters":16800,"station_id":"cpo36qri1sfpv3e86is0","pricing_plan_id":"cebpf4jnsgd1na2vs0mg"},{"bike_id":"04060980-0595-4556-90e5-200e3f9e77e6","system_id":"levelo_inurba_marseille","lat":43.29427,"lon":5.38624,"is_reserved":false,"is_disabled":false,"rental_uris":{"android":"levelo://app?vid=04060980-0595-4556-90e5-200e3f9e77e6","ios":"levelo://app?vid=04060980-0595-4556-90e5-200e3f9e77e6"},"vehicle_type_id":"4","last_reported":1743764909,"current_range_meters":16400,"station_id":"ce4bh2h2rcd13ifvqdh0","pricing_plan_id":"cebpf4jnsgd1na2vs0mg"},{"bike_id":"675fc0a8-10aa-40f4-ac3a-a3b605237bd7","system_id":"levelo_inurba_marseille","lat":43.23184,"lon":5.35535,"is_reserved":false,"is_disabled":false,"rental_uris":{"android":"levelo://app?vid=675fc0a8-10aa-40f4-ac3a-a3b605237bd7","ios":"levelo://app?vid=675fc0a8-10aa-40f4-ac3a-a3b605237bd7"},"vehicle_type_id":"4","last_reported":1743764909,"current_range_meters":16800,"station_id":"ce4bhu92rcd13ifvqi70","pricing_plan_id":"cebpf4jnsgd1na2vs0mg"},{"bike_id":"39738b12-c420-447b-9d52-eaa849eb5830","system_id":"levelo_inurba_marseille","lat":43.30093,"lon":5.39073,"is_reserved":false,"is_disabled":false,"rental_uris":{"android":"levelo://app?vid=39738b12-c420-447b-9d52-eaa849eb5830","ios":"levelo://app?vid=39738b12-c420-447b-9d52-eaa849eb5830"},"vehicle_type_id":"4","last_reported":1743764909,"current_range_meters":16800,"station_id":"ce4bh192rcd13ifvqdb0","pricing_plan_id":"cebpf4jnsgd1na2vs0mg"},{"bike_id":"c703e36c-8aed-40ac-a6ca-72975747cf54","system_id":"levelo_inurba_marseille","lat":43.29784,"lon":5.37093,"is_reserved":false,"is_disabled":false,"rental_uris":{"android":"levelo://app?vid=c703e36c-8aed-40ac-a6ca-72975747cf54","ios":"levelo://app?vid=c703e36c-8aed-40ac-a6ca-72975747cf54"},"vehicle_type_id":"4","last_reported":1743764909,"current_range_meters":16400,"station_id":"ce4bgop2rcd13ifvqc1g","pricing_plan_id":"cebpf4jnsgd1na2vs0mg"},{"bike_id":"5bfbf94e-4484-441b-86fb-71f4f7d0ded4","system_id":"levelo_inurba_marseille","lat":43.29813,"lon":5.38088,"is_reserved":false,"is_disabled":false,"rental_uris":{"android":"levelo://app?vid=5bfbf94e-4484-441b-86fb-71f4f7d0ded4","ios":"levelo://app?vid=5bfbf94e-4484-441b-86fb-71f4f7d0ded4"},"vehicle_type_id":"4","last_reported":1743764909,"current_range_meters":16800,"station_id":"ce4bgip2rcd13ifvqbb0","pricing_plan_id":"cebpf4jnsgd1na2vs0mg"},{"bike_id":"30b57730-cb66-4122-bd93-7dabcaba84e7","system_id":"levelo_inurba_marseille","lat":43.24901,"lon":5.40693,"is_reserved":false,"is_disabled":false,"rental_uris":{"android":"levelo://app?vid=30b57730-cb66-4122-bd93-7dabcaba84e7","ios":"levelo://app?vid=30b57730-cb66-4122-bd93-7dabcaba84e7"},"vehicle_type_id":"4","last_reported":1743764909,"current_range_meters":16800,"station_id":"","pricing_plan_id":"cebpf4jnsgd1na2vs0mg"},{"bike_id":"e5ee2974-8b2b-47cc-8433-fe1c0799c9f0","system_id":"levelo_inurba_marseille","lat":43.26949,"lon":5.38634,"is_reserved":false,"is_disabled":false,"rental_uris":{"android":"levelo://app?vid=e5ee2974-8b2b-47cc-8433-fe1c0799c9f0","ios":"levelo://app?vid=e5ee2974-8b2b-47cc-8433-fe1c0799c9f0"},"vehicle_type_id":"4","last_reported":1743764909,"current_range_meters":16800,"station_id":"ce4bhh92rcd13ifvqfh0","pricing_plan_id":"cebpf4jnsgd1na2vs0mg"},{"bike_id":"95d60a69-4bac-4e2e-a7d1-a542851bd550","system_id":"levelo_inurba_marseille","lat":43.27557,"lon":5.38426,"is_reserved":false,"is_disabled":false,"rental_uris":{"android":"levelo://app?vid=95d60a69-4bac-4e2e-a7d1-a542851bd550","ios":"levelo://app?vid=95d60a69-4bac-4e2e-a7d1-a542851bd550"},"vehicle_type_id":"4","last_reported":1743764909,"current_range_meters":16800,"station_id":"ce4bhh92rcd13ifvqfi0","pricing_plan_id":"cebpf4jnsgd1na2vs0mg"},{"bike_id":"2e0c68ea-3361-418e-9d72-bccb3e4de1ab","system_id":"levelo_inurba_marseille","lat":43.30552,"lon":5.36543,"is_reserved":false,"is_disabled":false,"rental_uris":{"android":"levelo://app?vid=2e0c68ea-3361-418e-9d72-bccb3e4de1ab","ios":"levelo://app?vid=2e0c68ea-3361-418e-9d72-bccb3e4de1ab"},"vehicle_type_id":"4","last_reported":1743764909,"current_range_meters":16800,"station_id":"ce4bgs12rcd13ifvqcag","pricing_plan_id":"cebpf4jnsgd1na2vs0mg"},{"bike_id":"3554d354-0212-4292-9f53-d7a04febf65f","system_id":"levelo_inurba_marseille","lat":43.29571,"lon":5.37522,"is_reserved":false,"is_disabled":false,"rental_uris":{"android":"levelo://app?vid=3554d354-0212-4292-9f53-d7a04febf65f","ios":"levelo://app?vid=3554d354-0212-4292-9f53-d7a04febf65f"},"vehicle_type_id":"4","last_reported":1743764909,"current_range_meters":16800,"station_id":"ce4bgh92rcd13ifvqb50","pricing_plan_id":"cebpf4jnsgd1na2vs0mg"},{"bike_id":"69d1cb94-56c0-44d7-bf03-9a1c85959e5f","system_id":"levelo_inurba_marseille","lat":43.26499,"lon":5.39536,"is_reserved":false,"is_disabled":false,"rental_uris":{"android":"levelo://app?vid=69d1cb94-56c0-44d7-bf03-9a1c85959e5f","ios":"levelo://app?vid=69d1cb94-56c0-44d7-bf03-9a1c85959e5f"},"vehicle_type_id":"4","last_reported":1743764909,"current_range_meters":16800,"station_id":"ce4bhi12rcd13ifvqfq0","pricing_plan_id":"cebpf4jnsgd1na2vs0mg"},{"bike_id":"d9ba9551-893e-4cab-8633-3f34cc33ee19","system_id":"levelo_inurba_marseille","lat":43.3089,"lon":5.3716,"is_reserved":false,"is_disabled":false,"rental_uris":{"android":"levelo://app?vid=d9ba9551-893e-4cab-8633-3f34cc33ee19","ios":"levelo://app?vid=d9ba9551-893e-4cab-8633-3f34cc33ee19"},"vehicle_type_id":"4","last_reported":1743764909,"current_range_meters":17200,"station_id":"ce4bguh2rcd13ifvqckg","pricing_plan_id":"cebpf4jnsgd1na2vs0mg"},{"bike_id":"a218899a-e755-4156-a17e-d3f2512a0471","system_id":"levelo_inurba_marseille","lat":43.3054,"lon":5.36527,"is_reserved":false,"is_disabled":false,"rental_uris":{"android":"levelo://app?vid=a218899a-e755-4156-a17e-d3f2512a0471","ios":"levelo://app?vid=a218899a-e755-4156-a17e-d3f2512a0471"},"vehicle_type_id":"4","last_reported":1743764909,"current_range_meters":17200,"station_id":"ce4bgs12rcd13ifvqcag","pricing_plan_id":"cebpf4jnsgd1na2vs0mg"},{"bike_id":"07691b30-a8d6-48df-83af-def33f4d68e2","system_id":"levelo_inurba_marseille","lat":43.29677,"lon":5.36159,"is_reserved":false,"is_disabled":true,"rental_uris":{"android":"levelo://app?vid=07691b30-a8d6-48df-83af-def33f4d68e2","ios":"levelo://app?vid=07691b30-a8d6-48df-83af-def33f4d68e2"},"vehicle_type_id":"4","last_reported":1743764909,"current_range_meters":17200,"station_id":"","pricing_plan_id":"cebpf4jnsgd1na2vs0mg"},{"bike_id":"944121a9-8698-4e50-b279-0ed866f4918d","system_id":"levelo_inurba_marseille","lat":43.27053,"lon":5.40261,"is_reserved":false,"is_disabled":false,"rental_uris":{"android":"levelo://app?vid=944121a9-8698-4e50-b279-0ed866f4918d","ios":"levelo://app?vid=944121a9-8698-4e50-b279-0ed866f4918d"},"vehicle_type_id":"4","last_reported":1743764909,"current_range_meters":17200,"station_id":"ce4bhk92rcd13ifvqgc0","pricing_plan_id":"cebpf4jnsgd1na2vs0mg"},{"bike_id":"11b8cfb5-fba0-4797-a0c7-f0d6f18e35c6","system_id":"levelo_inurba_marseille","lat":43.32534,"lon":5.41429,"is_reserved":false,"is_disabled":false,"rental_uris":{"android":"levelo://app?vid=11b8cfb5-fba0-4797-a0c7-f0d6f18e35c6","ios":"levelo://app?vid=11b8cfb5-fba0-4797-a0c7-f0d6f18e35c6"},"vehicle_type_id":"4","last_reported":1743764909,"current_range_meters":16800,"station_id":"ce4bhq12rcd13ifvqhhg","pricing_plan_id":"cebpf4jnsgd1na2vs0mg"},{"bike_id":"5ecc88db-91d1-4892-b3ec-0ac5123177dc","system_id":"levelo_inurba_marseille","lat":43.27559,"lon":5.38428,"is_reserved":false,"is_disabled":false,"rental_uris":{"android":"levelo://app?vid=5ecc88db-91d1-4892-b3ec-0ac5123177dc","ios":"levelo://app?vid=5ecc88db-91d1-4892-b3ec-0ac5123177dc"},"vehicle_type_id":"4","last_reported":1743764909,"current_range_meters":17200,"station_id":"ce4bhh92rcd13ifvqfi0","pricing_plan_id":"cebpf4jnsgd1na2vs0mg"},{"bike_id":"89d2965a-9f5f-4152-b979-32f84f90b038","system_id":"levelo_inurba_marseille","lat":43.32013,"lon":5.38127,"is_reserved":false,"is_disabled":false,"rental_uris":{"android":"levelo://app?vid=89d2965a-9f5f-4152-b979-32f84f90b038","ios":"levelo://app?vid=89d2965a-9f5f-4152-b979-32f84f90b038"},"vehicle_type_id":"4","last_reported":1743764909,"current_range_meters":17600,"station_id":"ce4bhr12rcd13ifvqhpg","pricing_plan_id":"cebpf4jnsgd1na2vs0mg"},{"bike_id":"cd442235-fb83-43e8-a7f3-8167842a32ae","system_id":"levelo_inurba_marseille","lat":43.276,"lon":5.36144,"is_reserved":false,"is_disabled":false,"rental_uris":{"android":"levelo://app?vid=cd442235-fb83-43e8-a7f3-8167842a32ae","ios":"levelo://app?vid=cd442235-fb83-43e8-a7f3-8167842a32ae"},"vehicle_type_id":"4","last_reported":1743764909,"current_range_meters":16800,"station_id":"ce4bgj92rcd13ifvqbe0","pricing_plan_id":"cebpf4jnsgd1na2vs0mg"},{"bike_id":"772a2197-0473-4184-8794-b5d91f12e046","system_id":"levelo_inurba_marseille","lat":43.31234,"lon":5.36907,"is_reserved":false,"is_disabled":false,"rental_uris":{"android":"levelo://app?vid=772a2197-0473-4184-8794-b5d91f12e046","ios":"levelo://app?vid=772a2197-0473-4184-8794-b5d91f12e046"},"vehicle_type_id":"4","last_reported":1743764909,"current_range_meters":17200,"station_id":"ce4bgl92rcd13ifvqbq0","pricing_plan_id":"cebpf4jnsgd1na2vs0mg"},{"bike_id":"89709091-486f-4116-b203-524c8e73acee","system_id":"levelo_inurba_marseille","lat":43.323368,"lon":5.406287,"is_reserved":false,"is_disabled":false,"rental_uris":{"android":"levelo://app?vid=89709091-486f-4116-b203-524c8e73acee","ios":"levelo://app?vid=89709091-486f-4116-b203-524c8e73acee"},"vehicle_type_id":"4","last_reported":1743764909,"current_range_meters":17600,"station_id":"ce4bhgp2rcd13ifvqfe0","pricing_plan_id":"cebpf4jnsgd1na2vs0mg"},{"bike_id":"038f7ac4-23fd-4ca6-a49b-548cd21b1761","system_id":"levelo_inurba_marseille","lat":43.258547,"lon":5.394525,"is_reserved":false,"is_disabled":false,"rental_uris":{"android":"levelo://app?vid=038f7ac4-23fd-4ca6-a49b-548cd21b1761","ios":"levelo://app?vid=038f7ac4-23fd-4ca6-a49b-548cd21b1761"},"vehicle_type_id":"4","last_reported":1743764909,"current_range_meters":17600,"station_id":"ce4bhip2rcd13ifvqft0","pricing_plan_id":"cebpf4jnsgd1na2vs0mg"},{"bike_id":"294fc0ad-e5b3-48e3-b5aa-84945da2e4dd","system_id":"levelo_inurba_marseille","lat":43.25577,"lon":5.38228,"is_reserved":false,"is_disabled":false,"rental_uris":{"android":"levelo://app?vid=294fc0ad-e5b3-48e3-b5aa-84945da2e4dd","ios":"levelo://app?vid=294fc0ad-e5b3-48e3-b5aa-84945da2e4dd"},"vehicle_type_id":"4","last_reported":1743764909,"current_range_meters":17600,"station_id":"ce4bhih2rcd13ifvqfs0","pricing_plan_id":"cebpf4jnsgd1na2vs0mg"},{"bike_id":"22f71f0c-a161-435d-859c-38e8f467d0c5","system_id":"levelo_inurba_marseille","lat":43.305603,"lon":5.365449,"is_reserved":false,"is_disabled":false,"rental_uris":{"android":"levelo://app?vid=22f71f0c-a161-435d-859c-38e8f467d0c5","ios":"levelo://app?vid=22f71f0c-a161-435d-859c-38e8f467d0c5"},"vehicle_type_id":"4","last_reported":1743764909,"current_range_meters":17200,"station_id":"ce4bh292rcd13ifvqdg0","pricing_plan_id":"cebpf4jnsgd1na2vs0mg"},{"bike_id":"aed30430-0dbe-46b5-98e6-f08fb653f598","system_id":"levelo_inurba_marseille","lat":43.23062,"lon":5.35488,"is_reserved":false,"is_disabled":false,"rental_uris":{"android":"levelo://app?vid=aed30430-0dbe-46b5-98e6-f08fb653f598","ios":"levelo://app?vid=aed30430-0dbe-46b5-98e6-f08fb653f598"},"vehicle_type_id":"4","last_reported":1743764909,"current_range_meters":17600,"station_id":"cpo3342slgdg3j2ifvpg","pricing_plan_id":"cebpf4jnsgd1na2vs0mg"},{"bike_id":"78346f8f-963e-4373-b063-c98ddd9b543a","system_id":"levelo_inurba_marseille","lat":43.24549,"lon":5.39518,"is_reserved":false,"is_disabled":false,"rental_uris":{"android":"levelo://app?vid=78346f8f-963e-4373-b063-c98ddd9b543a","ios":"levelo://app?vid=78346f8f-963e-4373-b063-c98ddd9b543a"},"vehicle_type_id":"4","last_reported":1743764909,"current_range_meters":18000,"station_id":"ce4bhlp2rcd13ifvqgjg","pricing_plan_id":"cebpf4jnsgd1na2vs0mg"},{"bike_id":"ed81289f-b9f3-4d86-9f8f-d8896cd8f07f","system_id":"levelo_inurba_marseille","lat":43.30413,"lon":5.39747,"is_reserved":false,"is_disabled":true,"rental_uris":{"android":"levelo://app?vid=ed81289f-b9f3-4d86-9f8f-d8896cd8f07f","ios":"levelo://app?vid=ed81289f-b9f3-4d86-9f8f-d8896cd8f07f"},"vehicle_type_id":"4","last_reported":1743764909,"current_range_meters":18000,"station_id":"ce4bh092rcd13ifvqd20","pricing_plan_id":"cebpf4jnsgd1na2vs0mg"},{"bike_id":"13b2c0b4-342f-4564-8399-a17604a3a4b3","system_id":"levelo_inurba_marseille","lat":43.32478,"lon":5.36565,"is_reserved":false,"is_disabled":false,"rental_uris":{"android":"levelo://app?vid=13b2c0b4-342f-4564-8399-a17604a3a4b3","ios":"levelo://app?vid=13b2c0b4-342f-4564-8399-a17604a3a4b3"},"vehicle_type_id":"4","last_reported":1743764909,"current_range_meters":18000,"station_id":"ce4bhs12rcd13ifvqhvg","pricing_plan_id":"cebpf4jnsgd1na2vs0mg"},{"bike_id":"c63eba1b-11eb-4237-9eff-6d897f4b7762","system_id":"levelo_inurba_marseille","lat":43.27816,"lon":5.40703,"is_reserved":false,"is_disabled":false,"rental_uris":{"android":"levelo://app?vid=c63eba1b-11eb-4237-9eff-6d897f4b7762","ios":"levelo://app?vid=c63eba1b-11eb-4237-9eff-6d897f4b7762"},"vehicle_type_id":"4","last_reported":1743764909,"current_range_meters":18000,"station_id":"ce4bhnh2rcd13ifvqgtg","pricing_plan_id":"cebpf4jnsgd1na2vs0mg"},{"bike_id":"cf64e7d8-b5e6-436b-baf8-b63c87ad4397","system_id":"levelo_inurba_marseille","lat":43.30588,"lon":5.39359,"is_reserved":false,"is_disabled":false,"rental_uris":{"android":"levelo://app?vid=cf64e7d8-b5e6-436b-baf8-b63c87ad4397","ios":"levelo://app?vid=cf64e7d8-b5e6-436b-baf8-b63c87ad4397"},"vehicle_type_id":"4","last_reported":1743764909,"current_range_meters":18000,"station_id":"ce4bh0p2rcd13ifvqd80","pricing_plan_id":"cebpf4jnsgd1na2vs0mg"},{"bike_id":"07861c83-f17a-4487-a44a-fe23bd439a15","system_id":"levelo_inurba_marseille","lat":43.29704,"lon":5.37699,"is_reserved":false,"is_disabled":false,"rental_uris":{"android":"levelo://app?vid=07861c83-f17a-4487-a44a-fe23bd439a15","ios":"levelo://app?vid=07861c83-f17a-4487-a44a-fe23bd439a15"},"vehicle_type_id":"4","last_reported":1743764909,"current_range_meters":18000,"station_id":"ce4bgkh2rcd13ifvqbl0","pricing_plan_id":"cebpf4jnsgd1na2vs0mg"},{"bike_id":"8803632d-4183-4e87-8173-d3d86adcdb2d","system_id":"levelo_inurba_marseille","lat":43.30914,"lon":5.36904,"is_reserved":false,"is_disabled":false,"rental_uris":{"android":"levelo://app?vid=8803632d-4183-4e87-8173-d3d86adcdb2d","ios":"levelo://app?vid=8803632d-4183-4e87-8173-d3d86adcdb2d"},"vehicle_type_id":"4","last_reported":1743764909,"current_range_meters":18000,"station_id":"ce4bgn92rcd13ifvqbvg","pricing_plan_id":"cebpf4jnsgd1na2vs0mg"},{"bike_id":"bf82b19a-e259-4605-867d-86e9111d38ed","system_id":"levelo_inurba_marseille","lat":43.30148,"lon":5.38087,"is_reserved":false,"is_disabled":false,"rental_uris":{"android":"levelo://app?vid=bf82b19a-e259-4605-867d-86e9111d38ed","ios":"levelo://app?vid=bf82b19a-e259-4605-867d-86e9111d38ed"},"vehicle_type_id":"4","last_reported":1743764909,"current_range_meters":18000,"station_id":"ce4bgjp2rcd13ifvqbh0","pricing_plan_id":"cebpf4jnsgd1na2vs0mg"},{"bike_id":"d2a07d60-57ab-498a-9a05-2527f7931b4d","system_id":"levelo_inurba_marseille","lat":43.23055,"lon":5.35496,"is_reserved":false,"is_disabled":false,"rental_uris":{"android":"levelo://app?vid=d2a07d60-57ab-498a-9a05-2527f7931b4d","ios":"levelo://app?vid=d2a07d60-57ab-498a-9a05-2527f7931b4d"},"vehicle_type_id":"4","last_reported":1743764909,"current_range_meters":18800,"station_id":"cpo3342slgdg3j2ifvpg","pricing_plan_id":"cebpf4jnsgd1na2vs0mg"},{"bike_id":"9029707b-3f67-4a69-925c-9198ce6eea5c","system_id":"levelo_inurba_marseille","lat":43.30092,"lon":5.39084,"is_reserved":false,"is_disabled":false,"rental_uris":{"android":"levelo://app?vid=9029707b-3f67-4a69-925c-9198ce6eea5c","ios":"levelo://app?vid=9029707b-3f67-4a69-925c-9198ce6eea5c"},"vehicle_type_id":"4","last_reported":1743764909,"current_range_meters":18800,"station_id":"ce4bh192rcd13ifvqdb0","pricing_plan_id":"cebpf4jnsgd1na2vs0mg"},{"bike_id":"53d354a9-94ac-44b4-80de-46829108681e","system_id":"levelo_inurba_marseille","lat":43.29263,"lon":5.37603,"is_reserved":false,"is_disabled":false,"rental_uris":{"android":"levelo://app?vid=53d354a9-94ac-44b4-80de-46829108681e","ios":"levelo://app?vid=53d354a9-94ac-44b4-80de-46829108681e"},