{"last_updated":1745359758,"ttl":60,"version":"2.2","data":{"bikes":[{"bike_id":"e8174c3b-8376-4370-833d-57f61136f1c7","system_id":"levelo_inurba_marseille","lat":43.31105,"lon":5.37767,"is_reserved":false,"is_disabled":false,"rental_uris":{"android":"levelo://app?vid=e8174c3b-8376-4370-833d-57f61136f1c7","ios":"levelo://app?vid=e8174c3b-8376-4370-833d-57f61136f1c7"},"vehicle_type_id":"4","last_reported":1745359758,"current_range_meters":2800,"station_id":"ce4bgt92rcd13ifvqcg0","pricing_plan_id":"cebpf4jnsgd1na2vs0mg"},{"bike_id":"fc0a304a-07a9-4a58-a495-36aaf4167a8c","system_id":"levelo_inurba_marseille","lat":43.25948,"lon":5.41356,"is_reserved":false,"is_disabled":false,"rental_uris":{"android":"levelo://app?vid=fc0a304a-07a9-4a58-a495-36aaf4167a8c","ios":"levelo://app?vid=fc0a304a-07a9-4a58-a495-36aaf4167a8c"},"vehicle_type_id":"4","last_reported":1745359758,"current_range_meters":2800,"station_id":"","pricing_plan_id":"cebpf4jnsgd1na2vs0mg"},{"bike_id":"cb33acc2-5eea-45c0-9b15-8f533d6ae3df","system_id":"levelo_inurba_marseille","lat":43.2856,"lon":5.38744,"is_reserved":false,"is_disabled":false,"rental_uris":{"android":"levelo://app?vid=cb33acc2-5eea-45c0-9b15-8f533d6ae3df","ios":"levelo://app?vid=cb33acc2-5eea-45c0-9b15-8f533d6ae3df"},"vehicle_type_id":"4","last_reported":1745359758,"current_range_meters":3200,"station_id":"","pricing_plan_id":"cebpf4jnsgd1na2vs0mg"},{"bike_id":"39b7ee85-9cbf-4904-a10a-75042515f95d","system_id":"levelo_inurba_marseille","lat":43.36249,"lon":5.34751,"is_reserved":false,"is_disabled":false,"rental_uris":{"android":"levelo://app?vid=39b7ee85-9cbf-4904-a10a-75042515f95d","ios":"levelo://app?vid=39b7ee85-9cbf-4904-a10a-75042515f95d"},"vehicle_type_id":"4","last_reported":1745359758,"current_range_meters":3600,"station_id":"","pricing_plan_id":"cebpf4jnsgd1na2vs0mg"},{"bike_id":"412c8200-3791-4688-8a64-2b8c184c5f37","system_id":"levelo_inurba_marseille","lat":43.24635,"lon":5.38896,"is_reserved":false,"is_disabled":false,"rental_uris":{"android":"levelo://app?vid=412c8200-3791-4688-8a64-2b8c184c5f37","ios":"levelo://app?vid=412c8200-3791-4688-8a64-2b8c184c5f37"},"vehicle_type_id":"4","last_reported":1745359758,"current_range_meters":3600,"station_id":"ce4bhg12rcd13ifvqf60","pricing_plan_id":"cebpf4jnsgd1na2vs0mg"},{"bike_id":"243d1f84-3816-448c-b90d-1ba140ad3ae6","system_id":"levelo_inurba_marseille","lat":43.28943,"lon":5.36636,"is_reserved":false,"is_disabled":false,"rental_uris":{"android":"levelo://app?vid=243d1f84-3816-448c-b90d-1ba140ad3ae6","ios":"levelo://app?vid=243d1f84-3816-448c-b90d-1ba140ad3ae6"},"vehicle_type_id":"4","last_reported":1745359758,"current_range_meters":4000,"station_id":"ce4bhap2rcd13ifvqek0","pricing_plan_id":"cebpf4jnsgd1na2vs0mg"},{"bike_id":"6f0ff3df-91b5-4299-98e0-3c49587cb61d","system_id":"levelo_inurba_marseille","lat":43.22938,"lon":5.35369,"is_reserved":false,"is_disabled":false,"rental_uris":{"android":"levelo://app?vid=6f0ff3df-91b5-4299-98e0-3c49587cb61d","ios":"levelo://app?vid=6f0ff3df-91b5-4299-98e0-3c49587cb61d"},"vehicle_type_id":"4","last_reported":1745359758,"current_range_meters":4000,"station_id":"cpo3532slgdg3j2ikp40","pricing_plan_id":"cebpf4jnsgd1na2vs0mg"},{"bike_id":"6359ab19-fac2-46cc-a726-d7b79fadacd8","system_id":"levelo_inurba_marseille","lat":43.26217,"lon":5.37435,"is_reserved":false,"is_disabled":false,"rental_uris":{"android":"levelo://app?vid=6359ab19-fac2-46cc-a726-d7b79fadacd8","ios":"levelo://app?vid=6359ab19-fac2-46cc-a726-d7b79fadacd8"},"vehicle_type_id":"4","last_reported":1745359758,"current_range_meters":4400,"station_id":"ce4bhgp2rcd13ifvqfc0","pricing_plan_id":"cebpf4jnsgd1na2vs0mg"},{"bike_id":"c6b9caaf-85ad-42fe-a85b-41a4e6f02d6e","system_id":"levelo_inurba_marseille","lat":43.28438,"lon":5.34977,"is_reserved":false,"is_disabled":false,"rental_uris":{"android":"levelo://app?vid=c6b9caaf-85ad-42fe-a85b-41a4e6f02d6e","ios":"levelo://app?vid=c6b9caaf-85ad-42fe-a85b-41a4e6f02d6e"},"vehicle_type_id":"4","last_reported":1745359758,"current_range_meters":4400,"station_id":"ce4bhbh2rcd13ifvqepg","pricing_plan_id":"cebpf4jnsgd1na2vs0mg"},{"bike_id":"b6e66b51-4cf3-41df-ba02-044bb1d13403","system_id":"levelo_inurba_marseille","lat":43.28334,"lon":5.38109,"is_reserved":false,"is_disabled":true,"rental_uris":{"android":"levelo://app?vid=b6e66b51-4cf3-41df-ba02-044bb1d13403","ios":"levelo://app?vid=b6e66b51-4cf3-41df-ba02-044bb1d13403"},"vehicle_type_id":"4","last_reported":1745359758,"current_range_meters":4800,"station_id":"ce4bh412rcd13ifvqdr0","pricing_plan_id":"cebpf4jnsgd1na2vs0mg"},{"bike_id":"f232544d-a366-4720-8200-0fbeee56940d","system_id":"levelo_inurba_marseille","lat":43.26229,"lon":5.40463,"is_reserved":false,"is_disabled":false,"rental_uris":{"android":"levelo://app?vid=f232544d-a366-4720-8200-0fbeee56940d","ios":"levelo://app?vid=f232544d-a366-4720-8200-0fbeee56940d"},"vehicle_type_id":"4","last_reported":1745359758,"current_range_meters":5600,"station_id":"ce4bhmh2rcd13ifvqgmg","pricing_plan_id":"cebpf4jnsgd1na2vs0mg"},{"bike_id":"07e18311-389c-4cd0-83d3-a5cafbc7a209","system_id":"levelo_inurba_marseille","lat":43.28935,"lon":5.36626,"is_reserved":false,"is_disabled":false,"rental_uris":{"android":"levelo://app?vid=07e18311-389c-4cd0-83d3-a5cafbc7a209","ios":"levelo://app?vid=07e18311-389c-4cd0-83d3-a5cafbc7a209"},"vehicle_type_id":"4","last_reported":1745359758,"current_range_meters":5600,"station_id":"ce4bhap2rcd13ifvqek0","pricing_plan_id":"cebpf4jnsgd1na2vs0mg"},{"bike_id":"7ac9053e-3b73-41a0-9e91-778a13439d79","system_id":"levelo_inurba_marseille","lat":43.26808,"lon":5.40263,"is_reserved":false,"is_disabled":false,"rental_uris":{"android":"levelo://app?vid=7ac9053e-3b73-41a0-9e91-778a13439d79","ios":"levelo://app?vid=7ac9053e-3b73-41a0-9e91-778a13439d79"},"vehicle_type_id":"4","last_reported":1745359758,"current_range_meters":5600,"station_id":"ce501612rcd8frsf0b60","pricing_plan_id":"cebpf4jnsgd1na2vs0mg"},{"bike_id":"15de27a9-dd72-4ea4-bde9-75d6aa3004b2","system_id":"levelo_inurba_marseille","lat":43.32692,"lon":5.37593,"is_reserved":false,"is_disabled":false,"rental_uris":{"android":"levelo://app?vid=15de27a9-dd72-4ea4-bde9-75d6aa3004b2","ios":"levelo://app?vid=15de27a9-dd72-4ea4-bde9-75d6aa3004b2"},"vehicle_type_id":"4","last_reported":1745359758,"current_range_meters":5600,"station_id":"","pricing_plan_id":"cebpf4jnsgd1na2vs0mg"},{"bike_id":"388ecf89-f088-43dc-8704-85550d82e546","system_id":"levelo_inurba_marseille","lat":43.29868,"lon":5.39732,"is_reserved":false,"is_disabled":false,"rental_uris":{"android":"levelo://app?vid=388ecf89-f088-43dc-8704-85550d82e546","ios":"levelo://app?vid=388ecf89-f088-43dc-8704-85550d82e546"},"vehicle_type_id":"4","last_reported":1745359758,"current_range_meters":5600,"station_id":"ce4bh0h2rcd13ifvqd50","pricing_plan_id":"cebpf4jnsgd1na2vs0mg"},{"bike_id":"da24ae5e-6744-4ba9-8a6c-c375426f57b5","system_id":"levelo_inurba_marseille","lat":43.25127,"lon":5.40335,"is_reserved":false,"is_disabled":false,"rental_uris":{"android":"levelo://app?vid=da24ae5e-6744-4ba9-8a6c-c375426f57b5","ios":"levelo://app?vid=da24ae5e-6744-4ba9-8a6c-c375426f57b5"},"vehicle_type_id":"4","last_reported":1745359758,"current_range_meters":6400,"station_id":"ce4bhlh2rcd13ifvqgig","pricing_plan_id":"cebpf4jnsgd1na2vs0mg"},{"bike_id":"6b87ccdc-66bd-42a1-bad7-6615d0405689","system_id":"levelo_inurba_marseille","lat":43.23949,"lon":5.36656,"is_reserved":false,"is_disabled":false,"rental_uris":{"android":"levelo://app?vid=6b87ccdc-66bd-42a1-bad7-6615d0405689","ios":"levelo://app?vid=6b87ccdc-66bd-42a1-bad7-6615d0405689"},"vehicle_type_id":"4","last_reported":1745359758,"current_range_meters":6400,"station_id":"ce4bhi12rcd13ifvqfp0","pricing_plan_id":"cebpf4jnsgd1na2vs0mg"},{"bike_id":"eb613738-fcdb-4c92-a9d3-e5b2de692e33","system_id":"levelo_inurba_marseille","lat":43.22928,"lon":5.35386,"is_reserved":false,"is_disabled":false,"rental_uris":{"android":"levelo://app?vid=eb613738-fcdb-4c92-a9d3-e5b2de692e33","ios":"levelo://app?vid=eb613738-fcdb-4c92-a9d3-e5b2de692e33"},"vehicle_type_id":"4","last_reported":1745359758,"current_range_meters":6400,"station_id":"cpo3532slgdg3j2ikp40","pricing_plan_id":"cebpf4jnsgd1na2vs0mg"},{"bike_id":"4de92fcb-5cae-4f4e-a6fa-7c761de0b676","system_id":"levelo_inurba_marseille","lat":43.30026,"lon":5.36729,"is_reserved":false,"is_disabled":false,"rental_uris":{"android":"levelo://app?vid=4de92fcb-5cae-4f4e-a6fa-7c761de0b676","ios":"levelo://app?vid=4de92fcb-5cae-4f4e-a6fa-7c761de0b676"},"vehicle_type_id":"4","last_reported":1745359758,"current_range_meters":6800,"station_id":"","pricing_plan_id":"cebpf4jnsgd1na2vs0mg"},{"bike_id":"a8836573-6708-43a7-b506-2c81c7063ba2","system_id":"levelo_inurba_marseille","lat":43.25115,"lon":5.40323,"is_reserved":false,"is_disabled":false,"rental_uris":{"android":"levelo://app?vid=a8836573-6708-43a7-b506-2c81c7063ba2","ios":"levelo://app?vid=a8836573-6708-43a7-b506-2c81c7063ba2"},"vehicle_type_id":"4","last_reported":1745359758,"current_range_meters":6800,"station_id":"ce4bhlh2rcd13ifvqgig","pricing_plan_id":"cebpf4jnsgd1na2vs0mg"},{"bike_id":"d42da8b3-5312-4608-a60b-fef54c0c16d1","system_id":"levelo_inurba_marseille","lat":43.28076,"lon":5.39643,"is_reserved":false,"is_disabled":false,"rental_uris":{"android":"levelo://app?vid=d42da8b3-5312-4608-a60b-fef54c0c16d1","ios":"levelo://app?vid=d42da8b3-5312-4608-a60b-fef54c0c16d1"},"vehicle_type_id":"4","last_reported":1745359758,"current_range_meters":6800,"station_id":"ce4bho12rcd13ifvqh2g","pricing_plan_id":"cebpf4jnsgd1na2vs0mg"},{"bike_id":"1c755526-7610-4241-9257-348acde561d3","system_id":"levelo_inurba_marseille","lat":43.24875,"lon":5.38188,"is_reserved":false,"is_disabled":false,"rental_uris":{"android":"levelo://app?vid=1c755526-7610-4241-9257-348acde561d3","ios":"levelo://app?vid=1c755526-7610-4241-9257-348acde561d3"},"vehicle_type_id":"4","last_reported":1745359758,"current_range_meters":6800,"station_id":"","pricing_plan_id":"cebpf4jnsgd1na2vs0mg"},{"bike_id":"f771b48d-8d83-457c-962a-93c56ca5160f","system_id":"levelo_inurba_marseille","lat":43.286094,"lon":5.351033,"is_reserved":false,"is_disabled":false,"rental_uris":{"android":"levelo://app?vid=f771b48d-8d83-457c-962a-93c56ca5160f","ios":"levelo://app?vid=f771b48d-8d83-457c-962a-93c56ca5160f"},"vehicle_type_id":"4","last_reported":1745359758,"current_range_meters":6800,"station_id":"ce4bhch2rcd13ifvqeug","pricing_plan_id":"cebpf4jnsgd1na2vs0mg"},{"bike_id":"ff87b3c6-774a-4043-bc8a-2523570864ac","system_id":"levelo_inurba_marseille","lat":43.32355,"lon":5.38888,"is_reserved":false,"is_disabled":false,"rental_uris":{"android":"levelo://app?vid=ff87b3c6-774a-4043-bc8a-2523570864ac","ios":"levelo://app?vid=ff87b3c6-774a-4043-bc8a-2523570864ac"},"vehicle_type_id":"4","last_reported":1745359758,"current_range_meters":7200,"station_id":"ce4bhqp2rcd13ifvqhog","pricing_plan_id":"cebpf4jnsgd1na2vs0mg"},{"bike_id":"28dbeddd-838b-456e-82ff-c5881d62245f","system_id":"levelo_inurba_marseille","lat":43.22932,"lon":5.35371,"is_reserved":false,"is_disabled":false,"rental_uris":{"android":"levelo://app?vid=28dbeddd-838b-456e-82ff-c5881d62245f","ios":"levelo://app?vid=28dbeddd-838b-456e-82ff-c5881d62245f"},"vehicle_type_id":"4","last_reported":1745359758,"current_range_meters":7200,"station_id":"cpo3532slgdg3j2ikp40","pricing_plan_id":"cebpf4jnsgd1na2vs0mg"},{"bike_id":"49454987-63e1-48fb-8366-812d15a5c496","system_id":"levelo_inurba_marseille","lat":43.24096,"lon":5.37723,"is_reserved":false,"is_disabled":false,"rental_uris":{"android":"levelo://app?vid=49454987-63e1-48fb-8366-812d15a5c496","ios":"levelo://app?vid=49454987-63e1-48fb-8366-812d15a5c496"},"vehicle_type_id":"4","last_reported":1745359758,"current_range_meters":7200,"station_id":"ce4bhnp2rcd13ifvqgvg","pricing_plan_id":"cebpf4jnsgd1na2vs0mg"},{"bike_id":"feb23c94-7c1e-4b05-a58d-7d3f25fc2ea3","system_id":"levelo_inurba_marseille","lat":43.285,"lon":5.39429,"is_reserved":false,"is_disabled":false,"rental_uris":{"android":"levelo://app?vid=feb23c94-7c1e-4b05-a58d-7d3f25fc2ea3","ios":"levelo://app?vid=feb23c94-7c1e-4b05-a58d-7d3f25fc2ea3"},"vehicle_type_id":"4","last_reported":1745359758,"current_range_meters":7200,"station_id":"","pricing_plan_id":"cebpf4jnsgd1na2vs0mg"},{"bike_id":"3df694b1-9cf0-49b1-863e-8c0c2b94c742","system_id":"levelo_inurba_marseille","lat":43.25128,"lon":5.40311,"is_reserved":false,"is_disabled":false,"rental_uris":{"android":"levelo://app?vid=3df694b1-9cf0-49b1-863e-8c0c2b94c742","ios":"levelo://app?vid=3df694b1-9cf0-49b1-863e-8c0c2b94c742"},"vehicle_type_id":"4","last_reported":1745359758,"current_range_meters":7200,"station_id":"ce4bhlh2rcd13ifvqgig","pricing_plan_id":"cebpf4jnsgd1na2vs0mg"},{"bike_id":"6a5fe51d-2d39-4e4e-b550-a7377933ce5f","system_id":"levelo_inurba_marseille","lat":43.3026,"lon":5.40078,"is_reserved":false,"is_disabled":false,"rental_uris":{"android":"levelo://app?vid=6a5fe51d-2d39-4e4e-b550-a7377933ce5f","ios":"levelo://app?vid=6a5fe51d-2d39-4e4e-b550-a7377933ce5f"},"vehicle_type_id":"4","last_reported":1745359758,"current_range_meters":8000,"station_id":"ce4bgvh2rcd13ifvqcs0","pricing_plan_id":"cebpf4jnsgd1na2vs0mg"},{"bike_id":"04ba535b-8a2f-4de2-86f4-d626701bd0a3","system_id":"levelo_inurba_marseille","lat":43.25849,"lon":5.39926,"is_reserved":false,"is_disabled":false,"rental_uris":{"android":"levelo://app?vid=04ba535b-8a2f-4de2-86f4-d626701bd0a3","ios":"levelo://app?vid=04ba535b-8a2f-4de2-86f4-d626701bd0a3"},"vehicle_type_id":"4","last_reported":1745359758,"current_range_meters":8000,"station_id":"ce4bhl92rcd13ifvqghg","pricing_plan_id":"cebpf4jnsgd1na2vs0mg"},{"bike_id":"f882010f-ebbf-4f14-a8a8-858fc3192343","system_id":"levelo_inurba_marseille","lat":43.26244,"lon":5.40431,"is_reserved":false,"is_disabled":false,"rental_uris":{"android":"levelo://app?vid=f882010f-ebbf-4f14-a8a8-858fc3192343","ios":"levelo://app?vid=f882010f-ebbf-4f14-a8a8-858fc3192343"},"vehicle_type_id":"4","last_reported":1745359758,"current_range_meters":8000,"station_id":"ce4bhmh2rcd13ifvqgmg","pricing_plan_id":"cebpf4jnsgd1na2vs0mg"},{"bike_id":"6604993b-aba8-465b-953d-c4bbe6c429f6","system_id":"levelo_inurba_marseille","lat":43.2636,"lon":5.39641,"is_reserved":false,"is_disabled":false,"rental_uris":{"android":"levelo://app?vid=6604993b-aba8-465b-953d-c4bbe6c429f6","ios":"levelo://app?vid=6604993b-aba8-465b-953d-c4bbe6c429f6"},"vehicle_type_id":"4","last_reported":1745359758,"current_range_meters":8000,"station_id":"","pricing_plan_id":"cebpf4jnsgd1na2vs0mg"},{"bike_id":"0d3fa34e-94f6-4f0a-9601-e66769ddc9a8","system_id":"levelo_inurba_marseille","lat":43.304137,"lon":5.412392,"is_reserved":false,"is_disabled":false,"rental_uris":{"android":"levelo://app?vid=0d3fa34e-94f6-4f0a-9601-e66769ddc9a8","ios":"levelo://app?vid=0d3fa34e-94f6-4f0a-9601-e66769ddc9a8"},"vehicle_type_id":"4","last_reported":1745359758,"current_range_meters":8000,"station_id":"ce4bhop2rcd13ifvqh8g","pricing_plan_id":"cebpf4jnsgd1na2vs0mg"},{"bike_id":"6a2f5ce0-faa6-47de-958f-e073d8f00740","system_id":"levelo_inurba_marseille","lat":43.28844,"lon":5.39312,"is_reserved":false,"is_disabled":false,"rental_uris":{"android":"levelo://app?vid=6a2f5ce0-faa6-47de-958f-e073d8f00740","ios":"levelo://app?vid=6a2f5ce0-faa6-47de-958f-e073d8f00740"},"vehicle_type_id":"4","last_reported":1745359758,"current_range_meters":8400,"station_id":"ce4bh2p2rcd13ifvqdi0","pricing_plan_id":"cebpf4jnsgd1na2vs0mg"},{"bike_id":"812167a7-afd5-4edc-bf10-be9f547fc037","system_id":"levelo_inurba_marseille","lat":43.273206,"lon":5.390681,"is_reserved":false,"is_disabled":false,"rental_uris":{"android":"levelo://app?vid=812167a7-afd5-4edc-bf10-be9f547fc037","ios":"levelo://app?vid=812167a7-afd5-4edc-bf10-be9f547fc037"},"vehicle_type_id":"4","last_reported":1745359758,"current_range_meters":8400,"station_id":"","pricing_plan_id":"cebpf4jnsgd1na2vs0mg"},{"bike_id":"9219fa87-3fc7-4087-b8bb-baf7e7a8265e","system_id":"levelo_inurba_marseille","lat":43.307953,"lon":5.400861,"is_reserved":false,"is_disabled":false,"rental_uris":{"android":"levelo://app?vid=9219fa87-3fc7-4087-b8bb-baf7e7a8265e","ios":"levelo://app?vid=9219fa87-3fc7-4087-b8bb-baf7e7a8265e"},"vehicle_type_id":"4","last_reported":1745359758,"current_range_meters":8000,"station_id":"ce4bhsp2rcd13ifvqi50","pricing_plan_id":"cebpf4jnsgd1na2vs0mg"},{"bike_id":"86efdc47-ace6-4313-84f7-3383aaf7dfaf","system_id":"levelo_inurba_marseille","lat":43.29079,"lon":5.37152,"is_reserved":false,"is_disabled":false,"rental_uris":{"android":"levelo://app?vid=86efdc47-ace6-4313-84f7-3383aaf7dfaf","ios":"levelo://app?vid=86efdc47-ace6-4313-84f7-3383aaf7dfaf"},"vehicle_type_id":"4","last_reported":1745359758,"current_range_meters":8400,"station_id":"ce4bh5p2rcd13ifvqe4g","pricing_plan_id":"cebpf4jnsgd1na2vs0mg"},{"bike_id":"e398c7f5-3587-459f-99fe-8a326e7304d0","system_id":"levelo_inurba_marseille","lat":43.23189,"lon":5.39976,"is_reserved":false,"is_disabled":false,"rental_uris":{"android":"levelo://app?vid=e398c7f5-3587-459f-99fe-8a326e7304d0","ios":"levelo://app?vid=e398c7f5-3587-459f-99fe-8a326e7304d0"},"vehicle_type_id":"4","last_reported":1745359758,"current_range_meters":8400,"station_id":"ce4bhn12rcd13ifvqgqg","pricing_plan_id":"cebpf4jnsgd1na2vs0mg"},{"bike_id":"403801dc-6bba-433f-9118-b29f6eb2408d","system_id":"levelo_inurba_marseille","lat":43.25103,"lon":5.40335,"is_reserved":false,"is_disabled":false,"rental_uris":{"android":"levelo://app?vid=403801dc-6bba-433f-9118-b29f6eb2408d","ios":"levelo://app?vid=403801dc-6bba-433f-9118-b29f6eb2408d"},"vehicle_type_id":"4","last_reported":1745359758,"current_range_meters":8400,"station_id":"ce4bhlh2rcd13ifvqgig","pricing_plan_id":"cebpf4jnsgd1na2vs0mg"},{"bike_id":"71f121ee-fc56-4cf0-a6a7-237b4e50d330","system_id":"levelo_inurba_marseille","lat":43.25116,"lon":5.40324,"is_reserved":false,"is_disabled":false,"rental_uris":{"android":"levelo://app?vid=71f121ee-fc56-4cf0-a6a7-237b4e50d330","ios":"levelo://app?vid=71f121ee-fc56-4cf0-a6a7-237b4e50d330"},"vehicle_type_id":"4","last_reported":1745359758,"current_range_meters":8800,"station_id":"ce4bhlh2rcd13ifvqgig","pricing_plan_id":"cebpf4jnsgd1na2vs0mg"},{"bike_id":"2dc4e79a-33a8-48b0-bf03-f6328f1dc1f6","system_id":"levelo_inurba_marseille","lat":43.32364,"lon":5.389,"is_reserved":false,"is_disabled":true,"rental_uris":{"android":"levelo://app?vid=2dc4e79a-33a8-48b0-bf03-f6328f1dc1f6","ios":"levelo://app?vid=2dc4e79a-33a8-48b0-bf03-f6328f1dc1f6"},"vehicle_type_id":"4","last_reported":1745359758,"current_range_meters":8800,"station_id":"ce4bhqp2rcd13ifvqhog","pricing_plan_id":"cebpf4jnsgd1na2vs0mg"},{"bike_id":"bdb68784-8323-40c9-a4ae-52e65ae4d54f","system_id":"levelo_inurba_marseille","lat":43.29303,"lon":5.37163,"is_reserved":false,"is_disabled":true,"rental_uris":{"android":"levelo://app?vid=bdb68784-8323-40c9-a4ae-52e65ae4d54f","ios":"levelo://app?vid=bdb68784-8323-40c9-a4ae-52e65ae4d54f"},"vehicle_type_id":"4","last_reported":1745359758,"current_range_meters":8800,"station_id":"ce4bgh92rcd13ifvqb40","pricing_plan_id":"cebpf4jnsgd1na2vs0mg"},{"bike_id":"0a46db53-f231-4f03-9a84-d87e592cae41","system_id":"levelo_inurba_marseille","lat":43.287,"lon":5.3999,"is_reserved":false,"is_disabled":false,"rental_uris":{"android":"levelo://app?vid=0a46db53-f231-4f03-9a84-d87e592cae41","ios":"levelo://app?vid=0a46db53-f231-4f03-9a84-d87e592cae41"},"vehicle_type_id":"4","last_reported":1745359758,"current_range_meters":8800,"station_id":"ce4bho92rcd13ifvqh3g","pricing_plan_id":"cebpf4jnsgd1na2vs0mg"},{"bike_id":"e95854b2-d226-4b90-8d04-8305be0fc5de","system_id":"levelo_inurba_marseille","lat":43.28271,"lon":5.35058,"is_reserved":false,"is_disabled":false,"rental_uris":{"android":"levelo://app?vid=e95854b2-d226-4b90-8d04-8305be0fc5de","ios":"levelo://app?vid=e95854b2-d226-4b90-8d04-8305be0fc5de"},"vehicle_type_id":"4","last_reported":1745359758,"current_range_meters":8800,"station_id":"ce4bhbp2rcd13ifvqerg","pricing_plan_id":"cebpf4jnsgd1na2vs0mg"},{"bike_id":"3b1683ad-161a-4d06-bf0e-dfe0ec072a94","system_id":"levelo_inurba_marseille","lat":43.25112,"lon":5.40328,"is_reserved":false,"is_disabled":false,"rental_uris":{"android":"levelo://app?vid=3b1683ad-161a-4d06-bf0e-dfe0ec072a94","ios":"levelo://app?vid=3b1683ad-161a-4d06-bf0e-dfe0ec072a94"},"vehicle_type_id":"4","last_reported":1745359758,"current_range_meters":8800,"station_id":"ce4bhlh2rcd13ifvqgig","pricing_plan_id":"cebpf4jnsgd1na2vs0mg"},{"bike_id":"d8d27387-fb66-4c0a-90dc-eef7a69dc87d","system_id":"levelo_inurba_marseille","lat":43.21184,"lon":5.35109,"is_reserved":false,"is_disabled":false,"rental_uris":{"android":"levelo://app?vid=d8d27387-fb66-4c0a-90dc-eef7a69dc87d","ios":"levelo://app?vid=d8d27387-fb66-4c0a-90dc-eef7a69dc87d"},"vehicle_type_id":"4","last_reported":1745359758,"current_range_meters":8800,"station_id":"ce4bgh92rcd13ifvqb40","pricing_plan_id":"cebpf4jnsgd1na2vs0mg"},{"bike_id":"18a1e6d3-9562-43c0-bc09-2d41b8fdfe34","system_id":"levelo_inurba_marseille","lat":43.2894,"lon":5.36638,"is_reserved":false,"is_disabled":false,"rental_uris":{"android":"levelo://app?vid=18a1e6d3-9562-43c0-bc09-2d41b8fdfe34","ios":"levelo://app?vid=18a1e6d3-9562-43c0-bc09-2d41b8fdfe34"},"vehicle_type_id":"4","last_reported":1745359758,"current_range_meters":8800,"station_id":"ce4bhap2rcd13ifvqek0","pricing_plan_id":"cebpf4jnsgd1na2vs0mg"},{"bike_id":"81d77fcb-8f24-4079-9c51-181359394190","system_id":"levelo_inurba_marseille","lat":43.28549,"lon":5.35176,"is_reserved":false,"is_disabled":false,"rental_uris":{"android":"levelo://app?vid=81d77fcb-8f24-4079-9c51-181359394190","ios":"levelo://app?vid=81d77fcb-8f24-4079-9c51-181359394190"},"vehicle_type_id":"4","last_reported":1745359758,"current_range_meters":9200,"station_id":"","pricing_plan_id":"cebpf4jnsgd1na2vs0mg"},{"bike_id":"b8cfef2f-049b-4f5b-9246-18214c8511f6","system_id":"levelo_inurba_marseille","lat":43.27984,"lon":5.40022,"is_reserved":false,"is_disabled":false,"rental_uris":{"android":"levelo://app?vid=b8cfef2f-049b-4f5b-9246-18214c8511f6","ios":"levelo://app?vid=b8cfef2f-049b-4f5b-9246-18214c8511f6"},"vehicle_type_id":"4","last_reported":1745359758,"current_range_meters":9200,"station_id":"ce4bho92rcd13ifvqh4g","pricing_plan_id":"cebpf4jnsgd1na2vs0mg"},{"bike_id":"95599841-92d9-4828-ad3f-2b8023ff9887","system_id":"levelo_inurba_marseille","lat":43.2943,"lon":5.39747,"is_reserved":false,"is_disabled":false,"rental_uris":{"android":"levelo://app?vid=95599841-92d9-4828-ad3f-2b8023ff9887","ios":"levelo://app?vid=95599841-92d9-4828-ad3f-2b8023ff9887"},"vehicle_type_id":"4","last_reported":1745359758,"current_range_meters":9200,"station_id":"ce4bh3h2rcd13ifvqdo0","pricing_plan_id":"cebpf4jnsgd1na2vs0mg"},{"bike_id":"70671536-b2e1-456c-8bd8-7804b348f9fc","system_id":"levelo_inurba_marseille","lat":43.31197,"lon":5.41607,"is_reserved":false,"is_disabled":false,"rental_uris":{"android":"levelo://app?vid=70671536-b2e1-456c-8bd8-7804b348f9fc","ios":"levelo://app?vid=70671536-b2e1-456c-8bd8-7804b348f9fc"},"vehicle_type_id":"4","last_reported":1745359758,"current_range_meters":9200,"station_id":"","pricing_plan_id":"cebpf4jnsgd1na2vs0mg"},{"bike_id":"1f605da9-74b3-4f53-96b4-ea59ce51acfc","system_id":"levelo_inurba_marseille","lat":43.3119,"lon":5.41606,"is_reserved":false,"is_disabled":false,"rental_uris":{"android":"levelo://app?vid=1f605da9-74b3-4f53-96b4-ea59ce51acfc","ios":"levelo://app?vid=1f605da9-74b3-4f53-96b4-ea59ce51acfc"},"vehicle_type_id":"4","last_reported":1745359758,"current_range_meters":9200,"station_id":"","pricing_plan_id":"cebpf4jnsgd1na2vs0mg"},{"bike_id":"ecbdb4d8-c80c-4a11-b50b-aff98695a59d","system_id":"levelo_inurba_marseille","lat":43.2791,"lon":5.39571,"is_reserved":false,"is_disabled":false,"rental_uris":{"android":"levelo://app?vid=ecbdb4d8-c80c-4a11-b50b-aff98695a59d","ios":"levelo://app?vid=ecbdb4d8-c80c-4a11-b50b-aff98695a59d"},"vehicle_type_id":"4","last_reported":1745359758,"current_range_meters":9200,"station_id":"ce4bhf92rcd13ifvqf40","pricing_plan_id":"cebpf4jnsgd1na2vs0mg"},{"bike_id":"4bc1c5e9-4660-44cc-a744-a3c8d61f6c1a","system_id":"levelo_inurba_marseille","lat":43.26056,"lon":5.39395,"is_reserved":false,"is_disabled":false,"rental_uris":{"android":"levelo://app?vid=4bc1c5e9-4660-44cc-a744-a3c8d61f6c1a","ios":"levelo://app?vid=4bc1c5e9-4660-44cc-a744-a3c8d61f6c1a"},"vehicle_type_id":"4","last_reported":1745359758,"current_range_meters":8800,"station_id":"ce4bhh92rcd13ifvqfj0","pricing_plan_id":"cebpf4jnsgd1na2vs0mg"},{"bike_id":"1b72fe1a-50d7-43dc-9bd5-c62057eb6279","system_id":"levelo_inurba_marseille","lat":43.30318,"lon":5.40439,"is_reserved":false,"is_disabled":false,"rental_uris":{"android":"levelo://app?vid=1b72fe1a-50d7-43dc-9bd5-c62057eb6279","ios":"levelo://app?vid=1b72fe1a-50d7-43dc-9bd5-c62057eb6279"},"vehicle_type_id":"4","last_reported":1745359758,"current_range_meters":9200,"station_id":"ce4bh012rcd13ifvqd10","pricing_plan_id":"cebpf4jnsgd1na2vs0mg"},{"bike_id":"3a978624-d3a6-4f0e-b9f7-3879a24f998c","system_id":"levelo_inurba_marseille","lat":43.28085,"lon":5.3965,"is_reserved":false,"is_disabled":false,"rental_uris":{"android":"levelo://app?vid=3a978624-d3a6-4f0e-b9f7-3879a24f998c","ios":"levelo://app?vid=3a978624-d3a6-4f0e-b9f7-3879a24f998c"},"vehicle_type_id":"4","last_reported":1745359758,"current_range_meters":9200,"station_id":"ce4bho12rcd13ifvqh2g","pricing_plan_id":"cebpf4jnsgd1na2vs0mg"},{"bike_id":"22e3ed21-936d-4292-a78f-e871a8bbc15e","system_id":"levelo_inurba_marseille","lat":43.32015,"lon":5.4157,"is_reserved":false,"is_disabled":false,"rental_uris":{"android":"levelo://app?vid=22e3ed21-936d-4292-a78f-e871a8bbc15e","ios":"levelo://app?vid=22e3ed21-936d-4292-a78f-e871a8bbc15e"},"vehicle_type_id":"4","last_reported":1745359758,"current_range_meters":9600,"station_id":"ce4bhq92rcd13ifvqhkg","pricing_plan_id":"cebpf4jnsgd1na2vs0mg"},{"bike_id":"a45ae1a9-c8cc-4065-9f5d-cdcd6714c67f","system_id":"levelo_inurba_marseille","lat":43.33762,"lon":5.39185,"is_reserved":false,"is_disabled":false,"rental_uris":{"android":"levelo://app?vid=a45ae1a9-c8cc-4065-9f5d-cdcd6714c67f","ios":"levelo://app?vid=a45ae1a9-c8cc-4065-9f5d-cdcd6714c67f"},"vehicle_type_id":"4","last_reported":1745359758,"current_range_meters":9600,"station_id":"","pricing_plan_id":"cebpf4jnsgd1na2vs0mg"},{"bike_id":"0edd0516-c62c-4685-98ce-3c60046dc81d","system_id":"levelo_inurba_marseille","lat":43.30322,"lon":5.40453,"is_reserved":false,"is_disabled":false,"rental_uris":{"android":"levelo://app?vid=0edd0516-c62c-4685-98ce-3c60046dc81d","ios":"levelo://app?vid=0edd0516-c62c-4685-98ce-3c60046dc81d"},"vehicle_type_id":"4","last_reported":1745359758,"current_range_meters":9600,"station_id":"ce4bh012rcd13ifvqd10","pricing_plan_id":"cebpf4jnsgd1na2vs0mg"},{"bike_id":"e1a97bc9-1c06-44ea-b7fb-ded000ae09ef","system_id":"levelo_inurba_marseille","lat":43.29022,"lon":5.39981,"is_reserved":false,"is_disabled":false,"rental_uris":{"android":"levelo://app?vid=e1a97bc9-1c06-44ea-b7fb-ded000ae09ef","ios":"levelo://app?vid=e1a97bc9-1c06-44ea-b7fb-ded000ae09ef"},"vehicle_type_id":"4","last_reported":1745359758,"current_range_meters":9200,"station_id":"ce4bh392rcd13ifvqdm0","pricing_plan_id":"cebpf4jnsgd1na2vs0mg"},{"bike_id":"6c43192a-f540-4d5d-b534-c8bfd7679076","system_id":"levelo_inurba_marseille","lat":43.30558,"lon":5.38431,"is_reserved":false,"is_disabled":false,"rental_uris":{"android":"levelo://app?vid=6c43192a-f540-4d5d-b534-c8bfd7679076","ios":"levelo://app?vid=6c43192a-f540-4d5d-b534-c8bfd7679076"},"vehicle_type_id":"4","last_reported":1745359758,"current_range_meters":9600,"station_id":"ce4bgg92rcd13ifvqb30","pricing_plan_id":"cebpf4jnsgd1na2vs0mg"},{"bike_id":"0d1ebedd-3512-4ce4-87fe-745c17edfd96","system_id":"levelo_inurba_marseille","lat":43.27883,"lon":5.35447,"is_reserved":false,"is_disabled":true,"rental_uris":{"android":"levelo://app?vid=0d1ebedd-3512-4ce4-87fe-745c17edfd96","ios":"levelo://app?vid=0d1ebedd-3512-4ce4-87fe-745c17edfd96"},"vehicle_type_id":"4","last_reported":1745359758,"current_range_meters":10000,"station_id":"","pricing_plan_id":"cebpf4jnsgd1na2vs0mg"},{"bike_id":"0423c9dc-3e51-463a-b8dd-bb9257ea7b74","system_id":"levelo_inurba_marseille","lat":43.288582,"lon":5.358355,"is_reserved":false,"is_disabled":false,"rental_uris":{"android":"levelo://app?vid=0423c9dc-3e51-463a-b8dd-bb9257ea7b74","ios":"levelo://app?vid=0423c9dc-3e51-463a-b8dd-bb9257ea7b74"},"vehicle_type_id":"4","last_reported":1745359758,"current_range_meters":10000,"station_id":"ce4bhb12rcd13ifvqem0","pricing_plan_id":"cebpf4jnsgd1na2vs0mg"},{"bike_id":"1b6270aa-1018-436c-b56d-a3e4bc3abdbc","system_id":"levelo_inurba_marseille","lat":43.28042,"lon":5.36935,"is_reserved":false,"is_disabled":false,"rental_uris":{"android":"levelo://app?vid=1b6270aa-1018-436c-b56d-a3e4bc3abdbc","ios":"levelo://app?vid=1b6270aa-1018-436c-b56d-a3e4bc3abdbc"},"vehicle_type_id":"4","last_reported":1745359758,"current_range_meters":10000,"station_id":"ce4bha12rcd13ifvqef0","pricing_plan_id":"cebpf4jnsgd1na2vs0mg"},{"bike_id":"f416d0ef-f853-49ab-9358-9525a7ed6c57","system_id":"levelo_inurba_marseille","lat":43.31994,"lon":5.38138,"is_reserved":false,"is_disabled":false,"rental_uris":{"android":"levelo://app?vid=f416d0ef-f853-49ab-9358-9525a7ed6c57","ios":"levelo://app?vid=f416d0ef-f853-49ab-9358-9525a7ed6c57"},"vehicle_type_id":"4","last_reported":1745359758,"current_range_meters":10000,"station_id":"ce4bhr12rcd13ifvqhpg","pricing_plan_id":"cebpf4jnsgd1na2vs0mg"},{"bike_id":"f912db2b-6a7d-49cf-b3de-1f63d7acb852","system_id":"levelo_inurba_marseille","lat":43.29881,"lon":5.39735,"is_reserved":false,"is_disabled":false,"rental_uris":{"android":"levelo://app?vid=f912db2b-6a7d-49cf-b3de-1f63d7acb852","ios":"levelo://app?vid=f912db2b-6a7d-49cf-b3de-1f63d7acb852"},"vehicle_type_id":"4","last_reported":1745359758,"current_range_meters":10000,"station_id":"ce4bh0h2rcd13ifvqd50","pricing_plan_id":"cebpf4jnsgd1na2vs0mg"},{"bike_id":"b7faf52c-4492-424a-af0a-ac6553930b46","system_id":"levelo_inurba_marseille","lat":43.2318,"lon":5.3999,"is_reserved":false,"is_disabled":false,"rental_uris":{"android":"levelo://app?vid=b7faf52c-4492-424a-af0a-ac6553930b46","ios":"levelo://app?vid=b7faf52c-4492-424a-af0a-ac6553930b46"},"vehicle_type_id":"4","last_reported":1745359758,"current_range_meters":10000,"station_id":"ce4bhn12rcd13ifvqgqg","pricing_plan_id":"cebpf4jnsgd1na2vs0mg"},{"bike_id":"9955afde-6d4b-4dfb-9249-7e1b507b3c52","system_id":"levelo_inurba_marseille","lat":43.250863,"lon":5.395151,"is_reserved":false,"is_disabled":false,"rental_uris":{"android":"levelo://app?vid=9955afde-6d4b-4dfb-9249-7e1b507b3c52","ios":"levelo://app?vid=9955afde-6d4b-4dfb-9249-7e1b507b3c52"},"vehicle_type_id":"4","last_reported":1745359758,"current_range_meters":10800,"station_id":"ce4bhm12rcd13ifvqgkg","pricing_plan_id":"cebpf4jnsgd1na2vs0mg"},{"bike_id":"f1300840-291d-4ece-a09c-172514b0678c","system_id":"levelo_inurba_marseille","lat":43.29468,"lon":5.39744,"is_reserved":false,"is_disabled":true,"rental_uris":{"android":"levelo://app?vid=f1300840-291d-4ece-a09c-172514b0678c","ios":"levelo://app?vid=f1300840-291d-4ece-a09c-172514b0678c"},"vehicle_type_id":"4","last_reported":1745359758,"current_range_meters":10800,"station_id":"ce4bh3h2rcd13ifvqdo0","pricing_plan_id":"cebpf4jnsgd1na2vs0mg"},{"bike_id":"cde58abb-e471-49a0-b5b1-fcfce4e67920","system_id":"levelo_inurba_marseille","lat":43.31983,"lon":5.38122,"is_reserved":false,"is_disabled":false,"rental_uris":{"android":"levelo://app?vid=cde58abb-e471-49a0-b5b1-fcfce4e67920","ios":"levelo://app?vid=cde58abb-e471-49a0-b5b1-fcfce4e67920"},"vehicle_type_id":"4","last_reported":1745359758,"current_range_meters":10800,"station_id":"ce4bhr12rcd13ifvqhpg","pricing_plan_id":"cebpf4jnsgd1na2vs0mg"},{"bike_id":"47768a28-4fff-4fc1-b4c4-b5ec8d452deb","system_id":"levelo_inurba_marseille","lat":43.29595,"lon":5.38128,"is_reserved":false,"is_disabled":true,"rental_uris":{"android":"levelo://app?vid=47768a28-4fff-4fc1-b4c4-b5ec8d452deb","ios":"levelo://app?vid=47768a28-4fff-4fc1-b4c4-b5ec8d452deb"},"vehicle_type_id":"4","last_reported":1745359758,"current_range_meters":10800,"station_id":"ce4bgl12rcd13ifvqbo0","pricing_plan_id":"cebpf4jnsgd1na2vs0mg"},{"bike_id":"d5fa6a7e-ae6f-48cd-8dc8-6ec1473fc099","system_id":"levelo_inurba_marseille","lat":43.31338,"lon":5.36688,"is_reserved":false,"is_disabled":true,"rental_uris":{"android":"levelo://app?vid=d5fa6a7e-ae6f-48cd-8dc8-6ec1473fc099","ios":"levelo://app?vid=d5fa6a7e-ae6f-48cd-8dc8-6ec1473fc099"},"vehicle_type_id":"4","last_reported":1745359758,"current_range_meters":10800,"station_id":"ce4bgr92rcd13ifvqc6g","pricing_plan_id":"cebpf4jnsgd1na2vs0mg"},{"bike_id":"aab23076-c969-4313-b94f-52e6698a4839","system_id":"levelo_inurba_marseille","lat":43.299237,"lon":5.374951,"is_reserved":false,"is_disabled":false,"rental_uris":{"android":"levelo://app?vid=aab23076-c969-4313-b94f-52e6698a4839","ios":"levelo://app?vid=aab23076-c969-4313-b94f-52e6698a4839"},"vehicle_type_id":"4","last_reported":1745359758,"current_range_meters":11200,"station_id":"ce4bgjh2rcd13ifvqbg0","pricing_plan_id":"cebpf4jnsgd1na2vs0mg"},{"bike_id":"f8349672-0e88-45af-a952-6416fa3f8c75","system_id":"levelo_inurba_marseille","lat":43.28717,"lon":5.361,"is_reserved":false,"is_disabled":false,"rental_uris":{"android":"levelo://app?vid=f8349672-0e88-45af-a952-6416fa3f8c75","ios":"levelo://app?vid=f8349672-0e88-45af-a952-6416fa3f8c75"},"vehicle_type_id":"4","last_reported":1745359758,"current_range_meters":11200,"station_id":"cki0cbj6b192h4jlfktg","pricing_plan_id":"cebpf4jnsgd1na2vs0mg"},{"bike_id":"8da45441-0f39-4665-ba43-cdfddf67fe67","system_id":"levelo_inurba_marseille","lat":43.33002,"lon":5.43851,"is_reserved":false,"is_disabled":false,"rental_uris":{"android":"levelo://app?vid=8da45441-0f39-4665-ba43-cdfddf67fe67","ios":"levelo://app?vid=8da45441-0f39-4665-ba43-cdfddf67fe67"},"vehicle_type_id":"4","last_reported":1745359758,"current_range_meters":11200,"station_id":"","pricing_plan_id":"cebpf4jnsgd1na2vs0mg"},{"bike_id":"04e7ef20-6f3c-45c7-abbf-bbc81edf1116","system_id":"levelo_inurba_marseille","lat":43.28666,"lon":5.3635,"is_reserved":false,"is_disabled":false,"rental_uris":{"android":"levelo://app?vid=04e7ef20-6f3c-45c7-abbf-bbc81edf1116","ios":"levelo://app?vid=04e7ef20-6f3c-45c7-abbf-bbc81edf1116"},"vehicle_type_id":"4","last_reported":1745359758,"current_range_meters":11200,"station_id":"ce4bhah2rcd13ifvqej0","pricing_plan_id":"cebpf4jnsgd1na2vs0mg"},{"bike_id":"a756bae3-49c1-4d6c-89e8-fcb7b0e7d2e2","system_id":"levelo_inurba_marseille","lat":43.290391,"lon":5.359184,"is_reserved":false,"is_disabled":true,"rental_uris":{"android":"levelo://app?vid=a756bae3-49c1-4d6c-89e8-fcb7b0e7d2e2","ios":"levelo://app?vid=a756bae3-49c1-4d6c-89e8-fcb7b0e7d2e2"},"vehicle_type_id":"4","last_reported":1745359758,"current_range_meters":11200,"station_id":"ce4bha92rcd13ifvqeg0","pricing_plan_id":"cebpf4jnsgd1na2vs0mg"},{"bike_id":"75d0ff1a-0430-4730-b0a6-05b8957ac47a","system_id":"levelo_inurba_marseille","lat":43.290286,"lon":5.386501,"is_reserved":false,"is_disabled":false,"rental_uris":{"android":"levelo://app?vid=75d0ff1a-0430-4730-b0a6-05b8957ac47a","ios":"levelo://app?vid=75d0ff1a-0430-4730-b0a6-05b8957ac47a"},"vehicle_type_id":"4","last_reported":1745359758,"current_range_meters":11200,"station_id":"ce4bhu92rcd13ifvqi70","pricing_plan_id":"cebpf4jnsgd1na2vs0mg"},{"bike_id":"c10256a6-8742-4a70-8e64-f2c56713d90b","system_id":"levelo_inurba_marseille","lat":43.284106,"lon":5.375126,"is_reserved":false,"is_disabled":false,"rental_uris":{"android":"levelo://app?vid=c10256a6-8742-4a70-8e64-f2c56713d90b","ios":"levelo://app?vid=c10256a6-8742-4a70-8e64-f2c56713d90b"},"vehicle_type_id":"4","last_reported":1745359758,"current_range_meters":11200,"station_id":"ce4bh412rcd13ifvqds0","pricing_plan_id":"cebpf4jnsgd1na2vs0mg"},{"bike_id":"f98bcad6-534d-4647-9654-acf13ee2a765","system_id":"levelo_inurba_marseille","lat":43.31805,"lon":5.36819,"is_reserved":false,"is_disabled":false,"rental_uris":{"android":"levelo://app?vid=f98bcad6-534d-4647-9654-acf13ee2a765","ios":"levelo://app?vid=f98bcad6-534d-4647-9654-acf13ee2a765"},"vehicle_type_id":"4","last_reported":1745359758,"current_range_meters":11200,"station_id":"","pricing_plan_id":"cebpf4jnsgd1na2vs0mg"},{"bike_id":"26650a85-4cc4-412b-bccc-fed4116d72a0","system_id":"levelo_inurba_marseille","lat":43.28477,"lon":5.38417,"is_reserved":false,"is_disabled":false,"rental_uris":{"android":"levelo://app?vid=26650a85-4cc4-412b-bccc-fed4116d72a0","ios":"levelo://app?vid=26650a85-4cc4-412b-bccc-fed4116d72a0"},"vehicle_type_id":"4","last_reported":1745359758,"current_range_meters":11200,"station_id":"ce4bh512rcd13ifvqe3g","pricing_plan_id":"cebpf4jnsgd1na2vs0mg"},{"bike_id":"4ffb491f-099a-46f4-b062-324b1005b615","system_id":"levelo_inurba_marseille","lat":43.310715,"lon":5.383405,"is_reserved":false,"is_disabled":false,"rental_uris":{"android":"levelo://app?vid=4ffb491f-099a-46f4-b062-324b1005b615","ios":"levelo://app?vid=4ffb491f-099a-46f4-b062-324b1005b615"},"vehicle_type_id":"4","last_reported":1745359758,"current_range_meters":11200,"station_id":"ce4bgv92rcd13ifvqcr0","pricing_plan_id":"cebpf4jnsgd1na2vs0mg"},{"bike_id":"ecd9c509-3120-4166-8927-f60518d66aaa","system_id":"levelo_inurba_marseille","lat":43.295342,"lon":5.394146,"is_reserved":false,"is_disabled":true,"rental_uris":{"android":"levelo://app?vid=ecd9c509-3120-4166-8927-f60518d66aaa","ios":"levelo://app?vid=ecd9c509-3120-4166-8927-f60518d66aaa"},"vehicle_type_id":"4","last_reported":1745359758,"current_range_meters":11200,"station_id":"ce4bh292rcd13ifvqdf0","pricing_plan_id":"cebpf4jnsgd1na2vs0mg"},{"bike_id":"d5792b7b-f82b-46ee-81a3-5e128342d580","system_id":"levelo_inurba_marseille","lat":43.28107,"lon":5.37848,"is_reserved":false,"is_disabled":false,"rental_uris":{"android":"levelo://app?vid=d5792b7b-f82b-46ee-81a3-5e128342d580","ios":"levelo://app?vid=d5792b7b-f82b-46ee-81a3-5e128342d580"},"vehicle_type_id":"4","last_reported":1745359758,"current_range_meters":11600,"station_id":"ce4bha12rcd13ifvqee0","pricing_plan_id":"cebpf4jnsgd1na2vs0mg"},{"bike_id":"1be6a0eb-e7bb-4f1b-8976-c00356d99362","system_id":"levelo_inurba_marseille","lat":43.28273,"lon":5.35064,"is_reserved":false,"is_disabled":true,"rental_uris":{"android":"levelo://app?vid=1be6a0eb-e7bb-4f1b-8976-c00356d99362","ios":"levelo://app?vid=1be6a0eb-e7bb-4f1b-8976-c00356d99362"},"vehicle_type_id":"4","last_reported":1745359758,"current_range_meters":11600,"station_id":"ce4bhbp2rcd13ifvqerg","pricing_plan_id":"cebpf4jnsgd1na2vs0mg"},{"bike_id":"dfa00e81-f24d-4799-a072-5c5b4e571bc5","system_id":"levelo_inurba_marseille","lat":43.28661,"lon":5.36348,"is_reserved":false,"is_disabled":false,"rental_uris":{"android":"levelo://app?vid=dfa00e81-f24d-4799-a072-5c5b4e571bc5","ios":"levelo://app?vid=dfa00e81-f24d-4799-a072-5c5b4e571bc5"},"vehicle_type_id":"4","last_reported":1745359758,"current_range_meters":11600,"station_id":"ce4bhah2rcd13ifvqej0","pricing_plan_id":"cebpf4jnsgd1na2vs0mg"},{"bike_id":"7b5fcd09-e9e6-46ab-899e-aad97ee2462a","system_id":"levelo_inurba_marseille","lat":43.2834,"lon":5.38104,"is_reserved":false,"is_disabled":false,"rental_uris":{"android":"levelo://app?vid=7b5fcd09-e9e6-46ab-899e-aad97ee2462a","ios":"levelo://app?vid=7b5fcd09-e9e6-46ab-899e-aad97ee2462a"},"vehicle_type_id":"4","last_reported":1745359758,"current_range_meters":11600,"station_id":"ce4bh412rcd13ifvqdr0","pricing_plan_id":"cebpf4jnsgd1na2vs0mg"},{"bike_id":"844be68e-d7b5-4dd7-b525-b360580986fe","system_id":"levelo_inurba_marseille","lat":43.30887,"lon":5.39617,"is_reserved":false,"is_disabled":false,"rental_uris":{"android":"levelo://app?vid=844be68e-d7b5-4dd7-b525-b360580986fe","ios":"levelo://app?vid=844be68e-d7b5-4dd7-b525-b360580986fe"},"vehicle_type_id":"4","last_reported":1745359758,"current_range_meters":11200,"station_id":"ce4bh012rcd13ifvqcv0","pricing_plan_id":"cebpf4jnsgd1na2vs0mg"},{"bike_id":"0eae27b2-17db-4d87-abf7-494059b17410","system_id":"levelo_inurba_marseille","lat":43.25086,"lon":5.39511,"is_reserved":false,"is_disabled":false,"rental_uris":{"android":"levelo://app?vid=0eae27b2-17db-4d87-abf7-494059b17410","ios":"levelo://app?vid=0eae27b2-17db-4d87-abf7-494059b17410"},"vehicle_type_id":"4","last_reported":1745359758,"current_range_meters":11600,"station_id":"ce4bhm12rcd13ifvqgkg","pricing_plan_id":"cebpf4jnsgd1na2vs0mg"},{"bike_id":"4b41f586-c1f5-49d8-84d2-13baf5dfb423","system_id":"levelo_inurba_marseille","lat":43.30597,"lon":5.39355,"is_reserved":false,"is_disabled":false,"rental_uris":{"android":"levelo://app?vid=4b41f586-c1f5-49d8-84d2-13baf5dfb423","ios":"levelo://app?vid=4b41f586-c1f5-49d8-84d2-13baf5dfb423"},"vehicle_type_id":"4","last_reported":1745359758,"current_range_meters":11600,"station_id":"ce4bh0p2rcd13ifvqd80","pricing_plan_id":"cebpf4jnsgd1na2vs0mg"},{"bike_id":"49c0f902-eac7-4a79-adf0-d142aff51e11","system_id":"levelo_inurba_marseille","lat":43.24172,"lon":5.36386,"is_reserved":false,"is_disabled":false,"rental_uris":{"android":"levelo://app?vid=49c0f902-eac7-4a79-adf0-d142aff51e11","ios":"levelo://app?vid=49c0f902-eac7-4a79-adf0-d142aff51e11"},"vehicle_type_id":"4","last_reported":1745359758,"current_range_meters":11600,"station_id":"cpo36qri1sfpv3e86is0","pricing_plan_id":"cebpf4jnsgd1na2vs0mg"},{"bike_id":"16fc8586-ee6f-4dcd-aa11-7776ae64bb27","system_id":"levelo_inurba_marseille","lat":43.26061,"lon":5.39392,"is_reserved":false,"is_disabled":false,"rental_uris":{"android":"levelo://app?vid=16fc8586-ee6f-4dcd-aa11-7776ae64bb27","ios":"levelo://app?vid=16fc8586-ee6f-4dcd-aa11-7776ae64bb27"},"vehicle_type_id":"4","last_reported":1745359758,"current_range_meters":11600,"station_id":"ce4bhh92rcd13ifvqfj0","pricing_plan_id":"cebpf4jnsgd1na2vs0mg"},{"bike_id":"ae2462e3-d741-44b9-8175-77a134aeac56","system_id":"levelo_inurba_marseille","lat":43.27967,"lon":5.38696,"is_reserved":false,"is_disabled":true,"rental_uris":{"android":"levelo://app?vid=ae2462e3-d741-44b9-8175-77a134aeac56","ios":"levelo://app?vid=ae2462e3-d741-44b9-8175-77a134aeac56"},"vehicle_type_id":"4","last_reported":1745359758,"current_range_meters":12000,"station_id":"ce4bhg12rcd13ifvqf80","pricing_plan_id":"cebpf4jnsgd1na2vs0mg"},{"bike_id":"1e5c7f37-fd96-4860-996b-a519895131da","system_id":"levelo_inurba_marseille","lat":43.28571,"lon":5.395,"is_reserved":false,"is_disabled":false,"rental_uris":{"android":"levelo://app?vid=1e5c7f37-fd96-4860-996b-a519895131da","ios":"levelo://app?vid=1e5c7f37-fd96-4860-996b-a519895131da"},"vehicle_type_id":"4","last_reported":1745359758,"current_range_meters":12000,"station_id":"ce4bh292rcd13ifvqdg0","pricing_plan_id":"cebpf4jnsgd1na2vs0mg"},{"bike_id":"8d7533b3-5585-4b66-b684-60807f9907c2","system_id":"levelo_inurba_marseille","lat":43.28852,"lon":5.35835,"is_reserved":false,"is_disabled":false,"rental_uris":{"android":"levelo://app?vid=8d7533b3-5585-4b66-b684-60807f9907c2","ios":"levelo://app?vid=8d7533b3-5585-4b66-b684-60807f9907c2"},"vehicle_type_id":"4","last_reported":1745359758,"current_range_meters":12000,"station_id":"ce4bhb12rcd13ifvqem0","pricing_plan_id":"cebpf4jnsgd1na2vs0mg"},{"bike_id":"fd0c63ea-aada-45ae-9bcd-88d34a9cec27","system_id":"levelo_inurba_marseille","lat":43.23963,"lon":5.36623,"is_reserved":false,"is_disabled":false,"rental_uris":{"android":"levelo://app?vid=fd0c63ea-aada-45ae-9bcd-88d34a9cec27","ios":"levelo://app?vid=fd0c63ea-aada-45ae-9bcd-88d34a9cec27"},"vehicle_type_id":"4","last_reported":1745359758,"current_range_meters":12000,"station_id":"ce4bhi12rcd13ifvqfp0","pricing_plan_id":"cebpf4jnsgd1na2vs0mg"},{"bike_id":"a905d545-8ca4-46eb-9c30-f21168e7e6ed","system_id":"levelo_inurba_marseille","lat":43.29031,"lon":5.38131,"is_reserved":false,"is_disabled":true,"rental_uris":{"android":"levelo://app?vid=a905d545-8ca4-46eb-9c30-f21168e7e6ed","ios":"levelo://app?vid=a905d545-8ca4-46eb-9c30-f21168e7e6ed"},"vehicle_type_id":"4","last_reported":1745359758,"current_range_meters":12000,"station_id":"ce4bh4p2rcd13ifvqe1g","pricing_plan_id":"cebpf4jnsgd1na2vs0mg"},{"bike_id":"afc1a72d-f3cd-4039-8f8e-8907957e6ee0","system_id":"levelo_inurba_marseille","lat":43.284199,"lon":5.37512,"is_reserved":false,"is_disabled":false,"rental_uris":{"android":"levelo://app?vid=afc1a72d-f3cd-4039-8f8e-8907957e6ee0","ios":"levelo://app?vid=afc1a72d-f3cd-4039-8f8e-8907957e6ee0"},"vehicle_type_id":"4","last_reported":1745359758,"current_range_meters":12400,"station_id":"ce4bh412rcd13ifvqds0","pricing_plan_id":"cebpf4jnsgd1na2vs0mg"},{"bike_id":"0f096d43-159b-4751-ac7b-1b5783ddd025","system_id":"levelo_inurba_marseille","lat":43.25113,"lon":5.40315,"is_reserved":false,"is_disabled":false,"rental_uris":{"android":"levelo://app?vid=0f096d43-159b-4751-ac7b-1b5783ddd025","ios":"levelo://app?vid=0f096d43-159b-4751-ac7b-1b5783ddd025"},"vehicle_type_id":"4","last_reported":1745359758,"current_range_meters":12400,"station_id":"ce4bhlh2rcd13ifvqgig","pricing_plan_id":"cebpf4jnsgd1na2vs0mg"},{"bike_id":"476a9fe5-6154-4202-b562-28b0995b6b4c","system_id":"levelo_inurba_marseille","lat":43.23184,"lon":5.3999,"is_reserved":false,"is_disabled":false,"rental_uris":{"android":"levelo://app?vid=476a9fe5-6154-4202-b562-28b0995b6b4c","ios":"levelo://app?vid=476a9fe5-6154-4202-b562-28b0995b6b4c"},"vehicle_type_id":"4","last_reported":1745359758,"current_range_meters":12400,"station_id":"ce4bhn12rcd13ifvqgqg","pricing_plan_id":"cebpf4jnsgd1na2vs0mg"},{"bike_id":"48939965-4329-495f-a3f1-b5cf562d2ecf","system_id":"levelo_inurba_marseille","lat":43.30655,"lon":5.40064,"is_reserved":false,"is_disabled":true,"rental_uris":{"android":"levelo://app?vid=48939965-4329-495f-a3f1-b5cf562d2ecf","ios":"levelo://app?vid=48939965-4329-495f-a3f1-b5cf562d2ecf"},"vehicle_type_id":"4","last_reported":1745359758,"current_range_meters":12400,"station_id":"ce4bh112rcd13ifvqda0","pricing_plan_id":"cebpf4jnsgd1na2vs0mg"},{"bike_id":"0c39f333-7f97-49af-a4c6-7c0274ebe606","system_id":"levelo_inurba_marseille","lat":43.312258,"lon":5.368513,"is_reserved":false,"is_disabled":false,"rental_uris":{"android":"levelo://app?vid=0c39f333-7f97-49af-a4c6-7c0274ebe606","ios":"levelo://app?vid=0c39f333-7f97-49af-a4c6-7c0274ebe606"},"vehicle_type_id":"4","last_reported":1745359758,"current_range_meters":12800,"station_id":"ce4bho12rcd13ifvqh1g","pricing_plan_id":"cebpf4jnsgd1na2vs0mg"},{"bike_id":"b79079c6-58a3-4f6c-b0e2-850fb4f9d26c","system_id":"levelo_inurba_marseille","lat":43.29068,"lon":5.37155,"is_reserved":false,"is_disabled":false,"rental_uris":{"android":"levelo://app?vid=b79079c6-58a3-4f6c-b0e2-850fb4f9d26c","ios":"levelo://app?vid=b79079c6-58a3-4f6c-b0e2-850fb4f9d26c"},"vehicle_type_id":"4","last_reported":1745359758,"current_range_meters":12800,"station_id":"ce4bh5p2rcd13ifvqe4g","pricing_plan_id":"cebpf4jnsgd1na2vs0mg"},{"bike_id":"de48a635-da88-4fcc-8749-c56c951dd46b","system_id":"levelo_inurba_marseille","lat":43.28458,"lon":5.35889,"is_reserved":false,"is_disabled":false,"rental_uris":{"android":"levelo://app?vid=de48a635-da88-4fcc-8749-c56c951dd46b","ios":"levelo://app?vid=de48a635-da88-4fcc-8749-c56c951dd46b"},"vehicle_type_id":"4","last_reported":1745359758,"current_range_meters":12800,"station_id":"ce4bhah2rcd13ifvqei0","pricing_plan_id":"cebpf4jnsgd1na2vs0mg"},{"bike_id":"7da1f6aa-31c3-4266-959d-331273be0b6c","system_id":"levelo_inurba_marseille","lat":43.31059,"lon":5.38355,"is_reserved":false,"is_disabled":false,"rental_uris":{"android":"levelo://app?vid=7da1f6aa-31c3-4266-959d-331273be0b6c","ios":"levelo://app?vid=7da1f6aa-31c3-4266-959d-331273be0b6c"},"vehicle_type_id":"4","last_reported":1745359758,"current_range_meters":12800,"station_id":"ce4bgv92rcd13ifvqcr0","pricing_plan_id":"cebpf4jnsgd1na2vs0mg"},{"bike_id":"caccf6b1-eff9-41fc-9278-5e6f421f5468","system_id":"levelo_inurba_marseille","lat":43.28424,"lon":5.3498,"is_reserved":false,"is_disabled":false,"rental_uris":{"android":"levelo://app?vid=caccf6b1-eff9-41fc-9278-5e6f421f5468","ios":"levelo://app?vid=caccf6b1-eff9-41fc-9278-5e6f421f5468"},"vehicle_type_id":"4","last_reported":1745359758,"current_range_meters":13600,"station_id":"ce4bhbh2rcd13ifvqepg","pricing_plan_id":"cebpf4jnsgd1na2vs0mg"},{"bike_id":"600f7eea-25c7-4504-a574-6612954a103e","system_id":"levelo_inurba_marseille","lat":43.3266,"lon":5.40991,"is_reserved":false,"is_disabled":false,"rental_uris":{"android":"levelo://app?vid=600f7eea-25c7-4504-a574-6612954a103e","ios":"levelo://app?vid=600f7eea-25c7-4504-a574-6612954a103e"},"vehicle_type_id":"4","last_reported":1745359758,"current_range_meters":13600,"station_id":"ce4bhpp2rcd13ifvqhgg","pricing_plan_id":"cebpf4jnsgd1na2vs0mg"},{"bike_id":"678d1ff2-b92f-437a-a478-0a2f054c08e9","system_id":"levelo_inurba_marseille","lat":43.30347,"lon":5.36848,"is_reserved":false,"is_disabled":false,"rental_uris":{"android":"levelo://app?vid=678d1ff2-b92f-437a-a478-0a2f054c08e9","ios":"levelo://app?vid=678d1ff2-b92f-437a-a478-0a2f054c08e9"},"vehicle_type_id":"4","last_reported":1745359758,"current_range_meters":13600,"station_id":"","pricing_plan_id":"cebpf4jnsgd1na2vs0mg"},{"bike_id":"b9de2bbe-1ba6-49a5-b399-8b696e94647d","system_id":"levelo_inurba_marseille","lat":43.30798,"lon":5.38152,"is_reserved":false,"is_disabled":false,"rental_uris":{"android":"levelo://app?vid=b9de2bbe-1ba6-49a5-b399-8b696e94647d","ios":"levelo://app?vid=b9de2bbe-1ba6-49a5-b399-8b696e94647d"},"vehicle_type_id":"4","last_reported":1745359758,"current_range_meters":13600,"station_id":"ce4bgt12rcd13ifvqce0","pricing_plan_id":"cebpf4jnsgd1na2vs0mg"},{"bike_id":"90b4484c-984f-48ef-a595-1fe72c96dd94","system_id":"levelo_inurba_marseille","lat":43.30924,"lon":5.40143,"is_reserved":false,"is_disabled":false,"rental_uris":{"android":"levelo://app?vid=90b4484c-984f-48ef-a595-1fe72c96dd94","ios":"levelo://app?vid=90b4484c-984f-48ef-a595-1fe72c96dd94"},"vehicle_type_id":"4","last_reported":1745359758,"current_range_meters":13600,"station_id":"ce4bgvp2rcd13ifvqct0","pricing_plan_id":"cebpf4jnsgd1na2vs0mg"},{"bike_id":"bcf59123-c0ca-4689-b22c-166c9c055995","system_id":"levelo_inurba_marseille","lat":43.32032,"lon":5.41556,"is_reserved":false,"is_disabled":false,"rental_uris":{"android":"levelo://app?vid=bcf59123-c0ca-4689-b22c-166c9c055995","ios":"levelo://app?vid=bcf59123-c0ca-4689-b22c-166c9c055995"},"vehicle_type_id":"4","last_reported":1745359758,"current_range_meters":13600,"station_id":"ce4bhq92rcd13ifvqhkg","pricing_plan_id":"cebpf4jnsgd1na2vs0mg"},{"bike_id":"be218f89-8917-4041-9488-f81416c926e3","system_id":"levelo_inurba_marseille","lat":43.28659,"lon":5.36356,"is_reserved":false,"is_disabled":false,"rental_uris":{"android":"levelo://app?vid=be218f89-8917-4041-9488-f81416c926e3","ios":"levelo://app?vid=be218f89-8917-4041-9488-f81416c926e3"},"vehicle_type_id":"4","last_reported":1745359758,"current_range_meters":14000,"station_id":"ce4bhah2rcd13ifvqej0","pricing_plan_id":"cebpf4jnsgd1na2vs0mg"},{"bike_id":"708de6ce-00bc-42a4-885c-451b317541a1","system_id":"levelo_inurba_marseille","lat":43.30186,"lon":5.36619,"is_reserved":false,"is_disabled":false,"rental_uris":{"android":"levelo://app?vid=708de6ce-00bc-42a4-885c-451b317541a1","ios":"levelo://app?vid=708de6ce-00bc-42a4-885c-451b317541a1"},"vehicle_type_id":"4","last_reported":1745359758,"current_range_meters":14400,"station_id":"ce4bgrh2rcd13ifvqc8g","pricing_plan_id":"cebpf4jnsgd1na2vs0mg"},{"bike_id":"761ae269-6b1f-4092-8e33-c55e4d5d8dff","system_id":"levelo_inurba_marseille","lat":43.22944,"lon":5.35377,"is_reserved":false,"is_disabled":false,"rental_uris":{"android":"levelo://app?vid=761ae269-6b1f-4092-8e33-c55e4d5d8dff","ios":"levelo://app?vid=761ae269-6b1f-4092-8e33-c55e4d5d8dff"},"vehicle_type_id":"4","last_reported":1745359758,"current_range_meters":14400,"station_id":"cpo3532slgdg3j2ikp40","pricing_plan_id":"cebpf4jnsgd1na2vs0mg"},{"bike_id":"7cbe14c6-6011-4d6a-b4e4-ad0751988fd1","system_id":"levelo_inurba_marseille","lat":43.27826,"lon":5.39205,"is_reserved":false,"is_disabled":false,"rental_uris":{"android":"levelo://app?vid=7cbe14c6-6011-4d6a-b4e4-ad0751988fd1","ios":"levelo://app?vid=7cbe14c6-6011-4d6a-b4e4-ad0751988fd1"},"vehicle_type_id":"4","last_reported":1745359758,"current_range_meters":14400,"station_id":"ce4bhjp2rcd13ifvqga0","pricing_plan_id":"cebpf4jnsgd1na2vs0mg"},{"bike_id":"f99a5ab2-5b8c-442c-a148-f1ce6b214dc9","system_id":"levelo_inurba_marseille","lat":43.2842,"lon":5.37516,"is_reserved":false,"is_disabled":false,"rental_uris":{"android":"levelo://app?vid=f99a5ab2-5b8c-442c-a148-f1ce6b214dc9","ios":"levelo://app?vid=f99a5ab2-5b8c-442c-a148-f1ce6b214dc9"},"vehicle_type_id":"4","last_reported":1745359758,"current_range_meters":14800,"station_id":"ce4bh412rcd13ifvqds0","pricing_plan_id":"cebpf4jnsgd1na2vs0mg"},{"bike_id":"1e2cc1b2-544f-40a6-9711-53b33fe8529b","system_id":"levelo_inurba_marseille","lat":43.31985,"lon":5.38141,"is_reserved":false,"is_disabled":false,"rental_uris":{"android":"levelo://app?vid=1e2cc1b2-544f-40a6-9711-53b33fe8529b","ios":"levelo://app?vid=1e2cc1b2-544f-40a6-9711-53b33fe8529b"},"vehicle_type_id":"4","last_reported":1745359758,"current_range_meters":14800,"station_id":"ce4bhr12rcd13ifvqhpg","pricing_plan_id":"cebpf4jnsgd1na2vs0mg"},{"bike_id":"07534ca0-fcfb-4f10-bf7b-666ff96ff41d","system_id":"levelo_inurba_marseille","lat":43.30112,"lon":5.39883,"is_reserved":false,"is_disabled":false,"rental_uris":{"android":"levelo://app?vid=07534ca0-fcfb-4f10-bf7b-666ff96ff41d","ios":"levelo://app?vid=07534ca0-fcfb-4f10-bf7b-666ff96ff41d"},"vehicle_type_id":"4","last_reported":1745359758,"current_range_meters":14800,"station_id":"ce4bh0h2rcd13ifvqd40","pricing_plan_id":"cebpf4jnsgd1na2vs0mg"},{"bike_id":"bd84a87a-84a0-46a7-b2a5-e761b13b3dd9","system_id":"levelo_inurba_marseille","lat":43.30325,"lon":5.40439,"is_reserved":false,"is_disabled":false,"rental_uris":{"android":"levelo://app?vid=bd84a87a-84a0-46a7-b2a5-e761b13b3dd9","ios":"levelo://app?vid=bd84a87a-84a0-46a7-b2a5-e761b13b3dd9"},"vehicle_type_id":"4","last_reported":1745359758,"current_range_meters":14800,"station_id":"ce4bh012rcd13ifvqd10","pricing_plan_id":"cebpf4jnsgd1na2vs0mg"},{"bike_id":"73a31e2c-1e05-4a03-a9ec-6969fc2b6461","system_id":"levelo_inurba_marseille","lat":43.28403,"lon":5.37521,"is_reserved":false,"is_disabled":false,"rental_uris":{"android":"levelo://app?vid=73a31e2c-1e05-4a03-a9ec-6969fc2b6461","ios":"levelo://app?vid=73a31e2c-1e05-4a03-a9ec-6969fc2b6461"},"vehicle_type_id":"4","last_reported":1745359758,"current_range_meters":15200,"station_id":"ce4bh412rcd13ifvqds0","pricing_plan_id":"cebpf4jnsgd1na2vs0mg"},{"bike_id":"df6ffc41-ed4d-4c2c-af47-12b33fc50735","system_id":"levelo_inurba_marseille","lat":43.25124,"lon":5.40329,"is_reserved":false,"is_disabled":false,"rental_uris":{"android":"levelo://app?vid=df6ffc41-ed4d-4c2c-af47-12b33fc50735","ios":"levelo://app?vid=df6ffc41-ed4d-4c2c-af47-12b33fc50735"},"vehicle_type_id":"4","last_reported":1745359758,"current_range_meters":15200,"station_id":"ce4bhlh2rcd13ifvqgig","pricing_plan_id":"cebpf4jnsgd1na2vs0mg"},{"bike_id":"7a93f214-e369-420b-90b3-c0c05b34e7a9","system_id":"levelo_inurba_marseille","lat":43.2835,"lon":5.38127,"is_reserved":false,"is_disabled":false,"rental_uris":{"android":"levelo://app?vid=7a93f214-e369-420b-90b3-c0c05b34e7a9","ios":"levelo://app?vid=7a93f214-e369-420b-90b3-c0c05b34e7a9"},"vehicle_type_id":"4","last_reported":1745359758,"current_range_meters":16000,"station_id":"ce4bh412rcd13ifvqdr0","pricing_plan_id":"cebpf4jnsgd1na2vs0mg"},{"bike_id":"9c5758bf-33b5-4a52-afd2-c8734b4dca48","system_id":"levelo_inurba_marseille","lat":43.31062,"lon":5.38357,"is_reserved":false,"is_disabled":false,"rental_uris":{"android":"levelo://app?vid=9c5758bf-33b5-4a52-afd2-c8734b4dca48","ios":"levelo://app?vid=9c5758bf-33b5-4a52-afd2-c8734b4dca48"},"vehicle_type_id":"4","last_reported":1745359758,"current_range_meters":16000,"station_id":"ce4bgv92rcd13ifvqcr0","pricing_plan_id":"cebpf4jnsgd1na2vs0mg"},{"bike_id":"abd226a8-d003-4133-b9d2-b7c952b7ead1","system_id":"levelo_inurba_marseille","lat":43.23102,"lon":5.35449,"is_reserved":false,"is_disabled":false,"rental_uris":{"android":"levelo://app?vid=abd226a8-d003-4133-b9d2-b7c952b7ead1","ios":"levelo://app?vid=abd226a8-d003-4133-b9d2-b7c952b7ead1"},"vehicle_type_id":"4","last_reported":1745359758,"current_range_meters":16000,"station_id":"cpo3342slgdg3j2ifvpg","pricing_plan_id":"cebpf4jnsgd1na2vs0mg"},{"bike_id":"b3a8fcab-2cbb-4241-8df1-178d0e212912","system_id":"levelo_inurba_marseille","lat":43.25387,"lon":5.41845,"is_reserved":false,"is_disabled":false,"rental_uris":{"android":"levelo://app?vid=b3a8fcab-2cbb-4241-8df1-178d0e212912","ios":"levelo://app?vid=b3a8fcab-2cbb-4241-8df1-178d0e212912"},"vehicle_type_id":"4","last_reported":1745359758,"current_range_meters":16000,"station_id":"","pricing_plan_id":"cebpf4jnsgd1na2vs0mg"},{"bike_id":"4aa59607-aa09-4e2e-a843-5312b252aa30","system_id":"levelo_inurba_marseille","lat":43.31118,"lon":5.37761,"is_reserved":false,"is_disabled":false,"rental_uris":{"android":"levelo://app?vid=4aa59607-aa09-4e2e-a843-5312b252aa30","ios":"levelo://app?vid=4aa59607-aa09-4e2e-a843-5312b252aa30"},"vehicle_type_id":"4","last_reported":1745359758,"current_range_meters":16000,"station_id":"ce4bgt92rcd13ifvqcg0","pricing_plan_id":"cebpf4jnsgd1na2vs0mg"},{"bike_id":"090ea79f-5dc1-4f76-8a9c-a95ed8a5af5c","system_id":"levelo_inurba_marseille","lat":43.2782,"lon":5.40704,"is_reserved":false,"is_disabled":false,"rental_uris":{"android":"levelo://app?vid=090ea79f-5dc1-4f76-8a9c-a95ed8a5af5c","ios":"levelo://app?vid=090ea79f-5dc1-4f76-8a9c-a95ed8a5af5c"},"vehicle_type_id":"4","last_reported":1745359758,"current_range_meters":16000,"station_id":"ce4bhnh2rcd13ifvqgtg","pricing_plan_id":"cebpf4jnsgd1na2vs0mg"},{"bike_id":"7c110556-51f7-4ebc-a93b-d3e946a92a50","system_id":"levelo_inurba_marseille","lat":43.31707,"lon":5.437,"is_reserved":false,"is_disabled":false,"rental_uris":{"android":"levelo://app?vid=7c110556-51f7-4ebc-a93b-d3e946a92a50","ios":"levelo://app?vid=7c110556-51f7-4ebc-a93b-d3e946a92a50"},"vehicle_type_id":"4","last_reported":1745359758,"current_range_meters":16000,"station_id":"ce4bhp92rcd13ifvqhcg","pricing_plan_id":"cebpf4jnsgd1na2vs0mg"},{"bike_id":"4058f62d-ca8f-492f-8fca-74ec3189f044","system_id":"levelo_inurba_marseille","lat":43.29869,"lon":5.39736,"is_reserved":false,"is_disabled":false,"rental_uris":{"android":"levelo://app?vid=4058f62d-ca8f-492f-8fca-74ec3189f044","ios":"levelo://app?vid=4058f62d-ca8f-492f-8fca-74ec3189f044"},"vehicle_type_id":"4","last_reported":1745359758,"current_range_meters":16400,"station_id":"ce4bh0h2rcd13ifvqd50","pricing_plan_id":"cebpf4jnsgd1na2vs0mg"},{"bike_id":"602b5f96-6a4b-4aa5-bb1e-7ed29f4a890c","system_id":"levelo_inurba_marseille","lat":43.2866,"lon":5.36354,"is_reserved":false,"is_disabled":false,"rental_uris":{"android":"levelo://app?vid=602b5f96-6a4b-4aa5-bb1e-7ed29f4a890c","ios":"levelo://app?vid=602b5f96-6a4b-4aa5-bb1e-7ed29f4a890c"},"vehicle_type_id":"4","last_reported":1745359758,"current_range_meters":16400,"station_id":"ce4bhah2rcd13ifvqej0","pricing_plan_id":"cebpf4jnsgd1na2vs0mg"},{"bike_id":"343330a0-d174-4d03-8f15-5f3db8b6a018","system_id":"levelo_inurba_marseille","lat":43.294128,"lon":5.38613,"is_reserved":false,"is_disabled":false,"rental_uris":{"android":"levelo://app?vid=343330a0-d174-4d03-8f15-5f3db8b6a018","ios":"levelo://app?vid=343330a0-d174-4d03-8f15-5f3db8b6a018"},"vehicle_type_id":"4","last_reported":1745359758,"current_range_meters":16400,"station_id":"ce4bgup2rcd13ifvqco0","pricing_plan_id":"cebpf4jnsgd1na2vs0mg"},{"bike_id":"d962937d-a2c0-4f7f-9d5f-d2025eec3422","system_id":"levelo_inurba_marseille","lat":43.25408,"lon":5.41846,"is_reserved":false,"is_disabled":false,"rental_uris":{"android":"levelo://app?vid=d962937d-a2c0-4f7f-9d5f-d2025eec3422","ios":"levelo://app?vid=d962937d-a2c0-4f7f-9d5f-d2025eec3422"},"vehicle_type_id":"4","last_reported":1745359758,"current_range_meters":16400,"station_id":"","pricing_plan_id":"cebpf4jnsgd1na2vs0mg"},{"bike_id":"fc3d2ab0-bdd4-4aaa-87b1-f549a28d510f","system_id":"levelo_inurba_marseille","lat":43.30327,"lon":5.40441,"is_reserved":false,"is_disabled":false,"rental_uris":{"android":"levelo://app?vid=fc3d2ab0-bdd4-4aaa-87b1-f549a28d510f","ios":"levelo://app?vid=fc3d2ab0-bdd4-4aaa-87b1-f549a28d510f"},"vehicle_type_id":"4","last_reported":1745359758,"current_range_meters":16400,"station_id":"ce4bh012rcd13ifvqd10","pricing_plan_id":"cebpf4jnsgd1na2vs0mg"},{"bike_id":"5411c9c0-eb3a-475d-9e43-a89c6557a708","system_id":"levelo_inurba_marseille","lat":43.27995,"lon":5.41642,"is_reserved":false,"is_disabled":false,"rental_uris":{"android":"levelo://app?vid=5411c9c0-eb3a-475d-9e43-a89c6557a708","ios":"levelo://app?vid=5411c9c0-eb3a-475d-9e43-a89c6557a708"},"vehicle_type_id":"4","last_reported":1745359758,"current_range_meters":16400,"station_id":"ce4bho12rcd13ifvqh1g","pricing_plan_id":"cebpf4jnsgd1na2vs0mg"},{"bike_id":"85dd36d0-9c2d-4eab-ad8d-768f1f02f518","system_id":"levelo_inurba_marseille","lat":43.26645,"lon":5.38263,"is_reserved":false,"is_disabled":false,"rental_uris":{"android":"levelo://app?vid=85dd36d0-9c2d-4eab-ad8d-768f1f02f518","ios":"levelo://app?vid=85dd36d0-9c2d-4eab-ad8d-768f1f02f518"},"vehicle_type_id":"4","last_reported":1745359758,"current_range_meters":16400,"station_id":"ce4bhg92rcd13ifvqf90","pricing_plan_id":"cebpf4jnsgd1na2vs0mg"},{"bike_id":"431ee9a0-8df4-49a4-b75e-37a2264361b8","system_id":"levelo_inurba_marseille","lat":43.29868,"lon":5.39742,"is_reserved":false,"is_disabled":false,"rental_uris":{"android":"levelo://app?vid=431ee9a0-8df4-49a4-b75e-37a2264361b8","ios":"levelo://app?vid=431ee9a0-8df4-49a4-b75e-37a2264361b8"},"vehicle_type_id":"4","last_reported":1745359758,"current_range_meters":16400,"station_id":"ce4bh0h2rcd13ifvqd50","pricing_plan_id":"cebpf4jnsgd1na2vs0mg"},{"bike_id":"ed08392d-6642-4271-b365-ca0e459bf62c","system_id":"levelo_inurba_marseille","lat":43.303032,"lon":5.392122,"is_reserved":false,"is_disabled":false,"rental_uris":{"android":"levelo://app?vid=ed08392d-6642-4271-b365-ca0e459bf62c","ios":"levelo://app?vid=ed08392d-6642-4271-b365-ca0e459bf62c"},"vehicle_type_id":"4","last_reported":1745359758,"current_range_meters":16400,"station_id":"ce4bgup2rcd13ifvqco0","pricing_plan_id":"cebpf4jnsgd1na2vs0mg"},{"bike_id":"1b903b38-38de-4714-9a2c-59836acfa168","system_id":"levelo_inurba_marseille","lat":43.31716,"lon":5.43703,"is_reserved":false,"is_disabled":true,"rental_uris":{"android":"levelo://app?vid=1b903b38-38de-4714-9a2c-59836acfa168","ios":"levelo://app?vid=1b903b38-38de-4714-9a2c-59836acfa168"},"vehicle_type_id":"4","last_reported":1745359758,"current_range_meters":16400,"station_id":"ce4bhp92rcd13ifvqhcg","pricing_plan_id":"cebpf4jnsgd1na2vs0mg"},{"bike_id":"c084153a-d378-4bc7-b059-665ff2008ae1","system_id":"levelo_inurba_marseille","lat":43.25089,"lon":5.39523,"is_reserved":false,"is_disabled":false,"rental_uris":{"android":"levelo://app?vid=c084153a-d378-4bc7-b059-665ff2008ae1","ios":"levelo://app?vid=c084153a-d378-4bc7-b059-665ff2008ae1"},"vehicle_type_id":"4","last_reported":1745359758,"current_range_meters":16400,"station_id":"ce4bhm12rcd13ifvqgkg","pricing_plan_id":"cebpf4jnsgd1na2vs0mg"},{"bike_id":"526a37d1-d79a-4bda-99ab-f247d15dd55e","system_id":"levelo_inurba_marseille","lat":43.30594,"lon":5.39363,"is_reserved":false,"is_disabled":false,"rental_uris":{"android":"levelo://app?vid=526a37d1-d79a-4bda-99ab-f247d15dd55e","ios":"levelo://app?vid=526a37d1-d79a-4bda-99ab-f247d15dd55e"},"vehicle_type_id":"4","last_reported":1745359758,"current_range_meters":16800,"station_id":"ce4bh0p2rcd13ifvqd80","pricing_plan_id":"cebpf4jnsgd1na2vs0mg"},{"bike_id":"9f2e2972-dc86-4c24-8a83-22c0ee111c3e","system_id":"levelo_inurba_marseille","lat":43.31199,"lon":5.36827,"is_reserved":false,"is_disabled":true,"rental_uris":{"android":"levelo://app?vid=9f2e2972-dc86-4c24-8a83-22c0ee111c3e","ios":"levelo://app?vid=9f2e2972-dc86-4c24-8a83-22c0ee111c3e"},"vehicle_type_id":"4","last_reported":1745359758,"current_range_meters":16800,"station_id":"ce4bgl92rcd13ifvqbq0","pricing_plan_id":"cebpf4jnsgd1na2vs0mg"},{"bike_id":"de76bfeb-dd4b-492e-b3f8-88f28c9db3a4","system_id":"levelo_inurba_marseille","lat":43.28344,"lon":5.38101,"is_reserved":false,"is_disabled":false,"rental_uris":{"android":"levelo://app?vid=de76bfeb-dd4b-492e-b3f8-88f28c9db3a4","ios":"levelo://app?vid=de76bfeb-dd4b-492e-b3f8-88f28c9db3a4"},"vehicle_type_id":"4","last_reported":1745359758,"current_range_meters":16800,"station_id":"ce4bh412rcd13ifvqdr0","pricing_plan_id":"cebpf4jnsgd1na2vs0mg"},{"bike_id":"bc5b6823-9aef-4c95-8f04-6f731ee00e9b","system_id":"levelo_inurba_marseille","lat":43.23184,"lon":5.39989,"is_reserved":false,"is_disabled":false,"rental_uris":{"android":"levelo://app?vid=bc5b6823-9aef-4c95-8f04-6f731ee00e9b","ios":"levelo://app?vid=bc5b6823-9aef-4c95-8f04-6f731ee00e9b"},"vehicle_type_id":"4","last_reported":1745359758,"current_range_meters":16800,"station_id":"ce4bhn12rcd13ifvqgqg","pricing_plan_id":"cebpf4jnsgd1na2vs0mg"},{"bike_id":"9f1e349e-7f44-420f-95ec-c319dae210f6","system_id":"levelo_inurba_marseille","lat":43.292113,"lon":5.383859,"is_reserved":false,"is_disabled":true,"rental_uris":{"android":"levelo://app?vid=9f1e349e-7f44-420f-95ec-c319dae210f6","ios":"levelo://app?vid=9f1e349e-7f44-420f-95ec-c319dae210f6"},"vehicle_type_id":"4","last_reported":1745359758,"current_range_meters":16800,"station_id":"","pricing_plan_id":"cebpf4jnsgd1na2vs0mg"},{"bike_id":"b96d48d5-fc65-423b-9a30-5d2c864e8939","system_id":"levelo_inurba_marseille","lat":43.22509,"lon":5.34777,"is_reserved":false,"is_disabled":false,"rental_uris":{"android":"levelo://app?vid=b96d48d5-fc65-423b-9a30-5d2c864e8939","ios":"levelo://app?vid=b96d48d5-fc65-423b-9a30-5d2c864e8939"},"vehicle_type_id":"4","last_reported":1745359758,"current_range_meters":16800,"station_id":"st_cvj5dfep6f1abm77gieg","pricing_plan_id":"cebpf4jnsgd1na2vs0mg"},{"bike_id":"ec1048ac-023e-4b8e-a7a1-4226f2b09f8d","system_id":"levelo_inurba_marseille","lat":43.31985,"lon":5.38145,"is_reserved":false,"is_disabled":false,"rental_uris":{"android":"levelo://app?vid=ec1048ac-023e-4b8e-a7a1-4226f2b09f8d","ios":"levelo://app?vid=ec1048ac-023e-4b8e-a7a1-4226f2b09f8d"},"vehicle_type_id":"4","last_reported":1745359758,"current_range_meters":16800,"station_id":"ce4bhr12rcd13ifvqhpg","pricing_plan_id":"cebpf4jnsgd1na2vs0mg"},{"bike_id":"a7ff3534-e47c-4c96-b831-1f46ac6e5a0a","system_id":"levelo_inurba_marseille","lat":43.26189,"lon":5.37448,"is_reserved":false,"is_disabled":false,"rental_uris":{"android":"levelo://app?vid=a7ff3534-e47c-4c96-b831-1f46ac6e5a0a","ios":"levelo://app?vid=a7ff3534-e47c-4c96-b831-1f46ac6e5a0a"},"vehicle_type_id":"4","last_reported":1745359758,"current_range_meters":16800,"station_id":"ce4bhgp2rcd13ifvqfc0","pricing_plan_id":"cebpf4jnsgd1na2vs0mg"},{"bike_id":"653565ab-c4a0-429c-98e9-cee99ce0b24d","system_id":"levelo_inurba_marseille","lat":43.3169,"lon":5.40462,"is_reserved":false,"is_disabled":false,"rental_uris":{"android":"levelo://app?vid=653565ab-c4a0-429c-98e9-cee99ce0b24d","ios":"levelo://app?vid=653565ab-c4a0-429c-98e9-cee99ce0b24d"},"vehicle_type_id":"4","last_reported":1745359758,"current_range_meters":16800,"station_id":"ce4bh012rcd13ifvqd00","pricing_plan_id":"cebpf4jnsgd1na2vs0mg"},{"bike_id":"6e0b7637-7b55-4082-87d1-6576e5d01eea","system_id":"levelo_inurba_marseille","lat":43.286658,"lon":5.363272,"is_reserved":false,"is_disabled":false,"rental_uris":{"android":"levelo://app?vid=6e0b7637-7b55-4082-87d1-6576e5d01eea","ios":"levelo://app?vid=6e0b7637-7b55-4082-87d1-6576e5d01eea"},"vehicle_type_id":"4","last_reported":1745359758,"current_range_meters":16800,"station_id":"ce4bgip2rcd13ifvqbb0","pricing_plan_id":"cebpf4jnsgd1na2vs0mg"},{"bike_id":"2958702b-6f60-4c23-88d4-37649b2b931b","system_id":"levelo_inurba_marseille","lat":43.29872,"lon":5.3974,"is_reserved":false,"is_disabled":false,"rental_uris":{"android":"levelo://app?vid=2958702b-6f60-4c23-88d4-37649b2b931b","ios":"levelo://app?vid=2958702b-6f60-4c23-88d4-37649b2b931b"},"vehicle_type_id":"4","last_reported":1745359758,"current_range_meters":17200,"station_id":"ce4bh0h2rcd13ifvqd50","pricing_plan_id":"cebpf4jnsgd1na2vs0mg"},{"bike_id":"b9186b76-1edb-4e77-b009-ff5709129541","system_id":"levelo_inurba_marseille","lat":43.30887,"lon":5.39624,"is_reserved":false,"is_disabled":false,"rental_uris":{"android":"levelo://app?vid=b9186b76-1edb-4e77-b009-ff5709129541","ios":"levelo://app?vid=b9186b76-1edb-4e77-b009-ff5709129541"},"vehicle_type_id":"4","last_reported":1745359758,"current_range_meters":17200,"station_id":"ce4bh012rcd13ifvqcv0","pricing_plan_id":"cebpf4jnsgd1na2vs0mg"},{"bike_id":"e47ccb21-e9b7-4e10-b890-7034ed691d21","system_id":"levelo_inurba_marseille","lat":43.29902,"lon":5.38154,"is_reserved":false,"is_disabled":false,"rental_uris":{"android":"levelo://app?vid=e47ccb21-e9b7-4e10-b890-7034ed691d21","ios":"levelo://app?vid=e47ccb21-e9b7-4e10-b890-7034ed691d21"},"vehicle_type_id":"4","last_reported":1745359758,"current_range_meters":17200,"station_id":"ce4bgj12rcd13ifvqbc0","pricing_plan_id":"cebpf4jnsgd1na2vs0mg"},{"bike_id":"9dae5f4a-f893-4e28-989b-1edd1492689a","system_id":"levelo_inurba_marseille","lat":43.27916,"lon":5.39578,"is_reserved":false,"is_disabled":false,"rental_uris":{"android":"levelo://app?vid=9dae5f4a-f893-4e28-989b-1edd1492689a","ios":"levelo://app?vid=9dae5f4a-f893-4e28-989b-1edd1492689a"},"vehicle_type_id":"4","last_reported":1745359758,"current_range_meters":17600,"station_id":"ce4bhf92rcd13ifvqf40","pricing_plan_id":"cebpf4jnsgd1na2vs0mg"},{"bike_id":"a1835b16-9e05-4b53-baf5-10eeb04320bb","system_id":"levelo_inurba_marseille","lat":43.28698,"lon":5.37402,"is_reserved":false,"is_disabled":true,"rental_uris":{"android":"levelo://app?vid=a1835b16-9e05-4b53-baf5-10eeb04320bb","ios":"levelo://app?vid=a1835b16-9e05-4b53-baf5-10eeb04320bb"},"vehicle_type_id":"4","last_reported":1745359758,"current_range_meters":17600,"station_id":"ce4bh3p2rcd13ifvqdq0","pricing_plan_id":"cebpf4jnsgd1na2vs0mg"},{"bike_id":"7b2dc864-a4e9-468c-9cee-f3075a20977d","system_id":"levelo_inurba_marseille","lat":43.31485,"lon":5.37371,"is_reserved":false,"is_disabled":false,"rental_uris":{"android":"levelo://app?vid=7b2dc864-a4e9-468c-9cee-f3075a20977d","ios":"levelo://app?vid=7b2dc864-a4e9-468c-9cee-f3075a20977d"},"vehicle_type_id":"4","last_reported":1745359758,"current_range_meters":17600,"station_id":"ce4bgt12rcd13ifvqcd0","pricing_plan_id":"cebpf4jnsgd1na2vs0mg"},{"bike_id":"c9fbd267-6461-49b6-bc49-a6bd29ccb0c5","system_id":"levelo_inurba_marseille","lat":43.3169,"lon":5.40459,"is_reserved":false,"is_disabled":false,"rental_uris":{"android":"levelo://app?vid=c9fbd267-6461-49b6-bc49-a6bd29ccb0c5","ios":"levelo://app?vid=c9fbd267-6461-49b6-bc49-a6bd29ccb0c5"},"vehicle_type_id":"4","last_reported":1745359758,"current_range_meters":17600,"station_id":"ce4bh012rcd13ifvqd00","pricing_plan_id":"cebpf4jnsgd1na2vs0mg"},{"bike_id":"0529d891-2d9b-4d93-af79-27336fdd5c7e","system_id":"levelo_inurba_marseille","lat":43.28033,"lon":5.36926,"is_reserved":false,"is_disabled":false,"rental_uris":{"android":"levelo://app?vid=0529d891-2d9b-4d93-af79-27336fdd5c7e","ios":"levelo://app?vid=0529d891-2d9b-4d93-af79-27336fdd5c7e"},"vehicle_type_id":"4","last_reported":1745359758,"current_range_meters":17600,"station_id":"ce4bha12rcd13ifvqef0","pricing_plan_id":"cebpf4jnsgd1na2vs0mg"},{"bike_id":"e954e2cd-48db-49d5-b8c3-76c1dae8719a","system_id":"levelo_inurba_marseille","lat":43.3133,"lon":5.3969,"is_reserved":false,"is_disabled":false,"rental_uris":{"android":"levelo://app?vid=e954e2cd-48db-49d5-b8c3-76c1dae8719a","ios":"levelo://app?vid=e954e2cd-48db-49d5-b8c3-76c1dae8719a"},"vehicle_type_id":"4","last_reported":1745359758,"current_range_meters":17600,"station_id":"ce4bgvp2rcd13ifvqcu0","pricing_plan_id":"cebpf4jnsgd1na2vs0mg"},{"bike_id":"d20e929c-75aa-460a-a593-efd1da3a752a","system_id":"levelo_inurba_marseille","lat":43.28081,"lon":5.39611,"is_reserved":false,"is_disabled":false,"rental_uris":{"android":"levelo://app?vid=d20e929c-75aa-460a-a593-efd1da3a752a","ios":"levelo://app?vid=d20e929c-75aa-460a-a593-efd1da3a752a"},"vehicle_type_id":"4","last_reported":1745359758,"current_range_meters":17600,"station_id":"ce4bho12rcd13ifvqh2g","pricing_plan_id":"cebpf4jnsgd1na2vs0mg"},{"bike_id":"ee875282-58d8-4f00-94e1-25d75e41f7cd","system_id":"levelo_inurba_marseille","lat":43.25711,"lon":5.41098,"is_reserved":false,"is_disabled":false,"rental_uris":{"android":"levelo://app?vid=ee875282-58d8-4f00-94e1-25d75e41f7cd","ios":"levelo://app?vid=ee875282-58d8-4f00-94e1-25d75e41f7cd"},"vehicle_type_id":"4","last_reported":1745359758,"current_range_meters":18000,"station_id":"ce4bhkp2rcd13ifvqgd0","pricing_plan_id":"cebpf4jnsgd1na2vs0mg"},{"bike_id":"54350a36-cd80-420b-aacb-02152b829d25","system_id":"levelo_inurba_marseille","lat":43.288525,"lon":5.358407,"is_reserved":false,"is_disabled":false,"rental_uris":{"android":"levelo://app?vid=54350a36-cd80-420b-aacb-02152b829d25","ios":"levelo://app?vid=54350a36-cd80-420b-aacb-02152b829d25"},"vehicle_type_id":"4","last_reported":1745359758,"current_range_meters":18000,"station_id":"ce4bhb12rcd13ifvqem0","pricing_plan_id":"cebpf4jnsgd1na2vs0mg"},{"bike_id":"29190277-9c68-44eb-8885-aafbd2c00a49","system_id":"levelo_inurba_marseille","lat":43.30142,"lon":5.39873,"is_reserved":false,"is_disabled":true,"rental_uris":{"android":"levelo://app?vid=29190277-9c68-44eb-8885-aafbd2c00a49","ios":"levelo://app?vid=29190277-9c68-44eb-8885-aafbd2c00a49"},"vehicle_type_id":"4","last_reported":1745359758,"current_range_meters":18000,"station_id":"ce4bh0h2rcd13ifvqd40","pricing_plan_id":"cebpf4jnsgd1na2vs0mg"},{"bike_id":"2f20e822-0a70-4928-9aa6-4b3727afe02f","system_id":"levelo_inurba_marseille","lat":43.29725,"lon":5.36605,"is_reserved":false,"is_disabled":true,"rental_uris":{"android":"levelo://app?vid=2f20e822-0a70-4928-9aa6-4b3727afe02f","ios":"levelo://app?vid=2f20e822-0a70-4928-9aa6-4b3727afe02f"},"vehicle_type_id":"4","last_reported":1745359758,"current_range_meters":18000,"station_id":"ce4bgn12rcd13ifvqbt0","pricing_plan_id":"cebpf4jnsgd1na2vs0mg"},{"bike_id":"b5d609bf-0c9b-49e3-9426-ce02cb8383b8","system_id":"levelo_inurba_marseille","lat":43.34148,"lon":5.40906,"is_reserved":false,"is_disabled":true,"rental_uris":{"android":"levelo://app?vid=b5d609bf-0c9b-49e3-9426-ce02cb8383b8","ios":"levelo://app?vid=b5d609bf-0c9b-49e3-9426-ce02cb8383b8"},"vehicle_type_id":"4","last_reported":1745359758,"current_range_meters":18800,"station_id":"ce4bhqh2rcd13ifvqhlg","pricing_plan_id":"cebpf4jnsgd1na2vs0mg"},{"bike_id":"43c53395-b439-4d64-826b-ea45bf448c43","system_id":"levelo_inurba_marseille","lat":43.30313,"lon":5.39178,"is_reserved":false,"is_disabled":false,"rental_uris":{"android":"levelo://app?vid=43c53395-b439-4d64-826b-ea45bf448c43","ios":"levelo://app?vid=43c53395-b439-4d64-826b-ea45bf448c43"},"vehicle_type_id":"4","last_reported":1745359758,"current_range_meters":18800,"station_id":"ce4bgkh2rcd13ifvqbk0","pricing_plan_id":"cebpf4jnsgd1na2vs0mg"},{"bike_id":"0e14f297-335c-4b13-a29d-8dfe435552fb","system_id":"levelo_inurba_marseille","lat":43.28095,"lon":5.37851,"is_reserved":false,"is_disabled":false,"rental_uris":{"android":"levelo://app?vid=0e14f297-335c-4b13-a29d-8dfe435552fb","ios":"levelo://app?vid=0e14f297-335c-4b13-a29d-8dfe435552fb"},"vehicle_type_id":"4","last_reported":1745359758,"current_range_meters":18800,"station_id":"ce4bha12rcd13ifvqee0","pricing_plan_id":"cebpf4jnsgd1na2vs0mg"},{"bike_id":"88ed554c-d12e-4713-ac9b-e908660835ab","system_id":"levelo_inurba_marseille","lat":43.26071,"lon":5.39389,"is_reserved":false,"is_disabled":false,"rental_uris":{"android":"levelo://app?vid=88ed554c-d12e-4713-ac9b-e908660835ab","ios":"levelo://app?vid=88ed554c-d12e-4713-ac9b-e908660835ab"},"vehicle_type_id":"4","last_reported":1745359758,"current_range_meters":18800,"station_id":"ce4bhh92rcd13ifvqfj0","pricing_plan_id":"cebpf4jnsgd1na2vs0mg"},{"bike_id":"e52263de-f4c1-4bfb-bf0f-4c29ad7553d6","system_id":"levelo_inurba_marseille","lat":43.33724,"lon":5.39187,"is_reserved":false,"is_disabled":false,"rental_uris":{"android":"levelo://app?vid=e52263de-f4c1-4bfb-bf0f-4c29ad7553d6","ios":"levelo://app?vid=e52263de-f4c1-4bfb-bf0f-4c29ad7553d6"},"vehicle_type_id":"4","last_reported":1745359758,"current_range_meters":18800,"station_id":"ce4bhr92rcd13ifvqhsg","pricing_plan_id":"cebpf4jnsgd1na2vs0mg"},{"bike_id":"49ae925b-0218-4869-b0fe-a64dd233b90f","system_id":"levelo_inurba_marseille","lat":43.297028,"lon":5.371433,"is_reserved":false,"is_disabled":false,"rental_uris":{"android":"levelo://app?vid=49ae925b-0218-4869-b0fe-a64dd233b90f","ios":"levelo://app?vid=49ae925b-0218-4869-b0fe-a64dd233b90f"},"vehicle_type_id":"4","last_reported":1745359758,"current_range_meters":18000,"station_id":"ce4bhf92rcd13ifvqf50","pricing_plan_id":"cebpf4jnsgd1na2vs0mg"},{"bike_id":"ef7a4258-8c80-48bb-88c7-13588cd21c8e","system_id":"levelo_inurba_marseille","lat":43.25588,"lon":5.38223,"is_reserved":false,"is_disabled":false,"rental_uris":{"android":"levelo://app?vid=ef7a4258-8c80-48bb-88c7-13588cd21c8e","ios":"levelo://app?vid=ef7a4258-8c80-48bb-88c7-13588cd21c8e"},"vehicle_type_id":"4","last_reported":1745359758,"current_range_meters":18800,"station_id":"ce4bhih2rcd13ifvqfs0","pricing_plan_id":"cebpf4jnsgd1na2vs0mg"},{"bike_id":"e9bfc791-d140-43b1-b0a3-c2737658d5de","system_id":"levelo_inurba_marseille","lat":43.22937,"lon":5.35373,"is_reserved":false,"is_disabled":false,"rental_uris":{"android":"levelo://app?vid=e9bfc791-d140-43b1-b0a3-c2737658d5de","ios":"levelo://app?vid=e9bfc791-d140-43b1-b0a3-c2737658d5de"},"vehicle_type_id":"4","last_reported":1745359758,"current_range_meters":18800,"station_id":"cpo3532slgdg3j2ikp40","pricing_plan_id":"cebpf4jnsgd1na2vs0mg"},{"bike_id":"634a3616-ccac-4462-b5ee-9c72516d63ee","system_id":"levelo_inurba_marseille","lat":43.28842,"lon":5.358489,"is_reserved":false,"is_disabled":false,"rental_uris":{"android":"levelo://app?vid=634a3616-ccac-4462-b5ee-9c72516d63ee","ios":"levelo://app?vid=634a3616-ccac-4462-b5ee-9c72516d63ee"},"vehicle_type_id":"4","last_reported":1745359758,"current_range_meters":19200,"station_id":"ce4bhb12rcd13ifvqem0","pricing_plan_id":"cebpf4jnsgd1na2vs0mg"},{"bike_id":"a5588965-43f6-457c-a175-2d7ddf9f4595","system_id":"levelo_inurba_marseille","lat":43.31991,"lon":5.38138,"is_reserved":false,"is_disabled":false,"rental_uris":{"android":"levelo://app?vid=a5588965-43f6-457c-a175-2d7ddf9f4595","ios":"levelo://app?vid=a5588965-43f6-457c-a175-2d7ddf9f4595"},"vehicle_type_id":"4","last_reported":1745359758,"current_range_meters":19200,"station_id":"ce4bhr12rcd13ifvqhpg","pricing_plan_id":"cebpf4jnsgd1na2vs0mg"},{"bike_id":"46374c49-3adc-4c5a-8966-e00f056c0d57","system_id":"levelo_inurba_marseille","lat":43.27846,"lon":5.35442,"is_reserved":false,"is_disabled":false,"rental_uris":{"android":"levelo://app?vid=46374c49-3adc-4c5a-8966-e00f056c0d57","ios":"levelo://app?vid=46374c49-3adc-4c5a-8966-e00f056c0d57"},"vehicle_type_id":"4","last_reported":1745359758,"current_range_meters":19200,"station_id":"","pricing_plan_id":"cebpf4jnsgd1na2vs0mg"},{"bike_id":"06a7d8fd-e91a-4bfc-90c7-ecd4ef537301","system_id":"levelo_inurba_marseille","lat":43.31348,"lon":5.39659,"is_reserved":false,"is_disabled":false,"rental_uris":{"android":"levelo://app?vid=06a7d8fd-e91a-4bfc-90c7-ecd4ef537301","ios":"levelo://app?vid=06a7d8fd-e91a-4bfc-90c7-ecd4ef537301"},"vehicle_type_id":"4","last_reported":1745359758,"current_range_meters":19600,"station_id":"ce4bgvp2rcd13ifvqcu0","pricing_plan_id":"cebpf4jnsgd1na2vs0mg"},{"bike_id":"9bcfcaec-64d7-4930-b4fb-ce119b310cec","system_id":"levelo_inurba_marseille","lat":43.29198,"lon":5.39331,"is_reserved":false,"is_disabled":false,"rental_uris":{"android":"levelo://app?vid=9bcfcaec-64d7-4930-b4fb-ce119b310cec","ios":"levelo://app?vid=9bcfcaec-64d7-4930-b4fb-ce119b310cec"},"vehicle_type_id":"4","last_reported":1745359758,"current_range_meters":19600,"station_id":"ce4bh192rcd13ifvqdd0","pricing_plan_id":"cebpf4jnsgd1na2vs0mg"},{"bike_id":"bc7ff014-0aa7-491b-9064-252bdd5a5870","system_id":"levelo_inurba_marseille","lat":43.28825,"lon":5.35857,"is_reserved":false,"is_disabled":false,"rental_uris":{"android":"levelo://app?vid=bc7ff014-0aa7-491b-9064-252bdd5a5870","ios":"levelo://app?vid=bc7ff014-0aa7-491b-9064-252bdd5a5870"},"vehicle_type_id":"4","last_reported":1745359758,"current_range_meters":19600,"station_id":"ce4bhb12rcd13ifvqem0","pricing_plan_id":"cebpf4jnsgd1na2vs0mg"},{"bike_id":"9966e2c4-c438-4020-9570-af75c54f7699","system_id":"levelo_inurba_marseille","lat":43.25129,"lon":5.40314,"is_reserved":false,"is_disabled":false,"rental_uris":{"android":"levelo://app?vid=9966e2c4-c438-4020-9570-af75c54f7699","ios":"levelo://app?vid=9966e2c4-c438-4020-9570-af75c54f7699"},"vehicle_type_id":"4","last_reported":1745359758,"current_range_meters":19600,"station_id":"ce4bhlh2rcd13ifvqgig","pricing_plan_id":"cebpf4jnsgd1na2vs0mg"},{"bike_id":"42e7f12b-0eb3-4315-9cc3-2ac3d9e8d185","system_id":"levelo_inurba_marseille","lat":43.279752,"lon":5.387642,"is_reserved":false,"is_disabled":false,"rental_uris":{"android":"levelo://app?vid=42e7f12b-0eb3-4315-9cc3-2ac3d9e8d185","ios":"levelo://app?vid=42e7f12b-0eb3-4315-9cc3-2ac3d9e8d185"},"vehicle_type_id":"4","last_reported":1745359758,"current_range_meters":19600,"station_id":"ce4bhg12rcd13ifvqf80","pricing_plan_id":"cebpf4jnsgd1na2vs0mg"},{"bike_id":"e009f5b0-12ae-42ef-ac90-bd39260dd98d","system_id":"levelo_inurba_marseille","lat":43.29008,"lon":5.35607,"is_reserved":false,"is_disabled":false,"rental_uris":{"android":"levelo://app?vid=e009f5b0-12ae-42ef-ac90-bd39260dd98d","ios":"levelo://app?vid=e009f5b0-12ae-42ef-ac90-bd39260dd98d"},"vehicle_type_id":"4","last_reported":1745359758,"current_range_meters":19200,"station_id":"ce4bhb92rcd13ifvqen0","pricing_plan_id":"cebpf4jnsgd1na2vs0mg"},{"bike_id":"acac07f1-c129-4be8-bfda-8935e5d33b53","system_id":"levelo_inurba_marseille","lat":43.30429,"lon":5.39755,"is_reserved":false,"is_disabled":false,"rental_uris":{"android":"levelo://app?vid=acac07f1-c129-4be8-bfda-8935e5d33b53","ios":"levelo://app?vid=acac07f1-c129-4be8-bfda-8935e5d33b53"},"vehicle_type_id":"4","last_reported":1745359758,"current_range_meters":19600,"station_id":"ce4bh092rcd13ifvqd20","pricing_plan_id":"cebpf4jnsgd1na2vs0mg"},{"bike_id":"b244cdd7-891e-41d3-bbdf-d6e3de24d190","system_id":"levelo_inurba_marseille","lat":43.29196,"lon":5.35774,"is_reserved":false,"is_disabled":true,"rental_uris":{"android":"levelo://app?vid=b244cdd7-891e-41d3-bbdf-d6e3de24d190","ios":"levelo://app?vid=b244cdd7-891e-41d3-bbdf-d6e3de24d190"},"vehicle_type_id":"4","last_reported":1745359758,"current_range_meters":20000,"station_id":"ce4bhb12rcd13ifvqel0","pricing_plan_id":"cebpf4jnsgd1na2vs0mg"},{"bike_id":"a8136eea-574d-4ad9-8613-46175fb5aad1","system_id":"levelo_inurba_marseille","lat":43.2466,"lon":5.38162,"is_reserved":false,"is_disabled":false,"rental_uris":{"android":"levelo://app?vid=a8136eea-574d-4ad9-8613-46175fb5aad1","ios":"levelo://app?vid=a8136eea-574d-4ad9-8613-46175fb5aad1"},"vehicle_type_id":"4","last_reported":1745359758,"current_range_meters":20000,"station_id":"ce4bhih2rcd13ifvqfr0","pricing_plan_id":"cebpf4jnsgd1na2vs0mg"},{"bike_id":"dc0a47a3-e95c-4b5c-91ea-602c9dce4fa5","system_id":"levelo_inurba_marseille","lat":43.2319,"lon":5.39979,"is_reserved":false,"is_disabled":false,"rental_uris":{"android":"levelo://app?vid=dc0a47a3-e95c-4b5c-91ea-602c9dce4fa5","ios":"levelo://app?vid=dc0a47a3-e95c-4b5c-91ea-602c9dce4fa5"},"vehicle_type_id":"4","last_reported":1745359758,"current_range_meters":20000,"station_id":"ce4bhn12rcd13ifvqgqg","pricing_plan_id":"cebpf4jnsgd1na2vs0mg"},{"bike_id":"f14e05df-6b48-48e9-a4b2-0a922790be98","system_id":"levelo_inurba_marseille","lat":43.29277,"lon":5.36839,"is_reserved":false,"is_disabled":true,"rental_uris":{"android":"levelo://app?vid=f14e05df-6b48-48e9-a4b2-0a922790be98","ios":"levelo://app?vid=f14e05df-6b48-48e9-a4b2-0a922790be98"},"vehicle_type_id":"4","last_reported":1745359758,"current_range_meters":20000,"station_id":"ce4bhbp2rcd13ifvqesg","pricing_plan_id":"cebpf4jnsgd1na2vs0mg"},{"bike_id":"25591650-a494-4d8a-9db1-4f31db76974a","system_id":"levelo_inurba_marseille","lat":43.30366,"lon":5.4187,"is_reserved":false,"is_disabled":false,"rental_uris":{"android":"levelo://app?vid=25591650-a494-4d8a-9db1-4f31db76974a","ios":"levelo://app?vid=25591650-a494-4d8a-9db1-4f31db76974a"},"vehicle_type_id":"4","last_reported":1745359758,"current_range_meters":20000,"station_id":"ce4bhop2rcd13ifvqh7g","pricing_plan_id":"cebpf4jnsgd1na2vs0mg"},{"bike_id":"d5e26789-4b3f-427d-ac2d-c442d3cbf1fb","system_id":"levelo_inurba_marseille","lat":43.28424,"lon":5.37535,"is_reserved":false,"is_disabled":false,"rental_uris":{"android":"levelo://app?vid=d5e26789-4b3f-427d-ac2d-c442d3cbf1fb","ios":"levelo://app?vid=d5e26789-4b3f-427d-ac2d-c442d3cbf1fb"},"vehicle_type_id":"4","last_reported":1745359758,"current_range_meters":20000,"station_id":"ce4bh412rcd13ifvqds0","pricing_plan_id":"cebpf4jnsgd1na2vs0mg"},{"bike_id":"0ea362ce-4354-4f0f-acc7-962b146816c7","system_id":"levelo_inurba_marseille","lat":43.25881,"lon":5.39904,"is_reserved":false,"is_disabled":true,"rental_uris":{"android":"levelo://app?vid=0ea362ce-4354-4f0f-acc7-962b146816c7","ios":"levelo://app?vid=0ea362ce-4354-4f0f-acc7-962b146816c7"},"vehicle_type_id":"4","last_reported":1745359758,"current_range_meters":20400,"station_id":"ce4bhl92rcd13ifvqghg","pricing_plan_id":"cebpf4jnsgd1na2vs0mg"},{"bike_id":"05ec953f-af04-48e4-ba7f-a7bf8af23d00","system_id":"levelo_inurba_marseille","lat":43.25576,"lon":5.38234,"is_reserved":false,"is_disabled":false,"rental_uris":{"android":"levelo://app?vid=05ec953f-af04-48e4-ba7f-a7bf8af23d00","ios":"levelo://app?vid=05ec953f-af04-48e4-ba7f-a7bf8af23d00"},"vehicle_type_id":"4","last_reported":1745359758,"current_range_meters":20400,"station_id":"ce4bhih2rcd13ifvqfs0","pricing_plan_id":"cebpf4jnsgd1na2vs0mg"},{"bike_id":"5f285d84-75ec-4f10-9790-0249448bbb64","system_id":"levelo_inurba_marseille","lat":43.30151,"lon":5.38098,"is_reserved":false,"is_disabled":false,"rental_uris":{"android":"levelo://app?vid=5f285d84-75ec-4f10-9790-0249448bbb64","ios":"levelo://app?vid=5f285d84-75ec-4f10-9790-0249448bbb64"},"vehicle_type_id":"4","last_reported":1745359758,"current_range_meters":20000,"station_id":"ce4bgjp2rcd13ifvqbh0","pricing_plan_id":"cebpf4jnsgd1na2vs0mg"},{"bike_id":"34092322-88d5-49d6-98c0-54da3aae8180","system_id":"levelo_inurba_marseille","lat":43.30375,"lon":5.42488,"is_reserved":false,"is_disabled":false,"rental_uris":{"android":"levelo://app?vid=34092322-88d5-49d6-98c0-54da3aae8180","ios":"levelo://app?vid=34092322-88d5-49d6-98c0-54da3aae8180"},"vehicle_type_id":"4","last_reported":1745359758,"current_range_meters":20400,"station_id":"ce4bhoh2rcd13ifvqh6g","pricing_plan_id":"cebpf4jnsgd1na2vs0mg"},{"bike_id":"52b69f7a-9560-44fc-a047-c946dc3d6077","system_id":"levelo_inurba_marseille","lat":43.29886,"lon":5.39745,"is_reserved":false,"is_disabled":false,"rental_uris":{"android":"levelo://app?vid=52b69f7a-9560-44fc-a047-c946dc3d6077","ios":"levelo://app?vid=52b69f7a-9560-44fc-a047-c946dc3d6077"},"vehicle_type_id":"4","last_reported":1745359758,"current_range_meters":20400,"station_id":"ce4bh0h2rcd13ifvqd50","pricing_plan_id":"cebpf4jnsgd1na2vs0mg"},{"bike_id":"52787535-a464-4a11-be78-8b3baf39103b","system_id":"levelo_inurba_marseille","lat":43.3149,"lon":5.37296,"is_reserved":false,"is_disabled":false,"rental_uris":{"android":"levelo://app?vid=52787535-a464-4a11-be78-8b3baf39103b","ios":"levelo://app?vid=52787535-a464-4a11-be78-8b3baf39103b"},"vehicle_type_id":"4","last_reported":1745359758,"current_range_meters":20400,"station_id":"ce4bgt12rcd13ifvqcd0","pricing_plan_id":"cebpf4jnsgd1na2vs0mg"},{"bike_id":"76b9c51d-eb63-4b4d-8f7f-262f6fd8d565","system_id":"levelo_inurba_marseille","lat":43.28919,"lon":5.38392,"is_reserved":false,"is_disabled":false,"rental_uris":{"android":"levelo://app?vid=76b9c51d-eb63-4b4d-8f7f-262f6fd8d565","ios":"levelo://app?vid=76b9c51d-eb63-4b4d-8f7f-262f6fd8d565"},"vehicle_type_id":"4","last_reported":1745359758,"current_range_meters":20400,"station_id":"","pricing_plan_id":"cebpf4jnsgd1na2vs0mg"},{"bike_id":"2c210749-934e-4075-8f69-64b44da87771","system_id":"levelo_inurba_marseille","lat":43.3032,"lon":5.39201,"is_reserved":false,"is_disabled":true,"rental_uris":{"android":"levelo://app?vid=2c210749-934e-4075-8f69-64b44da87771","ios":"levelo://app?vid=2c210749-934e-4075-8f69-64b44da87771"},"vehicle_type_id":"4","last_reported":1745359758,"current_range_meters":20400,"station_id":"ce4bgkh2rcd13ifvqbk0","pricing_plan_id":"cebpf4jnsgd1na2vs0mg"},{"bike_id":"ba90075f-730e-46d2-a854-767626ae7ec2","system_id":"levelo_inurba_marseille","lat":43.28382,"lon":5.3861,"is_reserved":false,"is_disabled":false,"rental_uris":{"android":"levelo://app?vid=ba90075f-730e-46d2-a854-767626ae7ec2","ios":"levelo://app?vid=ba90075f-730e-46d2-a854-767626ae7ec2"},"vehicle_type_id":"4","last_reported":1745359758,"current_range_meters":20000,"station_id":"ce4bh492rcd13ifvqdvg","pricing_plan_id":"cebpf4jnsgd1na2vs0mg"},{"bike_id":"2fcbddab-e5b6-4372-b63f-6236d5778685","system_id":"levelo_inurba_marseille","lat":43.29038,"lon":5.39957,"is_reserved":false,"is_disabled":false,"rental_uris":{"android":"levelo://app?vid=2fcbddab-e5b6-4372-b63f-6236d5778685","ios":"levelo://app?vid=2fcbddab-e5b6-4372-b63f-6236d5778685"},"vehicle_type_id":"4","last_reported":1745359758,"current_range_meters":20400,"station_id":"ce4bh392rcd13ifvqdm0","pricing_plan_id":"cebpf4jnsgd1na2vs0mg"},{"bike_id":"81cce5c7-44e5-4814-a40c-c435370e363d","system_id":"levelo_inurba_marseille","lat":43.30627,"lon":5.40086,"is_reserved":false,"is_disabled":false,"rental_uris":{"android":"levelo://app?vid=81cce5c7-44e5-4814-a40c-c435370e363d","ios":"levelo://app?vid=81cce5c7-44e5-4814-a40c-c435370e363d"},"vehicle_type_id":"4","last_reported":1745359758,"current_range_meters":20400,"station_id":"ce4bh112rcd13ifvqda0","pricing_plan_id":"cebpf4jnsgd1na2vs0mg"},{"bike_id":"6eefc99d-8db8-40d1-b867-e66893ab6dc0","system_id":"levelo_inurba_marseille","lat":43.312401,"lon":5.401428,"is_reserved":false,"is_disabled":false,"rental_uris":{"android":"levelo://app?vid=6eefc99d-8db8-40d1-b867-e66893ab6dc0","ios":"levelo://app?vid=6eefc99d-8db8-40d1-b867-e66893ab6dc0"},"vehicle_type_id":"4","last_reported":1745359758,"current_range_meters":20800,"station_id":"ce4bh012rcd13ifvqd00","pricing_plan_id":"cebpf4jnsgd1na2vs0mg"},{"bike_id":"3e8f0127-96fd-4fdd-97f2-be6e836f9523","system_id":"levelo_inurba_marseille","lat":43.33758,"lon":5.37428,"is_reserved":false,"is_disabled":false,"rental_uris":{"android":"levelo://app?vid=3e8f0127-96fd-4fdd-97f2-be6e836f9523","ios":"levelo://app?vid=3e8f0127-96fd-4fdd-97f2-be6e836f9523"},"vehicle_type_id":"4","last_reported":1745359758,"current_range_meters":20800,"station_id":"","pricing_plan_id":"cebpf4jnsgd1na2vs0mg"},{"bike_id":"603c2ff0-3c81-4c24-9114-3aae3b9d51c5","system_id":"levelo_inurba_marseille","lat":43.28075,"lon":5.39649,"is_reserved":false,"is_disabled":false,"rental_uris":{"android":"levelo://app?vid=603c2ff0-3c81-4c24-9114-3aae3b9d51c5","ios":"levelo://app?vid=603c2ff0-3c81-4c24-9114-3aae3b9d51c5"},"vehicle_type_id":"4","last_reported":1745359758,"current_range_meters":21600,"station_id":"ce4bho12rcd13ifvqh2g","pricing_plan_id":"cebpf4jnsgd1na2vs0mg"},{"bike_id":"6da27505-89be-4a96-88ac-febbb1b1d1e6","system_id":"levelo_inurba_marseille","lat":43.2738,"lon":5.36245,"is_reserved":false,"is_disabled":false,"rental_uris":{"android":"levelo://app?vid=6da27505-89be-4a96-88ac-febbb1b1d1e6","ios":"levelo://app?vid=6da27505-89be-4a96-88ac-febbb1b1d1e6"},"vehicle_type_id":"4","last_reported":1745359758,"current_range_meters":21600,"station_id":"ce4bhbh2rcd13ifvqeo0","pricing_plan_id":"cebpf4jnsgd1na2vs0mg"},{"bike_id":"a3fae5db-ba99-41cf-a7f4-4e72332c79ba","system_id":"levelo_inurba_marseille","lat":43.29517,"lon":5.39037,"is_reserved":false,"is_disabled":false,"rental_uris":{"android":"levelo://app?vid=a3fae5db-ba99-41cf-a7f4-4e72332c79ba","ios":"levelo://app?vid=a3fae5db-ba99-41cf-a7f4-4e72332c79ba"},"vehicle_type_id":"4","last_reported":1745359758,"current_range_meters":21600,"station_id":"ce4bh3p2rcd13ifvqdp0","pricing_plan_id":"cebpf4jnsgd1na2vs0mg"},{"bike_id":"9714cb96-9941-4c01-a6f5-8853227acc6a","system_id":"levelo_inurba_marseille","lat":43.29048,"lon":5.35913,"is_reserved":false,"is_disabled":false,"rental_uris":{"android":"levelo://app?vid=9714cb96-9941-4c01-a6f5-8853227acc6a","ios":"levelo://app?vid=9714cb96-9941-4c01-a6f5-8853227acc6a"},"vehicle_type_id":"4","last_reported":1745359758,"current_range_meters":21600,"station_id":"ce4bha92rcd13ifvqeg0","pricing_plan_id":"cebpf4jnsgd1na2vs0mg"},{"bike_id":"019a5a9a-ac10-464a-980a-01bc39d7012e","system_id":"levelo_inurba_marseille","lat":43.31654,"lon":5.37811,"is_reserved":false,"is_disabled":true,"rental_uris":{"android":"levelo://app?vid=019a5a9a-ac10-464a-980a-01bc39d7012e","ios":"levelo://app?vid=019a5a9a-ac10-464a-980a-01bc39d7012e"},"vehicle_type_id":"4","last_reported":1745359758,"current_range_meters":22000,"station_id":"","pricing_plan_id":"cebpf4jnsgd1na2vs0mg"},{"bike_id":"52971878-c506-4341-9612-24082bf985c6","system_id":"levelo_inurba_marseille","lat":43.30952,"lon":5.39057,"is_reserved":false,"is_disabled":false,"rental_uris":{"android":"levelo://app?vid=52971878-c506-4341-9612-24082bf985c6","ios":"levelo://app?vid=52971878-c506-4341-9612-24082bf985c6"},"vehicle_type_id":"4","last_reported":1745359758,"current_range_meters":22000,"station_id":"ce4bgup2rcd13ifvqco0","pricing_plan_id":"cebpf4jnsgd1na2vs0mg"},{"bike_id":"667e5b45-1a2a-41c4-bb05-a5e14adf5550","system_id":"levelo_inurba_marseille","lat":43.32076,"lon":5.36843,"is_reserved":false,"is_disabled":false,"rental_uris":{"android":"levelo://app?vid=667e5b45-1a2a-41c4-bb05-a5e14adf5550","ios":"levelo://app?vid=667e5b45-1a2a-41c4-bb05-a5e14adf5550"},"vehicle_type_id":"4","last_reported":1745359758,"current_range_meters":22000,"station_id":"ce4bhrh2rcd13ifvqhug","pricing_plan_id":"cebpf4jnsgd1na2vs0mg"},{"bike_id":"44036592-bf56-4014-9fd5-2d278fd6bae2","system_id":"levelo_inurba_marseille","lat":43.27987,"lon":5.41661,"is_reserved":false,"is_disabled":false,"rental_uris":{"android":"levelo://app?vid=44036592-bf56-4014-9fd5-2d278fd6bae2","ios":"levelo://app?vid=44036592-bf56-4014-9fd5-2d278fd6bae2"},"vehicle_type_id":"4","last_reported":1745359758,"current_range_meters":22000,"station_id":"ce4bho12rcd13ifvqh1g","pricing_plan_id":"cebpf4jnsgd1na2vs0mg"},{"bike_id":"8987fa21-f07e-42cc-a169-378beb5633dc","system_id":"levelo_inurba_marseille","lat":43.2706,"lon":5.40245,"is_reserved":false,"is_disabled":false,"rental_uris":{"android":"levelo://app?vid=8987fa21-f07e-42cc-a169-378beb5633dc","ios":"levelo://app?vid=8987fa21-f07e-42cc-a169-378beb5633dc"},"vehicle_type_id":"4","last_reported":1745359758,"current_range_meters":22000,"station_id":"ce4bhk92rcd13ifvqgc0","pricing_plan_id":"cebpf4jnsgd1na2vs0mg"},{"bike_id":"bc83546f-7cd9-4965-a046-33cef33ed298","system_id":"levelo_inurba_marseille","lat":43.30357,"lon":5.41873,"is_reserved":false,"is_disabled":false,"rental_uris":{"android":"levelo://app?vid=bc83546f-7cd9-4965-a046-33cef33ed298","ios":"levelo://app?vid=bc83546f-7cd9-4965-a046-33cef33ed298"},"vehicle_type_id":"4","last_reported":1745359758,"current_range_meters":22400,"station_id":"ce4bhop2rcd13ifvqh7g","pricing_plan_id":"cebpf4jnsgd1na2vs0mg"},{"bike_id":"ae17932a-8652-4a3e-94a0-bfe98440871f","system_id":"levelo_inurba_marseille","lat":43.29515,"lon":5.39389,"is_reserved":false,"is_disabled":false,"rental_uris":{"android":"levelo://app?vid=ae17932a-8652-4a3e-94a0-bfe98440871f","ios":"levelo://app?vid=ae17932a-8652-4a3e-94a0-bfe98440871f"},"vehicle_type_id":"4","last_reported":1745359758,"current_range_meters":22400,"station_id":"ce4bh292rcd13ifvqdf0","pricing_plan_id":"cebpf4jnsgd1na2vs0mg"},{"bike_id":"5b94ea54-20c4-4d7c-a801-63e423b7ca07","system_id":"levelo_inurba_marseille","lat":43.28153,"lon":5.42636,"is_reserved":false,"is_disabled":false,"rental_uris":{"android":"levelo://app?vid=5b94ea54-20c4-4d7c-a801-63e423b7ca07","ios":"levelo://app?vid=5b94ea54-20c4-4d7c-a801-63e423b7ca07"},"vehicle_type_id":"4","last_reported":1745359758,"current_range_meters":22400,"station_id":"ce4bhnh2rcd13ifvqgug","pricing_plan_id":"cebpf4jnsgd1na2vs0mg"},{"bike_id":"f55c863d-d818-42f6-a484-1730c2d965a6","system_id":"levelo_inurba_marseille","lat":43.3236,"lon":5.36739,"is_reserved":false,"is_disabled":false,"rental_uris":{"android":"levelo://app?vid=f55c863d-d818-42f6-a484-1730c2d965a6","ios":"levelo://app?vid=f55c863d-d818-42f6-a484-1730c2d965a6"},"vehicle_type_id":"4","last_reported":1745359758,"current_range_meters":22800,"station_id":"ce4bhsh2rcd13ifvqi2g","pricing_plan_id":"cebpf4jnsgd1na2vs0mg"},{"bike_id":"8a72b76a-6918-4ae7-bbf2-12ad0495e6c8","system_id":"levelo_inurba_marseille","lat":43.30942,"lon":5.40132,"is_reserved":false,"is_disabled":false,"rental_uris":{"android":"levelo://app?vid=8a72b76a-6918-4ae7-bbf2-12ad0495e6c8","ios":"levelo://app?vid=8a72b76a-6918-4ae7-bbf2-12ad0495e6c8"},"vehicle_type_id":"4","last_reported":1745359758,"current_range_meters":22800,"station_id":"ce4bgvp2rcd13ifvqct0","pricing_plan_id":"cebpf4jnsgd1na2vs0mg"},{"bike_id":"3904d361-e8b2-495f-a1fe-2ac97e2fbfe9","system_id":"levelo_inurba_marseille","lat":43.29567,"lon":5.3998,"is_reserved":false,"is_disabled":false,"rental_uris":{"android":"levelo://app?vid=3904d361-e8b2-495f-a1fe-2ac97e2fbfe9","ios":"levelo://app?vid=3904d361-e8b2-495f-a1fe-2ac97e2fbfe9"},"vehicle_type_id":"4","last_reported":1745359758,"current_range_meters":22800,"station_id":"ce4bh312rcd13ifvqdj0","pricing_plan_id":"cebpf4jnsgd1na2vs0mg"},{"bike_id":"abaec02b-bd85-4e85-8c7f-ffa7dcb69eee","system_id":"levelo_inurba_marseille","lat":43.30935,"lon":5.40143,"is_reserved":false,"is_disabled":false,"rental_uris":{"android":"levelo://app?vid=abaec02b-bd85-4e85-8c7f-ffa7dcb69eee","ios":"levelo://app?vid=abaec02b-bd85-4e85-8c7f-ffa7dcb69eee"},"vehicle_type_id":"4","last_reported":1745359758,"current_range_meters":22800,"station_id":"ce4bgvp2rcd13ifvqct0","pricing_plan_id":"cebpf4jnsgd1na2vs0mg"},{"bike_id":"6a5687a0-569b-4b6d-9015-f7188919ca19","system_id":"levelo_inurba_marseille","lat":43.30315,"lon":5.36891,"is_reserved":false,"is_disabled":false,"rental_uris":{"android":"levelo://app?vid=6a5687a0-569b-4b6d-9015-f7188919ca19","ios":"levelo://app?vid=6a5687a0-569b-4b6d-9015-f7188919ca19"},"vehicle_type_id":"4","last_reported":1745359758,"current_range_meters":22800,"station_id":"ce4bgqh2rcd13ifvqc5g","pricing_plan_id":"cebpf4jnsgd1na2vs0mg"},{"bike_id":"b9c5d31a-458b-4828-b985-d7daa24310d2","system_id":"levelo_inurba_marseille","lat":43.25865,"lon":5.39897,"is_reserved":false,"is_disabled":false,"rental_uris":{"android":"levelo://app?vid=b9c5d31a-458b-4828-b985-d7daa24310d2","ios":"levelo://app?vid=b9c5d31a-458b-4828-b985-d7daa24310d2"},"vehicle_type_id":"4","last_reported":1745359758,"current_range_meters":22800,"station_id":"ce4bhl92rcd13ifvqghg","pricing_plan_id":"cebpf4jnsgd1na2vs0mg"},{"bike_id":"a12764c2-a027-4923-bb96-bc6d4a1d617a","system_id":"levelo_inurba_marseille","lat":43.230655,"lon":5.354835,"is_reserved":false,"is_disabled":false,"rental_uris":{"android":"levelo://app?vid=a12764c2-a027-4923-bb96-bc6d4a1d617a","ios":"levelo://app?vid=a12764c2-a027-4923-bb96-bc6d4a1d617a"},"vehicle_type_id":"4","last_reported":1745359758,"current_range_meters":22800,"station_id":"cpo3342slgdg3j2ifvpg","pricing_plan_id":"cebpf4jnsgd1na2vs0mg"},{"bike_id":"9b8d5ecc-1bf5-45e9-a078-46bc5fda96dc","system_id":"levelo_inurba_marseille","lat":43.2862,"lon":5.35099,"is_reserved":false,"is_disabled":false,"rental_uris":{"android":"levelo://app?vid=9b8d5ecc-1bf5-45e9-a078-46bc5fda96dc","ios":"levelo://app?vid=9b8d5ecc-1bf5-45e9-a078-46bc5fda96dc"},