{"last_updated":1740064210,"ttl":60,"version":"2.2","data":{"bikes":[{"bike_id":"55013740-08d5-42d3-b8ee-e744c4c6ce59","system_id":"levelo_inurba_marseille","lat":43.23058,"lon":5.35485,"is_reserved":false,"is_disabled":false,"rental_uris":{"android":"levelo://app?vid=55013740-08d5-42d3-b8ee-e744c4c6ce59","ios":"levelo://app?vid=55013740-08d5-42d3-b8ee-e744c4c6ce59"},"vehicle_type_id":"4","last_reported":1740064210,"current_range_meters":2800,"station_id":"cpo3342slgdg3j2ifvpg","pricing_plan_id":"cebpf4jnsgd1na2vs0mg"},{"bike_id":"a2d78b47-7949-4d13-8fa0-51b0167fad30","system_id":"levelo_inurba_marseille","lat":43.30196,"lon":5.3664,"is_reserved":false,"is_disabled":false,"rental_uris":{"android":"levelo://app?vid=a2d78b47-7949-4d13-8fa0-51b0167fad30","ios":"levelo://app?vid=a2d78b47-7949-4d13-8fa0-51b0167fad30"},"vehicle_type_id":"4","last_reported":1740064210,"current_range_meters":2800,"station_id":"ce4bgrh2rcd13ifvqc8g","pricing_plan_id":"cebpf4jnsgd1na2vs0mg"},{"bike_id":"3ae7a8c9-f0c4-4c37-b1c4-dc22300a39ae","system_id":"levelo_inurba_marseille","lat":43.28163,"lon":5.42645,"is_reserved":false,"is_disabled":false,"rental_uris":{"android":"levelo://app?vid=3ae7a8c9-f0c4-4c37-b1c4-dc22300a39ae","ios":"levelo://app?vid=3ae7a8c9-f0c4-4c37-b1c4-dc22300a39ae"},"vehicle_type_id":"4","last_reported":1740064210,"current_range_meters":3200,"station_id":"ce4bhnh2rcd13ifvqgug","pricing_plan_id":"cebpf4jnsgd1na2vs0mg"},{"bike_id":"c37dcbd7-6b2a-41c1-8e0e-8ad6660efecc","system_id":"levelo_inurba_marseille","lat":43.27215,"lon":5.39175,"is_reserved":false,"is_disabled":false,"rental_uris":{"android":"levelo://app?vid=c37dcbd7-6b2a-41c1-8e0e-8ad6660efecc","ios":"levelo://app?vid=c37dcbd7-6b2a-41c1-8e0e-8ad6660efecc"},"vehicle_type_id":"4","last_reported":1740064210,"current_range_meters":2800,"station_id":"ce4bhhp2rcd13ifvqfm0","pricing_plan_id":"cebpf4jnsgd1na2vs0mg"},{"bike_id":"341a7694-dc5a-4ba1-aca7-d0f2eb11064e","system_id":"levelo_inurba_marseille","lat":43.27995,"lon":5.40011,"is_reserved":false,"is_disabled":false,"rental_uris":{"android":"levelo://app?vid=341a7694-dc5a-4ba1-aca7-d0f2eb11064e","ios":"levelo://app?vid=341a7694-dc5a-4ba1-aca7-d0f2eb11064e"},"vehicle_type_id":"4","last_reported":1740064210,"current_range_meters":3200,"station_id":"","pricing_plan_id":"cebpf4jnsgd1na2vs0mg"},{"bike_id":"9d66bbe9-0c18-4a7a-b79e-6926d511d6fe","system_id":"levelo_inurba_marseille","lat":43.30545,"lon":5.36554,"is_reserved":false,"is_disabled":false,"rental_uris":{"android":"levelo://app?vid=9d66bbe9-0c18-4a7a-b79e-6926d511d6fe","ios":"levelo://app?vid=9d66bbe9-0c18-4a7a-b79e-6926d511d6fe"},"vehicle_type_id":"4","last_reported":1740064210,"current_range_meters":3200,"station_id":"ce4bgs12rcd13ifvqcag","pricing_plan_id":"cebpf4jnsgd1na2vs0mg"},{"bike_id":"adb3d6df-7149-4295-84c9-8f4cb47f9c0e","system_id":"levelo_inurba_marseille","lat":43.27296,"lon":5.40664,"is_reserved":false,"is_disabled":true,"rental_uris":{"android":"levelo://app?vid=adb3d6df-7149-4295-84c9-8f4cb47f9c0e","ios":"levelo://app?vid=adb3d6df-7149-4295-84c9-8f4cb47f9c0e"},"vehicle_type_id":"4","last_reported":1740064210,"current_range_meters":3600,"station_id":"","pricing_plan_id":"cebpf4jnsgd1na2vs0mg"},{"bike_id":"04d4bfe0-059d-4237-9487-299953511f66","system_id":"levelo_inurba_marseille","lat":43.290343,"lon":5.375702,"is_reserved":false,"is_disabled":false,"rental_uris":{"android":"levelo://app?vid=04d4bfe0-059d-4237-9487-299953511f66","ios":"levelo://app?vid=04d4bfe0-059d-4237-9487-299953511f66"},"vehicle_type_id":"4","last_reported":1740064210,"current_range_meters":4400,"station_id":"ce4bh692rcd13ifvqe90","pricing_plan_id":"cebpf4jnsgd1na2vs0mg"},{"bike_id":"39644f4c-7452-4653-8df7-9c7cef84e13d","system_id":"levelo_inurba_marseille","lat":43.25687,"lon":5.39402,"is_reserved":false,"is_disabled":true,"rental_uris":{"android":"levelo://app?vid=39644f4c-7452-4653-8df7-9c7cef84e13d","ios":"levelo://app?vid=39644f4c-7452-4653-8df7-9c7cef84e13d"},"vehicle_type_id":"4","last_reported":1740064210,"current_range_meters":4400,"station_id":"ce4bhh92rcd13ifvqfj0","pricing_plan_id":"cebpf4jnsgd1na2vs0mg"},{"bike_id":"ed356dd8-0353-427c-9cf0-284ca7b500d9","system_id":"levelo_inurba_marseille","lat":43.25085,"lon":5.3951,"is_reserved":false,"is_disabled":false,"rental_uris":{"android":"levelo://app?vid=ed356dd8-0353-427c-9cf0-284ca7b500d9","ios":"levelo://app?vid=ed356dd8-0353-427c-9cf0-284ca7b500d9"},"vehicle_type_id":"4","last_reported":1740064210,"current_range_meters":4400,"station_id":"ce4bhm12rcd13ifvqgkg","pricing_plan_id":"cebpf4jnsgd1na2vs0mg"},{"bike_id":"fd7493cc-31f3-49ce-b79a-682a99a8fcec","system_id":"levelo_inurba_marseille","lat":43.25925,"lon":5.40887,"is_reserved":false,"is_disabled":false,"rental_uris":{"android":"levelo://app?vid=fd7493cc-31f3-49ce-b79a-682a99a8fcec","ios":"levelo://app?vid=fd7493cc-31f3-49ce-b79a-682a99a8fcec"},"vehicle_type_id":"4","last_reported":1740064210,"current_range_meters":4800,"station_id":"ce4bhm92rcd13ifvqglg","pricing_plan_id":"cebpf4jnsgd1na2vs0mg"},{"bike_id":"9e39c153-23e7-4513-befa-668bc7811c05","system_id":"levelo_inurba_marseille","lat":43.28856,"lon":5.39303,"is_reserved":false,"is_disabled":false,"rental_uris":{"android":"levelo://app?vid=9e39c153-23e7-4513-befa-668bc7811c05","ios":"levelo://app?vid=9e39c153-23e7-4513-befa-668bc7811c05"},"vehicle_type_id":"4","last_reported":1740064210,"current_range_meters":4800,"station_id":"ce4bh2p2rcd13ifvqdi0","pricing_plan_id":"cebpf4jnsgd1na2vs0mg"},{"bike_id":"9198c6ef-bd5b-45d9-bd7b-e058d791d44b","system_id":"levelo_inurba_marseille","lat":43.24817,"lon":5.37461,"is_reserved":false,"is_disabled":true,"rental_uris":{"android":"levelo://app?vid=9198c6ef-bd5b-45d9-bd7b-e058d791d44b","ios":"levelo://app?vid=9198c6ef-bd5b-45d9-bd7b-e058d791d44b"},"vehicle_type_id":"4","last_reported":1740064210,"current_range_meters":5600,"station_id":"","pricing_plan_id":"cebpf4jnsgd1na2vs0mg"},{"bike_id":"ec2a2a80-692c-4e61-b758-ee418e5968e4","system_id":"levelo_inurba_marseille","lat":43.23959,"lon":5.36631,"is_reserved":false,"is_disabled":false,"rental_uris":{"android":"levelo://app?vid=ec2a2a80-692c-4e61-b758-ee418e5968e4","ios":"levelo://app?vid=ec2a2a80-692c-4e61-b758-ee418e5968e4"},"vehicle_type_id":"4","last_reported":1740064210,"current_range_meters":5600,"station_id":"ce4bhi12rcd13ifvqfp0","pricing_plan_id":"cebpf4jnsgd1na2vs0mg"},{"bike_id":"7f2b235d-b54a-4ba7-9884-b541f6dd74e7","system_id":"levelo_inurba_marseille","lat":43.271721,"lon":5.409964,"is_reserved":false,"is_disabled":false,"rental_uris":{"android":"levelo://app?vid=7f2b235d-b54a-4ba7-9884-b541f6dd74e7","ios":"levelo://app?vid=7f2b235d-b54a-4ba7-9884-b541f6dd74e7"},"vehicle_type_id":"4","last_reported":1740064210,"current_range_meters":5600,"station_id":"","pricing_plan_id":"cebpf4jnsgd1na2vs0mg"},{"bike_id":"fde88e60-06df-44f1-9168-61675e77d9b8","system_id":"levelo_inurba_marseille","lat":43.23149,"lon":5.43703,"is_reserved":false,"is_disabled":false,"rental_uris":{"android":"levelo://app?vid=fde88e60-06df-44f1-9168-61675e77d9b8","ios":"levelo://app?vid=fde88e60-06df-44f1-9168-61675e77d9b8"},"vehicle_type_id":"4","last_reported":1740064210,"current_range_meters":6000,"station_id":"ce4bhmp2rcd13ifvqgog","pricing_plan_id":"cebpf4jnsgd1na2vs0mg"},{"bike_id":"0ef3bc0e-ab3e-4e9b-b9cd-505b4ee83fcb","system_id":"levelo_inurba_marseille","lat":43.25112,"lon":5.40329,"is_reserved":false,"is_disabled":false,"rental_uris":{"android":"levelo://app?vid=0ef3bc0e-ab3e-4e9b-b9cd-505b4ee83fcb","ios":"levelo://app?vid=0ef3bc0e-ab3e-4e9b-b9cd-505b4ee83fcb"},"vehicle_type_id":"4","last_reported":1740064210,"current_range_meters":6000,"station_id":"ce4bhlh2rcd13ifvqgig","pricing_plan_id":"cebpf4jnsgd1na2vs0mg"},{"bike_id":"1821cf5a-24bc-4763-9753-11df4acc4f4c","system_id":"levelo_inurba_marseille","lat":43.24169,"lon":5.36379,"is_reserved":false,"is_disabled":false,"rental_uris":{"android":"levelo://app?vid=1821cf5a-24bc-4763-9753-11df4acc4f4c","ios":"levelo://app?vid=1821cf5a-24bc-4763-9753-11df4acc4f4c"},"vehicle_type_id":"4","last_reported":1740064210,"current_range_meters":6000,"station_id":"cpo36qri1sfpv3e86is0","pricing_plan_id":"cebpf4jnsgd1na2vs0mg"},{"bike_id":"69d2cbd1-c1b7-4c59-a645-0cdf1634822d","system_id":"levelo_inurba_marseille","lat":43.3096,"lon":5.39062,"is_reserved":false,"is_disabled":false,"rental_uris":{"android":"levelo://app?vid=69d2cbd1-c1b7-4c59-a645-0cdf1634822d","ios":"levelo://app?vid=69d2cbd1-c1b7-4c59-a645-0cdf1634822d"},"vehicle_type_id":"4","last_reported":1740064210,"current_range_meters":4400,"station_id":"ce4bgup2rcd13ifvqco0","pricing_plan_id":"cebpf4jnsgd1na2vs0mg"},{"bike_id":"6decde42-c833-4605-9de1-0199faf6cafa","system_id":"levelo_inurba_marseille","lat":43.30142,"lon":5.38075,"is_reserved":false,"is_disabled":false,"rental_uris":{"android":"levelo://app?vid=6decde42-c833-4605-9de1-0199faf6cafa","ios":"levelo://app?vid=6decde42-c833-4605-9de1-0199faf6cafa"},"vehicle_type_id":"4","last_reported":1740064210,"current_range_meters":2000,"station_id":"ce4bgjp2rcd13ifvqbh0","pricing_plan_id":"cebpf4jnsgd1na2vs0mg"},{"bike_id":"07750a48-0a12-4e33-89cd-d0f50529fa8e","system_id":"levelo_inurba_marseille","lat":43.2795,"lon":5.41039,"is_reserved":false,"is_disabled":false,"rental_uris":{"android":"levelo://app?vid=07750a48-0a12-4e33-89cd-d0f50529fa8e","ios":"levelo://app?vid=07750a48-0a12-4e33-89cd-d0f50529fa8e"},"vehicle_type_id":"4","last_reported":1740064210,"current_range_meters":6800,"station_id":"ce4bhnp2rcd13ifvqh0g","pricing_plan_id":"cebpf4jnsgd1na2vs0mg"},{"bike_id":"90de8971-db22-4d27-8c08-4575a12860f9","system_id":"levelo_inurba_marseille","lat":43.27182,"lon":5.40989,"is_reserved":false,"is_disabled":false,"rental_uris":{"android":"levelo://app?vid=90de8971-db22-4d27-8c08-4575a12860f9","ios":"levelo://app?vid=90de8971-db22-4d27-8c08-4575a12860f9"},"vehicle_type_id":"4","last_reported":1740064210,"current_range_meters":6800,"station_id":"ce4bhl12rcd13ifvqgf0","pricing_plan_id":"cebpf4jnsgd1na2vs0mg"},{"bike_id":"fb32c5b6-8451-439f-821a-c1f393e3c428","system_id":"levelo_inurba_marseille","lat":43.32107,"lon":5.36766,"is_reserved":false,"is_disabled":false,"rental_uris":{"android":"levelo://app?vid=fb32c5b6-8451-439f-821a-c1f393e3c428","ios":"levelo://app?vid=fb32c5b6-8451-439f-821a-c1f393e3c428"},"vehicle_type_id":"4","last_reported":1740064210,"current_range_meters":7200,"station_id":"ce4bhrh2rcd13ifvqhug","pricing_plan_id":"cebpf4jnsgd1na2vs0mg"},{"bike_id":"cf64b7cd-4626-4d79-afac-2611db88ce28","system_id":"levelo_inurba_marseille","lat":43.27986,"lon":5.41662,"is_reserved":false,"is_disabled":false,"rental_uris":{"android":"levelo://app?vid=cf64b7cd-4626-4d79-afac-2611db88ce28","ios":"levelo://app?vid=cf64b7cd-4626-4d79-afac-2611db88ce28"},"vehicle_type_id":"4","last_reported":1740064210,"current_range_meters":6800,"station_id":"ce4bho12rcd13ifvqh1g","pricing_plan_id":"cebpf4jnsgd1na2vs0mg"},{"bike_id":"f027fe38-3f5d-42fa-b16a-68ca60104c09","system_id":"levelo_inurba_marseille","lat":43.24164,"lon":5.36409,"is_reserved":false,"is_disabled":false,"rental_uris":{"android":"levelo://app?vid=f027fe38-3f5d-42fa-b16a-68ca60104c09","ios":"levelo://app?vid=f027fe38-3f5d-42fa-b16a-68ca60104c09"},"vehicle_type_id":"4","last_reported":1740064210,"current_range_meters":7200,"station_id":"","pricing_plan_id":"cebpf4jnsgd1na2vs0mg"},{"bike_id":"816e3e7b-b107-4001-b79f-e380ada67102","system_id":"levelo_inurba_marseille","lat":43.24166,"lon":5.36391,"is_reserved":false,"is_disabled":false,"rental_uris":{"android":"levelo://app?vid=816e3e7b-b107-4001-b79f-e380ada67102","ios":"levelo://app?vid=816e3e7b-b107-4001-b79f-e380ada67102"},"vehicle_type_id":"4","last_reported":1740064210,"current_range_meters":7200,"station_id":"cpo36qri1sfpv3e86is0","pricing_plan_id":"cebpf4jnsgd1na2vs0mg"},{"bike_id":"e52b7e65-5abe-46f2-a0ea-e3cafff3c0b3","system_id":"levelo_inurba_marseille","lat":43.30282,"lon":5.37716,"is_reserved":false,"is_disabled":false,"rental_uris":{"android":"levelo://app?vid=e52b7e65-5abe-46f2-a0ea-e3cafff3c0b3","ios":"levelo://app?vid=e52b7e65-5abe-46f2-a0ea-e3cafff3c0b3"},"vehicle_type_id":"4","last_reported":1740064210,"current_range_meters":7200,"station_id":"ce4bguh2rcd13ifvqcj0","pricing_plan_id":"cebpf4jnsgd1na2vs0mg"},{"bike_id":"f8a1eefe-5190-4327-95c3-8138f343fe57","system_id":"levelo_inurba_marseille","lat":43.31173,"lon":5.39344,"is_reserved":false,"is_disabled":false,"rental_uris":{"android":"levelo://app?vid=f8a1eefe-5190-4327-95c3-8138f343fe57","ios":"levelo://app?vid=f8a1eefe-5190-4327-95c3-8138f343fe57"},"vehicle_type_id":"4","last_reported":1740064210,"current_range_meters":7200,"station_id":"ce4bgqh2rcd13ifvqc4g","pricing_plan_id":"cebpf4jnsgd1na2vs0mg"},{"bike_id":"a785767d-3278-4db8-8933-1f8eb2edc4a9","system_id":"levelo_inurba_marseille","lat":43.29849,"lon":5.3628,"is_reserved":false,"is_disabled":false,"rental_uris":{"android":"levelo://app?vid=a785767d-3278-4db8-8933-1f8eb2edc4a9","ios":"levelo://app?vid=a785767d-3278-4db8-8933-1f8eb2edc4a9"},"vehicle_type_id":"4","last_reported":1740064210,"current_range_meters":8000,"station_id":"ce4bgpp2rcd13ifvqc3g","pricing_plan_id":"cebpf4jnsgd1na2vs0mg"},{"bike_id":"093d36c4-f304-46a9-8792-5d9e19e468fc","system_id":"levelo_inurba_marseille","lat":43.298951,"lon":5.436689,"is_reserved":false,"is_disabled":false,"rental_uris":{"android":"levelo://app?vid=093d36c4-f304-46a9-8792-5d9e19e468fc","ios":"levelo://app?vid=093d36c4-f304-46a9-8792-5d9e19e468fc"},"vehicle_type_id":"4","last_reported":1740064210,"current_range_meters":8000,"station_id":"ce4bhpp2rcd13ifvqhfg","pricing_plan_id":"cebpf4jnsgd1na2vs0mg"},{"bike_id":"3fa131c8-d3bf-4fb9-b400-1daf371dcaa7","system_id":"levelo_inurba_marseille","lat":43.27165,"lon":5.40968,"is_reserved":false,"is_disabled":false,"rental_uris":{"android":"levelo://app?vid=3fa131c8-d3bf-4fb9-b400-1daf371dcaa7","ios":"levelo://app?vid=3fa131c8-d3bf-4fb9-b400-1daf371dcaa7"},"vehicle_type_id":"4","last_reported":1740064210,"current_range_meters":8000,"station_id":"ce4bhl12rcd13ifvqgf0","pricing_plan_id":"cebpf4jnsgd1na2vs0mg"},{"bike_id":"aa6199de-f1cb-41e1-9460-6d194b60ff44","system_id":"levelo_inurba_marseille","lat":43.305444,"lon":5.365553,"is_reserved":false,"is_disabled":false,"rental_uris":{"android":"levelo://app?vid=aa6199de-f1cb-41e1-9460-6d194b60ff44","ios":"levelo://app?vid=aa6199de-f1cb-41e1-9460-6d194b60ff44"},"vehicle_type_id":"4","last_reported":1740064210,"current_range_meters":8800,"station_id":"ce4bgs12rcd13ifvqcag","pricing_plan_id":"cebpf4jnsgd1na2vs0mg"},{"bike_id":"16220a29-deaf-43d3-97e0-996ddb0ac60c","system_id":"levelo_inurba_marseille","lat":43.29278,"lon":5.4012,"is_reserved":false,"is_disabled":false,"rental_uris":{"android":"levelo://app?vid=16220a29-deaf-43d3-97e0-996ddb0ac60c","ios":"levelo://app?vid=16220a29-deaf-43d3-97e0-996ddb0ac60c"},"vehicle_type_id":"4","last_reported":1740064210,"current_range_meters":8000,"station_id":"ce4bh312rcd13ifvqdk0","pricing_plan_id":"cebpf4jnsgd1na2vs0mg"},{"bike_id":"407061d8-6ccd-411e-8d78-08f5ad643857","system_id":"levelo_inurba_marseille","lat":43.33742,"lon":5.39172,"is_reserved":false,"is_disabled":false,"rental_uris":{"android":"levelo://app?vid=407061d8-6ccd-411e-8d78-08f5ad643857","ios":"levelo://app?vid=407061d8-6ccd-411e-8d78-08f5ad643857"},"vehicle_type_id":"4","last_reported":1740064210,"current_range_meters":8000,"station_id":"ce4bhr92rcd13ifvqhsg","pricing_plan_id":"cebpf4jnsgd1na2vs0mg"},{"bike_id":"c8edfef6-42a6-40b3-a649-857afbe6fa02","system_id":"levelo_inurba_marseille","lat":43.25008,"lon":5.38928,"is_reserved":false,"is_disabled":false,"rental_uris":{"android":"levelo://app?vid=c8edfef6-42a6-40b3-a649-857afbe6fa02","ios":"levelo://app?vid=c8edfef6-42a6-40b3-a649-857afbe6fa02"},"vehicle_type_id":"4","last_reported":1740064210,"current_range_meters":8000,"station_id":"","pricing_plan_id":"cebpf4jnsgd1na2vs0mg"},{"bike_id":"3633587c-dafb-4b6e-b4ae-308eb791df81","system_id":"levelo_inurba_marseille","lat":43.270516,"lon":5.402615,"is_reserved":false,"is_disabled":false,"rental_uris":{"android":"levelo://app?vid=3633587c-dafb-4b6e-b4ae-308eb791df81","ios":"levelo://app?vid=3633587c-dafb-4b6e-b4ae-308eb791df81"},"vehicle_type_id":"4","last_reported":1740064210,"current_range_meters":8000,"station_id":"","pricing_plan_id":"cebpf4jnsgd1na2vs0mg"},{"bike_id":"4d6b4ce6-88c0-4839-9c46-ca99f2f181fd","system_id":"levelo_inurba_marseille","lat":43.287612,"lon":5.390041,"is_reserved":false,"is_disabled":false,"rental_uris":{"android":"levelo://app?vid=4d6b4ce6-88c0-4839-9c46-ca99f2f181fd","ios":"levelo://app?vid=4d6b4ce6-88c0-4839-9c46-ca99f2f181fd"},"vehicle_type_id":"4","last_reported":1740064210,"current_range_meters":8400,"station_id":"ce4bh292rcd13ifvqdg0","pricing_plan_id":"cebpf4jnsgd1na2vs0mg"},{"bike_id":"d5173bbe-86f4-4afc-a8e0-76d62e3a8b83","system_id":"levelo_inurba_marseille","lat":43.239656,"lon":5.366318,"is_reserved":false,"is_disabled":false,"rental_uris":{"android":"levelo://app?vid=d5173bbe-86f4-4afc-a8e0-76d62e3a8b83","ios":"levelo://app?vid=d5173bbe-86f4-4afc-a8e0-76d62e3a8b83"},"vehicle_type_id":"4","last_reported":1740064210,"current_range_meters":8400,"station_id":"ce4bhi12rcd13ifvqfp0","pricing_plan_id":"cebpf4jnsgd1na2vs0mg"},{"bike_id":"d1d0d967-22ca-4013-a0f5-c823621af4c5","system_id":"levelo_inurba_marseille","lat":43.30905,"lon":5.37205,"is_reserved":false,"is_disabled":false,"rental_uris":{"android":"levelo://app?vid=d1d0d967-22ca-4013-a0f5-c823621af4c5","ios":"levelo://app?vid=d1d0d967-22ca-4013-a0f5-c823621af4c5"},"vehicle_type_id":"4","last_reported":1740064210,"current_range_meters":8400,"station_id":"ce4bguh2rcd13ifvqckg","pricing_plan_id":"cebpf4jnsgd1na2vs0mg"},{"bike_id":"63c4cf47-dbff-4d5e-a88a-080b99df99de","system_id":"levelo_inurba_marseille","lat":43.29527,"lon":5.38901,"is_reserved":false,"is_disabled":true,"rental_uris":{"android":"levelo://app?vid=63c4cf47-dbff-4d5e-a88a-080b99df99de","ios":"levelo://app?vid=63c4cf47-dbff-4d5e-a88a-080b99df99de"},"vehicle_type_id":"4","last_reported":1740064210,"current_range_meters":8400,"station_id":"","pricing_plan_id":"cebpf4jnsgd1na2vs0mg"},{"bike_id":"a00fb5cd-e0d2-4f96-befb-5275c0df0c87","system_id":"levelo_inurba_marseille","lat":43.279876,"lon":5.416664,"is_reserved":false,"is_disabled":false,"rental_uris":{"android":"levelo://app?vid=a00fb5cd-e0d2-4f96-befb-5275c0df0c87","ios":"levelo://app?vid=a00fb5cd-e0d2-4f96-befb-5275c0df0c87"},"vehicle_type_id":"4","last_reported":1740064210,"current_range_meters":8400,"station_id":"ce4bho12rcd13ifvqh1g","pricing_plan_id":"cebpf4jnsgd1na2vs0mg"},{"bike_id":"34d14ec0-9a1d-4d07-8158-52ff5d0c0371","system_id":"levelo_inurba_marseille","lat":43.29437,"lon":5.38042,"is_reserved":false,"is_disabled":false,"rental_uris":{"android":"levelo://app?vid=34d14ec0-9a1d-4d07-8158-52ff5d0c0371","ios":"levelo://app?vid=34d14ec0-9a1d-4d07-8158-52ff5d0c0371"},"vehicle_type_id":"4","last_reported":1740064210,"current_range_meters":8400,"station_id":"","pricing_plan_id":"cebpf4jnsgd1na2vs0mg"},{"bike_id":"884506ac-6cb5-44d9-ba83-7e6bddbad94b","system_id":"levelo_inurba_marseille","lat":43.26228,"lon":5.4046,"is_reserved":false,"is_disabled":false,"rental_uris":{"android":"levelo://app?vid=884506ac-6cb5-44d9-ba83-7e6bddbad94b","ios":"levelo://app?vid=884506ac-6cb5-44d9-ba83-7e6bddbad94b"},"vehicle_type_id":"4","last_reported":1740064210,"current_range_meters":8400,"station_id":"ce4bhmh2rcd13ifvqgmg","pricing_plan_id":"cebpf4jnsgd1na2vs0mg"},{"bike_id":"1a35c311-ab12-4355-a02d-e31d665a2f68","system_id":"levelo_inurba_marseille","lat":43.30304,"lon":5.36879,"is_reserved":false,"is_disabled":false,"rental_uris":{"android":"levelo://app?vid=1a35c311-ab12-4355-a02d-e31d665a2f68","ios":"levelo://app?vid=1a35c311-ab12-4355-a02d-e31d665a2f68"},"vehicle_type_id":"4","last_reported":1740064210,"current_range_meters":8400,"station_id":"ce4bgqh2rcd13ifvqc5g","pricing_plan_id":"cebpf4jnsgd1na2vs0mg"},{"bike_id":"e085094b-5303-43b7-9179-0c0ea19a3987","system_id":"levelo_inurba_marseille","lat":43.25113,"lon":5.40317,"is_reserved":false,"is_disabled":false,"rental_uris":{"android":"levelo://app?vid=e085094b-5303-43b7-9179-0c0ea19a3987","ios":"levelo://app?vid=e085094b-5303-43b7-9179-0c0ea19a3987"},"vehicle_type_id":"4","last_reported":1740064210,"current_range_meters":8400,"station_id":"ce4bhlh2rcd13ifvqgig","pricing_plan_id":"cebpf4jnsgd1na2vs0mg"},{"bike_id":"e1635589-a58b-4a69-a272-7bcd776fbb53","system_id":"levelo_inurba_marseille","lat":43.25933,"lon":5.40869,"is_reserved":false,"is_disabled":false,"rental_uris":{"android":"levelo://app?vid=e1635589-a58b-4a69-a272-7bcd776fbb53","ios":"levelo://app?vid=e1635589-a58b-4a69-a272-7bcd776fbb53"},"vehicle_type_id":"4","last_reported":1740064210,"current_range_meters":8400,"station_id":"ce4bhm92rcd13ifvqglg","pricing_plan_id":"cebpf4jnsgd1na2vs0mg"},{"bike_id":"fc971b16-bef3-4b6d-813c-ffc8ffa48842","system_id":"levelo_inurba_marseille","lat":43.2841,"lon":5.34986,"is_reserved":false,"is_disabled":true,"rental_uris":{"android":"levelo://app?vid=fc971b16-bef3-4b6d-813c-ffc8ffa48842","ios":"levelo://app?vid=fc971b16-bef3-4b6d-813c-ffc8ffa48842"},"vehicle_type_id":"4","last_reported":1740064210,"current_range_meters":8400,"station_id":"","pricing_plan_id":"cebpf4jnsgd1na2vs0mg"},{"bike_id":"192a4d41-8004-4852-8bba-ef55089f631e","system_id":"levelo_inurba_marseille","lat":43.292626,"lon":5.384427,"is_reserved":false,"is_disabled":false,"rental_uris":{"android":"levelo://app?vid=192a4d41-8004-4852-8bba-ef55089f631e","ios":"levelo://app?vid=192a4d41-8004-4852-8bba-ef55089f631e"},"vehicle_type_id":"4","last_reported":1740064210,"current_range_meters":8400,"station_id":"ce4bh692rcd13ifvqea0","pricing_plan_id":"cebpf4jnsgd1na2vs0mg"},{"bike_id":"c000902f-c5f9-4784-8f8c-254f920ace9e","system_id":"levelo_inurba_marseille","lat":43.33702,"lon":5.39206,"is_reserved":false,"is_disabled":false,"rental_uris":{"android":"levelo://app?vid=c000902f-c5f9-4784-8f8c-254f920ace9e","ios":"levelo://app?vid=c000902f-c5f9-4784-8f8c-254f920ace9e"},"vehicle_type_id":"4","last_reported":1740064210,"current_range_meters":8400,"station_id":"ce4bhr92rcd13ifvqhsg","pricing_plan_id":"cebpf4jnsgd1na2vs0mg"},{"bike_id":"b64778c2-2434-4409-b125-e965a1fd469a","system_id":"levelo_inurba_marseille","lat":43.30303,"lon":5.36681,"is_reserved":false,"is_disabled":false,"rental_uris":{"android":"levelo://app?vid=b64778c2-2434-4409-b125-e965a1fd469a","ios":"levelo://app?vid=b64778c2-2434-4409-b125-e965a1fd469a"},"vehicle_type_id":"4","last_reported":1740064210,"current_range_meters":8400,"station_id":"ce4bgs12rcd13ifvqcag","pricing_plan_id":"cebpf4jnsgd1na2vs0mg"},{"bike_id":"5180f318-4948-4085-aaf1-5f3160b57dbe","system_id":"levelo_inurba_marseille","lat":43.276179,"lon":5.361058,"is_reserved":false,"is_disabled":false,"rental_uris":{"android":"levelo://app?vid=5180f318-4948-4085-aaf1-5f3160b57dbe","ios":"levelo://app?vid=5180f318-4948-4085-aaf1-5f3160b57dbe"},"vehicle_type_id":"4","last_reported":1740064210,"current_range_meters":8400,"station_id":"","pricing_plan_id":"cebpf4jnsgd1na2vs0mg"},{"bike_id":"c14320bb-a3d1-48f3-b3cd-09ca46b41d34","system_id":"levelo_inurba_marseille","lat":43.27378,"lon":5.36255,"is_reserved":false,"is_disabled":false,"rental_uris":{"android":"levelo://app?vid=c14320bb-a3d1-48f3-b3cd-09ca46b41d34","ios":"levelo://app?vid=c14320bb-a3d1-48f3-b3cd-09ca46b41d34"},"vehicle_type_id":"4","last_reported":1740064210,"current_range_meters":8400,"station_id":"ce4bhbh2rcd13ifvqeo0","pricing_plan_id":"cebpf4jnsgd1na2vs0mg"},{"bike_id":"cf39ae27-286c-4960-8810-500209552a4f","system_id":"levelo_inurba_marseille","lat":43.25504,"lon":5.3765,"is_reserved":false,"is_disabled":false,"rental_uris":{"android":"levelo://app?vid=cf39ae27-286c-4960-8810-500209552a4f","ios":"levelo://app?vid=cf39ae27-286c-4960-8810-500209552a4f"},"vehicle_type_id":"4","last_reported":1740064210,"current_range_meters":7200,"station_id":"ce4bhh12rcd13ifvqff0","pricing_plan_id":"cebpf4jnsgd1na2vs0mg"},{"bike_id":"d9b05039-0972-4c69-a5c1-23da6a00ce53","system_id":"levelo_inurba_marseille","lat":43.24804,"lon":5.37465,"is_reserved":false,"is_disabled":false,"rental_uris":{"android":"levelo://app?vid=d9b05039-0972-4c69-a5c1-23da6a00ce53","ios":"levelo://app?vid=d9b05039-0972-4c69-a5c1-23da6a00ce53"},"vehicle_type_id":"4","last_reported":1740064210,"current_range_meters":8800,"station_id":"","pricing_plan_id":"cebpf4jnsgd1na2vs0mg"},{"bike_id":"30373a9f-4fc7-45a1-8ae5-65060b7c5711","system_id":"levelo_inurba_marseille","lat":43.24537,"lon":5.39531,"is_reserved":false,"is_disabled":false,"rental_uris":{"android":"levelo://app?vid=30373a9f-4fc7-45a1-8ae5-65060b7c5711","ios":"levelo://app?vid=30373a9f-4fc7-45a1-8ae5-65060b7c5711"},"vehicle_type_id":"4","last_reported":1740064210,"current_range_meters":8800,"station_id":"","pricing_plan_id":"cebpf4jnsgd1na2vs0mg"},{"bike_id":"c344789d-c362-498c-aa9b-aa2e440bfbf0","system_id":"levelo_inurba_marseille","lat":43.32364,"lon":5.36761,"is_reserved":false,"is_disabled":false,"rental_uris":{"android":"levelo://app?vid=c344789d-c362-498c-aa9b-aa2e440bfbf0","ios":"levelo://app?vid=c344789d-c362-498c-aa9b-aa2e440bfbf0"},"vehicle_type_id":"4","last_reported":1740064210,"current_range_meters":8800,"station_id":"ce4bhsh2rcd13ifvqi2g","pricing_plan_id":"cebpf4jnsgd1na2vs0mg"},{"bike_id":"104b15c6-bf74-407c-9a34-de8a1be58e4f","system_id":"levelo_inurba_marseille","lat":43.29204,"lon":5.37307,"is_reserved":false,"is_disabled":false,"rental_uris":{"android":"levelo://app?vid=104b15c6-bf74-407c-9a34-de8a1be58e4f","ios":"levelo://app?vid=104b15c6-bf74-407c-9a34-de8a1be58e4f"},"vehicle_type_id":"4","last_reported":1740064210,"current_range_meters":8800,"station_id":"","pricing_plan_id":"cebpf4jnsgd1na2vs0mg"},{"bike_id":"201ed5b5-4e38-439e-91de-f0932d416864","system_id":"levelo_inurba_marseille","lat":43.27922,"lon":5.38016,"is_reserved":false,"is_disabled":false,"rental_uris":{"android":"levelo://app?vid=201ed5b5-4e38-439e-91de-f0932d416864","ios":"levelo://app?vid=201ed5b5-4e38-439e-91de-f0932d416864"},"vehicle_type_id":"4","last_reported":1740064210,"current_range_meters":8800,"station_id":"","pricing_plan_id":"cebpf4jnsgd1na2vs0mg"},{"bike_id":"26779595-c177-40e8-a988-d5570ab1009d","system_id":"levelo_inurba_marseille","lat":43.29203,"lon":5.39779,"is_reserved":false,"is_disabled":false,"rental_uris":{"android":"levelo://app?vid=26779595-c177-40e8-a988-d5570ab1009d","ios":"levelo://app?vid=26779595-c177-40e8-a988-d5570ab1009d"},"vehicle_type_id":"4","last_reported":1740064210,"current_range_meters":9200,"station_id":"","pricing_plan_id":"cebpf4jnsgd1na2vs0mg"},{"bike_id":"0686e433-82b6-4ced-b364-39b66b6a0983","system_id":"levelo_inurba_marseille","lat":43.255799,"lon":5.382359,"is_reserved":false,"is_disabled":false,"rental_uris":{"android":"levelo://app?vid=0686e433-82b6-4ced-b364-39b66b6a0983","ios":"levelo://app?vid=0686e433-82b6-4ced-b364-39b66b6a0983"},"vehicle_type_id":"4","last_reported":1740064210,"current_range_meters":9200,"station_id":"ce4bhih2rcd13ifvqfs0","pricing_plan_id":"cebpf4jnsgd1na2vs0mg"},{"bike_id":"24681c1f-77f4-43ee-bf19-912adce7dfb7","system_id":"levelo_inurba_marseille","lat":43.31713,"lon":5.42396,"is_reserved":false,"is_disabled":false,"rental_uris":{"android":"levelo://app?vid=24681c1f-77f4-43ee-bf19-912adce7dfb7","ios":"levelo://app?vid=24681c1f-77f4-43ee-bf19-912adce7dfb7"},"vehicle_type_id":"4","last_reported":1740064210,"current_range_meters":8800,"station_id":"ce4bhp92rcd13ifvqhbg","pricing_plan_id":"cebpf4jnsgd1na2vs0mg"},{"bike_id":"058213af-b61b-486b-8e0a-0a8fd78595de","system_id":"levelo_inurba_marseille","lat":43.25084,"lon":5.39512,"is_reserved":false,"is_disabled":false,"rental_uris":{"android":"levelo://app?vid=058213af-b61b-486b-8e0a-0a8fd78595de","ios":"levelo://app?vid=058213af-b61b-486b-8e0a-0a8fd78595de"},"vehicle_type_id":"4","last_reported":1740064210,"current_range_meters":9200,"station_id":"ce4bhm12rcd13ifvqgkg","pricing_plan_id":"cebpf4jnsgd1na2vs0mg"},{"bike_id":"5428c4a6-2268-45c5-aff9-a5f8e308d92b","system_id":"levelo_inurba_marseille","lat":43.30931,"lon":5.37302,"is_reserved":false,"is_disabled":false,"rental_uris":{"android":"levelo://app?vid=5428c4a6-2268-45c5-aff9-a5f8e308d92b","ios":"levelo://app?vid=5428c4a6-2268-45c5-aff9-a5f8e308d92b"},"vehicle_type_id":"4","last_reported":1740064210,"current_range_meters":9600,"station_id":"ce4bguh2rcd13ifvqckg","pricing_plan_id":"cebpf4jnsgd1na2vs0mg"},{"bike_id":"5f9ede52-c720-4107-a864-980fb2608395","system_id":"levelo_inurba_marseille","lat":43.24117,"lon":5.38691,"is_reserved":false,"is_disabled":false,"rental_uris":{"android":"levelo://app?vid=5f9ede52-c720-4107-a864-980fb2608395","ios":"levelo://app?vid=5f9ede52-c720-4107-a864-980fb2608395"},"vehicle_type_id":"4","last_reported":1740064210,"current_range_meters":9600,"station_id":"ce4bhb92rcd13ifvqen0","pricing_plan_id":"cebpf4jnsgd1na2vs0mg"},{"bike_id":"ba379239-9216-4e46-a96c-a73988d910ff","system_id":"levelo_inurba_marseille","lat":43.26559,"lon":5.3728,"is_reserved":false,"is_disabled":false,"rental_uris":{"android":"levelo://app?vid=ba379239-9216-4e46-a96c-a73988d910ff","ios":"levelo://app?vid=ba379239-9216-4e46-a96c-a73988d910ff"},"vehicle_type_id":"4","last_reported":1740064210,"current_range_meters":9600,"station_id":"ce4bhg12rcd13ifvqf70","pricing_plan_id":"cebpf4jnsgd1na2vs0mg"},{"bike_id":"238954d6-1abc-4f62-843e-10018f11b73a","system_id":"levelo_inurba_marseille","lat":43.29233,"lon":5.36056,"is_reserved":false,"is_disabled":false,"rental_uris":{"android":"levelo://app?vid=238954d6-1abc-4f62-843e-10018f11b73a","ios":"levelo://app?vid=238954d6-1abc-4f62-843e-10018f11b73a"},"vehicle_type_id":"4","last_reported":1740064210,"current_range_meters":9600,"station_id":"ce4bhbh2rcd13ifvqeqg","pricing_plan_id":"cebpf4jnsgd1na2vs0mg"},{"bike_id":"cea5e88c-c467-4100-b0da-e152ac5a03c1","system_id":"levelo_inurba_marseille","lat":43.279064,"lon":5.379976,"is_reserved":false,"is_disabled":false,"rental_uris":{"android":"levelo://app?vid=cea5e88c-c467-4100-b0da-e152ac5a03c1","ios":"levelo://app?vid=cea5e88c-c467-4100-b0da-e152ac5a03c1"},"vehicle_type_id":"4","last_reported":1740064210,"current_range_meters":9600,"station_id":"","pricing_plan_id":"cebpf4jnsgd1na2vs0mg"},{"bike_id":"e121e6a1-bd76-4786-9b22-046b9f2ba3e5","system_id":"levelo_inurba_marseille","lat":43.2621,"lon":5.37449,"is_reserved":false,"is_disabled":false,"rental_uris":{"android":"levelo://app?vid=e121e6a1-bd76-4786-9b22-046b9f2ba3e5","ios":"levelo://app?vid=e121e6a1-bd76-4786-9b22-046b9f2ba3e5"},"vehicle_type_id":"4","last_reported":1740064210,"current_range_meters":9600,"station_id":"ce4bhgp2rcd13ifvqfc0","pricing_plan_id":"cebpf4jnsgd1na2vs0mg"},{"bike_id":"0e6f9849-dcd0-4d04-869a-f4f9047991c8","system_id":"levelo_inurba_marseille","lat":43.273194,"lon":5.390494,"is_reserved":false,"is_disabled":false,"rental_uris":{"android":"levelo://app?vid=0e6f9849-dcd0-4d04-869a-f4f9047991c8","ios":"levelo://app?vid=0e6f9849-dcd0-4d04-869a-f4f9047991c8"},"vehicle_type_id":"4","last_reported":1740064210,"current_range_meters":8000,"station_id":"ce4bhs12rcd13ifvqhvg","pricing_plan_id":"cebpf4jnsgd1na2vs0mg"},{"bike_id":"d078d9e7-1854-4ad6-a4cc-af7788d393db","system_id":"levelo_inurba_marseille","lat":43.27065,"lon":5.40256,"is_reserved":false,"is_disabled":false,"rental_uris":{"android":"levelo://app?vid=d078d9e7-1854-4ad6-a4cc-af7788d393db","ios":"levelo://app?vid=d078d9e7-1854-4ad6-a4cc-af7788d393db"},"vehicle_type_id":"4","last_reported":1740064210,"current_range_meters":9600,"station_id":"ce4bhk92rcd13ifvqgc0","pricing_plan_id":"cebpf4jnsgd1na2vs0mg"},{"bike_id":"4131ed30-1f43-4452-84c1-9ce618cb7cc0","system_id":"levelo_inurba_marseille","lat":43.27223,"lon":5.39183,"is_reserved":false,"is_disabled":false,"rental_uris":{"android":"levelo://app?vid=4131ed30-1f43-4452-84c1-9ce618cb7cc0","ios":"levelo://app?vid=4131ed30-1f43-4452-84c1-9ce618cb7cc0"},"vehicle_type_id":"4","last_reported":1740064210,"current_range_meters":9600,"station_id":"ce4bhhp2rcd13ifvqfm0","pricing_plan_id":"cebpf4jnsgd1na2vs0mg"},{"bike_id":"77ac049b-6848-4db1-94df-a16d6879e316","system_id":"levelo_inurba_marseille","lat":43.23194,"lon":5.3555,"is_reserved":false,"is_disabled":false,"rental_uris":{"android":"levelo://app?vid=77ac049b-6848-4db1-94df-a16d6879e316","ios":"levelo://app?vid=77ac049b-6848-4db1-94df-a16d6879e316"},"vehicle_type_id":"4","last_reported":1740064210,"current_range_meters":10000,"station_id":"","pricing_plan_id":"cebpf4jnsgd1na2vs0mg"},{"bike_id":"6d3a1bc9-0168-46a0-8d06-2b755db45b0a","system_id":"levelo_inurba_marseille","lat":43.23063,"lon":5.3549,"is_reserved":false,"is_disabled":false,"rental_uris":{"android":"levelo://app?vid=6d3a1bc9-0168-46a0-8d06-2b755db45b0a","ios":"levelo://app?vid=6d3a1bc9-0168-46a0-8d06-2b755db45b0a"},"vehicle_type_id":"4","last_reported":1740064210,"current_range_meters":10000,"station_id":"cpo3342slgdg3j2ifvpg","pricing_plan_id":"cebpf4jnsgd1na2vs0mg"},{"bike_id":"0d34eb8c-c749-410b-a515-4800435ee933","system_id":"levelo_inurba_marseille","lat":43.24177,"lon":5.36383,"is_reserved":false,"is_disabled":false,"rental_uris":{"android":"levelo://app?vid=0d34eb8c-c749-410b-a515-4800435ee933","ios":"levelo://app?vid=0d34eb8c-c749-410b-a515-4800435ee933"},"vehicle_type_id":"4","last_reported":1740064210,"current_range_meters":10000,"station_id":"cpo36qri1sfpv3e86is0","pricing_plan_id":"cebpf4jnsgd1na2vs0mg"},{"bike_id":"51260738-eb47-429f-b02b-dda2dba9c171","system_id":"levelo_inurba_marseille","lat":43.27073,"lon":5.4228,"is_reserved":false,"is_disabled":false,"rental_uris":{"android":"levelo://app?vid=51260738-eb47-429f-b02b-dda2dba9c171","ios":"levelo://app?vid=51260738-eb47-429f-b02b-dda2dba9c171"},"vehicle_type_id":"4","last_reported":1740064210,"current_range_meters":11200,"station_id":"ce4bhk92rcd13ifvqgb0","pricing_plan_id":"cebpf4jnsgd1na2vs0mg"},{"bike_id":"4da6cc22-4d46-4a7c-8914-7b17d72dd95a","system_id":"levelo_inurba_marseille","lat":43.27175,"lon":5.4099,"is_reserved":false,"is_disabled":false,"rental_uris":{"android":"levelo://app?vid=4da6cc22-4d46-4a7c-8914-7b17d72dd95a","ios":"levelo://app?vid=4da6cc22-4d46-4a7c-8914-7b17d72dd95a"},"vehicle_type_id":"4","last_reported":1740064210,"current_range_meters":10000,"station_id":"ce4bhl12rcd13ifvqgf0","pricing_plan_id":"cebpf4jnsgd1na2vs0mg"},{"bike_id":"989f602e-0130-4ef7-ae12-aef6e6c0f6db","system_id":"levelo_inurba_marseille","lat":43.26695,"lon":5.38268,"is_reserved":false,"is_disabled":false,"rental_uris":{"android":"levelo://app?vid=989f602e-0130-4ef7-ae12-aef6e6c0f6db","ios":"levelo://app?vid=989f602e-0130-4ef7-ae12-aef6e6c0f6db"},"vehicle_type_id":"4","last_reported":1740064210,"current_range_meters":10000,"station_id":"ce4bhg92rcd13ifvqf90","pricing_plan_id":"cebpf4jnsgd1na2vs0mg"},{"bike_id":"36051563-c6f1-4abe-8e11-7dc410f42990","system_id":"levelo_inurba_marseille","lat":43.30155,"lon":5.38097,"is_reserved":false,"is_disabled":false,"rental_uris":{"android":"levelo://app?vid=36051563-c6f1-4abe-8e11-7dc410f42990","ios":"levelo://app?vid=36051563-c6f1-4abe-8e11-7dc410f42990"},"vehicle_type_id":"4","last_reported":1740064210,"current_range_meters":10800,"station_id":"ce4bgjp2rcd13ifvqbh0","pricing_plan_id":"cebpf4jnsgd1na2vs0mg"},{"bike_id":"de838e9f-a7d5-4318-9612-b43c54b7646d","system_id":"levelo_inurba_marseille","lat":43.337444,"lon":5.374475,"is_reserved":false,"is_disabled":false,"rental_uris":{"android":"levelo://app?vid=de838e9f-a7d5-4318-9612-b43c54b7646d","ios":"levelo://app?vid=de838e9f-a7d5-4318-9612-b43c54b7646d"},"vehicle_type_id":"4","last_reported":1740064210,"current_range_meters":10800,"station_id":"","pricing_plan_id":"cebpf4jnsgd1na2vs0mg"},{"bike_id":"341bae22-75f3-4766-8fd7-413e8c4a7fee","system_id":"levelo_inurba_marseille","lat":43.26872,"lon":5.40212,"is_reserved":false,"is_disabled":false,"rental_uris":{"android":"levelo://app?vid=341bae22-75f3-4766-8fd7-413e8c4a7fee","ios":"levelo://app?vid=341bae22-75f3-4766-8fd7-413e8c4a7fee"},"vehicle_type_id":"4","last_reported":1740064210,"current_range_meters":10800,"station_id":"cjm6bp8fraef2m0cb0m0","pricing_plan_id":"cebpf4jnsgd1na2vs0mg"},{"bike_id":"7b19744e-f24f-4b7d-94e9-2a8fd4a78d0d","system_id":"levelo_inurba_marseille","lat":43.23202,"lon":5.35546,"is_reserved":false,"is_disabled":false,"rental_uris":{"android":"levelo://app?vid=7b19744e-f24f-4b7d-94e9-2a8fd4a78d0d","ios":"levelo://app?vid=7b19744e-f24f-4b7d-94e9-2a8fd4a78d0d"},"vehicle_type_id":"4","last_reported":1740064210,"current_range_meters":10800,"station_id":"","pricing_plan_id":"cebpf4jnsgd1na2vs0mg"},{"bike_id":"30f781b4-0c37-4f06-8146-403e76b61b21","system_id":"levelo_inurba_marseille","lat":43.29733,"lon":5.37667,"is_reserved":false,"is_disabled":false,"rental_uris":{"android":"levelo://app?vid=30f781b4-0c37-4f06-8146-403e76b61b21","ios":"levelo://app?vid=30f781b4-0c37-4f06-8146-403e76b61b21"},"vehicle_type_id":"4","last_reported":1740064210,"current_range_meters":10800,"station_id":"","pricing_plan_id":"cebpf4jnsgd1na2vs0mg"},{"bike_id":"3dc24e05-a7f1-4a22-9da9-85b121fcd970","system_id":"levelo_inurba_marseille","lat":43.29898,"lon":5.4366,"is_reserved":false,"is_disabled":false,"rental_uris":{"android":"levelo://app?vid=3dc24e05-a7f1-4a22-9da9-85b121fcd970","ios":"levelo://app?vid=3dc24e05-a7f1-4a22-9da9-85b121fcd970"},"vehicle_type_id":"4","last_reported":1740064210,"current_range_meters":10800,"station_id":"ce4bhpp2rcd13ifvqhfg","pricing_plan_id":"cebpf4jnsgd1na2vs0mg"},{"bike_id":"9a7fd2bd-2099-4569-a977-f9fb55b15bd5","system_id":"levelo_inurba_marseille","lat":43.29276,"lon":5.36849,"is_reserved":false,"is_disabled":false,"rental_uris":{"android":"levelo://app?vid=9a7fd2bd-2099-4569-a977-f9fb55b15bd5","ios":"levelo://app?vid=9a7fd2bd-2099-4569-a977-f9fb55b15bd5"},"vehicle_type_id":"4","last_reported":1740064210,"current_range_meters":11200,"station_id":"ce4bhbp2rcd13ifvqesg","pricing_plan_id":"cebpf4jnsgd1na2vs0mg"},{"bike_id":"79e2bc00-14c4-4a61-bbea-1f5be256d9a2","system_id":"levelo_inurba_marseille","lat":43.29284,"lon":5.36847,"is_reserved":false,"is_disabled":false,"rental_uris":{"android":"levelo://app?vid=79e2bc00-14c4-4a61-bbea-1f5be256d9a2","ios":"levelo://app?vid=79e2bc00-14c4-4a61-bbea-1f5be256d9a2"},"vehicle_type_id":"4","last_reported":1740064210,"current_range_meters":11600,"station_id":"ce4bhbp2rcd13ifvqesg","pricing_plan_id":"cebpf4jnsgd1na2vs0mg"},{"bike_id":"635050f9-a2c9-4910-8267-ff5a32e2982d","system_id":"levelo_inurba_marseille","lat":43.24809,"lon":5.37457,"is_reserved":false,"is_disabled":true,"rental_uris":{"android":"levelo://app?vid=635050f9-a2c9-4910-8267-ff5a32e2982d","ios":"levelo://app?vid=635050f9-a2c9-4910-8267-ff5a32e2982d"},"vehicle_type_id":"4","last_reported":1740064210,"current_range_meters":11600,"station_id":"","pricing_plan_id":"cebpf4jnsgd1na2vs0mg"},{"bike_id":"3ebc1cd9-4c66-4f45-b886-8b491b059d05","system_id":"levelo_inurba_marseille","lat":43.2995,"lon":5.36528,"is_reserved":false,"is_disabled":false,"rental_uris":{"android":"levelo://app?vid=3ebc1cd9-4c66-4f45-b886-8b491b059d05","ios":"levelo://app?vid=3ebc1cd9-4c66-4f45-b886-8b491b059d05"},"vehicle_type_id":"4","last_reported":1740064210,"current_range_meters":12000,"station_id":"ce4bgm92rcd13ifvqbr0","pricing_plan_id":"cebpf4jnsgd1na2vs0mg"},{"bike_id":"225a9b69-9aad-46f8-bc2a-278fd4886410","system_id":"levelo_inurba_marseille","lat":43.28693,"lon":5.3739,"is_reserved":false,"is_disabled":false,"rental_uris":{"android":"levelo://app?vid=225a9b69-9aad-46f8-bc2a-278fd4886410","ios":"levelo://app?vid=225a9b69-9aad-46f8-bc2a-278fd4886410"},"vehicle_type_id":"4","last_reported":1740064210,"current_range_meters":12000,"station_id":"ce4bh3p2rcd13ifvqdq0","pricing_plan_id":"cebpf4jnsgd1na2vs0mg"},{"bike_id":"1bf8dc71-d8fc-4e23-8706-3e060c4f9a93","system_id":"levelo_inurba_marseille","lat":43.26571,"lon":5.39019,"is_reserved":false,"is_disabled":false,"rental_uris":{"android":"levelo://app?vid=1bf8dc71-d8fc-4e23-8706-3e060c4f9a93","ios":"levelo://app?vid=1bf8dc71-d8fc-4e23-8706-3e060c4f9a93"},"vehicle_type_id":"4","last_reported":1740064210,"current_range_meters":12000,"station_id":"ce4bhe12rcd13ifvqf30","pricing_plan_id":"cebpf4jnsgd1na2vs0mg"},{"bike_id":"aa2c0859-91a7-4b56-9ce4-48199a78d027","system_id":"levelo_inurba_marseille","lat":43.25117,"lon":5.40323,"is_reserved":false,"is_disabled":false,"rental_uris":{"android":"levelo://app?vid=aa2c0859-91a7-4b56-9ce4-48199a78d027","ios":"levelo://app?vid=aa2c0859-91a7-4b56-9ce4-48199a78d027"},"vehicle_type_id":"4","last_reported":1740064210,"current_range_meters":12000,"station_id":"ce4bhlh2rcd13ifvqgig","pricing_plan_id":"cebpf4jnsgd1na2vs0mg"},{"bike_id":"d8dc2332-214f-488b-8389-0e429277c9f8","system_id":"levelo_inurba_marseille","lat":43.26164,"lon":5.37478,"is_reserved":false,"is_disabled":false,"rental_uris":{"android":"levelo://app?vid=d8dc2332-214f-488b-8389-0e429277c9f8","ios":"levelo://app?vid=d8dc2332-214f-488b-8389-0e429277c9f8"},"vehicle_type_id":"4","last_reported":1740064210,"current_range_meters":12000,"station_id":"ce4bhgp2rcd13ifvqfc0","pricing_plan_id":"cebpf4jnsgd1na2vs0mg"},{"bike_id":"a70af82e-abb1-4052-a908-3f6d7385acd1","system_id":"levelo_inurba_marseille","lat":43.2861,"lon":5.3707,"is_reserved":false,"is_disabled":false,"rental_uris":{"android":"levelo://app?vid=a70af82e-abb1-4052-a908-3f6d7385acd1","ios":"levelo://app?vid=a70af82e-abb1-4052-a908-3f6d7385acd1"},"vehicle_type_id":"4","last_reported":1740064210,"current_range_meters":12000,"station_id":"ce4bht12rcd13ifvqi60","pricing_plan_id":"cebpf4jnsgd1na2vs0mg"},{"bike_id":"d381210f-ec9f-4537-b659-77f2c9b588e5","system_id":"levelo_inurba_marseille","lat":43.281417,"lon":5.386639,"is_reserved":false,"is_disabled":false,"rental_uris":{"android":"levelo://app?vid=d381210f-ec9f-4537-b659-77f2c9b588e5","ios":"levelo://app?vid=d381210f-ec9f-4537-b659-77f2c9b588e5"},"vehicle_type_id":"4","last_reported":1740064210,"current_range_meters":10000,"station_id":"ce4bhoh2rcd13ifvqh5g","pricing_plan_id":"cebpf4jnsgd1na2vs0mg"},{"bike_id":"3f206e3d-9792-415c-b880-498e213a93b0","system_id":"levelo_inurba_marseille","lat":43.29924,"lon":5.37483,"is_reserved":false,"is_disabled":false,"rental_uris":{"android":"levelo://app?vid=3f206e3d-9792-415c-b880-498e213a93b0","ios":"levelo://app?vid=3f206e3d-9792-415c-b880-498e213a93b0"},"vehicle_type_id":"4","last_reported":1740064210,"current_range_meters":12000,"station_id":"ce4bgjh2rcd13ifvqbg0","pricing_plan_id":"cebpf4jnsgd1na2vs0mg"},{"bike_id":"7e8b19a4-06e7-4abe-85b9-29278510c81c","system_id":"levelo_inurba_marseille","lat":43.2861,"lon":5.37064,"is_reserved":false,"is_disabled":false,"rental_uris":{"android":"levelo://app?vid=7e8b19a4-06e7-4abe-85b9-29278510c81c","ios":"levelo://app?vid=7e8b19a4-06e7-4abe-85b9-29278510c81c"},"vehicle_type_id":"4","last_reported":1740064210,"current_range_meters":12400,"station_id":"ce4bht12rcd13ifvqi60","pricing_plan_id":"cebpf4jnsgd1na2vs0mg"},{"bike_id":"bfa1afdd-6221-4a91-82bd-d18819a67e02","system_id":"levelo_inurba_marseille","lat":43.244238,"lon":5.370237,"is_reserved":false,"is_disabled":false,"rental_uris":{"android":"levelo://app?vid=bfa1afdd-6221-4a91-82bd-d18819a67e02","ios":"levelo://app?vid=bfa1afdd-6221-4a91-82bd-d18819a67e02"},"vehicle_type_id":"4","last_reported":1740064210,"current_range_meters":12400,"station_id":"ce4bhnp2rcd13ifvqgvg","pricing_plan_id":"cebpf4jnsgd1na2vs0mg"},{"bike_id":"ffccc8b3-1568-4590-8f55-6e9582007066","system_id":"levelo_inurba_marseille","lat":43.29802,"lon":5.39341,"is_reserved":false,"is_disabled":false,"rental_uris":{"android":"levelo://app?vid=ffccc8b3-1568-4590-8f55-6e9582007066","ios":"levelo://app?vid=ffccc8b3-1568-4590-8f55-6e9582007066"},"vehicle_type_id":"4","last_reported":1740064210,"current_range_meters":12400,"station_id":"chh1huq6cuj3fo74tm60","pricing_plan_id":"cebpf4jnsgd1na2vs0mg"},{"bike_id":"ad47c7e9-f91e-4c76-a821-e7d2287689bf","system_id":"levelo_inurba_marseille","lat":43.27954,"lon":5.41046,"is_reserved":false,"is_disabled":false,"rental_uris":{"android":"levelo://app?vid=ad47c7e9-f91e-4c76-a821-e7d2287689bf","ios":"levelo://app?vid=ad47c7e9-f91e-4c76-a821-e7d2287689bf"},"vehicle_type_id":"4","last_reported":1740064210,"current_range_meters":12400,"station_id":"ce4bhnp2rcd13ifvqh0g","pricing_plan_id":"cebpf4jnsgd1na2vs0mg"},{"bike_id":"d9102e21-6294-472e-8da2-16dfb746ec2b","system_id":"levelo_inurba_marseille","lat":43.28132,"lon":5.44565,"is_reserved":false,"is_disabled":false,"rental_uris":{"android":"levelo://app?vid=d9102e21-6294-472e-8da2-16dfb746ec2b","ios":"levelo://app?vid=d9102e21-6294-472e-8da2-16dfb746ec2b"},"vehicle_type_id":"4","last_reported":1740064210,"current_range_meters":12400,"station_id":"ce4bhnh2rcd13ifvqgtg","pricing_plan_id":"cebpf4jnsgd1na2vs0mg"},{"bike_id":"9aef2b50-02ae-4a6d-aa26-821348658263","system_id":"levelo_inurba_marseille","lat":43.28178,"lon":5.42628,"is_reserved":false,"is_disabled":false,"rental_uris":{"android":"levelo://app?vid=9aef2b50-02ae-4a6d-aa26-821348658263","ios":"levelo://app?vid=9aef2b50-02ae-4a6d-aa26-821348658263"},"vehicle_type_id":"4","last_reported":1740064210,"current_range_meters":12800,"station_id":"ce4bhnh2rcd13ifvqgug","pricing_plan_id":"cebpf4jnsgd1na2vs0mg"},{"bike_id":"9786a26a-800b-4393-bf29-c5e64b2b9571","system_id":"levelo_inurba_marseille","lat":43.3373,"lon":5.39185,"is_reserved":false,"is_disabled":false,"rental_uris":{"android":"levelo://app?vid=9786a26a-800b-4393-bf29-c5e64b2b9571","ios":"levelo://app?vid=9786a26a-800b-4393-bf29-c5e64b2b9571"},"vehicle_type_id":"4","last_reported":1740064210,"current_range_meters":13600,"station_id":"ce4bhr92rcd13ifvqhsg","pricing_plan_id":"cebpf4jnsgd1na2vs0mg"},{"bike_id":"8becd64c-893d-4a08-8876-b1598e031c70","system_id":"levelo_inurba_marseille","lat":43.27963,"lon":5.38691,"is_reserved":false,"is_disabled":true,"rental_uris":{"android":"levelo://app?vid=8becd64c-893d-4a08-8876-b1598e031c70","ios":"levelo://app?vid=8becd64c-893d-4a08-8876-b1598e031c70"},"vehicle_type_id":"4","last_reported":1740064210,"current_range_meters":12800,"station_id":"","pricing_plan_id":"cebpf4jnsgd1na2vs0mg"},{"bike_id":"909de625-7b1e-4b88-bd34-b4f2068aef8e","system_id":"levelo_inurba_marseille","lat":43.25866,"lon":5.39896,"is_reserved":false,"is_disabled":false,"rental_uris":{"android":"levelo://app?vid=909de625-7b1e-4b88-bd34-b4f2068aef8e","ios":"levelo://app?vid=909de625-7b1e-4b88-bd34-b4f2068aef8e"},"vehicle_type_id":"4","last_reported":1740064210,"current_range_meters":12400,"station_id":"ce4bhl92rcd13ifvqghg","pricing_plan_id":"cebpf4jnsgd1na2vs0mg"},{"bike_id":"280281eb-2dbc-4d04-8dda-9e2d434ebafa","system_id":"levelo_inurba_marseille","lat":43.29203,"lon":5.35816,"is_reserved":false,"is_disabled":false,"rental_uris":{"android":"levelo://app?vid=280281eb-2dbc-4d04-8dda-9e2d434ebafa","ios":"levelo://app?vid=280281eb-2dbc-4d04-8dda-9e2d434ebafa"},"vehicle_type_id":"4","last_reported":1740064210,"current_range_meters":11200,"station_id":"ce4bhb12rcd13ifvqel0","pricing_plan_id":"cebpf4jnsgd1na2vs0mg"},{"bike_id":"e687ea87-727f-4422-a8be-d48a032aab37","system_id":"levelo_inurba_marseille","lat":43.30791,"lon":5.38159,"is_reserved":false,"is_disabled":false,"rental_uris":{"android":"levelo://app?vid=e687ea87-727f-4422-a8be-d48a032aab37","ios":"levelo://app?vid=e687ea87-727f-4422-a8be-d48a032aab37"},"vehicle_type_id":"4","last_reported":1740064210,"current_range_meters":12800,"station_id":"ce4bgt12rcd13ifvqce0","pricing_plan_id":"cebpf4jnsgd1na2vs0mg"},{"bike_id":"21694990-a015-4a56-8f45-345e65d0d164","system_id":"levelo_inurba_marseille","lat":43.26502,"lon":5.39534,"is_reserved":false,"is_disabled":false,"rental_uris":{"android":"levelo://app?vid=21694990-a015-4a56-8f45-345e65d0d164","ios":"levelo://app?vid=21694990-a015-4a56-8f45-345e65d0d164"},"vehicle_type_id":"4","last_reported":1740064210,"current_range_meters":12800,"station_id":"ce4bhi12rcd13ifvqfq0","pricing_plan_id":"cebpf4jnsgd1na2vs0mg"},{"bike_id":"601afe4a-25bf-4b56-a5ec-02075de1ee82","system_id":"levelo_inurba_marseille","lat":43.23073,"lon":5.35503,"is_reserved":false,"is_disabled":false,"rental_uris":{"android":"levelo://app?vid=601afe4a-25bf-4b56-a5ec-02075de1ee82","ios":"levelo://app?vid=601afe4a-25bf-4b56-a5ec-02075de1ee82"},"vehicle_type_id":"4","last_reported":1740064210,"current_range_meters":12800,"station_id":"cpo3342slgdg3j2ifvpg","pricing_plan_id":"cebpf4jnsgd1na2vs0mg"},{"bike_id":"318618e9-a9ad-49b5-9dda-8928a2cea48e","system_id":"levelo_inurba_marseille","lat":43.248486,"lon":5.374772,"is_reserved":false,"is_disabled":false,"rental_uris":{"android":"levelo://app?vid=318618e9-a9ad-49b5-9dda-8928a2cea48e","ios":"levelo://app?vid=318618e9-a9ad-49b5-9dda-8928a2cea48e"},"vehicle_type_id":"4","last_reported":1740064210,"current_range_meters":12800,"station_id":"","pricing_plan_id":"cebpf4jnsgd1na2vs0mg"},{"bike_id":"74118f9e-5fd9-4784-9c04-eb719a43b810","system_id":"levelo_inurba_marseille","lat":43.29873,"lon":5.39726,"is_reserved":false,"is_disabled":false,"rental_uris":{"android":"levelo://app?vid=74118f9e-5fd9-4784-9c04-eb719a43b810","ios":"levelo://app?vid=74118f9e-5fd9-4784-9c04-eb719a43b810"},"vehicle_type_id":"4","last_reported":1740064210,"current_range_meters":12800,"station_id":"ce4bh0h2rcd13ifvqd50","pricing_plan_id":"cebpf4jnsgd1na2vs0mg"},{"bike_id":"6c8fc23e-74a6-40c1-a1cc-8474aa98f8b7","system_id":"levelo_inurba_marseille","lat":43.2761,"lon":5.38923,"is_reserved":false,"is_disabled":false,"rental_uris":{"android":"levelo://app?vid=6c8fc23e-74a6-40c1-a1cc-8474aa98f8b7","ios":"levelo://app?vid=6c8fc23e-74a6-40c1-a1cc-8474aa98f8b7"},"vehicle_type_id":"4","last_reported":1740064210,"current_range_meters":12800,"station_id":"","pricing_plan_id":"cebpf4jnsgd1na2vs0mg"},{"bike_id":"a02af011-19f6-4161-bf10-cce4da231e3f","system_id":"levelo_inurba_marseille","lat":43.3112,"lon":5.37771,"is_reserved":false,"is_disabled":false,"rental_uris":{"android":"levelo://app?vid=a02af011-19f6-4161-bf10-cce4da231e3f","ios":"levelo://app?vid=a02af011-19f6-4161-bf10-cce4da231e3f"},"vehicle_type_id":"4","last_reported":1740064210,"current_range_meters":10000,"station_id":"ce4bgt92rcd13ifvqcg0","pricing_plan_id":"cebpf4jnsgd1na2vs0mg"},{"bike_id":"5188ade3-3c50-4fd6-ba51-b2b072db969e","system_id":"levelo_inurba_marseille","lat":43.276766,"lon":5.388636,"is_reserved":false,"is_disabled":false,"rental_uris":{"android":"levelo://app?vid=5188ade3-3c50-4fd6-ba51-b2b072db969e","ios":"levelo://app?vid=5188ade3-3c50-4fd6-ba51-b2b072db969e"},"vehicle_type_id":"4","last_reported":1740064210,"current_range_meters":10800,"station_id":"ce4bh4p2rcd13ifvqe1g","pricing_plan_id":"cebpf4jnsgd1na2vs0mg"},{"bike_id":"2248a686-da6b-4ef8-880e-8db6a1c23aab","system_id":"levelo_inurba_marseille","lat":43.27363,"lon":5.36246,"is_reserved":false,"is_disabled":false,"rental_uris":{"android":"levelo://app?vid=2248a686-da6b-4ef8-880e-8db6a1c23aab","ios":"levelo://app?vid=2248a686-da6b-4ef8-880e-8db6a1c23aab"},"vehicle_type_id":"4","last_reported":1740064210,"current_range_meters":14000,"station_id":"","pricing_plan_id":"cebpf4jnsgd1na2vs0mg"},{"bike_id":"9bc28895-838b-4032-884d-98efa9ecfdc3","system_id":"levelo_inurba_marseille","lat":43.24167,"lon":5.36393,"is_reserved":false,"is_disabled":false,"rental_uris":{"android":"levelo://app?vid=9bc28895-838b-4032-884d-98efa9ecfdc3","ios":"levelo://app?vid=9bc28895-838b-4032-884d-98efa9ecfdc3"},"vehicle_type_id":"4","last_reported":1740064210,"current_range_meters":14000,"station_id":"cpo36qri1sfpv3e86is0","pricing_plan_id":"cebpf4jnsgd1na2vs0mg"},{"bike_id":"4bf89d48-4d10-4131-b955-06cc0d9f2d5a","system_id":"levelo_inurba_marseille","lat":43.29622,"lon":5.37158,"is_reserved":false,"is_disabled":false,"rental_uris":{"android":"levelo://app?vid=4bf89d48-4d10-4131-b955-06cc0d9f2d5a","ios":"levelo://app?vid=4bf89d48-4d10-4131-b955-06cc0d9f2d5a"},"vehicle_type_id":"4","last_reported":1740064210,"current_range_meters":10000,"station_id":"ce4bgnh2rcd13ifvqc0g","pricing_plan_id":"cebpf4jnsgd1na2vs0mg"},{"bike_id":"6c01187d-a499-45e1-a0b0-4ccb6eb76196","system_id":"levelo_inurba_marseille","lat":43.29964,"lon":5.38504,"is_reserved":false,"is_disabled":false,"rental_uris":{"android":"levelo://app?vid=6c01187d-a499-45e1-a0b0-4ccb6eb76196","ios":"levelo://app?vid=6c01187d-a499-45e1-a0b0-4ccb6eb76196"},"vehicle_type_id":"4","last_reported":1740064210,"current_range_meters":14400,"station_id":"ce4bgj92rcd13ifvqbd0","pricing_plan_id":"cebpf4jnsgd1na2vs0mg"},{"bike_id":"149d8985-eade-45fb-8852-dcf993418135","system_id":"levelo_inurba_marseille","lat":43.2956,"lon":5.42281,"is_reserved":false,"is_disabled":false,"rental_uris":{"android":"levelo://app?vid=149d8985-eade-45fb-8852-dcf993418135","ios":"levelo://app?vid=149d8985-eade-45fb-8852-dcf993418135"},"vehicle_type_id":"4","last_reported":1740064210,"current_range_meters":14400,"station_id":"","pricing_plan_id":"cebpf4jnsgd1na2vs0mg"},{"bike_id":"e53b91c8-67fd-4f40-acea-7f7adf31cf25","system_id":"levelo_inurba_marseille","lat":43.29759,"lon":5.38105,"is_reserved":false,"is_disabled":false,"rental_uris":{"android":"levelo://app?vid=e53b91c8-67fd-4f40-acea-7f7adf31cf25","ios":"levelo://app?vid=e53b91c8-67fd-4f40-acea-7f7adf31cf25"},"vehicle_type_id":"4","last_reported":1740064210,"current_range_meters":14400,"station_id":"","pricing_plan_id":"cebpf4jnsgd1na2vs0mg"},{"bike_id":"6fc0642e-14cf-4496-b6bc-f52ee13640fc","system_id":"levelo_inurba_marseille","lat":43.28419,"lon":5.3498,"is_reserved":false,"is_disabled":false,"rental_uris":{"android":"levelo://app?vid=6fc0642e-14cf-4496-b6bc-f52ee13640fc","ios":"levelo://app?vid=6fc0642e-14cf-4496-b6bc-f52ee13640fc"},"vehicle_type_id":"4","last_reported":1740064210,"current_range_meters":14400,"station_id":"ce4bhbh2rcd13ifvqepg","pricing_plan_id":"cebpf4jnsgd1na2vs0mg"},{"bike_id":"2ef0fbee-8aef-4ab3-a8a9-99c13c10bac6","system_id":"levelo_inurba_marseille","lat":43.28621,"lon":5.35104,"is_reserved":false,"is_disabled":false,"rental_uris":{"android":"levelo://app?vid=2ef0fbee-8aef-4ab3-a8a9-99c13c10bac6","ios":"levelo://app?vid=2ef0fbee-8aef-4ab3-a8a9-99c13c10bac6"},"vehicle_type_id":"4","last_reported":1740064210,"current_range_meters":14800,"station_id":"ce4bhch2rcd13ifvqeug","pricing_plan_id":"cebpf4jnsgd1na2vs0mg"},{"bike_id":"3447e7b6-f8ed-4872-a45f-cf3cd80ed8ad","system_id":"levelo_inurba_marseille","lat":43.29739,"lon":5.37909,"is_reserved":false,"is_disabled":false,"rental_uris":{"android":"levelo://app?vid=3447e7b6-f8ed-4872-a45f-cf3cd80ed8ad","ios":"levelo://app?vid=3447e7b6-f8ed-4872-a45f-cf3cd80ed8ad"},"vehicle_type_id":"4","last_reported":1740064210,"current_range_meters":15200,"station_id":"ce4bguh2rcd13ifvqckg","pricing_plan_id":"cebpf4jnsgd1na2vs0mg"},{"bike_id":"371d7914-6c97-4ea3-bf31-4ab9534e3289","system_id":"levelo_inurba_marseille","lat":43.30193,"lon":5.36595,"is_reserved":false,"is_disabled":false,"rental_uris":{"android":"levelo://app?vid=371d7914-6c97-4ea3-bf31-4ab9534e3289","ios":"levelo://app?vid=371d7914-6c97-4ea3-bf31-4ab9534e3289"},"vehicle_type_id":"4","last_reported":1740064210,"current_range_meters":14800,"station_id":"ce4bgrh2rcd13ifvqc8g","pricing_plan_id":"cebpf4jnsgd1na2vs0mg"},{"bike_id":"ce0caea6-6d1c-48ef-b0eb-fae6199eb4e1","system_id":"levelo_inurba_marseille","lat":43.23066,"lon":5.35508,"is_reserved":false,"is_disabled":false,"rental_uris":{"android":"levelo://app?vid=ce0caea6-6d1c-48ef-b0eb-fae6199eb4e1","ios":"levelo://app?vid=ce0caea6-6d1c-48ef-b0eb-fae6199eb4e1"},"vehicle_type_id":"4","last_reported":1740064210,"current_range_meters":15200,"station_id":"cpo3342slgdg3j2ifvpg","pricing_plan_id":"cebpf4jnsgd1na2vs0mg"},{"bike_id":"ab6edbcf-c340-409d-8760-6225ca23a344","system_id":"levelo_inurba_marseille","lat":43.27307,"lon":5.39087,"is_reserved":false,"is_disabled":false,"rental_uris":{"android":"levelo://app?vid=ab6edbcf-c340-409d-8760-6225ca23a344","ios":"levelo://app?vid=ab6edbcf-c340-409d-8760-6225ca23a344"},"vehicle_type_id":"4","last_reported":1740064210,"current_range_meters":15200,"station_id":"ce4bhgp2rcd13ifvqfe0","pricing_plan_id":"cebpf4jnsgd1na2vs0mg"},{"bike_id":"f9d4ce3b-2b5f-4026-82d3-9f5a9c430f6f","system_id":"levelo_inurba_marseille","lat":43.28005,"lon":5.40011,"is_reserved":false,"is_disabled":false,"rental_uris":{"android":"levelo://app?vid=f9d4ce3b-2b5f-4026-82d3-9f5a9c430f6f","ios":"levelo://app?vid=f9d4ce3b-2b5f-4026-82d3-9f5a9c430f6f"},"vehicle_type_id":"4","last_reported":1740064210,"current_range_meters":15200,"station_id":"","pricing_plan_id":"cebpf4jnsgd1na2vs0mg"},{"bike_id":"d5af9da1-b877-4417-933c-6dccb502c7ab","system_id":"levelo_inurba_marseille","lat":43.25884,"lon":5.39914,"is_reserved":false,"is_disabled":false,"rental_uris":{"android":"levelo://app?vid=d5af9da1-b877-4417-933c-6dccb502c7ab","ios":"levelo://app?vid=d5af9da1-b877-4417-933c-6dccb502c7ab"},"vehicle_type_id":"4","last_reported":1740064210,"current_range_meters":15200,"station_id":"ce4bhl92rcd13ifvqghg","pricing_plan_id":"cebpf4jnsgd1na2vs0mg"},{"bike_id":"5a001ab7-5813-41f4-b1cb-bc211d4e2327","system_id":"levelo_inurba_marseille","lat":43.27995,"lon":5.40019,"is_reserved":false,"is_disabled":false,"rental_uris":{"android":"levelo://app?vid=5a001ab7-5813-41f4-b1cb-bc211d4e2327","ios":"levelo://app?vid=5a001ab7-5813-41f4-b1cb-bc211d4e2327"},"vehicle_type_id":"4","last_reported":1740064210,"current_range_meters":16000,"station_id":"ce4bho92rcd13ifvqh4g","pricing_plan_id":"cebpf4jnsgd1na2vs0mg"},{"bike_id":"32c34684-ed31-4675-a249-c49bc52a2d0b","system_id":"levelo_inurba_marseille","lat":43.28614,"lon":5.35101,"is_reserved":false,"is_disabled":false,"rental_uris":{"android":"levelo://app?vid=32c34684-ed31-4675-a249-c49bc52a2d0b","ios":"levelo://app?vid=32c34684-ed31-4675-a249-c49bc52a2d0b"},"vehicle_type_id":"4","last_reported":1740064210,"current_range_meters":16000,"station_id":"ce4bhch2rcd13ifvqeug","pricing_plan_id":"cebpf4jnsgd1na2vs0mg"},{"bike_id":"0b7f18f8-7b0e-4b8b-81eb-cfe3a208ae1b","system_id":"levelo_inurba_marseille","lat":43.30313,"lon":5.36886,"is_reserved":false,"is_disabled":false,"rental_uris":{"android":"levelo://app?vid=0b7f18f8-7b0e-4b8b-81eb-cfe3a208ae1b","ios":"levelo://app?vid=0b7f18f8-7b0e-4b8b-81eb-cfe3a208ae1b"},"vehicle_type_id":"4","last_reported":1740064210,"current_range_meters":16000,"station_id":"ce4bgqh2rcd13ifvqc5g","pricing_plan_id":"cebpf4jnsgd1na2vs0mg"},{"bike_id":"c72fcdb0-826e-424c-ade7-557f9c84df0a","system_id":"levelo_inurba_marseille","lat":43.27201,"lon":5.39206,"is_reserved":false,"is_disabled":false,"rental_uris":{"android":"levelo://app?vid=c72fcdb0-826e-424c-ade7-557f9c84df0a","ios":"levelo://app?vid=c72fcdb0-826e-424c-ade7-557f9c84df0a"},"vehicle_type_id":"4","last_reported":1740064210,"current_range_meters":16000,"station_id":"ce4bhhp2rcd13ifvqfm0","pricing_plan_id":"cebpf4jnsgd1na2vs0mg"},{"bike_id":"be52af33-7b30-4a79-add1-18b2b5c09674","system_id":"levelo_inurba_marseille","lat":43.29596,"lon":5.38096,"is_reserved":false,"is_disabled":false,"rental_uris":{"android":"levelo://app?vid=be52af33-7b30-4a79-add1-18b2b5c09674","ios":"levelo://app?vid=be52af33-7b30-4a79-add1-18b2b5c09674"},"vehicle_type_id":"4","last_reported":1740064210,"current_range_meters":16000,"station_id":"ce4bgl12rcd13ifvqbo0","pricing_plan_id":"cebpf4jnsgd1na2vs0mg"},{"bike_id":"0a56f9d1-0a16-443d-8e0e-b767591ef2e6","system_id":"levelo_inurba_marseille","lat":43.26854,"lon":5.40189,"is_reserved":false,"is_disabled":false,"rental_uris":{"android":"levelo://app?vid=0a56f9d1-0a16-443d-8e0e-b767591ef2e6","ios":"levelo://app?vid=0a56f9d1-0a16-443d-8e0e-b767591ef2e6"},"vehicle_type_id":"4","last_reported":1740064210,"current_range_meters":16000,"station_id":"ce501612rcd8frsf0b60","pricing_plan_id":"cebpf4jnsgd1na2vs0mg"},{"bike_id":"62847bb9-3ba1-4cd0-9767-b73868eed646","system_id":"levelo_inurba_marseille","lat":43.29185,"lon":5.39317,"is_reserved":false,"is_disabled":false,"rental_uris":{"android":"levelo://app?vid=62847bb9-3ba1-4cd0-9767-b73868eed646","ios":"levelo://app?vid=62847bb9-3ba1-4cd0-9767-b73868eed646"},"vehicle_type_id":"4","last_reported":1740064210,"current_range_meters":16000,"station_id":"ce4bh192rcd13ifvqdd0","pricing_plan_id":"cebpf4jnsgd1na2vs0mg"},{"bike_id":"4295009f-39da-4796-8d8a-9cfd90bfc9e6","system_id":"levelo_inurba_marseille","lat":43.29929,"lon":5.37481,"is_reserved":false,"is_disabled":false,"rental_uris":{"android":"levelo://app?vid=4295009f-39da-4796-8d8a-9cfd90bfc9e6","ios":"levelo://app?vid=4295009f-39da-4796-8d8a-9cfd90bfc9e6"},"vehicle_type_id":"4","last_reported":1740064210,"current_range_meters":16000,"station_id":"ce4bgjh2rcd13ifvqbg0","pricing_plan_id":"cebpf4jnsgd1na2vs0mg"},{"bike_id":"01791dd9-525f-4e81-a2f4-956745a84335","system_id":"levelo_inurba_marseille","lat":43.28617,"lon":5.3511,"is_reserved":false,"is_disabled":false,"rental_uris":{"android":"levelo://app?vid=01791dd9-525f-4e81-a2f4-956745a84335","ios":"levelo://app?vid=01791dd9-525f-4e81-a2f4-956745a84335"},"vehicle_type_id":"4","last_reported":1740064210,"current_range_meters":16000,"station_id":"ce4bhch2rcd13ifvqeug","pricing_plan_id":"cebpf4jnsgd1na2vs0mg"},{"bike_id":"6106393f-3645-48aa-b132-3d2def6b4674","system_id":"levelo_inurba_marseille","lat":43.30443,"lon":5.38051,"is_reserved":false,"is_disabled":false,"rental_uris":{"android":"levelo://app?vid=6106393f-3645-48aa-b132-3d2def6b4674","ios":"levelo://app?vid=6106393f-3645-48aa-b132-3d2def6b4674"},"vehicle_type_id":"4","last_reported":1740064210,"current_range_meters":16000,"station_id":"ce4bgv92rcd13ifvqcq0","pricing_plan_id":"cebpf4jnsgd1na2vs0mg"},{"bike_id":"9db7f4fa-3796-4c6d-a241-c50165c36d50","system_id":"levelo_inurba_marseille","lat":43.29641,"lon":5.40607,"is_reserved":false,"is_disabled":false,"rental_uris":{"android":"levelo://app?vid=9db7f4fa-3796-4c6d-a241-c50165c36d50","ios":"levelo://app?vid=9db7f4fa-3796-4c6d-a241-c50165c36d50"},"vehicle_type_id":"4","last_reported":1740064210,"current_range_meters":17200,"station_id":"ce4bh0h2rcd13ifvqd60","pricing_plan_id":"cebpf4jnsgd1na2vs0mg"},{"bike_id":"b78e3ff0-5e14-4604-a0ad-749f65c2c94c","system_id":"levelo_inurba_marseille","lat":43.27953,"lon":5.41039,"is_reserved":false,"is_disabled":false,"rental_uris":{"android":"levelo://app?vid=b78e3ff0-5e14-4604-a0ad-749f65c2c94c","ios":"levelo://app?vid=b78e3ff0-5e14-4604-a0ad-749f65c2c94c"},"vehicle_type_id":"4","last_reported":1740064210,"current_range_meters":16400,"station_id":"","pricing_plan_id":"cebpf4jnsgd1na2vs0mg"},{"bike_id":"adc0efd2-e5b9-4c6d-81b3-a0342d1f1844","system_id":"levelo_inurba_marseille","lat":43.29381,"lon":5.3785,"is_reserved":false,"is_disabled":false,"rental_uris":{"android":"levelo://app?vid=adc0efd2-e5b9-4c6d-81b3-a0342d1f1844","ios":"levelo://app?vid=adc0efd2-e5b9-4c6d-81b3-a0342d1f1844"},"vehicle_type_id":"4","last_reported":1740064210,"current_range_meters":16400,"station_id":"ce4bgjh2rcd13ifvqbf0","pricing_plan_id":"cebpf4jnsgd1na2vs0mg"},{"bike_id":"0acb53c6-517f-4b0b-81a6-4e247c67e378","system_id":"levelo_inurba_marseille","lat":43.24182,"lon":5.3973,"is_reserved":false,"is_disabled":false,"rental_uris":{"android":"levelo://app?vid=0acb53c6-517f-4b0b-81a6-4e247c67e378","ios":"levelo://app?vid=0acb53c6-517f-4b0b-81a6-4e247c67e378"},"vehicle_type_id":"4","last_reported":1740064210,"current_range_meters":16400,"station_id":"ce4bhn12rcd13ifvqgpg","pricing_plan_id":"cebpf4jnsgd1na2vs0mg"},{"bike_id":"96fbdd41-6e32-449c-95bf-cef2bc95fe19","system_id":"levelo_inurba_marseille","lat":43.2937,"lon":5.37833,"is_reserved":false,"is_disabled":false,"rental_uris":{"android":"levelo://app?vid=96fbdd41-6e32-449c-95bf-cef2bc95fe19","ios":"levelo://app?vid=96fbdd41-6e32-449c-95bf-cef2bc95fe19"},"vehicle_type_id":"4","last_reported":1740064210,"current_range_meters":16400,"station_id":"","pricing_plan_id":"cebpf4jnsgd1na2vs0mg"},{"bike_id":"7ec4ce73-dba4-42db-8eb9-beeeb585629f","system_id":"levelo_inurba_marseille","lat":43.29568,"lon":5.37506,"is_reserved":false,"is_disabled":false,"rental_uris":{"android":"levelo://app?vid=7ec4ce73-dba4-42db-8eb9-beeeb585629f","ios":"levelo://app?vid=7ec4ce73-dba4-42db-8eb9-beeeb585629f"},"vehicle_type_id":"4","last_reported":1740064210,"current_range_meters":16400,"station_id":"ce4bgh92rcd13ifvqb50","pricing_plan_id":"cebpf4jnsgd1na2vs0mg"},{"bike_id":"76a1d742-84f2-439e-8b87-72eb73bf6cb6","system_id":"levelo_inurba_marseille","lat":43.26214,"lon":5.3743,"is_reserved":false,"is_disabled":false,"rental_uris":{"android":"levelo://app?vid=76a1d742-84f2-439e-8b87-72eb73bf6cb6","ios":"levelo://app?vid=76a1d742-84f2-439e-8b87-72eb73bf6cb6"},"vehicle_type_id":"4","last_reported":1740064210,"current_range_meters":16400,"station_id":"ce4bhgp2rcd13ifvqfc0","pricing_plan_id":"cebpf4jnsgd1na2vs0mg"},{"bike_id":"58a23814-e64a-4a39-a5d1-b82d31556d7d","system_id":"levelo_inurba_marseille","lat":43.293718,"lon":5.37856,"is_reserved":false,"is_disabled":false,"rental_uris":{"android":"levelo://app?vid=58a23814-e64a-4a39-a5d1-b82d31556d7d","ios":"levelo://app?vid=58a23814-e64a-4a39-a5d1-b82d31556d7d"},"vehicle_type_id":"4","last_reported":1740064210,"current_range_meters":17600,"station_id":"ce4bhh12rcd13ifvqfg0","pricing_plan_id":"cebpf4jnsgd1na2vs0mg"},{"bike_id":"b253065d-1074-4a51-bc2b-4e15dba86004","system_id":"levelo_inurba_marseille","lat":43.23059,"lon":5.35495,"is_reserved":false,"is_disabled":false,"rental_uris":{"android":"levelo://app?vid=b253065d-1074-4a51-bc2b-4e15dba86004","ios":"levelo://app?vid=b253065d-1074-4a51-bc2b-4e15dba86004"},"vehicle_type_id":"4","last_reported":1740064210,"current_range_meters":16400,"station_id":"cpo3342slgdg3j2ifvpg","pricing_plan_id":"cebpf4jnsgd1na2vs0mg"},{"bike_id":"c01783cd-a366-44bb-9426-0bd602efdb52","system_id":"levelo_inurba_marseille","lat":43.27978,"lon":5.38748,"is_reserved":false,"is_disabled":false,"rental_uris":{"android":"levelo://app?vid=c01783cd-a366-44bb-9426-0bd602efdb52","ios":"levelo://app?vid=c01783cd-a366-44bb-9426-0bd602efdb52"},"vehicle_type_id":"4","last_reported":1740064210,"current_range_meters":16800,"station_id":"ce4bhg12rcd13ifvqf80","pricing_plan_id":"cebpf4jnsgd1na2vs0mg"},{"bike_id":"0c6dfc2a-5d46-4b56-a56c-62302e24179b","system_id":"levelo_inurba_marseille","lat":43.29848,"lon":5.36279,"is_reserved":false,"is_disabled":false,"rental_uris":{"android":"levelo://app?vid=0c6dfc2a-5d46-4b56-a56c-62302e24179b","ios":"levelo://app?vid=0c6dfc2a-5d46-4b56-a56c-62302e24179b"},"vehicle_type_id":"4","last_reported":1740064210,"current_range_meters":16800,"station_id":"ce4bgpp2rcd13ifvqc3g","pricing_plan_id":"cebpf4jnsgd1na2vs0mg"},{"bike_id":"26341003-2319-4fe1-83be-f2592c2d0b12","system_id":"levelo_inurba_marseille","lat":43.262273,"lon":5.404058,"is_reserved":false,"is_disabled":false,"rental_uris":{"android":"levelo://app?vid=26341003-2319-4fe1-83be-f2592c2d0b12","ios":"levelo://app?vid=26341003-2319-4fe1-83be-f2592c2d0b12"},"vehicle_type_id":"4","last_reported":1740064210,"current_range_meters":16800,"station_id":"ce4bhmh2rcd13ifvqgmg","pricing_plan_id":"cebpf4jnsgd1na2vs0mg"},{"bike_id":"1736bdf7-065e-458a-8be8-137efe82e48a","system_id":"levelo_inurba_marseille","lat":43.33097,"lon":5.39055,"is_reserved":false,"is_disabled":false,"rental_uris":{"android":"levelo://app?vid=1736bdf7-065e-458a-8be8-137efe82e48a","ios":"levelo://app?vid=1736bdf7-065e-458a-8be8-137efe82e48a"},"vehicle_type_id":"4","last_reported":1740064210,"current_range_meters":16800,"station_id":"ce4bhqp2rcd13ifvqhog","pricing_plan_id":"cebpf4jnsgd1na2vs0mg"},{"bike_id":"94840e35-c807-45ab-bff9-03e07a98762d","system_id":"levelo_inurba_marseille","lat":43.294188,"lon":5.386257,"is_reserved":false,"is_disabled":false,"rental_uris":{"android":"levelo://app?vid=94840e35-c807-45ab-bff9-03e07a98762d","ios":"levelo://app?vid=94840e35-c807-45ab-bff9-03e07a98762d"},"vehicle_type_id":"4","last_reported":1740064210,"current_range_meters":16800,"station_id":"ce4bh3h2rcd13ifvqdn0","pricing_plan_id":"cebpf4jnsgd1na2vs0mg"},{"bike_id":"fce6ae32-8c4d-4702-aca1-1e2fefaefc6a","system_id":"levelo_inurba_marseille","lat":43.28425,"lon":5.34987,"is_reserved":false,"is_disabled":false,"rental_uris":{"android":"levelo://app?vid=fce6ae32-8c4d-4702-aca1-1e2fefaefc6a","ios":"levelo://app?vid=fce6ae32-8c4d-4702-aca1-1e2fefaefc6a"},"vehicle_type_id":"4","last_reported":1740064210,"current_range_meters":17200,"station_id":"ce4bhbh2rcd13ifvqepg","pricing_plan_id":"cebpf4jnsgd1na2vs0mg"},{"bike_id":"790b0ff7-55c5-4c35-9f2a-78c4076d7d17","system_id":"levelo_inurba_marseille","lat":43.27953,"lon":5.38505,"is_reserved":false,"is_disabled":false,"rental_uris":{"android":"levelo://app?vid=790b0ff7-55c5-4c35-9f2a-78c4076d7d17","ios":"levelo://app?vid=790b0ff7-55c5-4c35-9f2a-78c4076d7d17"},"vehicle_type_id":"4","last_reported":1740064210,"current_range_meters":16800,"station_id":"","pricing_plan_id":"cebpf4jnsgd1na2vs0mg"},{"bike_id":"5c979825-5eb1-42ff-ac54-c61e39783a0e","system_id":"levelo_inurba_marseille","lat":43.29813,"lon":5.38091,"is_reserved":false,"is_disabled":false,"rental_uris":{"android":"levelo://app?vid=5c979825-5eb1-42ff-ac54-c61e39783a0e","ios":"levelo://app?vid=5c979825-5eb1-42ff-ac54-c61e39783a0e"},"vehicle_type_id":"4","last_reported":1740064210,"current_range_meters":16800,"station_id":"ce4bgip2rcd13ifvqbb0","pricing_plan_id":"cebpf4jnsgd1na2vs0mg"},{"bike_id":"607c004c-2e60-47e5-b16a-ad435da5f919","system_id":"levelo_inurba_marseille","lat":43.27214,"lon":5.39185,"is_reserved":false,"is_disabled":false,"rental_uris":{"android":"levelo://app?vid=607c004c-2e60-47e5-b16a-ad435da5f919","ios":"levelo://app?vid=607c004c-2e60-47e5-b16a-ad435da5f919"},"vehicle_type_id":"4","last_reported":1740064210,"current_range_meters":16800,"station_id":"ce4bhhp2rcd13ifvqfm0","pricing_plan_id":"cebpf4jnsgd1na2vs0mg"},{"bike_id":"b0e1e2f0-9fad-449a-805d-ceba596fda04","system_id":"levelo_inurba_marseille","lat":43.27825,"lon":5.40706,"is_reserved":false,"is_disabled":false,"rental_uris":{"android":"levelo://app?vid=b0e1e2f0-9fad-449a-805d-ceba596fda04","ios":"levelo://app?vid=b0e1e2f0-9fad-449a-805d-ceba596fda04"},"vehicle_type_id":"4","last_reported":1740064210,"current_range_meters":16800,"station_id":"ce4bhnh2rcd13ifvqgtg","pricing_plan_id":"cebpf4jnsgd1na2vs0mg"},{"bike_id":"19bfce42-5567-4a3e-a92c-816040f913a2","system_id":"levelo_inurba_marseille","lat":43.33623,"lon":5.40997,"is_reserved":false,"is_disabled":false,"rental_uris":{"android":"levelo://app?vid=19bfce42-5567-4a3e-a92c-816040f913a2","ios":"levelo://app?vid=19bfce42-5567-4a3e-a92c-816040f913a2"},"vehicle_type_id":"4","last_reported":1740064210,"current_range_meters":16800,"station_id":"ce4bhqh2rcd13ifvqhmg","pricing_plan_id":"cebpf4jnsgd1na2vs0mg"},{"bike_id":"7ca31e81-31e0-4341-a71c-9907b7bfff8b","system_id":"levelo_inurba_marseille","lat":43.29882,"lon":5.38914,"is_reserved":false,"is_disabled":false,"rental_uris":{"android":"levelo://app?vid=7ca31e81-31e0-4341-a71c-9907b7bfff8b","ios":"levelo://app?vid=7ca31e81-31e0-4341-a71c-9907b7bfff8b"},"vehicle_type_id":"4","last_reported":1740064210,"current_range_meters":16800,"station_id":"ce4bh392rcd13ifvqdl0","pricing_plan_id":"cebpf4jnsgd1na2vs0mg"},{"bike_id":"4e11b30d-0226-4b04-813f-4404772688cd","system_id":"levelo_inurba_marseille","lat":43.29001,"lon":5.37145,"is_reserved":false,"is_disabled":false,"rental_uris":{"android":"levelo://app?vid=4e11b30d-0226-4b04-813f-4404772688cd","ios":"levelo://app?vid=4e11b30d-0226-4b04-813f-4404772688cd"},"vehicle_type_id":"4","last_reported":1740064210,"current_range_meters":16800,"station_id":"","pricing_plan_id":"cebpf4jnsgd1na2vs0mg"},{"bike_id":"95bf57d2-9d5e-46e9-955d-d16e9478a33d","system_id":"levelo_inurba_marseille","lat":43.25013,"lon":5.38928,"is_reserved":false,"is_disabled":false,"rental_uris":{"android":"levelo://app?vid=95bf57d2-9d5e-46e9-955d-d16e9478a33d","ios":"levelo://app?vid=95bf57d2-9d5e-46e9-955d-d16e9478a33d"},"vehicle_type_id":"4","last_reported":1740064210,"current_range_meters":17200,"station_id":"","pricing_plan_id":"cebpf4jnsgd1na2vs0mg"},{"bike_id":"e8a30368-bb9b-4936-bc1b-9cbdc5ae7cf4","system_id":"levelo_inurba_marseille","lat":43.262578,"lon":5.404552,"is_reserved":false,"is_disabled":false,"rental_uris":{"android":"levelo://app?vid=e8a30368-bb9b-4936-bc1b-9cbdc5ae7cf4","ios":"levelo://app?vid=e8a30368-bb9b-4936-bc1b-9cbdc5ae7cf4"},"vehicle_type_id":"4","last_reported":1740064210,"current_range_meters":17200,"station_id":"ce4bhmh2rcd13ifvqgmg","pricing_plan_id":"cebpf4jnsgd1na2vs0mg"},{"bike_id":"0f9b09d5-96c5-46f8-a357-5f2b259626e5","system_id":"levelo_inurba_marseille","lat":43.29665,"lon":5.37772,"is_reserved":false,"is_disabled":false,"rental_uris":{"android":"levelo://app?vid=0f9b09d5-96c5-46f8-a357-5f2b259626e5","ios":"levelo://app?vid=0f9b09d5-96c5-46f8-a357-5f2b259626e5"},"vehicle_type_id":"4","last_reported":1740064210,"current_range_meters":17200,"station_id":"","pricing_plan_id":"cebpf4jnsgd1na2vs0mg"},{"bike_id":"87891dce-3352-4418-9015-a26c990ecd6e","system_id":"levelo_inurba_marseille","lat":43.23071,"lon":5.35496,"is_reserved":false,"is_disabled":false,"rental_uris":{"android":"levelo://app?vid=87891dce-3352-4418-9015-a26c990ecd6e","ios":"levelo://app?vid=87891dce-3352-4418-9015-a26c990ecd6e"},"vehicle_type_id":"4","last_reported":1740064210,"current_range_meters":17200,"station_id":"cpo3342slgdg3j2ifvpg","pricing_plan_id":"cebpf4jnsgd1na2vs0mg"},{"bike_id":"4347ac42-d6bd-4898-bb54-db9da5fa21c6","system_id":"levelo_inurba_marseille","lat":43.26812,"lon":5.40254,"is_reserved":false,"is_disabled":false,"rental_uris":{"android":"levelo://app?vid=4347ac42-d6bd-4898-bb54-db9da5fa21c6","ios":"levelo://app?vid=4347ac42-d6bd-4898-bb54-db9da5fa21c6"},"vehicle_type_id":"4","last_reported":1740064210,"current_range_meters":17200,"station_id":"ce501612rcd8frsf0b60","pricing_plan_id":"cebpf4jnsgd1na2vs0mg"},{"bike_id":"6ac01c27-4e57-4962-954d-04b7361441dd","system_id":"levelo_inurba_marseille","lat":43.30803,"lon":5.37334,"is_reserved":false,"is_disabled":false,"rental_uris":{"android":"levelo://app?vid=6ac01c27-4e57-4962-954d-04b7361441dd","ios":"levelo://app?vid=6ac01c27-4e57-4962-954d-04b7361441dd"},"vehicle_type_id":"4","last_reported":1740064210,"current_range_meters":17200,"station_id":"ce4bgt92rcd13ifvqcg0","pricing_plan_id":"cebpf4jnsgd1na2vs0mg"},{"bike_id":"03d52c62-1ab5-491c-87c6-7ed23db03d4a","system_id":"levelo_inurba_marseille","lat":43.24081,"lon":5.37757,"is_reserved":false,"is_disabled":false,"rental_uris":{"android":"levelo://app?vid=03d52c62-1ab5-491c-87c6-7ed23db03d4a","ios":"levelo://app?vid=03d52c62-1ab5-491c-87c6-7ed23db03d4a"},"vehicle_type_id":"4","last_reported":1740064210,"current_range_meters":16800,"station_id":"ce4bhnp2rcd13ifvqgvg","pricing_plan_id":"cebpf4jnsgd1na2vs0mg"},{"bike_id":"fdedbd6b-e360-4c87-aeb8-c91f1d7b0321","system_id":"levelo_inurba_marseille","lat":43.30911,"lon":5.37193,"is_reserved":false,"is_disabled":false,"rental_uris":{"android":"levelo://app?vid=fdedbd6b-e360-4c87-aeb8-c91f1d7b0321","ios":"levelo://app?vid=fdedbd6b-e360-4c87-aeb8-c91f1d7b0321"},"vehicle_type_id":"4","last_reported":1740064210,"current_range_meters":17600,"station_id":"ce4bguh2rcd13ifvqckg","pricing_plan_id":"cebpf4jnsgd1na2vs0mg"},{"bike_id":"282aea0b-3b38-483d-a530-a6d0b7eb9dda","system_id":"levelo_inurba_marseille","lat":43.26497,"lon":5.39545,"is_reserved":false,"is_disabled":false,"rental_uris":{"android":"levelo://app?vid=282aea0b-3b38-483d-a530-a6d0b7eb9dda","ios":"levelo://app?vid=282aea0b-3b38-483d-a530-a6d0b7eb9dda"},"vehicle_type_id":"4","last_reported":1740064210,"current_range_meters":17600,"station_id":"ce4bhi12rcd13ifvqfq0","pricing_plan_id":"cebpf4jnsgd1na2vs0mg"},{"bike_id":"042c2f36-9707-481c-b30e-4180f3cae77a","system_id":"levelo_inurba_marseille","lat":43.337444,"lon":5.374475,"is_reserved":false,"is_disabled":false,"rental_uris":{"android":"levelo://app?vid=042c2f36-9707-481c-b30e-4180f3cae77a","ios":"levelo://app?vid=042c2f36-9707-481c-b30e-4180f3cae77a"},"vehicle_type_id":"4","last_reported":1740064210,"current_range_meters":17600,"station_id":"ce4bh012rcd13ifvqcv0","pricing_plan_id":"cebpf4jnsgd1na2vs0mg"},{"bike_id":"7f77d183-c231-456a-93e4-32a63d975eb6","system_id":"levelo_inurba_marseille","lat":43.25085,"lon":5.395133,"is_reserved":false,"is_disabled":false,"rental_uris":{"android":"levelo://app?vid=7f77d183-c231-456a-93e4-32a63d975eb6","ios":"levelo://app?vid=7f77d183-c231-456a-93e4-32a63d975eb6"},"vehicle_type_id":"4","last_reported":1740064210,"current_range_meters":17600,"station_id":"ce4bhn12rcd13ifvqgqg","pricing_plan_id":"cebpf4jnsgd1na2vs0mg"},{"bike_id":"472ccb12-5bb1-4598-9c58-71ad0074e1ee","system_id":"levelo_inurba_marseille","lat":43.29413,"lon":5.38639,"is_reserved":false,"is_disabled":false,"rental_uris":{"android":"levelo://app?vid=472ccb12-5bb1-4598-9c58-71ad0074e1ee","ios":"levelo://app?vid=472ccb12-5bb1-4598-9c58-71ad0074e1ee"},"vehicle_type_id":"4","last_reported":1740064210,"current_range_meters":17600,"station_id":"ce4bh2h2rcd13ifvqdh0","pricing_plan_id":"cebpf4jnsgd1na2vs0mg"},{"bike_id":"3495575a-5b48-44ba-bf63-ee42935bb899","system_id":"levelo_inurba_marseille","lat":43.29877,"lon":5.39716,"is_reserved":false,"is_disabled":false,"rental_uris":{"android":"levelo://app?vid=3495575a-5b48-44ba-bf63-ee42935bb899","ios":"levelo://app?vid=3495575a-5b48-44ba-bf63-ee42935bb899"},"vehicle_type_id":"4","last_reported":1740064210,"current_range_meters":17600,"station_id":"","pricing_plan_id":"cebpf4jnsgd1na2vs0mg"},{"bike_id":"f800bf4a-a88e-43ea-b4b8-11875d2f53c7","system_id":"levelo_inurba_marseille","lat":43.2482,"lon":5.37446,"is_reserved":false,"is_disabled":true,"rental_uris":{"android":"levelo://app?vid=f800bf4a-a88e-43ea-b4b8-11875d2f53c7","ios":"levelo://app?vid=f800bf4a-a88e-43ea-b4b8-11875d2f53c7"},"vehicle_type_id":"4","last_reported":1740064210,"current_range_meters":17600,"station_id":"","pricing_plan_id":"cebpf4jnsgd1na2vs0mg"},{"bike_id":"3a18a060-43b3-487c-bb23-8493264d5ba4","system_id":"levelo_inurba_marseille","lat":43.2418,"lon":5.36407,"is_reserved":false,"is_disabled":true,"rental_uris":{"android":"levelo://app?vid=3a18a060-43b3-487c-bb23-8493264d5ba4","ios":"levelo://app?vid=3a18a060-43b3-487c-bb23-8493264d5ba4"},"vehicle_type_id":"4","last_reported":1740064210,"current_range_meters":17600,"station_id":"","pricing_plan_id":"cebpf4jnsgd1na2vs0mg"},{"bike_id":"44e45a0d-80e4-4777-b789-c9ff84761c0c","system_id":"levelo_inurba_marseille","lat":43.29272,"lon":5.3942,"is_reserved":false,"is_disabled":false,"rental_uris":{"android":"levelo://app?vid=44e45a0d-80e4-4777-b789-c9ff84761c0c","ios":"levelo://app?vid=44e45a0d-80e4-4777-b789-c9ff84761c0c"},"vehicle_type_id":"4","last_reported":1740064210,"current_range_meters":17600,"station_id":"","pricing_plan_id":"cebpf4jnsgd1na2vs0mg"},{"bike_id":"99c320af-36c2-439c-9dce-6023452e9b95","system_id":"levelo_inurba_marseille","lat":43.26225,"lon":5.3791,"is_reserved":false,"is_disabled":false,"rental_uris":{"android":"levelo://app?vid=99c320af-36c2-439c-9dce-6023452e9b95","ios":"levelo://app?vid=99c320af-36c2-439c-9dce-6023452e9b95"},"vehicle_type_id":"4","last_reported":1740064210,"current_range_meters":17600,"station_id":"ce4bhjp2rcd13ifvqg90","pricing_plan_id":"cebpf4jnsgd1na2vs0mg"},{"bike_id":"cc4edad5-29d2-4622-8ca2-1d37898088a3","system_id":"levelo_inurba_marseille","lat":43.30893,"lon":5.39658,"is_reserved":false,"is_disabled":false,"rental_uris":{"android":"levelo://app?vid=cc4edad5-29d2-4622-8ca2-1d37898088a3","ios":"levelo://app?vid=cc4edad5-29d2-4622-8ca2-1d37898088a3"},"vehicle_type_id":"4","last_reported":1740064210,"current_range_meters":17600,"station_id":"","pricing_plan_id":"cebpf4jnsgd1na2vs0mg"},{"bike_id":"1c83bb61-2469-4008-bfe4-3f140be568a3","system_id":"levelo_inurba_marseille","lat":43.27948,"lon":5.41028,"is_reserved":false,"is_disabled":false,"rental_uris":{"android":"levelo://app?vid=1c83bb61-2469-4008-bfe4-3f140be568a3","ios":"levelo://app?vid=1c83bb61-2469-4008-bfe4-3f140be568a3"},"vehicle_type_id":"4","last_reported":1740064210,"current_range_meters":17600,"station_id":"ce4bhnp2rcd13ifvqh0g","pricing_plan_id":"cebpf4jnsgd1na2vs0mg"},{"bike_id":"76a5c26c-8fd3-4d1a-9768-b3a068304396","system_id":"levelo_inurba_marseille","lat":43.29371,"lon":5.37863,"is_reserved":false,"is_disabled":false,"rental_uris":{"android":"levelo://app?vid=76a5c26c-8fd3-4d1a-9768-b3a068304396","ios":"levelo://app?vid=76a5c26c-8fd3-4d1a-9768-b3a068304396"},"vehicle_type_id":"4","last_reported":1740064210,"current_range_meters":18000,"station_id":"ce4bgjh2rcd13ifvqbf0","pricing_plan_id":"cebpf4jnsgd1na2vs0mg"},{"bike_id":"6f898a4e-ad49-4b09-b442-69790a1b2b7a","system_id":"levelo_inurba_marseille","lat":43.29631,"lon":5.37699,"is_reserved":false,"is_disabled":false,"rental_uris":{"android":"levelo://app?vid=6f898a4e-ad49-4b09-b442-69790a1b2b7a","ios":"levelo://app?vid=6f898a4e-ad49-4b09-b442-69790a1b2b7a"},"vehicle_type_id":"4","last_reported":1740064210,"current_range_meters":17200,"station_id":"ce4bgi92rcd13ifvqb90","pricing_plan_id":"cebpf4jnsgd1na2vs0mg"},{"bike_id":"15dbad0a-df71-4510-85ef-d87444fc3ded","system_id":"levelo_inurba_marseille","lat":43.25586,"lon":5.38261,"is_reserved":false,"is_disabled":false,"rental_uris":{"android":"levelo://app?vid=15dbad0a-df71-4510-85ef-d87444fc3ded","ios":"levelo://app?vid=15dbad0a-df71-4510-85ef-d87444fc3ded"},"vehicle_type_id":"4","last_reported":1740064210,"current_range_meters":18000,"station_id":"","pricing_plan_id":"cebpf4jnsgd1na2vs0mg"},{"bike_id":"da0d8a57-dc35-4cad-a584-68768284fc4a","system_id":"levelo_inurba_marseille","lat":43.29578,"lon":5.37479,"is_reserved":false,"is_disabled":false,"rental_uris":{"android":"levelo://app?vid=da0d8a57-dc35-4cad-a584-68768284fc4a","ios":"levelo://app?vid=da0d8a57-dc35-4cad-a584-68768284fc4a"},"vehicle_type_id":"4","last_reported":1740064210,"current_range_meters":18000,"station_id":"","pricing_plan_id":"cebpf4jnsgd1na2vs0mg"},{"bike_id":"baa53cdb-a058-43bd-9a2f-a001743d25d3","system_id":"levelo_inurba_marseille","lat":43.26203,"lon":5.3793,"is_reserved":false,"is_disabled":false,"rental_uris":{"android":"levelo://app?vid=baa53cdb-a058-43bd-9a2f-a001743d25d3","ios":"levelo://app?vid=baa53cdb-a058-43bd-9a2f-a001743d25d3"},"vehicle_type_id":"4","last_reported":1740064210,"current_range_meters":17200,"station_id":"ce4bhjp2rcd13ifvqg90","pricing_plan_id":"cebpf4jnsgd1na2vs0mg"},{"bike_id":"6a41d4d5-6ce6-4940-8b60-f1b1f72587c0","system_id":"levelo_inurba_marseille","lat":43.23066,"lon":5.35496,"is_reserved":false,"is_disabled":false,"rental_uris":{"android":"levelo://app?vid=6a41d4d5-6ce6-4940-8b60-f1b1f72587c0","ios":"levelo://app?vid=6a41d4d5-6ce6-4940-8b60-f1b1f72587c0"},"vehicle_type_id":"4","last_reported":1740064210,"current_range_meters":18000,"station_id":"cpo3342slgdg3j2ifvpg","pricing_plan_id":"cebpf4jnsgd1na2vs0mg"},{"bike_id":"39911775-b352-437f-a831-cbaa657f922a","system_id":"levelo_inurba_marseille","lat":43.28698,"lon":5.37385,"is_reserved":false,"is_disabled":false,"rental_uris":{"android":"levelo://app?vid=39911775-b352-437f-a831-cbaa657f922a","ios":"levelo://app?vid=39911775-b352-437f-a831-cbaa657f922a"},"vehicle_type_id":"4","last_reported":1740064210,"current_range_meters":18000,"station_id":"ce4bh3p2rcd13ifvqdq0","pricing_plan_id":"cebpf4jnsgd1na2vs0mg"},{"bike_id":"eda29762-c6dc-49a0-a5cf-e5339fe492a5","system_id":"levelo_inurba_marseille","lat":43.27069,"lon":5.40268,"is_reserved":false,"is_disabled":false,"rental_uris":{"android":"levelo://app?vid=eda29762-c6dc-49a0-a5cf-e5339fe492a5","ios":"levelo://app?vid=eda29762-c6dc-49a0-a5cf-e5339fe492a5"},"vehicle_type_id":"4","last_reported":1740064210,"current_range_meters":18000,"station_id":"ce4bhk92rcd13ifvqgc0","pricing_plan_id":"cebpf4jnsgd1na2vs0mg"},{"bike_id":"c3cd1bef-97c7-4b60-ab47-c671257ecf82","system_id":"levelo_inurba_marseille","lat":43.27999,"lon":5.4002,"is_reserved":false,"is_disabled":false,"rental_uris":{"android":"levelo://app?vid=c3cd1bef-97c7-4b60-ab47-c671257ecf82","ios":"levelo://app?vid=c3cd1bef-97c7-4b60-ab47-c671257ecf82"},"vehicle_type_id":"4","last_reported":1740064210,"current_range_meters":18800,"station_id":"ce4bho92rcd13ifvqh4g","pricing_plan_id":"cebpf4jnsgd1na2vs0mg"},{"bike_id":"4425d015-adec-4c1e-bd9b-0894e4035698","system_id":"levelo_inurba_marseille","lat":43.25009,"lon":5.38917,"is_reserved":false,"is_disabled":false,"rental_uris":{"android":"levelo://app?vid=4425d015-adec-4c1e-bd9b-0894e4035698","ios":"levelo://app?vid=4425d015-adec-4c1e-bd9b-0894e4035698"},"vehicle_type_id":"4","last_reported":1740064210,"current_range_meters":18800,"station_id":"ce4bhgp2rcd13ifvqfd0","pricing_plan_id":"cebpf4jnsgd1na2vs0mg"},{"bike_id":"ba5c3ca9-151f-40f9-bf93-306cdacdc8bf","system_id":"levelo_inurba_marseille","lat":43.27942,"lon":5.41042,"is_reserved":false,"is_disabled":false,"rental_uris":{"android":"levelo://app?vid=ba5c3ca9-151f-40f9-bf93-306cdacdc8bf","ios":"levelo://app?vid=ba5c3ca9-151f-40f9-bf93-306cdacdc8bf"},"vehicle_type_id":"4","last_reported":1740064210,"current_range_meters":18800,"station_id":"ce4bhnp2rcd13ifvqh0g","pricing_plan_id":"cebpf4jnsgd1na2vs0mg"},{"bike_id":"038f8860-2d40-4f6d-9756-5ebc6641683e","system_id":"levelo_inurba_marseille","lat":43.28001,"lon":5.41659,"is_reserved":false,"is_disabled":false,"rental_uris":{"android":"levelo://app?vid=038f8860-2d40-4f6d-9756-5ebc6641683e","ios":"levelo://app?vid=038f8860-2d40-4f6d-9756-5ebc6641683e"},"vehicle_type_id":"4","last_reported":1740064210,"current_range_meters":18800,"station_id":"ce4bho12rcd13ifvqh1g","pricing_plan_id":"cebpf4jnsgd1na2vs0mg"},{"bike_id":"8b2dff7e-d9a0-44ae-a6b6-45d486932737","system_id":"levelo_inurba_marseille","lat":43.26026,"lon":5.37545,"is_reserved":false,"is_disabled":false,"rental_uris":{"android":"levelo://app?vid=8b2dff7e-d9a0-44ae-a6b6-45d486932737","ios":"levelo://app?vid=8b2dff7e-d9a0-44ae-a6b6-45d486932737"},"vehicle_type_id":"4","last_reported":1740064210,"current_range_meters":18800,"station_id":"ce4bhgh2rcd13ifvqfa0","pricing_plan_id":"cebpf4jnsgd1na2vs0mg"},{"bike_id":"89fb68ec-1aa9-4c97-8b89-632e005ea687","system_id":"levelo_inurba_marseille","lat":43.337444,"lon":5.374475,"is_reserved":false,"is_disabled":true,"rental_uris":{"android":"levelo://app?vid=89fb68ec-1aa9-4c97-8b89-632e005ea687","ios":"levelo://app?vid=89fb68ec-1aa9-4c97-8b89-632e005ea687"},"vehicle_type_id":"4","last_reported":1740064210,"current_range_meters":18800,"station_id":"","pricing_plan_id":"cebpf4jnsgd1na2vs0mg"},{"bike_id":"1dfaa36a-9caa-483e-869e-ab1f4f877b4f","system_id":"levelo_inurba_marseille","lat":43.30925,"lon":5.40141,"is_reserved":false,"is_disabled":false,"rental_uris":{"android":"levelo://app?vid=1dfaa36a-9caa-483e-869e-ab1f4f877b4f","ios":"levelo://app?vid=1dfaa36a-9caa-483e-869e-ab1f4f877b4f"},"vehicle_type_id":"4","last_reported":1740064210,"current_range_meters":18800,"station_id":"ce4bgvp2rcd13ifvqct0","pricing_plan_id":"cebpf4jnsgd1na2vs0mg"},{"bike_id":"dfcbff9b-ffb0-4d20-b401-0a9135d33b10","system_id":"levelo_inurba_marseille","lat":43.296251,"lon":5.37706,"is_reserved":false,"is_disabled":false,"rental_uris":{"android":"levelo://app?vid=dfcbff9b-ffb0-4d20-b401-0a9135d33b10","ios":"levelo://app?vid=dfcbff9b-ffb0-4d20-b401-0a9135d33b10"},"vehicle_type_id":"4","last_reported":1740064210,"current_range_meters":19200,"station_id":"","pricing_plan_id":"cebpf4jnsgd1na2vs0mg"},{"bike_id":"7d219325-2ac9-404e-b9c2-512d26328aef","system_id":"levelo_inurba_marseille","lat":43.28858,"lon":5.35862,"is_reserved":false,"is_disabled":false,"rental_uris":{"android":"levelo://app?vid=7d219325-2ac9-404e-b9c2-512d26328aef","ios":"levelo://app?vid=7d219325-2ac9-404e-b9c2-512d26328aef"},"vehicle_type_id":"4","last_reported":1740064210,"current_range_meters":19200,"station_id":"ce4bhb12rcd13ifvqem0","pricing_plan_id":"cebpf4jnsgd1na2vs0mg"},{"bike_id":"5c56ed9e-5a4f-4f90-bb54-810d55030b61","system_id":"levelo_inurba_marseille","lat":43.26932,"lon":5.40253,"is_reserved":false,"is_disabled":false,"rental_uris":{"android":"levelo://app?vid=5c56ed9e-5a4f-4f90-bb54-810d55030b61","ios":"levelo://app?vid=5c56ed9e-5a4f-4f90-bb54-810d55030b61"},"vehicle_type_id":"4","last_reported":1740064210,"current_range_meters":19200,"station_id":"cjm6bp8fraef2m0cb0m0","pricing_plan_id":"cebpf4jnsgd1na2vs0mg"},{"bike_id":"5b74693e-5eeb-4822-9064-d81be43bf589","system_id":"levelo_inurba_marseille","lat":43.2887,"lon":5.35869,"is_reserved":false,"is_disabled":false,"rental_uris":{"android":"levelo://app?vid=5b74693e-5eeb-4822-9064-d81be43bf589","ios":"levelo://app?vid=5b74693e-5eeb-4822-9064-d81be43bf589"},"vehicle_type_id":"4","last_reported":1740064210,"current_range_meters":19200,"station_id":"ce4bhb12rcd13ifvqem0","pricing_plan_id":"cebpf4jnsgd1na2vs0mg"},{"bike_id":"869b0bee-3ae9-40a5-8b90-97e99d7da129","system_id":"levelo_inurba_marseille","lat":43.29951,"lon":5.38497,"is_reserved":false,"is_disabled":false,"rental_uris":{"android":"levelo://app?vid=869b0bee-3ae9-40a5-8b90-97e99d7da129","ios":"levelo://app?vid=869b0bee-3ae9-40a5-8b90-97e99d7da129"},"vehicle_type_id":"4","last_reported":1740064210,"current_range_meters":19200,"station_id":"ce4bgj92rcd13ifvqbd0","pricing_plan_id":"cebpf4jnsgd1na2vs0mg"},{"bike_id":"1794e2fd-8210-468d-aee4-733eb40d66ac","system_id":"levelo_inurba_marseille","lat":43.2792,"lon":5.38004,"is_reserved":false,"is_disabled":false,"rental_uris":{"android":"levelo://app?vid=1794e2fd-8210-468d-aee4-733eb40d66ac","ios":"levelo://app?vid=1794e2fd-8210-468d-aee4-733eb40d66ac"},"vehicle_type_id":"4","last_reported":1740064210,"current_range_meters":19200,"station_id":"","pricing_plan_id":"cebpf4jnsgd1na2vs0mg"},{"bike_id":"e654b2d4-0f9d-4122-b849-90cdc281853d","system_id":"levelo_inurba_marseille","lat":43.26223,"lon":5.37453,"is_reserved":false,"is_disabled":false,"rental_uris":{"android":"levelo://app?vid=e654b2d4-0f9d-4122-b849-90cdc281853d","ios":"levelo://app?vid=e654b2d4-0f9d-4122-b849-90cdc281853d"},"vehicle_type_id":"4","last_reported":1740064210,"current_range_meters":19200,"station_id":"ce4bhgp2rcd13ifvqfc0","pricing_plan_id":"cebpf4jnsgd1na2vs0mg"},{"bike_id":"7f32cafd-5558-42cf-a64b-674df5a94812","system_id":"levelo_inurba_marseille","lat":43.30288,"lon":5.37696,"is_reserved":false,"is_disabled":false,"rental_uris":{"android":"levelo://app?vid=7f32cafd-5558-42cf-a64b-674df5a94812","ios":"levelo://app?vid=7f32cafd-5558-42cf-a64b-674df5a94812"},"vehicle_type_id":"4","last_reported":1740064210,"current_range_meters":19200,"station_id":"ce4bguh2rcd13ifvqcj0","pricing_plan_id":"cebpf4jnsgd1na2vs0mg"},{"bike_id":"75b5f4fb-0c49-422f-9831-059225f51683","system_id":"levelo_inurba_marseille","lat":43.29593,"lon":5.37695,"is_reserved":false,"is_disabled":false,"rental_uris":{"android":"levelo://app?vid=75b5f4fb-0c49-422f-9831-059225f51683","ios":"levelo://app?vid=75b5f4fb-0c49-422f-9831-059225f51683"},"vehicle_type_id":"4","last_reported":1740064210,"current_range_meters":19200,"station_id":"","pricing_plan_id":"cebpf4jnsgd1na2vs0mg"},{"bike_id":"79809e01-be49-4339-9a80-1200e10051d5","system_id":"levelo_inurba_marseille","lat":43.27322,"lon":5.39118,"is_reserved":false,"is_disabled":false,"rental_uris":{"android":"levelo://app?vid=79809e01-be49-4339-9a80-1200e10051d5","ios":"levelo://app?vid=79809e01-be49-4339-9a80-1200e10051d5"},"vehicle_type_id":"4","last_reported":1740064210,"current_range_meters":19600,"station_id":"ce4bhgp2rcd13ifvqfe0","pricing_plan_id":"cebpf4jnsgd1na2vs0mg"},{"bike_id":"2b18c07b-d0e5-4561-adb9-151a8b81614d","system_id":"levelo_inurba_marseille","lat":43.28154,"lon":5.42641,"is_reserved":false,"is_disabled":false,"rental_uris":{"android":"levelo://app?vid=2b18c07b-d0e5-4561-adb9-151a8b81614d","ios":"levelo://app?vid=2b18c07b-d0e5-4561-adb9-151a8b81614d"},"vehicle_type_id":"4","last_reported":1740064210,"current_range_meters":19600,"station_id":"","pricing_plan_id":"cebpf4jnsgd1na2vs0mg"},{"bike_id":"db61c623-1a1d-4f16-be78-30f48a72f24d","system_id":"levelo_inurba_marseille","lat":43.2923,"lon":5.36051,"is_reserved":false,"is_disabled":false,"rental_uris":{"android":"levelo://app?vid=db61c623-1a1d-4f16-be78-30f48a72f24d","ios":"levelo://app?vid=db61c623-1a1d-4f16-be78-30f48a72f24d"},"vehicle_type_id":"4","last_reported":1740064210,"current_range_meters":19600,"station_id":"ce4bhbh2rcd13ifvqeqg","pricing_plan_id":"cebpf4jnsgd1na2vs0mg"},{"bike_id":"19268120-939a-49d4-af7a-0be371fce5b7","system_id":"levelo_inurba_marseille","lat":43.22928,"lon":5.35378,"is_reserved":false,"is_disabled":false,"rental_uris":{"android":"levelo://app?vid=19268120-939a-49d4-af7a-0be371fce5b7","ios":"levelo://app?vid=19268120-939a-49d4-af7a-0be371fce5b7"},"vehicle_type_id":"4","last_reported":1740064210,"current_range_meters":19200,"station_id":"cpo3532slgdg3j2ikp40","pricing_plan_id":"cebpf4jnsgd1na2vs0mg"},{"bike_id":"2d79362e-3bb2-44f6-bf2e-37bc4f178902","system_id":"levelo_inurba_marseille","lat":43.29891,"lon":5.3891,"is_reserved":false,"is_disabled":false,"rental_uris":{"android":"levelo://app?vid=2d79362e-3bb2-44f6-bf2e-37bc4f178902","ios":"levelo://app?vid=2d79362e-3bb2-44f6-bf2e-37bc4f178902"},"vehicle_type_id":"4","last_reported":1740064210,"current_range_meters":19200,"station_id":"ce4bh392rcd13ifvqdl0","pricing_plan_id":"cebpf4jnsgd1na2vs0mg"},{"bike_id":"ebe8f273-5739-4753-ba61-e13e57e5e3ea","system_id":"levelo_inurba_marseille","lat":43.265747,"lon":5.390208,"is_reserved":false,"is_disabled":true,"rental_uris":{"android":"levelo://app?vid=ebe8f273-5739-4753-ba61-e13e57e5e3ea","ios":"levelo://app?vid=ebe8f273-5739-4753-ba61-e13e57e5e3ea"},"vehicle_type_id":"4","last_reported":1740064210,"current_range_meters":19600,"station_id":"","pricing_plan_id":"cebpf4jnsgd1na2vs0mg"},{"bike_id":"cf95633d-7ae3-4174-afec-7606a81a9904","system_id":"levelo_inurba_marseille","lat":43.32694,"lon":5.39195,"is_reserved":false,"is_disabled":false,"rental_uris":{"android":"levelo://app?vid=cf95633d-7ae3-4174-afec-7606a81a9904","ios":"levelo://app?vid=cf95633d-7ae3-4174-afec-7606a81a9904"},"vehicle_type_id":"4","last_reported":1740064210,"current_range_meters":19600,"station_id":"ce4bhr92rcd13ifvqhrg","pricing_plan_id":"cebpf4jnsgd1na2vs0mg"},{"bike_id":"6d36d0e2-ae9c-431a-8b6d-2291a1bde7f9","system_id":"levelo_inurba_marseille","lat":43.30309,"lon":5.39207,"is_reserved":false,"is_disabled":false,"rental_uris":{"android":"levelo://app?vid=6d36d0e2-ae9c-431a-8b6d-2291a1bde7f9","ios":"levelo://app?vid=6d36d0e2-ae9c-431a-8b6d-2291a1bde7f9"},"vehicle_type_id":"4","last_reported":1740064210,"current_range_meters":19600,"station_id":"ce4bgkh2rcd13ifvqbk0","pricing_plan_id":"cebpf4jnsgd1na2vs0mg"},{"bike_id":"6e7e43ed-a5d3-42e4-95ff-eae1110c839f","system_id":"levelo_inurba_marseille","lat":43.27074,"lon":5.40247,"is_reserved":false,"is_disabled":false,"rental_uris":{"android":"levelo://app?vid=6e7e43ed-a5d3-42e4-95ff-eae1110c839f","ios":"levelo://app?vid=6e7e43ed-a5d3-42e4-95ff-eae1110c839f"},"vehicle_type_id":"4","last_reported":1740064210,"current_range_meters":19600,"station_id":"ce4bhk92rcd13ifvqgc0","pricing_plan_id":"cebpf4jnsgd1na2vs0mg"},{"bike_id":"7522c321-415e-4e9c-8897-a52659dbac61","system_id":"levelo_inurba_marseille","lat":43.29264,"lon":5.40116,"is_reserved":false,"is_disabled":false,"rental_uris":{"android":"levelo://app?vid=7522c321-415e-4e9c-8897-a52659dbac61","ios":"levelo://app?vid=7522c321-415e-4e9c-8897-a52659dbac61"},"vehicle_type_id":"4","last_reported":1740064210,"current_range_meters":19200,"station_id":"ce4bh312rcd13ifvqdk0","pricing_plan_id":"cebpf4jnsgd1na2vs0mg"},{"bike_id":"298a766c-01c2-4650-afe5-2e0252c33f24","system_id":"levelo_inurba_marseille","lat":43.27052,"lon":5.40258,"is_reserved":false,"is_disabled":false,"rental_uris":{"android":"levelo://app?vid=298a766c-01c2-4650-afe5-2e0252c33f24","ios":"levelo://app?vid=298a766c-01c2-4650-afe5-2e0252c33f24"},"vehicle_type_id":"4","last_reported":1740064210,"current_range_meters":20000,"station_id":"ce4bhk92rcd13ifvqgc0","pricing_plan_id":"cebpf4jnsgd1na2vs0mg"},{"bike_id":"2dbc71c4-caa4-43c9-be0f-62f3ed4d514f","system_id":"levelo_inurba_marseille","lat":43.23969,"lon":5.36623,"is_reserved":false,"is_disabled":false,"rental_uris":{"android":"levelo://app?vid=2dbc71c4-caa4-43c9-be0f-62f3ed4d514f","ios":"levelo://app?vid=2dbc71c4-caa4-43c9-be0f-62f3ed4d514f"},"vehicle_type_id":"4","last_reported":1740064210,"current_range_meters":20000,"station_id":"ce4bhi12rcd13ifvqfp0","pricing_plan_id":"cebpf4jnsgd1na2vs0mg"},{"bike_id":"600f5b00-0e49-47a6-bad9-268932da4ef3","system_id":"levelo_inurba_marseille","lat":43.25125,"lon":5.40323,"is_reserved":false,"is_disabled":false,"rental_uris":{"android":"levelo://app?vid=600f5b00-0e49-47a6-bad9-268932da4ef3","ios":"levelo://app?vid=600f5b00-0e49-47a6-bad9-268932da4ef3"},"vehicle_type_id":"4","last_reported":1740064210,"current_range_meters":20000,"station_id":"ce4bhlh2rcd13ifvqgig","pricing_plan_id":"cebpf4jnsgd1na2vs0mg"},{"bike_id":"15645e3d-5dd6-4bfa-9b38-2475ddfc1093","system_id":"levelo_inurba_marseille","lat":43.27822,"lon":5.40699,"is_reserved":false,"is_disabled":false,"rental_uris":{"android":"levelo://app?vid=15645e3d-5dd6-4bfa-9b38-2475ddfc1093","ios":"levelo://app?vid=15645e3d-5dd6-4bfa-9b38-2475ddfc1093"},"vehicle_type_id":"4","last_reported":1740064210,"current_range_meters":20000,"station_id":"ce4bhnh2rcd13ifvqgtg","pricing_plan_id":"cebpf4jnsgd1na2vs0mg"},{"bike_id":"1f5bf9d8-e56a-4554-a768-6cc8b0e06c34","system_id":"levelo_inurba_marseille","lat":43.29806,"lon":5.381,"is_reserved":false,"is_disabled":false,"rental_uris":{"android":"levelo://app?vid=1f5bf9d8-e56a-4554-a768-6cc8b0e06c34","ios":"levelo://app?vid=1f5bf9d8-e56a-4554-a768-6cc8b0e06c34"},"vehicle_type_id":"4","last_reported":1740064210,"current_range_meters":20000,"station_id":"ce4bgip2rcd13ifvqbb0","pricing_plan_id":"cebpf4jnsgd1na2vs0mg"},{"bike_id":"f331e4c7-6133-4377-afbc-8d72d16e3886","system_id":"levelo_inurba_marseille","lat":43.28981,"lon":5.35607,"is_reserved":false,"is_disabled":false,"rental_uris":{"android":"levelo://app?vid=f331e4c7-6133-4377-afbc-8d72d16e3886","ios":"levelo://app?vid=f331e4c7-6133-4377-afbc-8d72d16e3886"},"vehicle_type_id":"4","last_reported":1740064210,"current_range_meters":20000,"station_id":"ce4bhb92rcd13ifvqen0","pricing_plan_id":"cebpf4jnsgd1na2vs0mg"},{"bike_id":"015e2e2f-8a1c-4bc1-9524-2ed8acfd8c65","system_id":"levelo_inurba_marseille","lat":43.28387,"lon":5.38654,"is_reserved":false,"is_disabled":false,"rental_uris":{"android":"levelo://app?vid=015e2e2f-8a1c-4bc1-9524-2ed8acfd8c65","ios":"levelo://app?vid=015e2e2f-8a1c-4bc1-9524-2ed8acfd8c65"},"vehicle_type_id":"4","last_reported":1740064210,"current_range_meters":20000,"station_id":"ce4bh492rcd13ifvqdvg","pricing_plan_id":"cebpf4jnsgd1na2vs0mg"},{"bike_id":"da35e427-426d-41ca-859b-7c63f22da96e","system_id":"levelo_inurba_marseille","lat":43.27988,"lon":5.41658,"is_reserved":false,"is_disabled":false,"rental_uris":{"android":"levelo://app?vid=da35e427-426d-41ca-859b-7c63f22da96e","ios":"levelo://app?vid=da35e427-426d-41ca-859b-7c63f22da96e"},"vehicle_type_id":"4","last_reported":1740064210,"current_range_meters":20000,"station_id":"ce4bho12rcd13ifvqh1g","pricing_plan_id":"cebpf4jnsgd1na2vs0mg"},{"bike_id":"6750c196-97cb-4f75-b3fd-6fec367d1f9b","system_id":"levelo_inurba_marseille","lat":43.25486,"lon":5.37694,"is_reserved":false,"is_disabled":false,"rental_uris":{"android":"levelo://app?vid=6750c196-97cb-4f75-b3fd-6fec367d1f9b","ios":"levelo://app?vid=6750c196-97cb-4f75-b3fd-6fec367d1f9b"},"vehicle_type_id":"4","last_reported":1740064210,"current_range_meters":19600,"station_id":"ce4bhh12rcd13ifvqff0","pricing_plan_id":"cebpf4jnsgd1na2vs0mg"},{"bike_id":"256d3e09-c4c4-457f-ba3a-14d53f42b16e","system_id":"levelo_inurba_marseille","lat":43.27221,"lon":5.39188,"is_reserved":false,"is_disabled":false,"rental_uris":{"android":"levelo://app?vid=256d3e09-c4c4-457f-ba3a-14d53f42b16e","ios":"levelo://app?vid=256d3e09-c4c4-457f-ba3a-14d53f42b16e"},