{"last_updated":1724454488,"ttl":30,"version":"2.2","data":{"bikes":[{"bike_id":"5688d11b-be3b-45b4-8de9-660ec93ceed9","system_id":"levelo_inurba_marseille","lat":43.31341,"lon":5.367098,"is_reserved":false,"is_disabled":false,"rental_uris":{"android":"levelo://app?vid=5688d11b-be3b-45b4-8de9-660ec93ceed9","ios":"levelo://app?vid=5688d11b-be3b-45b4-8de9-660ec93ceed9"},"vehicle_type_id":"4","last_reported":1724454488,"current_range_meters":10400,"station_id":"ce4bgr92rcd13ifvqc6g","pricing_plan_id":"cebpf4jnsgd1na2vs0mg"},{"bike_id":"c9ccd8a9-2d9f-4e88-84b1-778811d88fda","system_id":"levelo_inurba_marseille","lat":43.313391,"lon":5.36706,"is_reserved":false,"is_disabled":false,"rental_uris":{"android":"levelo://app?vid=c9ccd8a9-2d9f-4e88-84b1-778811d88fda","ios":"levelo://app?vid=c9ccd8a9-2d9f-4e88-84b1-778811d88fda"},"vehicle_type_id":"4","last_reported":1724454488,"current_range_meters":26400,"station_id":"ce4bgr92rcd13ifvqc6g","pricing_plan_id":"cebpf4jnsgd1na2vs0mg"},{"bike_id":"699ca420-7661-456b-839b-ddec0e6bfae9","system_id":"levelo_inurba_marseille","lat":43.312239,"lon":5.368562,"is_reserved":false,"is_disabled":false,"rental_uris":{"android":"levelo://app?vid=699ca420-7661-456b-839b-ddec0e6bfae9","ios":"levelo://app?vid=699ca420-7661-456b-839b-ddec0e6bfae9"},"vehicle_type_id":"4","last_reported":1724454488,"current_range_meters":22400,"station_id":"ce4bgl92rcd13ifvqbq0","pricing_plan_id":"cebpf4jnsgd1na2vs0mg"},{"bike_id":"6161901d-7e45-4044-af8a-e0b0344a94ce","system_id":"levelo_inurba_marseille","lat":43.312239,"lon":5.368562,"is_reserved":false,"is_disabled":false,"rental_uris":{"android":"levelo://app?vid=6161901d-7e45-4044-af8a-e0b0344a94ce","ios":"levelo://app?vid=6161901d-7e45-4044-af8a-e0b0344a94ce"},"vehicle_type_id":"4","last_reported":1724454488,"current_range_meters":31600,"station_id":"ce4bgl92rcd13ifvqbq0","pricing_plan_id":"cebpf4jnsgd1na2vs0mg"},{"bike_id":"010766c1-4cf7-40dd-b180-ca3411ea39a1","system_id":"levelo_inurba_marseille","lat":43.312239,"lon":5.368562,"is_reserved":false,"is_disabled":false,"rental_uris":{"android":"levelo://app?vid=010766c1-4cf7-40dd-b180-ca3411ea39a1","ios":"levelo://app?vid=010766c1-4cf7-40dd-b180-ca3411ea39a1"},"vehicle_type_id":"4","last_reported":1724454488,"current_range_meters":28800,"station_id":"ce4bgl92rcd13ifvqbq0","pricing_plan_id":"cebpf4jnsgd1na2vs0mg"},{"bike_id":"ce798b69-a860-4328-80a6-2e987dabed2b","system_id":"levelo_inurba_marseille","lat":43.312239,"lon":5.368562,"is_reserved":false,"is_disabled":false,"rental_uris":{"android":"levelo://app?vid=ce798b69-a860-4328-80a6-2e987dabed2b","ios":"levelo://app?vid=ce798b69-a860-4328-80a6-2e987dabed2b"},"vehicle_type_id":"4","last_reported":1724454488,"current_range_meters":15600,"station_id":"ce4bgl92rcd13ifvqbq0","pricing_plan_id":"cebpf4jnsgd1na2vs0mg"},{"bike_id":"fe874b65-4876-49ac-a929-8575a54c2c0a","system_id":"levelo_inurba_marseille","lat":43.312239,"lon":5.368562,"is_reserved":false,"is_disabled":false,"rental_uris":{"android":"levelo://app?vid=fe874b65-4876-49ac-a929-8575a54c2c0a","ios":"levelo://app?vid=fe874b65-4876-49ac-a929-8575a54c2c0a"},"vehicle_type_id":"4","last_reported":1724454488,"current_range_meters":30800,"station_id":"ce4bgl92rcd13ifvqbq0","pricing_plan_id":"cebpf4jnsgd1na2vs0mg"},{"bike_id":"279e82ad-26e9-41c7-b603-2cc09444b6e5","system_id":"levelo_inurba_marseille","lat":43.312239,"lon":5.368562,"is_reserved":false,"is_disabled":false,"rental_uris":{"android":"levelo://app?vid=279e82ad-26e9-41c7-b603-2cc09444b6e5","ios":"levelo://app?vid=279e82ad-26e9-41c7-b603-2cc09444b6e5"},"vehicle_type_id":"4","last_reported":1724454488,"current_range_meters":31600,"station_id":"ce4bgl92rcd13ifvqbq0","pricing_plan_id":"cebpf4jnsgd1na2vs0mg"},{"bike_id":"1c340587-b183-4770-ba08-4d15b9b99543","system_id":"levelo_inurba_marseille","lat":43.312239,"lon":5.368562,"is_reserved":false,"is_disabled":false,"rental_uris":{"android":"levelo://app?vid=1c340587-b183-4770-ba08-4d15b9b99543","ios":"levelo://app?vid=1c340587-b183-4770-ba08-4d15b9b99543"},"vehicle_type_id":"4","last_reported":1724454488,"current_range_meters":22000,"station_id":"ce4bgl92rcd13ifvqbq0","pricing_plan_id":"cebpf4jnsgd1na2vs0mg"},{"bike_id":"deb5f4b6-ae0a-4b91-a947-e0f53e2e3795","system_id":"levelo_inurba_marseille","lat":43.312239,"lon":5.368562,"is_reserved":false,"is_disabled":false,"rental_uris":{"android":"levelo://app?vid=deb5f4b6-ae0a-4b91-a947-e0f53e2e3795","ios":"levelo://app?vid=deb5f4b6-ae0a-4b91-a947-e0f53e2e3795"},"vehicle_type_id":"4","last_reported":1724454488,"current_range_meters":29600,"station_id":"ce4bgl92rcd13ifvqbq0","pricing_plan_id":"cebpf4jnsgd1na2vs0mg"},{"bike_id":"56f4c825-39d9-4349-a445-8c877086c6cf","system_id":"levelo_inurba_marseille","lat":43.312239,"lon":5.368562,"is_reserved":false,"is_disabled":false,"rental_uris":{"android":"levelo://app?vid=56f4c825-39d9-4349-a445-8c877086c6cf","ios":"levelo://app?vid=56f4c825-39d9-4349-a445-8c877086c6cf"},"vehicle_type_id":"4","last_reported":1724454488,"current_range_meters":19200,"station_id":"ce4bgl92rcd13ifvqbq0","pricing_plan_id":"cebpf4jnsgd1na2vs0mg"},{"bike_id":"e2228b8f-9d28-4c26-9683-aaffea3fb7e1","system_id":"levelo_inurba_marseille","lat":43.312239,"lon":5.368562,"is_reserved":false,"is_disabled":false,"rental_uris":{"android":"levelo://app?vid=e2228b8f-9d28-4c26-9683-aaffea3fb7e1","ios":"levelo://app?vid=e2228b8f-9d28-4c26-9683-aaffea3fb7e1"},"vehicle_type_id":"4","last_reported":1724454488,"current_range_meters":30800,"station_id":"ce4bgl92rcd13ifvqbq0","pricing_plan_id":"cebpf4jnsgd1na2vs0mg"},{"bike_id":"d113e03a-511e-431a-9c96-c46d15d04265","system_id":"levelo_inurba_marseille","lat":43.312239,"lon":5.368562,"is_reserved":false,"is_disabled":false,"rental_uris":{"android":"levelo://app?vid=d113e03a-511e-431a-9c96-c46d15d04265","ios":"levelo://app?vid=d113e03a-511e-431a-9c96-c46d15d04265"},"vehicle_type_id":"4","last_reported":1724454488,"current_range_meters":31200,"station_id":"ce4bgl92rcd13ifvqbq0","pricing_plan_id":"cebpf4jnsgd1na2vs0mg"},{"bike_id":"0c72db77-31e3-473f-8b60-6e706f380ce0","system_id":"levelo_inurba_marseille","lat":43.312021,"lon":5.368871,"is_reserved":false,"is_disabled":false,"rental_uris":{"android":"levelo://app?vid=0c72db77-31e3-473f-8b60-6e706f380ce0","ios":"levelo://app?vid=0c72db77-31e3-473f-8b60-6e706f380ce0"},"vehicle_type_id":"4","last_reported":1724454488,"current_range_meters":24800,"station_id":"ce4bgl92rcd13ifvqbq0","pricing_plan_id":"cebpf4jnsgd1na2vs0mg"},{"bike_id":"29806f1b-6b91-4c83-b226-4da0cdb33fd9","system_id":"levelo_inurba_marseille","lat":43.314811,"lon":5.373103,"is_reserved":false,"is_disabled":false,"rental_uris":{"android":"levelo://app?vid=29806f1b-6b91-4c83-b226-4da0cdb33fd9","ios":"levelo://app?vid=29806f1b-6b91-4c83-b226-4da0cdb33fd9"},"vehicle_type_id":"4","last_reported":1724454488,"current_range_meters":7200,"station_id":"ce4bgt12rcd13ifvqcd0","pricing_plan_id":"cebpf4jnsgd1na2vs0mg"},{"bike_id":"96d6ba88-8e93-461c-bff8-458ff999e4b1","system_id":"levelo_inurba_marseille","lat":43.314811,"lon":5.373103,"is_reserved":false,"is_disabled":false,"rental_uris":{"android":"levelo://app?vid=96d6ba88-8e93-461c-bff8-458ff999e4b1","ios":"levelo://app?vid=96d6ba88-8e93-461c-bff8-458ff999e4b1"},"vehicle_type_id":"4","last_reported":1724454488,"current_range_meters":7200,"station_id":"ce4bgt12rcd13ifvqcd0","pricing_plan_id":"cebpf4jnsgd1na2vs0mg"},{"bike_id":"eda5d9b7-8a42-40dc-9186-7c8f911df57f","system_id":"levelo_inurba_marseille","lat":43.309039,"lon":5.371797,"is_reserved":false,"is_disabled":false,"rental_uris":{"android":"levelo://app?vid=eda5d9b7-8a42-40dc-9186-7c8f911df57f","ios":"levelo://app?vid=eda5d9b7-8a42-40dc-9186-7c8f911df57f"},"vehicle_type_id":"4","last_reported":1724454488,"current_range_meters":0,"station_id":"ce4bguh2rcd13ifvqckg","pricing_plan_id":"cebpf4jnsgd1na2vs0mg"},{"bike_id":"dcb712cc-fdc5-458d-b20d-b59aebc7534e","system_id":"levelo_inurba_marseille","lat":43.309039,"lon":5.371797,"is_reserved":false,"is_disabled":false,"rental_uris":{"android":"levelo://app?vid=dcb712cc-fdc5-458d-b20d-b59aebc7534e","ios":"levelo://app?vid=dcb712cc-fdc5-458d-b20d-b59aebc7534e"},"vehicle_type_id":"4","last_reported":1724454488,"current_range_meters":29200,"station_id":"ce4bguh2rcd13ifvqckg","pricing_plan_id":"cebpf4jnsgd1na2vs0mg"},{"bike_id":"a71826b1-c021-48dd-b4af-72bb19254ce9","system_id":"levelo_inurba_marseille","lat":43.31451,"lon":5.37368,"is_reserved":false,"is_disabled":false,"rental_uris":{"android":"levelo://app?vid=a71826b1-c021-48dd-b4af-72bb19254ce9","ios":"levelo://app?vid=a71826b1-c021-48dd-b4af-72bb19254ce9"},"vehicle_type_id":"4","last_reported":1724454488,"current_range_meters":30800,"station_id":"","pricing_plan_id":"cebpf4jnsgd1na2vs0mg"},{"bike_id":"afb65568-aa64-4469-9737-054b049d187f","system_id":"levelo_inurba_marseille","lat":43.309034,"lon":5.371783,"is_reserved":false,"is_disabled":false,"rental_uris":{"android":"levelo://app?vid=afb65568-aa64-4469-9737-054b049d187f","ios":"levelo://app?vid=afb65568-aa64-4469-9737-054b049d187f"},"vehicle_type_id":"4","last_reported":1724454488,"current_range_meters":29600,"station_id":"ce4bguh2rcd13ifvqckg","pricing_plan_id":"cebpf4jnsgd1na2vs0mg"},{"bike_id":"9c298b2c-d64e-4a10-a36a-ee711059e4be","system_id":"levelo_inurba_marseille","lat":43.309034,"lon":5.371783,"is_reserved":false,"is_disabled":false,"rental_uris":{"android":"levelo://app?vid=9c298b2c-d64e-4a10-a36a-ee711059e4be","ios":"levelo://app?vid=9c298b2c-d64e-4a10-a36a-ee711059e4be"},"vehicle_type_id":"4","last_reported":1724454488,"current_range_meters":20000,"station_id":"ce4bguh2rcd13ifvqckg","pricing_plan_id":"cebpf4jnsgd1na2vs0mg"},{"bike_id":"5ad4c67a-ba0d-4219-957a-9d7f77a70649","system_id":"levelo_inurba_marseille","lat":43.309039,"lon":5.371797,"is_reserved":false,"is_disabled":false,"rental_uris":{"android":"levelo://app?vid=5ad4c67a-ba0d-4219-957a-9d7f77a70649","ios":"levelo://app?vid=5ad4c67a-ba0d-4219-957a-9d7f77a70649"},"vehicle_type_id":"4","last_reported":1724454488,"current_range_meters":10000,"station_id":"ce4bguh2rcd13ifvqckg","pricing_plan_id":"cebpf4jnsgd1na2vs0mg"},{"bike_id":"571d0b7c-6eb0-4391-a7ef-32e3ef028c27","system_id":"levelo_inurba_marseille","lat":43.30537,"lon":5.367345,"is_reserved":false,"is_disabled":false,"rental_uris":{"android":"levelo://app?vid=571d0b7c-6eb0-4391-a7ef-32e3ef028c27","ios":"levelo://app?vid=571d0b7c-6eb0-4391-a7ef-32e3ef028c27"},"vehicle_type_id":"4","last_reported":1724454488,"current_range_meters":10000,"station_id":"ce4bgrp2rcd13ifvqc9g","pricing_plan_id":"cebpf4jnsgd1na2vs0mg"},{"bike_id":"431153e6-1c0d-4e43-85ad-b352d1752ff5","system_id":"levelo_inurba_marseille","lat":43.30536,"lon":5.3655,"is_reserved":false,"is_disabled":false,"rental_uris":{"android":"levelo://app?vid=431153e6-1c0d-4e43-85ad-b352d1752ff5","ios":"levelo://app?vid=431153e6-1c0d-4e43-85ad-b352d1752ff5"},"vehicle_type_id":"4","last_reported":1724454488,"current_range_meters":28400,"station_id":"ce4bgs12rcd13ifvqcag","pricing_plan_id":"cebpf4jnsgd1na2vs0mg"},{"bike_id":"c03138d4-af09-43ec-976b-13447415fce2","system_id":"levelo_inurba_marseille","lat":43.305989,"lon":5.37225,"is_reserved":false,"is_disabled":false,"rental_uris":{"android":"levelo://app?vid=c03138d4-af09-43ec-976b-13447415fce2","ios":"levelo://app?vid=c03138d4-af09-43ec-976b-13447415fce2"},"vehicle_type_id":"4","last_reported":1724454488,"current_range_meters":7600,"station_id":"ce4bgqh2rcd13ifvqc4g","pricing_plan_id":"cebpf4jnsgd1na2vs0mg"},{"bike_id":"00ee2523-5e74-499d-ba28-247b9e3761af","system_id":"levelo_inurba_marseille","lat":43.305989,"lon":5.37225,"is_reserved":false,"is_disabled":false,"rental_uris":{"android":"levelo://app?vid=00ee2523-5e74-499d-ba28-247b9e3761af","ios":"levelo://app?vid=00ee2523-5e74-499d-ba28-247b9e3761af"},"vehicle_type_id":"4","last_reported":1724454488,"current_range_meters":1600,"station_id":"ce4bgqh2rcd13ifvqc4g","pricing_plan_id":"cebpf4jnsgd1na2vs0mg"},{"bike_id":"a7b55da0-59be-4054-baf1-7a33faf4c0c8","system_id":"levelo_inurba_marseille","lat":43.305989,"lon":5.37225,"is_reserved":false,"is_disabled":false,"rental_uris":{"android":"levelo://app?vid=a7b55da0-59be-4054-baf1-7a33faf4c0c8","ios":"levelo://app?vid=a7b55da0-59be-4054-baf1-7a33faf4c0c8"},"vehicle_type_id":"4","last_reported":1724454488,"current_range_meters":32000,"station_id":"ce4bgqh2rcd13ifvqc4g","pricing_plan_id":"cebpf4jnsgd1na2vs0mg"},{"bike_id":"31df3f0f-551a-41b6-bf6f-f21de187dcd6","system_id":"levelo_inurba_marseille","lat":43.305989,"lon":5.37225,"is_reserved":false,"is_disabled":false,"rental_uris":{"android":"levelo://app?vid=31df3f0f-551a-41b6-bf6f-f21de187dcd6","ios":"levelo://app?vid=31df3f0f-551a-41b6-bf6f-f21de187dcd6"},"vehicle_type_id":"4","last_reported":1724454488,"current_range_meters":11200,"station_id":"ce4bgqh2rcd13ifvqc4g","pricing_plan_id":"cebpf4jnsgd1na2vs0mg"},{"bike_id":"b225f3ef-5d83-4751-907c-a6beed62d30e","system_id":"levelo_inurba_marseille","lat":43.305989,"lon":5.37225,"is_reserved":false,"is_disabled":false,"rental_uris":{"android":"levelo://app?vid=b225f3ef-5d83-4751-907c-a6beed62d30e","ios":"levelo://app?vid=b225f3ef-5d83-4751-907c-a6beed62d30e"},"vehicle_type_id":"4","last_reported":1724454488,"current_range_meters":26000,"station_id":"ce4bgqh2rcd13ifvqc4g","pricing_plan_id":"cebpf4jnsgd1na2vs0mg"},{"bike_id":"1e06be86-14c5-419e-b25f-832866b62e64","system_id":"levelo_inurba_marseille","lat":43.305989,"lon":5.37225,"is_reserved":false,"is_disabled":false,"rental_uris":{"android":"levelo://app?vid=1e06be86-14c5-419e-b25f-832866b62e64","ios":"levelo://app?vid=1e06be86-14c5-419e-b25f-832866b62e64"},"vehicle_type_id":"4","last_reported":1724454488,"current_range_meters":9200,"station_id":"ce4bgqh2rcd13ifvqc4g","pricing_plan_id":"cebpf4jnsgd1na2vs0mg"},{"bike_id":"2ab6d619-730f-4d61-b449-9b0b32bc0f4c","system_id":"levelo_inurba_marseille","lat":43.311125,"lon":5.377624,"is_reserved":false,"is_disabled":false,"rental_uris":{"android":"levelo://app?vid=2ab6d619-730f-4d61-b449-9b0b32bc0f4c","ios":"levelo://app?vid=2ab6d619-730f-4d61-b449-9b0b32bc0f4c"},"vehicle_type_id":"4","last_reported":1724454488,"current_range_meters":18800,"station_id":"ce4bgt92rcd13ifvqcg0","pricing_plan_id":"cebpf4jnsgd1na2vs0mg"},{"bike_id":"be524370-13d6-42ef-ae8b-9c9d5ce285d3","system_id":"levelo_inurba_marseille","lat":43.31113,"lon":5.3777,"is_reserved":false,"is_disabled":false,"rental_uris":{"android":"levelo://app?vid=be524370-13d6-42ef-ae8b-9c9d5ce285d3","ios":"levelo://app?vid=be524370-13d6-42ef-ae8b-9c9d5ce285d3"},"vehicle_type_id":"4","last_reported":1724454488,"current_range_meters":15200,"station_id":"ce4bgt92rcd13ifvqcg0","pricing_plan_id":"cebpf4jnsgd1na2vs0mg"},{"bike_id":"d845ec74-82e9-4e31-94a9-ae92cbcc6af7","system_id":"levelo_inurba_marseille","lat":43.31116,"lon":5.37771,"is_reserved":false,"is_disabled":false,"rental_uris":{"android":"levelo://app?vid=d845ec74-82e9-4e31-94a9-ae92cbcc6af7","ios":"levelo://app?vid=d845ec74-82e9-4e31-94a9-ae92cbcc6af7"},"vehicle_type_id":"4","last_reported":1724454488,"current_range_meters":31200,"station_id":"ce4bgt92rcd13ifvqcg0","pricing_plan_id":"cebpf4jnsgd1na2vs0mg"},{"bike_id":"36092f47-54b2-4dc8-8f5a-8bf3cd3d78e9","system_id":"levelo_inurba_marseille","lat":43.311131,"lon":5.377651,"is_reserved":false,"is_disabled":false,"rental_uris":{"android":"levelo://app?vid=36092f47-54b2-4dc8-8f5a-8bf3cd3d78e9","ios":"levelo://app?vid=36092f47-54b2-4dc8-8f5a-8bf3cd3d78e9"},"vehicle_type_id":"4","last_reported":1724454488,"current_range_meters":31200,"station_id":"ce4bgt92rcd13ifvqcg0","pricing_plan_id":"cebpf4jnsgd1na2vs0mg"},{"bike_id":"4c5886e9-cc28-4bdb-9e82-edc7b33dcd63","system_id":"levelo_inurba_marseille","lat":43.311125,"lon":5.377624,"is_reserved":false,"is_disabled":false,"rental_uris":{"android":"levelo://app?vid=4c5886e9-cc28-4bdb-9e82-edc7b33dcd63","ios":"levelo://app?vid=4c5886e9-cc28-4bdb-9e82-edc7b33dcd63"},"vehicle_type_id":"4","last_reported":1724454488,"current_range_meters":12400,"station_id":"ce4bgt92rcd13ifvqcg0","pricing_plan_id":"cebpf4jnsgd1na2vs0mg"},{"bike_id":"1cd33a05-2933-410d-b300-a883794bd59e","system_id":"levelo_inurba_marseille","lat":43.311125,"lon":5.377624,"is_reserved":false,"is_disabled":false,"rental_uris":{"android":"levelo://app?vid=1cd33a05-2933-410d-b300-a883794bd59e","ios":"levelo://app?vid=1cd33a05-2933-410d-b300-a883794bd59e"},"vehicle_type_id":"4","last_reported":1724454488,"current_range_meters":31200,"station_id":"ce4bgt92rcd13ifvqcg0","pricing_plan_id":"cebpf4jnsgd1na2vs0mg"},{"bike_id":"92a407b5-2ef1-402e-b497-2dc674bf7b30","system_id":"levelo_inurba_marseille","lat":43.311125,"lon":5.377624,"is_reserved":false,"is_disabled":false,"rental_uris":{"android":"levelo://app?vid=92a407b5-2ef1-402e-b497-2dc674bf7b30","ios":"levelo://app?vid=92a407b5-2ef1-402e-b497-2dc674bf7b30"},"vehicle_type_id":"4","last_reported":1724454488,"current_range_meters":10000,"station_id":"ce4bgt92rcd13ifvqcg0","pricing_plan_id":"cebpf4jnsgd1na2vs0mg"},{"bike_id":"67f1d87e-e768-49fa-b302-664b4cc40f1a","system_id":"levelo_inurba_marseille","lat":43.31119,"lon":5.37778,"is_reserved":false,"is_disabled":false,"rental_uris":{"android":"levelo://app?vid=67f1d87e-e768-49fa-b302-664b4cc40f1a","ios":"levelo://app?vid=67f1d87e-e768-49fa-b302-664b4cc40f1a"},"vehicle_type_id":"4","last_reported":1724454488,"current_range_meters":27200,"station_id":"ce4bgt92rcd13ifvqcg0","pricing_plan_id":"cebpf4jnsgd1na2vs0mg"},{"bike_id":"72854eea-ed1b-4cc1-bec4-81d685d16db9","system_id":"levelo_inurba_marseille","lat":43.311125,"lon":5.377624,"is_reserved":false,"is_disabled":false,"rental_uris":{"android":"levelo://app?vid=72854eea-ed1b-4cc1-bec4-81d685d16db9","ios":"levelo://app?vid=72854eea-ed1b-4cc1-bec4-81d685d16db9"},"vehicle_type_id":"4","last_reported":1724454488,"current_range_meters":3600,"station_id":"ce4bgt92rcd13ifvqcg0","pricing_plan_id":"cebpf4jnsgd1na2vs0mg"},{"bike_id":"e427a124-3f07-44d8-abea-e495d9d2edf2","system_id":"levelo_inurba_marseille","lat":43.307945,"lon":5.376487,"is_reserved":false,"is_disabled":false,"rental_uris":{"android":"levelo://app?vid=e427a124-3f07-44d8-abea-e495d9d2edf2","ios":"levelo://app?vid=e427a124-3f07-44d8-abea-e495d9d2edf2"},"vehicle_type_id":"4","last_reported":1724454488,"current_range_meters":24000,"station_id":"ce4bgv92rcd13ifvqcq0","pricing_plan_id":"cebpf4jnsgd1na2vs0mg"},{"bike_id":"eec18fef-5c03-4cbc-b336-a67d92cca0d9","system_id":"levelo_inurba_marseille","lat":43.307945,"lon":5.376487,"is_reserved":false,"is_disabled":false,"rental_uris":{"android":"levelo://app?vid=eec18fef-5c03-4cbc-b336-a67d92cca0d9","ios":"levelo://app?vid=eec18fef-5c03-4cbc-b336-a67d92cca0d9"},"vehicle_type_id":"4","last_reported":1724454488,"current_range_meters":22800,"station_id":"ce4bgv92rcd13ifvqcq0","pricing_plan_id":"cebpf4jnsgd1na2vs0mg"},{"bike_id":"278c312b-a2fa-4de4-8a09-83b980ad75f7","system_id":"levelo_inurba_marseille","lat":43.307945,"lon":5.376487,"is_reserved":false,"is_disabled":false,"rental_uris":{"android":"levelo://app?vid=278c312b-a2fa-4de4-8a09-83b980ad75f7","ios":"levelo://app?vid=278c312b-a2fa-4de4-8a09-83b980ad75f7"},"vehicle_type_id":"4","last_reported":1724454488,"current_range_meters":17200,"station_id":"ce4bgv92rcd13ifvqcq0","pricing_plan_id":"cebpf4jnsgd1na2vs0mg"},{"bike_id":"e8e16e51-8bc8-4d3d-963c-a100e9acdbd5","system_id":"levelo_inurba_marseille","lat":43.307945,"lon":5.376487,"is_reserved":false,"is_disabled":false,"rental_uris":{"android":"levelo://app?vid=e8e16e51-8bc8-4d3d-963c-a100e9acdbd5","ios":"levelo://app?vid=e8e16e51-8bc8-4d3d-963c-a100e9acdbd5"},"vehicle_type_id":"4","last_reported":1724454488,"current_range_meters":30400,"station_id":"ce4bgv92rcd13ifvqcq0","pricing_plan_id":"cebpf4jnsgd1na2vs0mg"},{"bike_id":"b899273c-fb78-4804-b256-ab27d20cee03","system_id":"levelo_inurba_marseille","lat":43.307945,"lon":5.376487,"is_reserved":false,"is_disabled":false,"rental_uris":{"android":"levelo://app?vid=b899273c-fb78-4804-b256-ab27d20cee03","ios":"levelo://app?vid=b899273c-fb78-4804-b256-ab27d20cee03"},"vehicle_type_id":"4","last_reported":1724454488,"current_range_meters":5600,"station_id":"ce4bgv92rcd13ifvqcq0","pricing_plan_id":"cebpf4jnsgd1na2vs0mg"},{"bike_id":"6d63f3bb-683a-4632-a8dd-e963256b748a","system_id":"levelo_inurba_marseille","lat":43.307945,"lon":5.376487,"is_reserved":false,"is_disabled":false,"rental_uris":{"android":"levelo://app?vid=6d63f3bb-683a-4632-a8dd-e963256b748a","ios":"levelo://app?vid=6d63f3bb-683a-4632-a8dd-e963256b748a"},"vehicle_type_id":"4","last_reported":1724454488,"current_range_meters":15200,"station_id":"ce4bgv92rcd13ifvqcq0","pricing_plan_id":"cebpf4jnsgd1na2vs0mg"},{"bike_id":"e612c67d-7b6f-4f3d-9f9a-e84dd9e655df","system_id":"levelo_inurba_marseille","lat":43.307945,"lon":5.376487,"is_reserved":false,"is_disabled":false,"rental_uris":{"android":"levelo://app?vid=e612c67d-7b6f-4f3d-9f9a-e84dd9e655df","ios":"levelo://app?vid=e612c67d-7b6f-4f3d-9f9a-e84dd9e655df"},"vehicle_type_id":"4","last_reported":1724454488,"current_range_meters":14000,"station_id":"ce4bgv92rcd13ifvqcq0","pricing_plan_id":"cebpf4jnsgd1na2vs0mg"},{"bike_id":"c08f3f41-28f6-42d2-802b-65a32b336be5","system_id":"levelo_inurba_marseille","lat":43.307945,"lon":5.376487,"is_reserved":false,"is_disabled":false,"rental_uris":{"android":"levelo://app?vid=c08f3f41-28f6-42d2-802b-65a32b336be5","ios":"levelo://app?vid=c08f3f41-28f6-42d2-802b-65a32b336be5"},"vehicle_type_id":"4","last_reported":1724454488,"current_range_meters":20800,"station_id":"ce4bgv92rcd13ifvqcq0","pricing_plan_id":"cebpf4jnsgd1na2vs0mg"},{"bike_id":"c0fc61b0-f9c7-4923-afd9-c43b28182b50","system_id":"levelo_inurba_marseille","lat":43.307945,"lon":5.376487,"is_reserved":false,"is_disabled":false,"rental_uris":{"android":"levelo://app?vid=c0fc61b0-f9c7-4923-afd9-c43b28182b50","ios":"levelo://app?vid=c0fc61b0-f9c7-4923-afd9-c43b28182b50"},"vehicle_type_id":"4","last_reported":1724454488,"current_range_meters":19200,"station_id":"ce4bgv92rcd13ifvqcq0","pricing_plan_id":"cebpf4jnsgd1na2vs0mg"},{"bike_id":"d2f2299f-5e34-4793-8ab0-45a69634420b","system_id":"levelo_inurba_marseille","lat":43.307945,"lon":5.376487,"is_reserved":false,"is_disabled":false,"rental_uris":{"android":"levelo://app?vid=d2f2299f-5e34-4793-8ab0-45a69634420b","ios":"levelo://app?vid=d2f2299f-5e34-4793-8ab0-45a69634420b"},"vehicle_type_id":"4","last_reported":1724454488,"current_range_meters":22000,"station_id":"ce4bgv92rcd13ifvqcq0","pricing_plan_id":"cebpf4jnsgd1na2vs0mg"},{"bike_id":"d00acee1-4f42-4215-b60a-fb9cef1ea81a","system_id":"levelo_inurba_marseille","lat":43.317075,"lon":5.377367,"is_reserved":false,"is_disabled":false,"rental_uris":{"android":"levelo://app?vid=d00acee1-4f42-4215-b60a-fb9cef1ea81a","ios":"levelo://app?vid=d00acee1-4f42-4215-b60a-fb9cef1ea81a"},"vehicle_type_id":"4","last_reported":1724454488,"current_range_meters":16400,"station_id":"ce4bgth2rcd13ifvqch0","pricing_plan_id":"cebpf4jnsgd1na2vs0mg"},{"bike_id":"765dcc93-d6da-4a9f-9a23-115f59aa88b5","system_id":"levelo_inurba_marseille","lat":43.315289,"lon":5.380349,"is_reserved":false,"is_disabled":false,"rental_uris":{"android":"levelo://app?vid=765dcc93-d6da-4a9f-9a23-115f59aa88b5","ios":"levelo://app?vid=765dcc93-d6da-4a9f-9a23-115f59aa88b5"},"vehicle_type_id":"4","last_reported":1724454488,"current_range_meters":26000,"station_id":"ce4bhsp2rcd13ifvqi50","pricing_plan_id":"cebpf4jnsgd1na2vs0mg"},{"bike_id":"d1561718-fe86-427a-b629-851a50cdab0e","system_id":"levelo_inurba_marseille","lat":43.315289,"lon":5.380349,"is_reserved":false,"is_disabled":false,"rental_uris":{"android":"levelo://app?vid=d1561718-fe86-427a-b629-851a50cdab0e","ios":"levelo://app?vid=d1561718-fe86-427a-b629-851a50cdab0e"},"vehicle_type_id":"4","last_reported":1724454488,"current_range_meters":4000,"station_id":"ce4bhsp2rcd13ifvqi50","pricing_plan_id":"cebpf4jnsgd1na2vs0mg"},{"bike_id":"6e7f7048-1829-4ad2-9a56-5d8085a5c505","system_id":"levelo_inurba_marseille","lat":43.315289,"lon":5.380349,"is_reserved":false,"is_disabled":false,"rental_uris":{"android":"levelo://app?vid=6e7f7048-1829-4ad2-9a56-5d8085a5c505","ios":"levelo://app?vid=6e7f7048-1829-4ad2-9a56-5d8085a5c505"},"vehicle_type_id":"4","last_reported":1724454488,"current_range_meters":10000,"station_id":"ce4bhsp2rcd13ifvqi50","pricing_plan_id":"cebpf4jnsgd1na2vs0mg"},{"bike_id":"28c65c93-14a3-405b-851f-2bb641a30d38","system_id":"levelo_inurba_marseille","lat":43.308012,"lon":5.381511,"is_reserved":false,"is_disabled":false,"rental_uris":{"android":"levelo://app?vid=28c65c93-14a3-405b-851f-2bb641a30d38","ios":"levelo://app?vid=28c65c93-14a3-405b-851f-2bb641a30d38"},"vehicle_type_id":"4","last_reported":1724454488,"current_range_meters":25600,"station_id":"ce4bgt12rcd13ifvqce0","pricing_plan_id":"cebpf4jnsgd1na2vs0mg"},{"bike_id":"2c4511a5-1e71-4c06-887f-d70ef38b2287","system_id":"levelo_inurba_marseille","lat":43.308012,"lon":5.381511,"is_reserved":false,"is_disabled":false,"rental_uris":{"android":"levelo://app?vid=2c4511a5-1e71-4c06-887f-d70ef38b2287","ios":"levelo://app?vid=2c4511a5-1e71-4c06-887f-d70ef38b2287"},"vehicle_type_id":"4","last_reported":1724454488,"current_range_meters":14800,"station_id":"ce4bgt12rcd13ifvqce0","pricing_plan_id":"cebpf4jnsgd1na2vs0mg"},{"bike_id":"3f4959d3-31b2-4e21-8367-3a7f3b84520e","system_id":"levelo_inurba_marseille","lat":43.308012,"lon":5.381511,"is_reserved":false,"is_disabled":false,"rental_uris":{"android":"levelo://app?vid=3f4959d3-31b2-4e21-8367-3a7f3b84520e","ios":"levelo://app?vid=3f4959d3-31b2-4e21-8367-3a7f3b84520e"},"vehicle_type_id":"4","last_reported":1724454488,"current_range_meters":16800,"station_id":"ce4bgt12rcd13ifvqce0","pricing_plan_id":"cebpf4jnsgd1na2vs0mg"},{"bike_id":"7d56f572-384f-489f-b01e-2f9548eb6fdc","system_id":"levelo_inurba_marseille","lat":43.308012,"lon":5.381511,"is_reserved":false,"is_disabled":false,"rental_uris":{"android":"levelo://app?vid=7d56f572-384f-489f-b01e-2f9548eb6fdc","ios":"levelo://app?vid=7d56f572-384f-489f-b01e-2f9548eb6fdc"},"vehicle_type_id":"4","last_reported":1724454488,"current_range_meters":10000,"station_id":"ce4bgt12rcd13ifvqce0","pricing_plan_id":"cebpf4jnsgd1na2vs0mg"},{"bike_id":"6e89008d-f3ba-41b1-a3aa-49ff613cc990","system_id":"levelo_inurba_marseille","lat":43.308012,"lon":5.381511,"is_reserved":false,"is_disabled":false,"rental_uris":{"android":"levelo://app?vid=6e89008d-f3ba-41b1-a3aa-49ff613cc990","ios":"levelo://app?vid=6e89008d-f3ba-41b1-a3aa-49ff613cc990"},"vehicle_type_id":"4","last_reported":1724454488,"current_range_meters":25600,"station_id":"ce4bgt12rcd13ifvqce0","pricing_plan_id":"cebpf4jnsgd1na2vs0mg"},{"bike_id":"88ea0cfd-5a0b-445a-b183-a57eab204797","system_id":"levelo_inurba_marseille","lat":43.308012,"lon":5.381511,"is_reserved":false,"is_disabled":false,"rental_uris":{"android":"levelo://app?vid=88ea0cfd-5a0b-445a-b183-a57eab204797","ios":"levelo://app?vid=88ea0cfd-5a0b-445a-b183-a57eab204797"},"vehicle_type_id":"4","last_reported":1724454488,"current_range_meters":31200,"station_id":"ce4bgt12rcd13ifvqce0","pricing_plan_id":"cebpf4jnsgd1na2vs0mg"},{"bike_id":"acef3691-64a7-4f27-8483-251c7b519ca5","system_id":"levelo_inurba_marseille","lat":43.308012,"lon":5.381511,"is_reserved":false,"is_disabled":false,"rental_uris":{"android":"levelo://app?vid=acef3691-64a7-4f27-8483-251c7b519ca5","ios":"levelo://app?vid=acef3691-64a7-4f27-8483-251c7b519ca5"},"vehicle_type_id":"4","last_reported":1724454488,"current_range_meters":23600,"station_id":"ce4bgt12rcd13ifvqce0","pricing_plan_id":"cebpf4jnsgd1na2vs0mg"},{"bike_id":"5c9a7ff3-e47e-4ac2-8fad-e8ddf23896d8","system_id":"levelo_inurba_marseille","lat":43.308012,"lon":5.381511,"is_reserved":false,"is_disabled":false,"rental_uris":{"android":"levelo://app?vid=5c9a7ff3-e47e-4ac2-8fad-e8ddf23896d8","ios":"levelo://app?vid=5c9a7ff3-e47e-4ac2-8fad-e8ddf23896d8"},"vehicle_type_id":"4","last_reported":1724454488,"current_range_meters":21600,"station_id":"ce4bgt12rcd13ifvqce0","pricing_plan_id":"cebpf4jnsgd1na2vs0mg"},{"bike_id":"9656b140-0289-41cf-b5ef-9ca34fb56ffe","system_id":"levelo_inurba_marseille","lat":43.304606,"lon":5.379026,"is_reserved":false,"is_disabled":false,"rental_uris":{"android":"levelo://app?vid=9656b140-0289-41cf-b5ef-9ca34fb56ffe","ios":"levelo://app?vid=9656b140-0289-41cf-b5ef-9ca34fb56ffe"},"vehicle_type_id":"4","last_reported":1724454488,"current_range_meters":17200,"station_id":"ce4bgup2rcd13ifvqcn0","pricing_plan_id":"cebpf4jnsgd1na2vs0mg"},{"bike_id":"248604cf-f7b1-4135-b528-764a31d63a5e","system_id":"levelo_inurba_marseille","lat":43.324763,"lon":5.365602,"is_reserved":false,"is_disabled":false,"rental_uris":{"android":"levelo://app?vid=248604cf-f7b1-4135-b528-764a31d63a5e","ios":"levelo://app?vid=248604cf-f7b1-4135-b528-764a31d63a5e"},"vehicle_type_id":"4","last_reported":1724454488,"current_range_meters":0,"station_id":"ce4bhs12rcd13ifvqhvg","pricing_plan_id":"cebpf4jnsgd1na2vs0mg"},{"bike_id":"d8eb6702-1d09-4e9b-9acb-d1d2715531ad","system_id":"levelo_inurba_marseille","lat":43.324771,"lon":5.36557,"is_reserved":false,"is_disabled":false,"rental_uris":{"android":"levelo://app?vid=d8eb6702-1d09-4e9b-9acb-d1d2715531ad","ios":"levelo://app?vid=d8eb6702-1d09-4e9b-9acb-d1d2715531ad"},"vehicle_type_id":"4","last_reported":1724454488,"current_range_meters":16000,"station_id":"ce4bhs12rcd13ifvqhvg","pricing_plan_id":"cebpf4jnsgd1na2vs0mg"},{"bike_id":"48c90b4a-1cc3-42ae-a7ee-02d77eaf4f49","system_id":"levelo_inurba_marseille","lat":43.324771,"lon":5.36557,"is_reserved":false,"is_disabled":false,"rental_uris":{"android":"levelo://app?vid=48c90b4a-1cc3-42ae-a7ee-02d77eaf4f49","ios":"levelo://app?vid=48c90b4a-1cc3-42ae-a7ee-02d77eaf4f49"},"vehicle_type_id":"4","last_reported":1724454488,"current_range_meters":20000,"station_id":"ce4bhs12rcd13ifvqhvg","pricing_plan_id":"cebpf4jnsgd1na2vs0mg"},{"bike_id":"a1ac0451-3398-4947-9ccd-6a7080d125c4","system_id":"levelo_inurba_marseille","lat":43.324771,"lon":5.36557,"is_reserved":false,"is_disabled":false,"rental_uris":{"android":"levelo://app?vid=a1ac0451-3398-4947-9ccd-6a7080d125c4","ios":"levelo://app?vid=a1ac0451-3398-4947-9ccd-6a7080d125c4"},"vehicle_type_id":"4","last_reported":1724454488,"current_range_meters":20000,"station_id":"ce4bhs12rcd13ifvqhvg","pricing_plan_id":"cebpf4jnsgd1na2vs0mg"},{"bike_id":"90a0ed3c-4d13-4e24-a2bf-7c6a5c177fde","system_id":"levelo_inurba_marseille","lat":43.324771,"lon":5.36557,"is_reserved":false,"is_disabled":false,"rental_uris":{"android":"levelo://app?vid=90a0ed3c-4d13-4e24-a2bf-7c6a5c177fde","ios":"levelo://app?vid=90a0ed3c-4d13-4e24-a2bf-7c6a5c177fde"},"vehicle_type_id":"4","last_reported":1724454488,"current_range_meters":16800,"station_id":"ce4bhs12rcd13ifvqhvg","pricing_plan_id":"cebpf4jnsgd1na2vs0mg"},{"bike_id":"1549e4ce-dd18-4a29-94c1-a1880e19a99a","system_id":"levelo_inurba_marseille","lat":43.324771,"lon":5.36557,"is_reserved":false,"is_disabled":false,"rental_uris":{"android":"levelo://app?vid=1549e4ce-dd18-4a29-94c1-a1880e19a99a","ios":"levelo://app?vid=1549e4ce-dd18-4a29-94c1-a1880e19a99a"},"vehicle_type_id":"4","last_reported":1724454488,"current_range_meters":29600,"station_id":"ce4bhs12rcd13ifvqhvg","pricing_plan_id":"cebpf4jnsgd1na2vs0mg"},{"bike_id":"4b068ad2-1221-4476-9487-2b7eb5619d8a","system_id":"levelo_inurba_marseille","lat":43.31366,"lon":5.38364,"is_reserved":false,"is_disabled":false,"rental_uris":{"android":"levelo://app?vid=4b068ad2-1221-4476-9487-2b7eb5619d8a","ios":"levelo://app?vid=4b068ad2-1221-4476-9487-2b7eb5619d8a"},"vehicle_type_id":"4","last_reported":1724454488,"current_range_meters":8000,"station_id":"","pricing_plan_id":"cebpf4jnsgd1na2vs0mg"},{"bike_id":"5bb0e495-fec4-44b9-b85f-d5d2b1a9aba2","system_id":"levelo_inurba_marseille","lat":43.31072,"lon":5.3835,"is_reserved":false,"is_disabled":false,"rental_uris":{"android":"levelo://app?vid=5bb0e495-fec4-44b9-b85f-d5d2b1a9aba2","ios":"levelo://app?vid=5bb0e495-fec4-44b9-b85f-d5d2b1a9aba2"},"vehicle_type_id":"4","last_reported":1724454488,"current_range_meters":18000,"station_id":"ce4bgv92rcd13ifvqcr0","pricing_plan_id":"cebpf4jnsgd1na2vs0mg"},{"bike_id":"eb515f02-19e8-4776-9298-2940f7279668","system_id":"levelo_inurba_marseille","lat":43.302784,"lon":5.377158,"is_reserved":false,"is_disabled":false,"rental_uris":{"android":"levelo://app?vid=eb515f02-19e8-4776-9298-2940f7279668","ios":"levelo://app?vid=eb515f02-19e8-4776-9298-2940f7279668"},"vehicle_type_id":"4","last_reported":1724454488,"current_range_meters":29600,"station_id":"ce4bguh2rcd13ifvqcj0","pricing_plan_id":"cebpf4jnsgd1na2vs0mg"},{"bike_id":"1890de2d-a49f-460e-b29d-02a60ead654d","system_id":"levelo_inurba_marseille","lat":43.310804,"lon":5.38359,"is_reserved":false,"is_disabled":false,"rental_uris":{"android":"levelo://app?vid=1890de2d-a49f-460e-b29d-02a60ead654d","ios":"levelo://app?vid=1890de2d-a49f-460e-b29d-02a60ead654d"},"vehicle_type_id":"4","last_reported":1724454488,"current_range_meters":25600,"station_id":"ce4bgv92rcd13ifvqcr0","pricing_plan_id":"cebpf4jnsgd1na2vs0mg"},{"bike_id":"e5f70360-da16-4c70-aff1-d47360083bd1","system_id":"levelo_inurba_marseille","lat":43.31076,"lon":5.38354,"is_reserved":false,"is_disabled":false,"rental_uris":{"android":"levelo://app?vid=e5f70360-da16-4c70-aff1-d47360083bd1","ios":"levelo://app?vid=e5f70360-da16-4c70-aff1-d47360083bd1"},"vehicle_type_id":"4","last_reported":1724454488,"current_range_meters":30400,"station_id":"ce4bgv92rcd13ifvqcr0","pricing_plan_id":"cebpf4jnsgd1na2vs0mg"},{"bike_id":"c4063e9a-d6ca-45fa-aad3-528eef5da065","system_id":"levelo_inurba_marseille","lat":43.310678,"lon":5.383535,"is_reserved":false,"is_disabled":false,"rental_uris":{"android":"levelo://app?vid=c4063e9a-d6ca-45fa-aad3-528eef5da065","ios":"levelo://app?vid=c4063e9a-d6ca-45fa-aad3-528eef5da065"},"vehicle_type_id":"4","last_reported":1724454488,"current_range_meters":12800,"station_id":"ce4bgv92rcd13ifvqcr0","pricing_plan_id":"cebpf4jnsgd1na2vs0mg"},{"bike_id":"fb51e7d2-3deb-4b9b-894c-d248755188ce","system_id":"levelo_inurba_marseille","lat":43.31072,"lon":5.38355,"is_reserved":false,"is_disabled":false,"rental_uris":{"android":"levelo://app?vid=fb51e7d2-3deb-4b9b-894c-d248755188ce","ios":"levelo://app?vid=fb51e7d2-3deb-4b9b-894c-d248755188ce"},"vehicle_type_id":"4","last_reported":1724454488,"current_range_meters":19600,"station_id":"ce4bgv92rcd13ifvqcr0","pricing_plan_id":"cebpf4jnsgd1na2vs0mg"},{"bike_id":"ac222a74-9882-4442-bc6b-01f27bc52da9","system_id":"levelo_inurba_marseille","lat":43.3108,"lon":5.38358,"is_reserved":false,"is_disabled":false,"rental_uris":{"android":"levelo://app?vid=ac222a74-9882-4442-bc6b-01f27bc52da9","ios":"levelo://app?vid=ac222a74-9882-4442-bc6b-01f27bc52da9"},"vehicle_type_id":"4","last_reported":1724454488,"current_range_meters":24400,"station_id":"ce4bgv92rcd13ifvqcr0","pricing_plan_id":"cebpf4jnsgd1na2vs0mg"},{"bike_id":"6dddb37f-6093-44e5-b7da-da4ddbc9b4c7","system_id":"levelo_inurba_marseille","lat":43.310724,"lon":5.383569,"is_reserved":false,"is_disabled":false,"rental_uris":{"android":"levelo://app?vid=6dddb37f-6093-44e5-b7da-da4ddbc9b4c7","ios":"levelo://app?vid=6dddb37f-6093-44e5-b7da-da4ddbc9b4c7"},"vehicle_type_id":"4","last_reported":1724454488,"current_range_meters":29600,"station_id":"ce4bgv92rcd13ifvqcr0","pricing_plan_id":"cebpf4jnsgd1na2vs0mg"},{"bike_id":"eab580e3-e6ab-4dc8-b4e6-a28b795da56f","system_id":"levelo_inurba_marseille","lat":43.310711,"lon":5.383569,"is_reserved":false,"is_disabled":false,"rental_uris":{"android":"levelo://app?vid=eab580e3-e6ab-4dc8-b4e6-a28b795da56f","ios":"levelo://app?vid=eab580e3-e6ab-4dc8-b4e6-a28b795da56f"},"vehicle_type_id":"4","last_reported":1724454488,"current_range_meters":29200,"station_id":"ce4bgv92rcd13ifvqcr0","pricing_plan_id":"cebpf4jnsgd1na2vs0mg"},{"bike_id":"3929400e-39fc-46cc-970e-e9a8497596b1","system_id":"levelo_inurba_marseille","lat":43.31078,"lon":5.38359,"is_reserved":false,"is_disabled":false,"rental_uris":{"android":"levelo://app?vid=3929400e-39fc-46cc-970e-e9a8497596b1","ios":"levelo://app?vid=3929400e-39fc-46cc-970e-e9a8497596b1"},"vehicle_type_id":"4","last_reported":1724454488,"current_range_meters":31200,"station_id":"ce4bgv92rcd13ifvqcr0","pricing_plan_id":"cebpf4jnsgd1na2vs0mg"},{"bike_id":"2b0c707a-dc29-4368-bc85-2f773144425a","system_id":"levelo_inurba_marseille","lat":43.302784,"lon":5.377158,"is_reserved":false,"is_disabled":false,"rental_uris":{"android":"levelo://app?vid=2b0c707a-dc29-4368-bc85-2f773144425a","ios":"levelo://app?vid=2b0c707a-dc29-4368-bc85-2f773144425a"},"vehicle_type_id":"4","last_reported":1724454488,"current_range_meters":21200,"station_id":"ce4bguh2rcd13ifvqcj0","pricing_plan_id":"cebpf4jnsgd1na2vs0mg"},{"bike_id":"852dfc35-7bf5-48e3-8836-024e3c28fe08","system_id":"levelo_inurba_marseille","lat":43.31073,"lon":5.383596,"is_reserved":false,"is_disabled":false,"rental_uris":{"android":"levelo://app?vid=852dfc35-7bf5-48e3-8836-024e3c28fe08","ios":"levelo://app?vid=852dfc35-7bf5-48e3-8836-024e3c28fe08"},"vehicle_type_id":"4","last_reported":1724454488,"current_range_meters":31200,"station_id":"ce4bgv92rcd13ifvqcr0","pricing_plan_id":"cebpf4jnsgd1na2vs0mg"},{"bike_id":"293391d7-7b3e-4483-b2d8-8447de35c359","system_id":"levelo_inurba_marseille","lat":43.310804,"lon":5.38359,"is_reserved":false,"is_disabled":false,"rental_uris":{"android":"levelo://app?vid=293391d7-7b3e-4483-b2d8-8447de35c359","ios":"levelo://app?vid=293391d7-7b3e-4483-b2d8-8447de35c359"},"vehicle_type_id":"4","last_reported":1724454488,"current_range_meters":30800,"station_id":"ce4bgv92rcd13ifvqcr0","pricing_plan_id":"cebpf4jnsgd1na2vs0mg"},{"bike_id":"a44bfc25-fe80-4cda-bb73-8a8353b98cd5","system_id":"levelo_inurba_marseille","lat":43.310804,"lon":5.38359,"is_reserved":false,"is_disabled":false,"rental_uris":{"android":"levelo://app?vid=a44bfc25-fe80-4cda-bb73-8a8353b98cd5","ios":"levelo://app?vid=a44bfc25-fe80-4cda-bb73-8a8353b98cd5"},"vehicle_type_id":"4","last_reported":1724454488,"current_range_meters":5600,"station_id":"ce4bgv92rcd13ifvqcr0","pricing_plan_id":"cebpf4jnsgd1na2vs0mg"},{"bike_id":"d2c32603-79aa-4f64-990c-6639aa5f82cc","system_id":"levelo_inurba_marseille","lat":43.302784,"lon":5.377158,"is_reserved":false,"is_disabled":false,"rental_uris":{"android":"levelo://app?vid=d2c32603-79aa-4f64-990c-6639aa5f82cc","ios":"levelo://app?vid=d2c32603-79aa-4f64-990c-6639aa5f82cc"},"vehicle_type_id":"4","last_reported":1724454488,"current_range_meters":3600,"station_id":"ce4bguh2rcd13ifvqcj0","pricing_plan_id":"cebpf4jnsgd1na2vs0mg"},{"bike_id":"a6e731c1-436a-41b5-8346-ecb6bb653b15","system_id":"levelo_inurba_marseille","lat":43.302784,"lon":5.377158,"is_reserved":false,"is_disabled":false,"rental_uris":{"android":"levelo://app?vid=a6e731c1-436a-41b5-8346-ecb6bb653b15","ios":"levelo://app?vid=a6e731c1-436a-41b5-8346-ecb6bb653b15"},"vehicle_type_id":"4","last_reported":1724454488,"current_range_meters":17200,"station_id":"ce4bguh2rcd13ifvqcj0","pricing_plan_id":"cebpf4jnsgd1na2vs0mg"},{"bike_id":"9f05eabe-15a9-4dd7-92bb-b39adceb9e36","system_id":"levelo_inurba_marseille","lat":43.310804,"lon":5.38359,"is_reserved":false,"is_disabled":false,"rental_uris":{"android":"levelo://app?vid=9f05eabe-15a9-4dd7-92bb-b39adceb9e36","ios":"levelo://app?vid=9f05eabe-15a9-4dd7-92bb-b39adceb9e36"},"vehicle_type_id":"4","last_reported":1724454488,"current_range_meters":23600,"station_id":"ce4bgv92rcd13ifvqcr0","pricing_plan_id":"cebpf4jnsgd1na2vs0mg"},{"bike_id":"91b792e3-b707-4682-8e80-9fcadd0c0c90","system_id":"levelo_inurba_marseille","lat":43.302784,"lon":5.377158,"is_reserved":false,"is_disabled":false,"rental_uris":{"android":"levelo://app?vid=91b792e3-b707-4682-8e80-9fcadd0c0c90","ios":"levelo://app?vid=91b792e3-b707-4682-8e80-9fcadd0c0c90"},"vehicle_type_id":"4","last_reported":1724454488,"current_range_meters":29200,"station_id":"ce4bguh2rcd13ifvqcj0","pricing_plan_id":"cebpf4jnsgd1na2vs0mg"},{"bike_id":"ffd7c046-4299-49dc-8727-25efb8b137b1","system_id":"levelo_inurba_marseille","lat":43.310804,"lon":5.38359,"is_reserved":false,"is_disabled":false,"rental_uris":{"android":"levelo://app?vid=ffd7c046-4299-49dc-8727-25efb8b137b1","ios":"levelo://app?vid=ffd7c046-4299-49dc-8727-25efb8b137b1"},"vehicle_type_id":"4","last_reported":1724454488,"current_range_meters":7200,"station_id":"ce4bgv92rcd13ifvqcr0","pricing_plan_id":"cebpf4jnsgd1na2vs0mg"},{"bike_id":"38390897-aa3f-4982-b7ea-4200813db58e","system_id":"levelo_inurba_marseille","lat":43.302784,"lon":5.377158,"is_reserved":false,"is_disabled":false,"rental_uris":{"android":"levelo://app?vid=38390897-aa3f-4982-b7ea-4200813db58e","ios":"levelo://app?vid=38390897-aa3f-4982-b7ea-4200813db58e"},"vehicle_type_id":"4","last_reported":1724454488,"current_range_meters":3600,"station_id":"ce4bguh2rcd13ifvqcj0","pricing_plan_id":"cebpf4jnsgd1na2vs0mg"},{"bike_id":"08f38388-393a-4681-be61-dee4ca31ce6a","system_id":"levelo_inurba_marseille","lat":43.301429,"lon":5.37413,"is_reserved":false,"is_disabled":false,"rental_uris":{"android":"levelo://app?vid=08f38388-393a-4681-be61-dee4ca31ce6a","ios":"levelo://app?vid=08f38388-393a-4681-be61-dee4ca31ce6a"},"vehicle_type_id":"4","last_reported":1724454488,"current_range_meters":26000,"station_id":"ce4bgs92rcd13ifvqcc0","pricing_plan_id":"cebpf4jnsgd1na2vs0mg"},{"bike_id":"18dc2d6a-07d6-412d-b925-700aa472c317","system_id":"levelo_inurba_marseille","lat":43.32037,"lon":5.3805,"is_reserved":false,"is_disabled":false,"rental_uris":{"android":"levelo://app?vid=18dc2d6a-07d6-412d-b925-700aa472c317","ios":"levelo://app?vid=18dc2d6a-07d6-412d-b925-700aa472c317"},"vehicle_type_id":"4","last_reported":1724454488,"current_range_meters":0,"station_id":"","pricing_plan_id":"cebpf4jnsgd1na2vs0mg"},{"bike_id":"d77c141d-2210-41c9-aa9f-850f78780832","system_id":"levelo_inurba_marseille","lat":43.30143,"lon":5.37413,"is_reserved":false,"is_disabled":false,"rental_uris":{"android":"levelo://app?vid=d77c141d-2210-41c9-aa9f-850f78780832","ios":"levelo://app?vid=d77c141d-2210-41c9-aa9f-850f78780832"},"vehicle_type_id":"4","last_reported":1724454488,"current_range_meters":27600,"station_id":"ce4bgs92rcd13ifvqcc0","pricing_plan_id":"cebpf4jnsgd1na2vs0mg"},{"bike_id":"36038220-170f-4573-b102-eac0e7338544","system_id":"levelo_inurba_marseille","lat":43.31997,"lon":5.38148,"is_reserved":false,"is_disabled":false,"rental_uris":{"android":"levelo://app?vid=36038220-170f-4573-b102-eac0e7338544","ios":"levelo://app?vid=36038220-170f-4573-b102-eac0e7338544"},"vehicle_type_id":"4","last_reported":1724454488,"current_range_meters":0,"station_id":"ce4bhr12rcd13ifvqhpg","pricing_plan_id":"cebpf4jnsgd1na2vs0mg"},{"bike_id":"51042665-3c69-4968-a944-20f4ac512721","system_id":"levelo_inurba_marseille","lat":43.319935,"lon":5.381699,"is_reserved":false,"is_disabled":false,"rental_uris":{"android":"levelo://app?vid=51042665-3c69-4968-a944-20f4ac512721","ios":"levelo://app?vid=51042665-3c69-4968-a944-20f4ac512721"},"vehicle_type_id":"4","last_reported":1724454488,"current_range_meters":31600,"station_id":"ce4bhr12rcd13ifvqhpg","pricing_plan_id":"cebpf4jnsgd1na2vs0mg"},{"bike_id":"5d88ad1c-566d-4937-a1b4-b6f81adb6b86","system_id":"levelo_inurba_marseille","lat":43.319935,"lon":5.381699,"is_reserved":false,"is_disabled":false,"rental_uris":{"android":"levelo://app?vid=5d88ad1c-566d-4937-a1b4-b6f81adb6b86","ios":"levelo://app?vid=5d88ad1c-566d-4937-a1b4-b6f81adb6b86"},"vehicle_type_id":"4","last_reported":1724454488,"current_range_meters":12800,"station_id":"ce4bhr12rcd13ifvqhpg","pricing_plan_id":"cebpf4jnsgd1na2vs0mg"},{"bike_id":"c515dda7-0a99-4af6-89ac-3dd1598d796a","system_id":"levelo_inurba_marseille","lat":43.319935,"lon":5.381699,"is_reserved":false,"is_disabled":false,"rental_uris":{"android":"levelo://app?vid=c515dda7-0a99-4af6-89ac-3dd1598d796a","ios":"levelo://app?vid=c515dda7-0a99-4af6-89ac-3dd1598d796a"},"vehicle_type_id":"4","last_reported":1724454488,"current_range_meters":6000,"station_id":"ce4bhr12rcd13ifvqhpg","pricing_plan_id":"cebpf4jnsgd1na2vs0mg"},{"bike_id":"ae351909-3b04-4b47-9473-2d182c54b840","system_id":"levelo_inurba_marseille","lat":43.319935,"lon":5.381699,"is_reserved":false,"is_disabled":false,"rental_uris":{"android":"levelo://app?vid=ae351909-3b04-4b47-9473-2d182c54b840","ios":"levelo://app?vid=ae351909-3b04-4b47-9473-2d182c54b840"},"vehicle_type_id":"4","last_reported":1724454488,"current_range_meters":28000,"station_id":"ce4bhr12rcd13ifvqhpg","pricing_plan_id":"cebpf4jnsgd1na2vs0mg"},{"bike_id":"9dd9c462-3df5-4527-94d4-7d466ef967e1","system_id":"levelo_inurba_marseille","lat":43.319935,"lon":5.381699,"is_reserved":false,"is_disabled":false,"rental_uris":{"android":"levelo://app?vid=9dd9c462-3df5-4527-94d4-7d466ef967e1","ios":"levelo://app?vid=9dd9c462-3df5-4527-94d4-7d466ef967e1"},"vehicle_type_id":"4","last_reported":1724454488,"current_range_meters":7200,"station_id":"ce4bhr12rcd13ifvqhpg","pricing_plan_id":"cebpf4jnsgd1na2vs0mg"},{"bike_id":"8d91f9fd-fe80-450a-a5e6-7931a4b41df7","system_id":"levelo_inurba_marseille","lat":43.319935,"lon":5.381699,"is_reserved":false,"is_disabled":false,"rental_uris":{"android":"levelo://app?vid=8d91f9fd-fe80-450a-a5e6-7931a4b41df7","ios":"levelo://app?vid=8d91f9fd-fe80-450a-a5e6-7931a4b41df7"},"vehicle_type_id":"4","last_reported":1724454488,"current_range_meters":16800,"station_id":"ce4bhr12rcd13ifvqhpg","pricing_plan_id":"cebpf4jnsgd1na2vs0mg"},{"bike_id":"fbee563d-3f86-4c71-8ddb-ce8e3aa5e119","system_id":"levelo_inurba_marseille","lat":43.319935,"lon":5.381699,"is_reserved":false,"is_disabled":false,"rental_uris":{"android":"levelo://app?vid=fbee563d-3f86-4c71-8ddb-ce8e3aa5e119","ios":"levelo://app?vid=fbee563d-3f86-4c71-8ddb-ce8e3aa5e119"},"vehicle_type_id":"4","last_reported":1724454488,"current_range_meters":14800,"station_id":"ce4bhr12rcd13ifvqhpg","pricing_plan_id":"cebpf4jnsgd1na2vs0mg"},{"bike_id":"35f09dd3-333e-4101-87f5-44098578bf83","system_id":"levelo_inurba_marseille","lat":43.313572,"lon":5.384879,"is_reserved":false,"is_disabled":false,"rental_uris":{"android":"levelo://app?vid=35f09dd3-333e-4101-87f5-44098578bf83","ios":"levelo://app?vid=35f09dd3-333e-4101-87f5-44098578bf83"},"vehicle_type_id":"4","last_reported":1724454488,"current_range_meters":11600,"station_id":"ce4bgt92rcd13ifvqcf0","pricing_plan_id":"cebpf4jnsgd1na2vs0mg"},{"bike_id":"f59b48c0-8687-4444-8966-badc1551adef","system_id":"levelo_inurba_marseille","lat":43.313613,"lon":5.384891,"is_reserved":false,"is_disabled":false,"rental_uris":{"android":"levelo://app?vid=f59b48c0-8687-4444-8966-badc1551adef","ios":"levelo://app?vid=f59b48c0-8687-4444-8966-badc1551adef"},"vehicle_type_id":"4","last_reported":1724454488,"current_range_meters":30400,"station_id":"ce4bgt92rcd13ifvqcf0","pricing_plan_id":"cebpf4jnsgd1na2vs0mg"},{"bike_id":"89d27677-18aa-4409-ba15-c94954e69b0d","system_id":"levelo_inurba_marseille","lat":43.313571,"lon":5.384829,"is_reserved":false,"is_disabled":false,"rental_uris":{"android":"levelo://app?vid=89d27677-18aa-4409-ba15-c94954e69b0d","ios":"levelo://app?vid=89d27677-18aa-4409-ba15-c94954e69b0d"},"vehicle_type_id":"4","last_reported":1724454488,"current_range_meters":28800,"station_id":"ce4bgt92rcd13ifvqcf0","pricing_plan_id":"cebpf4jnsgd1na2vs0mg"},{"bike_id":"0e107b38-14e7-475c-961a-7a9272f445fc","system_id":"levelo_inurba_marseille","lat":43.313546,"lon":5.384914,"is_reserved":false,"is_disabled":false,"rental_uris":{"android":"levelo://app?vid=0e107b38-14e7-475c-961a-7a9272f445fc","ios":"levelo://app?vid=0e107b38-14e7-475c-961a-7a9272f445fc"},"vehicle_type_id":"4","last_reported":1724454488,"current_range_meters":6000,"station_id":"ce4bgt92rcd13ifvqcf0","pricing_plan_id":"cebpf4jnsgd1na2vs0mg"},{"bike_id":"7506f5cd-fac5-404e-984f-8cad98b53d7c","system_id":"levelo_inurba_marseille","lat":43.313571,"lon":5.384829,"is_reserved":false,"is_disabled":false,"rental_uris":{"android":"levelo://app?vid=7506f5cd-fac5-404e-984f-8cad98b53d7c","ios":"levelo://app?vid=7506f5cd-fac5-404e-984f-8cad98b53d7c"},"vehicle_type_id":"4","last_reported":1724454488,"current_range_meters":13600,"station_id":"ce4bgt92rcd13ifvqcf0","pricing_plan_id":"cebpf4jnsgd1na2vs0mg"},{"bike_id":"9255221e-35f9-43a7-8438-46be127cfc36","system_id":"levelo_inurba_marseille","lat":43.31356,"lon":5.38492,"is_reserved":false,"is_disabled":false,"rental_uris":{"android":"levelo://app?vid=9255221e-35f9-43a7-8438-46be127cfc36","ios":"levelo://app?vid=9255221e-35f9-43a7-8438-46be127cfc36"},"vehicle_type_id":"4","last_reported":1724454488,"current_range_meters":13200,"station_id":"ce4bgt92rcd13ifvqcf0","pricing_plan_id":"cebpf4jnsgd1na2vs0mg"},{"bike_id":"de4abb94-53eb-4dd8-8025-585502bb1192","system_id":"levelo_inurba_marseille","lat":43.3136,"lon":5.384917,"is_reserved":false,"is_disabled":false,"rental_uris":{"android":"levelo://app?vid=de4abb94-53eb-4dd8-8025-585502bb1192","ios":"levelo://app?vid=de4abb94-53eb-4dd8-8025-585502bb1192"},"vehicle_type_id":"4","last_reported":1724454488,"current_range_meters":31200,"station_id":"ce4bgt92rcd13ifvqcf0","pricing_plan_id":"cebpf4jnsgd1na2vs0mg"},{"bike_id":"ab484965-c252-4a4c-a124-3c7b6d4c41a7","system_id":"levelo_inurba_marseille","lat":43.313571,"lon":5.384829,"is_reserved":false,"is_disabled":false,"rental_uris":{"android":"levelo://app?vid=ab484965-c252-4a4c-a124-3c7b6d4c41a7","ios":"levelo://app?vid=ab484965-c252-4a4c-a124-3c7b6d4c41a7"},"vehicle_type_id":"4","last_reported":1724454488,"current_range_meters":5600,"station_id":"ce4bgt92rcd13ifvqcf0","pricing_plan_id":"cebpf4jnsgd1na2vs0mg"},{"bike_id":"ad47456d-30b9-4fc3-ba5f-cd77903ff7e5","system_id":"levelo_inurba_marseille","lat":43.31364,"lon":5.38493,"is_reserved":false,"is_disabled":false,"rental_uris":{"android":"levelo://app?vid=ad47456d-30b9-4fc3-ba5f-cd77903ff7e5","ios":"levelo://app?vid=ad47456d-30b9-4fc3-ba5f-cd77903ff7e5"},"vehicle_type_id":"4","last_reported":1724454488,"current_range_meters":24800,"station_id":"ce4bgt92rcd13ifvqcf0","pricing_plan_id":"cebpf4jnsgd1na2vs0mg"},{"bike_id":"8ffb2ed4-d35a-4fe5-bb96-827e390f20ec","system_id":"levelo_inurba_marseille","lat":43.31361,"lon":5.38494,"is_reserved":false,"is_disabled":false,"rental_uris":{"android":"levelo://app?vid=8ffb2ed4-d35a-4fe5-bb96-827e390f20ec","ios":"levelo://app?vid=8ffb2ed4-d35a-4fe5-bb96-827e390f20ec"},"vehicle_type_id":"4","last_reported":1724454488,"current_range_meters":10400,"station_id":"ce4bgt92rcd13ifvqcf0","pricing_plan_id":"cebpf4jnsgd1na2vs0mg"},{"bike_id":"c389299f-ba64-4302-9c20-c88941f22465","system_id":"levelo_inurba_marseille","lat":43.31356,"lon":5.38495,"is_reserved":false,"is_disabled":false,"rental_uris":{"android":"levelo://app?vid=c389299f-ba64-4302-9c20-c88941f22465","ios":"levelo://app?vid=c389299f-ba64-4302-9c20-c88941f22465"},"vehicle_type_id":"4","last_reported":1724454488,"current_range_meters":31200,"station_id":"ce4bgt92rcd13ifvqcf0","pricing_plan_id":"cebpf4jnsgd1na2vs0mg"},{"bike_id":"41e87e6a-ceb8-4985-875a-8beee55621d6","system_id":"levelo_inurba_marseille","lat":43.31361,"lon":5.38495,"is_reserved":false,"is_disabled":false,"rental_uris":{"android":"levelo://app?vid=41e87e6a-ceb8-4985-875a-8beee55621d6","ios":"levelo://app?vid=41e87e6a-ceb8-4985-875a-8beee55621d6"},"vehicle_type_id":"4","last_reported":1724454488,"current_range_meters":31200,"station_id":"ce4bgt92rcd13ifvqcf0","pricing_plan_id":"cebpf4jnsgd1na2vs0mg"},{"bike_id":"d8ffb925-3b1e-4d3f-87c3-2a23cfc509c5","system_id":"levelo_inurba_marseille","lat":43.31372,"lon":5.38494,"is_reserved":false,"is_disabled":false,"rental_uris":{"android":"levelo://app?vid=d8ffb925-3b1e-4d3f-87c3-2a23cfc509c5","ios":"levelo://app?vid=d8ffb925-3b1e-4d3f-87c3-2a23cfc509c5"},"vehicle_type_id":"4","last_reported":1724454488,"current_range_meters":3600,"station_id":"ce4bgt92rcd13ifvqcf0","pricing_plan_id":"cebpf4jnsgd1na2vs0mg"},{"bike_id":"e1dd2d56-a7eb-42df-8b35-db9d5744b927","system_id":"levelo_inurba_marseille","lat":43.31362,"lon":5.38495,"is_reserved":false,"is_disabled":false,"rental_uris":{"android":"levelo://app?vid=e1dd2d56-a7eb-42df-8b35-db9d5744b927","ios":"levelo://app?vid=e1dd2d56-a7eb-42df-8b35-db9d5744b927"},"vehicle_type_id":"4","last_reported":1724454488,"current_range_meters":0,"station_id":"ce4bgt92rcd13ifvqcf0","pricing_plan_id":"cebpf4jnsgd1na2vs0mg"},{"bike_id":"9aae4305-2a47-4add-bf33-65b5c019cb34","system_id":"levelo_inurba_marseille","lat":43.31354,"lon":5.38496,"is_reserved":false,"is_disabled":false,"rental_uris":{"android":"levelo://app?vid=9aae4305-2a47-4add-bf33-65b5c019cb34","ios":"levelo://app?vid=9aae4305-2a47-4add-bf33-65b5c019cb34"},"vehicle_type_id":"4","last_reported":1724454488,"current_range_meters":7200,"station_id":"ce4bgt92rcd13ifvqcf0","pricing_plan_id":"cebpf4jnsgd1na2vs0mg"},{"bike_id":"f818f01e-ebdf-4a97-9595-8eee82cb8426","system_id":"levelo_inurba_marseille","lat":43.313571,"lon":5.384829,"is_reserved":false,"is_disabled":false,"rental_uris":{"android":"levelo://app?vid=f818f01e-ebdf-4a97-9595-8eee82cb8426","ios":"levelo://app?vid=f818f01e-ebdf-4a97-9595-8eee82cb8426"},"vehicle_type_id":"4","last_reported":1724454488,"current_range_meters":18800,"station_id":"ce4bgt92rcd13ifvqcf0","pricing_plan_id":"cebpf4jnsgd1na2vs0mg"},{"bike_id":"521bf602-f815-4632-8c17-0c327d777404","system_id":"levelo_inurba_marseille","lat":43.313571,"lon":5.384829,"is_reserved":false,"is_disabled":false,"rental_uris":{"android":"levelo://app?vid=521bf602-f815-4632-8c17-0c327d777404","ios":"levelo://app?vid=521bf602-f815-4632-8c17-0c327d777404"},"vehicle_type_id":"4","last_reported":1724454488,"current_range_meters":11600,"station_id":"ce4bgt92rcd13ifvqcf0","pricing_plan_id":"cebpf4jnsgd1na2vs0mg"},{"bike_id":"16cb840c-73c1-4368-8447-e9aeee70b7ec","system_id":"levelo_inurba_marseille","lat":43.313637,"lon":5.384967,"is_reserved":false,"is_disabled":false,"rental_uris":{"android":"levelo://app?vid=16cb840c-73c1-4368-8447-e9aeee70b7ec","ios":"levelo://app?vid=16cb840c-73c1-4368-8447-e9aeee70b7ec"},"vehicle_type_id":"4","last_reported":1724454488,"current_range_meters":9200,"station_id":"ce4bgt92rcd13ifvqcf0","pricing_plan_id":"cebpf4jnsgd1na2vs0mg"},{"bike_id":"e24123ec-07b1-4cf5-9a49-a2213508bc75","system_id":"levelo_inurba_marseille","lat":43.313563,"lon":5.384977,"is_reserved":false,"is_disabled":false,"rental_uris":{"android":"levelo://app?vid=e24123ec-07b1-4cf5-9a49-a2213508bc75","ios":"levelo://app?vid=e24123ec-07b1-4cf5-9a49-a2213508bc75"},"vehicle_type_id":"4","last_reported":1724454488,"current_range_meters":3200,"station_id":"ce4bgt92rcd13ifvqcf0","pricing_plan_id":"cebpf4jnsgd1na2vs0mg"},{"bike_id":"66f93880-290d-4aef-9648-b97989be101c","system_id":"levelo_inurba_marseille","lat":43.31356,"lon":5.38498,"is_reserved":false,"is_disabled":false,"rental_uris":{"android":"levelo://app?vid=66f93880-290d-4aef-9648-b97989be101c","ios":"levelo://app?vid=66f93880-290d-4aef-9648-b97989be101c"},"vehicle_type_id":"4","last_reported":1724454488,"current_range_meters":22400,"station_id":"ce4bgt92rcd13ifvqcf0","pricing_plan_id":"cebpf4jnsgd1na2vs0mg"},{"bike_id":"ac25f575-383f-4127-8613-10250b598a0e","system_id":"levelo_inurba_marseille","lat":43.31363,"lon":5.38498,"is_reserved":false,"is_disabled":false,"rental_uris":{"android":"levelo://app?vid=ac25f575-383f-4127-8613-10250b598a0e","ios":"levelo://app?vid=ac25f575-383f-4127-8613-10250b598a0e"},"vehicle_type_id":"4","last_reported":1724454488,"current_range_meters":24800,"station_id":"ce4bgt92rcd13ifvqcf0","pricing_plan_id":"cebpf4jnsgd1na2vs0mg"},{"bike_id":"d1598545-9781-4d7f-bef9-6cb3cea7091a","system_id":"levelo_inurba_marseille","lat":43.31363,"lon":5.38498,"is_reserved":false,"is_disabled":false,"rental_uris":{"android":"levelo://app?vid=d1598545-9781-4d7f-bef9-6cb3cea7091a","ios":"levelo://app?vid=d1598545-9781-4d7f-bef9-6cb3cea7091a"},"vehicle_type_id":"4","last_reported":1724454488,"current_range_meters":20000,"station_id":"ce4bgt92rcd13ifvqcf0","pricing_plan_id":"cebpf4jnsgd1na2vs0mg"},{"bike_id":"a14ec9d8-9287-4f55-a0f4-55720ff1e6e5","system_id":"levelo_inurba_marseille","lat":43.313635,"lon":5.384983,"is_reserved":false,"is_disabled":false,"rental_uris":{"android":"levelo://app?vid=a14ec9d8-9287-4f55-a0f4-55720ff1e6e5","ios":"levelo://app?vid=a14ec9d8-9287-4f55-a0f4-55720ff1e6e5"},"vehicle_type_id":"4","last_reported":1724454488,"current_range_meters":18800,"station_id":"ce4bgt92rcd13ifvqcf0","pricing_plan_id":"cebpf4jnsgd1na2vs0mg"},{"bike_id":"0da06c1a-4938-49a3-813e-e1610d8460d2","system_id":"levelo_inurba_marseille","lat":43.31343,"lon":5.38502,"is_reserved":false,"is_disabled":false,"rental_uris":{"android":"levelo://app?vid=0da06c1a-4938-49a3-813e-e1610d8460d2","ios":"levelo://app?vid=0da06c1a-4938-49a3-813e-e1610d8460d2"},"vehicle_type_id":"4","last_reported":1724454488,"current_range_meters":23200,"station_id":"ce4bgt92rcd13ifvqcf0","pricing_plan_id":"cebpf4jnsgd1na2vs0mg"},{"bike_id":"f5e6988e-24fa-4b8d-a48f-6de7759de25b","system_id":"levelo_inurba_marseille","lat":43.313571,"lon":5.384829,"is_reserved":false,"is_disabled":false,"rental_uris":{"android":"levelo://app?vid=f5e6988e-24fa-4b8d-a48f-6de7759de25b","ios":"levelo://app?vid=f5e6988e-24fa-4b8d-a48f-6de7759de25b"},"vehicle_type_id":"4","last_reported":1724454488,"current_range_meters":7600,"station_id":"ce4bgt92rcd13ifvqcf0","pricing_plan_id":"cebpf4jnsgd1na2vs0mg"},{"bike_id":"5d02f54d-215b-4a7a-b501-00418d752d15","system_id":"levelo_inurba_marseille","lat":43.31355,"lon":5.38504,"is_reserved":false,"is_disabled":false,"rental_uris":{"android":"levelo://app?vid=5d02f54d-215b-4a7a-b501-00418d752d15","ios":"levelo://app?vid=5d02f54d-215b-4a7a-b501-00418d752d15"},"vehicle_type_id":"4","last_reported":1724454488,"current_range_meters":21200,"station_id":"ce4bgt92rcd13ifvqcf0","pricing_plan_id":"cebpf4jnsgd1na2vs0mg"},{"bike_id":"78851acd-4fe1-48c6-a8a9-5a2249661ab0","system_id":"levelo_inurba_marseille","lat":43.31376,"lon":5.385025,"is_reserved":false,"is_disabled":false,"rental_uris":{"android":"levelo://app?vid=78851acd-4fe1-48c6-a8a9-5a2249661ab0","ios":"levelo://app?vid=78851acd-4fe1-48c6-a8a9-5a2249661ab0"},"vehicle_type_id":"4","last_reported":1724454488,"current_range_meters":31600,"station_id":"ce4bgt92rcd13ifvqcf0","pricing_plan_id":"cebpf4jnsgd1na2vs0mg"},{"bike_id":"2488f94a-c6b8-47ca-831e-a11fcf0fd546","system_id":"levelo_inurba_marseille","lat":43.3135,"lon":5.38506,"is_reserved":false,"is_disabled":false,"rental_uris":{"android":"levelo://app?vid=2488f94a-c6b8-47ca-831e-a11fcf0fd546","ios":"levelo://app?vid=2488f94a-c6b8-47ca-831e-a11fcf0fd546"},"vehicle_type_id":"4","last_reported":1724454488,"current_range_meters":6000,"station_id":"ce4bgt92rcd13ifvqcf0","pricing_plan_id":"cebpf4jnsgd1na2vs0mg"},{"bike_id":"5b4b11fa-bf1c-419a-a302-c63ea86a37da","system_id":"levelo_inurba_marseille","lat":43.31375,"lon":5.38505,"is_reserved":false,"is_disabled":false,"rental_uris":{"android":"levelo://app?vid=5b4b11fa-bf1c-419a-a302-c63ea86a37da","ios":"levelo://app?vid=5b4b11fa-bf1c-419a-a302-c63ea86a37da"},"vehicle_type_id":"4","last_reported":1724454488,"current_range_meters":31200,"station_id":"ce4bgt92rcd13ifvqcf0","pricing_plan_id":"cebpf4jnsgd1na2vs0mg"},{"bike_id":"0aef3f83-ff20-4357-b187-1df0c3638638","system_id":"levelo_inurba_marseille","lat":43.299222,"lon":5.365554,"is_reserved":false,"is_disabled":false,"rental_uris":{"android":"levelo://app?vid=0aef3f83-ff20-4357-b187-1df0c3638638","ios":"levelo://app?vid=0aef3f83-ff20-4357-b187-1df0c3638638"},"vehicle_type_id":"4","last_reported":1724454488,"current_range_meters":30800,"station_id":"ce4bgm92rcd13ifvqbr0","pricing_plan_id":"cebpf4jnsgd1na2vs0mg"},{"bike_id":"89b9f3db-4e6c-4bb9-8bd2-2677f6157c1f","system_id":"levelo_inurba_marseille","lat":43.299222,"lon":5.365554,"is_reserved":false,"is_disabled":false,"rental_uris":{"android":"levelo://app?vid=89b9f3db-4e6c-4bb9-8bd2-2677f6157c1f","ios":"levelo://app?vid=89b9f3db-4e6c-4bb9-8bd2-2677f6157c1f"},"vehicle_type_id":"4","last_reported":1724454488,"current_range_meters":8400,"station_id":"ce4bgm92rcd13ifvqbr0","pricing_plan_id":"cebpf4jnsgd1na2vs0mg"},{"bike_id":"6b928fae-a896-46eb-af76-dca575d6af09","system_id":"levelo_inurba_marseille","lat":43.299724,"lon":5.371829,"is_reserved":false,"is_disabled":false,"rental_uris":{"android":"levelo://app?vid=6b928fae-a896-46eb-af76-dca575d6af09","ios":"levelo://app?vid=6b928fae-a896-46eb-af76-dca575d6af09"},"vehicle_type_id":"4","last_reported":1724454488,"current_range_meters":27600,"station_id":"ce4bgr92rcd13ifvqc7g","pricing_plan_id":"cebpf4jnsgd1na2vs0mg"},{"bike_id":"f6738f19-4b66-428b-a479-3bf5dee7d7fe","system_id":"levelo_inurba_marseille","lat":43.299209,"lon":5.365547,"is_reserved":false,"is_disabled":false,"rental_uris":{"android":"levelo://app?vid=f6738f19-4b66-428b-a479-3bf5dee7d7fe","ios":"levelo://app?vid=f6738f19-4b66-428b-a479-3bf5dee7d7fe"},"vehicle_type_id":"4","last_reported":1724454488,"current_range_meters":30800,"station_id":"ce4bgm92rcd13ifvqbr0","pricing_plan_id":"cebpf4jnsgd1na2vs0mg"},{"bike_id":"4c56d8db-3ff6-4a5e-908f-9eaabb8b1104","system_id":"levelo_inurba_marseille","lat":43.305364,"lon":5.384119,"is_reserved":false,"is_disabled":false,"rental_uris":{"android":"levelo://app?vid=4c56d8db-3ff6-4a5e-908f-9eaabb8b1104","ios":"levelo://app?vid=4c56d8db-3ff6-4a5e-908f-9eaabb8b1104"},"vehicle_type_id":"4","last_reported":1724454488,"current_range_meters":13200,"station_id":"ce4bgg92rcd13ifvqb30","pricing_plan_id":"cebpf4jnsgd1na2vs0mg"},{"bike_id":"9e8915e3-af98-4627-92c6-c5969311c68f","system_id":"levelo_inurba_marseille","lat":43.305364,"lon":5.384119,"is_reserved":false,"is_disabled":false,"rental_uris":{"android":"levelo://app?vid=9e8915e3-af98-4627-92c6-c5969311c68f","ios":"levelo://app?vid=9e8915e3-af98-4627-92c6-c5969311c68f"},"vehicle_type_id":"4","last_reported":1724454488,"current_range_meters":12400,"station_id":"ce4bgg92rcd13ifvqb30","pricing_plan_id":"cebpf4jnsgd1na2vs0mg"},{"bike_id":"2a210c3e-72ed-470d-9c2b-cb7b39f1bfd2","system_id":"levelo_inurba_marseille","lat":43.299243,"lon":5.374807,"is_reserved":false,"is_disabled":false,"rental_uris":{"android":"levelo://app?vid=2a210c3e-72ed-470d-9c2b-cb7b39f1bfd2","ios":"levelo://app?vid=2a210c3e-72ed-470d-9c2b-cb7b39f1bfd2"},"vehicle_type_id":"4","last_reported":1724454488,"current_range_meters":28000,"station_id":"ce4bgjh2rcd13ifvqbg0","pricing_plan_id":"cebpf4jnsgd1na2vs0mg"},{"bike_id":"1af38d5e-950a-4052-a5e5-f949aac04296","system_id":"levelo_inurba_marseille","lat":43.299243,"lon":5.374807,"is_reserved":false,"is_disabled":false,"rental_uris":{"android":"levelo://app?vid=1af38d5e-950a-4052-a5e5-f949aac04296","ios":"levelo://app?vid=1af38d5e-950a-4052-a5e5-f949aac04296"},"vehicle_type_id":"4","last_reported":1724454488,"current_range_meters":18000,"station_id":"ce4bgjh2rcd13ifvqbg0","pricing_plan_id":"cebpf4jnsgd1na2vs0mg"},{"bike_id":"ba847705-015c-4174-94a8-84d3f6be6328","system_id":"levelo_inurba_marseille","lat":43.311722,"lon":5.387247,"is_reserved":false,"is_disabled":false,"rental_uris":{"android":"levelo://app?vid=ba847705-015c-4174-94a8-84d3f6be6328","ios":"levelo://app?vid=ba847705-015c-4174-94a8-84d3f6be6328"},"vehicle_type_id":"4","last_reported":1724454488,"current_range_meters":12400,"station_id":"ce4bgv12rcd13ifvqcp0","pricing_plan_id":"cebpf4jnsgd1na2vs0mg"},{"bike_id":"4cd42031-2df6-48de-a6f9-5c428ca7a818","system_id":"levelo_inurba_marseille","lat":43.299243,"lon":5.37481,"is_reserved":false,"is_disabled":false,"rental_uris":{"android":"levelo://app?vid=4cd42031-2df6-48de-a6f9-5c428ca7a818","ios":"levelo://app?vid=4cd42031-2df6-48de-a6f9-5c428ca7a818"},"vehicle_type_id":"4","last_reported":1724454488,"current_range_meters":27600,"station_id":"ce4bgjh2rcd13ifvqbg0","pricing_plan_id":"cebpf4jnsgd1na2vs0mg"},{"bike_id":"393763a8-aa28-466a-9970-8022341857a8","system_id":"levelo_inurba_marseille","lat":43.311722,"lon":5.387247,"is_reserved":false,"is_disabled":false,"rental_uris":{"android":"levelo://app?vid=393763a8-aa28-466a-9970-8022341857a8","ios":"levelo://app?vid=393763a8-aa28-466a-9970-8022341857a8"},"vehicle_type_id":"4","last_reported":1724454488,"current_range_meters":31600,"station_id":"ce4bgv12rcd13ifvqcp0","pricing_plan_id":"cebpf4jnsgd1na2vs0mg"},{"bike_id":"a53cbace-557e-4458-bbbb-14900b844441","system_id":"levelo_inurba_marseille","lat":43.311722,"lon":5.387247,"is_reserved":false,"is_disabled":false,"rental_uris":{"android":"levelo://app?vid=a53cbace-557e-4458-bbbb-14900b844441","ios":"levelo://app?vid=a53cbace-557e-4458-bbbb-14900b844441"},"vehicle_type_id":"4","last_reported":1724454488,"current_range_meters":4800,"station_id":"ce4bgv12rcd13ifvqcp0","pricing_plan_id":"cebpf4jnsgd1na2vs0mg"},{"bike_id":"0d4ac834-2a70-44fa-837b-baef84897d13","system_id":"levelo_inurba_marseille","lat":43.299243,"lon":5.37481,"is_reserved":false,"is_disabled":false,"rental_uris":{"android":"levelo://app?vid=0d4ac834-2a70-44fa-837b-baef84897d13","ios":"levelo://app?vid=0d4ac834-2a70-44fa-837b-baef84897d13"},"vehicle_type_id":"4","last_reported":1724454488,"current_range_meters":28400,"station_id":"ce4bgjh2rcd13ifvqbg0","pricing_plan_id":"cebpf4jnsgd1na2vs0mg"},{"bike_id":"d036c859-b656-4967-9963-5d506f7d6dc0","system_id":"levelo_inurba_marseille","lat":43.31166,"lon":5.38721,"is_reserved":false,"is_disabled":false,"rental_uris":{"android":"levelo://app?vid=d036c859-b656-4967-9963-5d506f7d6dc0","ios":"levelo://app?vid=d036c859-b656-4967-9963-5d506f7d6dc0"},"vehicle_type_id":"4","last_reported":1724454488,"current_range_meters":6000,"station_id":"ce4bgv12rcd13ifvqcp0","pricing_plan_id":"cebpf4jnsgd1na2vs0mg"},{"bike_id":"069b2d18-088d-435a-90f1-e3303333ea47","system_id":"levelo_inurba_marseille","lat":43.311722,"lon":5.387247,"is_reserved":false,"is_disabled":false,"rental_uris":{"android":"levelo://app?vid=069b2d18-088d-435a-90f1-e3303333ea47","ios":"levelo://app?vid=069b2d18-088d-435a-90f1-e3303333ea47"},"vehicle_type_id":"4","last_reported":1724454488,"current_range_meters":27600,"station_id":"ce4bgv12rcd13ifvqcp0","pricing_plan_id":"cebpf4jnsgd1na2vs0mg"},{"bike_id":"aa48f540-272e-4ab6-9d28-b21f844dd481","system_id":"levelo_inurba_marseille","lat":43.311722,"lon":5.387247,"is_reserved":false,"is_disabled":false,"rental_uris":{"android":"levelo://app?vid=aa48f540-272e-4ab6-9d28-b21f844dd481","ios":"levelo://app?vid=aa48f540-272e-4ab6-9d28-b21f844dd481"},"vehicle_type_id":"4","last_reported":1724454488,"current_range_meters":24000,"station_id":"ce4bgv12rcd13ifvqcp0","pricing_plan_id":"cebpf4jnsgd1na2vs0mg"},{"bike_id":"efcf760f-0ed5-4ca1-9870-c94447ddf1cc","system_id":"levelo_inurba_marseille","lat":43.301417,"lon":5.3809,"is_reserved":false,"is_disabled":false,"rental_uris":{"android":"levelo://app?vid=efcf760f-0ed5-4ca1-9870-c94447ddf1cc","ios":"levelo://app?vid=efcf760f-0ed5-4ca1-9870-c94447ddf1cc"},"vehicle_type_id":"4","last_reported":1724454488,"current_range_meters":8800,"station_id":"ce4bgjp2rcd13ifvqbh0","pricing_plan_id":"cebpf4jnsgd1na2vs0mg"},{"bike_id":"0dca321e-48e2-42cf-b286-aa02c76ea94f","system_id":"levelo_inurba_marseille","lat":43.301417,"lon":5.3809,"is_reserved":false,"is_disabled":false,"rental_uris":{"android":"levelo://app?vid=0dca321e-48e2-42cf-b286-aa02c76ea94f","ios":"levelo://app?vid=0dca321e-48e2-42cf-b286-aa02c76ea94f"},"vehicle_type_id":"4","last_reported":1724454488,"current_range_meters":28400,"station_id":"ce4bgjp2rcd13ifvqbh0","pricing_plan_id":"cebpf4jnsgd1na2vs0mg"},{"bike_id":"7dd56884-fc4d-4b3d-8925-6974cca2b904","system_id":"levelo_inurba_marseille","lat":43.30154,"lon":5.3808,"is_reserved":false,"is_disabled":false,"rental_uris":{"android":"levelo://app?vid=7dd56884-fc4d-4b3d-8925-6974cca2b904","ios":"levelo://app?vid=7dd56884-fc4d-4b3d-8925-6974cca2b904"},"vehicle_type_id":"4","last_reported":1724454488,"current_range_meters":17600,"station_id":"ce4bgjp2rcd13ifvqbh0","pricing_plan_id":"cebpf4jnsgd1na2vs0mg"},{"bike_id":"c0999bb8-f63b-4f20-b48d-bde40ab81b52","system_id":"levelo_inurba_marseille","lat":43.301417,"lon":5.3809,"is_reserved":false,"is_disabled":false,"rental_uris":{"android":"levelo://app?vid=c0999bb8-f63b-4f20-b48d-bde40ab81b52","ios":"levelo://app?vid=c0999bb8-f63b-4f20-b48d-bde40ab81b52"},"vehicle_type_id":"4","last_reported":1724454488,"current_range_meters":30000,"station_id":"ce4bgjp2rcd13ifvqbh0","pricing_plan_id":"cebpf4jnsgd1na2vs0mg"},{"bike_id":"df806b81-c46a-4b42-baf9-5f7441adddaf","system_id":"levelo_inurba_marseille","lat":43.301417,"lon":5.3809,"is_reserved":false,"is_disabled":false,"rental_uris":{"android":"levelo://app?vid=df806b81-c46a-4b42-baf9-5f7441adddaf","ios":"levelo://app?vid=df806b81-c46a-4b42-baf9-5f7441adddaf"},"vehicle_type_id":"4","last_reported":1724454488,"current_range_meters":6400,"station_id":"ce4bgjp2rcd13ifvqbh0","pricing_plan_id":"cebpf4jnsgd1na2vs0mg"},{"bike_id":"d4758d95-ea90-4538-9004-c71f2e7579c7","system_id":"levelo_inurba_marseille","lat":43.30157,"lon":5.3809,"is_reserved":false,"is_disabled":false,"rental_uris":{"android":"levelo://app?vid=d4758d95-ea90-4538-9004-c71f2e7579c7","ios":"levelo://app?vid=d4758d95-ea90-4538-9004-c71f2e7579c7"},"vehicle_type_id":"4","last_reported":1724454488,"current_range_meters":21200,"station_id":"ce4bgjp2rcd13ifvqbh0","pricing_plan_id":"cebpf4jnsgd1na2vs0mg"},{"bike_id":"08c37647-a3a3-4301-9dc8-7457ace897f9","system_id":"levelo_inurba_marseille","lat":43.301417,"lon":5.3809,"is_reserved":false,"is_disabled":false,"rental_uris":{"android":"levelo://app?vid=08c37647-a3a3-4301-9dc8-7457ace897f9","ios":"levelo://app?vid=08c37647-a3a3-4301-9dc8-7457ace897f9"},"vehicle_type_id":"4","last_reported":1724454488,"current_range_meters":2400,"station_id":"ce4bgjp2rcd13ifvqbh0","pricing_plan_id":"cebpf4jnsgd1na2vs0mg"},{"bike_id":"315d7484-f230-4426-a4a4-8dd227ae8a8a","system_id":"levelo_inurba_marseille","lat":43.301417,"lon":5.3809,"is_reserved":false,"is_disabled":false,"rental_uris":{"android":"levelo://app?vid=315d7484-f230-4426-a4a4-8dd227ae8a8a","ios":"levelo://app?vid=315d7484-f230-4426-a4a4-8dd227ae8a8a"},"vehicle_type_id":"4","last_reported":1724454488,"current_range_meters":24400,"station_id":"ce4bgjp2rcd13ifvqbh0","pricing_plan_id":"cebpf4jnsgd1na2vs0mg"},{"bike_id":"d4e7925e-7247-45e1-836a-639417462d38","system_id":"levelo_inurba_marseille","lat":43.301417,"lon":5.3809,"is_reserved":false,"is_disabled":false,"rental_uris":{"android":"levelo://app?vid=d4e7925e-7247-45e1-836a-639417462d38","ios":"levelo://app?vid=d4e7925e-7247-45e1-836a-639417462d38"},"vehicle_type_id":"4","last_reported":1724454488,"current_range_meters":8800,"station_id":"ce4bgjp2rcd13ifvqbh0","pricing_plan_id":"cebpf4jnsgd1na2vs0mg"},{"bike_id":"3d6db763-e88d-43eb-9b21-01148b8ad961","system_id":"levelo_inurba_marseille","lat":43.301417,"lon":5.3809,"is_reserved":false,"is_disabled":false,"rental_uris":{"android":"levelo://app?vid=3d6db763-e88d-43eb-9b21-01148b8ad961","ios":"levelo://app?vid=3d6db763-e88d-43eb-9b21-01148b8ad961"},"vehicle_type_id":"4","last_reported":1724454488,"current_range_meters":30000,"station_id":"ce4bgjp2rcd13ifvqbh0","pricing_plan_id":"cebpf4jnsgd1na2vs0mg"},{"bike_id":"c7f96dce-6d65-4ea9-84b4-fd18ba279c4d","system_id":"levelo_inurba_marseille","lat":43.30145,"lon":5.38082,"is_reserved":false,"is_disabled":false,"rental_uris":{"android":"levelo://app?vid=c7f96dce-6d65-4ea9-84b4-fd18ba279c4d","ios":"levelo://app?vid=c7f96dce-6d65-4ea9-84b4-fd18ba279c4d"},"vehicle_type_id":"4","last_reported":1724454488,"current_range_meters":28800,"station_id":"ce4bgjp2rcd13ifvqbh0","pricing_plan_id":"cebpf4jnsgd1na2vs0mg"},{"bike_id":"93549a0c-6f8e-4d21-a391-2955005e61d0","system_id":"levelo_inurba_marseille","lat":43.297774,"lon":5.370875,"is_reserved":false,"is_disabled":false,"rental_uris":{"android":"levelo://app?vid=93549a0c-6f8e-4d21-a391-2955005e61d0","ios":"levelo://app?vid=93549a0c-6f8e-4d21-a391-2955005e61d0"},"vehicle_type_id":"4","last_reported":1724454488,"current_range_meters":10800,"station_id":"ce4bgop2rcd13ifvqc1g","pricing_plan_id":"cebpf4jnsgd1na2vs0mg"},{"bike_id":"28dee242-4560-43d5-ade1-1a0101baa1c4","system_id":"levelo_inurba_marseille","lat":43.297163,"lon":5.365866,"is_reserved":false,"is_disabled":false,"rental_uris":{"android":"levelo://app?vid=28dee242-4560-43d5-ade1-1a0101baa1c4","ios":"levelo://app?vid=28dee242-4560-43d5-ade1-1a0101baa1c4"},"vehicle_type_id":"4","last_reported":1724454488,"current_range_meters":10800,"station_id":"ce4bgn12rcd13ifvqbt0","pricing_plan_id":"cebpf4jnsgd1na2vs0mg"},{"bike_id":"b19ce76a-6c99-4425-8c8e-a45117cea8d6","system_id":"levelo_inurba_marseille","lat":43.29629,"lon":5.37171,"is_reserved":false,"is_disabled":false,"rental_uris":{"android":"levelo://app?vid=b19ce76a-6c99-4425-8c8e-a45117cea8d6","ios":"levelo://app?vid=b19ce76a-6c99-4425-8c8e-a45117cea8d6"},"vehicle_type_id":"4","last_reported":1724454488,"current_range_meters":24000,"station_id":"ce4bgnh2rcd13ifvqc0g","pricing_plan_id":"cebpf4jnsgd1na2vs0mg"},{"bike_id":"dba99a19-277a-4f35-82ed-e1ef8301be10","system_id":"levelo_inurba_marseille","lat":43.29625,"lon":5.37285,"is_reserved":false,"is_disabled":false,"rental_uris":{"android":"levelo://app?vid=dba99a19-277a-4f35-82ed-e1ef8301be10","ios":"levelo://app?vid=dba99a19-277a-4f35-82ed-e1ef8301be10"},"vehicle_type_id":"4","last_reported":1724454488,"current_range_meters":4400,"station_id":"","pricing_plan_id":"cebpf4jnsgd1na2vs0mg"},{"bike_id":"4d25b85f-9b00-4273-8b2c-4830813ec1f5","system_id":"levelo_inurba_marseille","lat":43.309589,"lon":5.390258,"is_reserved":false,"is_disabled":false,"rental_uris":{"android":"levelo://app?vid=4d25b85f-9b00-4273-8b2c-4830813ec1f5","ios":"levelo://app?vid=4d25b85f-9b00-4273-8b2c-4830813ec1f5"},"vehicle_type_id":"4","last_reported":1724454488,"current_range_meters":18800,"station_id":"ce4bgup2rcd13ifvqco0","pricing_plan_id":"cebpf4jnsgd1na2vs0mg"},{"bike_id":"7cc513a8-3071-444b-8293-de842e6748fc","system_id":"levelo_inurba_marseille","lat":43.29903,"lon":5.38145,"is_reserved":false,"is_disabled":false,"rental_uris":{"android":"levelo://app?vid=7cc513a8-3071-444b-8293-de842e6748fc","ios":"levelo://app?vid=7cc513a8-3071-444b-8293-de842e6748fc"},"vehicle_type_id":"4","last_reported":1724454488,"current_range_meters":6400,"station_id":"ce4bgj12rcd13ifvqbc0","pricing_plan_id":"cebpf4jnsgd1na2vs0mg"},{"bike_id":"1ae5169f-0f72-4786-8a88-e7a284e1e01b","system_id":"levelo_inurba_marseille","lat":43.309589,"lon":5.390258,"is_reserved":false,"is_disabled":false,"rental_uris":{"android":"levelo://app?vid=1ae5169f-0f72-4786-8a88-e7a284e1e01b","ios":"levelo://app?vid=1ae5169f-0f72-4786-8a88-e7a284e1e01b"},"vehicle_type_id":"4","last_reported":1724454488,"current_range_meters":14400,"station_id":"ce4bgup2rcd13ifvqco0","pricing_plan_id":"cebpf4jnsgd1na2vs0mg"},{"bike_id":"59252430-d18c-4400-9022-801a81054d21","system_id":"levelo_inurba_marseille","lat":43.309589,"lon":5.390258,"is_reserved":false,"is_disabled":false,"rental_uris":{"android":"levelo://app?vid=59252430-d18c-4400-9022-801a81054d21","ios":"levelo://app?vid=59252430-d18c-4400-9022-801a81054d21"},"vehicle_type_id":"4","last_reported":1724454488,"current_range_meters":28400,"station_id":"ce4bgup2rcd13ifvqco0","pricing_plan_id":"cebpf4jnsgd1na2vs0mg"},{"bike_id":"a28330bb-1823-4aa5-a9db-d3830dfcbe1a","system_id":"levelo_inurba_marseille","lat":43.299028,"lon":5.381509,"is_reserved":false,"is_disabled":false,"rental_uris":{"android":"levelo://app?vid=a28330bb-1823-4aa5-a9db-d3830dfcbe1a","ios":"levelo://app?vid=a28330bb-1823-4aa5-a9db-d3830dfcbe1a"},"vehicle_type_id":"4","last_reported":1724454488,"current_range_meters":2800,"station_id":"ce4bgj12rcd13ifvqbc0","pricing_plan_id":"cebpf4jnsgd1na2vs0mg"},{"bike_id":"bf5f5dd4-90b2-4d6c-b745-ebe22c275815","system_id":"levelo_inurba_marseille","lat":43.309589,"lon":5.390258,"is_reserved":false,"is_disabled":false,"rental_uris":{"android":"levelo://app?vid=bf5f5dd4-90b2-4d6c-b745-ebe22c275815","ios":"levelo://app?vid=bf5f5dd4-90b2-4d6c-b745-ebe22c275815"},"vehicle_type_id":"4","last_reported":1724454488,"current_range_meters":12000,"station_id":"ce4bgup2rcd13ifvqco0","pricing_plan_id":"cebpf4jnsgd1na2vs0mg"},{"bike_id":"fc2238b4-c2e0-46bd-9caa-b31a7e46b399","system_id":"levelo_inurba_marseille","lat":43.285742,"lon":5.395004,"is_reserved":false,"is_disabled":false,"rental_uris":{"android":"levelo://app?vid=fc2238b4-c2e0-46bd-9caa-b31a7e46b399","ios":"levelo://app?vid=fc2238b4-c2e0-46bd-9caa-b31a7e46b399"},"vehicle_type_id":"4","last_reported":1724454488,"current_range_meters":7600,"station_id":"ce4bh292rcd13ifvqdg0","pricing_plan_id":"cebpf4jnsgd1na2vs0mg"},{"bike_id":"d824fa8f-b804-488f-8cf2-59b645ba76bf","system_id":"levelo_inurba_marseille","lat":43.31756,"lon":5.39014,"is_reserved":false,"is_disabled":false,"rental_uris":{"android":"levelo://app?vid=d824fa8f-b804-488f-8cf2-59b645ba76bf","ios":"levelo://app?vid=d824fa8f-b804-488f-8cf2-59b645ba76bf"},"vehicle_type_id":"4","last_reported":1724454488,"current_range_meters":10000,"station_id":"ce4bhqp2rcd13ifvqhng","pricing_plan_id":"cebpf4jnsgd1na2vs0mg"},{"bike_id":"880478d3-44a9-42b4-a6f5-42cc39f52bca","system_id":"levelo_inurba_marseille","lat":43.3176,"lon":5.39013,"is_reserved":false,"is_disabled":false,"rental_uris":{"android":"levelo://app?vid=880478d3-44a9-42b4-a6f5-42cc39f52bca","ios":"levelo://app?vid=880478d3-44a9-42b4-a6f5-42cc39f52bca"},"vehicle_type_id":"4","last_reported":1724454488,"current_range_meters":7200,"station_id":"ce4bhqp2rcd13ifvqhng","pricing_plan_id":"cebpf4jnsgd1na2vs0mg"},{"bike_id":"29003208-e944-4658-9ffb-440b05fa57fb","system_id":"levelo_inurba_marseille","lat":43.317557,"lon":5.390173,"is_reserved":false,"is_disabled":false,"rental_uris":{"android":"levelo://app?vid=29003208-e944-4658-9ffb-440b05fa57fb","ios":"levelo://app?vid=29003208-e944-4658-9ffb-440b05fa57fb"},"vehicle_type_id":"4","last_reported":1724454488,"current_range_meters":14800,"station_id":"ce4bhqp2rcd13ifvqhng","pricing_plan_id":"cebpf4jnsgd1na2vs0mg"},{"bike_id":"2bd8c7a4-6f15-46f7-8b37-9f0e27509f71","system_id":"levelo_inurba_marseille","lat":43.31759,"lon":5.39015,"is_reserved":false,"is_disabled":false,"rental_uris":{"android":"levelo://app?vid=2bd8c7a4-6f15-46f7-8b37-9f0e27509f71","ios":"levelo://app?vid=2bd8c7a4-6f15-46f7-8b37-9f0e27509f71"},"vehicle_type_id":"4","last_reported":1724454488,"current_range_meters":31200,"station_id":"ce4bhqp2rcd13ifvqhng","pricing_plan_id":"cebpf4jnsgd1na2vs0mg"},{"bike_id":"8669a97a-2067-4295-b56a-25a38755796b","system_id":"levelo_inurba_marseille","lat":43.317557,"lon":5.390173,"is_reserved":false,"is_disabled":false,"rental_uris":{"android":"levelo://app?vid=8669a97a-2067-4295-b56a-25a38755796b","ios":"levelo://app?vid=8669a97a-2067-4295-b56a-25a38755796b"},"vehicle_type_id":"4","last_reported":1724454488,"current_range_meters":26400,"station_id":"ce4bhqp2rcd13ifvqhng","pricing_plan_id":"cebpf4jnsgd1na2vs0mg"},{"bike_id":"0795b349-1b3b-4f78-9704-13edcbb6d14b","system_id":"levelo_inurba_marseille","lat":43.298434,"lon":5.381166,"is_reserved":false,"is_disabled":false,"rental_uris":{"android":"levelo://app?vid=0795b349-1b3b-4f78-9704-13edcbb6d14b","ios":"levelo://app?vid=0795b349-1b3b-4f78-9704-13edcbb6d14b"},"vehicle_type_id":"4","last_reported":1724454488,"current_range_meters":8400,"station_id":"","pricing_plan_id":"cebpf4jnsgd1na2vs0mg"},{"bike_id":"3d79b406-491a-4ef0-8f38-aa4db3e39dc5","system_id":"levelo_inurba_marseille","lat":43.304274,"lon":5.388873,"is_reserved":false,"is_disabled":false,"rental_uris":{"android":"levelo://app?vid=3d79b406-491a-4ef0-8f38-aa4db3e39dc5","ios":"levelo://app?vid=3d79b406-491a-4ef0-8f38-aa4db3e39dc5"},"vehicle_type_id":"4","last_reported":1724454488,"current_range_meters":30000,"station_id":"ce4bgk12rcd13ifvqbi0","pricing_plan_id":"cebpf4jnsgd1na2vs0mg"},{"bike_id":"4ac53b2d-08ca-4fb5-b10d-e1b849a90416","system_id":"levelo_inurba_marseille","lat":43.304274,"lon":5.388873,"is_reserved":false,"is_disabled":false,"rental_uris":{"android":"levelo://app?vid=4ac53b2d-08ca-4fb5-b10d-e1b849a90416","ios":"levelo://app?vid=4ac53b2d-08ca-4fb5-b10d-e1b849a90416"},"vehicle_type_id":"4","last_reported":1724454488,"current_range_meters":8000,"station_id":"ce4bgk12rcd13ifvqbi0","pricing_plan_id":"cebpf4jnsgd1na2vs0mg"},{"bike_id":"a9c53b0a-2b07-454d-9ff1-6922b6b3f1db","system_id":"levelo_inurba_marseille","lat":43.30433,"lon":5.38891,"is_reserved":false,"is_disabled":false,"rental_uris":{"android":"levelo://app?vid=a9c53b0a-2b07-454d-9ff1-6922b6b3f1db","ios":"levelo://app?vid=a9c53b0a-2b07-454d-9ff1-6922b6b3f1db"},"vehicle_type_id":"4","last_reported":1724454488,"current_range_meters":30800,"station_id":"ce4bgk12rcd13ifvqbi0","pricing_plan_id":"cebpf4jnsgd1na2vs0mg"},{"bike_id":"43791ae3-f57f-46ed-ad73-0848730c9a26","system_id":"levelo_inurba_marseille","lat":43.304274,"lon":5.388873,"is_reserved":false,"is_disabled":false,"rental_uris":{"android":"levelo://app?vid=43791ae3-f57f-46ed-ad73-0848730c9a26","ios":"levelo://app?vid=43791ae3-f57f-46ed-ad73-0848730c9a26"},"vehicle_type_id":"4","last_reported":1724454488,"current_range_meters":10000,"station_id":"ce4bgk12rcd13ifvqbi0","pricing_plan_id":"cebpf4jnsgd1na2vs0mg"},{"bike_id":"f3d0eee8-2774-4021-9682-5a7be5555036","system_id":"levelo_inurba_marseille","lat":43.304278,"lon":5.388868,"is_reserved":false,"is_disabled":false,"rental_uris":{"android":"levelo://app?vid=f3d0eee8-2774-4021-9682-5a7be5555036","ios":"levelo://app?vid=f3d0eee8-2774-4021-9682-5a7be5555036"},"vehicle_type_id":"4","last_reported":1724454488,"current_range_meters":8000,"station_id":"ce4bgk12rcd13ifvqbi0","pricing_plan_id":"cebpf4jnsgd1na2vs0mg"},{"bike_id":"82b54d47-02e4-4408-8ddc-d4a10fe0dd1c","system_id":"levelo_inurba_marseille","lat":43.29979,"lon":5.38479,"is_reserved":false,"is_disabled":false,"rental_uris":{"android":"levelo://app?vid=82b54d47-02e4-4408-8ddc-d4a10fe0dd1c","ios":"levelo://app?vid=82b54d47-02e4-4408-8ddc-d4a10fe0dd1c"},"vehicle_type_id":"4","last_reported":1724454488,"current_range_meters":3600,"station_id":"ce4bgj92rcd13ifvqbd0","pricing_plan_id":"cebpf4jnsgd1na2vs0mg"},{"bike_id":"6cde7e5c-c455-46ed-9e4a-92535be291f7","system_id":"levelo_inurba_marseille","lat":43.299707,"lon":5.384859,"is_reserved":false,"is_disabled":false,"rental_uris":{"android":"levelo://app?vid=6cde7e5c-c455-46ed-9e4a-92535be291f7","ios":"levelo://app?vid=6cde7e5c-c455-46ed-9e4a-92535be291f7"},"vehicle_type_id":"4","last_reported":1724454488,"current_range_meters":22400,"station_id":"ce4bgj92rcd13ifvqbd0","pricing_plan_id":"cebpf4jnsgd1na2vs0mg"},{"bike_id":"d1723f2a-e014-4118-bcfb-a6cdb08e096b","system_id":"levelo_inurba_marseille","lat":43.29966,"lon":5.38492,"is_reserved":false,"is_disabled":false,"rental_uris":{"android":"levelo://app?vid=d1723f2a-e014-4118-bcfb-a6cdb08e096b","ios":"levelo://app?vid=d1723f2a-e014-4118-bcfb-a6cdb08e096b"},"vehicle_type_id":"4","last_reported":1724454488,"current_range_meters":10800,"station_id":"ce4bgj92rcd13ifvqbd0","pricing_plan_id":"cebpf4jnsgd1na2vs0mg"},{"bike_id":"121a4704-c070-47cf-ad75-2cdb9a640c2e","system_id":"levelo_inurba_marseille","lat":43.29959,"lon":5.38501,"is_reserved":false,"is_disabled":false,"rental_uris":{"android":"levelo://app?vid=121a4704-c070-47cf-ad75-2cdb9a640c2e","ios":"levelo://app?vid=121a4704-c070-47cf-ad75-2cdb9a640c2e"},"vehicle_type_id":"4","last_reported":1724454488,"current_range_meters":7200,"station_id":"ce4bgj92rcd13ifvqbd0","pricing_plan_id":"cebpf4jnsgd1na2vs0mg"},{"bike_id":"626c84d9-8920-4e06-aadf-1ba07427780b","system_id":"levelo_inurba_marseille","lat":43.30129,"lon":5.38761,"is_reserved":false,"is_disabled":false,"rental_uris":{"android":"levelo://app?vid=626c84d9-8920-4e06-aadf-1ba07427780b","ios":"levelo://app?vid=626c84d9-8920-4e06-aadf-1ba07427780b"},"vehicle_type_id":"4","last_reported":1724454488,"current_range_meters":22000,"station_id":"ce4bghh2rcd13ifvqb60","pricing_plan_id":"cebpf4jnsgd1na2vs0mg"},{"bike_id":"29a3160c-61ed-4141-b034-b4398c6cf554","system_id":"levelo_inurba_marseille","lat":43.301396,"lon":5.387812,"is_reserved":false,"is_disabled":false,"rental_uris":{"android":"levelo://app?vid=29a3160c-61ed-4141-b034-b4398c6cf554","ios":"levelo://app?vid=29a3160c-61ed-4141-b034-b4398c6cf554"},"vehicle_type_id":"4","last_reported":1724454488,"current_range_meters":16000,"station_id":"ce4bghh2rcd13ifvqb60","pricing_plan_id":"cebpf4jnsgd1na2vs0mg"},{"bike_id":"fb07970b-5bec-48eb-a94b-01e83cfb70b9","system_id":"levelo_inurba_marseille","lat":43.30137,"lon":5.38778,"is_reserved":false,"is_disabled":false,"rental_uris":{"android":"levelo://app?vid=fb07970b-5bec-48eb-a94b-01e83cfb70b9","ios":"levelo://app?vid=fb07970b-5bec-48eb-a94b-01e83cfb70b9"},"vehicle_type_id":"4","last_reported":1724454488,"current_range_meters":0,"station_id":"ce4bghh2rcd13ifvqb60","pricing_plan_id":"cebpf4jnsgd1na2vs0mg"},{"bike_id":"48867cde-5625-4bb8-a220-efe0f79674c7","system_id":"levelo_inurba_marseille","lat":43.301396,"lon":5.387812,"is_reserved":false,"is_disabled":false,"rental_uris":{"android":"levelo://app?vid=48867cde-5625-4bb8-a220-efe0f79674c7","ios":"levelo://app?vid=48867cde-5625-4bb8-a220-efe0f79674c7"},"vehicle_type_id":"4","last_reported":1724454488,"current_range_meters":21200,"station_id":"ce4bghh2rcd13ifvqb60","pricing_plan_id":"cebpf4jnsgd1na2vs0mg"},{"bike_id":"5bff76cc-96a1-4bcc-b3b8-e92ae90466fc","system_id":"levelo_inurba_marseille","lat":43.301396,"lon":5.387812,"is_reserved":false,"is_disabled":false,"rental_uris":{"android":"levelo://app?vid=5bff76cc-96a1-4bcc-b3b8-e92ae90466fc","ios":"levelo://app?vid=5bff76cc-96a1-4bcc-b3b8-e92ae90466fc"},"vehicle_type_id":"4","last_reported":1724454488,"current_range_meters":26000,"station_id":"ce4bghh2rcd13ifvqb60","pricing_plan_id":"cebpf4jnsgd1na2vs0mg"},{"bike_id":"e71cd57a-32da-493e-92b6-b73499f7afbf","system_id":"levelo_inurba_marseille","lat":43.30132,"lon":5.38796,"is_reserved":false,"is_disabled":false,"rental_uris":{"android":"levelo://app?vid=e71cd57a-32da-493e-92b6-b73499f7afbf","ios":"levelo://app?vid=e71cd57a-32da-493e-92b6-b73499f7afbf"},"vehicle_type_id":"4","last_reported":1724454488,"current_range_meters":12000,"station_id":"ce4bghh2rcd13ifvqb60","pricing_plan_id":"cebpf4jnsgd1na2vs0mg"},{"bike_id":"a3e766df-8fc6-40df-80e7-8fdd998e7b46","system_id":"levelo_inurba_marseille","lat":43.301396,"lon":5.387812,"is_reserved":false,"is_disabled":false,"rental_uris":{"android":"levelo://app?vid=a3e766df-8fc6-40df-80e7-8fdd998e7b46","ios":"levelo://app?vid=a3e766df-8fc6-40df-80e7-8fdd998e7b46"},"vehicle_type_id":"4","last_reported":1724454488,"current_range_meters":11600,"station_id":"ce4bghh2rcd13ifvqb60","pricing_plan_id":"cebpf4jnsgd1na2vs0mg"},{"bike_id":"728daa94-f704-4b46-89ac-7b3386472bb3","system_id":"levelo_inurba_marseille","lat":43.32367,"lon":5.388836,"is_reserved":false,"is_disabled":false,"rental_uris":{"android":"levelo://app?vid=728daa94-f704-4b46-89ac-7b3386472bb3","ios":"levelo://app?vid=728daa94-f704-4b46-89ac-7b3386472bb3"},"vehicle_type_id":"4","last_reported":1724454488,"current_range_meters":21600,"station_id":"ce4bhqp2rcd13ifvqhog","pricing_plan_id":"cebpf4jnsgd1na2vs0mg"},{"bike_id":"ced3d7db-8cb0-44d4-a99e-2bf62d862045","system_id":"levelo_inurba_marseille","lat":43.32367,"lon":5.388836,"is_reserved":false,"is_disabled":false,"rental_uris":{"android":"levelo://app?vid=ced3d7db-8cb0-44d4-a99e-2bf62d862045","ios":"levelo://app?vid=ced3d7db-8cb0-44d4-a99e-2bf62d862045"},"vehicle_type_id":"4","last_reported":1724454488,"current_range_meters":800,"station_id":"ce4bhqp2rcd13ifvqhog","pricing_plan_id":"cebpf4jnsgd1na2vs0mg"},{"bike_id":"dbac62c4-8ac4-4df1-ab73-655b9b5c5917","system_id":"levelo_inurba_marseille","lat":43.32367,"lon":5.388836,"is_reserved":false,"is_disabled":false,"rental_uris":{"android":"levelo://app?vid=dbac62c4-8ac4-4df1-ab73-655b9b5c5917","ios":"levelo://app?vid=dbac62c4-8ac4-4df1-ab73-655b9b5c5917"},"vehicle_type_id":"4","last_reported":1724454488,"current_range_meters":0,"station_id":"ce4bhqp2rcd13ifvqhog","pricing_plan_id":"cebpf4jnsgd1na2vs0mg"},{"bike_id":"8e3c5cc5-eac2-49c7-9fe0-ab6e8cb80ba7","system_id":"levelo_inurba_marseille","lat":43.32367,"lon":5.388836,"is_reserved":false,"is_disabled":false,"rental_uris":{"android":"levelo://app?vid=8e3c5cc5-eac2-49c7-9fe0-ab6e8cb80ba7","ios":"levelo://app?vid=8e3c5cc5-eac2-49c7-9fe0-ab6e8cb80ba7"},"vehicle_type_id":"4","last_reported":1724454488,"current_range_meters":11600,"station_id":"ce4bhqp2rcd13ifvqhog","pricing_plan_id":"cebpf4jnsgd1na2vs0mg"},{"bike_id":"bba58462-ed4f-49b2-84a3-d3ae7efdca7c","system_id":"levelo_inurba_marseille","lat":43.29602,"lon":5.381084,"is_reserved":false,"is_disabled":false,"rental_uris":{"android":"levelo://app?vid=bba58462-ed4f-49b2-84a3-d3ae7efdca7c","ios":"levelo://app?vid=bba58462-ed4f-49b2-84a3-d3ae7efdca7c"},"vehicle_type_id":"4","last_reported":1724454488,"current_range_meters":0,"station_id":"ce4bgl12rcd13ifvqbo0","pricing_plan_id":"cebpf4jnsgd1na2vs0mg"},{"bike_id":"acec4fdd-d1a1-4119-b679-cc79978e0c81","system_id":"levelo_inurba_marseille","lat":43.293249,"lon":5.371578,"is_reserved":false,"is_disabled":false,"rental_uris":{"android":"levelo://app?vid=acec4fdd-d1a1-4119-b679-cc79978e0c81","ios":"levelo://app?vid=acec4fdd-d1a1-4119-b679-cc79978e0c81"},"vehicle_type_id":"4","last_reported":1724454488,"current_range_meters":28000,"station_id":"ce4bgh92rcd13ifvqb40","pricing_plan_id":"cebpf4jnsgd1na2vs0mg"},{"bike_id":"c14021ef-25d0-4fd5-a614-0ea2d0f6a93c","system_id":"levelo_inurba_marseille","lat":43.292749,"lon":5.368402,"is_reserved":false,"is_disabled":false,"rental_uris":{"android":"levelo://app?vid=c14021ef-25d0-4fd5-a614-0ea2d0f6a93c","ios":"levelo://app?vid=c14021ef-25d0-4fd5-a614-0ea2d0f6a93c"},"vehicle_type_id":"4","last_reported":1724454488,"current_range_meters":14400,"station_id":"ce4bhbp2rcd13ifvqesg","pricing_plan_id":"cebpf4jnsgd1na2vs0mg"},{"bike_id":"e36faf87-1235-4a04-a69d-551b0876306f","system_id":"levelo_inurba_marseille","lat":43.292749,"lon":5.368402,"is_reserved":false,"is_disabled":false,"rental_uris":{"android":"levelo://app?vid=e36faf87-1235-4a04-a69d-551b0876306f","ios":"levelo://app?vid=e36faf87-1235-4a04-a69d-551b0876306f"},"vehicle_type_id":"4","last_reported":1724454488,"current_range_meters":24400,"station_id":"ce4bhbp2rcd13ifvqesg","pricing_plan_id":"cebpf4jnsgd1na2vs0mg"},{"bike_id":"404730b7-dd6a-43a4-8c48-b6c76af0daf0","system_id":"levelo_inurba_marseille","lat":43.292749,"lon":5.368402,"is_reserved":false,"is_disabled":false,"rental_uris":{"android":"levelo://app?vid=404730b7-dd6a-43a4-8c48-b6c76af0daf0","ios":"levelo://app?vid=404730b7-dd6a-43a4-8c48-b6c76af0daf0"},"vehicle_type_id":"4","last_reported":1724454488,"current_range_meters":12000,"station_id":"ce4bhbp2rcd13ifvqesg","pricing_plan_id":"cebpf4jnsgd1na2vs0mg"},{"bike_id":"6071cc41-3e2e-4f98-9898-278156435eab","system_id":"levelo_inurba_marseille","lat":43.292749,"lon":5.368398,"is_reserved":false,"is_disabled":false,"rental_uris":{"android":"levelo://app?vid=6071cc41-3e2e-4f98-9898-278156435eab","ios":"levelo://app?vid=6071cc41-3e2e-4f98-9898-278156435eab"},"vehicle_type_id":"4","last_reported":1724454488,"current_range_meters":10800,"station_id":"ce4bhbp2rcd13ifvqesg","pricing_plan_id":"cebpf4jnsgd1na2vs0mg"},{"bike_id":"28e9b806-1d5b-422e-a08b-bcb50fd64b4c","system_id":"levelo_inurba_marseille","lat":43.292749,"lon":5.368402,"is_reserved":false,"is_disabled":false,"rental_uris":{"android":"levelo://app?vid=28e9b806-1d5b-422e-a08b-bcb50fd64b4c","ios":"levelo://app?vid=28e9b806-1d5b-422e-a08b-bcb50fd64b4c"},"vehicle_type_id":"4","last_reported":1724454488,"current_range_meters":9600,"station_id":"ce4bhbp2rcd13ifvqesg","pricing_plan_id":"cebpf4jnsgd1na2vs0mg"},{"bike_id":"cf1aabe3-be05-4f1a-b5a6-61a164bd9461","system_id":"levelo_inurba_marseille","lat":43.29265,"lon":5.3684,"is_reserved":false,"is_disabled":false,"rental_uris":{"android":"levelo://app?vid=cf1aabe3-be05-4f1a-b5a6-61a164bd9461","ios":"levelo://app?vid=cf1aabe3-be05-4f1a-b5a6-61a164bd9461"},"vehicle_type_id":"4","last_reported":1724454488,"current_range_meters":18800,"station_id":"ce4bhbp2rcd13ifvqesg","pricing_plan_id":"cebpf4jnsgd1na2vs0mg"},{"bike_id":"38d11bdd-f8c3-46f3-9735-e7344edbb510","system_id":"levelo_inurba_marseille","lat":43.292749,"lon":5.368398,"is_reserved":false,"is_disabled":false,"rental_uris":{"android":"levelo://app?vid=38d11bdd-f8c3-46f3-9735-e7344edbb510","ios":"levelo://app?vid=38d11bdd-f8c3-46f3-9735-e7344edbb510"},"vehicle_type_id":"4","last_reported":1724454488,"current_range_meters":17600,"station_id":"ce4bhbp2rcd13ifvqesg","pricing_plan_id":"cebpf4jnsgd1na2vs0mg"},{"bike_id":"48252d9c-a1f9-491c-8b52-950f8a4cd911","system_id":"levelo_inurba_marseille","lat":43.293009,"lon":5.374584,"is_reserved":false,"is_disabled":false,"rental_uris":{"android":"levelo://app?vid=48252d9c-a1f9-491c-8b52-950f8a4cd911","ios":"levelo://app?vid=48252d9c-a1f9-491c-8b52-950f8a4cd911"},"vehicle_type_id":"4","last_reported":1724454488,"current_range_meters":29600,"station_id":"ce4bgi12rcd13ifvqb70","pricing_plan_id":"cebpf4jnsgd1na2vs0mg"},{"bike_id":"e2b09576-f3a8-4dc0-a12a-ff7a318eb102","system_id":"levelo_inurba_marseille","lat":43.305994,"lon":5.393687,"is_reserved":false,"is_disabled":false,"rental_uris":{"android":"levelo://app?vid=e2b09576-f3a8-4dc0-a12a-ff7a318eb102","ios":"levelo://app?vid=e2b09576-f3a8-4dc0-a12a-ff7a318eb102"},"vehicle_type_id":"4","last_reported":1724454488,"current_range_meters":22000,"station_id":"ce4bh0p2rcd13ifvqd80","pricing_plan_id":"cebpf4jnsgd1na2vs0mg"},{"bike_id":"482ae31b-6a21-45ed-8b0b-597515b3f919","system_id":"levelo_inurba_marseille","lat":43.305994,"lon":5.393687,"is_reserved":false,"is_disabled":false,"rental_uris":{"android":"levelo://app?vid=482ae31b-6a21-45ed-8b0b-597515b3f919","ios":"levelo://app?vid=482ae31b-6a21-45ed-8b0b-597515b3f919"},"vehicle_type_id":"4","last_reported":1724454488,"current_range_meters":0,"station_id":"ce4bh0p2rcd13ifvqd80","pricing_plan_id":"cebpf4jnsgd1na2vs0mg"},{"bike_id":"fb2c0ae8-f815-4246-a506-38034325b2be","system_id":"levelo_inurba_marseille","lat":43.302992,"lon":5.392136,"is_reserved":false,"is_disabled":false,"rental_uris":{"android":"levelo://app?vid=fb2c0ae8-f815-4246-a506-38034325b2be","ios":"levelo://app?vid=fb2c0ae8-f815-4246-a506-38034325b2be"},"vehicle_type_id":"4","last_reported":1724454488,"current_range_meters":10800,"station_id":"ce4bgkh2rcd13ifvqbk0","pricing_plan_id":"cebpf4jnsgd1na2vs0mg"},{"bike_id":"0a4eb25f-27e8-4533-bc4b-376c6d14a357","system_id":"levelo_inurba_marseille","lat":43.302992,"lon":5.392136,"is_reserved":false,"is_disabled":false,"rental_uris":{"android":"levelo://app?vid=0a4eb25f-27e8-4533-bc4b-376c6d14a357","ios":"levelo://app?vid=0a4eb25f-27e8-4533-bc4b-376c6d14a357"},"vehicle_type_id":"4","last_reported":1724454488,"current_range_meters":6000,"station_id":"ce4bgkh2rcd13ifvqbk0","pricing_plan_id":"cebpf4jnsgd1na2vs0mg"},{"bike_id":"bbe921f7-43d7-4909-b2a0-1637086f9618","system_id":"levelo_inurba_marseille","lat":43.303002,"lon":5.392142,"is_reserved":false,"is_disabled":false,"rental_uris":{"android":"levelo://app?vid=bbe921f7-43d7-4909-b2a0-1637086f9618","ios":"levelo://app?vid=bbe921f7-43d7-4909-b2a0-1637086f9618"},"vehicle_type_id":"4","last_reported":1724454488,"current_range_meters":28400,"station_id":"ce4bgkh2rcd13ifvqbk0","pricing_plan_id":"cebpf4jnsgd1na2vs0mg"},{"bike_id":"966f007f-265f-46c4-a71f-2dba810b49c4","system_id":"levelo_inurba_marseille","lat":43.303002,"lon":5.392142,"is_reserved":false,"is_disabled":false,"rental_uris":{"android":"levelo://app?vid=966f007f-265f-46c4-a71f-2dba810b49c4","ios":"levelo://app?vid=966f007f-265f-46c4-a71f-2dba810b49c4"},"vehicle_type_id":"4","last_reported":1724454488,"current_range_meters":14000,"station_id":"ce4bgkh2rcd13ifvqbk0","pricing_plan_id":"cebpf4jnsgd1na2vs0mg"},{"bike_id":"4baf2a1b-dae4-4193-b273-2a68c05d2da0","system_id":"levelo_inurba_marseille","lat":43.302992,"lon":5.392136,"is_reserved":false,"is_disabled":false,"rental_uris":{"android":"levelo://app?vid=4baf2a1b-dae4-4193-b273-2a68c05d2da0","ios":"levelo://app?vid=4baf2a1b-dae4-4193-b273-2a68c05d2da0"},"vehicle_type_id":"4","last_reported":1724454488,"current_range_meters":21600,"station_id":"ce4bgkh2rcd13ifvqbk0","pricing_plan_id":"cebpf4jnsgd1na2vs0mg"},{"bike_id":"6dc6a945-28bc-404c-a7c3-635c99168c6a","system_id":"levelo_inurba_marseille","lat":43.302992,"lon":5.392136,"is_reserved":false,"is_disabled":false,"rental_uris":{"android":"levelo://app?vid=6dc6a945-28bc-404c-a7c3-635c99168c6a","ios":"levelo://app?vid=6dc6a945-28bc-404c-a7c3-635c99168c6a"},"vehicle_type_id":"4","last_reported":1724454488,"current_range_meters":2400,"station_id":"ce4bgkh2rcd13ifvqbk0","pricing_plan_id":"cebpf4jnsgd1na2vs0mg"},{"bike_id":"7799486a-479d-4d58-b1f7-b108a160732a","system_id":"levelo_inurba_marseille","lat":43.302992,"lon":5.392136,"is_reserved":false,"is_disabled":false,"rental_uris":{"android":"levelo://app?vid=7799486a-479d-4d58-b1f7-b108a160732a","ios":"levelo://app?vid=7799486a-479d-4d58-b1f7-b108a160732a"},"vehicle_type_id":"4","last_reported":1724454488,"current_range_meters":11600,"station_id":"ce4bgkh2rcd13ifvqbk0","pricing_plan_id":"cebpf4jnsgd1na2vs0mg"},{"bike_id":"8f87640b-047a-4ce7-ad76-5bb79d27e26f","system_id":"levelo_inurba_marseille","lat":43.302992,"lon":5.392136,"is_reserved":false,"is_disabled":false,"rental_uris":{"android":"levelo://app?vid=8f87640b-047a-4ce7-ad76-5bb79d27e26f","ios":"levelo://app?vid=8f87640b-047a-4ce7-ad76-5bb79d27e26f"},"vehicle_type_id":"4","last_reported":1724454488,"current_range_meters":5200,"station_id":"ce4bgkh2rcd13ifvqbk0","pricing_plan_id":"cebpf4jnsgd1na2vs0mg"},{"bike_id":"86e9904a-cf2d-42fd-9565-2bd1e4f0d78f","system_id":"levelo_inurba_marseille","lat":43.30085,"lon":5.390856,"is_reserved":false,"is_disabled":false,"rental_uris":{"android":"levelo://app?vid=86e9904a-cf2d-42fd-9565-2bd1e4f0d78f","ios":"levelo://app?vid=86e9904a-cf2d-42fd-9565-2bd1e4f0d78f"},"vehicle_type_id":"4","last_reported":1724454488,"current_range_meters":27600,"station_id":"ce4bh192rcd13ifvqdb0","pricing_plan_id":"cebpf4jnsgd1na2vs0mg"},{"bike_id":"1ac3c139-369b-43f8-a9ed-846131de18c5","system_id":"levelo_inurba_marseille","lat":43.300852,"lon":5.390859,"is_reserved":false,"is_disabled":false,"rental_uris":{"android":"levelo://app?vid=1ac3c139-369b-43f8-a9ed-846131de18c5","ios":"levelo://app?vid=1ac3c139-369b-43f8-a9ed-846131de18c5"},"vehicle_type_id":"4","last_reported":1724454488,"current_range_meters":6000,"station_id":"ce4bh192rcd13ifvqdb0","pricing_plan_id":"cebpf4jnsgd1na2vs0mg"},{"bike_id":"e64896a5-9cbd-4d11-9337-7c1ca79a526a","system_id":"levelo_inurba_marseille","lat":43.30085,"lon":5.390856,"is_reserved":false,"is_disabled":false,"rental_uris":{"android":"levelo://app?vid=e64896a5-9cbd-4d11-9337-7c1ca79a526a","ios":"levelo://app?vid=e64896a5-9cbd-4d11-9337-7c1ca79a526a"},"vehicle_type_id":"4","last_reported":1724454488,"current_range_meters":19200,"station_id":"ce4bh192rcd13ifvqdb0","pricing_plan_id":"cebpf4jnsgd1na2vs0mg"},{"bike_id":"1c02376a-8ad1-4424-a3c8-ec43f5d0f49d","system_id":"levelo_inurba_marseille","lat":43.30085,"lon":5.390856,"is_reserved":false,"is_disabled":false,"rental_uris":{"android":"levelo://app?vid=1c02376a-8ad1-4424-a3c8-ec43f5d0f49d","ios":"levelo://app?vid=1c02376a-8ad1-4424-a3c8-ec43f5d0f49d"},"vehicle_type_id":"4","last_reported":1724454488,"current_range_meters":31200,"station_id":"ce4bh192rcd13ifvqdb0","pricing_plan_id":"cebpf4jnsgd1na2vs0mg"},{"bike_id":"2b532ad5-af60-4079-a8ab-2716a5b37c9c","system_id":"levelo_inurba_marseille","lat":43.30085,"lon":5.390856,"is_reserved":false,"is_disabled":false,"rental_uris":{"android":"levelo://app?vid=2b532ad5-af60-4079-a8ab-2716a5b37c9c","ios":"levelo://app?vid=2b532ad5-af60-4079-a8ab-2716a5b37c9c"},"vehicle_type_id":"4","last_reported":1724454488,"current_range_meters":31200,"station_id":"ce4bh192rcd13ifvqdb0","pricing_plan_id":"cebpf4jnsgd1na2vs0mg"},