{"last_updated":1704118001,"ttl":30,"version":"2.2","data":{"bikes":[{"bike_id":"7d85abb0-786c-454d-939c-3f7819b2c5c6","system_id":"levelo_inurba_marseille","lat":43.31341,"lon":5.367098,"is_reserved":false,"is_disabled":false,"rental_uris":{"android":"levelo://app?vid=7d85abb0-786c-454d-939c-3f7819b2c5c6","ios":"levelo://app?vid=7d85abb0-786c-454d-939c-3f7819b2c5c6"},"vehicle_type_id":"4","last_reported":1704118001,"current_range_meters":31200,"station_id":"ce4bgr92rcd13ifvqc6g","pricing_plan_id":"free"},{"bike_id":"19681d20-0e94-4d95-bd6e-75843e212133","system_id":"levelo_inurba_marseille","lat":43.313391,"lon":5.36706,"is_reserved":false,"is_disabled":false,"rental_uris":{"android":"levelo://app?vid=19681d20-0e94-4d95-bd6e-75843e212133","ios":"levelo://app?vid=19681d20-0e94-4d95-bd6e-75843e212133"},"vehicle_type_id":"4","last_reported":1704118001,"current_range_meters":29200,"station_id":"ce4bgr92rcd13ifvqc6g","pricing_plan_id":"free"},{"bike_id":"ba3aba46-f07f-46b5-a5d6-23b5891b61b4","system_id":"levelo_inurba_marseille","lat":43.313391,"lon":5.36706,"is_reserved":false,"is_disabled":false,"rental_uris":{"android":"levelo://app?vid=ba3aba46-f07f-46b5-a5d6-23b5891b61b4","ios":"levelo://app?vid=ba3aba46-f07f-46b5-a5d6-23b5891b61b4"},"vehicle_type_id":"4","last_reported":1704118001,"current_range_meters":26800,"station_id":"ce4bgr92rcd13ifvqc6g","pricing_plan_id":"free"},{"bike_id":"3d0c4403-5c9c-41f7-b424-8f0b0b359a4c","system_id":"levelo_inurba_marseille","lat":43.313701,"lon":5.366904,"is_reserved":false,"is_disabled":false,"rental_uris":{"android":"levelo://app?vid=3d0c4403-5c9c-41f7-b424-8f0b0b359a4c","ios":"levelo://app?vid=3d0c4403-5c9c-41f7-b424-8f0b0b359a4c"},"vehicle_type_id":"4","last_reported":1704118001,"current_range_meters":20400,"station_id":"ce4bgr92rcd13ifvqc6g","pricing_plan_id":"free"},{"bike_id":"11e51fcb-f790-4104-b2a2-8c12e80bf203","system_id":"levelo_inurba_marseille","lat":43.31493,"lon":5.37305,"is_reserved":false,"is_disabled":false,"rental_uris":{"android":"levelo://app?vid=11e51fcb-f790-4104-b2a2-8c12e80bf203","ios":"levelo://app?vid=11e51fcb-f790-4104-b2a2-8c12e80bf203"},"vehicle_type_id":"4","last_reported":1704118001,"current_range_meters":18800,"station_id":"ce4bgt12rcd13ifvqcd0","pricing_plan_id":"free"},{"bike_id":"61fb4fd2-73e4-4add-b90a-4313af6fbdfc","system_id":"levelo_inurba_marseille","lat":43.314811,"lon":5.373104,"is_reserved":false,"is_disabled":false,"rental_uris":{"android":"levelo://app?vid=61fb4fd2-73e4-4add-b90a-4313af6fbdfc","ios":"levelo://app?vid=61fb4fd2-73e4-4add-b90a-4313af6fbdfc"},"vehicle_type_id":"4","last_reported":1704118001,"current_range_meters":22000,"station_id":"ce4bgt12rcd13ifvqcd0","pricing_plan_id":"free"},{"bike_id":"6cc10ba3-514e-4b87-b859-081a0f2df958","system_id":"levelo_inurba_marseille","lat":43.305706,"lon":5.365654,"is_reserved":false,"is_disabled":false,"rental_uris":{"android":"levelo://app?vid=6cc10ba3-514e-4b87-b859-081a0f2df958","ios":"levelo://app?vid=6cc10ba3-514e-4b87-b859-081a0f2df958"},"vehicle_type_id":"4","last_reported":1704118001,"current_range_meters":23200,"station_id":"ce4bgs12rcd13ifvqcag","pricing_plan_id":"free"},{"bike_id":"d14979d8-4199-447e-94f6-8c249d32fc0b","system_id":"levelo_inurba_marseille","lat":43.311131,"lon":5.377651,"is_reserved":false,"is_disabled":false,"rental_uris":{"android":"levelo://app?vid=d14979d8-4199-447e-94f6-8c249d32fc0b","ios":"levelo://app?vid=d14979d8-4199-447e-94f6-8c249d32fc0b"},"vehicle_type_id":"4","last_reported":1704118001,"current_range_meters":26000,"station_id":"ce4bgt92rcd13ifvqcg0","pricing_plan_id":"free"},{"bike_id":"5a35c6dd-93b2-49f7-9a6e-ea28ee09d459","system_id":"levelo_inurba_marseille","lat":43.311131,"lon":5.377651,"is_reserved":false,"is_disabled":false,"rental_uris":{"android":"levelo://app?vid=5a35c6dd-93b2-49f7-9a6e-ea28ee09d459","ios":"levelo://app?vid=5a35c6dd-93b2-49f7-9a6e-ea28ee09d459"},"vehicle_type_id":"4","last_reported":1704118001,"current_range_meters":23200,"station_id":"ce4bgt92rcd13ifvqcg0","pricing_plan_id":"free"},{"bike_id":"7bcdc2f3-9add-4e5d-911e-3386ee30765f","system_id":"levelo_inurba_marseille","lat":43.311125,"lon":5.377624,"is_reserved":false,"is_disabled":false,"rental_uris":{"android":"levelo://app?vid=7bcdc2f3-9add-4e5d-911e-3386ee30765f","ios":"levelo://app?vid=7bcdc2f3-9add-4e5d-911e-3386ee30765f"},"vehicle_type_id":"4","last_reported":1704118001,"current_range_meters":13200,"station_id":"ce4bgt92rcd13ifvqcg0","pricing_plan_id":"free"},{"bike_id":"25af9e1c-886c-4f64-92f2-5ca68e46ae4a","system_id":"levelo_inurba_marseille","lat":43.31722,"lon":5.37668,"is_reserved":false,"is_disabled":false,"rental_uris":{"android":"levelo://app?vid=25af9e1c-886c-4f64-92f2-5ca68e46ae4a","ios":"levelo://app?vid=25af9e1c-886c-4f64-92f2-5ca68e46ae4a"},"vehicle_type_id":"4","last_reported":1704118001,"current_range_meters":18000,"station_id":"","pricing_plan_id":"free"},{"bike_id":"9562ff48-d419-4823-8046-dbc3804806ec","system_id":"levelo_inurba_marseille","lat":43.317075,"lon":5.377367,"is_reserved":false,"is_disabled":false,"rental_uris":{"android":"levelo://app?vid=9562ff48-d419-4823-8046-dbc3804806ec","ios":"levelo://app?vid=9562ff48-d419-4823-8046-dbc3804806ec"},"vehicle_type_id":"4","last_reported":1704118001,"current_range_meters":17600,"station_id":"ce4bgth2rcd13ifvqch0","pricing_plan_id":"free"},{"bike_id":"64a93320-b6f7-4f00-82e1-5c71938933c4","system_id":"levelo_inurba_marseille","lat":43.31648,"lon":5.37786,"is_reserved":false,"is_disabled":false,"rental_uris":{"android":"levelo://app?vid=64a93320-b6f7-4f00-82e1-5c71938933c4","ios":"levelo://app?vid=64a93320-b6f7-4f00-82e1-5c71938933c4"},"vehicle_type_id":"4","last_reported":1704118001,"current_range_meters":18800,"station_id":"","pricing_plan_id":"free"},{"bike_id":"761ff3b2-3e67-4a1c-aef7-0f5b8de7113a","system_id":"levelo_inurba_marseille","lat":43.317075,"lon":5.377367,"is_reserved":false,"is_disabled":false,"rental_uris":{"android":"levelo://app?vid=761ff3b2-3e67-4a1c-aef7-0f5b8de7113a","ios":"levelo://app?vid=761ff3b2-3e67-4a1c-aef7-0f5b8de7113a"},"vehicle_type_id":"4","last_reported":1704118001,"current_range_meters":32000,"station_id":"ce4bgth2rcd13ifvqch0","pricing_plan_id":"free"},{"bike_id":"c750d365-3247-411d-836f-4d697ad14eb9","system_id":"levelo_inurba_marseille","lat":43.317075,"lon":5.377367,"is_reserved":false,"is_disabled":false,"rental_uris":{"android":"levelo://app?vid=c750d365-3247-411d-836f-4d697ad14eb9","ios":"levelo://app?vid=c750d365-3247-411d-836f-4d697ad14eb9"},"vehicle_type_id":"4","last_reported":1704118001,"current_range_meters":29600,"station_id":"ce4bgth2rcd13ifvqch0","pricing_plan_id":"free"},{"bike_id":"f9629841-191f-476b-93cd-f6e8fe2a1929","system_id":"levelo_inurba_marseille","lat":43.30304,"lon":5.368987,"is_reserved":false,"is_disabled":false,"rental_uris":{"android":"levelo://app?vid=f9629841-191f-476b-93cd-f6e8fe2a1929","ios":"levelo://app?vid=f9629841-191f-476b-93cd-f6e8fe2a1929"},"vehicle_type_id":"4","last_reported":1704118001,"current_range_meters":25600,"station_id":"ce4bgqh2rcd13ifvqc5g","pricing_plan_id":"free"},{"bike_id":"7cb7daae-6fa2-418d-bf4a-69e21e61abfa","system_id":"levelo_inurba_marseille","lat":43.31536,"lon":5.38032,"is_reserved":false,"is_disabled":false,"rental_uris":{"android":"levelo://app?vid=7cb7daae-6fa2-418d-bf4a-69e21e61abfa","ios":"levelo://app?vid=7cb7daae-6fa2-418d-bf4a-69e21e61abfa"},"vehicle_type_id":"4","last_reported":1704118001,"current_range_meters":27200,"station_id":"ce4bhsp2rcd13ifvqi50","pricing_plan_id":"free"},{"bike_id":"2eee3bee-8a58-4598-b69c-08fea2289695","system_id":"levelo_inurba_marseille","lat":43.315293,"lon":5.380349,"is_reserved":false,"is_disabled":false,"rental_uris":{"android":"levelo://app?vid=2eee3bee-8a58-4598-b69c-08fea2289695","ios":"levelo://app?vid=2eee3bee-8a58-4598-b69c-08fea2289695"},"vehicle_type_id":"4","last_reported":1704118001,"current_range_meters":0,"station_id":"ce4bhsp2rcd13ifvqi50","pricing_plan_id":"free"},{"bike_id":"9a13055a-d3b9-40b5-82a7-50565b4aa0ac","system_id":"levelo_inurba_marseille","lat":43.308012,"lon":5.381511,"is_reserved":false,"is_disabled":false,"rental_uris":{"android":"levelo://app?vid=9a13055a-d3b9-40b5-82a7-50565b4aa0ac","ios":"levelo://app?vid=9a13055a-d3b9-40b5-82a7-50565b4aa0ac"},"vehicle_type_id":"4","last_reported":1704118001,"current_range_meters":26000,"station_id":"ce4bgt12rcd13ifvqce0","pricing_plan_id":"free"},{"bike_id":"dffc2115-7fb4-446b-a125-f242d4063b8a","system_id":"levelo_inurba_marseille","lat":43.304708,"lon":5.379039,"is_reserved":false,"is_disabled":false,"rental_uris":{"android":"levelo://app?vid=dffc2115-7fb4-446b-a125-f242d4063b8a","ios":"levelo://app?vid=dffc2115-7fb4-446b-a125-f242d4063b8a"},"vehicle_type_id":"4","last_reported":1704118001,"current_range_meters":14800,"station_id":"","pricing_plan_id":"free"},{"bike_id":"96c0c542-ea9b-42b4-b19a-9b6ccec84219","system_id":"levelo_inurba_marseille","lat":43.30463,"lon":5.37902,"is_reserved":false,"is_disabled":false,"rental_uris":{"android":"levelo://app?vid=96c0c542-ea9b-42b4-b19a-9b6ccec84219","ios":"levelo://app?vid=96c0c542-ea9b-42b4-b19a-9b6ccec84219"},"vehicle_type_id":"4","last_reported":1704118001,"current_range_meters":22000,"station_id":"ce4bgup2rcd13ifvqcn0","pricing_plan_id":"free"},{"bike_id":"a7c4fe48-1fa4-4418-b481-6e9148fb5d5a","system_id":"levelo_inurba_marseille","lat":43.304606,"lon":5.379026,"is_reserved":false,"is_disabled":false,"rental_uris":{"android":"levelo://app?vid=a7c4fe48-1fa4-4418-b481-6e9148fb5d5a","ios":"levelo://app?vid=a7c4fe48-1fa4-4418-b481-6e9148fb5d5a"},"vehicle_type_id":"4","last_reported":1704118001,"current_range_meters":18000,"station_id":"ce4bgup2rcd13ifvqcn0","pricing_plan_id":"free"},{"bike_id":"244b7a28-31ef-4f7e-95ef-df7ae37026bb","system_id":"levelo_inurba_marseille","lat":43.304606,"lon":5.379026,"is_reserved":false,"is_disabled":false,"rental_uris":{"android":"levelo://app?vid=244b7a28-31ef-4f7e-95ef-df7ae37026bb","ios":"levelo://app?vid=244b7a28-31ef-4f7e-95ef-df7ae37026bb"},"vehicle_type_id":"4","last_reported":1704118001,"current_range_meters":14800,"station_id":"ce4bgup2rcd13ifvqcn0","pricing_plan_id":"free"},{"bike_id":"79f0d8a4-334f-4f3c-a8df-bf0b7ddfd4c9","system_id":"levelo_inurba_marseille","lat":43.324769,"lon":5.365612,"is_reserved":false,"is_disabled":false,"rental_uris":{"android":"levelo://app?vid=79f0d8a4-334f-4f3c-a8df-bf0b7ddfd4c9","ios":"levelo://app?vid=79f0d8a4-334f-4f3c-a8df-bf0b7ddfd4c9"},"vehicle_type_id":"4","last_reported":1704118001,"current_range_meters":6400,"station_id":"","pricing_plan_id":"free"},{"bike_id":"92ee0dcb-b929-4f63-994f-6a3bf0d92887","system_id":"levelo_inurba_marseille","lat":43.302776,"lon":5.377,"is_reserved":false,"is_disabled":false,"rental_uris":{"android":"levelo://app?vid=92ee0dcb-b929-4f63-994f-6a3bf0d92887","ios":"levelo://app?vid=92ee0dcb-b929-4f63-994f-6a3bf0d92887"},"vehicle_type_id":"4","last_reported":1704118001,"current_range_meters":19600,"station_id":"ce4bguh2rcd13ifvqcj0","pricing_plan_id":"free"},{"bike_id":"12cc3e03-e48b-4f30-bfc9-f1b37a6da005","system_id":"levelo_inurba_marseille","lat":43.302774,"lon":5.377046,"is_reserved":false,"is_disabled":false,"rental_uris":{"android":"levelo://app?vid=12cc3e03-e48b-4f30-bfc9-f1b37a6da005","ios":"levelo://app?vid=12cc3e03-e48b-4f30-bfc9-f1b37a6da005"},"vehicle_type_id":"4","last_reported":1704118001,"current_range_meters":30800,"station_id":"ce4bguh2rcd13ifvqcj0","pricing_plan_id":"free"},{"bike_id":"37654fee-c31e-4e93-a13c-b8fb11c15bab","system_id":"levelo_inurba_marseille","lat":43.302767,"lon":5.377057,"is_reserved":false,"is_disabled":false,"rental_uris":{"android":"levelo://app?vid=37654fee-c31e-4e93-a13c-b8fb11c15bab","ios":"levelo://app?vid=37654fee-c31e-4e93-a13c-b8fb11c15bab"},"vehicle_type_id":"4","last_reported":1704118001,"current_range_meters":29200,"station_id":"ce4bguh2rcd13ifvqcj0","pricing_plan_id":"free"},{"bike_id":"9f4f1d9b-feca-4166-bb2d-e244fd26e9b9","system_id":"levelo_inurba_marseille","lat":43.30143,"lon":5.37413,"is_reserved":false,"is_disabled":false,"rental_uris":{"android":"levelo://app?vid=9f4f1d9b-feca-4166-bb2d-e244fd26e9b9","ios":"levelo://app?vid=9f4f1d9b-feca-4166-bb2d-e244fd26e9b9"},"vehicle_type_id":"4","last_reported":1704118001,"current_range_meters":26800,"station_id":"ce4bgs92rcd13ifvqcc0","pricing_plan_id":"free"},{"bike_id":"cfb2809c-3c47-4f5c-8162-b420c80fc7f2","system_id":"levelo_inurba_marseille","lat":43.301429,"lon":5.37413,"is_reserved":false,"is_disabled":false,"rental_uris":{"android":"levelo://app?vid=cfb2809c-3c47-4f5c-8162-b420c80fc7f2","ios":"levelo://app?vid=cfb2809c-3c47-4f5c-8162-b420c80fc7f2"},"vehicle_type_id":"4","last_reported":1704118001,"current_range_meters":27600,"station_id":"ce4bgs92rcd13ifvqcc0","pricing_plan_id":"free"},{"bike_id":"f1c4a9f6-f95e-4244-be32-9b3daec9f8d4","system_id":"levelo_inurba_marseille","lat":43.319935,"lon":5.381699,"is_reserved":false,"is_disabled":false,"rental_uris":{"android":"levelo://app?vid=f1c4a9f6-f95e-4244-be32-9b3daec9f8d4","ios":"levelo://app?vid=f1c4a9f6-f95e-4244-be32-9b3daec9f8d4"},"vehicle_type_id":"4","last_reported":1704118001,"current_range_meters":25200,"station_id":"ce4bhr12rcd13ifvqhpg","pricing_plan_id":"free"},{"bike_id":"5a7b6f71-2a1a-475e-9087-fdbf7ac8818b","system_id":"levelo_inurba_marseille","lat":43.29974,"lon":5.37431,"is_reserved":false,"is_disabled":false,"rental_uris":{"android":"levelo://app?vid=5a7b6f71-2a1a-475e-9087-fdbf7ac8818b","ios":"levelo://app?vid=5a7b6f71-2a1a-475e-9087-fdbf7ac8818b"},"vehicle_type_id":"4","last_reported":1704118001,"current_range_meters":22400,"station_id":"","pricing_plan_id":"free"},{"bike_id":"45be1f6c-adf3-4113-8854-aa518c525d85","system_id":"levelo_inurba_marseille","lat":43.310651,"lon":5.386145,"is_reserved":false,"is_disabled":false,"rental_uris":{"android":"levelo://app?vid=45be1f6c-adf3-4113-8854-aa518c525d85","ios":"levelo://app?vid=45be1f6c-adf3-4113-8854-aa518c525d85"},"vehicle_type_id":"4","last_reported":1704118001,"current_range_meters":27200,"station_id":"","pricing_plan_id":"free"},{"bike_id":"780ee5f1-910b-467a-8854-eaa59c4d7da4","system_id":"levelo_inurba_marseille","lat":43.299243,"lon":5.37481,"is_reserved":false,"is_disabled":false,"rental_uris":{"android":"levelo://app?vid=780ee5f1-910b-467a-8854-eaa59c4d7da4","ios":"levelo://app?vid=780ee5f1-910b-467a-8854-eaa59c4d7da4"},"vehicle_type_id":"4","last_reported":1704118001,"current_range_meters":23600,"station_id":"ce4bgjh2rcd13ifvqbg0","pricing_plan_id":"free"},{"bike_id":"b24a1b27-361f-4f50-974b-bc1bd0bdb06b","system_id":"levelo_inurba_marseille","lat":43.311722,"lon":5.387247,"is_reserved":false,"is_disabled":false,"rental_uris":{"android":"levelo://app?vid=b24a1b27-361f-4f50-974b-bc1bd0bdb06b","ios":"levelo://app?vid=b24a1b27-361f-4f50-974b-bc1bd0bdb06b"},"vehicle_type_id":"4","last_reported":1704118001,"current_range_meters":11600,"station_id":"ce4bgv12rcd13ifvqcp0","pricing_plan_id":"free"},{"bike_id":"2bf60407-530f-4b3d-a805-d579d8ce56a6","system_id":"levelo_inurba_marseille","lat":43.297794,"lon":5.370888,"is_reserved":false,"is_disabled":false,"rental_uris":{"android":"levelo://app?vid=2bf60407-530f-4b3d-a805-d579d8ce56a6","ios":"levelo://app?vid=2bf60407-530f-4b3d-a805-d579d8ce56a6"},"vehicle_type_id":"4","last_reported":1704118001,"current_range_meters":18000,"station_id":"ce4bgop2rcd13ifvqc1g","pricing_plan_id":"free"},{"bike_id":"3c9bf24c-b538-4eae-99f5-9903fe75c815","system_id":"levelo_inurba_marseille","lat":43.322872,"lon":5.382756,"is_reserved":false,"is_disabled":false,"rental_uris":{"android":"levelo://app?vid=3c9bf24c-b538-4eae-99f5-9903fe75c815","ios":"levelo://app?vid=3c9bf24c-b538-4eae-99f5-9903fe75c815"},"vehicle_type_id":"4","last_reported":1704118001,"current_range_meters":7600,"station_id":"ce4bhr12rcd13ifvqhqg","pricing_plan_id":"free"},{"bike_id":"7892f7ad-391a-4b01-9629-9863c77731a1","system_id":"levelo_inurba_marseille","lat":43.32288,"lon":5.38273,"is_reserved":false,"is_disabled":false,"rental_uris":{"android":"levelo://app?vid=7892f7ad-391a-4b01-9629-9863c77731a1","ios":"levelo://app?vid=7892f7ad-391a-4b01-9629-9863c77731a1"},"vehicle_type_id":"4","last_reported":1704118001,"current_range_meters":30400,"station_id":"ce4bhr12rcd13ifvqhqg","pricing_plan_id":"free"},{"bike_id":"7dacb968-7456-46f9-98a4-1c1aa118f5e2","system_id":"levelo_inurba_marseille","lat":43.322843,"lon":5.382843,"is_reserved":false,"is_disabled":false,"rental_uris":{"android":"levelo://app?vid=7dacb968-7456-46f9-98a4-1c1aa118f5e2","ios":"levelo://app?vid=7dacb968-7456-46f9-98a4-1c1aa118f5e2"},"vehicle_type_id":"4","last_reported":1704118001,"current_range_meters":21200,"station_id":"ce4bhr12rcd13ifvqhqg","pricing_plan_id":"free"},{"bike_id":"a814d147-e775-45a2-b5cb-60efdd10d17b","system_id":"levelo_inurba_marseille","lat":43.322872,"lon":5.382756,"is_reserved":false,"is_disabled":false,"rental_uris":{"android":"levelo://app?vid=a814d147-e775-45a2-b5cb-60efdd10d17b","ios":"levelo://app?vid=a814d147-e775-45a2-b5cb-60efdd10d17b"},"vehicle_type_id":"4","last_reported":1704118001,"current_range_meters":31200,"station_id":"ce4bhr12rcd13ifvqhqg","pricing_plan_id":"free"},{"bike_id":"a677cd10-a09b-4b2e-bffd-45b05d2c9229","system_id":"levelo_inurba_marseille","lat":43.328188,"lon":5.366834,"is_reserved":false,"is_disabled":false,"rental_uris":{"android":"levelo://app?vid=a677cd10-a09b-4b2e-bffd-45b05d2c9229","ios":"levelo://app?vid=a677cd10-a09b-4b2e-bffd-45b05d2c9229"},"vehicle_type_id":"4","last_reported":1704118001,"current_range_meters":30400,"station_id":"ce4bhs92rcd13ifvqi0g","pricing_plan_id":"free"},{"bike_id":"ea7074d7-b7c9-4941-82c2-dff391bae9cb","system_id":"levelo_inurba_marseille","lat":43.32819,"lon":5.36692,"is_reserved":false,"is_disabled":false,"rental_uris":{"android":"levelo://app?vid=ea7074d7-b7c9-4941-82c2-dff391bae9cb","ios":"levelo://app?vid=ea7074d7-b7c9-4941-82c2-dff391bae9cb"},"vehicle_type_id":"4","last_reported":1704118001,"current_range_meters":20400,"station_id":"ce4bhs92rcd13ifvqi0g","pricing_plan_id":"free"},{"bike_id":"3406ac08-144e-419c-8a8c-9c89910b5b78","system_id":"levelo_inurba_marseille","lat":43.328248,"lon":5.36683,"is_reserved":false,"is_disabled":false,"rental_uris":{"android":"levelo://app?vid=3406ac08-144e-419c-8a8c-9c89910b5b78","ios":"levelo://app?vid=3406ac08-144e-419c-8a8c-9c89910b5b78"},"vehicle_type_id":"4","last_reported":1704118001,"current_range_meters":22400,"station_id":"","pricing_plan_id":"free"},{"bike_id":"8233d320-3015-483d-9317-9f5ea8045c87","system_id":"levelo_inurba_marseille","lat":43.3283,"lon":5.36692,"is_reserved":false,"is_disabled":false,"rental_uris":{"android":"levelo://app?vid=8233d320-3015-483d-9317-9f5ea8045c87","ios":"levelo://app?vid=8233d320-3015-483d-9317-9f5ea8045c87"},"vehicle_type_id":"4","last_reported":1704118001,"current_range_meters":6800,"station_id":"","pricing_plan_id":"free"},{"bike_id":"777e7b6f-5840-4b9c-afcf-288933a9c0d9","system_id":"levelo_inurba_marseille","lat":43.328371,"lon":5.366909,"is_reserved":false,"is_disabled":false,"rental_uris":{"android":"levelo://app?vid=777e7b6f-5840-4b9c-afcf-288933a9c0d9","ios":"levelo://app?vid=777e7b6f-5840-4b9c-afcf-288933a9c0d9"},"vehicle_type_id":"4","last_reported":1704118001,"current_range_meters":24400,"station_id":"ce4bhs92rcd13ifvqi0g","pricing_plan_id":"free"},{"bike_id":"a5291874-f635-43ed-9c4e-b592f5564ee1","system_id":"levelo_inurba_marseille","lat":43.328371,"lon":5.366909,"is_reserved":false,"is_disabled":false,"rental_uris":{"android":"levelo://app?vid=a5291874-f635-43ed-9c4e-b592f5564ee1","ios":"levelo://app?vid=a5291874-f635-43ed-9c4e-b592f5564ee1"},"vehicle_type_id":"4","last_reported":1704118001,"current_range_meters":31200,"station_id":"ce4bhs92rcd13ifvqi0g","pricing_plan_id":"free"},{"bike_id":"370cccf7-c9ba-46c2-819b-c8e8cacc4c21","system_id":"levelo_inurba_marseille","lat":43.3277,"lon":5.37458,"is_reserved":false,"is_disabled":false,"rental_uris":{"android":"levelo://app?vid=370cccf7-c9ba-46c2-819b-c8e8cacc4c21","ios":"levelo://app?vid=370cccf7-c9ba-46c2-819b-c8e8cacc4c21"},"vehicle_type_id":"4","last_reported":1704118001,"current_range_meters":12400,"station_id":"","pricing_plan_id":"free"},{"bike_id":"72120d9c-1513-4906-b168-5af7c2325ada","system_id":"levelo_inurba_marseille","lat":43.29573,"lon":5.367355,"is_reserved":false,"is_disabled":false,"rental_uris":{"android":"levelo://app?vid=72120d9c-1513-4906-b168-5af7c2325ada","ios":"levelo://app?vid=72120d9c-1513-4906-b168-5af7c2325ada"},"vehicle_type_id":"4","last_reported":1704118001,"current_range_meters":20000,"station_id":"ce4bgph2rcd13ifvqc2g","pricing_plan_id":"free"},{"bike_id":"965665a6-5e7e-4acd-a6b0-547f9a24a471","system_id":"levelo_inurba_marseille","lat":43.299028,"lon":5.381509,"is_reserved":false,"is_disabled":false,"rental_uris":{"android":"levelo://app?vid=965665a6-5e7e-4acd-a6b0-547f9a24a471","ios":"levelo://app?vid=965665a6-5e7e-4acd-a6b0-547f9a24a471"},"vehicle_type_id":"4","last_reported":1704118001,"current_range_meters":26800,"station_id":"ce4bgj12rcd13ifvqbc0","pricing_plan_id":"free"},{"bike_id":"8a13bdb4-d184-45c7-ba7f-8bf4abf60718","system_id":"levelo_inurba_marseille","lat":43.29806,"lon":5.38099,"is_reserved":false,"is_disabled":false,"rental_uris":{"android":"levelo://app?vid=8a13bdb4-d184-45c7-ba7f-8bf4abf60718","ios":"levelo://app?vid=8a13bdb4-d184-45c7-ba7f-8bf4abf60718"},"vehicle_type_id":"4","last_reported":1704118001,"current_range_meters":17600,"station_id":"ce4bgip2rcd13ifvqbb0","pricing_plan_id":"free"},{"bike_id":"d61b47ec-8251-405a-937d-21214ced8ac9","system_id":"levelo_inurba_marseille","lat":43.298037,"lon":5.381066,"is_reserved":false,"is_disabled":false,"rental_uris":{"android":"levelo://app?vid=d61b47ec-8251-405a-937d-21214ced8ac9","ios":"levelo://app?vid=d61b47ec-8251-405a-937d-21214ced8ac9"},"vehicle_type_id":"4","last_reported":1704118001,"current_range_meters":26000,"station_id":"ce4bgip2rcd13ifvqbb0","pricing_plan_id":"free"},{"bike_id":"26e865a8-fdfb-4102-bb21-e8519260ed3a","system_id":"levelo_inurba_marseille","lat":43.304274,"lon":5.388873,"is_reserved":false,"is_disabled":false,"rental_uris":{"android":"levelo://app?vid=26e865a8-fdfb-4102-bb21-e8519260ed3a","ios":"levelo://app?vid=26e865a8-fdfb-4102-bb21-e8519260ed3a"},"vehicle_type_id":"4","last_reported":1704118001,"current_range_meters":14000,"station_id":"ce4bgk12rcd13ifvqbi0","pricing_plan_id":"free"},{"bike_id":"d60802d6-4f47-444a-b234-883690eec05b","system_id":"levelo_inurba_marseille","lat":43.33062,"lon":5.3627,"is_reserved":false,"is_disabled":false,"rental_uris":{"android":"levelo://app?vid=d60802d6-4f47-444a-b234-883690eec05b","ios":"levelo://app?vid=d60802d6-4f47-444a-b234-883690eec05b"},"vehicle_type_id":"4","last_reported":1704118001,"current_range_meters":19200,"station_id":"","pricing_plan_id":"free"},{"bike_id":"7119845d-00aa-4d9f-be8c-fc97d41f1380","system_id":"levelo_inurba_marseille","lat":43.297594,"lon":5.381134,"is_reserved":false,"is_disabled":false,"rental_uris":{"android":"levelo://app?vid=7119845d-00aa-4d9f-be8c-fc97d41f1380","ios":"levelo://app?vid=7119845d-00aa-4d9f-be8c-fc97d41f1380"},"vehicle_type_id":"4","last_reported":1704118001,"current_range_meters":8000,"station_id":"ce4bgip2rcd13ifvqbb0","pricing_plan_id":"free"},{"bike_id":"73f1b848-66bb-4022-8694-9e59e44540fe","system_id":"levelo_inurba_marseille","lat":43.296277,"lon":5.377108,"is_reserved":false,"is_disabled":false,"rental_uris":{"android":"levelo://app?vid=73f1b848-66bb-4022-8694-9e59e44540fe","ios":"levelo://app?vid=73f1b848-66bb-4022-8694-9e59e44540fe"},"vehicle_type_id":"4","last_reported":1704118001,"current_range_meters":24800,"station_id":"ce4bgi92rcd13ifvqb90","pricing_plan_id":"free"},{"bike_id":"f0c3ccd4-eef0-4c48-9f76-55ab9ce2dca3","system_id":"levelo_inurba_marseille","lat":43.299717,"lon":5.384845,"is_reserved":false,"is_disabled":false,"rental_uris":{"android":"levelo://app?vid=f0c3ccd4-eef0-4c48-9f76-55ab9ce2dca3","ios":"levelo://app?vid=f0c3ccd4-eef0-4c48-9f76-55ab9ce2dca3"},"vehicle_type_id":"4","last_reported":1704118001,"current_range_meters":13600,"station_id":"ce4bgj92rcd13ifvqbd0","pricing_plan_id":"free"},{"bike_id":"bbb51102-c912-49da-87bf-1460bb358fa8","system_id":"levelo_inurba_marseille","lat":43.32365,"lon":5.38883,"is_reserved":false,"is_disabled":false,"rental_uris":{"android":"levelo://app?vid=bbb51102-c912-49da-87bf-1460bb358fa8","ios":"levelo://app?vid=bbb51102-c912-49da-87bf-1460bb358fa8"},"vehicle_type_id":"4","last_reported":1704118001,"current_range_meters":25200,"station_id":"ce4bhqp2rcd13ifvqhog","pricing_plan_id":"free"},{"bike_id":"e8fea301-e962-464c-bdfc-1d4cc2633f31","system_id":"levelo_inurba_marseille","lat":43.29612,"lon":5.3811,"is_reserved":false,"is_disabled":false,"rental_uris":{"android":"levelo://app?vid=e8fea301-e962-464c-bdfc-1d4cc2633f31","ios":"levelo://app?vid=e8fea301-e962-464c-bdfc-1d4cc2633f31"},"vehicle_type_id":"4","last_reported":1704118001,"current_range_meters":4000,"station_id":"ce4bgl12rcd13ifvqbo0","pricing_plan_id":"free"},{"bike_id":"a1fe263f-38f6-449c-ad8a-d0bc69e3b235","system_id":"levelo_inurba_marseille","lat":43.293249,"lon":5.371578,"is_reserved":false,"is_disabled":false,"rental_uris":{"android":"levelo://app?vid=a1fe263f-38f6-449c-ad8a-d0bc69e3b235","ios":"levelo://app?vid=a1fe263f-38f6-449c-ad8a-d0bc69e3b235"},"vehicle_type_id":"4","last_reported":1704118001,"current_range_meters":4000,"station_id":"ce4bgh92rcd13ifvqb40","pricing_plan_id":"free"},{"bike_id":"af1f94db-9a5c-41b3-b59d-b61d52a02865","system_id":"levelo_inurba_marseille","lat":43.292749,"lon":5.368402,"is_reserved":false,"is_disabled":false,"rental_uris":{"android":"levelo://app?vid=af1f94db-9a5c-41b3-b59d-b61d52a02865","ios":"levelo://app?vid=af1f94db-9a5c-41b3-b59d-b61d52a02865"},"vehicle_type_id":"4","last_reported":1704118001,"current_range_meters":6800,"station_id":"ce4bhbp2rcd13ifvqesg","pricing_plan_id":"free"},{"bike_id":"2cd364e8-12c8-461a-b843-e3a09daec024","system_id":"levelo_inurba_marseille","lat":43.292749,"lon":5.368402,"is_reserved":false,"is_disabled":false,"rental_uris":{"android":"levelo://app?vid=2cd364e8-12c8-461a-b843-e3a09daec024","ios":"levelo://app?vid=2cd364e8-12c8-461a-b843-e3a09daec024"},"vehicle_type_id":"4","last_reported":1704118001,"current_range_meters":20400,"station_id":"ce4bhbp2rcd13ifvqesg","pricing_plan_id":"free"},{"bike_id":"40b4ad9d-c414-434f-b857-04f2178bc232","system_id":"levelo_inurba_marseille","lat":43.293009,"lon":5.374584,"is_reserved":false,"is_disabled":false,"rental_uris":{"android":"levelo://app?vid=40b4ad9d-c414-434f-b857-04f2178bc232","ios":"levelo://app?vid=40b4ad9d-c414-434f-b857-04f2178bc232"},"vehicle_type_id":"4","last_reported":1704118001,"current_range_meters":18000,"station_id":"ce4bgi12rcd13ifvqb70","pricing_plan_id":"free"},{"bike_id":"fec12bd2-ba95-4be5-8acc-7046b60ac982","system_id":"levelo_inurba_marseille","lat":43.301939,"lon":5.366286,"is_reserved":false,"is_disabled":false,"rental_uris":{"android":"levelo://app?vid=fec12bd2-ba95-4be5-8acc-7046b60ac982","ios":"levelo://app?vid=fec12bd2-ba95-4be5-8acc-7046b60ac982"},"vehicle_type_id":"4","last_reported":1704118001,"current_range_meters":12400,"station_id":"ce4bgrh2rcd13ifvqc8g","pricing_plan_id":"free"},{"bike_id":"401cbc56-ab61-4731-b2a6-c5c076f42f64","system_id":"levelo_inurba_marseille","lat":43.2936,"lon":5.37835,"is_reserved":false,"is_disabled":false,"rental_uris":{"android":"levelo://app?vid=401cbc56-ab61-4731-b2a6-c5c076f42f64","ios":"levelo://app?vid=401cbc56-ab61-4731-b2a6-c5c076f42f64"},"vehicle_type_id":"4","last_reported":1704118001,"current_range_meters":30000,"station_id":"ce4bgjh2rcd13ifvqbf0","pricing_plan_id":"free"},{"bike_id":"4dc318bd-2c59-4d13-a7d8-eef2e28bfdec","system_id":"levelo_inurba_marseille","lat":43.2936,"lon":5.37835,"is_reserved":false,"is_disabled":false,"rental_uris":{"android":"levelo://app?vid=4dc318bd-2c59-4d13-a7d8-eef2e28bfdec","ios":"levelo://app?vid=4dc318bd-2c59-4d13-a7d8-eef2e28bfdec"},"vehicle_type_id":"4","last_reported":1704118001,"current_range_meters":30800,"station_id":"ce4bgjh2rcd13ifvqbf0","pricing_plan_id":"free"},{"bike_id":"2e0107e2-3e95-4e8b-9fb6-425a1c36a6bc","system_id":"levelo_inurba_marseille","lat":43.302992,"lon":5.392136,"is_reserved":false,"is_disabled":false,"rental_uris":{"android":"levelo://app?vid=2e0107e2-3e95-4e8b-9fb6-425a1c36a6bc","ios":"levelo://app?vid=2e0107e2-3e95-4e8b-9fb6-425a1c36a6bc"},"vehicle_type_id":"4","last_reported":1704118001,"current_range_meters":6400,"station_id":"ce4bgkh2rcd13ifvqbk0","pricing_plan_id":"free"},{"bike_id":"453c26e7-1304-498d-9fbc-6cb9b1e286e8","system_id":"levelo_inurba_marseille","lat":43.30097,"lon":5.39088,"is_reserved":false,"is_disabled":false,"rental_uris":{"android":"levelo://app?vid=453c26e7-1304-498d-9fbc-6cb9b1e286e8","ios":"levelo://app?vid=453c26e7-1304-498d-9fbc-6cb9b1e286e8"},"vehicle_type_id":"4","last_reported":1704118001,"current_range_meters":24400,"station_id":"","pricing_plan_id":"free"},{"bike_id":"4192fb43-ce9c-4e8a-a56a-aab8f8283a8f","system_id":"levelo_inurba_marseille","lat":43.30085,"lon":5.390856,"is_reserved":false,"is_disabled":false,"rental_uris":{"android":"levelo://app?vid=4192fb43-ce9c-4e8a-a56a-aab8f8283a8f","ios":"levelo://app?vid=4192fb43-ce9c-4e8a-a56a-aab8f8283a8f"},"vehicle_type_id":"4","last_reported":1704118001,"current_range_meters":30400,"station_id":"ce4bh192rcd13ifvqdb0","pricing_plan_id":"free"},{"bike_id":"8f128946-12cd-4524-ad53-e802f570e480","system_id":"levelo_inurba_marseille","lat":43.291671,"lon":5.371575,"is_reserved":false,"is_disabled":false,"rental_uris":{"android":"levelo://app?vid=8f128946-12cd-4524-ad53-e802f570e480","ios":"levelo://app?vid=8f128946-12cd-4524-ad53-e802f570e480"},"vehicle_type_id":"4","last_reported":1704118001,"current_range_meters":20800,"station_id":"ce4bha92rcd13ifvqeh0","pricing_plan_id":"free"},{"bike_id":"41550e72-e491-4827-9c73-ae3a016cc27c","system_id":"levelo_inurba_marseille","lat":43.291994,"lon":5.357886,"is_reserved":false,"is_disabled":false,"rental_uris":{"android":"levelo://app?vid=41550e72-e491-4827-9c73-ae3a016cc27c","ios":"levelo://app?vid=41550e72-e491-4827-9c73-ae3a016cc27c"},"vehicle_type_id":"4","last_reported":1704118001,"current_range_meters":11200,"station_id":"ce4bhb12rcd13ifvqel0","pricing_plan_id":"free"},{"bike_id":"4b2ba33c-7cdc-4277-b145-13f7259e024e","system_id":"levelo_inurba_marseille","lat":43.291994,"lon":5.357886,"is_reserved":false,"is_disabled":false,"rental_uris":{"android":"levelo://app?vid=4b2ba33c-7cdc-4277-b145-13f7259e024e","ios":"levelo://app?vid=4b2ba33c-7cdc-4277-b145-13f7259e024e"},"vehicle_type_id":"4","last_reported":1704118001,"current_range_meters":23200,"station_id":"ce4bhb12rcd13ifvqel0","pricing_plan_id":"free"},{"bike_id":"35259b47-b0e9-43d6-8bf9-09be7776feef","system_id":"levelo_inurba_marseille","lat":43.291994,"lon":5.357886,"is_reserved":false,"is_disabled":false,"rental_uris":{"android":"levelo://app?vid=35259b47-b0e9-43d6-8bf9-09be7776feef","ios":"levelo://app?vid=35259b47-b0e9-43d6-8bf9-09be7776feef"},"vehicle_type_id":"4","last_reported":1704118001,"current_range_meters":20400,"station_id":"ce4bhb12rcd13ifvqel0","pricing_plan_id":"free"},{"bike_id":"ff7ecb3b-4925-4d39-b5b2-3523c1706e57","system_id":"levelo_inurba_marseille","lat":43.291994,"lon":5.357886,"is_reserved":false,"is_disabled":false,"rental_uris":{"android":"levelo://app?vid=ff7ecb3b-4925-4d39-b5b2-3523c1706e57","ios":"levelo://app?vid=ff7ecb3b-4925-4d39-b5b2-3523c1706e57"},"vehicle_type_id":"4","last_reported":1704118001,"current_range_meters":26800,"station_id":"ce4bhb12rcd13ifvqel0","pricing_plan_id":"free"},{"bike_id":"95400f66-ffe7-410e-8645-84cd3acad50e","system_id":"levelo_inurba_marseille","lat":43.291994,"lon":5.357886,"is_reserved":false,"is_disabled":false,"rental_uris":{"android":"levelo://app?vid=95400f66-ffe7-410e-8645-84cd3acad50e","ios":"levelo://app?vid=95400f66-ffe7-410e-8645-84cd3acad50e"},"vehicle_type_id":"4","last_reported":1704118001,"current_range_meters":12400,"station_id":"ce4bhb12rcd13ifvqel0","pricing_plan_id":"free"},{"bike_id":"668942d6-33c2-433a-a4c3-8da233302454","system_id":"levelo_inurba_marseille","lat":43.313291,"lon":5.396838,"is_reserved":false,"is_disabled":false,"rental_uris":{"android":"levelo://app?vid=668942d6-33c2-433a-a4c3-8da233302454","ios":"levelo://app?vid=668942d6-33c2-433a-a4c3-8da233302454"},"vehicle_type_id":"4","last_reported":1704118001,"current_range_meters":30400,"station_id":"ce4bgvp2rcd13ifvqcu0","pricing_plan_id":"free"},{"bike_id":"28fe034d-9c17-4081-91fc-11cc39785de3","system_id":"levelo_inurba_marseille","lat":43.291994,"lon":5.357886,"is_reserved":false,"is_disabled":false,"rental_uris":{"android":"levelo://app?vid=28fe034d-9c17-4081-91fc-11cc39785de3","ios":"levelo://app?vid=28fe034d-9c17-4081-91fc-11cc39785de3"},"vehicle_type_id":"4","last_reported":1704118001,"current_range_meters":22400,"station_id":"ce4bhb12rcd13ifvqel0","pricing_plan_id":"free"},{"bike_id":"f49b4dcb-bb32-4e85-a5cd-3238f3bef497","system_id":"levelo_inurba_marseille","lat":43.29529,"lon":5.385581,"is_reserved":false,"is_disabled":false,"rental_uris":{"android":"levelo://app?vid=f49b4dcb-bb32-4e85-a5cd-3238f3bef497","ios":"levelo://app?vid=f49b4dcb-bb32-4e85-a5cd-3238f3bef497"},"vehicle_type_id":"4","last_reported":1704118001,"current_range_meters":30000,"station_id":"ce4bgih2rcd13ifvqba0","pricing_plan_id":"free"},{"bike_id":"476df125-1b38-4466-b3b2-f1659fca0c1b","system_id":"levelo_inurba_marseille","lat":43.290631,"lon":5.359244,"is_reserved":false,"is_disabled":false,"rental_uris":{"android":"levelo://app?vid=476df125-1b38-4466-b3b2-f1659fca0c1b","ios":"levelo://app?vid=476df125-1b38-4466-b3b2-f1659fca0c1b"},"vehicle_type_id":"4","last_reported":1704118001,"current_range_meters":4400,"station_id":"ce4bha92rcd13ifvqeg0","pricing_plan_id":"free"},{"bike_id":"a04bd6ce-3aa3-4595-992a-94338724dacd","system_id":"levelo_inurba_marseille","lat":43.289184,"lon":5.366408,"is_reserved":false,"is_disabled":false,"rental_uris":{"android":"levelo://app?vid=a04bd6ce-3aa3-4595-992a-94338724dacd","ios":"levelo://app?vid=a04bd6ce-3aa3-4595-992a-94338724dacd"},"vehicle_type_id":"4","last_reported":1704118001,"current_range_meters":27600,"station_id":"ce4bhap2rcd13ifvqek0","pricing_plan_id":"free"},{"bike_id":"74aae3ce-bf55-49ee-8ec9-5776a85ecb64","system_id":"levelo_inurba_marseille","lat":43.289184,"lon":5.366408,"is_reserved":false,"is_disabled":false,"rental_uris":{"android":"levelo://app?vid=74aae3ce-bf55-49ee-8ec9-5776a85ecb64","ios":"levelo://app?vid=74aae3ce-bf55-49ee-8ec9-5776a85ecb64"},"vehicle_type_id":"4","last_reported":1704118001,"current_range_meters":20000,"station_id":"ce4bhap2rcd13ifvqek0","pricing_plan_id":"free"},{"bike_id":"58789385-ed02-40d3-889e-d3d19a963610","system_id":"levelo_inurba_marseille","lat":43.284219,"lon":5.3497,"is_reserved":false,"is_disabled":false,"rental_uris":{"android":"levelo://app?vid=58789385-ed02-40d3-889e-d3d19a963610","ios":"levelo://app?vid=58789385-ed02-40d3-889e-d3d19a963610"},"vehicle_type_id":"4","last_reported":1704118001,"current_range_meters":0,"station_id":"ce4bhbh2rcd13ifvqepg","pricing_plan_id":"free"},{"bike_id":"6af5d335-5cd1-4585-a6f0-a6e99c645196","system_id":"levelo_inurba_marseille","lat":43.289468,"lon":5.363719,"is_reserved":false,"is_disabled":false,"rental_uris":{"android":"levelo://app?vid=6af5d335-5cd1-4585-a6f0-a6e99c645196","ios":"levelo://app?vid=6af5d335-5cd1-4585-a6f0-a6e99c645196"},"vehicle_type_id":"4","last_reported":1704118001,"current_range_meters":30400,"station_id":"ce4bhc92rcd13ifvqetg","pricing_plan_id":"free"},{"bike_id":"c8af5ea1-b5a4-4365-9659-497d9c041cc8","system_id":"levelo_inurba_marseille","lat":43.290103,"lon":5.356114,"is_reserved":false,"is_disabled":false,"rental_uris":{"android":"levelo://app?vid=c8af5ea1-b5a4-4365-9659-497d9c041cc8","ios":"levelo://app?vid=c8af5ea1-b5a4-4365-9659-497d9c041cc8"},"vehicle_type_id":"4","last_reported":1704118001,"current_range_meters":11600,"station_id":"ce4bhb92rcd13ifvqen0","pricing_plan_id":"free"},{"bike_id":"8256b64b-4a94-4dbe-8210-c3f022dfbc07","system_id":"levelo_inurba_marseille","lat":43.29007,"lon":5.35609,"is_reserved":false,"is_disabled":false,"rental_uris":{"android":"levelo://app?vid=8256b64b-4a94-4dbe-8210-c3f022dfbc07","ios":"levelo://app?vid=8256b64b-4a94-4dbe-8210-c3f022dfbc07"},"vehicle_type_id":"4","last_reported":1704118001,"current_range_meters":21200,"station_id":"ce4bhb92rcd13ifvqen0","pricing_plan_id":"free"},{"bike_id":"c0d8ca99-e955-4494-8544-cd5c0d3779b7","system_id":"levelo_inurba_marseille","lat":43.290104,"lon":5.356111,"is_reserved":false,"is_disabled":false,"rental_uris":{"android":"levelo://app?vid=c0d8ca99-e955-4494-8544-cd5c0d3779b7","ios":"levelo://app?vid=c0d8ca99-e955-4494-8544-cd5c0d3779b7"},"vehicle_type_id":"4","last_reported":1704118001,"current_range_meters":20800,"station_id":"ce4bhb92rcd13ifvqen0","pricing_plan_id":"free"},{"bike_id":"50f5bef7-2f8f-48d6-b5af-a0779c48d33d","system_id":"levelo_inurba_marseille","lat":43.290103,"lon":5.356114,"is_reserved":false,"is_disabled":false,"rental_uris":{"android":"levelo://app?vid=50f5bef7-2f8f-48d6-b5af-a0779c48d33d","ios":"levelo://app?vid=50f5bef7-2f8f-48d6-b5af-a0779c48d33d"},"vehicle_type_id":"4","last_reported":1704118001,"current_range_meters":20000,"station_id":"ce4bhb92rcd13ifvqen0","pricing_plan_id":"free"},{"bike_id":"1e79490f-bbf9-4354-96c4-238c76a1aa97","system_id":"levelo_inurba_marseille","lat":43.290103,"lon":5.356114,"is_reserved":false,"is_disabled":false,"rental_uris":{"android":"levelo://app?vid=1e79490f-bbf9-4354-96c4-238c76a1aa97","ios":"levelo://app?vid=1e79490f-bbf9-4354-96c4-238c76a1aa97"},"vehicle_type_id":"4","last_reported":1704118001,"current_range_meters":19600,"station_id":"ce4bhb92rcd13ifvqen0","pricing_plan_id":"free"},{"bike_id":"fdfb70d8-9890-422e-9251-12e030bcfb72","system_id":"levelo_inurba_marseille","lat":43.330442,"lon":5.389148,"is_reserved":false,"is_disabled":false,"rental_uris":{"android":"levelo://app?vid=fdfb70d8-9890-422e-9251-12e030bcfb72","ios":"levelo://app?vid=fdfb70d8-9890-422e-9251-12e030bcfb72"},"vehicle_type_id":"4","last_reported":1704118001,"current_range_meters":18000,"station_id":"ce4bhr92rcd13ifvqhrg","pricing_plan_id":"free"},{"bike_id":"7d3f0707-26fc-41d0-8f63-88674e57e19c","system_id":"levelo_inurba_marseille","lat":43.330442,"lon":5.389148,"is_reserved":false,"is_disabled":false,"rental_uris":{"android":"levelo://app?vid=7d3f0707-26fc-41d0-8f63-88674e57e19c","ios":"levelo://app?vid=7d3f0707-26fc-41d0-8f63-88674e57e19c"},"vehicle_type_id":"4","last_reported":1704118001,"current_range_meters":11600,"station_id":"ce4bhr92rcd13ifvqhrg","pricing_plan_id":"free"},{"bike_id":"13d41c86-d361-4b17-ae49-6b5491dd4e85","system_id":"levelo_inurba_marseille","lat":43.330442,"lon":5.389148,"is_reserved":false,"is_disabled":false,"rental_uris":{"android":"levelo://app?vid=13d41c86-d361-4b17-ae49-6b5491dd4e85","ios":"levelo://app?vid=13d41c86-d361-4b17-ae49-6b5491dd4e85"},"vehicle_type_id":"4","last_reported":1704118001,"current_range_meters":29200,"station_id":"ce4bhr92rcd13ifvqhrg","pricing_plan_id":"free"},{"bike_id":"983ae15b-e6ac-4e63-857d-b1c023399b7b","system_id":"levelo_inurba_marseille","lat":43.330442,"lon":5.389148,"is_reserved":false,"is_disabled":false,"rental_uris":{"android":"levelo://app?vid=983ae15b-e6ac-4e63-857d-b1c023399b7b","ios":"levelo://app?vid=983ae15b-e6ac-4e63-857d-b1c023399b7b"},"vehicle_type_id":"4","last_reported":1704118001,"current_range_meters":27600,"station_id":"ce4bhr92rcd13ifvqhrg","pricing_plan_id":"free"},{"bike_id":"47cf1ecd-4b1c-436e-8054-df5bd0316fb8","system_id":"levelo_inurba_marseille","lat":43.28856,"lon":5.358371,"is_reserved":false,"is_disabled":false,"rental_uris":{"android":"levelo://app?vid=47cf1ecd-4b1c-436e-8054-df5bd0316fb8","ios":"levelo://app?vid=47cf1ecd-4b1c-436e-8054-df5bd0316fb8"},"vehicle_type_id":"4","last_reported":1704118001,"current_range_meters":24800,"station_id":"ce4bhb12rcd13ifvqem0","pricing_plan_id":"free"},{"bike_id":"09a95a56-b337-4b56-b0de-e69147a45e41","system_id":"levelo_inurba_marseille","lat":43.31283,"lon":5.40164,"is_reserved":false,"is_disabled":false,"rental_uris":{"android":"levelo://app?vid=09a95a56-b337-4b56-b0de-e69147a45e41","ios":"levelo://app?vid=09a95a56-b337-4b56-b0de-e69147a45e41"},"vehicle_type_id":"4","last_reported":1704118001,"current_range_meters":21600,"station_id":"","pricing_plan_id":"free"},{"bike_id":"afad0d4d-a92d-484f-b576-505288f508e6","system_id":"levelo_inurba_marseille","lat":43.312609,"lon":5.401662,"is_reserved":false,"is_disabled":false,"rental_uris":{"android":"levelo://app?vid=afad0d4d-a92d-484f-b576-505288f508e6","ios":"levelo://app?vid=afad0d4d-a92d-484f-b576-505288f508e6"},"vehicle_type_id":"4","last_reported":1704118001,"current_range_meters":20800,"station_id":"ce4bh092rcd13ifvqd30","pricing_plan_id":"free"},{"bike_id":"e17f47b2-3166-47b8-83f0-bf2dacd947e9","system_id":"levelo_inurba_marseille","lat":43.33753,"lon":5.374,"is_reserved":false,"is_disabled":false,"rental_uris":{"android":"levelo://app?vid=e17f47b2-3166-47b8-83f0-bf2dacd947e9","ios":"levelo://app?vid=e17f47b2-3166-47b8-83f0-bf2dacd947e9"},"vehicle_type_id":"4","last_reported":1704118001,"current_range_meters":28800,"station_id":"","pricing_plan_id":"free"},{"bike_id":"904f83aa-e9ab-401d-84c1-9edfed82b884","system_id":"levelo_inurba_marseille","lat":43.33759,"lon":5.37464,"is_reserved":false,"is_disabled":false,"rental_uris":{"android":"levelo://app?vid=904f83aa-e9ab-401d-84c1-9edfed82b884","ios":"levelo://app?vid=904f83aa-e9ab-401d-84c1-9edfed82b884"},"vehicle_type_id":"4","last_reported":1704118001,"current_range_meters":18800,"station_id":"","pricing_plan_id":"free"},{"bike_id":"5292914b-ac67-4d83-9706-276b66d94ec1","system_id":"levelo_inurba_marseille","lat":43.28778,"lon":5.35947,"is_reserved":false,"is_disabled":false,"rental_uris":{"android":"levelo://app?vid=5292914b-ac67-4d83-9706-276b66d94ec1","ios":"levelo://app?vid=5292914b-ac67-4d83-9706-276b66d94ec1"},"vehicle_type_id":"4","last_reported":1704118001,"current_range_meters":14400,"station_id":"","pricing_plan_id":"free"},{"bike_id":"f182ad30-578d-439a-b895-037c49f93cbb","system_id":"levelo_inurba_marseille","lat":43.28039,"lon":5.369297,"is_reserved":false,"is_disabled":false,"rental_uris":{"android":"levelo://app?vid=f182ad30-578d-439a-b895-037c49f93cbb","ios":"levelo://app?vid=f182ad30-578d-439a-b895-037c49f93cbb"},"vehicle_type_id":"4","last_reported":1704118001,"current_range_meters":31200,"station_id":"ce4bha12rcd13ifvqef0","pricing_plan_id":"free"},{"bike_id":"e1adb731-a153-4ab3-bb2b-d5e7b997c428","system_id":"levelo_inurba_marseille","lat":43.289307,"lon":5.38406,"is_reserved":false,"is_disabled":false,"rental_uris":{"android":"levelo://app?vid=e1adb731-a153-4ab3-bb2b-d5e7b997c428","ios":"levelo://app?vid=e1adb731-a153-4ab3-bb2b-d5e7b997c428"},"vehicle_type_id":"4","last_reported":1704118001,"current_range_meters":16000,"station_id":"ce4bh612rcd13ifvqe6g","pricing_plan_id":"free"},{"bike_id":"928b5e36-7395-48a8-be46-3c0cb9901378","system_id":"levelo_inurba_marseille","lat":43.289307,"lon":5.38406,"is_reserved":false,"is_disabled":false,"rental_uris":{"android":"levelo://app?vid=928b5e36-7395-48a8-be46-3c0cb9901378","ios":"levelo://app?vid=928b5e36-7395-48a8-be46-3c0cb9901378"},"vehicle_type_id":"4","last_reported":1704118001,"current_range_meters":800,"station_id":"ce4bh612rcd13ifvqe6g","pricing_plan_id":"free"},{"bike_id":"e366cc58-1b14-406b-b6c3-0568372e0959","system_id":"levelo_inurba_marseille","lat":43.302759,"lon":5.400793,"is_reserved":false,"is_disabled":false,"rental_uris":{"android":"levelo://app?vid=e366cc58-1b14-406b-b6c3-0568372e0959","ios":"levelo://app?vid=e366cc58-1b14-406b-b6c3-0568372e0959"},"vehicle_type_id":"4","last_reported":1704118001,"current_range_meters":21600,"station_id":"ce4bgvh2rcd13ifvqcs0","pricing_plan_id":"free"},{"bike_id":"c936e2f9-16c8-44d2-ac34-9534c2ad422d","system_id":"levelo_inurba_marseille","lat":43.302759,"lon":5.400793,"is_reserved":false,"is_disabled":false,"rental_uris":{"android":"levelo://app?vid=c936e2f9-16c8-44d2-ac34-9534c2ad422d","ios":"levelo://app?vid=c936e2f9-16c8-44d2-ac34-9534c2ad422d"},"vehicle_type_id":"4","last_reported":1704118001,"current_range_meters":13200,"station_id":"ce4bgvh2rcd13ifvqcs0","pricing_plan_id":"free"},{"bike_id":"833200fd-1832-4c81-9080-4cc1f8c71ca1","system_id":"levelo_inurba_marseille","lat":43.286039,"lon":5.370681,"is_reserved":false,"is_disabled":false,"rental_uris":{"android":"levelo://app?vid=833200fd-1832-4c81-9080-4cc1f8c71ca1","ios":"levelo://app?vid=833200fd-1832-4c81-9080-4cc1f8c71ca1"},"vehicle_type_id":"4","last_reported":1704118001,"current_range_meters":17200,"station_id":"ce4bht12rcd13ifvqi60","pricing_plan_id":"free"},{"bike_id":"a32f45e5-7b35-4e4c-b435-e11c51b0e22a","system_id":"levelo_inurba_marseille","lat":43.284214,"lon":5.349706,"is_reserved":false,"is_disabled":false,"rental_uris":{"android":"levelo://app?vid=a32f45e5-7b35-4e4c-b435-e11c51b0e22a","ios":"levelo://app?vid=a32f45e5-7b35-4e4c-b435-e11c51b0e22a"},"vehicle_type_id":"4","last_reported":1704118001,"current_range_meters":18400,"station_id":"ce4bhbh2rcd13ifvqepg","pricing_plan_id":"free"},{"bike_id":"ad2cc45f-cb4a-45a1-9c67-d3ff29739959","system_id":"levelo_inurba_marseille","lat":43.316828,"lon":5.404723,"is_reserved":false,"is_disabled":false,"rental_uris":{"android":"levelo://app?vid=ad2cc45f-cb4a-45a1-9c67-d3ff29739959","ios":"levelo://app?vid=ad2cc45f-cb4a-45a1-9c67-d3ff29739959"},"vehicle_type_id":"4","last_reported":1704118001,"current_range_meters":30800,"station_id":"ce4bh012rcd13ifvqd00","pricing_plan_id":"free"},{"bike_id":"bba896a5-792a-4d9a-a436-821c3d86166a","system_id":"levelo_inurba_marseille","lat":43.316828,"lon":5.404723,"is_reserved":false,"is_disabled":false,"rental_uris":{"android":"levelo://app?vid=bba896a5-792a-4d9a-a436-821c3d86166a","ios":"levelo://app?vid=bba896a5-792a-4d9a-a436-821c3d86166a"},"vehicle_type_id":"4","last_reported":1704118001,"current_range_meters":28000,"station_id":"ce4bh012rcd13ifvqd00","pricing_plan_id":"free"},{"bike_id":"483053b6-4b08-4692-aee4-bfd1846d4d3d","system_id":"levelo_inurba_marseille","lat":43.286348,"lon":5.352578,"is_reserved":false,"is_disabled":false,"rental_uris":{"android":"levelo://app?vid=483053b6-4b08-4692-aee4-bfd1846d4d3d","ios":"levelo://app?vid=483053b6-4b08-4692-aee4-bfd1846d4d3d"},"vehicle_type_id":"4","last_reported":1704118001,"current_range_meters":24000,"station_id":"ce4bhch2rcd13ifvqeug","pricing_plan_id":"free"},{"bike_id":"e924df11-ca03-4bc1-a9fa-fa63a9277664","system_id":"levelo_inurba_marseille","lat":43.284538,"lon":5.358657,"is_reserved":false,"is_disabled":false,"rental_uris":{"android":"levelo://app?vid=e924df11-ca03-4bc1-a9fa-fa63a9277664","ios":"levelo://app?vid=e924df11-ca03-4bc1-a9fa-fa63a9277664"},"vehicle_type_id":"4","last_reported":1704118001,"current_range_meters":30400,"station_id":"ce4bhah2rcd13ifvqei0","pricing_plan_id":"free"},{"bike_id":"cb2ee55a-ee57-41e5-b85f-bae49a78399d","system_id":"levelo_inurba_marseille","lat":43.285856,"lon":5.350771,"is_reserved":false,"is_disabled":false,"rental_uris":{"android":"levelo://app?vid=cb2ee55a-ee57-41e5-b85f-bae49a78399d","ios":"levelo://app?vid=cb2ee55a-ee57-41e5-b85f-bae49a78399d"},"vehicle_type_id":"4","last_reported":1704118001,"current_range_meters":20800,"station_id":"ce4bhch2rcd13ifvqeug","pricing_plan_id":"free"},{"bike_id":"8efb6121-953b-41c7-9076-73be5e496dcd","system_id":"levelo_inurba_marseille","lat":43.28612,"lon":5.35104,"is_reserved":false,"is_disabled":false,"rental_uris":{"android":"levelo://app?vid=8efb6121-953b-41c7-9076-73be5e496dcd","ios":"levelo://app?vid=8efb6121-953b-41c7-9076-73be5e496dcd"},"vehicle_type_id":"4","last_reported":1704118001,"current_range_meters":25200,"station_id":"ce4bhch2rcd13ifvqeug","pricing_plan_id":"free"},{"bike_id":"9712f9d9-d7ea-4e92-a7aa-c97565ad50a6","system_id":"levelo_inurba_marseille","lat":43.285856,"lon":5.350771,"is_reserved":false,"is_disabled":false,"rental_uris":{"android":"levelo://app?vid=9712f9d9-d7ea-4e92-a7aa-c97565ad50a6","ios":"levelo://app?vid=9712f9d9-d7ea-4e92-a7aa-c97565ad50a6"},"vehicle_type_id":"4","last_reported":1704118001,"current_range_meters":23600,"station_id":"ce4bhch2rcd13ifvqeug","pricing_plan_id":"free"},{"bike_id":"3ebce117-dcb3-4440-b9ce-07470832ba75","system_id":"levelo_inurba_marseille","lat":43.28611,"lon":5.35103,"is_reserved":false,"is_disabled":false,"rental_uris":{"android":"levelo://app?vid=3ebce117-dcb3-4440-b9ce-07470832ba75","ios":"levelo://app?vid=3ebce117-dcb3-4440-b9ce-07470832ba75"},"vehicle_type_id":"4","last_reported":1704118001,"current_range_meters":800,"station_id":"ce4bhch2rcd13ifvqeug","pricing_plan_id":"free"},{"bike_id":"6d6fe783-1222-4da5-8869-6556a448e627","system_id":"levelo_inurba_marseille","lat":43.285856,"lon":5.350771,"is_reserved":false,"is_disabled":false,"rental_uris":{"android":"levelo://app?vid=6d6fe783-1222-4da5-8869-6556a448e627","ios":"levelo://app?vid=6d6fe783-1222-4da5-8869-6556a448e627"},"vehicle_type_id":"4","last_reported":1704118001,"current_range_meters":30400,"station_id":"ce4bhch2rcd13ifvqeug","pricing_plan_id":"free"},{"bike_id":"e8e2847c-e24c-414c-89fb-569260a6ebc4","system_id":"levelo_inurba_marseille","lat":43.2841,"lon":5.37518,"is_reserved":false,"is_disabled":false,"rental_uris":{"android":"levelo://app?vid=e8e2847c-e24c-414c-89fb-569260a6ebc4","ios":"levelo://app?vid=e8e2847c-e24c-414c-89fb-569260a6ebc4"},"vehicle_type_id":"4","last_reported":1704118001,"current_range_meters":21600,"station_id":"ce4bh412rcd13ifvqds0","pricing_plan_id":"free"},{"bike_id":"8af6642b-e526-4770-8a06-6b115e68c32b","system_id":"levelo_inurba_marseille","lat":43.3372,"lon":5.39183,"is_reserved":false,"is_disabled":false,"rental_uris":{"android":"levelo://app?vid=8af6642b-e526-4770-8a06-6b115e68c32b","ios":"levelo://app?vid=8af6642b-e526-4770-8a06-6b115e68c32b"},"vehicle_type_id":"4","last_reported":1704118001,"current_range_meters":24800,"station_id":"ce4bhr92rcd13ifvqhsg","pricing_plan_id":"free"},{"bike_id":"1860c054-e673-4084-804e-8832a59aeb53","system_id":"levelo_inurba_marseille","lat":43.337168,"lon":5.391825,"is_reserved":false,"is_disabled":false,"rental_uris":{"android":"levelo://app?vid=1860c054-e673-4084-804e-8832a59aeb53","ios":"levelo://app?vid=1860c054-e673-4084-804e-8832a59aeb53"},"vehicle_type_id":"4","last_reported":1704118001,"current_range_meters":28400,"station_id":"ce4bhr92rcd13ifvqhsg","pricing_plan_id":"free"},{"bike_id":"9c89ccbb-1205-42f3-9670-7f7c8e469aa6","system_id":"levelo_inurba_marseille","lat":43.323464,"lon":5.406297,"is_reserved":false,"is_disabled":false,"rental_uris":{"android":"levelo://app?vid=9c89ccbb-1205-42f3-9670-7f7c8e469aa6","ios":"levelo://app?vid=9c89ccbb-1205-42f3-9670-7f7c8e469aa6"},"vehicle_type_id":"4","last_reported":1704118001,"current_range_meters":27600,"station_id":"ce4bhq92rcd13ifvqhjg","pricing_plan_id":"free"},{"bike_id":"09abad57-2621-48c9-8b6d-b048770fbb2a","system_id":"levelo_inurba_marseille","lat":43.284859,"lon":5.384277,"is_reserved":false,"is_disabled":false,"rental_uris":{"android":"levelo://app?vid=09abad57-2621-48c9-8b6d-b048770fbb2a","ios":"levelo://app?vid=09abad57-2621-48c9-8b6d-b048770fbb2a"},"vehicle_type_id":"4","last_reported":1704118001,"current_range_meters":31200,"station_id":"ce4bh492rcd13ifvqdug","pricing_plan_id":"free"},{"bike_id":"0b230f37-41e2-4380-a7c6-ca9bc7550c01","system_id":"levelo_inurba_marseille","lat":43.284793,"lon":5.384113,"is_reserved":false,"is_disabled":false,"rental_uris":{"android":"levelo://app?vid=0b230f37-41e2-4380-a7c6-ca9bc7550c01","ios":"levelo://app?vid=0b230f37-41e2-4380-a7c6-ca9bc7550c01"},"vehicle_type_id":"4","last_reported":1704118001,"current_range_meters":12800,"station_id":"ce4bh512rcd13ifvqe3g","pricing_plan_id":"free"},{"bike_id":"300f4e94-fcef-4053-92b6-4e3d3b7abbe4","system_id":"levelo_inurba_marseille","lat":43.288501,"lon":5.393087,"is_reserved":false,"is_disabled":false,"rental_uris":{"android":"levelo://app?vid=300f4e94-fcef-4053-92b6-4e3d3b7abbe4","ios":"levelo://app?vid=300f4e94-fcef-4053-92b6-4e3d3b7abbe4"},"vehicle_type_id":"4","last_reported":1704118001,"current_range_meters":24000,"station_id":"ce4bh2p2rcd13ifvqdi0","pricing_plan_id":"free"},{"bike_id":"73baccf2-2f35-40cb-b44e-6d50cd41c007","system_id":"levelo_inurba_marseille","lat":43.29795,"lon":5.404086,"is_reserved":false,"is_disabled":false,"rental_uris":{"android":"levelo://app?vid=73baccf2-2f35-40cb-b44e-6d50cd41c007","ios":"levelo://app?vid=73baccf2-2f35-40cb-b44e-6d50cd41c007"},"vehicle_type_id":"4","last_reported":1704118001,"current_range_meters":22800,"station_id":"ce4bh112rcd13ifvqd90","pricing_plan_id":"free"},{"bike_id":"316dc003-f635-4b5f-8ecd-b2f49113f09b","system_id":"levelo_inurba_marseille","lat":43.288501,"lon":5.393087,"is_reserved":false,"is_disabled":false,"rental_uris":{"android":"levelo://app?vid=316dc003-f635-4b5f-8ecd-b2f49113f09b","ios":"levelo://app?vid=316dc003-f635-4b5f-8ecd-b2f49113f09b"},"vehicle_type_id":"4","last_reported":1704118001,"current_range_meters":20800,"station_id":"ce4bh2p2rcd13ifvqdi0","pricing_plan_id":"free"},{"bike_id":"815df7b1-eb70-49f9-9b93-bdef005a1639","system_id":"levelo_inurba_marseille","lat":43.284219,"lon":5.3497,"is_reserved":false,"is_disabled":false,"rental_uris":{"android":"levelo://app?vid=815df7b1-eb70-49f9-9b93-bdef005a1639","ios":"levelo://app?vid=815df7b1-eb70-49f9-9b93-bdef005a1639"},"vehicle_type_id":"4","last_reported":1704118001,"current_range_meters":30800,"station_id":"ce4bhbh2rcd13ifvqepg","pricing_plan_id":"free"},{"bike_id":"3a1044d1-2076-4898-a7a7-eaca9090fada","system_id":"levelo_inurba_marseille","lat":43.284219,"lon":5.3497,"is_reserved":false,"is_disabled":false,"rental_uris":{"android":"levelo://app?vid=3a1044d1-2076-4898-a7a7-eaca9090fada","ios":"levelo://app?vid=3a1044d1-2076-4898-a7a7-eaca9090fada"},"vehicle_type_id":"4","last_reported":1704118001,"current_range_meters":24400,"station_id":"ce4bhbh2rcd13ifvqepg","pricing_plan_id":"free"},{"bike_id":"07ce3283-9bab-40bf-8b26-72b3cfef7452","system_id":"levelo_inurba_marseille","lat":43.284219,"lon":5.3497,"is_reserved":false,"is_disabled":false,"rental_uris":{"android":"levelo://app?vid=07ce3283-9bab-40bf-8b26-72b3cfef7452","ios":"levelo://app?vid=07ce3283-9bab-40bf-8b26-72b3cfef7452"},"vehicle_type_id":"4","last_reported":1704118001,"current_range_meters":32000,"station_id":"ce4bhbh2rcd13ifvqepg","pricing_plan_id":"free"},{"bike_id":"fddd2611-feab-4620-876b-52cc1e62e134","system_id":"levelo_inurba_marseille","lat":43.284219,"lon":5.3497,"is_reserved":false,"is_disabled":false,"rental_uris":{"android":"levelo://app?vid=fddd2611-feab-4620-876b-52cc1e62e134","ios":"levelo://app?vid=fddd2611-feab-4620-876b-52cc1e62e134"},"vehicle_type_id":"4","last_reported":1704118001,"current_range_meters":32000,"station_id":"ce4bhbh2rcd13ifvqepg","pricing_plan_id":"free"},{"bike_id":"42453d5c-7409-4c34-978a-bda9a64c32f1","system_id":"levelo_inurba_marseille","lat":43.284219,"lon":5.3497,"is_reserved":false,"is_disabled":false,"rental_uris":{"android":"levelo://app?vid=42453d5c-7409-4c34-978a-bda9a64c32f1","ios":"levelo://app?vid=42453d5c-7409-4c34-978a-bda9a64c32f1"},"vehicle_type_id":"4","last_reported":1704118001,"current_range_meters":22400,"station_id":"ce4bhbh2rcd13ifvqepg","pricing_plan_id":"free"},{"bike_id":"646f152a-6108-4f1a-bc21-03e8b0c7192d","system_id":"levelo_inurba_marseille","lat":43.284217,"lon":5.349697,"is_reserved":false,"is_disabled":false,"rental_uris":{"android":"levelo://app?vid=646f152a-6108-4f1a-bc21-03e8b0c7192d","ios":"levelo://app?vid=646f152a-6108-4f1a-bc21-03e8b0c7192d"},"vehicle_type_id":"4","last_reported":1704118001,"current_range_meters":23600,"station_id":"ce4bhbh2rcd13ifvqepg","pricing_plan_id":"free"},{"bike_id":"d731d671-a3f5-4243-ac4b-1201edd40e88","system_id":"levelo_inurba_marseille","lat":43.284217,"lon":5.349697,"is_reserved":false,"is_disabled":false,"rental_uris":{"android":"levelo://app?vid=d731d671-a3f5-4243-ac4b-1201edd40e88","ios":"levelo://app?vid=d731d671-a3f5-4243-ac4b-1201edd40e88"},"vehicle_type_id":"4","last_reported":1704118001,"current_range_meters":31600,"station_id":"ce4bhbh2rcd13ifvqepg","pricing_plan_id":"free"},{"bike_id":"fdaed254-768f-4eb1-882a-539209c05fd1","system_id":"levelo_inurba_marseille","lat":43.284219,"lon":5.3497,"is_reserved":false,"is_disabled":false,"rental_uris":{"android":"levelo://app?vid=fdaed254-768f-4eb1-882a-539209c05fd1","ios":"levelo://app?vid=fdaed254-768f-4eb1-882a-539209c05fd1"},"vehicle_type_id":"4","last_reported":1704118001,"current_range_meters":22800,"station_id":"ce4bhbh2rcd13ifvqepg","pricing_plan_id":"free"},{"bike_id":"bf484915-3c31-461f-a9d2-7ffde0d90705","system_id":"levelo_inurba_marseille","lat":43.284217,"lon":5.349697,"is_reserved":false,"is_disabled":false,"rental_uris":{"android":"levelo://app?vid=bf484915-3c31-461f-a9d2-7ffde0d90705","ios":"levelo://app?vid=bf484915-3c31-461f-a9d2-7ffde0d90705"},"vehicle_type_id":"4","last_reported":1704118001,"current_range_meters":19600,"station_id":"ce4bhbh2rcd13ifvqepg","pricing_plan_id":"free"},{"bike_id":"0d0d6d12-5006-40f2-9232-de7ce4d5f763","system_id":"levelo_inurba_marseille","lat":43.284217,"lon":5.349697,"is_reserved":false,"is_disabled":false,"rental_uris":{"android":"levelo://app?vid=0d0d6d12-5006-40f2-9232-de7ce4d5f763","ios":"levelo://app?vid=0d0d6d12-5006-40f2-9232-de7ce4d5f763"},"vehicle_type_id":"4","last_reported":1704118001,"current_range_meters":16400,"station_id":"ce4bhbh2rcd13ifvqepg","pricing_plan_id":"free"},{"bike_id":"e66eb6ab-0946-4702-a509-720e5946a983","system_id":"levelo_inurba_marseille","lat":43.284219,"lon":5.3497,"is_reserved":false,"is_disabled":false,"rental_uris":{"android":"levelo://app?vid=e66eb6ab-0946-4702-a509-720e5946a983","ios":"levelo://app?vid=e66eb6ab-0946-4702-a509-720e5946a983"},"vehicle_type_id":"4","last_reported":1704118001,"current_range_meters":24800,"station_id":"ce4bhbh2rcd13ifvqepg","pricing_plan_id":"free"},{"bike_id":"c2174514-c7bd-4f7a-b2d0-7cdb0e7433b1","system_id":"levelo_inurba_marseille","lat":43.284217,"lon":5.349697,"is_reserved":false,"is_disabled":false,"rental_uris":{"android":"levelo://app?vid=c2174514-c7bd-4f7a-b2d0-7cdb0e7433b1","ios":"levelo://app?vid=c2174514-c7bd-4f7a-b2d0-7cdb0e7433b1"},"vehicle_type_id":"4","last_reported":1704118001,"current_range_meters":15200,"station_id":"ce4bhbh2rcd13ifvqepg","pricing_plan_id":"free"},{"bike_id":"1f715975-8876-4b6e-a54d-b0f83a7d2f19","system_id":"levelo_inurba_marseille","lat":43.284219,"lon":5.3497,"is_reserved":false,"is_disabled":false,"rental_uris":{"android":"levelo://app?vid=1f715975-8876-4b6e-a54d-b0f83a7d2f19","ios":"levelo://app?vid=1f715975-8876-4b6e-a54d-b0f83a7d2f19"},"vehicle_type_id":"4","last_reported":1704118001,"current_range_meters":4400,"station_id":"ce4bhbh2rcd13ifvqepg","pricing_plan_id":"free"},{"bike_id":"45957ee8-563c-464a-a649-d82560a053e3","system_id":"levelo_inurba_marseille","lat":43.284217,"lon":5.349697,"is_reserved":false,"is_disabled":false,"rental_uris":{"android":"levelo://app?vid=45957ee8-563c-464a-a649-d82560a053e3","ios":"levelo://app?vid=45957ee8-563c-464a-a649-d82560a053e3"},"vehicle_type_id":"4","last_reported":1704118001,"current_range_meters":18800,"station_id":"ce4bhbh2rcd13ifvqepg","pricing_plan_id":"free"},{"bike_id":"c4842957-daa2-4150-9acd-bbbe2df74d61","system_id":"levelo_inurba_marseille","lat":43.28414,"lon":5.34989,"is_reserved":false,"is_disabled":false,"rental_uris":{"android":"levelo://app?vid=c4842957-daa2-4150-9acd-bbbe2df74d61","ios":"levelo://app?vid=c4842957-daa2-4150-9acd-bbbe2df74d61"},"vehicle_type_id":"4","last_reported":1704118001,"current_range_meters":22800,"station_id":"ce4bhbh2rcd13ifvqepg","pricing_plan_id":"free"},{"bike_id":"23f47fb7-94a9-404e-9c18-cfbbc569eae2","system_id":"levelo_inurba_marseille","lat":43.284219,"lon":5.3497,"is_reserved":false,"is_disabled":false,"rental_uris":{"android":"levelo://app?vid=23f47fb7-94a9-404e-9c18-cfbbc569eae2","ios":"levelo://app?vid=23f47fb7-94a9-404e-9c18-cfbbc569eae2"},"vehicle_type_id":"4","last_reported":1704118001,"current_range_meters":12000,"station_id":"ce4bhbh2rcd13ifvqepg","pricing_plan_id":"free"},{"bike_id":"f3b3df23-c0e8-46ec-b765-06c4957c57df","system_id":"levelo_inurba_marseille","lat":43.284214,"lon":5.349706,"is_reserved":false,"is_disabled":false,"rental_uris":{"android":"levelo://app?vid=f3b3df23-c0e8-46ec-b765-06c4957c57df","ios":"levelo://app?vid=f3b3df23-c0e8-46ec-b765-06c4957c57df"},"vehicle_type_id":"4","last_reported":1704118001,"current_range_meters":20000,"station_id":"ce4bhbh2rcd13ifvqepg","pricing_plan_id":"free"},{"bike_id":"f6e7397d-1124-4f2c-84c4-9e0dbd6d662b","system_id":"levelo_inurba_marseille","lat":43.283502,"lon":5.386471,"is_reserved":false,"is_disabled":false,"rental_uris":{"android":"levelo://app?vid=f6e7397d-1124-4f2c-84c4-9e0dbd6d662b","ios":"levelo://app?vid=f6e7397d-1124-4f2c-84c4-9e0dbd6d662b"},"vehicle_type_id":"4","last_reported":1704118001,"current_range_meters":13600,"station_id":"ce4bh492rcd13ifvqdvg","pricing_plan_id":"free"},{"bike_id":"f935ae95-81fb-4af6-a7de-297d9e945c44","system_id":"levelo_inurba_marseille","lat":43.282754,"lon":5.350519,"is_reserved":false,"is_disabled":false,"rental_uris":{"android":"levelo://app?vid=f935ae95-81fb-4af6-a7de-297d9e945c44","ios":"levelo://app?vid=f935ae95-81fb-4af6-a7de-297d9e945c44"},"vehicle_type_id":"4","last_reported":1704118001,"current_range_meters":13200,"station_id":"ce4bhbp2rcd13ifvqerg","pricing_plan_id":"free"},{"bike_id":"6a4bcbaf-1207-451f-9ab8-0f8a861fa5c6","system_id":"levelo_inurba_marseille","lat":43.2827,"lon":5.35072,"is_reserved":false,"is_disabled":false,"rental_uris":{"android":"levelo://app?vid=6a4bcbaf-1207-451f-9ab8-0f8a861fa5c6","ios":"levelo://app?vid=6a4bcbaf-1207-451f-9ab8-0f8a861fa5c6"},"vehicle_type_id":"4","last_reported":1704118001,"current_range_meters":6400,"station_id":"ce4bhbp2rcd13ifvqerg","pricing_plan_id":"free"},{"bike_id":"ae319756-66af-41b4-8b03-da7532c1ee69","system_id":"levelo_inurba_marseille","lat":43.282744,"lon":5.350533,"is_reserved":false,"is_disabled":false,"rental_uris":{"android":"levelo://app?vid=ae319756-66af-41b4-8b03-da7532c1ee69","ios":"levelo://app?vid=ae319756-66af-41b4-8b03-da7532c1ee69"},"vehicle_type_id":"4","last_reported":1704118001,"current_range_meters":22800,"station_id":"ce4bhbp2rcd13ifvqerg","pricing_plan_id":"free"},{"bike_id":"d3b7621d-0973-4024-9a39-78db85cd396a","system_id":"levelo_inurba_marseille","lat":43.283502,"lon":5.386471,"is_reserved":false,"is_disabled":false,"rental_uris":{"android":"levelo://app?vid=d3b7621d-0973-4024-9a39-78db85cd396a","ios":"levelo://app?vid=d3b7621d-0973-4024-9a39-78db85cd396a"},"vehicle_type_id":"4","last_reported":1704118001,"current_range_meters":27600,"station_id":"ce4bh492rcd13ifvqdvg","pricing_plan_id":"free"},{"bike_id":"e20d39bc-3df4-49ac-bcdc-b6153f10612a","system_id":"levelo_inurba_marseille","lat":43.282744,"lon":5.350533,"is_reserved":false,"is_disabled":false,"rental_uris":{"android":"levelo://app?vid=e20d39bc-3df4-49ac-bcdc-b6153f10612a","ios":"levelo://app?vid=e20d39bc-3df4-49ac-bcdc-b6153f10612a"},"vehicle_type_id":"4","last_reported":1704118001,"current_range_meters":8800,"station_id":"ce4bhbp2rcd13ifvqerg","pricing_plan_id":"free"},{"bike_id":"0e6a5223-be83-4b35-9f82-cfa0e4e2eec5","system_id":"levelo_inurba_marseille","lat":43.282754,"lon":5.350519,"is_reserved":false,"is_disabled":false,"rental_uris":{"android":"levelo://app?vid=0e6a5223-be83-4b35-9f82-cfa0e4e2eec5","ios":"levelo://app?vid=0e6a5223-be83-4b35-9f82-cfa0e4e2eec5"},"vehicle_type_id":"4","last_reported":1704118001,"current_range_meters":32000,"station_id":"ce4bhbp2rcd13ifvqerg","pricing_plan_id":"free"},{"bike_id":"51eb4204-01cc-4166-9e45-48825d4c4b83","system_id":"levelo_inurba_marseille","lat":43.28039,"lon":5.369297,"is_reserved":false,"is_disabled":false,"rental_uris":{"android":"levelo://app?vid=51eb4204-01cc-4166-9e45-48825d4c4b83","ios":"levelo://app?vid=51eb4204-01cc-4166-9e45-48825d4c4b83"},"vehicle_type_id":"4","last_reported":1704118001,"current_range_meters":11200,"station_id":"ce4bha12rcd13ifvqef0","pricing_plan_id":"free"},{"bike_id":"784d0d32-a607-4226-b336-1b61e44b43e3","system_id":"levelo_inurba_marseille","lat":43.28032,"lon":5.36944,"is_reserved":false,"is_disabled":false,"rental_uris":{"android":"levelo://app?vid=784d0d32-a607-4226-b336-1b61e44b43e3","ios":"levelo://app?vid=784d0d32-a607-4226-b336-1b61e44b43e3"},"vehicle_type_id":"4","last_reported":1704118001,"current_range_meters":29600,"station_id":"ce4bha12rcd13ifvqef0","pricing_plan_id":"free"},{"bike_id":"2fe18326-b166-4104-8b76-6d1bd44553fa","system_id":"levelo_inurba_marseille","lat":43.284462,"lon":5.392121,"is_reserved":false,"is_disabled":false,"rental_uris":{"android":"levelo://app?vid=2fe18326-b166-4104-8b76-6d1bd44553fa","ios":"levelo://app?vid=2fe18326-b166-4104-8b76-6d1bd44553fa"},"vehicle_type_id":"4","last_reported":1704118001,"current_range_meters":6400,"station_id":"ce4bhoh2rcd13ifvqh5g","pricing_plan_id":"free"},{"bike_id":"f9b0a9c8-24c1-4156-a225-5ec62d466306","system_id":"levelo_inurba_marseille","lat":43.326605,"lon":5.409903,"is_reserved":false,"is_disabled":false,"rental_uris":{"android":"levelo://app?vid=f9b0a9c8-24c1-4156-a225-5ec62d466306","ios":"levelo://app?vid=f9b0a9c8-24c1-4156-a225-5ec62d466306"},"vehicle_type_id":"4","last_reported":1704118001,"current_range_meters":30400,"station_id":"ce4bhpp2rcd13ifvqhgg","pricing_plan_id":"free"},{"bike_id":"e6fea743-4d0b-4fdf-988e-ebb67400bef8","system_id":"levelo_inurba_marseille","lat":43.287154,"lon":5.399979,"is_reserved":false,"is_disabled":false,"rental_uris":{"android":"levelo://app?vid=e6fea743-4d0b-4fdf-988e-ebb67400bef8","ios":"levelo://app?vid=e6fea743-4d0b-4fdf-988e-ebb67400bef8"},"vehicle_type_id":"4","last_reported":1704118001,"current_range_meters":28000,"station_id":"ce4bho92rcd13ifvqh3g","pricing_plan_id":"free"},{"bike_id":"68163f85-fedf-4151-9bf4-2cf1f926fe5e","system_id":"levelo_inurba_marseille","lat":43.320045,"lon":5.415046,"is_reserved":false,"is_disabled":false,"rental_uris":{"android":"levelo://app?vid=68163f85-fedf-4151-9bf4-2cf1f926fe5e","ios":"levelo://app?vid=68163f85-fedf-4151-9bf4-2cf1f926fe5e"},"vehicle_type_id":"4","last_reported":1704118001,"current_range_meters":16000,"station_id":"ce4bhq92rcd13ifvqhkg","pricing_plan_id":"free"},{"bike_id":"28e6a4a1-2873-446d-91b0-199fa2941f91","system_id":"levelo_inurba_marseille","lat":43.320045,"lon":5.415046,"is_reserved":false,"is_disabled":false,"rental_uris":{"android":"levelo://app?vid=28e6a4a1-2873-446d-91b0-199fa2941f91","ios":"levelo://app?vid=28e6a4a1-2873-446d-91b0-199fa2941f91"},"vehicle_type_id":"4","last_reported":1704118001,"current_range_meters":24400,"station_id":"ce4bhq92rcd13ifvqhkg","pricing_plan_id":"free"},{"bike_id":"817f7c28-5084-4f58-b108-1e4c073508d4","system_id":"levelo_inurba_marseille","lat":43.320045,"lon":5.415046,"is_reserved":false,"is_disabled":false,"rental_uris":{"android":"levelo://app?vid=817f7c28-5084-4f58-b108-1e4c073508d4","ios":"levelo://app?vid=817f7c28-5084-4f58-b108-1e4c073508d4"},"vehicle_type_id":"4","last_reported":1704118001,"current_range_meters":25200,"station_id":"ce4bhq92rcd13ifvqhkg","pricing_plan_id":"free"},{"bike_id":"136c0b35-2c99-400e-9c16-5623376184b8","system_id":"levelo_inurba_marseille","lat":43.29263,"lon":5.40896,"is_reserved":false,"is_disabled":false,"rental_uris":{"android":"levelo://app?vid=136c0b35-2c99-400e-9c16-5623376184b8","ios":"levelo://app?vid=136c0b35-2c99-400e-9c16-5623376184b8"},"vehicle_type_id":"4","last_reported":1704118001,"current_range_meters":30000,"station_id":"ce4bh192rcd13ifvqdc0","pricing_plan_id":"free"},{"bike_id":"a67fdae9-54e4-47f0-911d-8e3d27673a24","system_id":"levelo_inurba_marseille","lat":43.292571,"lon":5.409107,"is_reserved":false,"is_disabled":false,"rental_uris":{"android":"levelo://app?vid=a67fdae9-54e4-47f0-911d-8e3d27673a24","ios":"levelo://app?vid=a67fdae9-54e4-47f0-911d-8e3d27673a24"},"vehicle_type_id":"4","last_reported":1704118001,"current_range_meters":29600,"station_id":"ce4bh192rcd13ifvqdc0","pricing_plan_id":"free"},{"bike_id":"d7b74a6d-0877-49d9-9407-79f632a404ca","system_id":"levelo_inurba_marseille","lat":43.276179,"lon":5.361009,"is_reserved":false,"is_disabled":false,"rental_uris":{"android":"levelo://app?vid=d7b74a6d-0877-49d9-9407-79f632a404ca","ios":"levelo://app?vid=d7b74a6d-0877-49d9-9407-79f632a404ca"},"vehicle_type_id":"4","last_reported":1704118001,"current_range_meters":30000,"station_id":"ce4bgj92rcd13ifvqbe0","pricing_plan_id":"free"},{"bike_id":"c058b825-6b65-409c-8371-7d381cccaa9f","system_id":"levelo_inurba_marseille","lat":43.27615,"lon":5.36112,"is_reserved":false,"is_disabled":false,"rental_uris":{"android":"levelo://app?vid=c058b825-6b65-409c-8371-7d381cccaa9f","ios":"levelo://app?vid=c058b825-6b65-409c-8371-7d381cccaa9f"},"vehicle_type_id":"4","last_reported":1704118001,"current_range_meters":22000,"station_id":"ce4bgj92rcd13ifvqbe0","pricing_plan_id":"free"},{"bike_id":"52710c2c-e727-4072-b4b3-43bca13f4228","system_id":"levelo_inurba_marseille","lat":43.280784,"lon":5.396622,"is_reserved":false,"is_disabled":false,"rental_uris":{"android":"levelo://app?vid=52710c2c-e727-4072-b4b3-43bca13f4228","ios":"levelo://app?vid=52710c2c-e727-4072-b4b3-43bca13f4228"},"vehicle_type_id":"4","last_reported":1704118001,"current_range_meters":23600,"station_id":"ce4bho12rcd13ifvqh2g","pricing_plan_id":"free"},{"bike_id":"e1838f9f-299f-437d-abd8-4f286644fe17","system_id":"levelo_inurba_marseille","lat":43.280784,"lon":5.396622,"is_reserved":false,"is_disabled":false,"rental_uris":{"android":"levelo://app?vid=e1838f9f-299f-437d-abd8-4f286644fe17","ios":"levelo://app?vid=e1838f9f-299f-437d-abd8-4f286644fe17"},"vehicle_type_id":"4","last_reported":1704118001,"current_range_meters":28400,"station_id":"ce4bho12rcd13ifvqh2g","pricing_plan_id":"free"},{"bike_id":"3d32c085-ee83-47ce-925c-01b64e6beb31","system_id":"levelo_inurba_marseille","lat":43.280784,"lon":5.396622,"is_reserved":false,"is_disabled":false,"rental_uris":{"android":"levelo://app?vid=3d32c085-ee83-47ce-925c-01b64e6beb31","ios":"levelo://app?vid=3d32c085-ee83-47ce-925c-01b64e6beb31"},"vehicle_type_id":"4","last_reported":1704118001,"current_range_meters":15600,"station_id":"ce4bho12rcd13ifvqh2g","pricing_plan_id":"free"},{"bike_id":"8fc4ba0b-b5b0-44d5-b85e-bc3c9907bfbb","system_id":"levelo_inurba_marseille","lat":43.303837,"lon":5.418724,"is_reserved":false,"is_disabled":false,"rental_uris":{"android":"levelo://app?vid=8fc4ba0b-b5b0-44d5-b85e-bc3c9907bfbb","ios":"levelo://app?vid=8fc4ba0b-b5b0-44d5-b85e-bc3c9907bfbb"},"vehicle_type_id":"4","last_reported":1704118001,"current_range_meters":26800,"station_id":"ce4bhop2rcd13ifvqh7g","pricing_plan_id":"free"},{"bike_id":"4e4ff796-b6c2-4ed5-bf16-c931dd6520f7","system_id":"levelo_inurba_marseille","lat":43.303837,"lon":5.418724,"is_reserved":false,"is_disabled":false,"rental_uris":{"android":"levelo://app?vid=4e4ff796-b6c2-4ed5-bf16-c931dd6520f7","ios":"levelo://app?vid=4e4ff796-b6c2-4ed5-bf16-c931dd6520f7"},"vehicle_type_id":"4","last_reported":1704118001,"current_range_meters":26800,"station_id":"ce4bhop2rcd13ifvqh7g","pricing_plan_id":"free"},{"bike_id":"9c3cee69-8ad3-42fa-8268-154e69e68d91","system_id":"levelo_inurba_marseille","lat":43.273786,"lon":5.362544,"is_reserved":false,"is_disabled":false,"rental_uris":{"android":"levelo://app?vid=9c3cee69-8ad3-42fa-8268-154e69e68d91","ios":"levelo://app?vid=9c3cee69-8ad3-42fa-8268-154e69e68d91"},"vehicle_type_id":"4","last_reported":1704118001,"current_range_meters":26000,"station_id":"","pricing_plan_id":"free"},{"bike_id":"824ef797-2a4e-4785-bf6d-29e20bce20dc","system_id":"levelo_inurba_marseille","lat":43.273613,"lon":5.362705,"is_reserved":false,"is_disabled":false,"rental_uris":{"android":"levelo://app?vid=824ef797-2a4e-4785-bf6d-29e20bce20dc","ios":"levelo://app?vid=824ef797-2a4e-4785-bf6d-29e20bce20dc"},"vehicle_type_id":"4","last_reported":1704118001,"current_range_meters":31600,"station_id":"ce4bhbh2rcd13ifvqeo0","pricing_plan_id":"free"},{"bike_id":"4717b55e-7de6-48c5-9744-3b221756249e","system_id":"levelo_inurba_marseille","lat":43.273613,"lon":5.362705,"is_reserved":false,"is_disabled":false,"rental_uris":{"android":"levelo://app?vid=4717b55e-7de6-48c5-9744-3b221756249e","ios":"levelo://app?vid=4717b55e-7de6-48c5-9744-3b221756249e"},"vehicle_type_id":"4","last_reported":1704118001,"current_range_meters":23600,"station_id":"ce4bhbh2rcd13ifvqeo0","pricing_plan_id":"free"},{"bike_id":"c2693136-9df2-4c90-8ccc-148a8eba96c6","system_id":"levelo_inurba_marseille","lat":43.290104,"lon":5.356111,"is_reserved":false,"is_disabled":false,"rental_uris":{"android":"levelo://app?vid=c2693136-9df2-4c90-8ccc-148a8eba96c6","ios":"levelo://app?vid=c2693136-9df2-4c90-8ccc-148a8eba96c6"},"vehicle_type_id":"4","last_reported":1704118001,"current_range_meters":17200,"station_id":"ce4bhb92rcd13ifvqen0","pricing_plan_id":"free"},{"bike_id":"838e390a-0d2f-44c2-87a4-d40aabcd8ccc","system_id":"levelo_inurba_marseille","lat":43.27671,"lon":5.389198,"is_reserved":false,"is_disabled":false,"rental_uris":{"android":"levelo://app?vid=838e390a-0d2f-44c2-87a4-d40aabcd8ccc","ios":"levelo://app?vid=838e390a-0d2f-44c2-87a4-d40aabcd8ccc"},"vehicle_type_id":"4","last_reported":1704118001,"current_range_meters":800,"station_id":"","pricing_plan_id":"free"},{"bike_id":"29db4e75-73a9-45d1-8a88-78686b16c358","system_id":"levelo_inurba_marseille","lat":43.279952,"lon":5.400085,"is_reserved":false,"is_disabled":false,"rental_uris":{"android":"levelo://app?vid=29db4e75-73a9-45d1-8a88-78686b16c358","ios":"levelo://app?vid=29db4e75-73a9-45d1-8a88-78686b16c358"},"vehicle_type_id":"4","last_reported":1704118001,"current_range_meters":13600,"station_id":"ce4bho92rcd13ifvqh4g","pricing_plan_id":"free"},{"bike_id":"ad8ead7b-2150-462d-9ff1-f4303c6e32bd","system_id":"levelo_inurba_marseille","lat":43.279952,"lon":5.400085,"is_reserved":false,"is_disabled":false,"rental_uris":{"android":"levelo://app?vid=ad8ead7b-2150-462d-9ff1-f4303c6e32bd","ios":"levelo://app?vid=ad8ead7b-2150-462d-9ff1-f4303c6e32bd"},"vehicle_type_id":"4","last_reported":1704118001,"current_range_meters":25200,"station_id":"ce4bho92rcd13ifvqh4g","pricing_plan_id":"free"},{"bike_id":"05c29cd9-7dfc-4bcd-8b9b-a5bbe2df5db3","system_id":"levelo_inurba_marseille","lat":43.317265,"lon":5.423899,"is_reserved":false,"is_disabled":false,"rental_uris":{"android":"levelo://app?vid=05c29cd9-7dfc-4bcd-8b9b-a5bbe2df5db3","ios":"levelo://app?vid=05c29cd9-7dfc-4bcd-8b9b-a5bbe2df5db3"},"vehicle_type_id":"4","last_reported":1704118001,"current_range_meters":31600,"station_id":"","pricing_plan_id":"free"},{"bike_id":"95620b28-48e0-40ed-8f4c-f7654a31b6da","system_id":"levelo_inurba_marseille","lat":43.317226,"lon":5.423922,"is_reserved":false,"is_disabled":false,"rental_uris":{"android":"levelo://app?vid=95620b28-48e0-40ed-8f4c-f7654a31b6da","ios":"levelo://app?vid=95620b28-48e0-40ed-8f4c-f7654a31b6da"},"vehicle_type_id":"4","last_reported":1704118001,"current_range_meters":31200,"station_id":"","pricing_plan_id":"free"},{"bike_id":"e2340435-a767-4a07-9db0-637fd4bce462","system_id":"levelo_inurba_marseille","lat":43.317336,"lon":5.423908,"is_reserved":false,"is_disabled":false,"rental_uris":{"android":"levelo://app?vid=e2340435-a767-4a07-9db0-637fd4bce462","ios":"levelo://app?vid=e2340435-a767-4a07-9db0-637fd4bce462"},"vehicle_type_id":"4","last_reported":1704118001,"current_range_meters":31200,"station_id":"","pricing_plan_id":"free"},{"bike_id":"5e3452d0-bbc8-463b-8852-ec98e809d5a0","system_id":"levelo_inurba_marseille","lat":43.317348,"lon":5.423907,"is_reserved":false,"is_disabled":false,"rental_uris":{"android":"levelo://app?vid=5e3452d0-bbc8-463b-8852-ec98e809d5a0","ios":"levelo://app?vid=5e3452d0-bbc8-463b-8852-ec98e809d5a0"},"vehicle_type_id":"4","last_reported":1704118001,"current_range_meters":31200,"station_id":"","pricing_plan_id":"free"},{"bike_id":"a8f3a594-707b-47ca-8d44-e5deb7af4735","system_id":"levelo_inurba_marseille","lat":43.317431,"lon":5.423894,"is_reserved":false,"is_disabled":false,"rental_uris":{"android":"levelo://app?vid=a8f3a594-707b-47ca-8d44-e5deb7af4735","ios":"levelo://app?vid=a8f3a594-707b-47ca-8d44-e5deb7af4735"},"vehicle_type_id":"4","last_reported":1704118001,"current_range_meters":28400,"station_id":"ce4bhp92rcd13ifvqhbg","pricing_plan_id":"free"},{"bike_id":"f3e351f0-7ca3-497e-a450-69da3118abd7","system_id":"levelo_inurba_marseille","lat":43.317121,"lon":5.423936,"is_reserved":false,"is_disabled":false,"rental_uris":{"android":"levelo://app?vid=f3e351f0-7ca3-497e-a450-69da3118abd7","ios":"levelo://app?vid=f3e351f0-7ca3-497e-a450-69da3118abd7"},"vehicle_type_id":"4","last_reported":1704118001,"current_range_meters":28400,"station_id":"ce4bhp92rcd13ifvqhbg","pricing_plan_id":"free"},{"bike_id":"450ed659-c181-4eab-9bb5-1bc0054378de","system_id":"levelo_inurba_marseille","lat":43.317121,"lon":5.423936,"is_reserved":false,"is_disabled":false,"rental_uris":{"android":"levelo://app?vid=450ed659-c181-4eab-9bb5-1bc0054378de","ios":"levelo://app?vid=450ed659-c181-4eab-9bb5-1bc0054378de"},"vehicle_type_id":"4","last_reported":1704118001,"current_range_meters":29200,"station_id":"ce4bhp92rcd13ifvqhbg","pricing_plan_id":"free"},{"bike_id":"4760841b-4fd7-4b7d-aef3-782de75b0909","system_id":"levelo_inurba_marseille","lat":43.317405,"lon":5.423933,"is_reserved":false,"is_disabled":false,"rental_uris":{"android":"levelo://app?vid=4760841b-4fd7-4b7d-aef3-782de75b0909","ios":"levelo://app?vid=4760841b-4fd7-4b7d-aef3-782de75b0909"},"vehicle_type_id":"4","last_reported":1704118001,"current_range_meters":31200,"station_id":"","pricing_plan_id":"free"},{"bike_id":"5eb7550b-6fa9-4078-96a6-501d4d2ae639","system_id":"levelo_inurba_marseille","lat":43.310785,"lon":5.424305,"is_reserved":false,"is_disabled":false,"rental_uris":{"android":"levelo://app?vid=5eb7550b-6fa9-4078-96a6-501d4d2ae639","ios":"levelo://app?vid=5eb7550b-6fa9-4078-96a6-501d4d2ae639"},"vehicle_type_id":"4","last_reported":1704118001,"current_range_meters":6800,"station_id":"ce4bhp92rcd13ifvqhag","pricing_plan_id":"free"},{"bike_id":"72be8c87-95b5-44a3-a58e-8e3ac1a66cf3","system_id":"levelo_inurba_marseille","lat":43.340804,"lon":5.410219,"is_reserved":false,"is_disabled":false,"rental_uris":{"android":"levelo://app?vid=72be8c87-95b5-44a3-a58e-8e3ac1a66cf3","ios":"levelo://app?vid=72be8c87-95b5-44a3-a58e-8e3ac1a66cf3"},"vehicle_type_id":"4","last_reported":1704118001,"current_range_meters":20400,"station_id":"ce4bhqh2rcd13ifvqhlg","pricing_plan_id":"free"},{"bike_id":"dfa1cc6f-2890-4cae-8dca-0f80315c3228","system_id":"levelo_inurba_marseille","lat":43.274103,"lon":5.394016,"is_reserved":false,"is_disabled":false,"rental_uris":{"android":"levelo://app?vid=dfa1cc6f-2890-4cae-8dca-0f80315c3228","ios":"levelo://app?vid=dfa1cc6f-2890-4cae-8dca-0f80315c3228"},"vehicle_type_id":"4","last_reported":1704118001,"current_range_meters":24400,"station_id":"ce4bhdp2rcd13ifvqf20","pricing_plan_id":"free"},{"bike_id":"a2be22e6-49e7-4f06-91c3-181333f12e0c","system_id":"levelo_inurba_marseille","lat":43.274099,"lon":5.394019,"is_reserved":false,"is_disabled":false,"rental_uris":{"android":"levelo://app?vid=a2be22e6-49e7-4f06-91c3-181333f12e0c","ios":"levelo://app?vid=a2be22e6-49e7-4f06-91c3-181333f12e0c"},"vehicle_type_id":"4","last_reported":1704118001,"current_range_meters":25600,"station_id":"ce4bhdp2rcd13ifvqf20","pricing_plan_id":"free"},{"bike_id":"38976172-0711-42a5-b71e-22262f7593a3","system_id":"levelo_inurba_marseille","lat":43.304096,"lon":5.425385,"is_reserved":false,"is_disabled":false,"rental_uris":{"android":"levelo://app?vid=38976172-0711-42a5-b71e-22262f7593a3","ios":"levelo://app?vid=38976172-0711-42a5-b71e-22262f7593a3"},"vehicle_type_id":"4","last_reported":1704118001,"current_range_meters":30000,"station_id":"ce4bhoh2rcd13ifvqh6g","pricing_plan_id":"free"},{"bike_id":"a6ae6745-cc2a-4641-91d5-cd1a5dfadc84","system_id":"levelo_inurba_marseille","lat":43.295511,"lon":5.422926,"is_reserved":false,"is_disabled":false,"rental_uris":{"android":"levelo://app?vid=a6ae6745-cc2a-4641-91d5-cd1a5dfadc84","ios":"levelo://app?vid=a6ae6745-cc2a-4641-91d5-cd1a5dfadc84"},"vehicle_type_id":"4","last_reported":1704118001,"current_range_meters":32000,"station_id":"ce4bhph2rcd13ifvqhdg","pricing_plan_id":"free"},{"bike_id":"41f15171-621f-4954-97a7-d6a2b2f50acc","system_id":"levelo_inurba_marseille","lat":43.295523,"lon":5.422926,"is_reserved":false,"is_disabled":false,"rental_uris":{"android":"levelo://app?vid=41f15171-621f-4954-97a7-d6a2b2f50acc","ios":"levelo://app?vid=41f15171-621f-4954-97a7-d6a2b2f50acc"},"vehicle_type_id":"4","last_reported":1704118001,"current_range_meters":26800,"station_id":"ce4bhph2rcd13ifvqhdg","pricing_plan_id":"free"},{"bike_id":"d548d66b-88c9-49f9-867c-e26df10c9510","system_id":"levelo_inurba_marseille","lat":43.29553,"lon":5.42286,"is_reserved":false,"is_disabled":false,"rental_uris":{"android":"levelo://app?vid=d548d66b-88c9-49f9-867c-e26df10c9510","ios":"levelo://app?vid=d548d66b-88c9-49f9-867c-e26df10c9510"},"vehicle_type_id":"4","last_reported":1704118001,"current_range_meters":28400,"station_id":"ce4bhph2rcd13ifvqhdg","pricing_plan_id":"free"},{"bike_id":"4d76732f-7782-421c-8602-040de5e6efea","system_id":"levelo_inurba_marseille","lat":43.295511,"lon":5.422926,"is_reserved":false,"is_disabled":false,"rental_uris":{"android":"levelo://app?vid=4d76732f-7782-421c-8602-040de5e6efea","ios":"levelo://app?vid=4d76732f-7782-421c-8602-040de5e6efea"},"vehicle_type_id":"4","last_reported":1704118001,"current_range_meters":26000,"station_id":"ce4bhph2rcd13ifvqhdg","pricing_plan_id":"free"},{"bike_id":"926e2c6a-f6fc-4efb-862c-83f5befd1c16","system_id":"levelo_inurba_marseille","lat":43.29555,"lon":5.42288,"is_reserved":false,"is_disabled":false,"rental_uris":{"android":"levelo://app?vid=926e2c6a-f6fc-4efb-862c-83f5befd1c16","ios":"levelo://app?vid=926e2c6a-f6fc-4efb-862c-83f5befd1c16"},"vehicle_type_id":"4","last_reported":1704118001,"current_range_meters":30000,"station_id":"ce4bhph2rcd13ifvqhdg","pricing_plan_id":"free"},{"bike_id":"306afd85-beb4-4f6c-b611-066e0436e9ba","system_id":"levelo_inurba_marseille","lat":43.29551,"lon":5.422859,"is_reserved":false,"is_disabled":false,"rental_uris":{"android":"levelo://app?vid=306afd85-beb4-4f6c-b611-066e0436e9ba","ios":"levelo://app?vid=306afd85-beb4-4f6c-b611-066e0436e9ba"},"vehicle_type_id":"4","last_reported":1704118001,"current_range_meters":30800,"station_id":"ce4bhph2rcd13ifvqhdg","pricing_plan_id":"free"},{"bike_id":"1a052b4b-dcd9-4adb-89b1-9c550ef96ece","system_id":"levelo_inurba_marseille","lat":43.278128,"lon":5.407195,"is_reserved":false,"is_disabled":false,"rental_uris":{"android":"levelo://app?vid=1a052b4b-dcd9-4adb-89b1-9c550ef96ece","ios":"levelo://app?vid=1a052b4b-dcd9-4adb-89b1-9c550ef96ece"},"vehicle_type_id":"4","last_reported":1704118001,"current_range_meters":30400,"station_id":"ce4bhnh2rcd13ifvqgtg","pricing_plan_id":"free"},{"bike_id":"49ed539d-a525-408e-a3e9-48585140e904","system_id":"levelo_inurba_marseille","lat":43.27809,"lon":5.40706,"is_reserved":false,"is_disabled":false,"rental_uris":{"android":"levelo://app?vid=49ed539d-a525-408e-a3e9-48585140e904","ios":"levelo://app?vid=49ed539d-a525-408e-a3e9-48585140e904"},"vehicle_type_id":"4","last_reported":1704118001,"current_range_meters":31200,"station_id":"","pricing_plan_id":"free"},{"bike_id":"7fdf052e-1748-4ca7-a75e-4e1639229cdb","system_id":"levelo_inurba_marseille","lat":43.279465,"lon":5.410561,"is_reserved":false,"is_disabled":false,"rental_uris":{"android":"levelo://app?vid=7fdf052e-1748-4ca7-a75e-4e1639229cdb","ios":"levelo://app?vid=7fdf052e-1748-4ca7-a75e-4e1639229cdb"},"vehicle_type_id":"4","last_reported":1704118001,"current_range_meters":5200,"station_id":"ce4bhnp2rcd13ifvqh0g","pricing_plan_id":"free"},{"bike_id":"3a491c89-47a5-4eae-8475-21df7f684db3","system_id":"levelo_inurba_marseille","lat":43.279465,"lon":5.410561,"is_reserved":false,"is_disabled":false,"rental_uris":{"android":"levelo://app?vid=3a491c89-47a5-4eae-8475-21df7f684db3","ios":"levelo://app?vid=3a491c89-47a5-4eae-8475-21df7f684db3"},"vehicle_type_id":"4","last_reported":1704118001,"current_range_meters":13200,"station_id":"ce4bhnp2rcd13ifvqh0g","pricing_plan_id":"free"},{"bike_id":"22063af5-7e94-4859-9f98-354442051f42","system_id":"levelo_inurba_marseille","lat":43.26681,"lon":5.382694,"is_reserved":false,"is_disabled":false,"rental_uris":{"android":"levelo://app?vid=22063af5-7e94-4859-9f98-354442051f42","ios":"levelo://app?vid=22063af5-7e94-4859-9f98-354442051f42"},"vehicle_type_id":"4","last_reported":1704118001,"current_range_meters":26400,"station_id":"ce4bhg92rcd13ifvqf90","pricing_plan_id":"free"},{"bike_id":"4727d1ef-9468-4c8c-aee1-d175a7b5279f","system_id":"levelo_inurba_marseille","lat":43.265714,"lon":5.372891,"is_reserved":false,"is_disabled":false,"rental_uris":{"android":"levelo://app?vid=4727d1ef-9468-4c8c-aee1-d175a7b5279f","ios":"levelo://app?vid=4727d1ef-9468-4c8c-aee1-d175a7b5279f"},"vehicle_type_id":"4","last_reported":1704118001,"current_range_meters":23200,"station_id":"ce4bhg12rcd13ifvqf70","pricing_plan_id":"free"},{"bike_id":"4e7b82a4-f271-4a72-bdbd-460d1cfbd58d","system_id":"levelo_inurba_marseille","lat":43.27181,"lon":5.404997,"is_reserved":false,"is_disabled":false,"rental_uris":{"android":"levelo://app?vid=4e7b82a4-f271-4a72-bdbd-460d1cfbd58d","ios":"levelo://app?vid=4e7b82a4-f271-4a72-bdbd-460d1cfbd58d"},"vehicle_type_id":"4","last_reported":1704118001,"current_range_meters":10000,"station_id":"","pricing_plan_id":"free"},{"bike_id":"ab128025-cf5a-450c-9299-01dc5547eb3b","system_id":"levelo_inurba_marseille","lat":43.265569,"lon":5.390047,"is_reserved":false,"is_disabled":false,"rental_uris":{"android":"levelo://app?vid=ab128025-cf5a-450c-9299-01dc5547eb3b","ios":"levelo://app?vid=ab128025-cf5a-450c-9299-01dc5547eb3b"},"vehicle_type_id":"4","last_reported":1704118001,"current_range_meters":21200,"station_id":"ce4bhe12rcd13ifvqf30","pricing_plan_id":"free"},{"bike_id":"9ac33b84-00e2-4b9d-9fa8-2e1ec3262473","system_id":"levelo_inurba_marseille","lat":43.265571,"lon":5.390032,"is_reserved":false,"is_disabled":false,"rental_uris":{"android":"levelo://app?vid=9ac33b84-00e2-4b9d-9fa8-2e1ec3262473","ios":"levelo://app?vid=9ac33b84-00e2-4b9d-9fa8-2e1ec3262473"},"vehicle_type_id":"4","last_reported":1704118001,"current_range_meters":29600,"station_id":"ce4bhe12rcd13ifvqf30","pricing_plan_id":"free"},{"bike_id":"20d64874-f49a-4586-ac7e-ba0eae6d7240","system_id":"levelo_inurba_marseille","lat":43.26949,"lon":5.40262,"is_reserved":false,"is_disabled":false,"rental_uris":{"android":"levelo://app?vid=20d64874-f49a-4586-ac7e-ba0eae6d7240","ios":"levelo://app?vid=20d64874-f49a-4586-ac7e-ba0eae6d7240"},"vehicle_type_id":"4","last_reported":1704118001,"current_range_meters":28000,"station_id":"cjm6bp8fraef2m0cb0m0","pricing_plan_id":"free"},{"bike_id":"dac5ea74-92f7-462e-b536-31f322bb01c0","system_id":"levelo_inurba_marseille","lat":43.331893,"lon":5.431791,"is_reserved":false,"is_disabled":false,"rental_uris":{"android":"levelo://app?vid=dac5ea74-92f7-462e-b536-31f322bb01c0","ios":"levelo://app?vid=dac5ea74-92f7-462e-b536-31f322bb01c0"},"vehicle_type_id":"4","last_reported":1704118001,"current_range_meters":7200,"station_id":"","pricing_plan_id":"free"},{"bike_id":"04c4eb69-879c-437c-ad17-28d8c0b4696e","system_id":"levelo_inurba_marseille","lat":43.261782,"lon":5.374515,"is_reserved":false,"is_disabled":false,"rental_uris":{"android":"levelo://app?vid=04c4eb69-879c-437c-ad17-28d8c0b4696e","ios":"levelo://app?vid=04c4eb69-879c-437c-ad17-28d8c0b4696e"},"vehicle_type_id":"4","last_reported":1704118001,"current_range_meters":17600,"station_id":"ce4bhgp2rcd13ifvqfc0","pricing_plan_id":"free"},{"bike_id":"8c7df74b-a509-49f1-af95-b0a69adf8f56","system_id":"levelo_inurba_marseille","lat":43.31707,"lon":5.43707,"is_reserved":false,"is_disabled":false,"rental_uris":{"android":"levelo://app?vid=8c7df74b-a509-49f1-af95-b0a69adf8f56","ios":"levelo://app?vid=8c7df74b-a509-49f1-af95-b0a69adf8f56"},"vehicle_type_id":"4","last_reported":1704118001,"current_range_meters":30000,"station_id":"ce4bhp92rcd13ifvqhcg","pricing_plan_id":"free"},{"bike_id":"6423d35c-7bc9-4cf8-a67e-81f29e5f1392","system_id":"levelo_inurba_marseille","lat":43.26497,"lon":5.3957,"is_reserved":false,"is_disabled":false,"rental_uris":{"android":"levelo://app?vid=6423d35c-7bc9-4cf8-a67e-81f29e5f1392","ios":"levelo://app?vid=6423d35c-7bc9-4cf8-a67e-81f29e5f1392"},"vehicle_type_id":"4","last_reported":1704118001,"current_range_meters":18000,"station_id":"ce4bhlh2rcd13ifvqgig","pricing_plan_id":"free"},{"bike_id":"f359195f-f069-42a0-b818-68741f0dae01","system_id":"levelo_inurba_marseille","lat":43.298768,"lon":5.43643,"is_reserved":false,"is_disabled":false,"rental_uris":{"android":"levelo://app?vid=f359195f-f069-42a0-b818-68741f0dae01","ios":"levelo://app?vid=f359195f-f069-42a0-b818-68741f0dae01"},"vehicle_type_id":"4","last_reported":1704118001,"current_range_meters":29600,"station_id":"ce4bhpp2rcd13ifvqhfg","pricing_plan_id":"free"},{"bike_id":"2aef17d2-5e1a-42db-a1a2-eebc4e3d678f","system_id":"levelo_inurba_marseille","lat":43.298768,"lon":5.43643,"is_reserved":false,"is_disabled":false,"rental_uris":{"android":"levelo://app?vid=2aef17d2-5e1a-42db-a1a2-eebc4e3d678f","ios":"levelo://app?vid=2aef17d2-5e1a-42db-a1a2-eebc4e3d678f"},"vehicle_type_id":"4","last_reported":1704118001,"current_range_meters":9200,"station_id":"ce4bhpp2rcd13ifvqhfg","pricing_plan_id":"free"},{"bike_id":"ec17f12b-76f2-4e38-bdf0-2f3dcd905333","system_id":"levelo_inurba_marseille","lat":43.298768,"lon":5.43643,"is_reserved":false,"is_disabled":false,"rental_uris":{"android":"levelo://app?vid=ec17f12b-76f2-4e38-bdf0-2f3dcd905333","ios":"levelo://app?vid=ec17f12b-76f2-4e38-bdf0-2f3dcd905333"},"vehicle_type_id":"4","last_reported":1704118001,"current_range_meters":28000,"station_id":"ce4bhpp2rcd13ifvqhfg","pricing_plan_id":"free"},{"bike_id":"51b307ad-3e03-4c88-8cbb-3669bbc8a1ad","system_id":"levelo_inurba_marseille","lat":43.281548,"lon":5.42643,"is_reserved":false,"is_disabled":false,"rental_uris":{"android":"levelo://app?vid=51b307ad-3e03-4c88-8cbb-3669bbc8a1ad","ios":"levelo://app?vid=51b307ad-3e03-4c88-8cbb-3669bbc8a1ad"},"vehicle_type_id":"4","last_reported":1704118001,"current_range_meters":32000,"station_id":"ce4bhnh2rcd13ifvqgug","pricing_plan_id":"free"},{"bike_id":"e32e8b2f-227a-41f1-a651-f92b4e26dae8","system_id":"levelo_inurba_marseille","lat":43.281548,"lon":5.42643,"is_reserved":false,"is_disabled":false,"rental_uris":{"android":"levelo://app?vid=e32e8b2f-227a-41f1-a651-f92b4e26dae8","ios":"levelo://app?vid=e32e8b2f-227a-41f1-a651-f92b4e26dae8"},"vehicle_type_id":"4","last_reported":1704118001,"current_range_meters":0,"station_id":"ce4bhnh2rcd13ifvqgug","pricing_plan_id":"free"},{"bike_id":"5a04ea17-eb41-4e08-b828-ac0858829f65","system_id":"levelo_inurba_marseille","lat":43.281548,"lon":5.42643,"is_reserved":false,"is_disabled":false,"rental_uris":{"android":"levelo://app?vid=5a04ea17-eb41-4e08-b828-ac0858829f65","ios":"levelo://app?vid=5a04ea17-eb41-4e08-b828-ac0858829f65"},"vehicle_type_id":"4","last_reported":1704118001,"current_range_meters":18800,"station_id":"ce4bhnh2rcd13ifvqgug","pricing_plan_id":"free"},{"bike_id":"239866bf-d593-439b-8f00-008a123dffd7","system_id":"levelo_inurba_marseille","lat":43.281548,"lon":5.42643,"is_reserved":false,"is_disabled":false,"rental_uris":{"android":"levelo://app?vid=239866bf-d593-439b-8f00-008a123dffd7","ios":"levelo://app?vid=239866bf-d593-439b-8f00-008a123dffd7"},"vehicle_type_id":"4","last_reported":1704118001,"current_range_meters":32000,"station_id":"ce4bhnh2rcd13ifvqgug","pricing_plan_id":"free"},{"bike_id":"20f457aa-21b0-4254-bd2f-8b6f31ce302e","system_id":"levelo_inurba_marseille","lat":43.281548,"lon":5.42643,"is_reserved":false,"is_disabled":false,"rental_uris":{"android":"levelo://app?vid=20f457aa-21b0-4254-bd2f-8b6f31ce302e","ios":"levelo://app?vid=20f457aa-21b0-4254-bd2f-8b6f31ce302e"},"vehicle_type_id":"4","last_reported":1704118001,"current_range_meters":31200,"station_id":"ce4bhnh2rcd13ifvqgug","pricing_plan_id":"free"},{"bike_id":"dd2ae354-b374-4e9f-a915-275627cc27df","system_id":"levelo_inurba_marseille","lat":43.281548,"lon":5.42643,"is_reserved":false,"is_disabled":false,"rental_uris":{"android":"levelo://app?vid=dd2ae354-b374-4e9f-a915-275627cc27df","ios":"levelo://app?vid=dd2ae354-b374-4e9f-a915-275627cc27df"},"vehicle_type_id":"4","last_reported":1704118001,"current_range_meters":27200,"station_id":"ce4bhnh2rcd13ifvqgug","pricing_plan_id":"free"},{"bike_id":"c3b597f8-0e69-4c23-be26-e5b458587bee","system_id":"levelo_inurba_marseille","lat":43.27494,"lon":5.42456,"is_reserved":false,"is_disabled":false,"rental_uris":{"android":"levelo://app?vid=c3b597f8-0e69-4c23-be26-e5b458587bee","ios":"levelo://app?vid=c3b597f8-0e69-4c23-be26-e5b458587bee"},"vehicle_type_id":"4","last_reported":1704118001,"current_range_meters":31200,"station_id":"ce4bhn92rcd13ifvqgrg","pricing_plan_id":"free"},{"bike_id":"5628c4ed-8f3f-4bd5-b119-b56cc6041f5c","system_id":"levelo_inurba_marseille","lat":43.255756,"lon":5.382303,"is_reserved":false,"is_disabled":false,"rental_uris":{"android":"levelo://app?vid=5628c4ed-8f3f-4bd5-b119-b56cc6041f5c","ios":"levelo://app?vid=5628c4ed-8f3f-4bd5-b119-b56cc6041f5c"},"vehicle_type_id":"4","last_reported":1704118001,"current_range_meters":21600,"station_id":"ce4bhih2rcd13ifvqfs0","pricing_plan_id":"free"},{"bike_id":"7669850a-32e8-45c5-9693-8568cfd6b237","system_id":"levelo_inurba_marseille","lat":43.258658,"lon":5.398935,"is_reserved":false,"is_disabled":false,"rental_uris":{"android":"levelo://app?vid=7669850a-32e8-45c5-9693-8568cfd6b237","ios":"levelo://app?vid=7669850a-32e8-45c5-9693-8568cfd6b237"},"vehicle_type_id":"4","last_reported":1704118001,"current_range_meters":14000,"station_id":"ce4bhl92rcd13ifvqghg","pricing_plan_id":"free"},{"bike_id":"0f487114-d8e8-4683-b853-6d4af536fb75","system_id":"levelo_inurba_marseille","lat":43.250023,"lon":5.38919,"is_reserved":false,"is_disabled":false,"rental_uris":{"android":"levelo://app?vid=0f487114-d8e8-4683-b853-6d4af536fb75","ios":"levelo://app?vid=0f487114-d8e8-4683-b853-6d4af536fb75"},"vehicle_type_id":"4","last_reported":1704118001,"current_range_meters":20000,"station_id":"ce4bhgp2rcd13ifvqfd0","pricing_plan_id":"free"},{"bike_id":"eceff121-97d0-4445-a297-ab1639bd9878","system_id":"levelo_inurba_marseille","lat":43.25005,"lon":5.38937,"is_reserved":false,"is_disabled":false,"rental_uris":{"android":"levelo://app?vid=eceff121-97d0-4445-a297-ab1639bd9878","ios":"levelo://app?vid=eceff121-97d0-4445-a297-ab1639bd9878"},"vehicle_type_id":"4","last_reported":1704118001,"current_range_meters":25600,"station_id":"ce4bhgp2rcd13ifvqfd0","pricing_plan_id":"free"},{"bike_id":"5cd3b01a-2cdd-4c27-86bd-cbebeb8f3958","system_id":"levelo_inurba_marseille","lat":43.2479,"lon":5.374457,"is_reserved":false,"is_disabled":false,"rental_uris":{"android":"levelo://app?vid=5cd3b01a-2cdd-4c27-86bd-cbebeb8f3958","ios":"levelo://app?vid=5cd3b01a-2cdd-4c27-86bd-cbebeb8f3958"},"vehicle_type_id":"4","last_reported":1704118001,"current_range_meters":6400,"station_id":"ce4bhgh2rcd13ifvqfb0","pricing_plan_id":"free"},{"bike_id":"18f108e0-56f0-4add-bbc4-699cc1784532","system_id":"levelo_inurba_marseille","lat":43.2479,"lon":5.374457,"is_reserved":false,"is_disabled":false,"rental_uris":{"android":"levelo://app?vid=18f108e0-56f0-4add-bbc4-699cc1784532","ios":"levelo://app?vid=18f108e0-56f0-4add-bbc4-699cc1784532"},"vehicle_type_id":"4","last_reported":1704118001,"current_range_meters":24800,"station_id":"ce4bhgh2rcd13ifvqfb0","pricing_plan_id":"free"},{"bike_id":"b47aeb3e-d100-42da-8470-1ae3be52aebb","system_id":"levelo_inurba_marseille","lat":43.2479,"lon":5.374457,"is_reserved":false,"is_disabled":false,"rental_uris":{"android":"levelo://app?vid=b47aeb3e-d100-42da-8470-1ae3be52aebb","ios":"levelo://app?vid=b47aeb3e-d100-42da-8470-1ae3be52aebb"},"vehicle_type_id":"4","last_reported":1704118001,"current_range_meters":12000,"station_id":"ce4bhgh2rcd13ifvqfb0","pricing_plan_id":"free"},{"bike_id":"4ccf2257-59b1-4d05-b30f-234eb5aa4128","system_id":"levelo_inurba_marseille","lat":43.2479,"lon":5.374457,"is_reserved":false,"is_disabled":false,"rental_uris":{"android":"levelo://app?vid=4ccf2257-59b1-4d05-b30f-234eb5aa4128","ios":"levelo://app?vid=4ccf2257-59b1-4d05-b30f-234eb5aa4128"},"vehicle_type_id":"4","last_reported":1704118001,"current_range_meters":9600,"station_id":"ce4bhgh2rcd13ifvqfb0","pricing_plan_id":"free"},{"bike_id":"afad38a2-3c9d-4d69-bb11-f291cd25b03e","system_id":"levelo_inurba_marseille","lat":43.2479,"lon":5.374457,"is_reserved":false,"is_disabled":false,"rental_uris":{"android":"levelo://app?vid=afad38a2-3c9d-4d69-bb11-f291cd25b03e","ios":"levelo://app?vid=afad38a2-3c9d-4d69-bb11-f291cd25b03e"},"vehicle_type_id":"4","last_reported":1704118001,"current_range_meters":22400,"station_id":"ce4bhgh2rcd13ifvqfb0","pricing_plan_id":"free"},{"bike_id":"8d45b4a4-6fc2-48d9-a5b3-4d259a971e86","system_id":"levelo_inurba_marseille","lat":43.2479,"lon":5.374457,"is_reserved":false,"is_disabled":false,"rental_uris":{"android":"levelo://app?vid=8d45b4a4-6fc2-48d9-a5b3-4d259a971e86","ios":"levelo://app?vid=8d45b4a4-6fc2-48d9-a5b3-4d259a971e86"},"vehicle_type_id":"4","last_reported":1704118001,"current_range_meters":25200,"station_id":"ce4bhgh2rcd13ifvqfb0","pricing_plan_id":"free"},{"bike_id":"2c15c687-d344-42a4-922c-3d0a0eeffcac","system_id":"levelo_inurba_marseille","lat":43.2479,"lon":5.374457,"is_reserved":false,"is_disabled":false,"rental_uris":{"android":"levelo://app?vid=2c15c687-d344-42a4-922c-3d0a0eeffcac","ios":"levelo://app?vid=2c15c687-d344-42a4-922c-3d0a0eeffcac"},"vehicle_type_id":"4","last_reported":1704118001,"current_range_meters":7200,"station_id":"ce4bhgh2rcd13ifvqfb0","pricing_plan_id":"free"},{"bike_id":"c1743a2c-61e7-4a7e-9f80-73d8cf77be75","system_id":"levelo_inurba_marseille","lat":43.257079,"lon":5.411051,"is_reserved":false,"is_disabled":false,"rental_uris":{"android":"levelo://app?vid=c1743a2c-61e7-4a7e-9f80-73d8cf77be75","ios":"levelo://app?vid=c1743a2c-61e7-4a7e-9f80-73d8cf77be75"},"vehicle_type_id":"4","last_reported":1704118001,"current_range_meters":25600,"station_id":"ce4bhkp2rcd13ifvqgd0","pricing_plan_id":"free"},{"bike_id":"a378f3ff-86f0-4382-8aa4-e2151be5a8ad","system_id":"levelo_inurba_marseille","lat":43.24693,"lon":5.382096,"is_reserved":false,"is_disabled":false,"rental_uris":{"android":"levelo://app?vid=a378f3ff-86f0-4382-8aa4-e2151be5a8ad","ios":"levelo://app?vid=a378f3ff-86f0-4382-8aa4-e2151be5a8ad"},"vehicle_type_id":"4","last_reported":1704118001,"current_range_meters":30800,"station_id":"ce4bhih2rcd13ifvqfr0","pricing_plan_id":"free"},{"bike_id":"b4719c3d-36d2-4920-94f1-3e79088b6f09","system_id":"levelo_inurba_marseille","lat":43.24693,"lon":5.382096,"is_reserved":false,"is_disabled":false,"rental_uris":{"android":"levelo://app?vid=b4719c3d-36d2-4920-94f1-3e79088b6f09","ios":"levelo://app?vid=b4719c3d-36d2-4920-94f1-3e79088b6f09"},"vehicle_type_id":"4","last_reported":1704118001,"current_range_meters":30800,"station_id":"ce4bhih2rcd13ifvqfr0","pricing_plan_id":"free"},{"bike_id":"4fb0edde-abe1-4392-8f66-a64f7dcdf2ed","system_id":"levelo_inurba_marseille","lat":43.25127,"lon":5.40338,"is_reserved":false,"is_disabled":false,"rental_uris":{"android":"levelo://app?vid=4fb0edde-abe1-4392-8f66-a64f7dcdf2ed","ios":"levelo://app?vid=4fb0edde-abe1-4392-8f66-a64f7dcdf2ed"},"vehicle_type_id":"4","last_reported":1704118001,"current_range_meters":29200,"station_id":"ce4bhlh2rcd13ifvqgig","pricing_plan_id":"free"},