{"last_updated":1730833598,"ttl":60,"version":"2.2","data":{"bikes":[{"bike_id":"2f303e9d-7400-40a4-a59c-f412d183bbe2","system_id":"levelo_inurba_marseille","lat":43.32379,"lon":5.38878,"is_reserved":false,"is_disabled":false,"rental_uris":{"android":"levelo://app?vid=2f303e9d-7400-40a4-a59c-f412d183bbe2","ios":"levelo://app?vid=2f303e9d-7400-40a4-a59c-f412d183bbe2"},"vehicle_type_id":"4","last_reported":1730833598,"current_range_meters":38800,"station_id":"ce4bhqp2rcd13ifvqhog","pricing_plan_id":"cebpf4jnsgd1na2vs0mg"},{"bike_id":"e983a3a2-b468-48ef-a374-a54128068ac7","system_id":"levelo_inurba_marseille","lat":43.33019,"lon":5.39037,"is_reserved":false,"is_disabled":false,"rental_uris":{"android":"levelo://app?vid=e983a3a2-b468-48ef-a374-a54128068ac7","ios":"levelo://app?vid=e983a3a2-b468-48ef-a374-a54128068ac7"},"vehicle_type_id":"4","last_reported":1730833598,"current_range_meters":28800,"station_id":"ce4bhr92rcd13ifvqhrg","pricing_plan_id":"cebpf4jnsgd1na2vs0mg"},{"bike_id":"6ec4e730-c54a-4330-8601-6a8d69259da3","system_id":"levelo_inurba_marseille","lat":43.24067,"lon":5.37763,"is_reserved":false,"is_disabled":false,"rental_uris":{"android":"levelo://app?vid=6ec4e730-c54a-4330-8601-6a8d69259da3","ios":"levelo://app?vid=6ec4e730-c54a-4330-8601-6a8d69259da3"},"vehicle_type_id":"4","last_reported":1730833598,"current_range_meters":21600,"station_id":"ce4bhnp2rcd13ifvqgvg","pricing_plan_id":"cebpf4jnsgd1na2vs0mg"},{"bike_id":"d43d5285-f672-442b-81bf-c6b155099aef","system_id":"levelo_inurba_marseille","lat":43.29176,"lon":5.35792,"is_reserved":false,"is_disabled":false,"rental_uris":{"android":"levelo://app?vid=d43d5285-f672-442b-81bf-c6b155099aef","ios":"levelo://app?vid=d43d5285-f672-442b-81bf-c6b155099aef"},"vehicle_type_id":"4","last_reported":1730833598,"current_range_meters":16400,"station_id":"ce4bhb12rcd13ifvqel0","pricing_plan_id":"cebpf4jnsgd1na2vs0mg"},{"bike_id":"6dc80309-b56b-4d04-b1b2-908e0bc7fd73","system_id":"levelo_inurba_marseille","lat":43.29527,"lon":5.38542,"is_reserved":false,"is_disabled":false,"rental_uris":{"android":"levelo://app?vid=6dc80309-b56b-4d04-b1b2-908e0bc7fd73","ios":"levelo://app?vid=6dc80309-b56b-4d04-b1b2-908e0bc7fd73"},"vehicle_type_id":"4","last_reported":1730833598,"current_range_meters":9200,"station_id":"ce4bgih2rcd13ifvqba0","pricing_plan_id":"cebpf4jnsgd1na2vs0mg"},{"bike_id":"ebe33179-e1dc-4a94-86fc-954f574b04d1","system_id":"levelo_inurba_marseille","lat":43.31529,"lon":5.3803,"is_reserved":false,"is_disabled":false,"rental_uris":{"android":"levelo://app?vid=ebe33179-e1dc-4a94-86fc-954f574b04d1","ios":"levelo://app?vid=ebe33179-e1dc-4a94-86fc-954f574b04d1"},"vehicle_type_id":"4","last_reported":1730833598,"current_range_meters":32000,"station_id":"ce4bhsp2rcd13ifvqi50","pricing_plan_id":"cebpf4jnsgd1na2vs0mg"},{"bike_id":"c4c19a0c-8d82-42b0-9ed3-22a2537291ef","system_id":"levelo_inurba_marseille","lat":43.28863,"lon":5.3585,"is_reserved":false,"is_disabled":false,"rental_uris":{"android":"levelo://app?vid=c4c19a0c-8d82-42b0-9ed3-22a2537291ef","ios":"levelo://app?vid=c4c19a0c-8d82-42b0-9ed3-22a2537291ef"},"vehicle_type_id":"4","last_reported":1730833598,"current_range_meters":12000,"station_id":"ce4bhb12rcd13ifvqem0","pricing_plan_id":"cebpf4jnsgd1na2vs0mg"},{"bike_id":"5a3af8cc-e8e8-41f5-8bd8-2f63e034c742","system_id":"levelo_inurba_marseille","lat":43.2815,"lon":5.42637,"is_reserved":false,"is_disabled":false,"rental_uris":{"android":"levelo://app?vid=5a3af8cc-e8e8-41f5-8bd8-2f63e034c742","ios":"levelo://app?vid=5a3af8cc-e8e8-41f5-8bd8-2f63e034c742"},"vehicle_type_id":"4","last_reported":1730833598,"current_range_meters":7200,"station_id":"ce4bhnh2rcd13ifvqgug","pricing_plan_id":"cebpf4jnsgd1na2vs0mg"},{"bike_id":"d7d20756-0263-4239-b190-2bf90f8edd36","system_id":"levelo_inurba_marseille","lat":43.29858,"lon":5.39737,"is_reserved":false,"is_disabled":false,"rental_uris":{"android":"levelo://app?vid=d7d20756-0263-4239-b190-2bf90f8edd36","ios":"levelo://app?vid=d7d20756-0263-4239-b190-2bf90f8edd36"},"vehicle_type_id":"4","last_reported":1730833598,"current_range_meters":26800,"station_id":"ce4bh0h2rcd13ifvqd50","pricing_plan_id":"cebpf4jnsgd1na2vs0mg"},{"bike_id":"5dfce880-6d48-4bf2-916d-d9051773e5fa","system_id":"levelo_inurba_marseille","lat":43.301788,"lon":5.393646,"is_reserved":false,"is_disabled":false,"rental_uris":{"android":"levelo://app?vid=5dfce880-6d48-4bf2-916d-d9051773e5fa","ios":"levelo://app?vid=5dfce880-6d48-4bf2-916d-d9051773e5fa"},"vehicle_type_id":"4","last_reported":1730833598,"current_range_meters":30800,"station_id":"ce4bh0p2rcd13ifvqd70","pricing_plan_id":"cebpf4jnsgd1na2vs0mg"},{"bike_id":"ec0f7d26-00e6-48c5-b9ab-eeec758927a4","system_id":"levelo_inurba_marseille","lat":43.30135,"lon":5.39872,"is_reserved":false,"is_disabled":false,"rental_uris":{"android":"levelo://app?vid=ec0f7d26-00e6-48c5-b9ab-eeec758927a4","ios":"levelo://app?vid=ec0f7d26-00e6-48c5-b9ab-eeec758927a4"},"vehicle_type_id":"4","last_reported":1730833598,"current_range_meters":38800,"station_id":"ce4bh0h2rcd13ifvqd40","pricing_plan_id":"cebpf4jnsgd1na2vs0mg"},{"bike_id":"a5ef8a2e-9523-4905-8e56-a854e572cdc9","system_id":"levelo_inurba_marseille","lat":43.29248,"lon":5.38437,"is_reserved":false,"is_disabled":false,"rental_uris":{"android":"levelo://app?vid=a5ef8a2e-9523-4905-8e56-a854e572cdc9","ios":"levelo://app?vid=a5ef8a2e-9523-4905-8e56-a854e572cdc9"},"vehicle_type_id":"4","last_reported":1730833598,"current_range_meters":7200,"station_id":"ce4bh692rcd13ifvqea0","pricing_plan_id":"cebpf4jnsgd1na2vs0mg"},{"bike_id":"b33e0b74-bd24-4172-8ae5-8bb2e6b22f96","system_id":"levelo_inurba_marseille","lat":43.29516,"lon":5.39042,"is_reserved":false,"is_disabled":false,"rental_uris":{"android":"levelo://app?vid=b33e0b74-bd24-4172-8ae5-8bb2e6b22f96","ios":"levelo://app?vid=b33e0b74-bd24-4172-8ae5-8bb2e6b22f96"},"vehicle_type_id":"4","last_reported":1730833598,"current_range_meters":4400,"station_id":"ce4bh3p2rcd13ifvqdp0","pricing_plan_id":"cebpf4jnsgd1na2vs0mg"},{"bike_id":"4147bbfb-4b14-4aca-b782-8ec6c0473609","system_id":"levelo_inurba_marseille","lat":43.23599,"lon":5.40342,"is_reserved":false,"is_disabled":false,"rental_uris":{"android":"levelo://app?vid=4147bbfb-4b14-4aca-b782-8ec6c0473609","ios":"levelo://app?vid=4147bbfb-4b14-4aca-b782-8ec6c0473609"},"vehicle_type_id":"4","last_reported":1730833598,"current_range_meters":7200,"station_id":"","pricing_plan_id":"cebpf4jnsgd1na2vs0mg"},{"bike_id":"2ee1c294-1117-4370-be3d-5fd5622411bc","system_id":"levelo_inurba_marseille","lat":43.31331,"lon":5.39694,"is_reserved":false,"is_disabled":false,"rental_uris":{"android":"levelo://app?vid=2ee1c294-1117-4370-be3d-5fd5622411bc","ios":"levelo://app?vid=2ee1c294-1117-4370-be3d-5fd5622411bc"},"vehicle_type_id":"4","last_reported":1730833598,"current_range_meters":38000,"station_id":"ce4bgvp2rcd13ifvqcu0","pricing_plan_id":"cebpf4jnsgd1na2vs0mg"},{"bike_id":"3438929d-d968-4542-8e7c-a435b395d6b9","system_id":"levelo_inurba_marseille","lat":43.295258,"lon":5.390658,"is_reserved":false,"is_disabled":false,"rental_uris":{"android":"levelo://app?vid=3438929d-d968-4542-8e7c-a435b395d6b9","ios":"levelo://app?vid=3438929d-d968-4542-8e7c-a435b395d6b9"},"vehicle_type_id":"4","last_reported":1730833598,"current_range_meters":18800,"station_id":"ce4bh3p2rcd13ifvqdp0","pricing_plan_id":"cebpf4jnsgd1na2vs0mg"},{"bike_id":"875c3b51-709b-4cf8-8c4f-9465fa317359","system_id":"levelo_inurba_marseille","lat":43.27562,"lon":5.38415,"is_reserved":false,"is_disabled":false,"rental_uris":{"android":"levelo://app?vid=875c3b51-709b-4cf8-8c4f-9465fa317359","ios":"levelo://app?vid=875c3b51-709b-4cf8-8c4f-9465fa317359"},"vehicle_type_id":"4","last_reported":1730833598,"current_range_meters":9600,"station_id":"ce4bhh92rcd13ifvqfi0","pricing_plan_id":"cebpf4jnsgd1na2vs0mg"},{"bike_id":"5b826f69-21b6-494d-9036-73a9a3e2e38a","system_id":"levelo_inurba_marseille","lat":43.298492,"lon":5.374181,"is_reserved":false,"is_disabled":false,"rental_uris":{"android":"levelo://app?vid=5b826f69-21b6-494d-9036-73a9a3e2e38a","ios":"levelo://app?vid=5b826f69-21b6-494d-9036-73a9a3e2e38a"},"vehicle_type_id":"4","last_reported":1730833598,"current_range_meters":4000,"station_id":"ce4bguh2rcd13ifvqcj0","pricing_plan_id":"cebpf4jnsgd1na2vs0mg"},{"bike_id":"35d46972-faca-4525-a2d2-3f928f24f16c","system_id":"levelo_inurba_marseille","lat":43.24172,"lon":5.36406,"is_reserved":false,"is_disabled":false,"rental_uris":{"android":"levelo://app?vid=35d46972-faca-4525-a2d2-3f928f24f16c","ios":"levelo://app?vid=35d46972-faca-4525-a2d2-3f928f24f16c"},"vehicle_type_id":"4","last_reported":1730833598,"current_range_meters":36400,"station_id":"cpo36qri1sfpv3e86is0","pricing_plan_id":"cebpf4jnsgd1na2vs0mg"},{"bike_id":"692f31da-ed64-4e18-b7cc-350f01a2fb79","system_id":"levelo_inurba_marseille","lat":43.29893,"lon":5.43669,"is_reserved":false,"is_disabled":false,"rental_uris":{"android":"levelo://app?vid=692f31da-ed64-4e18-b7cc-350f01a2fb79","ios":"levelo://app?vid=692f31da-ed64-4e18-b7cc-350f01a2fb79"},"vehicle_type_id":"4","last_reported":1730833598,"current_range_meters":24000,"station_id":"ce4bhpp2rcd13ifvqhfg","pricing_plan_id":"cebpf4jnsgd1na2vs0mg"},{"bike_id":"1b358c2a-4546-44d6-8702-db48f79b8243","system_id":"levelo_inurba_marseille","lat":43.30257,"lon":5.40083,"is_reserved":false,"is_disabled":false,"rental_uris":{"android":"levelo://app?vid=1b358c2a-4546-44d6-8702-db48f79b8243","ios":"levelo://app?vid=1b358c2a-4546-44d6-8702-db48f79b8243"},"vehicle_type_id":"4","last_reported":1730833598,"current_range_meters":27600,"station_id":"ce4bgvh2rcd13ifvqcs0","pricing_plan_id":"cebpf4jnsgd1na2vs0mg"},{"bike_id":"ffbdc1bf-2027-4294-abc4-95123ba94de0","system_id":"levelo_inurba_marseille","lat":43.29528,"lon":5.38535,"is_reserved":false,"is_disabled":false,"rental_uris":{"android":"levelo://app?vid=ffbdc1bf-2027-4294-abc4-95123ba94de0","ios":"levelo://app?vid=ffbdc1bf-2027-4294-abc4-95123ba94de0"},"vehicle_type_id":"4","last_reported":1730833598,"current_range_meters":38800,"station_id":"ce4bgih2rcd13ifvqba0","pricing_plan_id":"cebpf4jnsgd1na2vs0mg"},{"bike_id":"44d7b1f7-e443-431c-8139-ebbb5a794d47","system_id":"levelo_inurba_marseille","lat":43.294493,"lon":5.38631,"is_reserved":false,"is_disabled":false,"rental_uris":{"android":"levelo://app?vid=44d7b1f7-e443-431c-8139-ebbb5a794d47","ios":"levelo://app?vid=44d7b1f7-e443-431c-8139-ebbb5a794d47"},"vehicle_type_id":"4","last_reported":1730833598,"current_range_meters":26800,"station_id":"ce4bh2h2rcd13ifvqdh0","pricing_plan_id":"cebpf4jnsgd1na2vs0mg"},{"bike_id":"7021e8bb-c072-4c45-b1a1-aef6b0f34d2a","system_id":"levelo_inurba_marseille","lat":43.28465,"lon":5.35889,"is_reserved":false,"is_disabled":false,"rental_uris":{"android":"levelo://app?vid=7021e8bb-c072-4c45-b1a1-aef6b0f34d2a","ios":"levelo://app?vid=7021e8bb-c072-4c45-b1a1-aef6b0f34d2a"},"vehicle_type_id":"4","last_reported":1730833598,"current_range_meters":6400,"station_id":"ce4bhah2rcd13ifvqei0","pricing_plan_id":"cebpf4jnsgd1na2vs0mg"},{"bike_id":"81a6a1d3-210c-4fab-bee3-a7c23191472a","system_id":"levelo_inurba_marseille","lat":43.30263,"lon":5.40082,"is_reserved":false,"is_disabled":false,"rental_uris":{"android":"levelo://app?vid=81a6a1d3-210c-4fab-bee3-a7c23191472a","ios":"levelo://app?vid=81a6a1d3-210c-4fab-bee3-a7c23191472a"},"vehicle_type_id":"4","last_reported":1730833598,"current_range_meters":35200,"station_id":"ce4bgvh2rcd13ifvqcs0","pricing_plan_id":"cebpf4jnsgd1na2vs0mg"},{"bike_id":"11bb0316-f5b5-4bb9-a8a5-eec281a9aa9d","system_id":"levelo_inurba_marseille","lat":43.30304,"lon":5.39221,"is_reserved":false,"is_disabled":false,"rental_uris":{"android":"levelo://app?vid=11bb0316-f5b5-4bb9-a8a5-eec281a9aa9d","ios":"levelo://app?vid=11bb0316-f5b5-4bb9-a8a5-eec281a9aa9d"},"vehicle_type_id":"4","last_reported":1730833598,"current_range_meters":4800,"station_id":"ce4bgkh2rcd13ifvqbk0","pricing_plan_id":"cebpf4jnsgd1na2vs0mg"},{"bike_id":"e84a1fc2-c9bf-457a-83d8-40926aa08569","system_id":"levelo_inurba_marseille","lat":43.28618,"lon":5.35111,"is_reserved":false,"is_disabled":false,"rental_uris":{"android":"levelo://app?vid=e84a1fc2-c9bf-457a-83d8-40926aa08569","ios":"levelo://app?vid=e84a1fc2-c9bf-457a-83d8-40926aa08569"},"vehicle_type_id":"4","last_reported":1730833598,"current_range_meters":22400,"station_id":"ce4bhch2rcd13ifvqeug","pricing_plan_id":"cebpf4jnsgd1na2vs0mg"},{"bike_id":"0b7cad0a-1409-4296-ac40-3fdf34c1f8a6","system_id":"levelo_inurba_marseille","lat":43.27499,"lon":5.42462,"is_reserved":false,"is_disabled":false,"rental_uris":{"android":"levelo://app?vid=0b7cad0a-1409-4296-ac40-3fdf34c1f8a6","ios":"levelo://app?vid=0b7cad0a-1409-4296-ac40-3fdf34c1f8a6"},"vehicle_type_id":"4","last_reported":1730833598,"current_range_meters":18800,"station_id":"ce4bhn92rcd13ifvqgrg","pricing_plan_id":"cebpf4jnsgd1na2vs0mg"},{"bike_id":"b7714781-d668-438d-8d4e-7166167a7e37","system_id":"levelo_inurba_marseille","lat":43.2319,"lon":5.39975,"is_reserved":false,"is_disabled":false,"rental_uris":{"android":"levelo://app?vid=b7714781-d668-438d-8d4e-7166167a7e37","ios":"levelo://app?vid=b7714781-d668-438d-8d4e-7166167a7e37"},"vehicle_type_id":"4","last_reported":1730833598,"current_range_meters":25200,"station_id":"ce4bhn12rcd13ifvqgqg","pricing_plan_id":"cebpf4jnsgd1na2vs0mg"},{"bike_id":"4fb44c8d-505c-40de-84d5-a74e946cf579","system_id":"levelo_inurba_marseille","lat":43.26501,"lon":5.39536,"is_reserved":false,"is_disabled":false,"rental_uris":{"android":"levelo://app?vid=4fb44c8d-505c-40de-84d5-a74e946cf579","ios":"levelo://app?vid=4fb44c8d-505c-40de-84d5-a74e946cf579"},"vehicle_type_id":"4","last_reported":1730833598,"current_range_meters":28800,"station_id":"ce4bhi12rcd13ifvqfq0","pricing_plan_id":"cebpf4jnsgd1na2vs0mg"},{"bike_id":"5359110e-db41-4433-8cc1-3dbbab431a74","system_id":"levelo_inurba_marseille","lat":43.30122,"lon":5.39865,"is_reserved":false,"is_disabled":false,"rental_uris":{"android":"levelo://app?vid=5359110e-db41-4433-8cc1-3dbbab431a74","ios":"levelo://app?vid=5359110e-db41-4433-8cc1-3dbbab431a74"},"vehicle_type_id":"4","last_reported":1730833598,"current_range_meters":30400,"station_id":"ce4bh0h2rcd13ifvqd40","pricing_plan_id":"cebpf4jnsgd1na2vs0mg"},{"bike_id":"cf5b8554-36d9-4a8f-8767-b284231be69e","system_id":"levelo_inurba_marseille","lat":43.28477,"lon":5.38542,"is_reserved":false,"is_disabled":false,"rental_uris":{"android":"levelo://app?vid=cf5b8554-36d9-4a8f-8767-b284231be69e","ios":"levelo://app?vid=cf5b8554-36d9-4a8f-8767-b284231be69e"},"vehicle_type_id":"4","last_reported":1730833598,"current_range_meters":38800,"station_id":"ce4bh8p2rcd13ifvqeb0","pricing_plan_id":"cebpf4jnsgd1na2vs0mg"},{"bike_id":"30eb9235-2b25-441f-aa71-5f4c675a078c","system_id":"levelo_inurba_marseille","lat":43.24655,"lon":5.38894,"is_reserved":false,"is_disabled":false,"rental_uris":{"android":"levelo://app?vid=30eb9235-2b25-441f-aa71-5f4c675a078c","ios":"levelo://app?vid=30eb9235-2b25-441f-aa71-5f4c675a078c"},"vehicle_type_id":"4","last_reported":1730833598,"current_range_meters":14800,"station_id":"ce4bhg12rcd13ifvqf60","pricing_plan_id":"cebpf4jnsgd1na2vs0mg"},{"bike_id":"ebffee7c-cae5-47c5-9bdb-6d314ad8c91e","system_id":"levelo_inurba_marseille","lat":43.33026,"lon":5.39043,"is_reserved":false,"is_disabled":false,"rental_uris":{"android":"levelo://app?vid=ebffee7c-cae5-47c5-9bdb-6d314ad8c91e","ios":"levelo://app?vid=ebffee7c-cae5-47c5-9bdb-6d314ad8c91e"},"vehicle_type_id":"4","last_reported":1730833598,"current_range_meters":38800,"station_id":"ce4bhr92rcd13ifvqhrg","pricing_plan_id":"cebpf4jnsgd1na2vs0mg"},{"bike_id":"f84a2e0a-34c5-4019-9ec8-c453556c0f46","system_id":"levelo_inurba_marseille","lat":43.299235,"lon":5.374675,"is_reserved":false,"is_disabled":false,"rental_uris":{"android":"levelo://app?vid=f84a2e0a-34c5-4019-9ec8-c453556c0f46","ios":"levelo://app?vid=f84a2e0a-34c5-4019-9ec8-c453556c0f46"},"vehicle_type_id":"4","last_reported":1730833598,"current_range_meters":27600,"station_id":"ce4bgjh2rcd13ifvqbg0","pricing_plan_id":"cebpf4jnsgd1na2vs0mg"},{"bike_id":"8fd6209b-5af4-4ceb-94fa-61bfaca56316","system_id":"levelo_inurba_marseille","lat":43.28154,"lon":5.42649,"is_reserved":false,"is_disabled":false,"rental_uris":{"android":"levelo://app?vid=8fd6209b-5af4-4ceb-94fa-61bfaca56316","ios":"levelo://app?vid=8fd6209b-5af4-4ceb-94fa-61bfaca56316"},"vehicle_type_id":"4","last_reported":1730833598,"current_range_meters":3600,"station_id":"ce4bhnh2rcd13ifvqgug","pricing_plan_id":"cebpf4jnsgd1na2vs0mg"},{"bike_id":"42163e3e-5009-401f-a1ce-f09eb7e2a510","system_id":"levelo_inurba_marseille","lat":43.31323,"lon":5.39699,"is_reserved":false,"is_disabled":false,"rental_uris":{"android":"levelo://app?vid=42163e3e-5009-401f-a1ce-f09eb7e2a510","ios":"levelo://app?vid=42163e3e-5009-401f-a1ce-f09eb7e2a510"},"vehicle_type_id":"4","last_reported":1730833598,"current_range_meters":39200,"station_id":"ce4bgvp2rcd13ifvqcu0","pricing_plan_id":"cebpf4jnsgd1na2vs0mg"},{"bike_id":"88a49092-a5f1-4e42-bf11-c6f7341b0e37","system_id":"levelo_inurba_marseille","lat":43.23966,"lon":5.36642,"is_reserved":false,"is_disabled":false,"rental_uris":{"android":"levelo://app?vid=88a49092-a5f1-4e42-bf11-c6f7341b0e37","ios":"levelo://app?vid=88a49092-a5f1-4e42-bf11-c6f7341b0e37"},"vehicle_type_id":"4","last_reported":1730833598,"current_range_meters":38800,"station_id":"ce4bhi12rcd13ifvqfp0","pricing_plan_id":"cebpf4jnsgd1na2vs0mg"},{"bike_id":"679768bc-ebe5-47e4-8e67-960726d0f63f","system_id":"levelo_inurba_marseille","lat":43.30887,"lon":5.39651,"is_reserved":false,"is_disabled":false,"rental_uris":{"android":"levelo://app?vid=679768bc-ebe5-47e4-8e67-960726d0f63f","ios":"levelo://app?vid=679768bc-ebe5-47e4-8e67-960726d0f63f"},"vehicle_type_id":"4","last_reported":1730833598,"current_range_meters":22400,"station_id":"ce4bh012rcd13ifvqcv0","pricing_plan_id":"cebpf4jnsgd1na2vs0mg"},{"bike_id":"975c9234-f477-4849-a4e3-e3d7d0b25fab","system_id":"levelo_inurba_marseille","lat":43.31322,"lon":5.39693,"is_reserved":false,"is_disabled":false,"rental_uris":{"android":"levelo://app?vid=975c9234-f477-4849-a4e3-e3d7d0b25fab","ios":"levelo://app?vid=975c9234-f477-4849-a4e3-e3d7d0b25fab"},"vehicle_type_id":"4","last_reported":1730833598,"current_range_meters":34000,"station_id":"ce4bgvp2rcd13ifvqcu0","pricing_plan_id":"cebpf4jnsgd1na2vs0mg"},{"bike_id":"0526b369-f4ee-4f06-a4d1-cc057e49c249","system_id":"levelo_inurba_marseille","lat":43.31753,"lon":5.39013,"is_reserved":false,"is_disabled":false,"rental_uris":{"android":"levelo://app?vid=0526b369-f4ee-4f06-a4d1-cc057e49c249","ios":"levelo://app?vid=0526b369-f4ee-4f06-a4d1-cc057e49c249"},"vehicle_type_id":"4","last_reported":1730833598,"current_range_meters":36400,"station_id":"ce4bhqp2rcd13ifvqhng","pricing_plan_id":"cebpf4jnsgd1na2vs0mg"},{"bike_id":"2be58595-1ee4-4e97-90d2-c6d933b5e1c7","system_id":"levelo_inurba_marseille","lat":43.29897,"lon":5.43672,"is_reserved":false,"is_disabled":false,"rental_uris":{"android":"levelo://app?vid=2be58595-1ee4-4e97-90d2-c6d933b5e1c7","ios":"levelo://app?vid=2be58595-1ee4-4e97-90d2-c6d933b5e1c7"},"vehicle_type_id":"4","last_reported":1730833598,"current_range_meters":24800,"station_id":"ce4bhpp2rcd13ifvqhfg","pricing_plan_id":"cebpf4jnsgd1na2vs0mg"},{"bike_id":"498aa25f-9345-496d-b4d0-f6c7e1d624f7","system_id":"levelo_inurba_marseille","lat":43.23389,"lon":5.43608,"is_reserved":false,"is_disabled":false,"rental_uris":{"android":"levelo://app?vid=498aa25f-9345-496d-b4d0-f6c7e1d624f7","ios":"levelo://app?vid=498aa25f-9345-496d-b4d0-f6c7e1d624f7"},"vehicle_type_id":"4","last_reported":1730833598,"current_range_meters":24000,"station_id":"","pricing_plan_id":"cebpf4jnsgd1na2vs0mg"},{"bike_id":"b9f49a4a-4f9e-4ec8-822c-62bd6c8cf186","system_id":"levelo_inurba_marseille","lat":43.31711,"lon":5.43711,"is_reserved":false,"is_disabled":false,"rental_uris":{"android":"levelo://app?vid=b9f49a4a-4f9e-4ec8-822c-62bd6c8cf186","ios":"levelo://app?vid=b9f49a4a-4f9e-4ec8-822c-62bd6c8cf186"},"vehicle_type_id":"4","last_reported":1730833598,"current_range_meters":26800,"station_id":"ce4bhp92rcd13ifvqhcg","pricing_plan_id":"cebpf4jnsgd1na2vs0mg"},{"bike_id":"798f8157-d9f9-4da4-86f8-c9d5f924e6f5","system_id":"levelo_inurba_marseille","lat":43.30304,"lon":5.36888,"is_reserved":false,"is_disabled":false,"rental_uris":{"android":"levelo://app?vid=798f8157-d9f9-4da4-86f8-c9d5f924e6f5","ios":"levelo://app?vid=798f8157-d9f9-4da4-86f8-c9d5f924e6f5"},"vehicle_type_id":"4","last_reported":1730833598,"current_range_meters":16000,"station_id":"ce4bgqh2rcd13ifvqc5g","pricing_plan_id":"cebpf4jnsgd1na2vs0mg"},{"bike_id":"4bfc3bb0-6980-48ba-bb91-407496ba96a2","system_id":"levelo_inurba_marseille","lat":43.29793,"lon":5.40408,"is_reserved":false,"is_disabled":false,"rental_uris":{"android":"levelo://app?vid=4bfc3bb0-6980-48ba-bb91-407496ba96a2","ios":"levelo://app?vid=4bfc3bb0-6980-48ba-bb91-407496ba96a2"},"vehicle_type_id":"4","last_reported":1730833598,"current_range_meters":35200,"station_id":"ce4bh112rcd13ifvqd90","pricing_plan_id":"cebpf4jnsgd1na2vs0mg"},{"bike_id":"fcbdb6cf-fbd5-41c2-9ee1-047d657aa5e8","system_id":"levelo_inurba_marseille","lat":43.28407,"lon":5.37518,"is_reserved":false,"is_disabled":false,"rental_uris":{"android":"levelo://app?vid=fcbdb6cf-fbd5-41c2-9ee1-047d657aa5e8","ios":"levelo://app?vid=fcbdb6cf-fbd5-41c2-9ee1-047d657aa5e8"},"vehicle_type_id":"4","last_reported":1730833598,"current_range_meters":10800,"station_id":"ce4bh412rcd13ifvqds0","pricing_plan_id":"cebpf4jnsgd1na2vs0mg"},{"bike_id":"f29f4159-c3d5-48e8-b13d-cd8d49ba56d0","system_id":"levelo_inurba_marseille","lat":43.2903,"lon":5.38638,"is_reserved":false,"is_disabled":false,"rental_uris":{"android":"levelo://app?vid=f29f4159-c3d5-48e8-b13d-cd8d49ba56d0","ios":"levelo://app?vid=f29f4159-c3d5-48e8-b13d-cd8d49ba56d0"},"vehicle_type_id":"4","last_reported":1730833598,"current_range_meters":27600,"station_id":"ce4bh4p2rcd13ifvqe0g","pricing_plan_id":"cebpf4jnsgd1na2vs0mg"},{"bike_id":"e5e9a235-9432-4e11-8ae5-260b7cbab207","system_id":"levelo_inurba_marseille","lat":43.29532,"lon":5.39036,"is_reserved":false,"is_disabled":false,"rental_uris":{"android":"levelo://app?vid=e5e9a235-9432-4e11-8ae5-260b7cbab207","ios":"levelo://app?vid=e5e9a235-9432-4e11-8ae5-260b7cbab207"},"vehicle_type_id":"4","last_reported":1730833598,"current_range_meters":39200,"station_id":"ce4bh3p2rcd13ifvqdp0","pricing_plan_id":"cebpf4jnsgd1na2vs0mg"},{"bike_id":"7d1cc712-4f0a-4d7c-a84c-f84148ad4c46","system_id":"levelo_inurba_marseille","lat":43.23154,"lon":5.43707,"is_reserved":false,"is_disabled":false,"rental_uris":{"android":"levelo://app?vid=7d1cc712-4f0a-4d7c-a84c-f84148ad4c46","ios":"levelo://app?vid=7d1cc712-4f0a-4d7c-a84c-f84148ad4c46"},"vehicle_type_id":"4","last_reported":1730833598,"current_range_meters":8400,"station_id":"ce4bhmp2rcd13ifvqgog","pricing_plan_id":"cebpf4jnsgd1na2vs0mg"},{"bike_id":"88b985b2-284f-4f9d-9144-31d13a720ace","system_id":"levelo_inurba_marseille","lat":43.31485,"lon":5.37315,"is_reserved":false,"is_disabled":false,"rental_uris":{"android":"levelo://app?vid=88b985b2-284f-4f9d-9144-31d13a720ace","ios":"levelo://app?vid=88b985b2-284f-4f9d-9144-31d13a720ace"},"vehicle_type_id":"4","last_reported":1730833598,"current_range_meters":38800,"station_id":"ce4bgt12rcd13ifvqcd0","pricing_plan_id":"cebpf4jnsgd1na2vs0mg"},{"bike_id":"0aa2f215-8e82-4f6e-b952-01adc940bc02","system_id":"levelo_inurba_marseille","lat":43.28935,"lon":5.3664,"is_reserved":false,"is_disabled":false,"rental_uris":{"android":"levelo://app?vid=0aa2f215-8e82-4f6e-b952-01adc940bc02","ios":"levelo://app?vid=0aa2f215-8e82-4f6e-b952-01adc940bc02"},"vehicle_type_id":"4","last_reported":1730833598,"current_range_meters":17600,"station_id":"ce4bhap2rcd13ifvqek0","pricing_plan_id":"cebpf4jnsgd1na2vs0mg"},{"bike_id":"072fa914-3505-4be3-b929-6a82a8e9c5bf","system_id":"levelo_inurba_marseille","lat":43.25585,"lon":5.38231,"is_reserved":false,"is_disabled":false,"rental_uris":{"android":"levelo://app?vid=072fa914-3505-4be3-b929-6a82a8e9c5bf","ios":"levelo://app?vid=072fa914-3505-4be3-b929-6a82a8e9c5bf"},"vehicle_type_id":"4","last_reported":1730833598,"current_range_meters":26800,"station_id":"ce4bhih2rcd13ifvqfs0","pricing_plan_id":"cebpf4jnsgd1na2vs0mg"},{"bike_id":"6edcb5d2-dbf0-49f4-9f8b-5d93ccae943e","system_id":"levelo_inurba_marseille","lat":43.27902,"lon":5.38015,"is_reserved":false,"is_disabled":false,"rental_uris":{"android":"levelo://app?vid=6edcb5d2-dbf0-49f4-9f8b-5d93ccae943e","ios":"levelo://app?vid=6edcb5d2-dbf0-49f4-9f8b-5d93ccae943e"},"vehicle_type_id":"4","last_reported":1730833598,"current_range_meters":27600,"station_id":"ce4bhf92rcd13ifvqf50","pricing_plan_id":"cebpf4jnsgd1na2vs0mg"},{"bike_id":"62839ff1-78f8-4205-9911-20902c6741f7","system_id":"levelo_inurba_marseille","lat":43.280987,"lon":5.378353,"is_reserved":false,"is_disabled":false,"rental_uris":{"android":"levelo://app?vid=62839ff1-78f8-4205-9911-20902c6741f7","ios":"levelo://app?vid=62839ff1-78f8-4205-9911-20902c6741f7"},"vehicle_type_id":"4","last_reported":1730833598,"current_range_meters":19600,"station_id":"ce4bha12rcd13ifvqee0","pricing_plan_id":"cebpf4jnsgd1na2vs0mg"},{"bike_id":"340ee037-c5f9-4ff6-a16b-0e0f3098fa79","system_id":"levelo_inurba_marseille","lat":43.30463,"lon":5.40206,"is_reserved":false,"is_disabled":false,"rental_uris":{"android":"levelo://app?vid=340ee037-c5f9-4ff6-a16b-0e0f3098fa79","ios":"levelo://app?vid=340ee037-c5f9-4ff6-a16b-0e0f3098fa79"},"vehicle_type_id":"4","last_reported":1730833598,"current_range_meters":29600,"station_id":"","pricing_plan_id":"cebpf4jnsgd1na2vs0mg"},{"bike_id":"ff965208-c28e-4b4a-8c63-06a53f0c8f16","system_id":"levelo_inurba_marseille","lat":43.290894,"lon":5.359069,"is_reserved":false,"is_disabled":false,"rental_uris":{"android":"levelo://app?vid=ff965208-c28e-4b4a-8c63-06a53f0c8f16","ios":"levelo://app?vid=ff965208-c28e-4b4a-8c63-06a53f0c8f16"},"vehicle_type_id":"4","last_reported":1730833598,"current_range_meters":28800,"station_id":"ce4bha92rcd13ifvqeg0","pricing_plan_id":"cebpf4jnsgd1na2vs0mg"},{"bike_id":"fb6e0097-609c-4a31-a37d-72d195a0407b","system_id":"levelo_inurba_marseille","lat":43.29867,"lon":5.39743,"is_reserved":false,"is_disabled":false,"rental_uris":{"android":"levelo://app?vid=fb6e0097-609c-4a31-a37d-72d195a0407b","ios":"levelo://app?vid=fb6e0097-609c-4a31-a37d-72d195a0407b"},"vehicle_type_id":"4","last_reported":1730833598,"current_range_meters":11600,"station_id":"ce4bh0h2rcd13ifvqd50","pricing_plan_id":"cebpf4jnsgd1na2vs0mg"},{"bike_id":"6025b22c-cc70-4829-8bb8-d8ee07a71061","system_id":"levelo_inurba_marseille","lat":43.28612,"lon":5.35102,"is_reserved":false,"is_disabled":false,"rental_uris":{"android":"levelo://app?vid=6025b22c-cc70-4829-8bb8-d8ee07a71061","ios":"levelo://app?vid=6025b22c-cc70-4829-8bb8-d8ee07a71061"},"vehicle_type_id":"4","last_reported":1730833598,"current_range_meters":32400,"station_id":"ce4bhch2rcd13ifvqeug","pricing_plan_id":"cebpf4jnsgd1na2vs0mg"},{"bike_id":"4d642ac2-a241-4ad5-8d70-e7a903766d29","system_id":"levelo_inurba_marseille","lat":43.29256,"lon":5.38446,"is_reserved":false,"is_disabled":false,"rental_uris":{"android":"levelo://app?vid=4d642ac2-a241-4ad5-8d70-e7a903766d29","ios":"levelo://app?vid=4d642ac2-a241-4ad5-8d70-e7a903766d29"},"vehicle_type_id":"4","last_reported":1730833598,"current_range_meters":16400,"station_id":"ce4bh692rcd13ifvqea0","pricing_plan_id":"cebpf4jnsgd1na2vs0mg"},{"bike_id":"f8053fae-19d6-4f46-93ab-8115c6e86f07","system_id":"levelo_inurba_marseille","lat":43.30907,"lon":5.36848,"is_reserved":false,"is_disabled":false,"rental_uris":{"android":"levelo://app?vid=f8053fae-19d6-4f46-93ab-8115c6e86f07","ios":"levelo://app?vid=f8053fae-19d6-4f46-93ab-8115c6e86f07"},"vehicle_type_id":"4","last_reported":1730833598,"current_range_meters":35200,"station_id":"ce4bgn92rcd13ifvqbvg","pricing_plan_id":"cebpf4jnsgd1na2vs0mg"},{"bike_id":"1f9427b0-5fa1-48cb-9b31-8a0b0ffec652","system_id":"levelo_inurba_marseille","lat":43.29191,"lon":5.3932,"is_reserved":false,"is_disabled":false,"rental_uris":{"android":"levelo://app?vid=1f9427b0-5fa1-48cb-9b31-8a0b0ffec652","ios":"levelo://app?vid=1f9427b0-5fa1-48cb-9b31-8a0b0ffec652"},"vehicle_type_id":"4","last_reported":1730833598,"current_range_meters":9600,"station_id":"ce4bh192rcd13ifvqdd0","pricing_plan_id":"cebpf4jnsgd1na2vs0mg"},{"bike_id":"9eccc700-de2c-45f8-84c7-48055975e094","system_id":"levelo_inurba_marseille","lat":43.267708,"lon":5.371804,"is_reserved":false,"is_disabled":false,"rental_uris":{"android":"levelo://app?vid=9eccc700-de2c-45f8-84c7-48055975e094","ios":"levelo://app?vid=9eccc700-de2c-45f8-84c7-48055975e094"},"vehicle_type_id":"4","last_reported":1730833598,"current_range_meters":23200,"station_id":"","pricing_plan_id":"cebpf4jnsgd1na2vs0mg"},{"bike_id":"00db643c-5868-4206-be55-7a08f1b86e96","system_id":"levelo_inurba_marseille","lat":43.23185,"lon":5.3998,"is_reserved":false,"is_disabled":false,"rental_uris":{"android":"levelo://app?vid=00db643c-5868-4206-be55-7a08f1b86e96","ios":"levelo://app?vid=00db643c-5868-4206-be55-7a08f1b86e96"},"vehicle_type_id":"4","last_reported":1730833598,"current_range_meters":18800,"station_id":"ce4bhn12rcd13ifvqgqg","pricing_plan_id":"cebpf4jnsgd1na2vs0mg"},{"bike_id":"7b2a0b40-e2ce-498c-8b25-d647f31553d7","system_id":"levelo_inurba_marseille","lat":43.29038,"lon":5.3996,"is_reserved":false,"is_disabled":false,"rental_uris":{"android":"levelo://app?vid=7b2a0b40-e2ce-498c-8b25-d647f31553d7","ios":"levelo://app?vid=7b2a0b40-e2ce-498c-8b25-d647f31553d7"},"vehicle_type_id":"4","last_reported":1730833598,"current_range_meters":24000,"station_id":"ce4bh392rcd13ifvqdm0","pricing_plan_id":"cebpf4jnsgd1na2vs0mg"},{"bike_id":"09ae89aa-d8fd-468f-94dc-9a05a884115a","system_id":"levelo_inurba_marseille","lat":43.2407,"lon":5.37768,"is_reserved":false,"is_disabled":false,"rental_uris":{"android":"levelo://app?vid=09ae89aa-d8fd-468f-94dc-9a05a884115a","ios":"levelo://app?vid=09ae89aa-d8fd-468f-94dc-9a05a884115a"},"vehicle_type_id":"4","last_reported":1730833598,"current_range_meters":23200,"station_id":"ce4bhnp2rcd13ifvqgvg","pricing_plan_id":"cebpf4jnsgd1na2vs0mg"},{"bike_id":"fd133990-2027-4415-9562-27fa75a43a41","system_id":"levelo_inurba_marseille","lat":43.29559,"lon":5.42286,"is_reserved":false,"is_disabled":false,"rental_uris":{"android":"levelo://app?vid=fd133990-2027-4415-9562-27fa75a43a41","ios":"levelo://app?vid=fd133990-2027-4415-9562-27fa75a43a41"},"vehicle_type_id":"4","last_reported":1730833598,"current_range_meters":23200,"station_id":"ce4bhph2rcd13ifvqhdg","pricing_plan_id":"cebpf4jnsgd1na2vs0mg"},{"bike_id":"aaa32c29-f262-40a8-a501-7418891001d4","system_id":"levelo_inurba_marseille","lat":43.27823,"lon":5.40727,"is_reserved":false,"is_disabled":false,"rental_uris":{"android":"levelo://app?vid=aaa32c29-f262-40a8-a501-7418891001d4","ios":"levelo://app?vid=aaa32c29-f262-40a8-a501-7418891001d4"},"vehicle_type_id":"4","last_reported":1730833598,"current_range_meters":38800,"station_id":"ce4bhnh2rcd13ifvqgtg","pricing_plan_id":"cebpf4jnsgd1na2vs0mg"},{"bike_id":"b44b0b48-9a85-405c-b983-dc9cb4802105","system_id":"levelo_inurba_marseille","lat":43.2858,"lon":5.39497,"is_reserved":false,"is_disabled":false,"rental_uris":{"android":"levelo://app?vid=b44b0b48-9a85-405c-b983-dc9cb4802105","ios":"levelo://app?vid=b44b0b48-9a85-405c-b983-dc9cb4802105"},"vehicle_type_id":"4","last_reported":1730833598,"current_range_meters":16400,"station_id":"ce4bh292rcd13ifvqdg0","pricing_plan_id":"cebpf4jnsgd1na2vs0mg"},{"bike_id":"814f224b-377e-4923-a420-cdcd4718352f","system_id":"levelo_inurba_marseille","lat":43.33019,"lon":5.39045,"is_reserved":false,"is_disabled":false,"rental_uris":{"android":"levelo://app?vid=814f224b-377e-4923-a420-cdcd4718352f","ios":"levelo://app?vid=814f224b-377e-4923-a420-cdcd4718352f"},"vehicle_type_id":"4","last_reported":1730833598,"current_range_meters":38800,"station_id":"ce4bhr92rcd13ifvqhrg","pricing_plan_id":"cebpf4jnsgd1na2vs0mg"},{"bike_id":"60b16b25-d6f5-4dd8-8825-8f7ae9685e30","system_id":"levelo_inurba_marseille","lat":43.314983,"lon":5.373108,"is_reserved":false,"is_disabled":false,"rental_uris":{"android":"levelo://app?vid=60b16b25-d6f5-4dd8-8825-8f7ae9685e30","ios":"levelo://app?vid=60b16b25-d6f5-4dd8-8825-8f7ae9685e30"},"vehicle_type_id":"4","last_reported":1730833598,"current_range_meters":2000,"station_id":"ce4bgt12rcd13ifvqcd0","pricing_plan_id":"cebpf4jnsgd1na2vs0mg"},{"bike_id":"22868da5-4c38-4ce5-8489-cbec9dcaa3b0","system_id":"levelo_inurba_marseille","lat":43.28037,"lon":5.36956,"is_reserved":false,"is_disabled":false,"rental_uris":{"android":"levelo://app?vid=22868da5-4c38-4ce5-8489-cbec9dcaa3b0","ios":"levelo://app?vid=22868da5-4c38-4ce5-8489-cbec9dcaa3b0"},"vehicle_type_id":"4","last_reported":1730833598,"current_range_meters":16400,"station_id":"ce4bha12rcd13ifvqef0","pricing_plan_id":"cebpf4jnsgd1na2vs0mg"},{"bike_id":"bdb0bb8a-8ad7-4a6e-b2a5-dfdc505d227b","system_id":"levelo_inurba_marseille","lat":43.28076,"lon":5.39665,"is_reserved":false,"is_disabled":false,"rental_uris":{"android":"levelo://app?vid=bdb0bb8a-8ad7-4a6e-b2a5-dfdc505d227b","ios":"levelo://app?vid=bdb0bb8a-8ad7-4a6e-b2a5-dfdc505d227b"},"vehicle_type_id":"4","last_reported":1730833598,"current_range_meters":17200,"station_id":"ce4bho12rcd13ifvqh2g","pricing_plan_id":"cebpf4jnsgd1na2vs0mg"},{"bike_id":"c37b77c7-0309-47c9-adea-e6583d2943ee","system_id":"levelo_inurba_marseille","lat":43.30126,"lon":5.39858,"is_reserved":false,"is_disabled":false,"rental_uris":{"android":"levelo://app?vid=c37b77c7-0309-47c9-adea-e6583d2943ee","ios":"levelo://app?vid=c37b77c7-0309-47c9-adea-e6583d2943ee"},"vehicle_type_id":"4","last_reported":1730833598,"current_range_meters":8800,"station_id":"ce4bh0h2rcd13ifvqd40","pricing_plan_id":"cebpf4jnsgd1na2vs0mg"},{"bike_id":"da0c51c1-bcaa-4bd6-9175-db3a3a1d8bb2","system_id":"levelo_inurba_marseille","lat":43.29794,"lon":5.38095,"is_reserved":false,"is_disabled":false,"rental_uris":{"android":"levelo://app?vid=da0c51c1-bcaa-4bd6-9175-db3a3a1d8bb2","ios":"levelo://app?vid=da0c51c1-bcaa-4bd6-9175-db3a3a1d8bb2"},"vehicle_type_id":"4","last_reported":1730833598,"current_range_meters":22400,"station_id":"ce4bgip2rcd13ifvqbb0","pricing_plan_id":"cebpf4jnsgd1na2vs0mg"},{"bike_id":"3c5ac311-90c7-4d2b-b377-c2b12c17ace3","system_id":"levelo_inurba_marseille","lat":43.32109,"lon":5.36774,"is_reserved":false,"is_disabled":false,"rental_uris":{"android":"levelo://app?vid=3c5ac311-90c7-4d2b-b377-c2b12c17ace3","ios":"levelo://app?vid=3c5ac311-90c7-4d2b-b377-c2b12c17ace3"},"vehicle_type_id":"4","last_reported":1730833598,"current_range_meters":12800,"station_id":"ce4bhrh2rcd13ifvqhug","pricing_plan_id":"cebpf4jnsgd1na2vs0mg"},{"bike_id":"38526b2a-8697-4aef-a174-e0c1be19b7a7","system_id":"levelo_inurba_marseille","lat":43.28843,"lon":5.35886,"is_reserved":false,"is_disabled":false,"rental_uris":{"android":"levelo://app?vid=38526b2a-8697-4aef-a174-e0c1be19b7a7","ios":"levelo://app?vid=38526b2a-8697-4aef-a174-e0c1be19b7a7"},"vehicle_type_id":"4","last_reported":1730833598,"current_range_meters":16000,"station_id":"ce4bhb12rcd13ifvqem0","pricing_plan_id":"cebpf4jnsgd1na2vs0mg"},{"bike_id":"bb10a7e5-28ee-4ce5-959a-fb4e69a519f8","system_id":"levelo_inurba_marseille","lat":43.28155,"lon":5.42645,"is_reserved":false,"is_disabled":false,"rental_uris":{"android":"levelo://app?vid=bb10a7e5-28ee-4ce5-959a-fb4e69a519f8","ios":"levelo://app?vid=bb10a7e5-28ee-4ce5-959a-fb4e69a519f8"},"vehicle_type_id":"4","last_reported":1730833598,"current_range_meters":26000,"station_id":"ce4bhnh2rcd13ifvqgug","pricing_plan_id":"cebpf4jnsgd1na2vs0mg"},{"bike_id":"64034af2-67ea-4876-bcba-e9667f90eda7","system_id":"levelo_inurba_marseille","lat":43.33716,"lon":5.39188,"is_reserved":false,"is_disabled":false,"rental_uris":{"android":"levelo://app?vid=64034af2-67ea-4876-bcba-e9667f90eda7","ios":"levelo://app?vid=64034af2-67ea-4876-bcba-e9667f90eda7"},"vehicle_type_id":"4","last_reported":1730833598,"current_range_meters":38800,"station_id":"ce4bhr92rcd13ifvqhsg","pricing_plan_id":"cebpf4jnsgd1na2vs0mg"},{"bike_id":"7f81ea75-c1d8-4b6f-b28d-2c70501ab708","system_id":"levelo_inurba_marseille","lat":43.27999,"lon":5.41662,"is_reserved":false,"is_disabled":false,"rental_uris":{"android":"levelo://app?vid=7f81ea75-c1d8-4b6f-b28d-2c70501ab708","ios":"levelo://app?vid=7f81ea75-c1d8-4b6f-b28d-2c70501ab708"},"vehicle_type_id":"4","last_reported":1730833598,"current_range_meters":16800,"station_id":"ce4bho12rcd13ifvqh1g","pricing_plan_id":"cebpf4jnsgd1na2vs0mg"},{"bike_id":"e6660252-37b3-45f0-86f3-1f90711e21b1","system_id":"levelo_inurba_marseille","lat":43.27075,"lon":5.4228,"is_reserved":false,"is_disabled":false,"rental_uris":{"android":"levelo://app?vid=e6660252-37b3-45f0-86f3-1f90711e21b1","ios":"levelo://app?vid=e6660252-37b3-45f0-86f3-1f90711e21b1"},"vehicle_type_id":"4","last_reported":1730833598,"current_range_meters":7200,"station_id":"ce4bhk92rcd13ifvqgb0","pricing_plan_id":"cebpf4jnsgd1na2vs0mg"},{"bike_id":"177a31c4-08af-4e7f-b7d2-24354a8b3413","system_id":"levelo_inurba_marseille","lat":43.30803,"lon":5.38167,"is_reserved":false,"is_disabled":false,"rental_uris":{"android":"levelo://app?vid=177a31c4-08af-4e7f-b7d2-24354a8b3413","ios":"levelo://app?vid=177a31c4-08af-4e7f-b7d2-24354a8b3413"},"vehicle_type_id":"4","last_reported":1730833598,"current_range_meters":38800,"station_id":"ce4bgt12rcd13ifvqce0","pricing_plan_id":"cebpf4jnsgd1na2vs0mg"},{"bike_id":"77f0f942-cc19-4114-9693-f96851c5cf8b","system_id":"levelo_inurba_marseille","lat":43.31064,"lon":5.38348,"is_reserved":false,"is_disabled":false,"rental_uris":{"android":"levelo://app?vid=77f0f942-cc19-4114-9693-f96851c5cf8b","ios":"levelo://app?vid=77f0f942-cc19-4114-9693-f96851c5cf8b"},"vehicle_type_id":"4","last_reported":1730833598,"current_range_meters":16000,"station_id":"ce4bgv92rcd13ifvqcr0","pricing_plan_id":"cebpf4jnsgd1na2vs0mg"},{"bike_id":"03448f24-f7b9-4e57-8236-bd2b3ff38b2d","system_id":"levelo_inurba_marseille","lat":43.31688,"lon":5.40477,"is_reserved":false,"is_disabled":false,"rental_uris":{"android":"levelo://app?vid=03448f24-f7b9-4e57-8236-bd2b3ff38b2d","ios":"levelo://app?vid=03448f24-f7b9-4e57-8236-bd2b3ff38b2d"},"vehicle_type_id":"4","last_reported":1730833598,"current_range_meters":10800,"station_id":"ce4bh0h2rcd13ifvqd40","pricing_plan_id":"cebpf4jnsgd1na2vs0mg"},{"bike_id":"2e28164e-d491-4a98-92ef-78251ae3688b","system_id":"levelo_inurba_marseille","lat":43.31225,"lon":5.36866,"is_reserved":false,"is_disabled":false,"rental_uris":{"android":"levelo://app?vid=2e28164e-d491-4a98-92ef-78251ae3688b","ios":"levelo://app?vid=2e28164e-d491-4a98-92ef-78251ae3688b"},"vehicle_type_id":"4","last_reported":1730833598,"current_range_meters":12000,"station_id":"ce4bgl92rcd13ifvqbq0","pricing_plan_id":"cebpf4jnsgd1na2vs0mg"},{"bike_id":"f31dd577-0cf3-4a5d-bfb1-88995244e61a","system_id":"levelo_inurba_marseille","lat":43.29198,"lon":5.39327,"is_reserved":false,"is_disabled":false,"rental_uris":{"android":"levelo://app?vid=f31dd577-0cf3-4a5d-bfb1-88995244e61a","ios":"levelo://app?vid=f31dd577-0cf3-4a5d-bfb1-88995244e61a"},"vehicle_type_id":"4","last_reported":1730833598,"current_range_meters":38800,"station_id":"ce4bh192rcd13ifvqdd0","pricing_plan_id":"cebpf4jnsgd1na2vs0mg"},{"bike_id":"115faa9b-d432-4765-b4c8-112a3cb07d60","system_id":"levelo_inurba_marseille","lat":43.31079,"lon":5.42433,"is_reserved":false,"is_disabled":false,"rental_uris":{"android":"levelo://app?vid=115faa9b-d432-4765-b4c8-112a3cb07d60","ios":"levelo://app?vid=115faa9b-d432-4765-b4c8-112a3cb07d60"},"vehicle_type_id":"4","last_reported":1730833598,"current_range_meters":3200,"station_id":"ce4bhp92rcd13ifvqhag","pricing_plan_id":"cebpf4jnsgd1na2vs0mg"},{"bike_id":"9a68e9d7-b735-48eb-a3f7-958fd0b4cbb1","system_id":"levelo_inurba_marseille","lat":43.27932,"lon":5.4105,"is_reserved":false,"is_disabled":false,"rental_uris":{"android":"levelo://app?vid=9a68e9d7-b735-48eb-a3f7-958fd0b4cbb1","ios":"levelo://app?vid=9a68e9d7-b735-48eb-a3f7-958fd0b4cbb1"},"vehicle_type_id":"4","last_reported":1730833598,"current_range_meters":11200,"station_id":"ce4bhnp2rcd13ifvqh0g","pricing_plan_id":"cebpf4jnsgd1na2vs0mg"},{"bike_id":"13b1728a-6ba8-4697-b953-7d5c1172b1be","system_id":"levelo_inurba_marseille","lat":43.29446,"lon":5.39761,"is_reserved":false,"is_disabled":false,"rental_uris":{"android":"levelo://app?vid=13b1728a-6ba8-4697-b953-7d5c1172b1be","ios":"levelo://app?vid=13b1728a-6ba8-4697-b953-7d5c1172b1be"},"vehicle_type_id":"4","last_reported":1730833598,"current_range_meters":38800,"station_id":"ce4bh3h2rcd13ifvqdo0","pricing_plan_id":"cebpf4jnsgd1na2vs0mg"},{"bike_id":"71ab47da-bfae-4dbc-83e1-967e92288ca2","system_id":"levelo_inurba_marseille","lat":43.2903,"lon":5.38636,"is_reserved":false,"is_disabled":false,"rental_uris":{"android":"levelo://app?vid=71ab47da-bfae-4dbc-83e1-967e92288ca2","ios":"levelo://app?vid=71ab47da-bfae-4dbc-83e1-967e92288ca2"},"vehicle_type_id":"4","last_reported":1730833598,"current_range_meters":11200,"station_id":"ce4bh4p2rcd13ifvqe0g","pricing_plan_id":"cebpf4jnsgd1na2vs0mg"},{"bike_id":"d90b959d-8201-4603-ab3b-a587e2a72f50","system_id":"levelo_inurba_marseille","lat":43.281549,"lon":5.426434,"is_reserved":false,"is_disabled":false,"rental_uris":{"android":"levelo://app?vid=d90b959d-8201-4603-ab3b-a587e2a72f50","ios":"levelo://app?vid=d90b959d-8201-4603-ab3b-a587e2a72f50"},"vehicle_type_id":"4","last_reported":1730833598,"current_range_meters":39200,"station_id":"ce4bhnh2rcd13ifvqgug","pricing_plan_id":"cebpf4jnsgd1na2vs0mg"},{"bike_id":"f2ac04e7-24b8-4151-978d-ef18e5bca473","system_id":"levelo_inurba_marseille","lat":43.26488,"lon":5.39604,"is_reserved":false,"is_disabled":false,"rental_uris":{"android":"levelo://app?vid=f2ac04e7-24b8-4151-978d-ef18e5bca473","ios":"levelo://app?vid=f2ac04e7-24b8-4151-978d-ef18e5bca473"},"vehicle_type_id":"4","last_reported":1730833598,"current_range_meters":3600,"station_id":"","pricing_plan_id":"cebpf4jnsgd1na2vs0mg"},{"bike_id":"9963ea58-ba7d-4ea5-aa73-1d7bd0126c2c","system_id":"levelo_inurba_marseille","lat":43.2957,"lon":5.3996,"is_reserved":false,"is_disabled":false,"rental_uris":{"android":"levelo://app?vid=9963ea58-ba7d-4ea5-aa73-1d7bd0126c2c","ios":"levelo://app?vid=9963ea58-ba7d-4ea5-aa73-1d7bd0126c2c"},"vehicle_type_id":"4","last_reported":1730833598,"current_range_meters":16800,"station_id":"ce4bh312rcd13ifvqdj0","pricing_plan_id":"cebpf4jnsgd1na2vs0mg"},{"bike_id":"7a0253b3-98d7-452a-99fc-9c5c2457d257","system_id":"levelo_inurba_marseille","lat":43.29959,"lon":5.41323,"is_reserved":false,"is_disabled":false,"rental_uris":{"android":"levelo://app?vid=7a0253b3-98d7-452a-99fc-9c5c2457d257","ios":"levelo://app?vid=7a0253b3-98d7-452a-99fc-9c5c2457d257"},"vehicle_type_id":"4","last_reported":1730833598,"current_range_meters":35200,"station_id":"ce4bhp12rcd13ifvqh9g","pricing_plan_id":"cebpf4jnsgd1na2vs0mg"},{"bike_id":"70e0d61b-4d76-49a8-a13c-d24eda1de38e","system_id":"levelo_inurba_marseille","lat":43.299636,"lon":5.397031,"is_reserved":false,"is_disabled":false,"rental_uris":{"android":"levelo://app?vid=70e0d61b-4d76-49a8-a13c-d24eda1de38e","ios":"levelo://app?vid=70e0d61b-4d76-49a8-a13c-d24eda1de38e"},"vehicle_type_id":"4","last_reported":1730833598,"current_range_meters":35600,"station_id":"ce4bh3h2rcd13ifvqdo0","pricing_plan_id":"cebpf4jnsgd1na2vs0mg"},{"bike_id":"c3cc4d3c-939d-4f3c-b1cc-4aa798cb58cc","system_id":"levelo_inurba_marseille","lat":43.28834,"lon":5.35846,"is_reserved":false,"is_disabled":false,"rental_uris":{"android":"levelo://app?vid=c3cc4d3c-939d-4f3c-b1cc-4aa798cb58cc","ios":"levelo://app?vid=c3cc4d3c-939d-4f3c-b1cc-4aa798cb58cc"},"vehicle_type_id":"4","last_reported":1730833598,"current_range_meters":40000,"station_id":"ce4bhb12rcd13ifvqem0","pricing_plan_id":"cebpf4jnsgd1na2vs0mg"},{"bike_id":"dacb3127-cf48-43ba-ac28-e87e8fb962d2","system_id":"levelo_inurba_marseille","lat":43.24073,"lon":5.37762,"is_reserved":false,"is_disabled":false,"rental_uris":{"android":"levelo://app?vid=dacb3127-cf48-43ba-ac28-e87e8fb962d2","ios":"levelo://app?vid=dacb3127-cf48-43ba-ac28-e87e8fb962d2"},"vehicle_type_id":"4","last_reported":1730833598,"current_range_meters":6400,"station_id":"ce4bhnp2rcd13ifvqgvg","pricing_plan_id":"cebpf4jnsgd1na2vs0mg"},{"bike_id":"ab0685fb-2d5f-4191-afed-d7ad6cdba22f","system_id":"levelo_inurba_marseille","lat":43.292675,"lon":5.384334,"is_reserved":false,"is_disabled":false,"rental_uris":{"android":"levelo://app?vid=ab0685fb-2d5f-4191-afed-d7ad6cdba22f","ios":"levelo://app?vid=ab0685fb-2d5f-4191-afed-d7ad6cdba22f"},"vehicle_type_id":"4","last_reported":1730833598,"current_range_meters":8800,"station_id":"ce4bh692rcd13ifvqea0","pricing_plan_id":"cebpf4jnsgd1na2vs0mg"},{"bike_id":"0a3c1a6b-eadc-4e53-adb5-ce60bbc39060","system_id":"levelo_inurba_marseille","lat":43.33023,"lon":5.39039,"is_reserved":false,"is_disabled":false,"rental_uris":{"android":"levelo://app?vid=0a3c1a6b-eadc-4e53-adb5-ce60bbc39060","ios":"levelo://app?vid=0a3c1a6b-eadc-4e53-adb5-ce60bbc39060"},"vehicle_type_id":"4","last_reported":1730833598,"current_range_meters":38800,"station_id":"ce4bhr92rcd13ifvqhrg","pricing_plan_id":"cebpf4jnsgd1na2vs0mg"},{"bike_id":"860e9341-73cd-4af7-8d0d-80edc0329392","system_id":"levelo_inurba_marseille","lat":43.27562,"lon":5.38407,"is_reserved":false,"is_disabled":false,"rental_uris":{"android":"levelo://app?vid=860e9341-73cd-4af7-8d0d-80edc0329392","ios":"levelo://app?vid=860e9341-73cd-4af7-8d0d-80edc0329392"},"vehicle_type_id":"4","last_reported":1730833598,"current_range_meters":20000,"station_id":"ce4bhh92rcd13ifvqfi0","pricing_plan_id":"cebpf4jnsgd1na2vs0mg"},{"bike_id":"db5c2fb9-8e69-441d-b5d9-68c72d800559","system_id":"levelo_inurba_marseille","lat":43.29096,"lon":5.38116,"is_reserved":false,"is_disabled":false,"rental_uris":{"android":"levelo://app?vid=db5c2fb9-8e69-441d-b5d9-68c72d800559","ios":"levelo://app?vid=db5c2fb9-8e69-441d-b5d9-68c72d800559"},"vehicle_type_id":"4","last_reported":1730833598,"current_range_meters":11200,"station_id":"ce4bh512rcd13ifvqe2g","pricing_plan_id":"cebpf4jnsgd1na2vs0mg"},{"bike_id":"1f5463a0-b5b0-4424-a906-e725cee20b07","system_id":"levelo_inurba_marseille","lat":43.29003,"lon":5.35618,"is_reserved":false,"is_disabled":false,"rental_uris":{"android":"levelo://app?vid=1f5463a0-b5b0-4424-a906-e725cee20b07","ios":"levelo://app?vid=1f5463a0-b5b0-4424-a906-e725cee20b07"},"vehicle_type_id":"4","last_reported":1730833598,"current_range_meters":18800,"station_id":"ce4bhb92rcd13ifvqen0","pricing_plan_id":"cebpf4jnsgd1na2vs0mg"},{"bike_id":"579d8bdf-a091-4544-8309-5b69598bf471","system_id":"levelo_inurba_marseille","lat":43.29249,"lon":5.38445,"is_reserved":false,"is_disabled":false,"rental_uris":{"android":"levelo://app?vid=579d8bdf-a091-4544-8309-5b69598bf471","ios":"levelo://app?vid=579d8bdf-a091-4544-8309-5b69598bf471"},"vehicle_type_id":"4","last_reported":1730833598,"current_range_meters":6400,"station_id":"ce4bh692rcd13ifvqea0","pricing_plan_id":"cebpf4jnsgd1na2vs0mg"},{"bike_id":"671ee801-ed83-4222-b723-723fea4dce62","system_id":"levelo_inurba_marseille","lat":43.27851,"lon":5.40711,"is_reserved":false,"is_disabled":false,"rental_uris":{"android":"levelo://app?vid=671ee801-ed83-4222-b723-723fea4dce62","ios":"levelo://app?vid=671ee801-ed83-4222-b723-723fea4dce62"},"vehicle_type_id":"4","last_reported":1730833598,"current_range_meters":34000,"station_id":"ce4bhnh2rcd13ifvqgtg","pricing_plan_id":"cebpf4jnsgd1na2vs0mg"},{"bike_id":"818f01a2-70c1-4282-8f3e-a5df75b74421","system_id":"levelo_inurba_marseille","lat":43.246643,"lon":5.38161,"is_reserved":false,"is_disabled":false,"rental_uris":{"android":"levelo://app?vid=818f01a2-70c1-4282-8f3e-a5df75b74421","ios":"levelo://app?vid=818f01a2-70c1-4282-8f3e-a5df75b74421"},"vehicle_type_id":"4","last_reported":1730833598,"current_range_meters":19200,"station_id":"ce4bhmp2rcd13ifvqgog","pricing_plan_id":"cebpf4jnsgd1na2vs0mg"},{"bike_id":"5d1b0053-67ee-432b-a497-7805f538e41e","system_id":"levelo_inurba_marseille","lat":43.30779,"lon":5.37658,"is_reserved":false,"is_disabled":false,"rental_uris":{"android":"levelo://app?vid=5d1b0053-67ee-432b-a497-7805f538e41e","ios":"levelo://app?vid=5d1b0053-67ee-432b-a497-7805f538e41e"},"vehicle_type_id":"4","last_reported":1730833598,"current_range_meters":38800,"station_id":"ce4bgv92rcd13ifvqcq0","pricing_plan_id":"cebpf4jnsgd1na2vs0mg"},{"bike_id":"333b0aae-276c-4843-ac1a-6be197ab7b09","system_id":"levelo_inurba_marseille","lat":43.28343,"lon":5.38108,"is_reserved":false,"is_disabled":false,"rental_uris":{"android":"levelo://app?vid=333b0aae-276c-4843-ac1a-6be197ab7b09","ios":"levelo://app?vid=333b0aae-276c-4843-ac1a-6be197ab7b09"},"vehicle_type_id":"4","last_reported":1730833598,"current_range_meters":38800,"station_id":"ce4bh412rcd13ifvqdr0","pricing_plan_id":"cebpf4jnsgd1na2vs0mg"},{"bike_id":"8770241d-63e5-44fd-b573-c66afef6a3ba","system_id":"levelo_inurba_marseille","lat":43.29193,"lon":5.39312,"is_reserved":false,"is_disabled":false,"rental_uris":{"android":"levelo://app?vid=8770241d-63e5-44fd-b573-c66afef6a3ba","ios":"levelo://app?vid=8770241d-63e5-44fd-b573-c66afef6a3ba"},"vehicle_type_id":"4","last_reported":1730833598,"current_range_meters":38800,"station_id":"ce4bh192rcd13ifvqdd0","pricing_plan_id":"cebpf4jnsgd1na2vs0mg"},{"bike_id":"ac9ba917-a723-439e-9f26-10594d865b8c","system_id":"levelo_inurba_marseille","lat":43.29778,"lon":5.38096,"is_reserved":false,"is_disabled":false,"rental_uris":{"android":"levelo://app?vid=ac9ba917-a723-439e-9f26-10594d865b8c","ios":"levelo://app?vid=ac9ba917-a723-439e-9f26-10594d865b8c"},"vehicle_type_id":"4","last_reported":1730833598,"current_range_meters":16400,"station_id":"ce4bgip2rcd13ifvqbb0","pricing_plan_id":"cebpf4jnsgd1na2vs0mg"},{"bike_id":"e0d5c209-70f8-47fa-88dc-432ec91d15b3","system_id":"levelo_inurba_marseille","lat":43.28416,"lon":5.34983,"is_reserved":false,"is_disabled":false,"rental_uris":{"android":"levelo://app?vid=e0d5c209-70f8-47fa-88dc-432ec91d15b3","ios":"levelo://app?vid=e0d5c209-70f8-47fa-88dc-432ec91d15b3"},"vehicle_type_id":"4","last_reported":1730833598,"current_range_meters":38000,"station_id":"ce4bhbh2rcd13ifvqepg","pricing_plan_id":"cebpf4jnsgd1na2vs0mg"},{"bike_id":"53535e37-a34a-42ad-a527-f19c0d797486","system_id":"levelo_inurba_marseille","lat":43.27569,"lon":5.38414,"is_reserved":false,"is_disabled":false,"rental_uris":{"android":"levelo://app?vid=53535e37-a34a-42ad-a527-f19c0d797486","ios":"levelo://app?vid=53535e37-a34a-42ad-a527-f19c0d797486"},"vehicle_type_id":"4","last_reported":1730833598,"current_range_meters":37600,"station_id":"ce4bhh92rcd13ifvqfi0","pricing_plan_id":"cebpf4jnsgd1na2vs0mg"},{"bike_id":"ebeb89f9-416e-487c-98db-accaa64ac807","system_id":"levelo_inurba_marseille","lat":43.2804,"lon":5.36949,"is_reserved":false,"is_disabled":false,"rental_uris":{"android":"levelo://app?vid=ebeb89f9-416e-487c-98db-accaa64ac807","ios":"levelo://app?vid=ebeb89f9-416e-487c-98db-accaa64ac807"},"vehicle_type_id":"4","last_reported":1730833598,"current_range_meters":17200,"station_id":"ce4bha12rcd13ifvqef0","pricing_plan_id":"cebpf4jnsgd1na2vs0mg"},{"bike_id":"7caad74d-aa77-4efc-940d-73314ceab0d0","system_id":"levelo_inurba_marseille","lat":43.28347,"lon":5.38103,"is_reserved":false,"is_disabled":false,"rental_uris":{"android":"levelo://app?vid=7caad74d-aa77-4efc-940d-73314ceab0d0","ios":"levelo://app?vid=7caad74d-aa77-4efc-940d-73314ceab0d0"},"vehicle_type_id":"4","last_reported":1730833598,"current_range_meters":38800,"station_id":"ce4bh412rcd13ifvqdr0","pricing_plan_id":"cebpf4jnsgd1na2vs0mg"},{"bike_id":"9048ebe6-0239-470a-af7d-c5634530ba1b","system_id":"levelo_inurba_marseille","lat":43.33024,"lon":5.39042,"is_reserved":false,"is_disabled":false,"rental_uris":{"android":"levelo://app?vid=9048ebe6-0239-470a-af7d-c5634530ba1b","ios":"levelo://app?vid=9048ebe6-0239-470a-af7d-c5634530ba1b"},"vehicle_type_id":"4","last_reported":1730833598,"current_range_meters":24800,"station_id":"ce4bhr92rcd13ifvqhrg","pricing_plan_id":"cebpf4jnsgd1na2vs0mg"},{"bike_id":"10e2d582-7a70-4bd2-be93-9125bb96da1e","system_id":"levelo_inurba_marseille","lat":43.2942,"lon":5.3863,"is_reserved":false,"is_disabled":false,"rental_uris":{"android":"levelo://app?vid=10e2d582-7a70-4bd2-be93-9125bb96da1e","ios":"levelo://app?vid=10e2d582-7a70-4bd2-be93-9125bb96da1e"},"vehicle_type_id":"4","last_reported":1730833598,"current_range_meters":38800,"station_id":"ce4bh2h2rcd13ifvqdh0","pricing_plan_id":"cebpf4jnsgd1na2vs0mg"},{"bike_id":"1d27b3a1-f13e-4920-8c40-27faf2c97a48","system_id":"levelo_inurba_marseille","lat":43.23194,"lon":5.35552,"is_reserved":false,"is_disabled":false,"rental_uris":{"android":"levelo://app?vid=1d27b3a1-f13e-4920-8c40-27faf2c97a48","ios":"levelo://app?vid=1d27b3a1-f13e-4920-8c40-27faf2c97a48"},"vehicle_type_id":"4","last_reported":1730833598,"current_range_meters":38800,"station_id":"ce4bhu92rcd13ifvqi70","pricing_plan_id":"cebpf4jnsgd1na2vs0mg"},{"bike_id":"0e6adf64-635e-40e8-93e1-b384407d876d","system_id":"levelo_inurba_marseille","lat":43.29557,"lon":5.42281,"is_reserved":false,"is_disabled":false,"rental_uris":{"android":"levelo://app?vid=0e6adf64-635e-40e8-93e1-b384407d876d","ios":"levelo://app?vid=0e6adf64-635e-40e8-93e1-b384407d876d"},"vehicle_type_id":"4","last_reported":1730833598,"current_range_meters":38800,"station_id":"ce4bhph2rcd13ifvqhdg","pricing_plan_id":"cebpf4jnsgd1na2vs0mg"},{"bike_id":"44479e8a-6140-4de1-8186-468c11893c48","system_id":"levelo_inurba_marseille","lat":43.2681,"lon":5.40267,"is_reserved":false,"is_disabled":false,"rental_uris":{"android":"levelo://app?vid=44479e8a-6140-4de1-8186-468c11893c48","ios":"levelo://app?vid=44479e8a-6140-4de1-8186-468c11893c48"},"vehicle_type_id":"4","last_reported":1730833598,"current_range_meters":12400,"station_id":"ce501612rcd8frsf0b60","pricing_plan_id":"cebpf4jnsgd1na2vs0mg"},{"bike_id":"ed0ec5ee-12a2-4dc0-af9f-20fe083f84f1","system_id":"levelo_inurba_marseille","lat":43.28394,"lon":5.37533,"is_reserved":false,"is_disabled":false,"rental_uris":{"android":"levelo://app?vid=ed0ec5ee-12a2-4dc0-af9f-20fe083f84f1","ios":"levelo://app?vid=ed0ec5ee-12a2-4dc0-af9f-20fe083f84f1"},"vehicle_type_id":"4","last_reported":1730833598,"current_range_meters":32000,"station_id":"ce4bh412rcd13ifvqds0","pricing_plan_id":"cebpf4jnsgd1na2vs0mg"},{"bike_id":"b2a201f8-3cd5-4b26-96c1-71715b360909","system_id":"levelo_inurba_marseille","lat":43.288319,"lon":5.364401,"is_reserved":false,"is_disabled":false,"rental_uris":{"android":"levelo://app?vid=b2a201f8-3cd5-4b26-96c1-71715b360909","ios":"levelo://app?vid=b2a201f8-3cd5-4b26-96c1-71715b360909"},"vehicle_type_id":"4","last_reported":1730833598,"current_range_meters":9600,"station_id":"ce4bhbp2rcd13ifvqerg","pricing_plan_id":"cebpf4jnsgd1na2vs0mg"},{"bike_id":"d23012f2-a9b1-4de7-b5c9-2bbba6a5a89a","system_id":"levelo_inurba_marseille","lat":43.31528,"lon":5.38034,"is_reserved":false,"is_disabled":false,"rental_uris":{"android":"levelo://app?vid=d23012f2-a9b1-4de7-b5c9-2bbba6a5a89a","ios":"levelo://app?vid=d23012f2-a9b1-4de7-b5c9-2bbba6a5a89a"},"vehicle_type_id":"4","last_reported":1730833598,"current_range_meters":9200,"station_id":"ce4bhsp2rcd13ifvqi50","pricing_plan_id":"cebpf4jnsgd1na2vs0mg"},{"bike_id":"f5033d83-6147-47c4-a75d-061db81f2568","system_id":"levelo_inurba_marseille","lat":43.30134,"lon":5.39877,"is_reserved":false,"is_disabled":false,"rental_uris":{"android":"levelo://app?vid=f5033d83-6147-47c4-a75d-061db81f2568","ios":"levelo://app?vid=f5033d83-6147-47c4-a75d-061db81f2568"},"vehicle_type_id":"4","last_reported":1730833598,"current_range_meters":9200,"station_id":"ce4bh0h2rcd13ifvqd40","pricing_plan_id":"cebpf4jnsgd1na2vs0mg"},{"bike_id":"dda0ab10-f2a2-45f5-9271-e032dbc6687a","system_id":"levelo_inurba_marseille","lat":43.30788,"lon":5.37663,"is_reserved":false,"is_disabled":false,"rental_uris":{"android":"levelo://app?vid=dda0ab10-f2a2-45f5-9271-e032dbc6687a","ios":"levelo://app?vid=dda0ab10-f2a2-45f5-9271-e032dbc6687a"},"vehicle_type_id":"4","last_reported":1730833598,"current_range_meters":38800,"station_id":"ce4bgv92rcd13ifvqcq0","pricing_plan_id":"cebpf4jnsgd1na2vs0mg"},{"bike_id":"e7874ce2-f692-46c5-87b4-56890b100158","system_id":"levelo_inurba_marseille","lat":43.23064,"lon":5.35496,"is_reserved":false,"is_disabled":false,"rental_uris":{"android":"levelo://app?vid=e7874ce2-f692-46c5-87b4-56890b100158","ios":"levelo://app?vid=e7874ce2-f692-46c5-87b4-56890b100158"},"vehicle_type_id":"4","last_reported":1730833598,"current_range_meters":38800,"station_id":"cpo3342slgdg3j2ifvpg","pricing_plan_id":"cebpf4jnsgd1na2vs0mg"},{"bike_id":"3d66523d-b009-4de8-bcd1-7b4c4b4cf6e5","system_id":"levelo_inurba_marseille","lat":43.28258,"lon":5.35066,"is_reserved":false,"is_disabled":false,"rental_uris":{"android":"levelo://app?vid=3d66523d-b009-4de8-bcd1-7b4c4b4cf6e5","ios":"levelo://app?vid=3d66523d-b009-4de8-bcd1-7b4c4b4cf6e5"},"vehicle_type_id":"4","last_reported":1730833598,"current_range_meters":7200,"station_id":"ce4bhbp2rcd13ifvqerg","pricing_plan_id":"cebpf4jnsgd1na2vs0mg"},{"bike_id":"c27f541d-823a-425a-87e3-5e085fa29210","system_id":"levelo_inurba_marseille","lat":43.30115,"lon":5.39838,"is_reserved":false,"is_disabled":false,"rental_uris":{"android":"levelo://app?vid=c27f541d-823a-425a-87e3-5e085fa29210","ios":"levelo://app?vid=c27f541d-823a-425a-87e3-5e085fa29210"},"vehicle_type_id":"4","last_reported":1730833598,"current_range_meters":38400,"station_id":"ce4bh0h2rcd13ifvqd40","pricing_plan_id":"cebpf4jnsgd1na2vs0mg"},{"bike_id":"eddde41b-d951-429b-8451-a8c01c9e5dd6","system_id":"levelo_inurba_marseille","lat":43.30773,"lon":5.37663,"is_reserved":false,"is_disabled":false,"rental_uris":{"android":"levelo://app?vid=eddde41b-d951-429b-8451-a8c01c9e5dd6","ios":"levelo://app?vid=eddde41b-d951-429b-8451-a8c01c9e5dd6"},"vehicle_type_id":"4","last_reported":1730833598,"current_range_meters":38800,"station_id":"","pricing_plan_id":"cebpf4jnsgd1na2vs0mg"},{"bike_id":"273e0a7e-b562-4832-b995-348e00b67667","system_id":"levelo_inurba_marseille","lat":43.28157,"lon":5.42652,"is_reserved":false,"is_disabled":false,"rental_uris":{"android":"levelo://app?vid=273e0a7e-b562-4832-b995-348e00b67667","ios":"levelo://app?vid=273e0a7e-b562-4832-b995-348e00b67667"},"vehicle_type_id":"4","last_reported":1730833598,"current_range_meters":39200,"station_id":"ce4bhnh2rcd13ifvqgug","pricing_plan_id":"cebpf4jnsgd1na2vs0mg"},{"bike_id":"9bf51cfd-59f7-461a-a1ce-1f518512b7ef","system_id":"levelo_inurba_marseille","lat":43.23967,"lon":5.36635,"is_reserved":false,"is_disabled":false,"rental_uris":{"android":"levelo://app?vid=9bf51cfd-59f7-461a-a1ce-1f518512b7ef","ios":"levelo://app?vid=9bf51cfd-59f7-461a-a1ce-1f518512b7ef"},"vehicle_type_id":"4","last_reported":1730833598,"current_range_meters":11200,"station_id":"ce4bhi12rcd13ifvqfp0","pricing_plan_id":"cebpf4jnsgd1na2vs0mg"},{"bike_id":"7f44f27f-b138-4ec7-a26e-504750e31065","system_id":"levelo_inurba_marseille","lat":43.292699,"lon":5.408931,"is_reserved":false,"is_disabled":false,"rental_uris":{"android":"levelo://app?vid=7f44f27f-b138-4ec7-a26e-504750e31065","ios":"levelo://app?vid=7f44f27f-b138-4ec7-a26e-504750e31065"},"vehicle_type_id":"4","last_reported":1730833598,"current_range_meters":12000,"station_id":"ce4bh192rcd13ifvqdc0","pricing_plan_id":"cebpf4jnsgd1na2vs0mg"},{"bike_id":"eab47ed5-f83a-4939-80d1-ff052743bdd1","system_id":"levelo_inurba_marseille","lat":43.32104,"lon":5.36781,"is_reserved":false,"is_disabled":false,"rental_uris":{"android":"levelo://app?vid=eab47ed5-f83a-4939-80d1-ff052743bdd1","ios":"levelo://app?vid=eab47ed5-f83a-4939-80d1-ff052743bdd1"},"vehicle_type_id":"4","last_reported":1730833598,"current_range_meters":29600,"station_id":"ce4bhrh2rcd13ifvqhug","pricing_plan_id":"cebpf4jnsgd1na2vs0mg"},{"bike_id":"2fac616e-c10f-4b93-9777-09eb2ba8f7e5","system_id":"levelo_inurba_marseille","lat":43.32484,"lon":5.36576,"is_reserved":false,"is_disabled":false,"rental_uris":{"android":"levelo://app?vid=2fac616e-c10f-4b93-9777-09eb2ba8f7e5","ios":"levelo://app?vid=2fac616e-c10f-4b93-9777-09eb2ba8f7e5"},"vehicle_type_id":"4","last_reported":1730833598,"current_range_meters":38800,"station_id":"ce4bhs12rcd13ifvqhvg","pricing_plan_id":"cebpf4jnsgd1na2vs0mg"},{"bike_id":"a3238a92-f558-4466-b6b0-f31b755439f0","system_id":"levelo_inurba_marseille","lat":43.29838,"lon":5.36269,"is_reserved":false,"is_disabled":false,"rental_uris":{"android":"levelo://app?vid=a3238a92-f558-4466-b6b0-f31b755439f0","ios":"levelo://app?vid=a3238a92-f558-4466-b6b0-f31b755439f0"},"vehicle_type_id":"4","last_reported":1730833598,"current_range_meters":26800,"station_id":"ce4bgpp2rcd13ifvqc3g","pricing_plan_id":"cebpf4jnsgd1na2vs0mg"},{"bike_id":"c6fc2448-f559-4022-b8f6-501ddb60da11","system_id":"levelo_inurba_marseille","lat":43.28859,"lon":5.35844,"is_reserved":false,"is_disabled":false,"rental_uris":{"android":"levelo://app?vid=c6fc2448-f559-4022-b8f6-501ddb60da11","ios":"levelo://app?vid=c6fc2448-f559-4022-b8f6-501ddb60da11"},"vehicle_type_id":"4","last_reported":1730833598,"current_range_meters":38800,"station_id":"ce4bhb12rcd13ifvqem0","pricing_plan_id":"cebpf4jnsgd1na2vs0mg"},{"bike_id":"ec8fb021-c3e8-4a6a-a402-5e0fd2860d7a","system_id":"levelo_inurba_marseille","lat":43.317108,"lon":5.437062,"is_reserved":false,"is_disabled":false,"rental_uris":{"android":"levelo://app?vid=ec8fb021-c3e8-4a6a-a402-5e0fd2860d7a","ios":"levelo://app?vid=ec8fb021-c3e8-4a6a-a402-5e0fd2860d7a"},"vehicle_type_id":"4","last_reported":1730833598,"current_range_meters":28800,"station_id":"ce4bhp92rcd13ifvqhcg","pricing_plan_id":"cebpf4jnsgd1na2vs0mg"},{"bike_id":"13729922-40b3-4b22-97af-7a5712c9e630","system_id":"levelo_inurba_marseille","lat":43.28484,"lon":5.38556,"is_reserved":false,"is_disabled":false,"rental_uris":{"android":"levelo://app?vid=13729922-40b3-4b22-97af-7a5712c9e630","ios":"levelo://app?vid=13729922-40b3-4b22-97af-7a5712c9e630"},"vehicle_type_id":"4","last_reported":1730833598,"current_range_meters":14800,"station_id":"ce4bh8p2rcd13ifvqeb0","pricing_plan_id":"cebpf4jnsgd1na2vs0mg"},{"bike_id":"c1ca8d65-a7bb-4aec-a233-6c9153d3a759","system_id":"levelo_inurba_marseille","lat":43.26682,"lon":5.38274,"is_reserved":false,"is_disabled":false,"rental_uris":{"android":"levelo://app?vid=c1ca8d65-a7bb-4aec-a233-6c9153d3a759","ios":"levelo://app?vid=c1ca8d65-a7bb-4aec-a233-6c9153d3a759"},"vehicle_type_id":"4","last_reported":1730833598,"current_range_meters":16000,"station_id":"ce4bhg92rcd13ifvqf90","pricing_plan_id":"cebpf4jnsgd1na2vs0mg"},{"bike_id":"0f6d12a9-175f-47aa-8f4c-feb57a1064a3","system_id":"levelo_inurba_marseille","lat":43.25577,"lon":5.3824,"is_reserved":false,"is_disabled":false,"rental_uris":{"android":"levelo://app?vid=0f6d12a9-175f-47aa-8f4c-feb57a1064a3","ios":"levelo://app?vid=0f6d12a9-175f-47aa-8f4c-feb57a1064a3"},"vehicle_type_id":"4","last_reported":1730833598,"current_range_meters":28000,"station_id":"ce4bhih2rcd13ifvqfs0","pricing_plan_id":"cebpf4jnsgd1na2vs0mg"},{"bike_id":"f824cfcb-1c7e-45cd-9abd-fa710ebae08c","system_id":"levelo_inurba_marseille","lat":43.2903,"lon":5.37571,"is_reserved":false,"is_disabled":false,"rental_uris":{"android":"levelo://app?vid=f824cfcb-1c7e-45cd-9abd-fa710ebae08c","ios":"levelo://app?vid=f824cfcb-1c7e-45cd-9abd-fa710ebae08c"},"vehicle_type_id":"4","last_reported":1730833598,"current_range_meters":22800,"station_id":"ce4bh692rcd13ifvqe90","pricing_plan_id":"cebpf4jnsgd1na2vs0mg"},{"bike_id":"98cef258-eb9e-4ec9-9913-db8f1dbd9527","system_id":"levelo_inurba_marseille","lat":43.31323,"lon":5.39694,"is_reserved":false,"is_disabled":false,"rental_uris":{"android":"levelo://app?vid=98cef258-eb9e-4ec9-9913-db8f1dbd9527","ios":"levelo://app?vid=98cef258-eb9e-4ec9-9913-db8f1dbd9527"},"vehicle_type_id":"4","last_reported":1730833598,"current_range_meters":8800,"station_id":"ce4bgvp2rcd13ifvqcu0","pricing_plan_id":"cebpf4jnsgd1na2vs0mg"},{"bike_id":"124f6380-9be8-4ce0-8301-b1495a40c9f7","system_id":"levelo_inurba_marseille","lat":43.30535,"lon":5.3842,"is_reserved":false,"is_disabled":false,"rental_uris":{"android":"levelo://app?vid=124f6380-9be8-4ce0-8301-b1495a40c9f7","ios":"levelo://app?vid=124f6380-9be8-4ce0-8301-b1495a40c9f7"},"vehicle_type_id":"4","last_reported":1730833598,"current_range_meters":38400,"station_id":"ce4bgg92rcd13ifvqb30","pricing_plan_id":"cebpf4jnsgd1na2vs0mg"},{"bike_id":"ce22ecb4-987f-4e6b-93ed-35ee6f8e82a8","system_id":"levelo_inurba_marseille","lat":43.2657,"lon":5.39,"is_reserved":false,"is_disabled":false,"rental_uris":{"android":"levelo://app?vid=ce22ecb4-987f-4e6b-93ed-35ee6f8e82a8","ios":"levelo://app?vid=ce22ecb4-987f-4e6b-93ed-35ee6f8e82a8"},"vehicle_type_id":"4","last_reported":1730833598,"current_range_meters":10000,"station_id":"ce4bhe12rcd13ifvqf30","pricing_plan_id":"cebpf4jnsgd1na2vs0mg"},{"bike_id":"88338970-6fd3-491d-b31a-a93eacb1e7c2","system_id":"levelo_inurba_marseille","lat":43.30649,"lon":5.40085,"is_reserved":false,"is_disabled":false,"rental_uris":{"android":"levelo://app?vid=88338970-6fd3-491d-b31a-a93eacb1e7c2","ios":"levelo://app?vid=88338970-6fd3-491d-b31a-a93eacb1e7c2"},"vehicle_type_id":"4","last_reported":1730833598,"current_range_meters":38800,"station_id":"ce4bh112rcd13ifvqda0","pricing_plan_id":"cebpf4jnsgd1na2vs0mg"},{"bike_id":"fbe3f7e4-d7c4-444d-9f29-57814bee6bc7","system_id":"levelo_inurba_marseille","lat":43.28616,"lon":5.35106,"is_reserved":false,"is_disabled":false,"rental_uris":{"android":"levelo://app?vid=fbe3f7e4-d7c4-444d-9f29-57814bee6bc7","ios":"levelo://app?vid=fbe3f7e4-d7c4-444d-9f29-57814bee6bc7"},"vehicle_type_id":"4","last_reported":1730833598,"current_range_meters":7200,"station_id":"ce4bhch2rcd13ifvqeug","pricing_plan_id":"cebpf4jnsgd1na2vs0mg"},{"bike_id":"93a83a5c-0d3d-43a2-be24-e99a92c3575d","system_id":"levelo_inurba_marseille","lat":43.30832,"lon":5.37113,"is_reserved":false,"is_disabled":false,"rental_uris":{"android":"levelo://app?vid=93a83a5c-0d3d-43a2-be24-e99a92c3575d","ios":"levelo://app?vid=93a83a5c-0d3d-43a2-be24-e99a92c3575d"},"vehicle_type_id":"4","last_reported":1730833598,"current_range_meters":11600,"station_id":"ce4bguh2rcd13ifvqckg","pricing_plan_id":"cebpf4jnsgd1na2vs0mg"},{"bike_id":"50ac4f0d-58ac-48b7-819f-23d10ddc6246","system_id":"levelo_inurba_marseille","lat":43.30246,"lon":5.40075,"is_reserved":false,"is_disabled":false,"rental_uris":{"android":"levelo://app?vid=50ac4f0d-58ac-48b7-819f-23d10ddc6246","ios":"levelo://app?vid=50ac4f0d-58ac-48b7-819f-23d10ddc6246"},"vehicle_type_id":"4","last_reported":1730833598,"current_range_meters":38800,"station_id":"ce4bgvh2rcd13ifvqcs0","pricing_plan_id":"cebpf4jnsgd1na2vs0mg"},{"bike_id":"aa528395-73fa-4bfa-8072-bce8b52ee880","system_id":"levelo_inurba_marseille","lat":43.30314,"lon":5.40448,"is_reserved":false,"is_disabled":false,"rental_uris":{"android":"levelo://app?vid=aa528395-73fa-4bfa-8072-bce8b52ee880","ios":"levelo://app?vid=aa528395-73fa-4bfa-8072-bce8b52ee880"},"vehicle_type_id":"4","last_reported":1730833598,"current_range_meters":38800,"station_id":"ce4bh012rcd13ifvqd10","pricing_plan_id":"cebpf4jnsgd1na2vs0mg"},{"bike_id":"6889b108-5c02-448f-a9f4-d65743d9eda9","system_id":"levelo_inurba_marseille","lat":43.29253,"lon":5.38444,"is_reserved":false,"is_disabled":false,"rental_uris":{"android":"levelo://app?vid=6889b108-5c02-448f-a9f4-d65743d9eda9","ios":"levelo://app?vid=6889b108-5c02-448f-a9f4-d65743d9eda9"},"vehicle_type_id":"4","last_reported":1730833598,"current_range_meters":17200,"station_id":"ce4bh692rcd13ifvqea0","pricing_plan_id":"cebpf4jnsgd1na2vs0mg"},{"bike_id":"857a126a-f08a-4279-8523-aaa0a1fe06f3","system_id":"levelo_inurba_marseille","lat":43.29004,"lon":5.35616,"is_reserved":false,"is_disabled":false,"rental_uris":{"android":"levelo://app?vid=857a126a-f08a-4279-8523-aaa0a1fe06f3","ios":"levelo://app?vid=857a126a-f08a-4279-8523-aaa0a1fe06f3"},"vehicle_type_id":"4","last_reported":1730833598,"current_range_meters":38800,"station_id":"ce4bhb92rcd13ifvqen0","pricing_plan_id":"cebpf4jnsgd1na2vs0mg"},{"bike_id":"15e3b73b-2842-47c3-a466-bc855b301df0","system_id":"levelo_inurba_marseille","lat":43.291718,"lon":5.371479,"is_reserved":false,"is_disabled":false,"rental_uris":{"android":"levelo://app?vid=15e3b73b-2842-47c3-a466-bc855b301df0","ios":"levelo://app?vid=15e3b73b-2842-47c3-a466-bc855b301df0"},"vehicle_type_id":"4","last_reported":1730833598,"current_range_meters":36400,"station_id":"ce4bha92rcd13ifvqeh0","pricing_plan_id":"cebpf4jnsgd1na2vs0mg"},{"bike_id":"9baafc20-eb9b-4933-8ebc-71eff2213a16","system_id":"levelo_inurba_marseille","lat":43.32365,"lon":5.38887,"is_reserved":false,"is_disabled":false,"rental_uris":{"android":"levelo://app?vid=9baafc20-eb9b-4933-8ebc-71eff2213a16","ios":"levelo://app?vid=9baafc20-eb9b-4933-8ebc-71eff2213a16"},"vehicle_type_id":"4","last_reported":1730833598,"current_range_meters":20800,"station_id":"ce4bhqp2rcd13ifvqhog","pricing_plan_id":"cebpf4jnsgd1na2vs0mg"},{"bike_id":"11d3eadb-31e4-4c0b-9661-0df41629177c","system_id":"levelo_inurba_marseille","lat":43.29868,"lon":5.39737,"is_reserved":false,"is_disabled":false,"rental_uris":{"android":"levelo://app?vid=11d3eadb-31e4-4c0b-9661-0df41629177c","ios":"levelo://app?vid=11d3eadb-31e4-4c0b-9661-0df41629177c"},"vehicle_type_id":"4","last_reported":1730833598,"current_range_meters":40000,"station_id":"ce4bh0h2rcd13ifvqd50","pricing_plan_id":"cebpf4jnsgd1na2vs0mg"},{"bike_id":"ae0ba1ad-b83e-44a6-9a5b-4fef523048ad","system_id":"levelo_inurba_marseille","lat":43.24654,"lon":5.38898,"is_reserved":false,"is_disabled":false,"rental_uris":{"android":"levelo://app?vid=ae0ba1ad-b83e-44a6-9a5b-4fef523048ad","ios":"levelo://app?vid=ae0ba1ad-b83e-44a6-9a5b-4fef523048ad"},"vehicle_type_id":"4","last_reported":1730833598,"current_range_meters":38800,"station_id":"ce4bhg12rcd13ifvqf60","pricing_plan_id":"cebpf4jnsgd1na2vs0mg"},{"bike_id":"948160dd-bdb2-4a10-a11c-20ead003ef64","system_id":"levelo_inurba_marseille","lat":43.28166,"lon":5.4266,"is_reserved":false,"is_disabled":false,"rental_uris":{"android":"levelo://app?vid=948160dd-bdb2-4a10-a11c-20ead003ef64","ios":"levelo://app?vid=948160dd-bdb2-4a10-a11c-20ead003ef64"},"vehicle_type_id":"4","last_reported":1730833598,"current_range_meters":32800,"station_id":"ce4bhnh2rcd13ifvqgug","pricing_plan_id":"cebpf4jnsgd1na2vs0mg"},{"bike_id":"f6b43df0-fe7d-468a-9bd7-2c5d08ec64ae","system_id":"levelo_inurba_marseille","lat":43.29004,"lon":5.35617,"is_reserved":false,"is_disabled":false,"rental_uris":{"android":"levelo://app?vid=f6b43df0-fe7d-468a-9bd7-2c5d08ec64ae","ios":"levelo://app?vid=f6b43df0-fe7d-468a-9bd7-2c5d08ec64ae"},"vehicle_type_id":"4","last_reported":1730833598,"current_range_meters":38800,"station_id":"ce4bhb92rcd13ifvqen0","pricing_plan_id":"cebpf4jnsgd1na2vs0mg"},{"bike_id":"661a3d8f-e8fa-4387-8edb-a2c534aef42f","system_id":"levelo_inurba_marseille","lat":43.30084,"lon":5.39082,"is_reserved":false,"is_disabled":false,"rental_uris":{"android":"levelo://app?vid=661a3d8f-e8fa-4387-8edb-a2c534aef42f","ios":"levelo://app?vid=661a3d8f-e8fa-4387-8edb-a2c534aef42f"},"vehicle_type_id":"4","last_reported":1730833598,"current_range_meters":10000,"station_id":"ce4bh192rcd13ifvqdb0","pricing_plan_id":"cebpf4jnsgd1na2vs0mg"},{"bike_id":"27c3638c-e2bf-40d7-977a-65bcc667c6f9","system_id":"levelo_inurba_marseille","lat":43.320495,"lon":5.415435,"is_reserved":false,"is_disabled":false,"rental_uris":{"android":"levelo://app?vid=27c3638c-e2bf-40d7-977a-65bcc667c6f9","ios":"levelo://app?vid=27c3638c-e2bf-40d7-977a-65bcc667c6f9"},"vehicle_type_id":"4","last_reported":1730833598,"current_range_meters":17600,"station_id":"ce4bhq92rcd13ifvqhkg","pricing_plan_id":"cebpf4jnsgd1na2vs0mg"},{"bike_id":"ae0b390c-a9c9-4b2a-8f82-406c4e21cdcd","system_id":"levelo_inurba_marseille","lat":43.29736,"lon":5.35951,"is_reserved":false,"is_disabled":false,"rental_uris":{"android":"levelo://app?vid=ae0b390c-a9c9-4b2a-8f82-406c4e21cdcd","ios":"levelo://app?vid=ae0b390c-a9c9-4b2a-8f82-406c4e21cdcd"},"vehicle_type_id":"4","last_reported":1730833598,"current_range_meters":16800,"station_id":"","pricing_plan_id":"cebpf4jnsgd1na2vs0mg"},{"bike_id":"08896e92-0fc4-46d9-b64d-06fd381dcb52","system_id":"levelo_inurba_marseille","lat":43.29535,"lon":5.38547,"is_reserved":false,"is_disabled":false,"rental_uris":{"android":"levelo://app?vid=08896e92-0fc4-46d9-b64d-06fd381dcb52","ios":"levelo://app?vid=08896e92-0fc4-46d9-b64d-06fd381dcb52"},"vehicle_type_id":"4","last_reported":1730833598,"current_range_meters":8000,"station_id":"ce4bgih2rcd13ifvqba0","pricing_plan_id":"cebpf4jnsgd1na2vs0mg"},{"bike_id":"02b1ffc9-d7dd-41b3-83f1-f8ae6925f565","system_id":"levelo_inurba_marseille","lat":43.28857,"lon":5.39324,"is_reserved":false,"is_disabled":false,"rental_uris":{"android":"levelo://app?vid=02b1ffc9-d7dd-41b3-83f1-f8ae6925f565","ios":"levelo://app?vid=02b1ffc9-d7dd-41b3-83f1-f8ae6925f565"},"vehicle_type_id":"4","last_reported":1730833598,"current_range_meters":38800,"station_id":"ce4bh2p2rcd13ifvqdi0","pricing_plan_id":"cebpf4jnsgd1na2vs0mg"},{"bike_id":"d74360a7-cce2-4782-982b-e9593aa5d07d","system_id":"levelo_inurba_marseille","lat":43.31321,"lon":5.39695,"is_reserved":false,"is_disabled":false,"rental_uris":{"android":"levelo://app?vid=d74360a7-cce2-4782-982b-e9593aa5d07d","ios":"levelo://app?vid=d74360a7-cce2-4782-982b-e9593aa5d07d"},"vehicle_type_id":"4","last_reported":1730833598,"current_range_meters":36400,"station_id":"ce4bgvp2rcd13ifvqcu0","pricing_plan_id":"cebpf4jnsgd1na2vs0mg"},{"bike_id":"178fe328-80af-4d1e-acb2-a832849dd19a","system_id":"levelo_inurba_marseille","lat":43.29005,"lon":5.3562,"is_reserved":false,"is_disabled":false,"rental_uris":{"android":"levelo://app?vid=178fe328-80af-4d1e-acb2-a832849dd19a","ios":"levelo://app?vid=178fe328-80af-4d1e-acb2-a832849dd19a"},"vehicle_type_id":"4","last_reported":1730833598,"current_range_meters":22400,"station_id":"ce4bhb92rcd13ifvqen0","pricing_plan_id":"cebpf4jnsgd1na2vs0mg"},{"bike_id":"3e7b020f-1a1c-4d8f-b51a-584b91b69cb2","system_id":"levelo_inurba_marseille","lat":43.31107,"lon":5.37768,"is_reserved":false,"is_disabled":false,"rental_uris":{"android":"levelo://app?vid=3e7b020f-1a1c-4d8f-b51a-584b91b69cb2","ios":"levelo://app?vid=3e7b020f-1a1c-4d8f-b51a-584b91b69cb2"},"vehicle_type_id":"4","last_reported":1730833598,"current_range_meters":38800,"station_id":"ce4bgt92rcd13ifvqcg0","pricing_plan_id":"cebpf4jnsgd1na2vs0mg"},{"bike_id":"4fd336fb-ec63-4d09-84d4-45cf143f4508","system_id":"levelo_inurba_marseille","lat":43.3133,"lon":5.39705,"is_reserved":false,"is_disabled":false,"rental_uris":{"android":"levelo://app?vid=4fd336fb-ec63-4d09-84d4-45cf143f4508","ios":"levelo://app?vid=4fd336fb-ec63-4d09-84d4-45cf143f4508"},"vehicle_type_id":"4","last_reported":1730833598,"current_range_meters":37600,"station_id":"ce4bgvp2rcd13ifvqcu0","pricing_plan_id":"cebpf4jnsgd1na2vs0mg"},{"bike_id":"bc3c9e11-ec6e-40c0-b0cb-b26c60d25802","system_id":"levelo_inurba_marseille","lat":43.29189,"lon":5.35806,"is_reserved":false,"is_disabled":false,"rental_uris":{"android":"levelo://app?vid=bc3c9e11-ec6e-40c0-b0cb-b26c60d25802","ios":"levelo://app?vid=bc3c9e11-ec6e-40c0-b0cb-b26c60d25802"},"vehicle_type_id":"4","last_reported":1730833598,"current_range_meters":10800,"station_id":"ce4bhb12rcd13ifvqel0","pricing_plan_id":"cebpf4jnsgd1na2vs0mg"},{"bike_id":"a9cd540c-f0da-4b6a-afd9-8039466b588c","system_id":"levelo_inurba_marseille","lat":43.28337,"lon":5.38117,"is_reserved":false,"is_disabled":false,"rental_uris":{"android":"levelo://app?vid=a9cd540c-f0da-4b6a-afd9-8039466b588c","ios":"levelo://app?vid=a9cd540c-f0da-4b6a-afd9-8039466b588c"},"vehicle_type_id":"4","last_reported":1730833598,"current_range_meters":38800,"station_id":"ce4bh412rcd13ifvqdr0","pricing_plan_id":"cebpf4jnsgd1na2vs0mg"},{"bike_id":"f649428b-98b1-435f-ba5e-682e5b3a98c9","system_id":"levelo_inurba_marseille","lat":43.30325,"lon":5.40449,"is_reserved":false,"is_disabled":false,"rental_uris":{"android":"levelo://app?vid=f649428b-98b1-435f-ba5e-682e5b3a98c9","ios":"levelo://app?vid=f649428b-98b1-435f-ba5e-682e5b3a98c9"},"vehicle_type_id":"4","last_reported":1730833598,"current_range_meters":9200,"station_id":"ce4bh012rcd13ifvqd10","pricing_plan_id":"cebpf4jnsgd1na2vs0mg"},{"bike_id":"8380acc5-8887-40d3-a666-09f9e6729291","system_id":"levelo_inurba_marseille","lat":43.26955,"lon":5.38621,"is_reserved":false,"is_disabled":false,"rental_uris":{"android":"levelo://app?vid=8380acc5-8887-40d3-a666-09f9e6729291","ios":"levelo://app?vid=8380acc5-8887-40d3-a666-09f9e6729291"},"vehicle_type_id":"4","last_reported":1730833598,"current_range_meters":11600,"station_id":"ce4bhh92rcd13ifvqfh0","pricing_plan_id":"cebpf4jnsgd1na2vs0mg"},{"bike_id":"fb3dfc3d-c52f-4831-a711-d169d8978519","system_id":"levelo_inurba_marseille","lat":43.2861,"lon":5.3707,"is_reserved":false,"is_disabled":false,"rental_uris":{"android":"levelo://app?vid=fb3dfc3d-c52f-4831-a711-d169d8978519","ios":"levelo://app?vid=fb3dfc3d-c52f-4831-a711-d169d8978519"},"vehicle_type_id":"4","last_reported":1730833598,"current_range_meters":15200,"station_id":"ce4bht12rcd13ifvqi60","pricing_plan_id":"cebpf4jnsgd1na2vs0mg"},{"bike_id":"d8ae0ddd-b6b6-4115-8ca9-406f76ab8048","system_id":"levelo_inurba_marseille","lat":43.30777,"lon":5.37655,"is_reserved":false,"is_disabled":false,"rental_uris":{"android":"levelo://app?vid=d8ae0ddd-b6b6-4115-8ca9-406f76ab8048","ios":"levelo://app?vid=d8ae0ddd-b6b6-4115-8ca9-406f76ab8048"},"vehicle_type_id":"4","last_reported":1730833598,"current_range_meters":38800,"station_id":"ce4bgv92rcd13ifvqcq0","pricing_plan_id":"cebpf4jnsgd1na2vs0mg"},{"bike_id":"20adb70f-a73a-4b0d-8148-3fe9fdf08539","system_id":"levelo_inurba_marseille","lat":43.32361,"lon":5.38887,"is_reserved":false,"is_disabled":false,"rental_uris":{"android":"levelo://app?vid=20adb70f-a73a-4b0d-8148-3fe9fdf08539","ios":"levelo://app?vid=20adb70f-a73a-4b0d-8148-3fe9fdf08539"},"vehicle_type_id":"4","last_reported":1730833598,"current_range_meters":24000,"station_id":"ce4bhqp2rcd13ifvqhog","pricing_plan_id":"cebpf4jnsgd1na2vs0mg"},{"bike_id":"6ac9de7d-e5be-4c5e-85b2-c763290dc61e","system_id":"levelo_inurba_marseille","lat":43.28151,"lon":5.42647,"is_reserved":false,"is_disabled":false,"rental_uris":{"android":"levelo://app?vid=6ac9de7d-e5be-4c5e-85b2-c763290dc61e","ios":"levelo://app?vid=6ac9de7d-e5be-4c5e-85b2-c763290dc61e"},"vehicle_type_id":"4","last_reported":1730833598,"current_range_meters":29600,"station_id":"ce4bhnh2rcd13ifvqgug","pricing_plan_id":"cebpf4jnsgd1na2vs0mg"},{"bike_id":"1a8c5844-8cbe-4fd1-a7f4-7b0efe210728","system_id":"levelo_inurba_marseille","lat":43.29176,"lon":5.42709,"is_reserved":false,"is_disabled":false,"rental_uris":{"android":"levelo://app?vid=1a8c5844-8cbe-4fd1-a7f4-7b0efe210728","ios":"levelo://app?vid=1a8c5844-8cbe-4fd1-a7f4-7b0efe210728"},"vehicle_type_id":"4","last_reported":1730833598,"current_range_meters":16400,"station_id":"","pricing_plan_id":"cebpf4jnsgd1na2vs0mg"},{"bike_id":"f2dea6ea-89be-4ccc-9c11-3623298672a0","system_id":"levelo_inurba_marseille","lat":43.30217,"lon":5.39454,"is_reserved":false,"is_disabled":false,"rental_uris":{"android":"levelo://app?vid=f2dea6ea-89be-4ccc-9c11-3623298672a0","ios":"levelo://app?vid=f2dea6ea-89be-4ccc-9c11-3623298672a0"},"vehicle_type_id":"4","last_reported":1730833598,"current_range_meters":38800,"station_id":"ce4bh0p2rcd13ifvqd70","pricing_plan_id":"cebpf4jnsgd1na2vs0mg"},{"bike_id":"0ec795bd-c223-4731-8eaf-92e4672b3174","system_id":"levelo_inurba_marseille","lat":43.26945,"lon":5.38647,"is_reserved":false,"is_disabled":false,"rental_uris":{"android":"levelo://app?vid=0ec795bd-c223-4731-8eaf-92e4672b3174","ios":"levelo://app?vid=0ec795bd-c223-4731-8eaf-92e4672b3174"},"vehicle_type_id":"4","last_reported":1730833598,"current_range_meters":22400,"station_id":"ce4bhh92rcd13ifvqfh0","pricing_plan_id":"cebpf4jnsgd1na2vs0mg"},{"bike_id":"e7493c8c-e30f-4d95-ba6d-62bd70522362","system_id":"levelo_inurba_marseille","lat":43.28568,"lon":5.39501,"is_reserved":false,"is_disabled":false,"rental_uris":{"android":"levelo://app?vid=e7493c8c-e30f-4d95-ba6d-62bd70522362","ios":"levelo://app?vid=e7493c8c-e30f-4d95-ba6d-62bd70522362"},"vehicle_type_id":"4","last_reported":1730833598,"current_range_meters":8000,"station_id":"ce4bh292rcd13ifvqdg0","pricing_plan_id":"cebpf4jnsgd1na2vs0mg"},{"bike_id":"c5b67347-e546-44b1-80dc-4daddfb53de1","system_id":"levelo_inurba_marseille","lat":43.30988,"lon":5.41731,"is_reserved":false,"is_disabled":false,"rental_uris":{"android":"levelo://app?vid=c5b67347-e546-44b1-80dc-4daddfb53de1","ios":"levelo://app?vid=c5b67347-e546-44b1-80dc-4daddfb53de1"},"vehicle_type_id":"4","last_reported":1730833598,"current_range_meters":18800,"station_id":"","pricing_plan_id":"cebpf4jnsgd1na2vs0mg"},{"bike_id":"76130abd-5071-49d9-8daf-2fb68f61953a","system_id":"levelo_inurba_marseille","lat":43.25584,"lon":5.3824,"is_reserved":false,"is_disabled":false,"rental_uris":{"android":"levelo://app?vid=76130abd-5071-49d9-8daf-2fb68f61953a","ios":"levelo://app?vid=76130abd-5071-49d9-8daf-2fb68f61953a"},"vehicle_type_id":"4","last_reported":1730833598,"current_range_meters":8400,"station_id":"ce4bhih2rcd13ifvqfs0","pricing_plan_id":"cebpf4jnsgd1na2vs0mg"},{"bike_id":"117a9406-128e-4323-b245-b2932b759e2b","system_id":"levelo_inurba_marseille","lat":43.33019,"lon":5.39042,"is_reserved":false,"is_disabled":false,"rental_uris":{"android":"levelo://app?vid=117a9406-128e-4323-b245-b2932b759e2b","ios":"levelo://app?vid=117a9406-128e-4323-b245-b2932b759e2b"},"vehicle_type_id":"4","last_reported":1730833598,"current_range_meters":38800,"station_id":"ce4bhr92rcd13ifvqhrg","pricing_plan_id":"cebpf4jnsgd1na2vs0mg"},{"bike_id":"480ab0fc-510b-4bf6-a2cb-680840ee6c56","system_id":"levelo_inurba_marseille","lat":43.32048,"lon":5.4156,"is_reserved":false,"is_disabled":false,"rental_uris":{"android":"levelo://app?vid=480ab0fc-510b-4bf6-a2cb-680840ee6c56","ios":"levelo://app?vid=480ab0fc-510b-4bf6-a2cb-680840ee6c56"},"vehicle_type_id":"4","last_reported":1730833598,"current_range_meters":16000,"station_id":"ce4bhq92rcd13ifvqhkg","pricing_plan_id":"cebpf4jnsgd1na2vs0mg"},{"bike_id":"23281665-b44e-41f7-8c96-bf451f0b625c","system_id":"levelo_inurba_marseille","lat":43.306042,"lon":5.372269,"is_reserved":false,"is_disabled":false,"rental_uris":{"android":"levelo://app?vid=23281665-b44e-41f7-8c96-bf451f0b625c","ios":"levelo://app?vid=23281665-b44e-41f7-8c96-bf451f0b625c"},"vehicle_type_id":"4","last_reported":1730833598,"current_range_meters":18800,"station_id":"ce4bgqh2rcd13ifvqc4g","pricing_plan_id":"cebpf4jnsgd1na2vs0mg"},{"bike_id":"a0725e72-ae31-4a27-aabc-fcd4a320aae2","system_id":"levelo_inurba_marseille","lat":43.28267,"lon":5.35066,"is_reserved":false,"is_disabled":false,"rental_uris":{"android":"levelo://app?vid=a0725e72-ae31-4a27-aabc-fcd4a320aae2","ios":"levelo://app?vid=a0725e72-ae31-4a27-aabc-fcd4a320aae2"},"vehicle_type_id":"4","last_reported":1730833598,"current_range_meters":17600,"station_id":"ce4bhbp2rcd13ifvqerg","pricing_plan_id":"cebpf4jnsgd1na2vs0mg"},{"bike_id":"57e2956a-7ce9-4d24-8ec3-762c3e522393","system_id":"levelo_inurba_marseille","lat":43.29167,"lon":5.37171,"is_reserved":false,"is_disabled":false,"rental_uris":{"android":"levelo://app?vid=57e2956a-7ce9-4d24-8ec3-762c3e522393","ios":"levelo://app?vid=57e2956a-7ce9-4d24-8ec3-762c3e522393"},"vehicle_type_id":"4","last_reported":1730833598,"current_range_meters":26800,"station_id":"ce4bha92rcd13ifvqeh0","pricing_plan_id":"cebpf4jnsgd1na2vs0mg"},{"bike_id":"4910a9d6-b23f-4b67-b7a4-73680bbd7fd6","system_id":"levelo_inurba_marseille","lat":43.28662,"lon":5.36353,"is_reserved":false,"is_disabled":false,"rental_uris":{"android":"levelo://app?vid=4910a9d6-b23f-4b67-b7a4-73680bbd7fd6","ios":"levelo://app?vid=4910a9d6-b23f-4b67-b7a4-73680bbd7fd6"},"vehicle_type_id":"4","last_reported":1730833598,"current_range_meters":18800,"station_id":"ce4bhah2rcd13ifvqej0","pricing_plan_id":"cebpf4jnsgd1na2vs0mg"},{"bike_id":"6b3e9c27-d216-4dd1-821f-8fef3ddccc5e","system_id":"levelo_inurba_marseille","lat":43.31327,"lon":5.39697,"is_reserved":false,"is_disabled":false,"rental_uris":{"android":"levelo://app?vid=6b3e9c27-d216-4dd1-821f-8fef3ddccc5e","ios":"levelo://app?vid=6b3e9c27-d216-4dd1-821f-8fef3ddccc5e"},"vehicle_type_id":"4","last_reported":1730833598,"current_range_meters":37600,"station_id":"ce4bgvp2rcd13ifvqcu0","pricing_plan_id":"cebpf4jnsgd1na2vs0mg"},{"bike_id":"0d71568f-1223-41bc-9dbf-6d1cc76a336e","system_id":"levelo_inurba_marseille","lat":43.269455,"lon":5.402601,"is_reserved":false,"is_disabled":false,"rental_uris":{"android":"levelo://app?vid=0d71568f-1223-41bc-9dbf-6d1cc76a336e","ios":"levelo://app?vid=0d71568f-1223-41bc-9dbf-6d1cc76a336e"},"vehicle_type_id":"4","last_reported":1730833598,"current_range_meters":19200,"station_id":"cjm6bp8fraef2m0cb0m0","pricing_plan_id":"cebpf4jnsgd1na2vs0mg"},{"bike_id":"a46e9747-f73d-452d-b054-3d4e2540656c","system_id":"levelo_inurba_marseille","lat":43.29531,"lon":5.38545,"is_reserved":false,"is_disabled":false,"rental_uris":{"android":"levelo://app?vid=a46e9747-f73d-452d-b054-3d4e2540656c","ios":"levelo://app?vid=a46e9747-f73d-452d-b054-3d4e2540656c"},"vehicle_type_id":"4","last_reported":1730833598,"current_range_meters":26000,"station_id":"ce4bgih2rcd13ifvqba0","pricing_plan_id":"cebpf4jnsgd1na2vs0mg"},{"bike_id":"586034bf-2863-4e0d-84a6-d938b199cbc9","system_id":"levelo_inurba_marseille","lat":43.28472,"lon":5.38411,"is_reserved":false,"is_disabled":false,"rental_uris":{"android":"levelo://app?vid=586034bf-2863-4e0d-84a6-d938b199cbc9","ios":"levelo://app?vid=586034bf-2863-4e0d-84a6-d938b199cbc9"},"vehicle_type_id":"4","last_reported":1730833598,"current_range_meters":11200,"station_id":"ce4bh512rcd13ifvqe3g","pricing_plan_id":"cebpf4jnsgd1na2vs0mg"},{"bike_id":"fad21b98-4cf4-4eed-b682-c861c72dffc1","system_id":"levelo_inurba_marseille","lat":43.24645,"lon":5.38893,"is_reserved":false,"is_disabled":false,"rental_uris":{"android":"levelo://app?vid=fad21b98-4cf4-4eed-b682-c861c72dffc1","ios":"levelo://app?vid=fad21b98-4cf4-4eed-b682-c861c72dffc1"},"vehicle_type_id":"4","last_reported":1730833598,"current_range_meters":38800,"station_id":"ce4bhg12rcd13ifvqf60","pricing_plan_id":"cebpf4jnsgd1na2vs0mg"},{"bike_id":"dd9e661c-38ec-4bb4-8021-2c2cf5b86b1e","system_id":"levelo_inurba_marseille","lat":43.28861,"lon":5.39321,"is_reserved":false,"is_disabled":false,"rental_uris":{"android":"levelo://app?vid=dd9e661c-38ec-4bb4-8021-2c2cf5b86b1e","ios":"levelo://app?vid=dd9e661c-38ec-4bb4-8021-2c2cf5b86b1e"},"vehicle_type_id":"4","last_reported":1730833598,"current_range_meters":38800,"station_id":"ce4bh2p2rcd13ifvqdi0","pricing_plan_id":"cebpf4jnsgd1na2vs0mg"},{"bike_id":"0903b032-8294-4df3-8559-3bcc9639e961","system_id":"levelo_inurba_marseille","lat":43.28156,"lon":5.42649,"is_reserved":false,"is_disabled":false,"rental_uris":{"android":"levelo://app?vid=0903b032-8294-4df3-8559-3bcc9639e961","ios":"levelo://app?vid=0903b032-8294-4df3-8559-3bcc9639e961"},"vehicle_type_id":"4","last_reported":1730833598,"current_range_meters":22800,"station_id":"ce4bhnh2rcd13ifvqgug","pricing_plan_id":"cebpf4jnsgd1na2vs0mg"},{"bike_id":"b5830c1f-0836-43b2-bad3-8dc10ae8eb7c","system_id":"levelo_inurba_marseille","lat":43.3376,"lon":5.37458,"is_reserved":false,"is_disabled":false,"rental_uris":{"android":"levelo://app?vid=b5830c1f-0836-43b2-bad3-8dc10ae8eb7c","ios":"levelo://app?vid=b5830c1f-0836-43b2-bad3-8dc10ae8eb7c"},"vehicle_type_id":"4","last_reported":1730833598,"current_range_meters":37600,"station_id":"","pricing_plan_id":"cebpf4jnsgd1na2vs0mg"},{"bike_id":"ccc4dc9d-dd98-47b5-a7bf-f27a79b16b12","system_id":"levelo_inurba_marseille","lat":43.29421,"lon":5.38631,"is_reserved":false,"is_disabled":false,"rental_uris":{"android":"levelo://app?vid=ccc4dc9d-dd98-47b5-a7bf-f27a79b16b12","ios":"levelo://app?vid=ccc4dc9d-dd98-47b5-a7bf-f27a79b16b12"},"vehicle_type_id":"4","last_reported":1730833598,"current_range_meters":31200,"station_id":"ce4bh2h2rcd13ifvqdh0","pricing_plan_id":"cebpf4jnsgd1na2vs0mg"},{"bike_id":"321e434c-d7d6-44d4-8d83-3391eaa2db1c","system_id":"levelo_inurba_marseille","lat":43.21252,"lon":5.3537,"is_reserved":false,"is_disabled":false,"rental_uris":{"android":"levelo://app?vid=321e434c-d7d6-44d4-8d83-3391eaa2db1c","ios":"levelo://app?vid=321e434c-d7d6-44d4-8d83-3391eaa2db1c"},"vehicle_type_id":"4","last_reported":1730833598,"current_range_meters":16000,"station_id":"","pricing_plan_id":"cebpf4jnsgd1na2vs0mg"},{"bike_id":"4d7bc299-c861-4d40-a343-7df6e45cb7de","system_id":"levelo_inurba_marseille","lat":43.29198,"lon":5.39321,"is_reserved":false,"is_disabled":false,"rental_uris":{"android":"levelo://app?vid=4d7bc299-c861-4d40-a343-7df6e45cb7de","ios":"levelo://app?vid=4d7bc299-c861-4d40-a343-7df6e45cb7de"},"vehicle_type_id":"4","last_reported":1730833598,"current_range_meters":38800,"station_id":"ce4bh192rcd13ifvqdd0","pricing_plan_id":"cebpf4jnsgd1na2vs0mg"},{"bike_id":"106ecb85-b008-4043-bb39-19a90b8e3719","system_id":"levelo_inurba_marseille","lat":43.2803,"lon":5.36952,"is_reserved":false,"is_disabled":false,"rental_uris":{"android":"levelo://app?vid=106ecb85-b008-4043-bb39-19a90b8e3719","ios":"levelo://app?vid=106ecb85-b008-4043-bb39-19a90b8e3719"},"vehicle_type_id":"4","last_reported":1730833598,"current_range_meters":38000,"station_id":"ce4bha12rcd13ifvqef0","pricing_plan_id":"cebpf4jnsgd1na2vs0mg"},{"bike_id":"c33f84e3-a974-4ca1-b641-171b1fd2a183","system_id":"levelo_inurba_marseille","lat":43.3172,"lon":5.37735,"is_reserved":false,"is_disabled":false,"rental_uris":{"android":"levelo://app?vid=c33f84e3-a974-4ca1-b641-171b1fd2a183","ios":"levelo://app?vid=c33f84e3-a974-4ca1-b641-171b1fd2a183"},"vehicle_type_id":"4","last_reported":1730833598,"current_range_meters":8000,"station_id":"ce4bgth2rcd13ifvqch0","pricing_plan_id":"cebpf4jnsgd1na2vs0mg"},{"bike_id":"fcfcc45c-7138-4b1d-9882-551eb7b2591b","system_id":"levelo_inurba_marseille","lat":43.29514,"lon":5.39406,"is_reserved":false,"is_disabled":false,"rental_uris":{"android":"levelo://app?vid=fcfcc45c-7138-4b1d-9882-551eb7b2591b","ios":"levelo://app?vid=fcfcc45c-7138-4b1d-9882-551eb7b2591b"},"vehicle_type_id":"4","last_reported":1730833598,"current_range_meters":38800,"station_id":"ce4bh292rcd13ifvqdf0","pricing_plan_id":"cebpf4jnsgd1na2vs0mg"},{"bike_id":"9b59d6da-0c86-4620-9b90-0ca3da584fde","system_id":"levelo_inurba_marseille","lat":43.28701,"lon":5.37382,"is_reserved":false,"is_disabled":false,"rental_uris":{"android":"levelo://app?vid=9b59d6da-0c86-4620-9b90-0ca3da584fde","ios":"levelo://app?vid=9b59d6da-0c86-4620-9b90-0ca3da584fde"},"vehicle_type_id":"4","last_reported":1730833598,"current_range_meters":19600,"station_id":"ce4bh3p2rcd13ifvqdq0","pricing_plan_id":"cebpf4jnsgd1na2vs0mg"},{"bike_id":"c7406464-0e2a-4501-8e72-553a2a5faea8","system_id":"levelo_inurba_marseille","lat":43.27943,"lon":5.41047,"is_reserved":false,"is_disabled":false,"rental_uris":{"android":"levelo://app?vid=c7406464-0e2a-4501-8e72-553a2a5faea8","ios":"levelo://app?vid=c7406464-0e2a-4501-8e72-553a2a5faea8"},"vehicle_type_id":"4","last_reported":1730833598,"current_range_meters":38800,"station_id":"ce4bhnp2rcd13ifvqh0g","pricing_plan_id":"cebpf4jnsgd1na2vs0mg"},{"bike_id":"6be2ee82-fbff-480b-9fc5-222b33e58bf1","system_id":"levelo_inurba_marseille","lat":43.29025,"lon":5.38652,"is_reserved":false,"is_disabled":false,"rental_uris":{"android":"levelo://app?vid=6be2ee82-fbff-480b-9fc5-222b33e58bf1","ios":"levelo://app?vid=6be2ee82-fbff-480b-9fc5-222b33e58bf1"},"vehicle_type_id":"4","last_reported":1730833598,"current_range_meters":16000,"station_id":"ce4bh4p2rcd13ifvqe0g","pricing_plan_id":"cebpf4jnsgd1na2vs0mg"},{"bike_id":"c136cff0-dafb-428e-8ff0-fa4f96c6c36f","system_id":"levelo_inurba_marseille","lat":43.2844,"lon":5.39184,"is_reserved":false,"is_disabled":false,"rental_uris":{"android":"levelo://app?vid=c136cff0-dafb-428e-8ff0-fa4f96c6c36f","ios":"levelo://app?vid=c136cff0-dafb-428e-8ff0-fa4f96c6c36f"},"vehicle_type_id":"4","last_reported":1730833598,"current_range_meters":37600,"station_id":"ce4bhoh2rcd13ifvqh5g","pricing_plan_id":"cebpf4jnsgd1na2vs0mg"},{"bike_id":"33c32440-9fcd-4ca4-b3f0-310aed4b3c9c","system_id":"levelo_inurba_marseille","lat":43.23967,"lon":5.36631,"is_reserved":false,"is_disabled":false,"rental_uris":{"android":"levelo://app?vid=33c32440-9fcd-4ca4-b3f0-310aed4b3c9c","ios":"levelo://app?vid=33c32440-9fcd-4ca4-b3f0-310aed4b3c9c"},"vehicle_type_id":"4","last_reported":1730833598,"current_range_meters":34000,"station_id":"ce4bhi12rcd13ifvqfp0","pricing_plan_id":"cebpf4jnsgd1na2vs0mg"},{"bike_id":"781127c0-877a-4fe9-aa66-f553bb647199","system_id":"levelo_inurba_marseille","lat":43.29263,"lon":5.3844,"is_reserved":false,"is_disabled":false,"rental_uris":{"android":"levelo://app?vid=781127c0-877a-4fe9-aa66-f553bb647199","ios":"levelo://app?vid=781127c0-877a-4fe9-aa66-f553bb647199"},"vehicle_type_id":"4","last_reported":1730833598,"current_range_meters":3600,"station_id":"ce4bh692rcd13ifvqea0","pricing_plan_id":"cebpf4jnsgd1na2vs0mg"},{"bike_id":"4514f5d9-9d66-4a2c-a556-2abecce17131","system_id":"levelo_inurba_marseille","lat":43.31759,"lon":5.3902,"is_reserved":false,"is_disabled":false,"rental_uris":{"android":"levelo://app?vid=4514f5d9-9d66-4a2c-a556-2abecce17131","ios":"levelo://app?vid=4514f5d9-9d66-4a2c-a556-2abecce17131"},"vehicle_type_id":"4","last_reported":1730833598,"current_range_meters":38800,"station_id":"ce4bhqp2rcd13ifvqhng","pricing_plan_id":"cebpf4jnsgd1na2vs0mg"},{"bike_id":"0f79c661-41f1-4c25-9980-80273be4ccf3","system_id":"levelo_inurba_marseille","lat":43.29863,"lon":5.39732,"is_reserved":false,"is_disabled":false,"rental_uris":{"android":"levelo://app?vid=0f79c661-41f1-4c25-9980-80273be4ccf3","ios":"levelo://app?vid=0f79c661-41f1-4c25-9980-80273be4ccf3"},"vehicle_type_id":"4","last_reported":1730833598,"current_range_meters":19200,"station_id":"ce4bh0h2rcd13ifvqd50","pricing_plan_id":"cebpf4jnsgd1na2vs0mg"},{"bike_id":"3a801cbb-1e2e-46c3-bc85-0c5198b9902c","system_id":"levelo_inurba_marseille","lat":43.26538,"lon":5.3884,"is_reserved":false,"is_disabled":false,"rental_uris":{"android":"levelo://app?vid=3a801cbb-1e2e-46c3-bc85-0c5198b9902c","ios":"levelo://app?vid=3a801cbb-1e2e-46c3-bc85-0c5198b9902c"},"vehicle_type_id":"4","last_reported":1730833598,"current_range_meters":18000,"station_id":"","pricing_plan_id":"cebpf4jnsgd1na2vs0mg"},{"bike_id":"f20cfecf-a992-4464-a384-bad778375481","system_id":"levelo_inurba_marseille","lat":43.29521,"lon":5.44242,"is_reserved":false,"is_disabled":false,"rental_uris":{"android":"levelo://app?vid=f20cfecf-a992-4464-a384-bad778375481","ios":"levelo://app?vid=f20cfecf-a992-4464-a384-bad778375481"},"vehicle_type_id":"4","last_reported":1730833598,"current_range_meters":6000,"station_id":"","pricing_plan_id":"cebpf4jnsgd1na2vs0mg"},{"bike_id":"508618ac-aeb5-4725-852a-f175d0693901","system_id":"levelo_inurba_marseille","lat":43.2953,"lon":5.39398,"is_reserved":false,"is_disabled":false,"rental_uris":{"android":"levelo://app?vid=508618ac-aeb5-4725-852a-f175d0693901","ios":"levelo://app?vid=508618ac-aeb5-4725-852a-f175d0693901"},"vehicle_type_id":"4","last_reported":1730833598,"current_range_meters":25200,"station_id":"ce4bh292rcd13ifvqdf0","pricing_plan_id":"cebpf4jnsgd1na2vs0mg"},{"bike_id":"816fd540-3b14-4e94-9418-ffac8526163b","system_id":"levelo_inurba_marseille","lat":43.29571,"lon":5.39958,"is_reserved":false,"is_disabled":false,"rental_uris":{"android":"levelo://app?vid=816fd540-3b14-4e94-9418-ffac8526163b","ios":"levelo://app?vid=816fd540-3b14-4e94-9418-ffac8526163b"},"vehicle_type_id":"4","last_reported":1730833598,"current_range_meters":8400,"station_id":"ce4bh312rcd13ifvqdj0","pricing_plan_id":"cebpf4jnsgd1na2vs0mg"},{"bike_id":"5f16b02a-9f97-42a7-96e2-fa9faf2243a0","system_id":"levelo_inurba_marseille","lat":43.29262,"lon":5.38438,"is_reserved":false,"is_disabled":false,"rental_uris":{"android":"levelo://app?vid=5f16b02a-9f97-42a7-96e2-fa9faf2243a0","ios":"levelo://app?vid=5f16b02a-9f97-42a7-96e2-fa9faf2243a0"},"vehicle_type_id":"4","last_reported":1730833598,"current_range_meters":27600,"station_id":"ce4bh692rcd13ifvqea0","pricing_plan_id":"cebpf4jnsgd1na2vs0mg"},{"bike_id":"c76bc435-b22c-4ebc-9127-efdbff08625e","system_id":"levelo_inurba_marseille","lat":43.28853,"lon":5.39324,"is_reserved":false,"is_disabled":false,"rental_uris":{"android":"levelo://app?vid=c76bc435-b22c-4ebc-9127-efdbff08625e","ios":"levelo://app?vid=c76bc435-b22c-4ebc-9127-efdbff08625e"},"vehicle_type_id":"4","last_reported":1730833598,"current_range_meters":38800,"station_id":"ce4bh2p2rcd13ifvqdi0","pricing_plan_id":"cebpf4jnsgd1na2vs0mg"},{"bike_id":"0ad4d9f0-5cfb-456e-98d1-4eb95ab7d61c","system_id":"levelo_inurba_marseille","lat":43.317098,"lon":5.377461,"is_reserved":false,"is_disabled":false,"rental_uris":{"android":"levelo://app?vid=0ad4d9f0-5cfb-456e-98d1-4eb95ab7d61c","ios":"levelo://app?vid=0ad4d9f0-5cfb-456e-98d1-4eb95ab7d61c"},"vehicle_type_id":"4","last_reported":1730833598,"current_range_meters":13600,"station_id":"ce4bgth2rcd13ifvqch0","pricing_plan_id":"cebpf4jnsgd1na2vs0mg"},{"bike_id":"4b684e36-c430-40a9-8599-505d135893bf","system_id":"levelo_inurba_marseille","lat":43.316832,"lon":5.404935,"is_reserved":false,"is_disabled":false,"rental_uris":{"android":"levelo://app?vid=4b684e36-c430-40a9-8599-505d135893bf","ios":"levelo://app?vid=4b684e36-c430-40a9-8599-505d135893bf"},"vehicle_type_id":"4","last_reported":1730833598,"current_range_meters":32400,"station_id":"ce4bh012rcd13ifvqd00","pricing_plan_id":"cebpf4jnsgd1na2vs0mg"},{"bike_id":"66365a96-fe3f-49da-921c-a28beb989664","system_id":"levelo_inurba_marseille","lat":43.27947,"lon":5.41041,"is_reserved":false,"is_disabled":false,"rental_uris":{"android":"levelo://app?vid=66365a96-fe3f-49da-921c-a28beb989664","ios":"levelo://app?vid=66365a96-fe3f-49da-921c-a28beb989664"},"vehicle_type_id":"4","last_reported":1730833598,"current_range_meters":38800,"station_id":"ce4bhnp2rcd13ifvqh0g","pricing_plan_id":"cebpf4jnsgd1na2vs0mg"},{"bike_id":"01e1a240-47da-4e13-a4fd-cfc0d52ab45e","system_id":"levelo_inurba_marseille","lat":43.30137,"lon":5.39867,"is_reserved":false,"is_disabled":false,"rental_uris":{"android":"levelo://app?vid=01e1a240-47da-4e13-a4fd-cfc0d52ab45e","ios":"levelo://app?vid=01e1a240-47da-4e13-a4fd-cfc0d52ab45e"},"vehicle_type_id":"4","last_reported":1730833598,"current_range_meters":26800,"station_id":"ce4bh0h2rcd13ifvqd40","pricing_plan_id":"cebpf4jnsgd1na2vs0mg"},{"bike_id":"a88ce35d-ebd9-4974-8850-d6e582776579","system_id":"levelo_inurba_marseille","lat":43.3229,"lon":5.38271,"is_reserved":false,"is_disabled":false,"rental_uris":{"android":"levelo://app?vid=a88ce35d-ebd9-4974-8850-d6e582776579","ios":"levelo://app?vid=a88ce35d-ebd9-4974-8850-d6e582776579"},"vehicle_type_id":"4","last_reported":1730833598,"current_range_meters":22800,"station_id":"ce4bhr12rcd13ifvqhqg","pricing_plan_id":"cebpf4jnsgd1na2vs0mg"},{"bike_id":"0a989068-3c99-4913-9bb9-a59b213e0f93","system_id":"levelo_inurba_marseille","lat":43.30136,"lon":5.3987,"is_reserved":false,"is_disabled":false,"rental_uris":{"android":"levelo://app?vid=0a989068-3c99-4913-9bb9-a59b213e0f93","ios":"levelo://app?vid=0a989068-3c99-4913-9bb9-a59b213e0f93"},"vehicle_type_id":"4","last_reported":1730833598,"current_range_meters":10000,"station_id":"ce4bh0h2rcd13ifvqd40","pricing_plan_id":"cebpf4jnsgd1na2vs0mg"},{"bike_id":"f6ac1b57-434f-4fcb-a5b0-8863ab745a5f","system_id":"levelo_inurba_marseille","lat":43.30328,"lon":5.40439,"is_reserved":false,"is_disabled":false,"rental_uris":{"android":"levelo://app?vid=f6ac1b57-434f-4fcb-a5b0-8863ab745a5f","ios":"levelo://app?vid=f6ac1b57-434f-4fcb-a5b0-8863ab745a5f"},"vehicle_type_id":"4","last_reported":1730833598,"current_range_meters":28400,"station_id":"ce4bh012rcd13ifvqd10","pricing_plan_id":"cebpf4jnsgd1na2vs0mg"},