{"last_updated":1729073381,"ttl":60,"version":"2.2","data":{"bikes":[{"bike_id":"d784866f-4d52-4cfb-98a4-dbebd1c93589","system_id":"levelo_inurba_marseille","lat":43.27946,"lon":5.41051,"is_reserved":false,"is_disabled":false,"rental_uris":{"android":"levelo://app?vid=d784866f-4d52-4cfb-98a4-dbebd1c93589","ios":"levelo://app?vid=d784866f-4d52-4cfb-98a4-dbebd1c93589"},"vehicle_type_id":"4","last_reported":1729073381,"current_range_meters":24400,"station_id":"ce4bhnp2rcd13ifvqh0g","pricing_plan_id":"cebpf4jnsgd1na2vs0mg"},{"bike_id":"d1b16ab4-bfe8-4ac8-9d37-8c15db523546","system_id":"levelo_inurba_marseille","lat":43.28699,"lon":5.39975,"is_reserved":false,"is_disabled":false,"rental_uris":{"android":"levelo://app?vid=d1b16ab4-bfe8-4ac8-9d37-8c15db523546","ios":"levelo://app?vid=d1b16ab4-bfe8-4ac8-9d37-8c15db523546"},"vehicle_type_id":"4","last_reported":1729073381,"current_range_meters":12800,"station_id":"ce4bho92rcd13ifvqh3g","pricing_plan_id":"cebpf4jnsgd1na2vs0mg"},{"bike_id":"66379f2c-c1c8-4683-a252-ed84c21d525c","system_id":"levelo_inurba_marseille","lat":43.27069,"lon":5.42283,"is_reserved":false,"is_disabled":false,"rental_uris":{"android":"levelo://app?vid=66379f2c-c1c8-4683-a252-ed84c21d525c","ios":"levelo://app?vid=66379f2c-c1c8-4683-a252-ed84c21d525c"},"vehicle_type_id":"4","last_reported":1729073381,"current_range_meters":30800,"station_id":"ce4bhk92rcd13ifvqgb0","pricing_plan_id":"cebpf4jnsgd1na2vs0mg"},{"bike_id":"f641c72c-20c3-4738-bbe9-f85d78ff6f71","system_id":"levelo_inurba_marseille","lat":43.28708,"lon":5.39979,"is_reserved":false,"is_disabled":false,"rental_uris":{"android":"levelo://app?vid=f641c72c-20c3-4738-bbe9-f85d78ff6f71","ios":"levelo://app?vid=f641c72c-20c3-4738-bbe9-f85d78ff6f71"},"vehicle_type_id":"4","last_reported":1729073381,"current_range_meters":24400,"station_id":"ce4bho92rcd13ifvqh3g","pricing_plan_id":"cebpf4jnsgd1na2vs0mg"},{"bike_id":"5002f4ca-68aa-4a9a-bbfb-321dee34c575","system_id":"levelo_inurba_marseille","lat":43.25938,"lon":5.40903,"is_reserved":false,"is_disabled":false,"rental_uris":{"android":"levelo://app?vid=5002f4ca-68aa-4a9a-bbfb-321dee34c575","ios":"levelo://app?vid=5002f4ca-68aa-4a9a-bbfb-321dee34c575"},"vehicle_type_id":"4","last_reported":1729073381,"current_range_meters":24800,"station_id":"ce4bhm92rcd13ifvqglg","pricing_plan_id":"cebpf4jnsgd1na2vs0mg"},{"bike_id":"805cf10d-9632-4f1a-9f3a-80b24a4fbac6","system_id":"levelo_inurba_marseille","lat":43.31477,"lon":5.37387,"is_reserved":false,"is_disabled":false,"rental_uris":{"android":"levelo://app?vid=805cf10d-9632-4f1a-9f3a-80b24a4fbac6","ios":"levelo://app?vid=805cf10d-9632-4f1a-9f3a-80b24a4fbac6"},"vehicle_type_id":"4","last_reported":1729073381,"current_range_meters":5600,"station_id":"","pricing_plan_id":"cebpf4jnsgd1na2vs0mg"},{"bike_id":"4e3ae144-e388-4b4f-ac80-a31ee8ee9bdf","system_id":"levelo_inurba_marseille","lat":43.24651,"lon":5.38894,"is_reserved":false,"is_disabled":false,"rental_uris":{"android":"levelo://app?vid=4e3ae144-e388-4b4f-ac80-a31ee8ee9bdf","ios":"levelo://app?vid=4e3ae144-e388-4b4f-ac80-a31ee8ee9bdf"},"vehicle_type_id":"4","last_reported":1729073381,"current_range_meters":37600,"station_id":"ce4bhg12rcd13ifvqf60","pricing_plan_id":"cebpf4jnsgd1na2vs0mg"},{"bike_id":"b355e199-5b55-43c0-b360-d6ed305afb06","system_id":"levelo_inurba_marseille","lat":43.27211,"lon":5.39185,"is_reserved":false,"is_disabled":false,"rental_uris":{"android":"levelo://app?vid=b355e199-5b55-43c0-b360-d6ed305afb06","ios":"levelo://app?vid=b355e199-5b55-43c0-b360-d6ed305afb06"},"vehicle_type_id":"4","last_reported":1729073381,"current_range_meters":17600,"station_id":"","pricing_plan_id":"cebpf4jnsgd1na2vs0mg"},{"bike_id":"979638f0-5c67-408f-bbfd-0de28da1b117","system_id":"levelo_inurba_marseille","lat":43.29728,"lon":5.37684,"is_reserved":false,"is_disabled":false,"rental_uris":{"android":"levelo://app?vid=979638f0-5c67-408f-bbfd-0de28da1b117","ios":"levelo://app?vid=979638f0-5c67-408f-bbfd-0de28da1b117"},"vehicle_type_id":"4","last_reported":1729073381,"current_range_meters":38000,"station_id":"ce4bgkh2rcd13ifvqbl0","pricing_plan_id":"cebpf4jnsgd1na2vs0mg"},{"bike_id":"2ffc924b-8865-401c-a222-d89ab6a75d2d","system_id":"levelo_inurba_marseille","lat":43.29919,"lon":5.37469,"is_reserved":false,"is_disabled":false,"rental_uris":{"android":"levelo://app?vid=2ffc924b-8865-401c-a222-d89ab6a75d2d","ios":"levelo://app?vid=2ffc924b-8865-401c-a222-d89ab6a75d2d"},"vehicle_type_id":"4","last_reported":1729073381,"current_range_meters":31200,"station_id":"ce4bgjh2rcd13ifvqbg0","pricing_plan_id":"cebpf4jnsgd1na2vs0mg"},{"bike_id":"54513a11-cfc0-4602-a901-a052e3e7058a","system_id":"levelo_inurba_marseille","lat":43.3091,"lon":5.36857,"is_reserved":false,"is_disabled":false,"rental_uris":{"android":"levelo://app?vid=54513a11-cfc0-4602-a901-a052e3e7058a","ios":"levelo://app?vid=54513a11-cfc0-4602-a901-a052e3e7058a"},"vehicle_type_id":"4","last_reported":1729073381,"current_range_meters":7200,"station_id":"ce4bgn92rcd13ifvqbvg","pricing_plan_id":"cebpf4jnsgd1na2vs0mg"},{"bike_id":"ba46aced-36ce-4200-a6b9-26c7b5bdf46c","system_id":"levelo_inurba_marseille","lat":43.28373,"lon":5.38638,"is_reserved":false,"is_disabled":false,"rental_uris":{"android":"levelo://app?vid=ba46aced-36ce-4200-a6b9-26c7b5bdf46c","ios":"levelo://app?vid=ba46aced-36ce-4200-a6b9-26c7b5bdf46c"},"vehicle_type_id":"4","last_reported":1729073381,"current_range_meters":25200,"station_id":"ce4bh492rcd13ifvqdvg","pricing_plan_id":"cebpf4jnsgd1na2vs0mg"},{"bike_id":"a317d19b-3e4c-466d-b1f0-ad5b7ee20519","system_id":"levelo_inurba_marseille","lat":43.25941,"lon":5.409,"is_reserved":false,"is_disabled":false,"rental_uris":{"android":"levelo://app?vid=a317d19b-3e4c-466d-b1f0-ad5b7ee20519","ios":"levelo://app?vid=a317d19b-3e4c-466d-b1f0-ad5b7ee20519"},"vehicle_type_id":"4","last_reported":1729073381,"current_range_meters":8400,"station_id":"ce4bhm92rcd13ifvqglg","pricing_plan_id":"cebpf4jnsgd1na2vs0mg"},{"bike_id":"90ad8aa3-d4c1-4cc9-a5d0-132f8a0078b3","system_id":"levelo_inurba_marseille","lat":43.24385,"lon":5.37055,"is_reserved":false,"is_disabled":false,"rental_uris":{"android":"levelo://app?vid=90ad8aa3-d4c1-4cc9-a5d0-132f8a0078b3","ios":"levelo://app?vid=90ad8aa3-d4c1-4cc9-a5d0-132f8a0078b3"},"vehicle_type_id":"4","last_reported":1729073381,"current_range_meters":38800,"station_id":"ce4bhhh2rcd13ifvqfk0","pricing_plan_id":"cebpf4jnsgd1na2vs0mg"},{"bike_id":"f753014a-e02a-4cf3-9817-33330c7ddf67","system_id":"levelo_inurba_marseille","lat":43.27813,"lon":5.40707,"is_reserved":false,"is_disabled":false,"rental_uris":{"android":"levelo://app?vid=f753014a-e02a-4cf3-9817-33330c7ddf67","ios":"levelo://app?vid=f753014a-e02a-4cf3-9817-33330c7ddf67"},"vehicle_type_id":"4","last_reported":1729073381,"current_range_meters":38000,"station_id":"ce4bhnh2rcd13ifvqgtg","pricing_plan_id":"cebpf4jnsgd1na2vs0mg"},{"bike_id":"ac5b74c0-3c5a-4586-b763-b34334216681","system_id":"levelo_inurba_marseille","lat":43.30596,"lon":5.37215,"is_reserved":false,"is_disabled":false,"rental_uris":{"android":"levelo://app?vid=ac5b74c0-3c5a-4586-b763-b34334216681","ios":"levelo://app?vid=ac5b74c0-3c5a-4586-b763-b34334216681"},"vehicle_type_id":"4","last_reported":1729073381,"current_range_meters":14400,"station_id":"ce4bgqh2rcd13ifvqc4g","pricing_plan_id":"cebpf4jnsgd1na2vs0mg"},{"bike_id":"042e5b40-9e97-45f4-843e-ff54af18e3a3","system_id":"levelo_inurba_marseille","lat":43.337444,"lon":5.374475,"is_reserved":false,"is_disabled":false,"rental_uris":{"android":"levelo://app?vid=042e5b40-9e97-45f4-843e-ff54af18e3a3","ios":"levelo://app?vid=042e5b40-9e97-45f4-843e-ff54af18e3a3"},"vehicle_type_id":"4","last_reported":1729073381,"current_range_meters":36400,"station_id":"","pricing_plan_id":"cebpf4jnsgd1na2vs0mg"},{"bike_id":"a8b43039-91c1-4ffb-a2a6-c586c86f4eaf","system_id":"levelo_inurba_marseille","lat":43.24182,"lon":5.39722,"is_reserved":false,"is_disabled":false,"rental_uris":{"android":"levelo://app?vid=a8b43039-91c1-4ffb-a2a6-c586c86f4eaf","ios":"levelo://app?vid=a8b43039-91c1-4ffb-a2a6-c586c86f4eaf"},"vehicle_type_id":"4","last_reported":1729073381,"current_range_meters":22400,"station_id":"ce4bhn12rcd13ifvqgpg","pricing_plan_id":"cebpf4jnsgd1na2vs0mg"},{"bike_id":"32fe9c6d-93de-4119-97f4-f9454a9a5c00","system_id":"levelo_inurba_marseille","lat":43.29856,"lon":5.36284,"is_reserved":false,"is_disabled":false,"rental_uris":{"android":"levelo://app?vid=32fe9c6d-93de-4119-97f4-f9454a9a5c00","ios":"levelo://app?vid=32fe9c6d-93de-4119-97f4-f9454a9a5c00"},"vehicle_type_id":"4","last_reported":1729073381,"current_range_meters":25600,"station_id":"ce4bgpp2rcd13ifvqc3g","pricing_plan_id":"cebpf4jnsgd1na2vs0mg"},{"bike_id":"f9f1d99f-bda4-402b-bf0c-0b72bd29acca","system_id":"levelo_inurba_marseille","lat":43.34148,"lon":5.40902,"is_reserved":false,"is_disabled":false,"rental_uris":{"android":"levelo://app?vid=f9f1d99f-bda4-402b-bf0c-0b72bd29acca","ios":"levelo://app?vid=f9f1d99f-bda4-402b-bf0c-0b72bd29acca"},"vehicle_type_id":"4","last_reported":1729073381,"current_range_meters":28000,"station_id":"ce4bhqh2rcd13ifvqhlg","pricing_plan_id":"cebpf4jnsgd1na2vs0mg"},{"bike_id":"ff3ff89c-90e1-4cea-a563-3676aa9ef84a","system_id":"levelo_inurba_marseille","lat":43.30912,"lon":5.3685,"is_reserved":false,"is_disabled":false,"rental_uris":{"android":"levelo://app?vid=ff3ff89c-90e1-4cea-a563-3676aa9ef84a","ios":"levelo://app?vid=ff3ff89c-90e1-4cea-a563-3676aa9ef84a"},"vehicle_type_id":"4","last_reported":1729073381,"current_range_meters":33200,"station_id":"ce4bgn92rcd13ifvqbvg","pricing_plan_id":"cebpf4jnsgd1na2vs0mg"},{"bike_id":"11bb7ed5-1970-4a73-a794-e55c1684750f","system_id":"levelo_inurba_marseille","lat":43.23149,"lon":5.43713,"is_reserved":false,"is_disabled":false,"rental_uris":{"android":"levelo://app?vid=11bb7ed5-1970-4a73-a794-e55c1684750f","ios":"levelo://app?vid=11bb7ed5-1970-4a73-a794-e55c1684750f"},"vehicle_type_id":"4","last_reported":1729073381,"current_range_meters":38800,"station_id":"ce4bhmp2rcd13ifvqgog","pricing_plan_id":"cebpf4jnsgd1na2vs0mg"},{"bike_id":"4b064f84-213a-4e8a-8dff-303484ef295f","system_id":"levelo_inurba_marseille","lat":43.28157,"lon":5.42651,"is_reserved":false,"is_disabled":false,"rental_uris":{"android":"levelo://app?vid=4b064f84-213a-4e8a-8dff-303484ef295f","ios":"levelo://app?vid=4b064f84-213a-4e8a-8dff-303484ef295f"},"vehicle_type_id":"4","last_reported":1729073381,"current_range_meters":10800,"station_id":"ce4bhnh2rcd13ifvqgug","pricing_plan_id":"cebpf4jnsgd1na2vs0mg"},{"bike_id":"dc8e054a-04e3-42a8-ba26-00946484cca6","system_id":"levelo_inurba_marseille","lat":43.30141,"lon":5.38065,"is_reserved":false,"is_disabled":false,"rental_uris":{"android":"levelo://app?vid=dc8e054a-04e3-42a8-ba26-00946484cca6","ios":"levelo://app?vid=dc8e054a-04e3-42a8-ba26-00946484cca6"},"vehicle_type_id":"4","last_reported":1729073381,"current_range_meters":29600,"station_id":"ce4bgjp2rcd13ifvqbh0","pricing_plan_id":"cebpf4jnsgd1na2vs0mg"},{"bike_id":"6123b646-e764-4dd8-a572-6d74bfe4bd24","system_id":"levelo_inurba_marseille","lat":43.305403,"lon":5.365373,"is_reserved":false,"is_disabled":false,"rental_uris":{"android":"levelo://app?vid=6123b646-e764-4dd8-a572-6d74bfe4bd24","ios":"levelo://app?vid=6123b646-e764-4dd8-a572-6d74bfe4bd24"},"vehicle_type_id":"4","last_reported":1729073381,"current_range_meters":30400,"station_id":"ce4bgs12rcd13ifvqcag","pricing_plan_id":"cebpf4jnsgd1na2vs0mg"},{"bike_id":"f266d66c-0caa-46a0-b858-a8641e907bea","system_id":"levelo_inurba_marseille","lat":43.32541,"lon":5.41439,"is_reserved":false,"is_disabled":false,"rental_uris":{"android":"levelo://app?vid=f266d66c-0caa-46a0-b858-a8641e907bea","ios":"levelo://app?vid=f266d66c-0caa-46a0-b858-a8641e907bea"},"vehicle_type_id":"4","last_reported":1729073381,"current_range_meters":33600,"station_id":"ce4bhq12rcd13ifvqhhg","pricing_plan_id":"cebpf4jnsgd1na2vs0mg"},{"bike_id":"96fd3dd3-96a0-4e12-bf5d-12292589addf","system_id":"levelo_inurba_marseille","lat":43.30553,"lon":5.36527,"is_reserved":false,"is_disabled":false,"rental_uris":{"android":"levelo://app?vid=96fd3dd3-96a0-4e12-bf5d-12292589addf","ios":"levelo://app?vid=96fd3dd3-96a0-4e12-bf5d-12292589addf"},"vehicle_type_id":"4","last_reported":1729073381,"current_range_meters":28400,"station_id":"ce4bgs12rcd13ifvqcag","pricing_plan_id":"cebpf4jnsgd1na2vs0mg"},{"bike_id":"842bdfb8-cce6-4db6-b51d-7b5c18cbbc1e","system_id":"levelo_inurba_marseille","lat":43.23151,"lon":5.43703,"is_reserved":false,"is_disabled":false,"rental_uris":{"android":"levelo://app?vid=842bdfb8-cce6-4db6-b51d-7b5c18cbbc1e","ios":"levelo://app?vid=842bdfb8-cce6-4db6-b51d-7b5c18cbbc1e"},"vehicle_type_id":"4","last_reported":1729073381,"current_range_meters":12800,"station_id":"ce4bhmp2rcd13ifvqgog","pricing_plan_id":"cebpf4jnsgd1na2vs0mg"},{"bike_id":"301255cb-81e6-49ad-b7d4-b7d996419a9f","system_id":"levelo_inurba_marseille","lat":43.30191,"lon":5.381478,"is_reserved":false,"is_disabled":false,"rental_uris":{"android":"levelo://app?vid=301255cb-81e6-49ad-b7d4-b7d996419a9f","ios":"levelo://app?vid=301255cb-81e6-49ad-b7d4-b7d996419a9f"},"vehicle_type_id":"4","last_reported":1729073381,"current_range_meters":38000,"station_id":"ce4bgjp2rcd13ifvqbh0","pricing_plan_id":"cebpf4jnsgd1na2vs0mg"},{"bike_id":"10c40b4a-8a4c-44fc-9c3d-573be3aa7f5b","system_id":"levelo_inurba_marseille","lat":43.28579,"lon":5.39497,"is_reserved":false,"is_disabled":false,"rental_uris":{"android":"levelo://app?vid=10c40b4a-8a4c-44fc-9c3d-573be3aa7f5b","ios":"levelo://app?vid=10c40b4a-8a4c-44fc-9c3d-573be3aa7f5b"},"vehicle_type_id":"4","last_reported":1729073381,"current_range_meters":24400,"station_id":"ce4bh292rcd13ifvqdg0","pricing_plan_id":"cebpf4jnsgd1na2vs0mg"},{"bike_id":"6dc5b725-0b8c-49b8-a19b-3f297b3f6f14","system_id":"levelo_inurba_marseille","lat":43.25933,"lon":5.40914,"is_reserved":false,"is_disabled":false,"rental_uris":{"android":"levelo://app?vid=6dc5b725-0b8c-49b8-a19b-3f297b3f6f14","ios":"levelo://app?vid=6dc5b725-0b8c-49b8-a19b-3f297b3f6f14"},"vehicle_type_id":"4","last_reported":1729073381,"current_range_meters":38800,"station_id":"ce4bhm92rcd13ifvqglg","pricing_plan_id":"cebpf4jnsgd1na2vs0mg"},{"bike_id":"5ce3f9f0-2d77-4b7c-a422-e5d52cd501d8","system_id":"levelo_inurba_marseille","lat":43.27325,"lon":5.39099,"is_reserved":false,"is_disabled":false,"rental_uris":{"android":"levelo://app?vid=5ce3f9f0-2d77-4b7c-a422-e5d52cd501d8","ios":"levelo://app?vid=5ce3f9f0-2d77-4b7c-a422-e5d52cd501d8"},"vehicle_type_id":"4","last_reported":1729073381,"current_range_meters":23200,"station_id":"ce4bhgp2rcd13ifvqfe0","pricing_plan_id":"cebpf4jnsgd1na2vs0mg"},{"bike_id":"da75557e-6ba1-4c45-9e3b-473a1eb4e783","system_id":"levelo_inurba_marseille","lat":43.29637,"lon":5.40596,"is_reserved":false,"is_disabled":false,"rental_uris":{"android":"levelo://app?vid=da75557e-6ba1-4c45-9e3b-473a1eb4e783","ios":"levelo://app?vid=da75557e-6ba1-4c45-9e3b-473a1eb4e783"},"vehicle_type_id":"4","last_reported":1729073381,"current_range_meters":36800,"station_id":"ce4bh0h2rcd13ifvqd60","pricing_plan_id":"cebpf4jnsgd1na2vs0mg"},{"bike_id":"c9a76ef6-f819-4166-83ee-0a5f69f525d7","system_id":"levelo_inurba_marseille","lat":43.29963,"lon":5.37178,"is_reserved":false,"is_disabled":false,"rental_uris":{"android":"levelo://app?vid=c9a76ef6-f819-4166-83ee-0a5f69f525d7","ios":"levelo://app?vid=c9a76ef6-f819-4166-83ee-0a5f69f525d7"},"vehicle_type_id":"4","last_reported":1729073381,"current_range_meters":30000,"station_id":"ce4bgr92rcd13ifvqc7g","pricing_plan_id":"cebpf4jnsgd1na2vs0mg"},{"bike_id":"43ef6191-1da4-4fab-ad02-553d29a8e7e7","system_id":"levelo_inurba_marseille","lat":43.24651,"lon":5.389,"is_reserved":false,"is_disabled":false,"rental_uris":{"android":"levelo://app?vid=43ef6191-1da4-4fab-ad02-553d29a8e7e7","ios":"levelo://app?vid=43ef6191-1da4-4fab-ad02-553d29a8e7e7"},"vehicle_type_id":"4","last_reported":1729073381,"current_range_meters":38800,"station_id":"ce4bhg12rcd13ifvqf60","pricing_plan_id":"cebpf4jnsgd1na2vs0mg"},{"bike_id":"6232b4d9-b37d-4acb-9c65-49657ed81111","system_id":"levelo_inurba_marseille","lat":43.30188,"lon":5.36625,"is_reserved":false,"is_disabled":false,"rental_uris":{"android":"levelo://app?vid=6232b4d9-b37d-4acb-9c65-49657ed81111","ios":"levelo://app?vid=6232b4d9-b37d-4acb-9c65-49657ed81111"},"vehicle_type_id":"4","last_reported":1729073381,"current_range_meters":38800,"station_id":"ce4bgrh2rcd13ifvqc8g","pricing_plan_id":"cebpf4jnsgd1na2vs0mg"},{"bike_id":"2bb1ad6d-21a7-40bb-9344-328f59a65681","system_id":"levelo_inurba_marseille","lat":43.30194,"lon":5.36624,"is_reserved":false,"is_disabled":false,"rental_uris":{"android":"levelo://app?vid=2bb1ad6d-21a7-40bb-9344-328f59a65681","ios":"levelo://app?vid=2bb1ad6d-21a7-40bb-9344-328f59a65681"},"vehicle_type_id":"4","last_reported":1729073381,"current_range_meters":30400,"station_id":"ce4bgrh2rcd13ifvqc8g","pricing_plan_id":"cebpf4jnsgd1na2vs0mg"},{"bike_id":"24717297-db2a-414e-ab99-3035f49f952a","system_id":"levelo_inurba_marseille","lat":43.29937,"lon":5.36565,"is_reserved":false,"is_disabled":false,"rental_uris":{"android":"levelo://app?vid=24717297-db2a-414e-ab99-3035f49f952a","ios":"levelo://app?vid=24717297-db2a-414e-ab99-3035f49f952a"},"vehicle_type_id":"4","last_reported":1729073381,"current_range_meters":19200,"station_id":"ce4bgm92rcd13ifvqbr0","pricing_plan_id":"cebpf4jnsgd1na2vs0mg"},{"bike_id":"d25d08eb-51a6-4c50-b446-8364d39a8b89","system_id":"levelo_inurba_marseille","lat":43.31355,"lon":5.36696,"is_reserved":false,"is_disabled":false,"rental_uris":{"android":"levelo://app?vid=d25d08eb-51a6-4c50-b446-8364d39a8b89","ios":"levelo://app?vid=d25d08eb-51a6-4c50-b446-8364d39a8b89"},"vehicle_type_id":"4","last_reported":1729073381,"current_range_meters":37600,"station_id":"ce4bgrp2rcd13ifvqc9g","pricing_plan_id":"cebpf4jnsgd1na2vs0mg"},{"bike_id":"cb460062-7f74-4bce-ac10-fb3ed8ed3441","system_id":"levelo_inurba_marseille","lat":43.30604,"lon":5.37221,"is_reserved":false,"is_disabled":false,"rental_uris":{"android":"levelo://app?vid=cb460062-7f74-4bce-ac10-fb3ed8ed3441","ios":"levelo://app?vid=cb460062-7f74-4bce-ac10-fb3ed8ed3441"},"vehicle_type_id":"4","last_reported":1729073381,"current_range_meters":24400,"station_id":"ce4bgqh2rcd13ifvqc4g","pricing_plan_id":"cebpf4jnsgd1na2vs0mg"},{"bike_id":"eb7fbeec-0f7e-459f-9297-4e673e13228d","system_id":"levelo_inurba_marseille","lat":43.29585,"lon":5.36738,"is_reserved":false,"is_disabled":false,"rental_uris":{"android":"levelo://app?vid=eb7fbeec-0f7e-459f-9297-4e673e13228d","ios":"levelo://app?vid=eb7fbeec-0f7e-459f-9297-4e673e13228d"},"vehicle_type_id":"4","last_reported":1729073381,"current_range_meters":36800,"station_id":"ce4bgph2rcd13ifvqc2g","pricing_plan_id":"cebpf4jnsgd1na2vs0mg"},{"bike_id":"ca0163ac-d25a-437e-9b06-c3be4e515504","system_id":"levelo_inurba_marseille","lat":43.30318,"lon":5.36901,"is_reserved":false,"is_disabled":false,"rental_uris":{"android":"levelo://app?vid=ca0163ac-d25a-437e-9b06-c3be4e515504","ios":"levelo://app?vid=ca0163ac-d25a-437e-9b06-c3be4e515504"},"vehicle_type_id":"4","last_reported":1729073381,"current_range_meters":35200,"station_id":"ce4bgqh2rcd13ifvqc5g","pricing_plan_id":"cebpf4jnsgd1na2vs0mg"},{"bike_id":"3d345541-8cc4-4a78-8d79-d41d0d8fd35c","system_id":"levelo_inurba_marseille","lat":43.2594,"lon":5.40904,"is_reserved":false,"is_disabled":false,"rental_uris":{"android":"levelo://app?vid=3d345541-8cc4-4a78-8d79-d41d0d8fd35c","ios":"levelo://app?vid=3d345541-8cc4-4a78-8d79-d41d0d8fd35c"},"vehicle_type_id":"4","last_reported":1729073381,"current_range_meters":23200,"station_id":"ce4bhm92rcd13ifvqglg","pricing_plan_id":"cebpf4jnsgd1na2vs0mg"},{"bike_id":"57fa9f76-c7d4-4b74-96fe-4bb481ced862","system_id":"levelo_inurba_marseille","lat":43.29558,"lon":5.4228,"is_reserved":false,"is_disabled":false,"rental_uris":{"android":"levelo://app?vid=57fa9f76-c7d4-4b74-96fe-4bb481ced862","ios":"levelo://app?vid=57fa9f76-c7d4-4b74-96fe-4bb481ced862"},"vehicle_type_id":"4","last_reported":1729073381,"current_range_meters":38800,"station_id":"ce4bhph2rcd13ifvqhdg","pricing_plan_id":"cebpf4jnsgd1na2vs0mg"},{"bike_id":"188cc3cd-5b2f-4706-9fee-ca7458293e82","system_id":"levelo_inurba_marseille","lat":43.29574,"lon":5.3753,"is_reserved":false,"is_disabled":false,"rental_uris":{"android":"levelo://app?vid=188cc3cd-5b2f-4706-9fee-ca7458293e82","ios":"levelo://app?vid=188cc3cd-5b2f-4706-9fee-ca7458293e82"},"vehicle_type_id":"4","last_reported":1729073381,"current_range_meters":38800,"station_id":"ce4bgh92rcd13ifvqb50","pricing_plan_id":"cebpf4jnsgd1na2vs0mg"},{"bike_id":"7729185e-87f5-4113-9325-6f8c6e2ca6b8","system_id":"levelo_inurba_marseille","lat":43.2815,"lon":5.42641,"is_reserved":false,"is_disabled":false,"rental_uris":{"android":"levelo://app?vid=7729185e-87f5-4113-9325-6f8c6e2ca6b8","ios":"levelo://app?vid=7729185e-87f5-4113-9325-6f8c6e2ca6b8"},"vehicle_type_id":"4","last_reported":1729073381,"current_range_meters":36800,"station_id":"ce4bhnh2rcd13ifvqgug","pricing_plan_id":"cebpf4jnsgd1na2vs0mg"},{"bike_id":"87542d94-8c13-498d-a76e-3769b5dad69e","system_id":"levelo_inurba_marseille","lat":43.29572,"lon":5.3751,"is_reserved":false,"is_disabled":false,"rental_uris":{"android":"levelo://app?vid=87542d94-8c13-498d-a76e-3769b5dad69e","ios":"levelo://app?vid=87542d94-8c13-498d-a76e-3769b5dad69e"},"vehicle_type_id":"4","last_reported":1729073381,"current_range_meters":28400,"station_id":"ce4bgh92rcd13ifvqb50","pricing_plan_id":"cebpf4jnsgd1na2vs0mg"},{"bike_id":"b3414e9f-e991-44cb-8362-0a7d75f1ca79","system_id":"levelo_inurba_marseille","lat":43.30315,"lon":5.36907,"is_reserved":false,"is_disabled":false,"rental_uris":{"android":"levelo://app?vid=b3414e9f-e991-44cb-8362-0a7d75f1ca79","ios":"levelo://app?vid=b3414e9f-e991-44cb-8362-0a7d75f1ca79"},"vehicle_type_id":"4","last_reported":1729073381,"current_range_meters":38800,"station_id":"ce4bgqh2rcd13ifvqc5g","pricing_plan_id":"cebpf4jnsgd1na2vs0mg"},{"bike_id":"c77ea266-271c-4ea2-a8dc-337f7c85044f","system_id":"levelo_inurba_marseille","lat":43.28155,"lon":5.42646,"is_reserved":false,"is_disabled":false,"rental_uris":{"android":"levelo://app?vid=c77ea266-271c-4ea2-a8dc-337f7c85044f","ios":"levelo://app?vid=c77ea266-271c-4ea2-a8dc-337f7c85044f"},"vehicle_type_id":"4","last_reported":1729073381,"current_range_meters":38000,"station_id":"ce4bhnh2rcd13ifvqgug","pricing_plan_id":"cebpf4jnsgd1na2vs0mg"},{"bike_id":"2c82f2ba-4783-46a4-badf-7e02ac73c778","system_id":"levelo_inurba_marseille","lat":43.26938,"lon":5.40258,"is_reserved":false,"is_disabled":false,"rental_uris":{"android":"levelo://app?vid=2c82f2ba-4783-46a4-badf-7e02ac73c778","ios":"levelo://app?vid=2c82f2ba-4783-46a4-badf-7e02ac73c778"},"vehicle_type_id":"4","last_reported":1729073381,"current_range_meters":20400,"station_id":"cjm6bp8fraef2m0cb0m0","pricing_plan_id":"cebpf4jnsgd1na2vs0mg"},{"bike_id":"79b3f0f2-b593-4cb5-a001-1c856292dfd1","system_id":"levelo_inurba_marseille","lat":43.33771,"lon":5.37456,"is_reserved":false,"is_disabled":false,"rental_uris":{"android":"levelo://app?vid=79b3f0f2-b593-4cb5-a001-1c856292dfd1","ios":"levelo://app?vid=79b3f0f2-b593-4cb5-a001-1c856292dfd1"},"vehicle_type_id":"4","last_reported":1729073381,"current_range_meters":38000,"station_id":"","pricing_plan_id":"cebpf4jnsgd1na2vs0mg"},{"bike_id":"6e7afd62-d736-4ed9-9248-f4f82a390064","system_id":"levelo_inurba_marseille","lat":43.33603,"lon":5.41035,"is_reserved":false,"is_disabled":false,"rental_uris":{"android":"levelo://app?vid=6e7afd62-d736-4ed9-9248-f4f82a390064","ios":"levelo://app?vid=6e7afd62-d736-4ed9-9248-f4f82a390064"},"vehicle_type_id":"4","last_reported":1729073381,"current_range_meters":38800,"station_id":"ce4bhqh2rcd13ifvqhmg","pricing_plan_id":"cebpf4jnsgd1na2vs0mg"},{"bike_id":"83dd7cc6-4409-4cb4-8ff2-0b7fa30d3fe9","system_id":"levelo_inurba_marseille","lat":43.28839,"lon":5.392917,"is_reserved":false,"is_disabled":false,"rental_uris":{"android":"levelo://app?vid=83dd7cc6-4409-4cb4-8ff2-0b7fa30d3fe9","ios":"levelo://app?vid=83dd7cc6-4409-4cb4-8ff2-0b7fa30d3fe9"},"vehicle_type_id":"4","last_reported":1729073381,"current_range_meters":38400,"station_id":"ce4bh2p2rcd13ifvqdi0","pricing_plan_id":"cebpf4jnsgd1na2vs0mg"},{"bike_id":"b325087f-6118-4ad4-b60f-bacfc8d667c5","system_id":"levelo_inurba_marseille","lat":43.30911,"lon":5.36855,"is_reserved":false,"is_disabled":false,"rental_uris":{"android":"levelo://app?vid=b325087f-6118-4ad4-b60f-bacfc8d667c5","ios":"levelo://app?vid=b325087f-6118-4ad4-b60f-bacfc8d667c5"},"vehicle_type_id":"4","last_reported":1729073381,"current_range_meters":39200,"station_id":"ce4bgn92rcd13ifvqbvg","pricing_plan_id":"cebpf4jnsgd1na2vs0mg"},{"bike_id":"eb4d068d-4e02-4700-b2db-40b6e22f6e8a","system_id":"levelo_inurba_marseille","lat":43.29965,"lon":5.41327,"is_reserved":false,"is_disabled":false,"rental_uris":{"android":"levelo://app?vid=eb4d068d-4e02-4700-b2db-40b6e22f6e8a","ios":"levelo://app?vid=eb4d068d-4e02-4700-b2db-40b6e22f6e8a"},"vehicle_type_id":"4","last_reported":1729073381,"current_range_meters":12000,"station_id":"ce4bhp12rcd13ifvqh9g","pricing_plan_id":"cebpf4jnsgd1na2vs0mg"},{"bike_id":"ba3a8b5b-420a-4f47-bd86-eca950746e35","system_id":"levelo_inurba_marseille","lat":43.2957,"lon":5.37501,"is_reserved":false,"is_disabled":false,"rental_uris":{"android":"levelo://app?vid=ba3a8b5b-420a-4f47-bd86-eca950746e35","ios":"levelo://app?vid=ba3a8b5b-420a-4f47-bd86-eca950746e35"},"vehicle_type_id":"4","last_reported":1729073381,"current_range_meters":17600,"station_id":"ce4bgh92rcd13ifvqb50","pricing_plan_id":"cebpf4jnsgd1na2vs0mg"},{"bike_id":"668c555d-da69-439e-ae5c-a813cfa3ce2a","system_id":"levelo_inurba_marseille","lat":43.30158,"lon":5.38089,"is_reserved":false,"is_disabled":false,"rental_uris":{"android":"levelo://app?vid=668c555d-da69-439e-ae5c-a813cfa3ce2a","ios":"levelo://app?vid=668c555d-da69-439e-ae5c-a813cfa3ce2a"},"vehicle_type_id":"4","last_reported":1729073381,"current_range_meters":23200,"station_id":"ce4bgjp2rcd13ifvqbh0","pricing_plan_id":"cebpf4jnsgd1na2vs0mg"},{"bike_id":"78a4725b-5ab3-4882-84be-4fa1ee1d6583","system_id":"levelo_inurba_marseille","lat":43.24387,"lon":5.37054,"is_reserved":false,"is_disabled":false,"rental_uris":{"android":"levelo://app?vid=78a4725b-5ab3-4882-84be-4fa1ee1d6583","ios":"levelo://app?vid=78a4725b-5ab3-4882-84be-4fa1ee1d6583"},"vehicle_type_id":"4","last_reported":1729073381,"current_range_meters":38800,"station_id":"ce4bhhh2rcd13ifvqfk0","pricing_plan_id":"cebpf4jnsgd1na2vs0mg"},{"bike_id":"e9a859f8-c7b5-444b-ace7-d7127a93c0e9","system_id":"levelo_inurba_marseille","lat":43.27998,"lon":5.4001,"is_reserved":false,"is_disabled":false,"rental_uris":{"android":"levelo://app?vid=e9a859f8-c7b5-444b-ace7-d7127a93c0e9","ios":"levelo://app?vid=e9a859f8-c7b5-444b-ace7-d7127a93c0e9"},"vehicle_type_id":"4","last_reported":1729073381,"current_range_meters":6800,"station_id":"ce4bho92rcd13ifvqh4g","pricing_plan_id":"cebpf4jnsgd1na2vs0mg"},{"bike_id":"5fee4259-7ff1-46bc-b127-c5658d60f623","system_id":"levelo_inurba_marseille","lat":43.2509,"lon":5.3952,"is_reserved":false,"is_disabled":false,"rental_uris":{"android":"levelo://app?vid=5fee4259-7ff1-46bc-b127-c5658d60f623","ios":"levelo://app?vid=5fee4259-7ff1-46bc-b127-c5658d60f623"},"vehicle_type_id":"4","last_reported":1729073381,"current_range_meters":38800,"station_id":"ce4bhm12rcd13ifvqgkg","pricing_plan_id":"cebpf4jnsgd1na2vs0mg"},{"bike_id":"9934b4e9-57be-4265-9562-20a34f6f5eac","system_id":"levelo_inurba_marseille","lat":43.31369,"lon":5.3849,"is_reserved":false,"is_disabled":false,"rental_uris":{"android":"levelo://app?vid=9934b4e9-57be-4265-9562-20a34f6f5eac","ios":"levelo://app?vid=9934b4e9-57be-4265-9562-20a34f6f5eac"},"vehicle_type_id":"4","last_reported":1729073381,"current_range_meters":35600,"station_id":"ce4bgt92rcd13ifvqcf0","pricing_plan_id":"cebpf4jnsgd1na2vs0mg"},{"bike_id":"a86fcfcd-f431-4d6b-8f38-eb4c2aef8a3a","system_id":"levelo_inurba_marseille","lat":43.25499,"lon":5.3765,"is_reserved":false,"is_disabled":false,"rental_uris":{"android":"levelo://app?vid=a86fcfcd-f431-4d6b-8f38-eb4c2aef8a3a","ios":"levelo://app?vid=a86fcfcd-f431-4d6b-8f38-eb4c2aef8a3a"},"vehicle_type_id":"4","last_reported":1729073381,"current_range_meters":2800,"station_id":"ce4bhh12rcd13ifvqff0","pricing_plan_id":"cebpf4jnsgd1na2vs0mg"},{"bike_id":"8b89f175-d99c-4443-af38-c4cd2535f07b","system_id":"levelo_inurba_marseille","lat":43.3096,"lon":5.38616,"is_reserved":false,"is_disabled":false,"rental_uris":{"android":"levelo://app?vid=8b89f175-d99c-4443-af38-c4cd2535f07b","ios":"levelo://app?vid=8b89f175-d99c-4443-af38-c4cd2535f07b"},"vehicle_type_id":"4","last_reported":1729073381,"current_range_meters":38000,"station_id":"","pricing_plan_id":"cebpf4jnsgd1na2vs0mg"},{"bike_id":"ac2a1f1b-2715-4439-8ded-cb0fd1c865ae","system_id":"levelo_inurba_marseille","lat":43.29571,"lon":5.37504,"is_reserved":false,"is_disabled":false,"rental_uris":{"android":"levelo://app?vid=ac2a1f1b-2715-4439-8ded-cb0fd1c865ae","ios":"levelo://app?vid=ac2a1f1b-2715-4439-8ded-cb0fd1c865ae"},"vehicle_type_id":"4","last_reported":1729073381,"current_range_meters":26000,"station_id":"ce4bgh92rcd13ifvqb50","pricing_plan_id":"cebpf4jnsgd1na2vs0mg"},{"bike_id":"f944ee95-065c-42e7-8f55-6cbaff56c72f","system_id":"levelo_inurba_marseille","lat":43.31164,"lon":5.38722,"is_reserved":false,"is_disabled":false,"rental_uris":{"android":"levelo://app?vid=f944ee95-065c-42e7-8f55-6cbaff56c72f","ios":"levelo://app?vid=f944ee95-065c-42e7-8f55-6cbaff56c72f"},"vehicle_type_id":"4","last_reported":1729073381,"current_range_meters":28800,"station_id":"ce4bgv12rcd13ifvqcp0","pricing_plan_id":"cebpf4jnsgd1na2vs0mg"},{"bike_id":"303f2a12-3ef9-4df9-8bba-f2bb64ad3b5d","system_id":"levelo_inurba_marseille","lat":43.24804,"lon":5.37457,"is_reserved":false,"is_disabled":false,"rental_uris":{"android":"levelo://app?vid=303f2a12-3ef9-4df9-8bba-f2bb64ad3b5d","ios":"levelo://app?vid=303f2a12-3ef9-4df9-8bba-f2bb64ad3b5d"},"vehicle_type_id":"4","last_reported":1729073381,"current_range_meters":7200,"station_id":"ce4bhgh2rcd13ifvqfb0","pricing_plan_id":"cebpf4jnsgd1na2vs0mg"},{"bike_id":"e733f83c-032a-4204-8336-55ff75d06f0f","system_id":"levelo_inurba_marseille","lat":43.25503,"lon":5.37655,"is_reserved":false,"is_disabled":false,"rental_uris":{"android":"levelo://app?vid=e733f83c-032a-4204-8336-55ff75d06f0f","ios":"levelo://app?vid=e733f83c-032a-4204-8336-55ff75d06f0f"},"vehicle_type_id":"4","last_reported":1729073381,"current_range_meters":38000,"station_id":"ce4bhh12rcd13ifvqff0","pricing_plan_id":"cebpf4jnsgd1na2vs0mg"},{"bike_id":"fa7bbdc9-afbe-404d-8676-647037cc76a9","system_id":"levelo_inurba_marseille","lat":43.23202,"lon":5.35551,"is_reserved":false,"is_disabled":false,"rental_uris":{"android":"levelo://app?vid=fa7bbdc9-afbe-404d-8676-647037cc76a9","ios":"levelo://app?vid=fa7bbdc9-afbe-404d-8676-647037cc76a9"},"vehicle_type_id":"4","last_reported":1729073381,"current_range_meters":38400,"station_id":"ce4bhu92rcd13ifvqi70","pricing_plan_id":"cebpf4jnsgd1na2vs0mg"},{"bike_id":"931ad2f4-35ea-42b5-bc1a-1fdec477398a","system_id":"levelo_inurba_marseille","lat":43.337444,"lon":5.374475,"is_reserved":false,"is_disabled":false,"rental_uris":{"android":"levelo://app?vid=931ad2f4-35ea-42b5-bc1a-1fdec477398a","ios":"levelo://app?vid=931ad2f4-35ea-42b5-bc1a-1fdec477398a"},"vehicle_type_id":"4","last_reported":1729073381,"current_range_meters":38800,"station_id":"","pricing_plan_id":"cebpf4jnsgd1na2vs0mg"},{"bike_id":"849d02bd-ad96-453c-b50d-a34f3cff1fdd","system_id":"levelo_inurba_marseille","lat":43.2972,"lon":5.37689,"is_reserved":false,"is_disabled":false,"rental_uris":{"android":"levelo://app?vid=849d02bd-ad96-453c-b50d-a34f3cff1fdd","ios":"levelo://app?vid=849d02bd-ad96-453c-b50d-a34f3cff1fdd"},"vehicle_type_id":"4","last_reported":1729073381,"current_range_meters":27600,"station_id":"ce4bgkh2rcd13ifvqbl0","pricing_plan_id":"cebpf4jnsgd1na2vs0mg"},{"bike_id":"8f6b105a-2610-4799-a969-afc5186cbd13","system_id":"levelo_inurba_marseille","lat":43.262115,"lon":5.374402,"is_reserved":false,"is_disabled":false,"rental_uris":{"android":"levelo://app?vid=8f6b105a-2610-4799-a969-afc5186cbd13","ios":"levelo://app?vid=8f6b105a-2610-4799-a969-afc5186cbd13"},"vehicle_type_id":"4","last_reported":1729073381,"current_range_meters":17200,"station_id":"ce4bhgp2rcd13ifvqfc0","pricing_plan_id":"cebpf4jnsgd1na2vs0mg"},{"bike_id":"554767ad-3485-4abf-a5d4-e92938df61d2","system_id":"levelo_inurba_marseille","lat":43.29796,"lon":5.40388,"is_reserved":false,"is_disabled":false,"rental_uris":{"android":"levelo://app?vid=554767ad-3485-4abf-a5d4-e92938df61d2","ios":"levelo://app?vid=554767ad-3485-4abf-a5d4-e92938df61d2"},"vehicle_type_id":"4","last_reported":1729073381,"current_range_meters":30400,"station_id":"ce4bh112rcd13ifvqd90","pricing_plan_id":"cebpf4jnsgd1na2vs0mg"},{"bike_id":"b0e403ff-a179-403b-9021-addbc1961e2e","system_id":"levelo_inurba_marseille","lat":43.27323,"lon":5.3908,"is_reserved":false,"is_disabled":false,"rental_uris":{"android":"levelo://app?vid=b0e403ff-a179-403b-9021-addbc1961e2e","ios":"levelo://app?vid=b0e403ff-a179-403b-9021-addbc1961e2e"},"vehicle_type_id":"4","last_reported":1729073381,"current_range_meters":28400,"station_id":"ce4bhgp2rcd13ifvqfe0","pricing_plan_id":"cebpf4jnsgd1na2vs0mg"},{"bike_id":"81e32d4e-df25-4349-90c7-1831752870c9","system_id":"levelo_inurba_marseille","lat":43.27948,"lon":5.41047,"is_reserved":false,"is_disabled":false,"rental_uris":{"android":"levelo://app?vid=81e32d4e-df25-4349-90c7-1831752870c9","ios":"levelo://app?vid=81e32d4e-df25-4349-90c7-1831752870c9"},"vehicle_type_id":"4","last_reported":1729073381,"current_range_meters":35600,"station_id":"ce4bhnp2rcd13ifvqh0g","pricing_plan_id":"cebpf4jnsgd1na2vs0mg"},{"bike_id":"f43f636f-8f6c-440b-bc7f-c9b07c2521ef","system_id":"levelo_inurba_marseille","lat":43.33767,"lon":5.37466,"is_reserved":false,"is_disabled":false,"rental_uris":{"android":"levelo://app?vid=f43f636f-8f6c-440b-bc7f-c9b07c2521ef","ios":"levelo://app?vid=f43f636f-8f6c-440b-bc7f-c9b07c2521ef"},"vehicle_type_id":"4","last_reported":1729073381,"current_range_meters":25600,"station_id":"","pricing_plan_id":"cebpf4jnsgd1na2vs0mg"},{"bike_id":"1daf3c53-5848-4d69-95c2-1416fe25cfe9","system_id":"levelo_inurba_marseille","lat":43.30601,"lon":5.37213,"is_reserved":false,"is_disabled":false,"rental_uris":{"android":"levelo://app?vid=1daf3c53-5848-4d69-95c2-1416fe25cfe9","ios":"levelo://app?vid=1daf3c53-5848-4d69-95c2-1416fe25cfe9"},"vehicle_type_id":"4","last_reported":1729073381,"current_range_meters":27600,"station_id":"ce4bgqh2rcd13ifvqc4g","pricing_plan_id":"cebpf4jnsgd1na2vs0mg"},{"bike_id":"968d0445-611c-45d9-a597-b0a86f014e1b","system_id":"levelo_inurba_marseille","lat":43.30142,"lon":5.37416,"is_reserved":false,"is_disabled":false,"rental_uris":{"android":"levelo://app?vid=968d0445-611c-45d9-a597-b0a86f014e1b","ios":"levelo://app?vid=968d0445-611c-45d9-a597-b0a86f014e1b"},"vehicle_type_id":"4","last_reported":1729073381,"current_range_meters":32400,"station_id":"ce4bgs92rcd13ifvqcc0","pricing_plan_id":"cebpf4jnsgd1na2vs0mg"},{"bike_id":"0defb0a8-ea0c-44b7-9194-07fec11ad3f0","system_id":"levelo_inurba_marseille","lat":43.2795,"lon":5.41046,"is_reserved":false,"is_disabled":false,"rental_uris":{"android":"levelo://app?vid=0defb0a8-ea0c-44b7-9194-07fec11ad3f0","ios":"levelo://app?vid=0defb0a8-ea0c-44b7-9194-07fec11ad3f0"},"vehicle_type_id":"4","last_reported":1729073381,"current_range_meters":28000,"station_id":"ce4bhnp2rcd13ifvqh0g","pricing_plan_id":"cebpf4jnsgd1na2vs0mg"},{"bike_id":"5d4185c5-efd5-458a-89de-9f5bf51cb954","system_id":"levelo_inurba_marseille","lat":43.25935,"lon":5.40897,"is_reserved":false,"is_disabled":false,"rental_uris":{"android":"levelo://app?vid=5d4185c5-efd5-458a-89de-9f5bf51cb954","ios":"levelo://app?vid=5d4185c5-efd5-458a-89de-9f5bf51cb954"},"vehicle_type_id":"4","last_reported":1729073381,"current_range_meters":28400,"station_id":"ce4bhm92rcd13ifvqglg","pricing_plan_id":"cebpf4jnsgd1na2vs0mg"},{"bike_id":"93bd04d4-5a74-4e87-b0f1-e000277515a8","system_id":"levelo_inurba_marseille","lat":43.31356,"lon":5.36712,"is_reserved":false,"is_disabled":false,"rental_uris":{"android":"levelo://app?vid=93bd04d4-5a74-4e87-b0f1-e000277515a8","ios":"levelo://app?vid=93bd04d4-5a74-4e87-b0f1-e000277515a8"},"vehicle_type_id":"4","last_reported":1729073381,"current_range_meters":27600,"station_id":"ce4bgr92rcd13ifvqc6g","pricing_plan_id":"cebpf4jnsgd1na2vs0mg"},{"bike_id":"f3c1853e-8b8e-47e4-8746-d00e45b18cdc","system_id":"levelo_inurba_marseille","lat":43.32485,"lon":5.36558,"is_reserved":false,"is_disabled":false,"rental_uris":{"android":"levelo://app?vid=f3c1853e-8b8e-47e4-8746-d00e45b18cdc","ios":"levelo://app?vid=f3c1853e-8b8e-47e4-8746-d00e45b18cdc"},"vehicle_type_id":"4","last_reported":1729073381,"current_range_meters":35200,"station_id":"ce4bhs12rcd13ifvqhvg","pricing_plan_id":"cebpf4jnsgd1na2vs0mg"},{"bike_id":"65c90c18-e07b-4bf2-893e-81c9ab85e6cc","system_id":"levelo_inurba_marseille","lat":43.2997,"lon":5.37172,"is_reserved":false,"is_disabled":false,"rental_uris":{"android":"levelo://app?vid=65c90c18-e07b-4bf2-893e-81c9ab85e6cc","ios":"levelo://app?vid=65c90c18-e07b-4bf2-893e-81c9ab85e6cc"},"vehicle_type_id":"4","last_reported":1729073381,"current_range_meters":26800,"station_id":"ce4bgr92rcd13ifvqc7g","pricing_plan_id":"cebpf4jnsgd1na2vs0mg"},{"bike_id":"03b52a53-4015-42f1-a46b-0d68e4ef1cf1","system_id":"levelo_inurba_marseille","lat":43.30534,"lon":5.36705,"is_reserved":false,"is_disabled":false,"rental_uris":{"android":"levelo://app?vid=03b52a53-4015-42f1-a46b-0d68e4ef1cf1","ios":"levelo://app?vid=03b52a53-4015-42f1-a46b-0d68e4ef1cf1"},"vehicle_type_id":"4","last_reported":1729073381,"current_range_meters":38800,"station_id":"ce4bgrp2rcd13ifvqc9g","pricing_plan_id":"cebpf4jnsgd1na2vs0mg"},{"bike_id":"486fe526-9051-4c2d-aa93-fc36386471b3","system_id":"levelo_inurba_marseille","lat":43.2606,"lon":5.39397,"is_reserved":false,"is_disabled":false,"rental_uris":{"android":"levelo://app?vid=486fe526-9051-4c2d-aa93-fc36386471b3","ios":"levelo://app?vid=486fe526-9051-4c2d-aa93-fc36386471b3"},"vehicle_type_id":"4","last_reported":1729073381,"current_range_meters":30400,"station_id":"ce4bhh92rcd13ifvqfj0","pricing_plan_id":"cebpf4jnsgd1na2vs0mg"},{"bike_id":"a42c333f-f9ed-49ca-a9e7-c84073d75258","system_id":"levelo_inurba_marseille","lat":43.2845,"lon":5.38079,"is_reserved":false,"is_disabled":false,"rental_uris":{"android":"levelo://app?vid=a42c333f-f9ed-49ca-a9e7-c84073d75258","ios":"levelo://app?vid=a42c333f-f9ed-49ca-a9e7-c84073d75258"},"vehicle_type_id":"4","last_reported":1729073381,"current_range_meters":33600,"station_id":"ce4bha12rcd13ifvqee0","pricing_plan_id":"cebpf4jnsgd1na2vs0mg"},{"bike_id":"3e7357e3-6639-42ea-86e5-fcbe0c2bb499","system_id":"levelo_inurba_marseille","lat":43.25581,"lon":5.38232,"is_reserved":false,"is_disabled":false,"rental_uris":{"android":"levelo://app?vid=3e7357e3-6639-42ea-86e5-fcbe0c2bb499","ios":"levelo://app?vid=3e7357e3-6639-42ea-86e5-fcbe0c2bb499"},"vehicle_type_id":"4","last_reported":1729073381,"current_range_meters":38800,"station_id":"ce4bgh92rcd13ifvqb50","pricing_plan_id":"cebpf4jnsgd1na2vs0mg"},{"bike_id":"b3b76d0b-16ea-4ec2-bd27-660a8aa3d0cf","system_id":"levelo_inurba_marseille","lat":43.24392,"lon":5.37059,"is_reserved":false,"is_disabled":false,"rental_uris":{"android":"levelo://app?vid=b3b76d0b-16ea-4ec2-bd27-660a8aa3d0cf","ios":"levelo://app?vid=b3b76d0b-16ea-4ec2-bd27-660a8aa3d0cf"},"vehicle_type_id":"4","last_reported":1729073381,"current_range_meters":38000,"station_id":"ce4bhhh2rcd13ifvqfk0","pricing_plan_id":"cebpf4jnsgd1na2vs0mg"},{"bike_id":"6b4e1560-4346-4789-9688-17094209744f","system_id":"levelo_inurba_marseille","lat":43.28849,"lon":5.39323,"is_reserved":false,"is_disabled":false,"rental_uris":{"android":"levelo://app?vid=6b4e1560-4346-4789-9688-17094209744f","ios":"levelo://app?vid=6b4e1560-4346-4789-9688-17094209744f"},"vehicle_type_id":"4","last_reported":1729073381,"current_range_meters":29600,"station_id":"ce4bh2p2rcd13ifvqdi0","pricing_plan_id":"cebpf4jnsgd1na2vs0mg"},{"bike_id":"e69a34f7-c5b5-4409-96fa-65a8da5c5c7a","system_id":"levelo_inurba_marseille","lat":43.33615,"lon":5.4104,"is_reserved":false,"is_disabled":false,"rental_uris":{"android":"levelo://app?vid=e69a34f7-c5b5-4409-96fa-65a8da5c5c7a","ios":"levelo://app?vid=e69a34f7-c5b5-4409-96fa-65a8da5c5c7a"},"vehicle_type_id":"4","last_reported":1729073381,"current_range_meters":38800,"station_id":"ce4bhqh2rcd13ifvqhmg","pricing_plan_id":"cebpf4jnsgd1na2vs0mg"},{"bike_id":"f1cb7637-d7c7-483a-a9fe-0d9ef0b3ac9b","system_id":"levelo_inurba_marseille","lat":43.32542,"lon":5.41439,"is_reserved":false,"is_disabled":false,"rental_uris":{"android":"levelo://app?vid=f1cb7637-d7c7-483a-a9fe-0d9ef0b3ac9b","ios":"levelo://app?vid=f1cb7637-d7c7-483a-a9fe-0d9ef0b3ac9b"},"vehicle_type_id":"4","last_reported":1729073381,"current_range_meters":35600,"station_id":"ce4bhq12rcd13ifvqhhg","pricing_plan_id":"cebpf4jnsgd1na2vs0mg"},{"bike_id":"a3d00d5a-741f-48cd-acd5-d6b1bea47400","system_id":"levelo_inurba_marseille","lat":43.312139,"lon":5.368591,"is_reserved":false,"is_disabled":false,"rental_uris":{"android":"levelo://app?vid=a3d00d5a-741f-48cd-acd5-d6b1bea47400","ios":"levelo://app?vid=a3d00d5a-741f-48cd-acd5-d6b1bea47400"},"vehicle_type_id":"4","last_reported":1729073381,"current_range_meters":36400,"station_id":"ce4bgl92rcd13ifvqbq0","pricing_plan_id":"cebpf4jnsgd1na2vs0mg"},{"bike_id":"0994d7f0-fa2e-480f-b967-2b1e1b476b78","system_id":"levelo_inurba_marseille","lat":43.232,"lon":5.35547,"is_reserved":false,"is_disabled":false,"rental_uris":{"android":"levelo://app?vid=0994d7f0-fa2e-480f-b967-2b1e1b476b78","ios":"levelo://app?vid=0994d7f0-fa2e-480f-b967-2b1e1b476b78"},"vehicle_type_id":"4","last_reported":1729073381,"current_range_meters":22000,"station_id":"ce4bhu92rcd13ifvqi70","pricing_plan_id":"cebpf4jnsgd1na2vs0mg"},{"bike_id":"12b975a2-c366-482a-926a-3438aec64daa","system_id":"levelo_inurba_marseille","lat":43.2885,"lon":5.3933,"is_reserved":false,"is_disabled":false,"rental_uris":{"android":"levelo://app?vid=12b975a2-c366-482a-926a-3438aec64daa","ios":"levelo://app?vid=12b975a2-c366-482a-926a-3438aec64daa"},"vehicle_type_id":"4","last_reported":1729073381,"current_range_meters":16800,"station_id":"ce4bh2p2rcd13ifvqdi0","pricing_plan_id":"cebpf4jnsgd1na2vs0mg"},{"bike_id":"66ccc46d-618e-4760-b09c-27382152bdab","system_id":"levelo_inurba_marseille","lat":43.232,"lon":5.35548,"is_reserved":false,"is_disabled":false,"rental_uris":{"android":"levelo://app?vid=66ccc46d-618e-4760-b09c-27382152bdab","ios":"levelo://app?vid=66ccc46d-618e-4760-b09c-27382152bdab"},"vehicle_type_id":"4","last_reported":1729073381,"current_range_meters":38000,"station_id":"ce4bhu92rcd13ifvqi70","pricing_plan_id":"cebpf4jnsgd1na2vs0mg"},{"bike_id":"8a331acc-70d9-496a-b0bc-87f49792f9b4","system_id":"levelo_inurba_marseille","lat":43.24165,"lon":5.364,"is_reserved":false,"is_disabled":false,"rental_uris":{"android":"levelo://app?vid=8a331acc-70d9-496a-b0bc-87f49792f9b4","ios":"levelo://app?vid=8a331acc-70d9-496a-b0bc-87f49792f9b4"},"vehicle_type_id":"4","last_reported":1729073381,"current_range_meters":24400,"station_id":"cpo36qri1sfpv3e86is0","pricing_plan_id":"cebpf4jnsgd1na2vs0mg"},{"bike_id":"a8c6dcbb-71df-4d01-9f13-286e6119c0fd","system_id":"levelo_inurba_marseille","lat":43.23144,"lon":5.43727,"is_reserved":false,"is_disabled":false,"rental_uris":{"android":"levelo://app?vid=a8c6dcbb-71df-4d01-9f13-286e6119c0fd","ios":"levelo://app?vid=a8c6dcbb-71df-4d01-9f13-286e6119c0fd"},"vehicle_type_id":"4","last_reported":1729073381,"current_range_meters":38800,"station_id":"ce4bhmp2rcd13ifvqgog","pricing_plan_id":"cebpf4jnsgd1na2vs0mg"},{"bike_id":"d3fb0f69-8124-45ee-a057-d8d044cc62bb","system_id":"levelo_inurba_marseille","lat":43.27825,"lon":5.40715,"is_reserved":false,"is_disabled":false,"rental_uris":{"android":"levelo://app?vid=d3fb0f69-8124-45ee-a057-d8d044cc62bb","ios":"levelo://app?vid=d3fb0f69-8124-45ee-a057-d8d044cc62bb"},"vehicle_type_id":"4","last_reported":1729073381,"current_range_meters":38800,"station_id":"ce4bhnh2rcd13ifvqgtg","pricing_plan_id":"cebpf4jnsgd1na2vs0mg"},{"bike_id":"08e24e63-f1d6-4132-aba3-61f9dfaab35b","system_id":"levelo_inurba_marseille","lat":43.26679,"lon":5.38267,"is_reserved":false,"is_disabled":false,"rental_uris":{"android":"levelo://app?vid=08e24e63-f1d6-4132-aba3-61f9dfaab35b","ios":"levelo://app?vid=08e24e63-f1d6-4132-aba3-61f9dfaab35b"},"vehicle_type_id":"4","last_reported":1729073381,"current_range_meters":39200,"station_id":"ce4bhg92rcd13ifvqf90","pricing_plan_id":"cebpf4jnsgd1na2vs0mg"},{"bike_id":"9077cdac-59dd-4b07-8734-d17a09d12e92","system_id":"levelo_inurba_marseille","lat":43.27995,"lon":5.40014,"is_reserved":false,"is_disabled":false,"rental_uris":{"android":"levelo://app?vid=9077cdac-59dd-4b07-8734-d17a09d12e92","ios":"levelo://app?vid=9077cdac-59dd-4b07-8734-d17a09d12e92"},"vehicle_type_id":"4","last_reported":1729073381,"current_range_meters":14400,"station_id":"ce4bho92rcd13ifvqh4g","pricing_plan_id":"cebpf4jnsgd1na2vs0mg"},{"bike_id":"1e69292e-e3fe-4906-9ca6-103259c9e5f0","system_id":"levelo_inurba_marseille","lat":43.30531,"lon":5.36715,"is_reserved":false,"is_disabled":false,"rental_uris":{"android":"levelo://app?vid=1e69292e-e3fe-4906-9ca6-103259c9e5f0","ios":"levelo://app?vid=1e69292e-e3fe-4906-9ca6-103259c9e5f0"},"vehicle_type_id":"4","last_reported":1729073381,"current_range_meters":23200,"station_id":"ce4bgrp2rcd13ifvqc9g","pricing_plan_id":"cebpf4jnsgd1na2vs0mg"},{"bike_id":"6300df2c-b9fe-4275-916d-dd75e59140c9","system_id":"levelo_inurba_marseille","lat":43.23195,"lon":5.35543,"is_reserved":false,"is_disabled":false,"rental_uris":{"android":"levelo://app?vid=6300df2c-b9fe-4275-916d-dd75e59140c9","ios":"levelo://app?vid=6300df2c-b9fe-4275-916d-dd75e59140c9"},"vehicle_type_id":"4","last_reported":1729073381,"current_range_meters":38000,"station_id":"ce4bhu92rcd13ifvqi70","pricing_plan_id":"cebpf4jnsgd1na2vs0mg"},{"bike_id":"9e5b27c9-3509-48d2-8a05-9010e3bd11e1","system_id":"levelo_inurba_marseille","lat":43.33023,"lon":5.39046,"is_reserved":false,"is_disabled":false,"rental_uris":{"android":"levelo://app?vid=9e5b27c9-3509-48d2-8a05-9010e3bd11e1","ios":"levelo://app?vid=9e5b27c9-3509-48d2-8a05-9010e3bd11e1"},"vehicle_type_id":"4","last_reported":1729073381,"current_range_meters":8000,"station_id":"ce4bhr92rcd13ifvqhrg","pricing_plan_id":"cebpf4jnsgd1na2vs0mg"},{"bike_id":"18c87853-2849-4da6-bfe8-676fc287aa81","system_id":"levelo_inurba_marseille","lat":43.27049,"lon":5.40266,"is_reserved":false,"is_disabled":false,"rental_uris":{"android":"levelo://app?vid=18c87853-2849-4da6-bfe8-676fc287aa81","ios":"levelo://app?vid=18c87853-2849-4da6-bfe8-676fc287aa81"},"vehicle_type_id":"4","last_reported":1729073381,"current_range_meters":24800,"station_id":"ce4bhk92rcd13ifvqgc0","pricing_plan_id":"cebpf4jnsgd1na2vs0mg"},{"bike_id":"306d10a5-6d20-40b0-86cc-e97e65bfb51c","system_id":"levelo_inurba_marseille","lat":43.29586,"lon":5.36736,"is_reserved":false,"is_disabled":false,"rental_uris":{"android":"levelo://app?vid=306d10a5-6d20-40b0-86cc-e97e65bfb51c","ios":"levelo://app?vid=306d10a5-6d20-40b0-86cc-e97e65bfb51c"},"vehicle_type_id":"4","last_reported":1729073381,"current_range_meters":37600,"station_id":"ce4bgph2rcd13ifvqc2g","pricing_plan_id":"cebpf4jnsgd1na2vs0mg"},{"bike_id":"14545c6a-29ad-4b10-931f-b8da6d84a0a8","system_id":"levelo_inurba_marseille","lat":43.28717,"lon":5.36097,"is_reserved":false,"is_disabled":false,"rental_uris":{"android":"levelo://app?vid=14545c6a-29ad-4b10-931f-b8da6d84a0a8","ios":"levelo://app?vid=14545c6a-29ad-4b10-931f-b8da6d84a0a8"},"vehicle_type_id":"4","last_reported":1729073381,"current_range_meters":16000,"station_id":"cki0cbj6b192h4jlfktg","pricing_plan_id":"cebpf4jnsgd1na2vs0mg"},{"bike_id":"c3a2e888-a8b9-4ee1-b7d3-71b15869978f","system_id":"levelo_inurba_marseille","lat":43.23963,"lon":5.36634,"is_reserved":false,"is_disabled":false,"rental_uris":{"android":"levelo://app?vid=c3a2e888-a8b9-4ee1-b7d3-71b15869978f","ios":"levelo://app?vid=c3a2e888-a8b9-4ee1-b7d3-71b15869978f"},"vehicle_type_id":"4","last_reported":1729073381,"current_range_meters":38000,"station_id":"ce4bhi12rcd13ifvqfp0","pricing_plan_id":"cebpf4jnsgd1na2vs0mg"},{"bike_id":"e3b7dbfb-6f30-458b-b4dc-782770dde0e4","system_id":"levelo_inurba_marseille","lat":43.32482,"lon":5.36581,"is_reserved":false,"is_disabled":false,"rental_uris":{"android":"levelo://app?vid=e3b7dbfb-6f30-458b-b4dc-782770dde0e4","ios":"levelo://app?vid=e3b7dbfb-6f30-458b-b4dc-782770dde0e4"},"vehicle_type_id":"4","last_reported":1729073381,"current_range_meters":18800,"station_id":"ce4bhs12rcd13ifvqhvg","pricing_plan_id":"cebpf4jnsgd1na2vs0mg"},{"bike_id":"a93dc31e-a800-44ef-b256-21cfd90b8102","system_id":"levelo_inurba_marseille","lat":43.25933,"lon":5.40907,"is_reserved":false,"is_disabled":false,"rental_uris":{"android":"levelo://app?vid=a93dc31e-a800-44ef-b256-21cfd90b8102","ios":"levelo://app?vid=a93dc31e-a800-44ef-b256-21cfd90b8102"},"vehicle_type_id":"4","last_reported":1729073381,"current_range_meters":8000,"station_id":"ce4bhm92rcd13ifvqglg","pricing_plan_id":"cebpf4jnsgd1na2vs0mg"},{"bike_id":"79a0682c-4c0f-44dc-91bc-6b4806c2b650","system_id":"levelo_inurba_marseille","lat":43.31329,"lon":5.39693,"is_reserved":false,"is_disabled":false,"rental_uris":{"android":"levelo://app?vid=79a0682c-4c0f-44dc-91bc-6b4806c2b650","ios":"levelo://app?vid=79a0682c-4c0f-44dc-91bc-6b4806c2b650"},"vehicle_type_id":"4","last_reported":1729073381,"current_range_meters":23200,"station_id":"ce4bgvp2rcd13ifvqcu0","pricing_plan_id":"cebpf4jnsgd1na2vs0mg"},{"bike_id":"03e34492-38fa-4d1f-86d1-0f7739f3d3a4","system_id":"levelo_inurba_marseille","lat":43.32397,"lon":5.40455,"is_reserved":false,"is_disabled":false,"rental_uris":{"android":"levelo://app?vid=03e34492-38fa-4d1f-86d1-0f7739f3d3a4","ios":"levelo://app?vid=03e34492-38fa-4d1f-86d1-0f7739f3d3a4"},"vehicle_type_id":"4","last_reported":1729073381,"current_range_meters":25200,"station_id":"ce4bhr92rcd13ifvqhsg","pricing_plan_id":"cebpf4jnsgd1na2vs0mg"},{"bike_id":"0ec5ddbb-43b5-4e05-bbb9-303f53bfbfb3","system_id":"levelo_inurba_marseille","lat":43.29516,"lon":5.39044,"is_reserved":false,"is_disabled":false,"rental_uris":{"android":"levelo://app?vid=0ec5ddbb-43b5-4e05-bbb9-303f53bfbfb3","ios":"levelo://app?vid=0ec5ddbb-43b5-4e05-bbb9-303f53bfbfb3"},"vehicle_type_id":"4","last_reported":1729073381,"current_range_meters":19600,"station_id":"ce4bh3p2rcd13ifvqdp0","pricing_plan_id":"cebpf4jnsgd1na2vs0mg"},{"bike_id":"751cceb0-79d4-438e-9734-8d323f0f4abd","system_id":"levelo_inurba_marseille","lat":43.24176,"lon":5.39734,"is_reserved":false,"is_disabled":false,"rental_uris":{"android":"levelo://app?vid=751cceb0-79d4-438e-9734-8d323f0f4abd","ios":"levelo://app?vid=751cceb0-79d4-438e-9734-8d323f0f4abd"},"vehicle_type_id":"4","last_reported":1729073381,"current_range_meters":8800,"station_id":"ce4bhn12rcd13ifvqgpg","pricing_plan_id":"cebpf4jnsgd1na2vs0mg"},{"bike_id":"c668f19b-5a98-451f-9038-74347eff305a","system_id":"levelo_inurba_marseille","lat":43.25499,"lon":5.37647,"is_reserved":false,"is_disabled":false,"rental_uris":{"android":"levelo://app?vid=c668f19b-5a98-451f-9038-74347eff305a","ios":"levelo://app?vid=c668f19b-5a98-451f-9038-74347eff305a"},"vehicle_type_id":"4","last_reported":1729073381,"current_range_meters":38400,"station_id":"ce4bhh12rcd13ifvqff0","pricing_plan_id":"cebpf4jnsgd1na2vs0mg"},{"bike_id":"fa2949d0-b61f-4704-8f01-df6c7c877210","system_id":"levelo_inurba_marseille","lat":43.34148,"lon":5.409,"is_reserved":false,"is_disabled":false,"rental_uris":{"android":"levelo://app?vid=fa2949d0-b61f-4704-8f01-df6c7c877210","ios":"levelo://app?vid=fa2949d0-b61f-4704-8f01-df6c7c877210"},"vehicle_type_id":"4","last_reported":1729073381,"current_range_meters":38800,"station_id":"ce4bhqh2rcd13ifvqhlg","pricing_plan_id":"cebpf4jnsgd1na2vs0mg"},{"bike_id":"2140b6a3-5118-4150-823e-9225aeb56201","system_id":"levelo_inurba_marseille","lat":43.232,"lon":5.35551,"is_reserved":false,"is_disabled":false,"rental_uris":{"android":"levelo://app?vid=2140b6a3-5118-4150-823e-9225aeb56201","ios":"levelo://app?vid=2140b6a3-5118-4150-823e-9225aeb56201"},"vehicle_type_id":"4","last_reported":1729073381,"current_range_meters":4400,"station_id":"ce4bhu92rcd13ifvqi70","pricing_plan_id":"cebpf4jnsgd1na2vs0mg"},{"bike_id":"c71256e3-f91a-415b-a206-25fe3e2d20b5","system_id":"levelo_inurba_marseille","lat":43.24998,"lon":5.38927,"is_reserved":false,"is_disabled":false,"rental_uris":{"android":"levelo://app?vid=c71256e3-f91a-415b-a206-25fe3e2d20b5","ios":"levelo://app?vid=c71256e3-f91a-415b-a206-25fe3e2d20b5"},"vehicle_type_id":"4","last_reported":1729073381,"current_range_meters":27200,"station_id":"ce4bhgp2rcd13ifvqfd0","pricing_plan_id":"cebpf4jnsgd1na2vs0mg"},{"bike_id":"4edbfecc-8636-4466-b17b-4a509be3b0f5","system_id":"levelo_inurba_marseille","lat":43.27942,"lon":5.41045,"is_reserved":false,"is_disabled":false,"rental_uris":{"android":"levelo://app?vid=4edbfecc-8636-4466-b17b-4a509be3b0f5","ios":"levelo://app?vid=4edbfecc-8636-4466-b17b-4a509be3b0f5"},"vehicle_type_id":"4","last_reported":1729073381,"current_range_meters":34000,"station_id":"ce4bhnp2rcd13ifvqh0g","pricing_plan_id":"cebpf4jnsgd1na2vs0mg"},{"bike_id":"50080035-6716-47ec-87d7-ca879d4cf126","system_id":"levelo_inurba_marseille","lat":43.30193,"lon":5.36612,"is_reserved":false,"is_disabled":false,"rental_uris":{"android":"levelo://app?vid=50080035-6716-47ec-87d7-ca879d4cf126","ios":"levelo://app?vid=50080035-6716-47ec-87d7-ca879d4cf126"},"vehicle_type_id":"4","last_reported":1729073381,"current_range_meters":23200,"station_id":"ce4bgrh2rcd13ifvqc8g","pricing_plan_id":"cebpf4jnsgd1na2vs0mg"},{"bike_id":"20398fde-6335-4cd3-8565-959901f8bf85","system_id":"levelo_inurba_marseille","lat":43.28373,"lon":5.38635,"is_reserved":false,"is_disabled":false,"rental_uris":{"android":"levelo://app?vid=20398fde-6335-4cd3-8565-959901f8bf85","ios":"levelo://app?vid=20398fde-6335-4cd3-8565-959901f8bf85"},"vehicle_type_id":"4","last_reported":1729073381,"current_range_meters":38000,"station_id":"ce4bh492rcd13ifvqdvg","pricing_plan_id":"cebpf4jnsgd1na2vs0mg"},{"bike_id":"efe9840c-8fb2-4e9f-845d-e5b20acfb757","system_id":"levelo_inurba_marseille","lat":43.23153,"lon":5.43709,"is_reserved":false,"is_disabled":false,"rental_uris":{"android":"levelo://app?vid=efe9840c-8fb2-4e9f-845d-e5b20acfb757","ios":"levelo://app?vid=efe9840c-8fb2-4e9f-845d-e5b20acfb757"},"vehicle_type_id":"4","last_reported":1729073381,"current_range_meters":9200,"station_id":"ce4bhmp2rcd13ifvqgog","pricing_plan_id":"cebpf4jnsgd1na2vs0mg"},{"bike_id":"52e37773-79c6-4443-94d6-5ed359faaaf0","system_id":"levelo_inurba_marseille","lat":43.30283,"lon":5.37698,"is_reserved":false,"is_disabled":false,"rental_uris":{"android":"levelo://app?vid=52e37773-79c6-4443-94d6-5ed359faaaf0","ios":"levelo://app?vid=52e37773-79c6-4443-94d6-5ed359faaaf0"},"vehicle_type_id":"4","last_reported":1729073381,"current_range_meters":8000,"station_id":"ce4bguh2rcd13ifvqcj0","pricing_plan_id":"cebpf4jnsgd1na2vs0mg"},{"bike_id":"fe0ed97f-0597-4aef-86e2-d5d073ff43d3","system_id":"levelo_inurba_marseille","lat":43.29554,"lon":5.42286,"is_reserved":false,"is_disabled":false,"rental_uris":{"android":"levelo://app?vid=fe0ed97f-0597-4aef-86e2-d5d073ff43d3","ios":"levelo://app?vid=fe0ed97f-0597-4aef-86e2-d5d073ff43d3"},"vehicle_type_id":"4","last_reported":1729073381,"current_range_meters":38000,"station_id":"ce4bhph2rcd13ifvqhdg","pricing_plan_id":"cebpf4jnsgd1na2vs0mg"},{"bike_id":"25cb8ec2-1ba1-4361-a0d8-34d3dff9720b","system_id":"levelo_inurba_marseille","lat":43.23154,"lon":5.43703,"is_reserved":false,"is_disabled":false,"rental_uris":{"android":"levelo://app?vid=25cb8ec2-1ba1-4361-a0d8-34d3dff9720b","ios":"levelo://app?vid=25cb8ec2-1ba1-4361-a0d8-34d3dff9720b"},"vehicle_type_id":"4","last_reported":1729073381,"current_range_meters":14800,"station_id":"ce4bhmp2rcd13ifvqgog","pricing_plan_id":"cebpf4jnsgd1na2vs0mg"},{"bike_id":"97508b92-4548-4bc3-8d90-c63f406852d1","system_id":"levelo_inurba_marseille","lat":43.27986,"lon":5.41663,"is_reserved":false,"is_disabled":false,"rental_uris":{"android":"levelo://app?vid=97508b92-4548-4bc3-8d90-c63f406852d1","ios":"levelo://app?vid=97508b92-4548-4bc3-8d90-c63f406852d1"},"vehicle_type_id":"4","last_reported":1729073381,"current_range_meters":38000,"station_id":"ce4bho12rcd13ifvqh1g","pricing_plan_id":"cebpf4jnsgd1na2vs0mg"},{"bike_id":"da6cbdd9-9a8a-48a9-85a5-7b150b846dc6","system_id":"levelo_inurba_marseille","lat":43.25005,"lon":5.38928,"is_reserved":false,"is_disabled":false,"rental_uris":{"android":"levelo://app?vid=da6cbdd9-9a8a-48a9-85a5-7b150b846dc6","ios":"levelo://app?vid=da6cbdd9-9a8a-48a9-85a5-7b150b846dc6"},"vehicle_type_id":"4","last_reported":1729073381,"current_range_meters":24400,"station_id":"ce4bhgp2rcd13ifvqfd0","pricing_plan_id":"cebpf4jnsgd1na2vs0mg"},{"bike_id":"c46427c8-1df2-45b2-8a56-68703623f483","system_id":"levelo_inurba_marseille","lat":43.26064,"lon":5.39396,"is_reserved":false,"is_disabled":false,"rental_uris":{"android":"levelo://app?vid=c46427c8-1df2-45b2-8a56-68703623f483","ios":"levelo://app?vid=c46427c8-1df2-45b2-8a56-68703623f483"},"vehicle_type_id":"4","last_reported":1729073381,"current_range_meters":38800,"station_id":"ce4bhh92rcd13ifvqfj0","pricing_plan_id":"cebpf4jnsgd1na2vs0mg"},{"bike_id":"7062fee6-b1b5-4105-ba72-7ff8e0c04a3a","system_id":"levelo_inurba_marseille","lat":43.32489,"lon":5.36564,"is_reserved":false,"is_disabled":false,"rental_uris":{"android":"levelo://app?vid=7062fee6-b1b5-4105-ba72-7ff8e0c04a3a","ios":"levelo://app?vid=7062fee6-b1b5-4105-ba72-7ff8e0c04a3a"},"vehicle_type_id":"4","last_reported":1729073381,"current_range_meters":34000,"station_id":"ce4bhs12rcd13ifvqhvg","pricing_plan_id":"cebpf4jnsgd1na2vs0mg"},{"bike_id":"89fbdef1-235e-4836-900e-268af52de056","system_id":"levelo_inurba_marseille","lat":43.2919,"lon":5.35811,"is_reserved":false,"is_disabled":false,"rental_uris":{"android":"levelo://app?vid=89fbdef1-235e-4836-900e-268af52de056","ios":"levelo://app?vid=89fbdef1-235e-4836-900e-268af52de056"},"vehicle_type_id":"4","last_reported":1729073381,"current_range_meters":35600,"station_id":"ce4bhb12rcd13ifvqel0","pricing_plan_id":"cebpf4jnsgd1na2vs0mg"},{"bike_id":"8cb8794b-fc64-4ce9-b434-8942818c8fb2","system_id":"levelo_inurba_marseille","lat":43.24391,"lon":5.37053,"is_reserved":false,"is_disabled":false,"rental_uris":{"android":"levelo://app?vid=8cb8794b-fc64-4ce9-b434-8942818c8fb2","ios":"levelo://app?vid=8cb8794b-fc64-4ce9-b434-8942818c8fb2"},"vehicle_type_id":"4","last_reported":1729073381,"current_range_meters":38800,"station_id":"ce4bhhh2rcd13ifvqfk0","pricing_plan_id":"cebpf4jnsgd1na2vs0mg"},{"bike_id":"3213665e-989c-4d22-9f5a-31c8522597dd","system_id":"levelo_inurba_marseille","lat":43.296,"lon":5.36142,"is_reserved":false,"is_disabled":false,"rental_uris":{"android":"levelo://app?vid=3213665e-989c-4d22-9f5a-31c8522597dd","ios":"levelo://app?vid=3213665e-989c-4d22-9f5a-31c8522597dd"},"vehicle_type_id":"4","last_reported":1729073381,"current_range_meters":33600,"station_id":"","pricing_plan_id":"cebpf4jnsgd1na2vs0mg"},{"bike_id":"b248a3e6-a9e7-490c-b6ad-80c3749d31eb","system_id":"levelo_inurba_marseille","lat":43.26975,"lon":5.36312,"is_reserved":false,"is_disabled":false,"rental_uris":{"android":"levelo://app?vid=b248a3e6-a9e7-490c-b6ad-80c3749d31eb","ios":"levelo://app?vid=b248a3e6-a9e7-490c-b6ad-80c3749d31eb"},"vehicle_type_id":"4","last_reported":1729073381,"current_range_meters":38400,"station_id":"ce4bhh12rcd13ifvqff0","pricing_plan_id":"cebpf4jnsgd1na2vs0mg"},{"bike_id":"6cbf131e-6dd9-46eb-aecd-f22189cabc6f","system_id":"levelo_inurba_marseille","lat":43.26791,"lon":5.39417,"is_reserved":false,"is_disabled":false,"rental_uris":{"android":"levelo://app?vid=6cbf131e-6dd9-46eb-aecd-f22189cabc6f","ios":"levelo://app?vid=6cbf131e-6dd9-46eb-aecd-f22189cabc6f"},"vehicle_type_id":"4","last_reported":1729073381,"current_range_meters":38000,"station_id":"ce4bhh12rcd13ifvqfg0","pricing_plan_id":"cebpf4jnsgd1na2vs0mg"},{"bike_id":"3ecda465-3f44-4acb-b6ec-0dd71866866a","system_id":"levelo_inurba_marseille","lat":43.29937,"lon":5.36566,"is_reserved":false,"is_disabled":false,"rental_uris":{"android":"levelo://app?vid=3ecda465-3f44-4acb-b6ec-0dd71866866a","ios":"levelo://app?vid=3ecda465-3f44-4acb-b6ec-0dd71866866a"},"vehicle_type_id":"4","last_reported":1729073381,"current_range_meters":30000,"station_id":"ce4bgm92rcd13ifvqbr0","pricing_plan_id":"cebpf4jnsgd1na2vs0mg"},{"bike_id":"1641b826-604a-4181-8231-dca386f637a6","system_id":"levelo_inurba_marseille","lat":43.23195,"lon":5.35555,"is_reserved":false,"is_disabled":false,"rental_uris":{"android":"levelo://app?vid=1641b826-604a-4181-8231-dca386f637a6","ios":"levelo://app?vid=1641b826-604a-4181-8231-dca386f637a6"},"vehicle_type_id":"4","last_reported":1729073381,"current_range_meters":38000,"station_id":"ce4bhu92rcd13ifvqi70","pricing_plan_id":"cebpf4jnsgd1na2vs0mg"},{"bike_id":"89211ee2-076f-4df3-92bd-cd8885f2e76d","system_id":"levelo_inurba_marseille","lat":43.23193,"lon":5.35556,"is_reserved":false,"is_disabled":false,"rental_uris":{"android":"levelo://app?vid=89211ee2-076f-4df3-92bd-cd8885f2e76d","ios":"levelo://app?vid=89211ee2-076f-4df3-92bd-cd8885f2e76d"},"vehicle_type_id":"4","last_reported":1729073381,"current_range_meters":38000,"station_id":"ce4bhu92rcd13ifvqi70","pricing_plan_id":"cebpf4jnsgd1na2vs0mg"},{"bike_id":"90f80907-e0d5-4716-a7d8-45b2c2640b01","system_id":"levelo_inurba_marseille","lat":43.231551,"lon":5.437021,"is_reserved":false,"is_disabled":false,"rental_uris":{"android":"levelo://app?vid=90f80907-e0d5-4716-a7d8-45b2c2640b01","ios":"levelo://app?vid=90f80907-e0d5-4716-a7d8-45b2c2640b01"},"vehicle_type_id":"4","last_reported":1729073381,"current_range_meters":38400,"station_id":"ce4bhmp2rcd13ifvqgog","pricing_plan_id":"cebpf4jnsgd1na2vs0mg"},{"bike_id":"01dd6611-cb83-4937-aa13-849020819934","system_id":"levelo_inurba_marseille","lat":43.28952,"lon":5.396809,"is_reserved":false,"is_disabled":false,"rental_uris":{"android":"levelo://app?vid=01dd6611-cb83-4937-aa13-849020819934","ios":"levelo://app?vid=01dd6611-cb83-4937-aa13-849020819934"},"vehicle_type_id":"4","last_reported":1729073381,"current_range_meters":24000,"station_id":"ce4bh3h2rcd13ifvqdn0","pricing_plan_id":"cebpf4jnsgd1na2vs0mg"},{"bike_id":"975adece-daeb-433e-b5fe-8997a00f0604","system_id":"levelo_inurba_marseille","lat":43.3302,"lon":5.3905,"is_reserved":false,"is_disabled":false,"rental_uris":{"android":"levelo://app?vid=975adece-daeb-433e-b5fe-8997a00f0604","ios":"levelo://app?vid=975adece-daeb-433e-b5fe-8997a00f0604"},"vehicle_type_id":"4","last_reported":1729073381,"current_range_meters":32000,"station_id":"ce4bhr92rcd13ifvqhrg","pricing_plan_id":"cebpf4jnsgd1na2vs0mg"},{"bike_id":"7c5f840d-ee91-49f8-abf1-6481edcbe346","system_id":"levelo_inurba_marseille","lat":43.23152,"lon":5.43701,"is_reserved":false,"is_disabled":false,"rental_uris":{"android":"levelo://app?vid=7c5f840d-ee91-49f8-abf1-6481edcbe346","ios":"levelo://app?vid=7c5f840d-ee91-49f8-abf1-6481edcbe346"},"vehicle_type_id":"4","last_reported":1729073381,"current_range_meters":27600,"station_id":"ce4bhmp2rcd13ifvqgog","pricing_plan_id":"cebpf4jnsgd1na2vs0mg"},{"bike_id":"f4fe071a-6c7a-43af-aee0-fd3bfa697a09","system_id":"levelo_inurba_marseille","lat":43.27501,"lon":5.4245,"is_reserved":false,"is_disabled":false,"rental_uris":{"android":"levelo://app?vid=f4fe071a-6c7a-43af-aee0-fd3bfa697a09","ios":"levelo://app?vid=f4fe071a-6c7a-43af-aee0-fd3bfa697a09"},"vehicle_type_id":"4","last_reported":1729073381,"current_range_meters":11600,"station_id":"ce4bhn92rcd13ifvqgrg","pricing_plan_id":"cebpf4jnsgd1na2vs0mg"},{"bike_id":"02af67c6-7c68-4559-a056-7404a067af01","system_id":"levelo_inurba_marseille","lat":43.33029,"lon":5.39046,"is_reserved":false,"is_disabled":false,"rental_uris":{"android":"levelo://app?vid=02af67c6-7c68-4559-a056-7404a067af01","ios":"levelo://app?vid=02af67c6-7c68-4559-a056-7404a067af01"},"vehicle_type_id":"4","last_reported":1729073381,"current_range_meters":35200,"station_id":"ce4bhr92rcd13ifvqhrg","pricing_plan_id":"cebpf4jnsgd1na2vs0mg"},{"bike_id":"7bd2624d-90da-46b1-a041-400b3ff0ca18","system_id":"levelo_inurba_marseille","lat":43.30141,"lon":5.37405,"is_reserved":false,"is_disabled":false,"rental_uris":{"android":"levelo://app?vid=7bd2624d-90da-46b1-a041-400b3ff0ca18","ios":"levelo://app?vid=7bd2624d-90da-46b1-a041-400b3ff0ca18"},"vehicle_type_id":"4","last_reported":1729073381,"current_range_meters":38800,"station_id":"ce4bgs92rcd13ifvqcc0","pricing_plan_id":"cebpf4jnsgd1na2vs0mg"},{"bike_id":"d75fb9fc-f2d5-478a-97ac-5eadd2a793ac","system_id":"levelo_inurba_marseille","lat":43.31218,"lon":5.36872,"is_reserved":false,"is_disabled":false,"rental_uris":{"android":"levelo://app?vid=d75fb9fc-f2d5-478a-97ac-5eadd2a793ac","ios":"levelo://app?vid=d75fb9fc-f2d5-478a-97ac-5eadd2a793ac"},"vehicle_type_id":"4","last_reported":1729073381,"current_range_meters":19200,"station_id":"ce4bgl92rcd13ifvqbq0","pricing_plan_id":"cebpf4jnsgd1na2vs0mg"},{"bike_id":"c50f4a7e-fd65-47a3-a2a5-a8742f16687c","system_id":"levelo_inurba_marseille","lat":43.28153,"lon":5.4264,"is_reserved":false,"is_disabled":false,"rental_uris":{"android":"levelo://app?vid=c50f4a7e-fd65-47a3-a2a5-a8742f16687c","ios":"levelo://app?vid=c50f4a7e-fd65-47a3-a2a5-a8742f16687c"},"vehicle_type_id":"4","last_reported":1729073381,"current_range_meters":32800,"station_id":"ce4bhnh2rcd13ifvqgug","pricing_plan_id":"cebpf4jnsgd1na2vs0mg"},{"bike_id":"8e3963b6-8131-4c1e-b4d2-add46d4dfbf9","system_id":"levelo_inurba_marseille","lat":43.30305,"lon":5.36897,"is_reserved":false,"is_disabled":false,"rental_uris":{"android":"levelo://app?vid=8e3963b6-8131-4c1e-b4d2-add46d4dfbf9","ios":"levelo://app?vid=8e3963b6-8131-4c1e-b4d2-add46d4dfbf9"},"vehicle_type_id":"4","last_reported":1729073381,"current_range_meters":19200,"station_id":"ce4bgqh2rcd13ifvqc5g","pricing_plan_id":"cebpf4jnsgd1na2vs0mg"},{"bike_id":"e44ce23a-950e-445b-89f1-717d9e4dcde1","system_id":"levelo_inurba_marseille","lat":43.27212,"lon":5.39195,"is_reserved":false,"is_disabled":false,"rental_uris":{"android":"levelo://app?vid=e44ce23a-950e-445b-89f1-717d9e4dcde1","ios":"levelo://app?vid=e44ce23a-950e-445b-89f1-717d9e4dcde1"},"vehicle_type_id":"4","last_reported":1729073381,"current_range_meters":38400,"station_id":"ce4bhhp2rcd13ifvqfm0","pricing_plan_id":"cebpf4jnsgd1na2vs0mg"},{"bike_id":"c033bbb6-14b8-4f3f-87f4-b86ea3c83a69","system_id":"levelo_inurba_marseille","lat":43.27206,"lon":5.39189,"is_reserved":false,"is_disabled":false,"rental_uris":{"android":"levelo://app?vid=c033bbb6-14b8-4f3f-87f4-b86ea3c83a69","ios":"levelo://app?vid=c033bbb6-14b8-4f3f-87f4-b86ea3c83a69"},"vehicle_type_id":"4","last_reported":1729073381,"current_range_meters":32000,"station_id":"ce4bhhp2rcd13ifvqfm0","pricing_plan_id":"cebpf4jnsgd1na2vs0mg"},{"bike_id":"87dde795-a848-4abe-8563-92325ec050f2","system_id":"levelo_inurba_marseille","lat":43.30091,"lon":5.36615,"is_reserved":false,"is_disabled":false,"rental_uris":{"android":"levelo://app?vid=87dde795-a848-4abe-8563-92325ec050f2","ios":"levelo://app?vid=87dde795-a848-4abe-8563-92325ec050f2"},"vehicle_type_id":"4","last_reported":1729073381,"current_range_meters":8800,"station_id":"","pricing_plan_id":"cebpf4jnsgd1na2vs0mg"},{"bike_id":"87440bd7-4730-412f-b52f-03b263c3d6ba","system_id":"levelo_inurba_marseille","lat":43.23191,"lon":5.35554,"is_reserved":false,"is_disabled":false,"rental_uris":{"android":"levelo://app?vid=87440bd7-4730-412f-b52f-03b263c3d6ba","ios":"levelo://app?vid=87440bd7-4730-412f-b52f-03b263c3d6ba"},"vehicle_type_id":"4","last_reported":1729073381,"current_range_meters":24800,"station_id":"ce4bhu92rcd13ifvqi70","pricing_plan_id":"cebpf4jnsgd1na2vs0mg"},{"bike_id":"76bdfcaf-07c0-4be6-a6f6-c527d379d85d","system_id":"levelo_inurba_marseille","lat":43.29031,"lon":5.35923,"is_reserved":false,"is_disabled":false,"rental_uris":{"android":"levelo://app?vid=76bdfcaf-07c0-4be6-a6f6-c527d379d85d","ios":"levelo://app?vid=76bdfcaf-07c0-4be6-a6f6-c527d379d85d"},"vehicle_type_id":"4","last_reported":1729073381,"current_range_meters":26800,"station_id":"ce4bha92rcd13ifvqeg0","pricing_plan_id":"cebpf4jnsgd1na2vs0mg"},{"bike_id":"7484c344-debf-4edc-af17-e722b5059f6c","system_id":"levelo_inurba_marseille","lat":43.33738,"lon":5.37482,"is_reserved":false,"is_disabled":false,"rental_uris":{"android":"levelo://app?vid=7484c344-debf-4edc-af17-e722b5059f6c","ios":"levelo://app?vid=7484c344-debf-4edc-af17-e722b5059f6c"},"vehicle_type_id":"4","last_reported":1729073381,"current_range_meters":16800,"station_id":"","pricing_plan_id":"cebpf4jnsgd1na2vs0mg"},{"bike_id":"cdae481f-9aa1-4014-97de-af082fcf5979","system_id":"levelo_inurba_marseille","lat":43.258672,"lon":5.399074,"is_reserved":false,"is_disabled":false,"rental_uris":{"android":"levelo://app?vid=cdae481f-9aa1-4014-97de-af082fcf5979","ios":"levelo://app?vid=cdae481f-9aa1-4014-97de-af082fcf5979"},"vehicle_type_id":"4","last_reported":1729073381,"current_range_meters":4400,"station_id":"ce4bhl92rcd13ifvqghg","pricing_plan_id":"cebpf4jnsgd1na2vs0mg"},{"bike_id":"39c87495-e919-48df-ad42-0b47d2014833","system_id":"levelo_inurba_marseille","lat":43.23149,"lon":5.43717,"is_reserved":false,"is_disabled":false,"rental_uris":{"android":"levelo://app?vid=39c87495-e919-48df-ad42-0b47d2014833","ios":"levelo://app?vid=39c87495-e919-48df-ad42-0b47d2014833"},"vehicle_type_id":"4","last_reported":1729073381,"current_range_meters":38800,"station_id":"ce4bhmp2rcd13ifvqgog","pricing_plan_id":"cebpf4jnsgd1na2vs0mg"},{"bike_id":"5c124c2c-4d88-4776-a83f-617bca38bb98","system_id":"levelo_inurba_marseille","lat":43.28146,"lon":5.4264,"is_reserved":false,"is_disabled":false,"rental_uris":{"android":"levelo://app?vid=5c124c2c-4d88-4776-a83f-617bca38bb98","ios":"levelo://app?vid=5c124c2c-4d88-4776-a83f-617bca38bb98"},"vehicle_type_id":"4","last_reported":1729073381,"current_range_meters":33600,"station_id":"ce4bhnh2rcd13ifvqgug","pricing_plan_id":"cebpf4jnsgd1na2vs0mg"},{"bike_id":"2a8aaf40-365d-4139-817f-3e02e33f955c","system_id":"levelo_inurba_marseille","lat":43.29028,"lon":5.38127,"is_reserved":false,"is_disabled":false,"rental_uris":{"android":"levelo://app?vid=2a8aaf40-365d-4139-817f-3e02e33f955c","ios":"levelo://app?vid=2a8aaf40-365d-4139-817f-3e02e33f955c"},"vehicle_type_id":"4","last_reported":1729073381,"current_range_meters":38800,"station_id":"ce4bh4p2rcd13ifvqe1g","pricing_plan_id":"cebpf4jnsgd1na2vs0mg"},{"bike_id":"ff96eee3-1ac8-4888-9ae7-e4b6cc8154af","system_id":"levelo_inurba_marseille","lat":43.33739,"lon":5.3746,"is_reserved":false,"is_disabled":false,"rental_uris":{"android":"levelo://app?vid=ff96eee3-1ac8-4888-9ae7-e4b6cc8154af","ios":"levelo://app?vid=ff96eee3-1ac8-4888-9ae7-e4b6cc8154af"},"vehicle_type_id":"4","last_reported":1729073381,"current_range_meters":30000,"station_id":"","pricing_plan_id":"cebpf4jnsgd1na2vs0mg"},{"bike_id":"3274599f-a504-45f3-8bfd-10845f23778f","system_id":"levelo_inurba_marseille","lat":43.299489,"lon":5.365798,"is_reserved":false,"is_disabled":false,"rental_uris":{"android":"levelo://app?vid=3274599f-a504-45f3-8bfd-10845f23778f","ios":"levelo://app?vid=3274599f-a504-45f3-8bfd-10845f23778f"},"vehicle_type_id":"4","last_reported":1729073381,"current_range_meters":35600,"station_id":"ce4bgm92rcd13ifvqbr0","pricing_plan_id":"cebpf4jnsgd1na2vs0mg"},{"bike_id":"83042ac9-519c-420c-adf7-f7f1ca7582c7","system_id":"levelo_inurba_marseille","lat":43.33753,"lon":5.37478,"is_reserved":false,"is_disabled":false,"rental_uris":{"android":"levelo://app?vid=83042ac9-519c-420c-adf7-f7f1ca7582c7","ios":"levelo://app?vid=83042ac9-519c-420c-adf7-f7f1ca7582c7"},"vehicle_type_id":"4","last_reported":1729073381,"current_range_meters":25200,"station_id":"","pricing_plan_id":"cebpf4jnsgd1na2vs0mg"},{"bike_id":"b2d94123-d9c3-4dc3-b6a7-d0fa59311d4e","system_id":"levelo_inurba_marseille","lat":43.29586,"lon":5.36745,"is_reserved":false,"is_disabled":false,"rental_uris":{"android":"levelo://app?vid=b2d94123-d9c3-4dc3-b6a7-d0fa59311d4e","ios":"levelo://app?vid=b2d94123-d9c3-4dc3-b6a7-d0fa59311d4e"},"vehicle_type_id":"4","last_reported":1729073381,"current_range_meters":28800,"station_id":"ce4bgph2rcd13ifvqc2g","pricing_plan_id":"cebpf4jnsgd1na2vs0mg"},{"bike_id":"a98b132b-cf81-4bd5-b05c-8340b7956463","system_id":"levelo_inurba_marseille","lat":43.29005,"lon":5.35615,"is_reserved":false,"is_disabled":false,"rental_uris":{"android":"levelo://app?vid=a98b132b-cf81-4bd5-b05c-8340b7956463","ios":"levelo://app?vid=a98b132b-cf81-4bd5-b05c-8340b7956463"},"vehicle_type_id":"4","last_reported":1729073381,"current_range_meters":39200,"station_id":"ce4bhb92rcd13ifvqen0","pricing_plan_id":"cebpf4jnsgd1na2vs0mg"},{"bike_id":"1f5d6817-da92-4702-9da2-1fc138e604d5","system_id":"levelo_inurba_marseille","lat":43.32106,"lon":5.36767,"is_reserved":false,"is_disabled":false,"rental_uris":{"android":"levelo://app?vid=1f5d6817-da92-4702-9da2-1fc138e604d5","ios":"levelo://app?vid=1f5d6817-da92-4702-9da2-1fc138e604d5"},"vehicle_type_id":"4","last_reported":1729073381,"current_range_meters":4800,"station_id":"ce4bhrh2rcd13ifvqhug","pricing_plan_id":"cebpf4jnsgd1na2vs0mg"},{"bike_id":"3e6761da-2955-48d0-b4a6-5188b735c9d7","system_id":"levelo_inurba_marseille","lat":43.27054,"lon":5.40263,"is_reserved":false,"is_disabled":false,"rental_uris":{"android":"levelo://app?vid=3e6761da-2955-48d0-b4a6-5188b735c9d7","ios":"levelo://app?vid=3e6761da-2955-48d0-b4a6-5188b735c9d7"},"vehicle_type_id":"4","last_reported":1729073381,"current_range_meters":32000,"station_id":"ce4bhk92rcd13ifvqgc0","pricing_plan_id":"cebpf4jnsgd1na2vs0mg"},{"bike_id":"052d6617-d09f-4b83-84fa-1cc6a48f6ffa","system_id":"levelo_inurba_marseille","lat":43.30164,"lon":5.38084,"is_reserved":false,"is_disabled":false,"rental_uris":{"android":"levelo://app?vid=052d6617-d09f-4b83-84fa-1cc6a48f6ffa","ios":"levelo://app?vid=052d6617-d09f-4b83-84fa-1cc6a48f6ffa"},"vehicle_type_id":"4","last_reported":1729073381,"current_range_meters":36800,"station_id":"ce4bgjp2rcd13ifvqbh0","pricing_plan_id":"cebpf4jnsgd1na2vs0mg"},{"bike_id":"1565a517-3798-43a5-acf8-c309c81f391f","system_id":"levelo_inurba_marseille","lat":43.2968,"lon":5.372927,"is_reserved":false,"is_disabled":false,"rental_uris":{"android":"levelo://app?vid=1565a517-3798-43a5-acf8-c309c81f391f","ios":"levelo://app?vid=1565a517-3798-43a5-acf8-c309c81f391f"},"vehicle_type_id":"4","last_reported":1729073381,"current_range_meters":36800,"station_id":"ce4bgk12rcd13ifvqbj0","pricing_plan_id":"cebpf4jnsgd1na2vs0mg"},{"bike_id":"292b9425-1372-40d4-bf0a-fe57aa779a41","system_id":"levelo_inurba_marseille","lat":43.23061,"lon":5.35499,"is_reserved":false,"is_disabled":false,"rental_uris":{"android":"levelo://app?vid=292b9425-1372-40d4-bf0a-fe57aa779a41","ios":"levelo://app?vid=292b9425-1372-40d4-bf0a-fe57aa779a41"},"vehicle_type_id":"4","last_reported":1729073381,"current_range_meters":28800,"station_id":"cpo3342slgdg3j2ifvpg","pricing_plan_id":"cebpf4jnsgd1na2vs0mg"},{"bike_id":"9fb5f608-bf00-4c87-8ebd-9a3485e26310","system_id":"levelo_inurba_marseille","lat":43.28374,"lon":5.38623,"is_reserved":false,"is_disabled":false,"rental_uris":{"android":"levelo://app?vid=9fb5f608-bf00-4c87-8ebd-9a3485e26310","ios":"levelo://app?vid=9fb5f608-bf00-4c87-8ebd-9a3485e26310"},"vehicle_type_id":"4","last_reported":1729073381,"current_range_meters":34000,"station_id":"ce4bh492rcd13ifvqdvg","pricing_plan_id":"cebpf4jnsgd1na2vs0mg"},{"bike_id":"32862d5d-6dfa-4e3c-a047-baa23fa4358c","system_id":"levelo_inurba_marseille","lat":43.28844,"lon":5.3931,"is_reserved":false,"is_disabled":false,"rental_uris":{"android":"levelo://app?vid=32862d5d-6dfa-4e3c-a047-baa23fa4358c","ios":"levelo://app?vid=32862d5d-6dfa-4e3c-a047-baa23fa4358c"},"vehicle_type_id":"4","last_reported":1729073381,"current_range_meters":36000,"station_id":"ce4bh2p2rcd13ifvqdi0","pricing_plan_id":"cebpf4jnsgd1na2vs0mg"},{"bike_id":"876066e6-f609-414a-911e-db5625644e41","system_id":"levelo_inurba_marseille","lat":43.29715,"lon":5.37693,"is_reserved":false,"is_disabled":false,"rental_uris":{"android":"levelo://app?vid=876066e6-f609-414a-911e-db5625644e41","ios":"levelo://app?vid=876066e6-f609-414a-911e-db5625644e41"},"vehicle_type_id":"4","last_reported":1729073381,"current_range_meters":28000,"station_id":"ce4bgkh2rcd13ifvqbl0","pricing_plan_id":"cebpf4jnsgd1na2vs0mg"},{"bike_id":"be5fd537-061b-455f-b0dd-6e3280df4398","system_id":"levelo_inurba_marseille","lat":43.26036,"lon":5.37546,"is_reserved":false,"is_disabled":false,"rental_uris":{"android":"levelo://app?vid=be5fd537-061b-455f-b0dd-6e3280df4398","ios":"levelo://app?vid=be5fd537-061b-455f-b0dd-6e3280df4398"},"vehicle_type_id":"4","last_reported":1729073381,"current_range_meters":37600,"station_id":"ce4bhgh2rcd13ifvqfa0","pricing_plan_id":"cebpf4jnsgd1na2vs0mg"},{"bike_id":"01ef0133-e3ea-4e84-b5ca-fc0751766d90","system_id":"levelo_inurba_marseille","lat":43.30137,"lon":5.37413,"is_reserved":false,"is_disabled":false,"rental_uris":{"android":"levelo://app?vid=01ef0133-e3ea-4e84-b5ca-fc0751766d90","ios":"levelo://app?vid=01ef0133-e3ea-4e84-b5ca-fc0751766d90"},"vehicle_type_id":"4","last_reported":1729073381,"current_range_meters":22000,"station_id":"ce4bgs92rcd13ifvqcc0","pricing_plan_id":"cebpf4jnsgd1na2vs0mg"},{"bike_id":"8e1d4e0d-5507-46d6-90b0-3fb646d87956","system_id":"levelo_inurba_marseille","lat":43.33609,"lon":5.41035,"is_reserved":false,"is_disabled":false,"rental_uris":{"android":"levelo://app?vid=8e1d4e0d-5507-46d6-90b0-3fb646d87956","ios":"levelo://app?vid=8e1d4e0d-5507-46d6-90b0-3fb646d87956"},"vehicle_type_id":"4","last_reported":1729073381,"current_range_meters":28800,"station_id":"ce4bhqh2rcd13ifvqhmg","pricing_plan_id":"cebpf4jnsgd1na2vs0mg"},{"bike_id":"91c0642a-275e-4212-9214-8469cc8803cc","system_id":"levelo_inurba_marseille","lat":43.29704,"lon":5.37698,"is_reserved":false,"is_disabled":false,"rental_uris":{"android":"levelo://app?vid=91c0642a-275e-4212-9214-8469cc8803cc","ios":"levelo://app?vid=91c0642a-275e-4212-9214-8469cc8803cc"},"vehicle_type_id":"4","last_reported":1729073381,"current_range_meters":18800,"station_id":"ce4bgkh2rcd13ifvqbl0","pricing_plan_id":"cebpf4jnsgd1na2vs0mg"},{"bike_id":"930f85bd-14a8-4ca1-9b12-c167345b13a9","system_id":"levelo_inurba_marseille","lat":43.29726,"lon":5.36619,"is_reserved":false,"is_disabled":false,"rental_uris":{"android":"levelo://app?vid=930f85bd-14a8-4ca1-9b12-c167345b13a9","ios":"levelo://app?vid=930f85bd-14a8-4ca1-9b12-c167345b13a9"},"vehicle_type_id":"4","last_reported":1729073381,"current_range_meters":23200,"station_id":"ce4bgn12rcd13ifvqbt0","pricing_plan_id":"cebpf4jnsgd1na2vs0mg"},{"bike_id":"6ace01bb-9b94-4600-8785-8619a2548a91","system_id":"levelo_inurba_marseille","lat":43.23158,"lon":5.43704,"is_reserved":false,"is_disabled":false,"rental_uris":{"android":"levelo://app?vid=6ace01bb-9b94-4600-8785-8619a2548a91","ios":"levelo://app?vid=6ace01bb-9b94-4600-8785-8619a2548a91"},"vehicle_type_id":"4","last_reported":1729073381,"current_range_meters":38800,"station_id":"ce4bhmp2rcd13ifvqgog","pricing_plan_id":"cebpf4jnsgd1na2vs0mg"},{"bike_id":"c34a71d5-d8eb-4148-973b-f0e51bc6085b","system_id":"levelo_inurba_marseille","lat":43.30357,"lon":5.41885,"is_reserved":false,"is_disabled":false,"rental_uris":{"android":"levelo://app?vid=c34a71d5-d8eb-4148-973b-f0e51bc6085b","ios":"levelo://app?vid=c34a71d5-d8eb-4148-973b-f0e51bc6085b"},"vehicle_type_id":"4","last_reported":1729073381,"current_range_meters":6800,"station_id":"ce4bhop2rcd13ifvqh7g","pricing_plan_id":"cebpf4jnsgd1na2vs0mg"},{"bike_id":"0bbffedb-172b-4cb4-80e6-88f3d1bbc78f","system_id":"levelo_inurba_marseille","lat":43.31713,"lon":5.4371,"is_reserved":false,"is_disabled":false,"rental_uris":{"android":"levelo://app?vid=0bbffedb-172b-4cb4-80e6-88f3d1bbc78f","ios":"levelo://app?vid=0bbffedb-172b-4cb4-80e6-88f3d1bbc78f"},"vehicle_type_id":"4","last_reported":1729073381,"current_range_meters":35600,"station_id":"ce4bhp92rcd13ifvqhcg","pricing_plan_id":"cebpf4jnsgd1na2vs0mg"},{"bike_id":"f38f516d-a139-43ac-9e6e-6a1c36b68c1f","system_id":"levelo_inurba_marseille","lat":43.26682,"lon":5.38271,"is_reserved":false,"is_disabled":false,"rental_uris":{"android":"levelo://app?vid=f38f516d-a139-43ac-9e6e-6a1c36b68c1f","ios":"levelo://app?vid=f38f516d-a139-43ac-9e6e-6a1c36b68c1f"},"vehicle_type_id":"4","last_reported":1729073381,"current_range_meters":39200,"station_id":"ce4bhg92rcd13ifvqf90","pricing_plan_id":"cebpf4jnsgd1na2vs0mg"},{"bike_id":"0f984506-e641-46f1-860f-e2fe74c9fea4","system_id":"levelo_inurba_marseille","lat":43.24175,"lon":5.39735,"is_reserved":false,"is_disabled":false,"rental_uris":{"android":"levelo://app?vid=0f984506-e641-46f1-860f-e2fe74c9fea4","ios":"levelo://app?vid=0f984506-e641-46f1-860f-e2fe74c9fea4"},"vehicle_type_id":"4","last_reported":1729073381,"current_range_meters":25600,"station_id":"ce4bhn12rcd13ifvqgpg","pricing_plan_id":"cebpf4jnsgd1na2vs0mg"},{"bike_id":"1be0f246-cd10-4d19-824e-5bf5b27c9c44","system_id":"levelo_inurba_marseille","lat":43.30537,"lon":5.36547,"is_reserved":false,"is_disabled":false,"rental_uris":{"android":"levelo://app?vid=1be0f246-cd10-4d19-824e-5bf5b27c9c44","ios":"levelo://app?vid=1be0f246-cd10-4d19-824e-5bf5b27c9c44"},"vehicle_type_id":"4","last_reported":1729073381,"current_range_meters":38800,"station_id":"ce4bgs12rcd13ifvqcag","pricing_plan_id":"cebpf4jnsgd1na2vs0mg"},{"bike_id":"18fae231-f0eb-45db-9d60-2e85a3e71119","system_id":"levelo_inurba_marseille","lat":43.2319,"lon":5.39997,"is_reserved":false,"is_disabled":false,"rental_uris":{"android":"levelo://app?vid=18fae231-f0eb-45db-9d60-2e85a3e71119","ios":"levelo://app?vid=18fae231-f0eb-45db-9d60-2e85a3e71119"},"vehicle_type_id":"4","last_reported":1729073381,"current_range_meters":39200,"station_id":"ce4bhn12rcd13ifvqgqg","pricing_plan_id":"cebpf4jnsgd1na2vs0mg"},{"bike_id":"e69c0604-182b-4759-a363-b3ed398f5f12","system_id":"levelo_inurba_marseille","lat":43.3014,"lon":5.37415,"is_reserved":false,"is_disabled":false,"rental_uris":{"android":"levelo://app?vid=e69c0604-182b-4759-a363-b3ed398f5f12","ios":"levelo://app?vid=e69c0604-182b-4759-a363-b3ed398f5f12"},"vehicle_type_id":"4","last_reported":1729073381,"current_range_meters":32800,"station_id":"ce4bgs92rcd13ifvqcc0","pricing_plan_id":"cebpf4jnsgd1na2vs0mg"},{"bike_id":"c8a841eb-81f4-4a52-8b20-21dc0a011670","system_id":"levelo_inurba_marseille","lat":43.2315,"lon":5.43718,"is_reserved":false,"is_disabled":false,"rental_uris":{"android":"levelo://app?vid=c8a841eb-81f4-4a52-8b20-21dc0a011670","ios":"levelo://app?vid=c8a841eb-81f4-4a52-8b20-21dc0a011670"},"vehicle_type_id":"4","last_reported":1729073381,"current_range_meters":12000,"station_id":"ce4bhmp2rcd13ifvqgog","pricing_plan_id":"cebpf4jnsgd1na2vs0mg"},{"bike_id":"a9d80141-cb04-4f88-bcc5-9763572e3517","system_id":"levelo_inurba_marseille","lat":43.23194,"lon":5.35546,"is_reserved":false,"is_disabled":false,"rental_uris":{"android":"levelo://app?vid=a9d80141-cb04-4f88-bcc5-9763572e3517","ios":"levelo://app?vid=a9d80141-cb04-4f88-bcc5-9763572e3517"},"vehicle_type_id":"4","last_reported":1729073381,"current_range_meters":38400,"station_id":"ce4bhu92rcd13ifvqi70","pricing_plan_id":"cebpf4jnsgd1na2vs0mg"},{"bike_id":"f718ee55-ac1c-422f-b7f5-72f01a8949d9","system_id":"levelo_inurba_marseille","lat":43.27816,"lon":5.40708,"is_reserved":false,"is_disabled":false,"rental_uris":{"android":"levelo://app?vid=f718ee55-ac1c-422f-b7f5-72f01a8949d9","ios":"levelo://app?vid=f718ee55-ac1c-422f-b7f5-72f01a8949d9"},"vehicle_type_id":"4","last_reported":1729073381,"current_range_meters":11200,"station_id":"ce4bhnh2rcd13ifvqgtg","pricing_plan_id":"cebpf4jnsgd1na2vs0mg"},{"bike_id":"d06f24f3-1961-4c39-8b26-c72733863fe9","system_id":"levelo_inurba_marseille","lat":43.33781,"lon":5.37443,"is_reserved":false,"is_disabled":false,"rental_uris":{"android":"levelo://app?vid=d06f24f3-1961-4c39-8b26-c72733863fe9","ios":"levelo://app?vid=d06f24f3-1961-4c39-8b26-c72733863fe9"},"vehicle_type_id":"4","last_reported":1729073381,"current_range_meters":20400,"station_id":"","pricing_plan_id":"cebpf4jnsgd1na2vs0mg"},{"bike_id":"6d3ae6c3-2c76-48df-8f7f-d47cbed9d200","system_id":"levelo_inurba_marseille","lat":43.27995,"lon":5.41663,"is_reserved":false,"is_disabled":false,"rental_uris":{"android":"levelo://app?vid=6d3ae6c3-2c76-48df-8f7f-d47cbed9d200","ios":"levelo://app?vid=6d3ae6c3-2c76-48df-8f7f-d47cbed9d200"},"vehicle_type_id":"4","last_reported":1729073381,"current_range_meters":34800,"station_id":"ce4bho12rcd13ifvqh1g","pricing_plan_id":"cebpf4jnsgd1na2vs0mg"},{"bike_id":"2e08ead8-38f5-44d1-884b-5dd81e0a6e23","system_id":"levelo_inurba_marseille","lat":43.30358,"lon":5.41878,"is_reserved":false,"is_disabled":false,"rental_uris":{"android":"levelo://app?vid=2e08ead8-38f5-44d1-884b-5dd81e0a6e23","ios":"levelo://app?vid=2e08ead8-38f5-44d1-884b-5dd81e0a6e23"},"vehicle_type_id":"4","last_reported":1729073381,"current_range_meters":24400,"station_id":"ce4bhop2rcd13ifvqh7g","pricing_plan_id":"cebpf4jnsgd1na2vs0mg"},{"bike_id":"d3c87ae6-422d-455b-8797-f7d19d0cd4f9","system_id":"levelo_inurba_marseille","lat":43.24646,"lon":5.38892,"is_reserved":false,"is_disabled":false,"rental_uris":{"android":"levelo://app?vid=d3c87ae6-422d-455b-8797-f7d19d0cd4f9","ios":"levelo://app?vid=d3c87ae6-422d-455b-8797-f7d19d0cd4f9"},"vehicle_type_id":"4","last_reported":1729073381,"current_range_meters":38800,"station_id":"ce4bhg12rcd13ifvqf60","pricing_plan_id":"cebpf4jnsgd1na2vs0mg"},{"bike_id":"09b29812-3dac-479a-8c4d-61d8f8278175","system_id":"levelo_inurba_marseille","lat":43.2706,"lon":5.40263,"is_reserved":false,"is_disabled":false,"rental_uris":{"android":"levelo://app?vid=09b29812-3dac-479a-8c4d-61d8f8278175","ios":"levelo://app?vid=09b29812-3dac-479a-8c4d-61d8f8278175"},"vehicle_type_id":"4","last_reported":1729073381,"current_range_meters":3600,"station_id":"ce4bhk92rcd13ifvqgc0","pricing_plan_id":"cebpf4jnsgd1na2vs0mg"},{"bike_id":"25e4276b-b76e-434a-b753-750fb7caba44","system_id":"levelo_inurba_marseille","lat":43.29617,"lon":5.37713,"is_reserved":false,"is_disabled":false,"rental_uris":{"android":"levelo://app?vid=25e4276b-b76e-434a-b753-750fb7caba44","ios":"levelo://app?vid=25e4276b-b76e-434a-b753-750fb7caba44"},"vehicle_type_id":"4","last_reported":1729073381,"current_range_meters":32400,"station_id":"ce4bgi92rcd13ifvqb90","pricing_plan_id":"cebpf4jnsgd1na2vs0mg"},{"bike_id":"6fc5148b-4d4d-43dd-b11a-30ae34c609be","system_id":"levelo_inurba_marseille","lat":43.29847,"lon":5.3627,"is_reserved":false,"is_disabled":false,"rental_uris":{"android":"levelo://app?vid=6fc5148b-4d4d-43dd-b11a-30ae34c609be","ios":"levelo://app?vid=6fc5148b-4d4d-43dd-b11a-30ae34c609be"},"vehicle_type_id":"4","last_reported":1729073381,"current_range_meters":38000,"station_id":"ce4bgpp2rcd13ifvqc3g","pricing_plan_id":"cebpf4jnsgd1na2vs0mg"},{"bike_id":"d41309ab-1a1f-4395-acaa-455483c3f8e1","system_id":"levelo_inurba_marseille","lat":43.23193,"lon":5.35557,"is_reserved":false,"is_disabled":false,"rental_uris":{"android":"levelo://app?vid=d41309ab-1a1f-4395-acaa-455483c3f8e1","ios":"levelo://app?vid=d41309ab-1a1f-4395-acaa-455483c3f8e1"},"vehicle_type_id":"4","last_reported":1729073381,"current_range_meters":28000,"station_id":"ce4bhu92rcd13ifvqi70","pricing_plan_id":"cebpf4jnsgd1na2vs0mg"},{"bike_id":"199a4da1-aac0-4426-942b-3be3b975f2ca","system_id":"levelo_inurba_marseille","lat":43.31368,"lon":5.36736,"is_reserved":false,"is_disabled":false,"rental_uris":{"android":"levelo://app?vid=199a4da1-aac0-4426-942b-3be3b975f2ca","ios":"levelo://app?vid=199a4da1-aac0-4426-942b-3be3b975f2ca"},"vehicle_type_id":"4","last_reported":1729073381,"current_range_meters":26000,"station_id":"ce4bgr92rcd13ifvqc6g","pricing_plan_id":"cebpf4jnsgd1na2vs0mg"},{"bike_id":"94902fb1-a766-4d90-8978-e732725ca583","system_id":"levelo_inurba_marseille","lat":43.2318,"lon":5.39993,"is_reserved":false,"is_disabled":false,"rental_uris":{"android":"levelo://app?vid=94902fb1-a766-4d90-8978-e732725ca583","ios":"levelo://app?vid=94902fb1-a766-4d90-8978-e732725ca583"},"vehicle_type_id":"4","last_reported":1729073381,"current_range_meters":39200,"station_id":"ce4bhn12rcd13ifvqgqg","pricing_plan_id":"cebpf4jnsgd1na2vs0mg"},{"bike_id":"b6ba18ac-f9f7-47ce-97ee-a57309932db4","system_id":"levelo_inurba_marseille","lat":43.27811,"lon":5.40709,"is_reserved":false,"is_disabled":false,"rental_uris":{"android":"levelo://app?vid=b6ba18ac-f9f7-47ce-97ee-a57309932db4","ios":"levelo://app?vid=b6ba18ac-f9f7-47ce-97ee-a57309932db4"},"vehicle_type_id":"4","last_reported":1729073381,"current_range_meters":38800,"station_id":"ce4bhnh2rcd13ifvqgtg","pricing_plan_id":"cebpf4jnsgd1na2vs0mg"},{"bike_id":"150af00c-9b49-4909-bfb2-9a965e993c9e","system_id":"levelo_inurba_marseille","lat":43.3123,"lon":5.36865,"is_reserved":false,"is_disabled":false,"rental_uris":{"android":"levelo://app?vid=150af00c-9b49-4909-bfb2-9a965e993c9e","ios":"levelo://app?vid=150af00c-9b49-4909-bfb2-9a965e993c9e"},"vehicle_type_id":"4","last_reported":1729073381,"current_range_meters":11600,"station_id":"","pricing_plan_id":"cebpf4jnsgd1na2vs0mg"},{"bike_id":"b3581752-b046-4ddf-abd7-7802a26b818e","system_id":"levelo_inurba_marseille","lat":43.30276,"lon":5.37702,"is_reserved":false,"is_disabled":false,"rental_uris":{"android":"levelo://app?vid=b3581752-b046-4ddf-abd7-7802a26b818e","ios":"levelo://app?vid=b3581752-b046-4ddf-abd7-7802a26b818e"},"vehicle_type_id":"4","last_reported":1729073381,"current_range_meters":38800,"station_id":"ce4bguh2rcd13ifvqcj0","pricing_plan_id":"cebpf4jnsgd1na2vs0mg"},{"bike_id":"936f448b-ad3c-4a55-83ae-447c622c58fa","system_id":"levelo_inurba_marseille","lat":43.27225,"lon":5.391,"is_reserved":false,"is_disabled":false,"rental_uris":{"android":"levelo://app?vid=936f448b-ad3c-4a55-83ae-447c622c58fa","ios":"levelo://app?vid=936f448b-ad3c-4a55-83ae-447c622c58fa"},"vehicle_type_id":"4","last_reported":1729073381,"current_range_meters":22800,"station_id":"ce4bhgp2rcd13ifvqfe0","pricing_plan_id":"cebpf4jnsgd1na2vs0mg"},{"bike_id":"033a7f68-f273-426e-84a9-8a3b2c56f6f5","system_id":"levelo_inurba_marseille","lat":43.35096,"lon":5.36807,"is_reserved":false,"is_disabled":false,"rental_uris":{"android":"levelo://app?vid=033a7f68-f273-426e-84a9-8a3b2c56f6f5","ios":"levelo://app?vid=033a7f68-f273-426e-84a9-8a3b2c56f6f5"},"vehicle_type_id":"4","last_reported":1729073381,"current_range_meters":12000,"station_id":"","pricing_plan_id":"cebpf4jnsgd1na2vs0mg"},{"bike_id":"6cdd2798-5db4-4f9a-a892-f16babf9ec5c","system_id":"levelo_inurba_marseille","lat":43.31369,"lon":5.36691,"is_reserved":false,"is_disabled":false,"rental_uris":{"android":"levelo://app?vid=6cdd2798-5db4-4f9a-a892-f16babf9ec5c","ios":"levelo://app?vid=6cdd2798-5db4-4f9a-a892-f16babf9ec5c"},"vehicle_type_id":"4","last_reported":1729073381,"current_range_meters":34800,"station_id":"ce4bgr92rcd13ifvqc6g","pricing_plan_id":"cebpf4jnsgd1na2vs0mg"},{"bike_id":"0cac5042-2075-4b66-8658-3a0f53449b77","system_id":"levelo_inurba_marseille","lat":43.30142,"lon":5.37416,"is_reserved":false,"is_disabled":false,"rental_uris":{"android":"levelo://app?vid=0cac5042-2075-4b66-8658-3a0f53449b77","ios":"levelo://app?vid=0cac5042-2075-4b66-8658-3a0f53449b77"},"vehicle_type_id":"4","last_reported":1729073381,"current_range_meters":32000,"station_id":"ce4bgs92rcd13ifvqcc0","pricing_plan_id":"cebpf4jnsgd1na2vs0mg"},{"bike_id":"67550e5a-a579-4ca3-83cb-0d9835ff5edb","system_id":"levelo_inurba_marseille","lat":43.25025,"lon":5.38881,"is_reserved":false,"is_disabled":false,"rental_uris":{"android":"levelo://app?vid=67550e5a-a579-4ca3-83cb-0d9835ff5edb","ios":"levelo://app?vid=67550e5a-a579-4ca3-83cb-0d9835ff5edb"},"vehicle_type_id":"4","last_reported":1729073381,"current_range_meters":18800,"station_id":"ce4bhip2rcd13ifvqft0","pricing_plan_id":"cebpf4jnsgd1na2vs0mg"},{"bike_id":"1af2813b-98a0-4b62-aaf8-89652b30f639","system_id":"levelo_inurba_marseille","lat":43.22934,"lon":5.35375,"is_reserved":false,"is_disabled":false,"rental_uris":{"android":"levelo://app?vid=1af2813b-98a0-4b62-aaf8-89652b30f639","ios":"levelo://app?vid=1af2813b-98a0-4b62-aaf8-89652b30f639"},"vehicle_type_id":"4","last_reported":1729073381,"current_range_meters":25600,"station_id":"cpo3532slgdg3j2ikp40","pricing_plan_id":"cebpf4jnsgd1na2vs0mg"},{"bike_id":"7a118b27-d580-46da-9da1-6026387db4b4","system_id":"levelo_inurba_marseille","lat":43.31225,"lon":5.3687,"is_reserved":false,"is_disabled":false,"rental_uris":{"android":"levelo://app?vid=7a118b27-d580-46da-9da1-6026387db4b4","ios":"levelo://app?vid=7a118b27-d580-46da-9da1-6026387db4b4"},"vehicle_type_id":"4","last_reported":1729073381,"current_range_meters":10000,"station_id":"ce4bgl92rcd13ifvqbq0","pricing_plan_id":"cebpf4jnsgd1na2vs0mg"},{"bike_id":"84174d05-f1c2-4715-a7e8-2107d40aa5ac","system_id":"levelo_inurba_marseille","lat":43.27076,"lon":5.42281,"is_reserved":false,"is_disabled":false,"rental_uris":{"android":"levelo://app?vid=84174d05-f1c2-4715-a7e8-2107d40aa5ac","ios":"levelo://app?vid=84174d05-f1c2-4715-a7e8-2107d40aa5ac"},"vehicle_type_id":"4","last_reported":1729073381,"current_range_meters":22800,"station_id":"ce4bhk92rcd13ifvqgb0","pricing_plan_id":"cebpf4jnsgd1na2vs0mg"},{"bike_id":"7d133e9c-440c-4db0-aaf0-2f0ff662b4fa","system_id":"levelo_inurba_marseille","lat":43.246297,"lon":5.386347,"is_reserved":false,"is_disabled":false,"rental_uris":{"android":"levelo://app?vid=7d133e9c-440c-4db0-aaf0-2f0ff662b4fa","ios":"levelo://app?vid=7d133e9c-440c-4db0-aaf0-2f0ff662b4fa"},"vehicle_type_id":"4","last_reported":1729073381,"current_range_meters":38800,"station_id":"","pricing_plan_id":"cebpf4jnsgd1na2vs0mg"},{"bike_id":"f93454e1-a669-4c63-a4ca-b572042c7971","system_id":"levelo_inurba_marseille","lat":43.23198,"lon":5.35558,"is_reserved":false,"is_disabled":false,"rental_uris":{"android":"levelo://app?vid=f93454e1-a669-4c63-a4ca-b572042c7971","ios":"levelo://app?vid=f93454e1-a669-4c63-a4ca-b572042c7971"},"vehicle_type_id":"4","last_reported":1729073381,"current_range_meters":20400,"station_id":"ce4bhu92rcd13ifvqi70","pricing_plan_id":"cebpf4jnsgd1na2vs0mg"},{"bike_id":"51172026-48f2-4856-a0eb-8b906bf94f35","system_id":"levelo_inurba_marseille","lat":43.24179,"lon":5.39735,"is_reserved":false,"is_disabled":false,"rental_uris":{"android":"levelo://app?vid=51172026-48f2-4856-a0eb-8b906bf94f35","ios":"levelo://app?vid=51172026-48f2-4856-a0eb-8b906bf94f35"},"vehicle_type_id":"4","last_reported":1729073381,"current_range_meters":19200,"station_id":"ce4bhn12rcd13ifvqgpg","pricing_plan_id":"cebpf4jnsgd1na2vs0mg"},{"bike_id":"87d57219-be51-4968-bbab-c707372c87fa","system_id":"levelo_inurba_marseille","lat":43.31353,"lon":5.36727,"is_reserved":false,"is_disabled":false,"rental_uris":{"android":"levelo://app?vid=87d57219-be51-4968-bbab-c707372c87fa","ios":"levelo://app?vid=87d57219-be51-4968-bbab-c707372c87fa"},"vehicle_type_id":"4","last_reported":1729073381,"current_range_meters":38800,"station_id":"ce4bgr92rcd13ifvqc6g","pricing_plan_id":"cebpf4jnsgd1na2vs0mg"},{"bike_id":"1559cf04-2770-4a56-81a3-1f4de87217a1","system_id":"levelo_inurba_marseille","lat":43.27421,"lon":5.39415,"is_reserved":false,"is_disabled":false,"rental_uris":{"android":"levelo://app?vid=1559cf04-2770-4a56-81a3-1f4de87217a1","ios":"levelo://app?vid=1559cf04-2770-4a56-81a3-1f4de87217a1"},"vehicle_type_id":"4","last_reported":1729073381,"current_range_meters":9600,"station_id":"ce4bhdp2rcd13ifvqf20","pricing_plan_id":"cebpf4jnsgd1na2vs0mg"},{"bike_id":"695af1a8-1e2a-4a45-b781-e6b1fa4e2b6d","system_id":"levelo_inurba_marseille","lat":43.30913,"lon":5.36858,"is_reserved":false,"is_disabled":false,"rental_uris":{"android":"levelo://app?vid=695af1a8-1e2a-4a45-b781-e6b1fa4e2b6d","ios":"levelo://app?vid=695af1a8-1e2a-4a45-b781-e6b1fa4e2b6d"},"vehicle_type_id":"4","last_reported":1729073381,"current_range_meters":32000,"station_id":"ce4bgn92rcd13ifvqbvg","pricing_plan_id":"cebpf4jnsgd1na2vs0mg"},{"bike_id":"35e7b281-d52f-4de7-933c-d2b9bc62d3ed","system_id":"levelo_inurba_marseille","lat":43.23178,"lon":5.39987,"is_reserved":false,"is_disabled":false,"rental_uris":{"android":"levelo://app?vid=35e7b281-d52f-4de7-933c-d2b9bc62d3ed","ios":"levelo://app?vid=35e7b281-d52f-4de7-933c-d2b9bc62d3ed"},"vehicle_type_id":"4","last_reported":1729073381,"current_range_meters":16000,"station_id":"ce4bhn12rcd13ifvqgqg","pricing_plan_id":"cebpf4jnsgd1na2vs0mg"},{"bike_id":"5ef7ee46-9ccd-494b-8787-0ca79bb29f37","system_id":"levelo_inurba_marseille","lat":43.29598,"lon":5.37407,"is_reserved":false,"is_disabled":false,"rental_uris":{"android":"levelo://app?vid=5ef7ee46-9ccd-494b-8787-0ca79bb29f37","ios":"levelo://app?vid=5ef7ee46-9ccd-494b-8787-0ca79bb29f37"},"vehicle_type_id":"4","last_reported":1729073381,"current_range_meters":34000,"station_id":"ce4bgr92rcd13ifvqc7g","pricing_plan_id":"cebpf4jnsgd1na2vs0mg"},{"bike_id":"172d1eb7-31aa-4d45-9c79-93e9ed1f0f50","system_id":"levelo_inurba_marseille","lat":43.30913,"lon":5.36856,"is_reserved":false,"is_disabled":false,"rental_uris":{"android":"levelo://app?vid=172d1eb7-31aa-4d45-9c79-93e9ed1f0f50","ios":"levelo://app?vid=172d1eb7-31aa-4d45-9c79-93e9ed1f0f50"},"vehicle_type_id":"4","last_reported":1729073381,"current_range_meters":39200,"station_id":"ce4bgn92rcd13ifvqbvg","pricing_plan_id":"cebpf4jnsgd1na2vs0mg"},{"bike_id":"c5910f2b-90df-4855-89e9-63651845d9bd","system_id":"levelo_inurba_marseille","lat":43.3377,"lon":5.3745,"is_reserved":false,"is_disabled":false,"rental_uris":{"android":"levelo://app?vid=c5910f2b-90df-4855-89e9-63651845d9bd","ios":"levelo://app?vid=c5910f2b-90df-4855-89e9-63651845d9bd"},"vehicle_type_id":"4","last_reported":1729073381,"current_range_meters":36400,"station_id":"","pricing_plan_id":"cebpf4jnsgd1na2vs0mg"},{"bike_id":"3ddcef49-cbed-4a95-a177-9c3f6469ff83","system_id":"levelo_inurba_marseille","lat":43.27961,"lon":5.38688,"is_reserved":false,"is_disabled":false,"rental_uris":{"android":"levelo://app?vid=3ddcef49-cbed-4a95-a177-9c3f6469ff83","ios":"levelo://app?vid=3ddcef49-cbed-4a95-a177-9c3f6469ff83"},"vehicle_type_id":"4","last_reported":1729073381,"current_range_meters":14800,"station_id":"ce4bhg12rcd13ifvqf80","pricing_plan_id":"cebpf4jnsgd1na2vs0mg"},{"bike_id":"b4a84d78-393f-41fe-a1d6-47d5c801ff66","system_id":"levelo_inurba_marseille","lat":43.266724,"lon":5.38257,"is_reserved":false,"is_disabled":false,"rental_uris":{"android":"levelo://app?vid=b4a84d78-393f-41fe-a1d6-47d5c801ff66","ios":"levelo://app?vid=b4a84d78-393f-41fe-a1d6-47d5c801ff66"},"vehicle_type_id":"4","last_reported":1729073381,"current_range_meters":8400,"station_id":"ce4bhg92rcd13ifvqf90","pricing_plan_id":"cebpf4jnsgd1na2vs0mg"},{"bike_id":"dda196b9-c007-4b8c-b3f4-f0700571854f","system_id":"levelo_inurba_marseille","lat":43.24994,"lon":5.38938,"is_reserved":false,"is_disabled":false,"rental_uris":{"android":"levelo://app?vid=dda196b9-c007-4b8c-b3f4-f0700571854f","ios":"levelo://app?vid=dda196b9-c007-4b8c-b3f4-f0700571854f"},"vehicle_type_id":"4","last_reported":1729073381,"current_range_meters":20400,"station_id":"ce4bhgp2rcd13ifvqfd0","pricing_plan_id":"cebpf4jnsgd1na2vs0mg"},{"bike_id":"575c61a8-0bd3-4111-8f91-6858f637b413","system_id":"levelo_inurba_marseille","lat":43.29898,"lon":5.4366,"is_reserved":false,"is_disabled":false,"rental_uris":{"android":"levelo://app?vid=575c61a8-0bd3-4111-8f91-6858f637b413","ios":"levelo://app?vid=575c61a8-0bd3-4111-8f91-6858f637b413"},"vehicle_type_id":"4","last_reported":1729073381,"current_range_meters":36800,"station_id":"ce4bhpp2rcd13ifvqhfg","pricing_plan_id":"cebpf4jnsgd1na2vs0mg"},