{"last_updated":1722024668,"ttl":30,"version":"2.2","data":{"bikes":[{"bike_id":"d878a139-71bf-4bfc-bb77-5a3807492d4b","system_id":"levelo_inurba_marseille","lat":43.31224,"lon":5.36859,"is_reserved":false,"is_disabled":false,"rental_uris":{"android":"levelo://app?vid=d878a139-71bf-4bfc-bb77-5a3807492d4b","ios":"levelo://app?vid=d878a139-71bf-4bfc-bb77-5a3807492d4b"},"vehicle_type_id":"4","last_reported":1722024668,"current_range_meters":0,"station_id":"ce4bgl92rcd13ifvqbq0","pricing_plan_id":"cebpf4jnsgd1na2vs0mg"},{"bike_id":"5080d7d5-9eea-4209-80ea-9bc915ca1c06","system_id":"levelo_inurba_marseille","lat":43.30915,"lon":5.36847,"is_reserved":false,"is_disabled":false,"rental_uris":{"android":"levelo://app?vid=5080d7d5-9eea-4209-80ea-9bc915ca1c06","ios":"levelo://app?vid=5080d7d5-9eea-4209-80ea-9bc915ca1c06"},"vehicle_type_id":"4","last_reported":1722024668,"current_range_meters":4400,"station_id":"ce4bgn92rcd13ifvqbvg","pricing_plan_id":"cebpf4jnsgd1na2vs0mg"},{"bike_id":"98b998cd-f5c8-4bab-982c-5a76e7f37425","system_id":"levelo_inurba_marseille","lat":43.314811,"lon":5.373103,"is_reserved":false,"is_disabled":false,"rental_uris":{"android":"levelo://app?vid=98b998cd-f5c8-4bab-982c-5a76e7f37425","ios":"levelo://app?vid=98b998cd-f5c8-4bab-982c-5a76e7f37425"},"vehicle_type_id":"4","last_reported":1722024668,"current_range_meters":0,"station_id":"ce4bgt12rcd13ifvqcd0","pricing_plan_id":"cebpf4jnsgd1na2vs0mg"},{"bike_id":"1a6b1440-fe5d-46c2-ac1f-f61dbe1aeb2b","system_id":"levelo_inurba_marseille","lat":43.309039,"lon":5.371797,"is_reserved":false,"is_disabled":false,"rental_uris":{"android":"levelo://app?vid=1a6b1440-fe5d-46c2-ac1f-f61dbe1aeb2b","ios":"levelo://app?vid=1a6b1440-fe5d-46c2-ac1f-f61dbe1aeb2b"},"vehicle_type_id":"4","last_reported":1722024668,"current_range_meters":15600,"station_id":"ce4bguh2rcd13ifvqckg","pricing_plan_id":"cebpf4jnsgd1na2vs0mg"},{"bike_id":"44bd3357-9bfa-4166-a530-279ddda20585","system_id":"levelo_inurba_marseille","lat":43.309039,"lon":5.371797,"is_reserved":false,"is_disabled":false,"rental_uris":{"android":"levelo://app?vid=44bd3357-9bfa-4166-a530-279ddda20585","ios":"levelo://app?vid=44bd3357-9bfa-4166-a530-279ddda20585"},"vehicle_type_id":"4","last_reported":1722024668,"current_range_meters":10800,"station_id":"ce4bguh2rcd13ifvqckg","pricing_plan_id":"cebpf4jnsgd1na2vs0mg"},{"bike_id":"94bd25e7-2d62-4d29-9aa4-84dc60e851c7","system_id":"levelo_inurba_marseille","lat":43.309039,"lon":5.371797,"is_reserved":false,"is_disabled":false,"rental_uris":{"android":"levelo://app?vid=94bd25e7-2d62-4d29-9aa4-84dc60e851c7","ios":"levelo://app?vid=94bd25e7-2d62-4d29-9aa4-84dc60e851c7"},"vehicle_type_id":"4","last_reported":1722024668,"current_range_meters":16800,"station_id":"ce4bguh2rcd13ifvqckg","pricing_plan_id":"cebpf4jnsgd1na2vs0mg"},{"bike_id":"8a80da68-4a9e-4a46-aa1f-a8d3c7f81451","system_id":"levelo_inurba_marseille","lat":43.31353,"lon":5.374655,"is_reserved":false,"is_disabled":false,"rental_uris":{"android":"levelo://app?vid=8a80da68-4a9e-4a46-aa1f-a8d3c7f81451","ios":"levelo://app?vid=8a80da68-4a9e-4a46-aa1f-a8d3c7f81451"},"vehicle_type_id":"4","last_reported":1722024668,"current_range_meters":0,"station_id":"","pricing_plan_id":"cebpf4jnsgd1na2vs0mg"},{"bike_id":"22c5cabb-658c-4f8d-9d74-455790a7d9e1","system_id":"levelo_inurba_marseille","lat":43.30746,"lon":5.37214,"is_reserved":false,"is_disabled":false,"rental_uris":{"android":"levelo://app?vid=22c5cabb-658c-4f8d-9d74-455790a7d9e1","ios":"levelo://app?vid=22c5cabb-658c-4f8d-9d74-455790a7d9e1"},"vehicle_type_id":"4","last_reported":1722024668,"current_range_meters":15200,"station_id":"","pricing_plan_id":"cebpf4jnsgd1na2vs0mg"},{"bike_id":"1ef70904-19f5-42a7-a1bd-fa2d73cdcab5","system_id":"levelo_inurba_marseille","lat":43.3166,"lon":5.37514,"is_reserved":false,"is_disabled":false,"rental_uris":{"android":"levelo://app?vid=1ef70904-19f5-42a7-a1bd-fa2d73cdcab5","ios":"levelo://app?vid=1ef70904-19f5-42a7-a1bd-fa2d73cdcab5"},"vehicle_type_id":"4","last_reported":1722024668,"current_range_meters":2800,"station_id":"","pricing_plan_id":"cebpf4jnsgd1na2vs0mg"},{"bike_id":"96a88319-cb5b-4974-8744-fab743f65eaf","system_id":"levelo_inurba_marseille","lat":43.305714,"lon":5.365633,"is_reserved":false,"is_disabled":false,"rental_uris":{"android":"levelo://app?vid=96a88319-cb5b-4974-8744-fab743f65eaf","ios":"levelo://app?vid=96a88319-cb5b-4974-8744-fab743f65eaf"},"vehicle_type_id":"4","last_reported":1722024668,"current_range_meters":12400,"station_id":"ce4bgs12rcd13ifvqcag","pricing_plan_id":"cebpf4jnsgd1na2vs0mg"},{"bike_id":"94c21a01-48a7-4c3d-9048-a925175039d6","system_id":"levelo_inurba_marseille","lat":43.305368,"lon":5.367343,"is_reserved":false,"is_disabled":false,"rental_uris":{"android":"levelo://app?vid=94c21a01-48a7-4c3d-9048-a925175039d6","ios":"levelo://app?vid=94c21a01-48a7-4c3d-9048-a925175039d6"},"vehicle_type_id":"4","last_reported":1722024668,"current_range_meters":1600,"station_id":"ce4bgrp2rcd13ifvqc9g","pricing_plan_id":"cebpf4jnsgd1na2vs0mg"},{"bike_id":"98633463-9777-4d2d-919b-282fc092802a","system_id":"levelo_inurba_marseille","lat":43.305368,"lon":5.367343,"is_reserved":false,"is_disabled":false,"rental_uris":{"android":"levelo://app?vid=98633463-9777-4d2d-919b-282fc092802a","ios":"levelo://app?vid=98633463-9777-4d2d-919b-282fc092802a"},"vehicle_type_id":"4","last_reported":1722024668,"current_range_meters":4800,"station_id":"ce4bgrp2rcd13ifvqc9g","pricing_plan_id":"cebpf4jnsgd1na2vs0mg"},{"bike_id":"58c3b9ee-d9ee-4655-9d84-fba7ce8fd742","system_id":"levelo_inurba_marseille","lat":43.305989,"lon":5.37225,"is_reserved":false,"is_disabled":false,"rental_uris":{"android":"levelo://app?vid=58c3b9ee-d9ee-4655-9d84-fba7ce8fd742","ios":"levelo://app?vid=58c3b9ee-d9ee-4655-9d84-fba7ce8fd742"},"vehicle_type_id":"4","last_reported":1722024668,"current_range_meters":5600,"station_id":"ce4bgqh2rcd13ifvqc4g","pricing_plan_id":"cebpf4jnsgd1na2vs0mg"},{"bike_id":"7d75adab-8822-455a-a5a4-c423f74997bd","system_id":"levelo_inurba_marseille","lat":43.307945,"lon":5.376487,"is_reserved":false,"is_disabled":false,"rental_uris":{"android":"levelo://app?vid=7d75adab-8822-455a-a5a4-c423f74997bd","ios":"levelo://app?vid=7d75adab-8822-455a-a5a4-c423f74997bd"},"vehicle_type_id":"4","last_reported":1722024668,"current_range_meters":400,"station_id":"ce4bgv92rcd13ifvqcq0","pricing_plan_id":"cebpf4jnsgd1na2vs0mg"},{"bike_id":"909bf060-75ee-477d-8916-ba5ff2385cec","system_id":"levelo_inurba_marseille","lat":43.317075,"lon":5.377367,"is_reserved":false,"is_disabled":false,"rental_uris":{"android":"levelo://app?vid=909bf060-75ee-477d-8916-ba5ff2385cec","ios":"levelo://app?vid=909bf060-75ee-477d-8916-ba5ff2385cec"},"vehicle_type_id":"4","last_reported":1722024668,"current_range_meters":31200,"station_id":"ce4bgth2rcd13ifvqch0","pricing_plan_id":"cebpf4jnsgd1na2vs0mg"},{"bike_id":"59728edf-5f97-429e-807b-0620a0d28784","system_id":"levelo_inurba_marseille","lat":43.31709,"lon":5.37747,"is_reserved":false,"is_disabled":false,"rental_uris":{"android":"levelo://app?vid=59728edf-5f97-429e-807b-0620a0d28784","ios":"levelo://app?vid=59728edf-5f97-429e-807b-0620a0d28784"},"vehicle_type_id":"4","last_reported":1722024668,"current_range_meters":9600,"station_id":"ce4bgth2rcd13ifvqch0","pricing_plan_id":"cebpf4jnsgd1na2vs0mg"},{"bike_id":"ab231f07-e6ea-48af-8730-077a38169a1f","system_id":"levelo_inurba_marseille","lat":43.317075,"lon":5.377367,"is_reserved":false,"is_disabled":false,"rental_uris":{"android":"levelo://app?vid=ab231f07-e6ea-48af-8730-077a38169a1f","ios":"levelo://app?vid=ab231f07-e6ea-48af-8730-077a38169a1f"},"vehicle_type_id":"4","last_reported":1722024668,"current_range_meters":12400,"station_id":"ce4bgth2rcd13ifvqch0","pricing_plan_id":"cebpf4jnsgd1na2vs0mg"},{"bike_id":"02ce9f9c-c62d-4960-b437-cb5304a3d7d7","system_id":"levelo_inurba_marseille","lat":43.303046,"lon":5.368981,"is_reserved":false,"is_disabled":false,"rental_uris":{"android":"levelo://app?vid=02ce9f9c-c62d-4960-b437-cb5304a3d7d7","ios":"levelo://app?vid=02ce9f9c-c62d-4960-b437-cb5304a3d7d7"},"vehicle_type_id":"4","last_reported":1722024668,"current_range_meters":10000,"station_id":"ce4bgqh2rcd13ifvqc5g","pricing_plan_id":"cebpf4jnsgd1na2vs0mg"},{"bike_id":"f1eb7c63-5b11-428d-bee3-cdc121e5d8d4","system_id":"levelo_inurba_marseille","lat":43.315289,"lon":5.380349,"is_reserved":false,"is_disabled":false,"rental_uris":{"android":"levelo://app?vid=f1eb7c63-5b11-428d-bee3-cdc121e5d8d4","ios":"levelo://app?vid=f1eb7c63-5b11-428d-bee3-cdc121e5d8d4"},"vehicle_type_id":"4","last_reported":1722024668,"current_range_meters":29600,"station_id":"ce4bhsp2rcd13ifvqi50","pricing_plan_id":"cebpf4jnsgd1na2vs0mg"},{"bike_id":"cda798b3-6c92-4158-9eb2-ffe565d25b74","system_id":"levelo_inurba_marseille","lat":43.308012,"lon":5.381511,"is_reserved":false,"is_disabled":false,"rental_uris":{"android":"levelo://app?vid=cda798b3-6c92-4158-9eb2-ffe565d25b74","ios":"levelo://app?vid=cda798b3-6c92-4158-9eb2-ffe565d25b74"},"vehicle_type_id":"4","last_reported":1722024668,"current_range_meters":26400,"station_id":"ce4bgt12rcd13ifvqce0","pricing_plan_id":"cebpf4jnsgd1na2vs0mg"},{"bike_id":"a3bf0a68-c391-44cb-b55c-83569f43e30e","system_id":"levelo_inurba_marseille","lat":43.324771,"lon":5.36557,"is_reserved":false,"is_disabled":false,"rental_uris":{"android":"levelo://app?vid=a3bf0a68-c391-44cb-b55c-83569f43e30e","ios":"levelo://app?vid=a3bf0a68-c391-44cb-b55c-83569f43e30e"},"vehicle_type_id":"4","last_reported":1722024668,"current_range_meters":26000,"station_id":"ce4bhs12rcd13ifvqhvg","pricing_plan_id":"cebpf4jnsgd1na2vs0mg"},{"bike_id":"6e5fb489-63dc-4105-9bc5-8f3d055718c9","system_id":"levelo_inurba_marseille","lat":43.304606,"lon":5.379026,"is_reserved":false,"is_disabled":false,"rental_uris":{"android":"levelo://app?vid=6e5fb489-63dc-4105-9bc5-8f3d055718c9","ios":"levelo://app?vid=6e5fb489-63dc-4105-9bc5-8f3d055718c9"},"vehicle_type_id":"4","last_reported":1722024668,"current_range_meters":0,"station_id":"ce4bgup2rcd13ifvqcn0","pricing_plan_id":"cebpf4jnsgd1na2vs0mg"},{"bike_id":"2fb79667-ea02-4953-87fa-e97ab647561d","system_id":"levelo_inurba_marseille","lat":43.324771,"lon":5.36557,"is_reserved":false,"is_disabled":false,"rental_uris":{"android":"levelo://app?vid=2fb79667-ea02-4953-87fa-e97ab647561d","ios":"levelo://app?vid=2fb79667-ea02-4953-87fa-e97ab647561d"},"vehicle_type_id":"4","last_reported":1722024668,"current_range_meters":31200,"station_id":"ce4bhs12rcd13ifvqhvg","pricing_plan_id":"cebpf4jnsgd1na2vs0mg"},{"bike_id":"6a323238-b082-4d81-8802-d6064c1675a1","system_id":"levelo_inurba_marseille","lat":43.310804,"lon":5.38359,"is_reserved":false,"is_disabled":false,"rental_uris":{"android":"levelo://app?vid=6a323238-b082-4d81-8802-d6064c1675a1","ios":"levelo://app?vid=6a323238-b082-4d81-8802-d6064c1675a1"},"vehicle_type_id":"4","last_reported":1722024668,"current_range_meters":31200,"station_id":"ce4bgv92rcd13ifvqcr0","pricing_plan_id":"cebpf4jnsgd1na2vs0mg"},{"bike_id":"e42b2cbd-81e2-4b1c-818b-94154a2a69c3","system_id":"levelo_inurba_marseille","lat":43.31077,"lon":5.38359,"is_reserved":false,"is_disabled":false,"rental_uris":{"android":"levelo://app?vid=e42b2cbd-81e2-4b1c-818b-94154a2a69c3","ios":"levelo://app?vid=e42b2cbd-81e2-4b1c-818b-94154a2a69c3"},"vehicle_type_id":"4","last_reported":1722024668,"current_range_meters":10000,"station_id":"ce4bgv92rcd13ifvqcr0","pricing_plan_id":"cebpf4jnsgd1na2vs0mg"},{"bike_id":"1fe65fb4-3ad4-4b35-ba35-d23efe9cfb16","system_id":"levelo_inurba_marseille","lat":43.310804,"lon":5.38359,"is_reserved":false,"is_disabled":false,"rental_uris":{"android":"levelo://app?vid=1fe65fb4-3ad4-4b35-ba35-d23efe9cfb16","ios":"levelo://app?vid=1fe65fb4-3ad4-4b35-ba35-d23efe9cfb16"},"vehicle_type_id":"4","last_reported":1722024668,"current_range_meters":20400,"station_id":"ce4bgv92rcd13ifvqcr0","pricing_plan_id":"cebpf4jnsgd1na2vs0mg"},{"bike_id":"14448b4b-1763-4c02-8113-34b8cdea69d6","system_id":"levelo_inurba_marseille","lat":43.31074,"lon":5.38366,"is_reserved":false,"is_disabled":false,"rental_uris":{"android":"levelo://app?vid=14448b4b-1763-4c02-8113-34b8cdea69d6","ios":"levelo://app?vid=14448b4b-1763-4c02-8113-34b8cdea69d6"},"vehicle_type_id":"4","last_reported":1722024668,"current_range_meters":6000,"station_id":"ce4bgv92rcd13ifvqcr0","pricing_plan_id":"cebpf4jnsgd1na2vs0mg"},{"bike_id":"325efd11-ebc2-4bac-a329-ae1365b05e7b","system_id":"levelo_inurba_marseille","lat":43.302784,"lon":5.377158,"is_reserved":false,"is_disabled":false,"rental_uris":{"android":"levelo://app?vid=325efd11-ebc2-4bac-a329-ae1365b05e7b","ios":"levelo://app?vid=325efd11-ebc2-4bac-a329-ae1365b05e7b"},"vehicle_type_id":"4","last_reported":1722024668,"current_range_meters":6400,"station_id":"ce4bguh2rcd13ifvqcj0","pricing_plan_id":"cebpf4jnsgd1na2vs0mg"},{"bike_id":"ea21e9e2-847f-4f5d-a99c-266cceef04cf","system_id":"levelo_inurba_marseille","lat":43.301429,"lon":5.37413,"is_reserved":false,"is_disabled":false,"rental_uris":{"android":"levelo://app?vid=ea21e9e2-847f-4f5d-a99c-266cceef04cf","ios":"levelo://app?vid=ea21e9e2-847f-4f5d-a99c-266cceef04cf"},"vehicle_type_id":"4","last_reported":1722024668,"current_range_meters":29200,"station_id":"ce4bgs92rcd13ifvqcc0","pricing_plan_id":"cebpf4jnsgd1na2vs0mg"},{"bike_id":"ce09e650-2e76-4704-b943-501429ae01de","system_id":"levelo_inurba_marseille","lat":43.30143,"lon":5.37413,"is_reserved":false,"is_disabled":false,"rental_uris":{"android":"levelo://app?vid=ce09e650-2e76-4704-b943-501429ae01de","ios":"levelo://app?vid=ce09e650-2e76-4704-b943-501429ae01de"},"vehicle_type_id":"4","last_reported":1722024668,"current_range_meters":10800,"station_id":"ce4bgs92rcd13ifvqcc0","pricing_plan_id":"cebpf4jnsgd1na2vs0mg"},{"bike_id":"0c12e29b-a5fa-47fb-ad25-3227c203d3e0","system_id":"levelo_inurba_marseille","lat":43.301429,"lon":5.37413,"is_reserved":false,"is_disabled":false,"rental_uris":{"android":"levelo://app?vid=0c12e29b-a5fa-47fb-ad25-3227c203d3e0","ios":"levelo://app?vid=0c12e29b-a5fa-47fb-ad25-3227c203d3e0"},"vehicle_type_id":"4","last_reported":1722024668,"current_range_meters":15600,"station_id":"ce4bgs92rcd13ifvqcc0","pricing_plan_id":"cebpf4jnsgd1na2vs0mg"},{"bike_id":"fd571dd8-580c-44d8-8d2c-dc98fd68dfd7","system_id":"levelo_inurba_marseille","lat":43.301429,"lon":5.37413,"is_reserved":false,"is_disabled":false,"rental_uris":{"android":"levelo://app?vid=fd571dd8-580c-44d8-8d2c-dc98fd68dfd7","ios":"levelo://app?vid=fd571dd8-580c-44d8-8d2c-dc98fd68dfd7"},"vehicle_type_id":"4","last_reported":1722024668,"current_range_meters":8000,"station_id":"ce4bgs92rcd13ifvqcc0","pricing_plan_id":"cebpf4jnsgd1na2vs0mg"},{"bike_id":"4068bbec-f0e2-4171-8d51-5cbc13fb8ed9","system_id":"levelo_inurba_marseille","lat":43.30639,"lon":5.38221,"is_reserved":false,"is_disabled":false,"rental_uris":{"android":"levelo://app?vid=4068bbec-f0e2-4171-8d51-5cbc13fb8ed9","ios":"levelo://app?vid=4068bbec-f0e2-4171-8d51-5cbc13fb8ed9"},"vehicle_type_id":"4","last_reported":1722024668,"current_range_meters":3600,"station_id":"","pricing_plan_id":"cebpf4jnsgd1na2vs0mg"},{"bike_id":"935466f2-a8f8-461a-84e2-9f1ad6793a60","system_id":"levelo_inurba_marseille","lat":43.30001,"lon":5.371803,"is_reserved":false,"is_disabled":false,"rental_uris":{"android":"levelo://app?vid=935466f2-a8f8-461a-84e2-9f1ad6793a60","ios":"levelo://app?vid=935466f2-a8f8-461a-84e2-9f1ad6793a60"},"vehicle_type_id":"4","last_reported":1722024668,"current_range_meters":12000,"station_id":"ce4bgr92rcd13ifvqc7g","pricing_plan_id":"cebpf4jnsgd1na2vs0mg"},{"bike_id":"95207cf3-6a78-4510-a5ea-3f04840551ab","system_id":"levelo_inurba_marseille","lat":43.299995,"lon":5.371797,"is_reserved":false,"is_disabled":false,"rental_uris":{"android":"levelo://app?vid=95207cf3-6a78-4510-a5ea-3f04840551ab","ios":"levelo://app?vid=95207cf3-6a78-4510-a5ea-3f04840551ab"},"vehicle_type_id":"4","last_reported":1722024668,"current_range_meters":1600,"station_id":"ce4bgr92rcd13ifvqc7g","pricing_plan_id":"cebpf4jnsgd1na2vs0mg"},{"bike_id":"8e19a7d6-ffe6-4683-a7a0-30fa5444e6a6","system_id":"levelo_inurba_marseille","lat":43.299222,"lon":5.365554,"is_reserved":false,"is_disabled":false,"rental_uris":{"android":"levelo://app?vid=8e19a7d6-ffe6-4683-a7a0-30fa5444e6a6","ios":"levelo://app?vid=8e19a7d6-ffe6-4683-a7a0-30fa5444e6a6"},"vehicle_type_id":"4","last_reported":1722024668,"current_range_meters":4800,"station_id":"ce4bgm92rcd13ifvqbr0","pricing_plan_id":"cebpf4jnsgd1na2vs0mg"},{"bike_id":"9df41fec-4549-43f8-8c75-7517744cbb33","system_id":"levelo_inurba_marseille","lat":43.320324,"lon":5.382674,"is_reserved":false,"is_disabled":false,"rental_uris":{"android":"levelo://app?vid=9df41fec-4549-43f8-8c75-7517744cbb33","ios":"levelo://app?vid=9df41fec-4549-43f8-8c75-7517744cbb33"},"vehicle_type_id":"4","last_reported":1722024668,"current_range_meters":30400,"station_id":"","pricing_plan_id":"cebpf4jnsgd1na2vs0mg"},{"bike_id":"092e4668-ae04-4088-a3eb-ad414df2fc78","system_id":"levelo_inurba_marseille","lat":43.298687,"lon":5.36439,"is_reserved":false,"is_disabled":false,"rental_uris":{"android":"levelo://app?vid=092e4668-ae04-4088-a3eb-ad414df2fc78","ios":"levelo://app?vid=092e4668-ae04-4088-a3eb-ad414df2fc78"},"vehicle_type_id":"4","last_reported":1722024668,"current_range_meters":0,"station_id":"","pricing_plan_id":"cebpf4jnsgd1na2vs0mg"},{"bike_id":"98dbbf79-59be-468e-8159-a32328a535a4","system_id":"levelo_inurba_marseille","lat":43.305364,"lon":5.384119,"is_reserved":false,"is_disabled":false,"rental_uris":{"android":"levelo://app?vid=98dbbf79-59be-468e-8159-a32328a535a4","ios":"levelo://app?vid=98dbbf79-59be-468e-8159-a32328a535a4"},"vehicle_type_id":"4","last_reported":1722024668,"current_range_meters":4800,"station_id":"ce4bgg92rcd13ifvqb30","pricing_plan_id":"cebpf4jnsgd1na2vs0mg"},{"bike_id":"6143fac9-513a-4dbc-9b6d-c2b7d99f9318","system_id":"levelo_inurba_marseille","lat":43.305364,"lon":5.384119,"is_reserved":false,"is_disabled":false,"rental_uris":{"android":"levelo://app?vid=6143fac9-513a-4dbc-9b6d-c2b7d99f9318","ios":"levelo://app?vid=6143fac9-513a-4dbc-9b6d-c2b7d99f9318"},"vehicle_type_id":"4","last_reported":1722024668,"current_range_meters":800,"station_id":"ce4bgg92rcd13ifvqb30","pricing_plan_id":"cebpf4jnsgd1na2vs0mg"},{"bike_id":"46e00e2f-39a5-4bfe-b3c8-01052f74de55","system_id":"levelo_inurba_marseille","lat":43.29844,"lon":5.36275,"is_reserved":false,"is_disabled":false,"rental_uris":{"android":"levelo://app?vid=46e00e2f-39a5-4bfe-b3c8-01052f74de55","ios":"levelo://app?vid=46e00e2f-39a5-4bfe-b3c8-01052f74de55"},"vehicle_type_id":"4","last_reported":1722024668,"current_range_meters":0,"station_id":"ce4bgpp2rcd13ifvqc3g","pricing_plan_id":"cebpf4jnsgd1na2vs0mg"},{"bike_id":"4bab426b-e875-4e55-92f4-2d9b5ea59816","system_id":"levelo_inurba_marseille","lat":43.305364,"lon":5.384119,"is_reserved":false,"is_disabled":false,"rental_uris":{"android":"levelo://app?vid=4bab426b-e875-4e55-92f4-2d9b5ea59816","ios":"levelo://app?vid=4bab426b-e875-4e55-92f4-2d9b5ea59816"},"vehicle_type_id":"4","last_reported":1722024668,"current_range_meters":12800,"station_id":"ce4bgg92rcd13ifvqb30","pricing_plan_id":"cebpf4jnsgd1na2vs0mg"},{"bike_id":"fa083b4b-fb1f-40e9-a3f7-1f1c89971168","system_id":"levelo_inurba_marseille","lat":43.305364,"lon":5.384119,"is_reserved":false,"is_disabled":false,"rental_uris":{"android":"levelo://app?vid=fa083b4b-fb1f-40e9-a3f7-1f1c89971168","ios":"levelo://app?vid=fa083b4b-fb1f-40e9-a3f7-1f1c89971168"},"vehicle_type_id":"4","last_reported":1722024668,"current_range_meters":19600,"station_id":"ce4bgg92rcd13ifvqb30","pricing_plan_id":"cebpf4jnsgd1na2vs0mg"},{"bike_id":"70552856-db08-483d-8949-f2500a0c494e","system_id":"levelo_inurba_marseille","lat":43.305364,"lon":5.384119,"is_reserved":false,"is_disabled":false,"rental_uris":{"android":"levelo://app?vid=70552856-db08-483d-8949-f2500a0c494e","ios":"levelo://app?vid=70552856-db08-483d-8949-f2500a0c494e"},"vehicle_type_id":"4","last_reported":1722024668,"current_range_meters":12000,"station_id":"ce4bgg92rcd13ifvqb30","pricing_plan_id":"cebpf4jnsgd1na2vs0mg"},{"bike_id":"6d823c78-4b8e-43e0-bdba-4f8584cba9d1","system_id":"levelo_inurba_marseille","lat":43.299243,"lon":5.374807,"is_reserved":false,"is_disabled":false,"rental_uris":{"android":"levelo://app?vid=6d823c78-4b8e-43e0-bdba-4f8584cba9d1","ios":"levelo://app?vid=6d823c78-4b8e-43e0-bdba-4f8584cba9d1"},"vehicle_type_id":"4","last_reported":1722024668,"current_range_meters":24400,"station_id":"ce4bgjh2rcd13ifvqbg0","pricing_plan_id":"cebpf4jnsgd1na2vs0mg"},{"bike_id":"5baae494-bfce-46fb-89d7-e740d2524eeb","system_id":"levelo_inurba_marseille","lat":43.305364,"lon":5.384119,"is_reserved":false,"is_disabled":false,"rental_uris":{"android":"levelo://app?vid=5baae494-bfce-46fb-89d7-e740d2524eeb","ios":"levelo://app?vid=5baae494-bfce-46fb-89d7-e740d2524eeb"},"vehicle_type_id":"4","last_reported":1722024668,"current_range_meters":5200,"station_id":"ce4bgg92rcd13ifvqb30","pricing_plan_id":"cebpf4jnsgd1na2vs0mg"},{"bike_id":"0836f433-dc13-49f5-9c7b-de1a5c8da012","system_id":"levelo_inurba_marseille","lat":43.298433,"lon":5.362774,"is_reserved":false,"is_disabled":false,"rental_uris":{"android":"levelo://app?vid=0836f433-dc13-49f5-9c7b-de1a5c8da012","ios":"levelo://app?vid=0836f433-dc13-49f5-9c7b-de1a5c8da012"},"vehicle_type_id":"4","last_reported":1722024668,"current_range_meters":0,"station_id":"ce4bgpp2rcd13ifvqc3g","pricing_plan_id":"cebpf4jnsgd1na2vs0mg"},{"bike_id":"41214de6-3cc8-45fc-aae8-06e476209560","system_id":"levelo_inurba_marseille","lat":43.29913,"lon":5.37466,"is_reserved":false,"is_disabled":false,"rental_uris":{"android":"levelo://app?vid=41214de6-3cc8-45fc-aae8-06e476209560","ios":"levelo://app?vid=41214de6-3cc8-45fc-aae8-06e476209560"},"vehicle_type_id":"4","last_reported":1722024668,"current_range_meters":0,"station_id":"ce4bgjh2rcd13ifvqbg0","pricing_plan_id":"cebpf4jnsgd1na2vs0mg"},{"bike_id":"4e801938-dfc3-4393-a127-abaa1cd9a159","system_id":"levelo_inurba_marseille","lat":43.311722,"lon":5.387247,"is_reserved":false,"is_disabled":false,"rental_uris":{"android":"levelo://app?vid=4e801938-dfc3-4393-a127-abaa1cd9a159","ios":"levelo://app?vid=4e801938-dfc3-4393-a127-abaa1cd9a159"},"vehicle_type_id":"4","last_reported":1722024668,"current_range_meters":13200,"station_id":"ce4bgv12rcd13ifvqcp0","pricing_plan_id":"cebpf4jnsgd1na2vs0mg"},{"bike_id":"bcc0b8ed-f6de-4735-8fa6-6642881ee364","system_id":"levelo_inurba_marseille","lat":43.2991,"lon":5.37472,"is_reserved":false,"is_disabled":false,"rental_uris":{"android":"levelo://app?vid=bcc0b8ed-f6de-4735-8fa6-6642881ee364","ios":"levelo://app?vid=bcc0b8ed-f6de-4735-8fa6-6642881ee364"},"vehicle_type_id":"4","last_reported":1722024668,"current_range_meters":0,"station_id":"ce4bgjh2rcd13ifvqbg0","pricing_plan_id":"cebpf4jnsgd1na2vs0mg"},{"bike_id":"a6e6665a-a825-4c09-a7ac-187648486502","system_id":"levelo_inurba_marseille","lat":43.299243,"lon":5.374807,"is_reserved":false,"is_disabled":false,"rental_uris":{"android":"levelo://app?vid=a6e6665a-a825-4c09-a7ac-187648486502","ios":"levelo://app?vid=a6e6665a-a825-4c09-a7ac-187648486502"},"vehicle_type_id":"4","last_reported":1722024668,"current_range_meters":27200,"station_id":"ce4bgjh2rcd13ifvqbg0","pricing_plan_id":"cebpf4jnsgd1na2vs0mg"},{"bike_id":"b5189e96-9322-4bc9-8d5d-b2b8bb6e7538","system_id":"levelo_inurba_marseille","lat":43.311722,"lon":5.387247,"is_reserved":false,"is_disabled":false,"rental_uris":{"android":"levelo://app?vid=b5189e96-9322-4bc9-8d5d-b2b8bb6e7538","ios":"levelo://app?vid=b5189e96-9322-4bc9-8d5d-b2b8bb6e7538"},"vehicle_type_id":"4","last_reported":1722024668,"current_range_meters":10000,"station_id":"ce4bgv12rcd13ifvqcp0","pricing_plan_id":"cebpf4jnsgd1na2vs0mg"},{"bike_id":"6f151ad3-4f6f-4225-be9f-db6696245c4c","system_id":"levelo_inurba_marseille","lat":43.311722,"lon":5.387247,"is_reserved":false,"is_disabled":false,"rental_uris":{"android":"levelo://app?vid=6f151ad3-4f6f-4225-be9f-db6696245c4c","ios":"levelo://app?vid=6f151ad3-4f6f-4225-be9f-db6696245c4c"},"vehicle_type_id":"4","last_reported":1722024668,"current_range_meters":5200,"station_id":"ce4bgv12rcd13ifvqcp0","pricing_plan_id":"cebpf4jnsgd1na2vs0mg"},{"bike_id":"ee6574b9-3b73-489b-a7f1-d367f187aa6b","system_id":"levelo_inurba_marseille","lat":43.299057,"lon":5.37478,"is_reserved":false,"is_disabled":false,"rental_uris":{"android":"levelo://app?vid=ee6574b9-3b73-489b-a7f1-d367f187aa6b","ios":"levelo://app?vid=ee6574b9-3b73-489b-a7f1-d367f187aa6b"},"vehicle_type_id":"4","last_reported":1722024668,"current_range_meters":6800,"station_id":"ce4bgjh2rcd13ifvqbg0","pricing_plan_id":"cebpf4jnsgd1na2vs0mg"},{"bike_id":"16be958d-0e78-44d4-b7e6-9d1a61310b09","system_id":"levelo_inurba_marseille","lat":43.299243,"lon":5.37481,"is_reserved":false,"is_disabled":false,"rental_uris":{"android":"levelo://app?vid=16be958d-0e78-44d4-b7e6-9d1a61310b09","ios":"levelo://app?vid=16be958d-0e78-44d4-b7e6-9d1a61310b09"},"vehicle_type_id":"4","last_reported":1722024668,"current_range_meters":10400,"station_id":"ce4bgjh2rcd13ifvqbg0","pricing_plan_id":"cebpf4jnsgd1na2vs0mg"},{"bike_id":"65003777-d3a9-4de4-86a0-42e7b585d58f","system_id":"levelo_inurba_marseille","lat":43.297794,"lon":5.370888,"is_reserved":false,"is_disabled":false,"rental_uris":{"android":"levelo://app?vid=65003777-d3a9-4de4-86a0-42e7b585d58f","ios":"levelo://app?vid=65003777-d3a9-4de4-86a0-42e7b585d58f"},"vehicle_type_id":"4","last_reported":1722024668,"current_range_meters":31600,"station_id":"ce4bgop2rcd13ifvqc1g","pricing_plan_id":"cebpf4jnsgd1na2vs0mg"},{"bike_id":"73c0e0c3-24b6-4baf-a2c6-319766aeca3a","system_id":"levelo_inurba_marseille","lat":43.30144,"lon":5.38076,"is_reserved":false,"is_disabled":false,"rental_uris":{"android":"levelo://app?vid=73c0e0c3-24b6-4baf-a2c6-319766aeca3a","ios":"levelo://app?vid=73c0e0c3-24b6-4baf-a2c6-319766aeca3a"},"vehicle_type_id":"4","last_reported":1722024668,"current_range_meters":0,"station_id":"","pricing_plan_id":"cebpf4jnsgd1na2vs0mg"},{"bike_id":"6d782ea3-9dc1-43a3-8ec1-855e53a29786","system_id":"levelo_inurba_marseille","lat":43.297774,"lon":5.370875,"is_reserved":false,"is_disabled":false,"rental_uris":{"android":"levelo://app?vid=6d782ea3-9dc1-43a3-8ec1-855e53a29786","ios":"levelo://app?vid=6d782ea3-9dc1-43a3-8ec1-855e53a29786"},"vehicle_type_id":"4","last_reported":1722024668,"current_range_meters":5600,"station_id":"ce4bgop2rcd13ifvqc1g","pricing_plan_id":"cebpf4jnsgd1na2vs0mg"},{"bike_id":"d4262961-f3bb-4638-aa76-74e085324454","system_id":"levelo_inurba_marseille","lat":43.32278,"lon":5.38259,"is_reserved":false,"is_disabled":false,"rental_uris":{"android":"levelo://app?vid=d4262961-f3bb-4638-aa76-74e085324454","ios":"levelo://app?vid=d4262961-f3bb-4638-aa76-74e085324454"},"vehicle_type_id":"4","last_reported":1722024668,"current_range_meters":3600,"station_id":"ce4bhr12rcd13ifvqhqg","pricing_plan_id":"cebpf4jnsgd1na2vs0mg"},{"bike_id":"d1d1351c-19f7-467b-85c3-178d2373af3f","system_id":"levelo_inurba_marseille","lat":43.297794,"lon":5.370888,"is_reserved":false,"is_disabled":false,"rental_uris":{"android":"levelo://app?vid=d1d1351c-19f7-467b-85c3-178d2373af3f","ios":"levelo://app?vid=d1d1351c-19f7-467b-85c3-178d2373af3f"},"vehicle_type_id":"4","last_reported":1722024668,"current_range_meters":30400,"station_id":"ce4bgop2rcd13ifvqc1g","pricing_plan_id":"cebpf4jnsgd1na2vs0mg"},{"bike_id":"f492d446-b4dd-490b-a9e3-b0b3310b9386","system_id":"levelo_inurba_marseille","lat":43.297163,"lon":5.365866,"is_reserved":false,"is_disabled":false,"rental_uris":{"android":"levelo://app?vid=f492d446-b4dd-490b-a9e3-b0b3310b9386","ios":"levelo://app?vid=f492d446-b4dd-490b-a9e3-b0b3310b9386"},"vehicle_type_id":"4","last_reported":1722024668,"current_range_meters":3600,"station_id":"ce4bgn12rcd13ifvqbt0","pricing_plan_id":"cebpf4jnsgd1na2vs0mg"},{"bike_id":"28fa8731-ed0a-40bb-9397-22a2285554ec","system_id":"levelo_inurba_marseille","lat":43.297794,"lon":5.370888,"is_reserved":false,"is_disabled":false,"rental_uris":{"android":"levelo://app?vid=28fa8731-ed0a-40bb-9397-22a2285554ec","ios":"levelo://app?vid=28fa8731-ed0a-40bb-9397-22a2285554ec"},"vehicle_type_id":"4","last_reported":1722024668,"current_range_meters":28800,"station_id":"ce4bgop2rcd13ifvqc1g","pricing_plan_id":"cebpf4jnsgd1na2vs0mg"},{"bike_id":"91f167e0-3598-4684-8465-a051e3d9fecf","system_id":"levelo_inurba_marseille","lat":43.297794,"lon":5.370888,"is_reserved":false,"is_disabled":false,"rental_uris":{"android":"levelo://app?vid=91f167e0-3598-4684-8465-a051e3d9fecf","ios":"levelo://app?vid=91f167e0-3598-4684-8465-a051e3d9fecf"},"vehicle_type_id":"4","last_reported":1722024668,"current_range_meters":31200,"station_id":"ce4bgop2rcd13ifvqc1g","pricing_plan_id":"cebpf4jnsgd1na2vs0mg"},{"bike_id":"aa3897ce-af97-4924-93ed-cd7eb7962841","system_id":"levelo_inurba_marseille","lat":43.297794,"lon":5.370888,"is_reserved":false,"is_disabled":false,"rental_uris":{"android":"levelo://app?vid=aa3897ce-af97-4924-93ed-cd7eb7962841","ios":"levelo://app?vid=aa3897ce-af97-4924-93ed-cd7eb7962841"},"vehicle_type_id":"4","last_reported":1722024668,"current_range_meters":31600,"station_id":"ce4bgop2rcd13ifvqc1g","pricing_plan_id":"cebpf4jnsgd1na2vs0mg"},{"bike_id":"23601b0d-963a-4429-a411-db4635831707","system_id":"levelo_inurba_marseille","lat":43.322872,"lon":5.382756,"is_reserved":false,"is_disabled":false,"rental_uris":{"android":"levelo://app?vid=23601b0d-963a-4429-a411-db4635831707","ios":"levelo://app?vid=23601b0d-963a-4429-a411-db4635831707"},"vehicle_type_id":"4","last_reported":1722024668,"current_range_meters":0,"station_id":"ce4bhr12rcd13ifvqhqg","pricing_plan_id":"cebpf4jnsgd1na2vs0mg"},{"bike_id":"cca3b4e5-8d40-41fc-a8d6-11745477c3e6","system_id":"levelo_inurba_marseille","lat":43.322872,"lon":5.382756,"is_reserved":false,"is_disabled":false,"rental_uris":{"android":"levelo://app?vid=cca3b4e5-8d40-41fc-a8d6-11745477c3e6","ios":"levelo://app?vid=cca3b4e5-8d40-41fc-a8d6-11745477c3e6"},"vehicle_type_id":"4","last_reported":1722024668,"current_range_meters":4000,"station_id":"ce4bhr12rcd13ifvqhqg","pricing_plan_id":"cebpf4jnsgd1na2vs0mg"},{"bike_id":"5866e309-4de9-4295-9068-4ee353fe4028","system_id":"levelo_inurba_marseille","lat":43.322872,"lon":5.382756,"is_reserved":false,"is_disabled":false,"rental_uris":{"android":"levelo://app?vid=5866e309-4de9-4295-9068-4ee353fe4028","ios":"levelo://app?vid=5866e309-4de9-4295-9068-4ee353fe4028"},"vehicle_type_id":"4","last_reported":1722024668,"current_range_meters":11200,"station_id":"ce4bhr12rcd13ifvqhqg","pricing_plan_id":"cebpf4jnsgd1na2vs0mg"},{"bike_id":"b1f4ca3e-8d01-4196-a1e8-a842a55de908","system_id":"levelo_inurba_marseille","lat":43.297794,"lon":5.370888,"is_reserved":false,"is_disabled":false,"rental_uris":{"android":"levelo://app?vid=b1f4ca3e-8d01-4196-a1e8-a842a55de908","ios":"levelo://app?vid=b1f4ca3e-8d01-4196-a1e8-a842a55de908"},"vehicle_type_id":"4","last_reported":1722024668,"current_range_meters":31200,"station_id":"ce4bgop2rcd13ifvqc1g","pricing_plan_id":"cebpf4jnsgd1na2vs0mg"},{"bike_id":"c5038399-9d28-48fd-9a93-bea6873973e1","system_id":"levelo_inurba_marseille","lat":43.322872,"lon":5.382756,"is_reserved":false,"is_disabled":false,"rental_uris":{"android":"levelo://app?vid=c5038399-9d28-48fd-9a93-bea6873973e1","ios":"levelo://app?vid=c5038399-9d28-48fd-9a93-bea6873973e1"},"vehicle_type_id":"4","last_reported":1722024668,"current_range_meters":13200,"station_id":"ce4bhr12rcd13ifvqhqg","pricing_plan_id":"cebpf4jnsgd1na2vs0mg"},{"bike_id":"c112efa1-737c-49a4-bb6b-7bde5738d543","system_id":"levelo_inurba_marseille","lat":43.297794,"lon":5.370888,"is_reserved":false,"is_disabled":false,"rental_uris":{"android":"levelo://app?vid=c112efa1-737c-49a4-bb6b-7bde5738d543","ios":"levelo://app?vid=c112efa1-737c-49a4-bb6b-7bde5738d543"},"vehicle_type_id":"4","last_reported":1722024668,"current_range_meters":30800,"station_id":"ce4bgop2rcd13ifvqc1g","pricing_plan_id":"cebpf4jnsgd1na2vs0mg"},{"bike_id":"cc0530e4-9196-437c-b1d5-d071d90a3e00","system_id":"levelo_inurba_marseille","lat":43.2968,"lon":5.37291,"is_reserved":false,"is_disabled":false,"rental_uris":{"android":"levelo://app?vid=cc0530e4-9196-437c-b1d5-d071d90a3e00","ios":"levelo://app?vid=cc0530e4-9196-437c-b1d5-d071d90a3e00"},"vehicle_type_id":"4","last_reported":1722024668,"current_range_meters":10400,"station_id":"ce4bgk12rcd13ifvqbj0","pricing_plan_id":"cebpf4jnsgd1na2vs0mg"},{"bike_id":"1eeea72f-97a7-4264-8aa6-428ed1ae35d0","system_id":"levelo_inurba_marseille","lat":43.2968,"lon":5.37291,"is_reserved":false,"is_disabled":false,"rental_uris":{"android":"levelo://app?vid=1eeea72f-97a7-4264-8aa6-428ed1ae35d0","ios":"levelo://app?vid=1eeea72f-97a7-4264-8aa6-428ed1ae35d0"},"vehicle_type_id":"4","last_reported":1722024668,"current_range_meters":4800,"station_id":"ce4bgk12rcd13ifvqbj0","pricing_plan_id":"cebpf4jnsgd1na2vs0mg"},{"bike_id":"2abded4e-b088-41a0-8222-85c458c08bc9","system_id":"levelo_inurba_marseille","lat":43.2968,"lon":5.37291,"is_reserved":false,"is_disabled":false,"rental_uris":{"android":"levelo://app?vid=2abded4e-b088-41a0-8222-85c458c08bc9","ios":"levelo://app?vid=2abded4e-b088-41a0-8222-85c458c08bc9"},"vehicle_type_id":"4","last_reported":1722024668,"current_range_meters":400,"station_id":"ce4bgk12rcd13ifvqbj0","pricing_plan_id":"cebpf4jnsgd1na2vs0mg"},{"bike_id":"4c7b370d-2c7f-405b-8c8c-a9a136a3cdfc","system_id":"levelo_inurba_marseille","lat":43.2968,"lon":5.37291,"is_reserved":false,"is_disabled":false,"rental_uris":{"android":"levelo://app?vid=4c7b370d-2c7f-405b-8c8c-a9a136a3cdfc","ios":"levelo://app?vid=4c7b370d-2c7f-405b-8c8c-a9a136a3cdfc"},"vehicle_type_id":"4","last_reported":1722024668,"current_range_meters":23600,"station_id":"ce4bgk12rcd13ifvqbj0","pricing_plan_id":"cebpf4jnsgd1na2vs0mg"},{"bike_id":"fb4e93db-4ff1-4951-bfb0-4eed9517de50","system_id":"levelo_inurba_marseille","lat":43.2968,"lon":5.37291,"is_reserved":false,"is_disabled":false,"rental_uris":{"android":"levelo://app?vid=fb4e93db-4ff1-4951-bfb0-4eed9517de50","ios":"levelo://app?vid=fb4e93db-4ff1-4951-bfb0-4eed9517de50"},"vehicle_type_id":"4","last_reported":1722024668,"current_range_meters":29600,"station_id":"ce4bgk12rcd13ifvqbj0","pricing_plan_id":"cebpf4jnsgd1na2vs0mg"},{"bike_id":"cd0315aa-a670-4056-8100-f8d9b0ccef0d","system_id":"levelo_inurba_marseille","lat":43.29636,"lon":5.3703,"is_reserved":false,"is_disabled":false,"rental_uris":{"android":"levelo://app?vid=cd0315aa-a670-4056-8100-f8d9b0ccef0d","ios":"levelo://app?vid=cd0315aa-a670-4056-8100-f8d9b0ccef0d"},"vehicle_type_id":"4","last_reported":1722024668,"current_range_meters":26800,"station_id":"","pricing_plan_id":"cebpf4jnsgd1na2vs0mg"},{"bike_id":"ad7a1b59-c482-47ba-b55d-7374fbf13368","system_id":"levelo_inurba_marseille","lat":43.297163,"lon":5.365866,"is_reserved":false,"is_disabled":false,"rental_uris":{"android":"levelo://app?vid=ad7a1b59-c482-47ba-b55d-7374fbf13368","ios":"levelo://app?vid=ad7a1b59-c482-47ba-b55d-7374fbf13368"},"vehicle_type_id":"4","last_reported":1722024668,"current_range_meters":17200,"station_id":"ce4bgn12rcd13ifvqbt0","pricing_plan_id":"cebpf4jnsgd1na2vs0mg"},{"bike_id":"77ebd6f7-0e15-4246-8feb-b1d720ac899a","system_id":"levelo_inurba_marseille","lat":43.30051,"lon":5.38233,"is_reserved":false,"is_disabled":false,"rental_uris":{"android":"levelo://app?vid=77ebd6f7-0e15-4246-8feb-b1d720ac899a","ios":"levelo://app?vid=77ebd6f7-0e15-4246-8feb-b1d720ac899a"},"vehicle_type_id":"4","last_reported":1722024668,"current_range_meters":22800,"station_id":"","pricing_plan_id":"cebpf4jnsgd1na2vs0mg"},{"bike_id":"43db88e8-2afc-493a-9af6-af88b4dc0a0e","system_id":"levelo_inurba_marseille","lat":43.296131,"lon":5.370791,"is_reserved":false,"is_disabled":false,"rental_uris":{"android":"levelo://app?vid=43db88e8-2afc-493a-9af6-af88b4dc0a0e","ios":"levelo://app?vid=43db88e8-2afc-493a-9af6-af88b4dc0a0e"},"vehicle_type_id":"4","last_reported":1722024668,"current_range_meters":10400,"station_id":"ce4bgnh2rcd13ifvqc0g","pricing_plan_id":"cebpf4jnsgd1na2vs0mg"},{"bike_id":"00ebbd1f-c079-48bc-b13c-010d3d00145a","system_id":"levelo_inurba_marseille","lat":43.296131,"lon":5.370773,"is_reserved":false,"is_disabled":false,"rental_uris":{"android":"levelo://app?vid=00ebbd1f-c079-48bc-b13c-010d3d00145a","ios":"levelo://app?vid=00ebbd1f-c079-48bc-b13c-010d3d00145a"},"vehicle_type_id":"4","last_reported":1722024668,"current_range_meters":1200,"station_id":"ce4bgnh2rcd13ifvqc0g","pricing_plan_id":"cebpf4jnsgd1na2vs0mg"},{"bike_id":"7491080c-c674-4fd4-9668-c9830e3fabb2","system_id":"levelo_inurba_marseille","lat":43.296131,"lon":5.370791,"is_reserved":false,"is_disabled":false,"rental_uris":{"android":"levelo://app?vid=7491080c-c674-4fd4-9668-c9830e3fabb2","ios":"levelo://app?vid=7491080c-c674-4fd4-9668-c9830e3fabb2"},"vehicle_type_id":"4","last_reported":1722024668,"current_range_meters":11600,"station_id":"ce4bgnh2rcd13ifvqc0g","pricing_plan_id":"cebpf4jnsgd1na2vs0mg"},{"bike_id":"3b0d96ea-3116-485c-a488-2163e89e8090","system_id":"levelo_inurba_marseille","lat":43.29621,"lon":5.37163,"is_reserved":false,"is_disabled":false,"rental_uris":{"android":"levelo://app?vid=3b0d96ea-3116-485c-a488-2163e89e8090","ios":"levelo://app?vid=3b0d96ea-3116-485c-a488-2163e89e8090"},"vehicle_type_id":"4","last_reported":1722024668,"current_range_meters":2800,"station_id":"ce4bgnh2rcd13ifvqc0g","pricing_plan_id":"cebpf4jnsgd1na2vs0mg"},{"bike_id":"4f612d71-470b-4bf9-a16a-f1aaf4ddbd8d","system_id":"levelo_inurba_marseille","lat":43.29621,"lon":5.37164,"is_reserved":false,"is_disabled":false,"rental_uris":{"android":"levelo://app?vid=4f612d71-470b-4bf9-a16a-f1aaf4ddbd8d","ios":"levelo://app?vid=4f612d71-470b-4bf9-a16a-f1aaf4ddbd8d"},"vehicle_type_id":"4","last_reported":1722024668,"current_range_meters":12800,"station_id":"ce4bgnh2rcd13ifvqc0g","pricing_plan_id":"cebpf4jnsgd1na2vs0mg"},{"bike_id":"4ca95636-0298-4697-a972-81100553d6b6","system_id":"levelo_inurba_marseille","lat":43.2962,"lon":5.37163,"is_reserved":false,"is_disabled":false,"rental_uris":{"android":"levelo://app?vid=4ca95636-0298-4697-a972-81100553d6b6","ios":"levelo://app?vid=4ca95636-0298-4697-a972-81100553d6b6"},"vehicle_type_id":"4","last_reported":1722024668,"current_range_meters":800,"station_id":"ce4bgnh2rcd13ifvqc0g","pricing_plan_id":"cebpf4jnsgd1na2vs0mg"},{"bike_id":"b8ba0ae3-fe4a-4da5-9b51-88319bfd9715","system_id":"levelo_inurba_marseille","lat":43.29617,"lon":5.37143,"is_reserved":false,"is_disabled":false,"rental_uris":{"android":"levelo://app?vid=b8ba0ae3-fe4a-4da5-9b51-88319bfd9715","ios":"levelo://app?vid=b8ba0ae3-fe4a-4da5-9b51-88319bfd9715"},"vehicle_type_id":"4","last_reported":1722024668,"current_range_meters":5600,"station_id":"ce4bgnh2rcd13ifvqc0g","pricing_plan_id":"cebpf4jnsgd1na2vs0mg"},{"bike_id":"c4d2c200-e3f3-4b28-a39e-a6eeedd8c62b","system_id":"levelo_inurba_marseille","lat":43.2962,"lon":5.37172,"is_reserved":false,"is_disabled":false,"rental_uris":{"android":"levelo://app?vid=c4d2c200-e3f3-4b28-a39e-a6eeedd8c62b","ios":"levelo://app?vid=c4d2c200-e3f3-4b28-a39e-a6eeedd8c62b"},"vehicle_type_id":"4","last_reported":1722024668,"current_range_meters":16800,"station_id":"ce4bgnh2rcd13ifvqc0g","pricing_plan_id":"cebpf4jnsgd1na2vs0mg"},{"bike_id":"f63852e4-4f46-4331-9894-a89ecfa0314d","system_id":"levelo_inurba_marseille","lat":43.296131,"lon":5.370791,"is_reserved":false,"is_disabled":false,"rental_uris":{"android":"levelo://app?vid=f63852e4-4f46-4331-9894-a89ecfa0314d","ios":"levelo://app?vid=f63852e4-4f46-4331-9894-a89ecfa0314d"},"vehicle_type_id":"4","last_reported":1722024668,"current_range_meters":9600,"station_id":"ce4bgnh2rcd13ifvqc0g","pricing_plan_id":"cebpf4jnsgd1na2vs0mg"},{"bike_id":"67bb0809-7238-4461-a226-646a54fc5a8c","system_id":"levelo_inurba_marseille","lat":43.29616,"lon":5.37148,"is_reserved":false,"is_disabled":false,"rental_uris":{"android":"levelo://app?vid=67bb0809-7238-4461-a226-646a54fc5a8c","ios":"levelo://app?vid=67bb0809-7238-4461-a226-646a54fc5a8c"},"vehicle_type_id":"4","last_reported":1722024668,"current_range_meters":3200,"station_id":"ce4bgnh2rcd13ifvqc0g","pricing_plan_id":"cebpf4jnsgd1na2vs0mg"},{"bike_id":"34d23524-40a5-43f8-bb65-e1203abb4f81","system_id":"levelo_inurba_marseille","lat":43.296131,"lon":5.370773,"is_reserved":false,"is_disabled":false,"rental_uris":{"android":"levelo://app?vid=34d23524-40a5-43f8-bb65-e1203abb4f81","ios":"levelo://app?vid=34d23524-40a5-43f8-bb65-e1203abb4f81"},"vehicle_type_id":"4","last_reported":1722024668,"current_range_meters":16800,"station_id":"ce4bgnh2rcd13ifvqc0g","pricing_plan_id":"cebpf4jnsgd1na2vs0mg"},{"bike_id":"20aaf1cb-5eb3-445b-a609-ec2181a0fe92","system_id":"levelo_inurba_marseille","lat":43.29573,"lon":5.367355,"is_reserved":false,"is_disabled":false,"rental_uris":{"android":"levelo://app?vid=20aaf1cb-5eb3-445b-a609-ec2181a0fe92","ios":"levelo://app?vid=20aaf1cb-5eb3-445b-a609-ec2181a0fe92"},"vehicle_type_id":"4","last_reported":1722024668,"current_range_meters":12800,"station_id":"ce4bgph2rcd13ifvqc2g","pricing_plan_id":"cebpf4jnsgd1na2vs0mg"},{"bike_id":"a5caa525-5be4-4db8-a974-085755e4a49d","system_id":"levelo_inurba_marseille","lat":43.29573,"lon":5.367355,"is_reserved":false,"is_disabled":false,"rental_uris":{"android":"levelo://app?vid=a5caa525-5be4-4db8-a974-085755e4a49d","ios":"levelo://app?vid=a5caa525-5be4-4db8-a974-085755e4a49d"},"vehicle_type_id":"4","last_reported":1722024668,"current_range_meters":3200,"station_id":"ce4bgph2rcd13ifvqc2g","pricing_plan_id":"cebpf4jnsgd1na2vs0mg"},{"bike_id":"15a9222b-17c2-4039-84fc-61c746c3023c","system_id":"levelo_inurba_marseille","lat":43.3095,"lon":5.39024,"is_reserved":false,"is_disabled":false,"rental_uris":{"android":"levelo://app?vid=15a9222b-17c2-4039-84fc-61c746c3023c","ios":"levelo://app?vid=15a9222b-17c2-4039-84fc-61c746c3023c"},"vehicle_type_id":"4","last_reported":1722024668,"current_range_meters":31200,"station_id":"ce4bgup2rcd13ifvqco0","pricing_plan_id":"cebpf4jnsgd1na2vs0mg"},{"bike_id":"8ec26ebc-4ae6-4110-9ee2-217e1a37ded3","system_id":"levelo_inurba_marseille","lat":43.309589,"lon":5.390258,"is_reserved":false,"is_disabled":false,"rental_uris":{"android":"levelo://app?vid=8ec26ebc-4ae6-4110-9ee2-217e1a37ded3","ios":"levelo://app?vid=8ec26ebc-4ae6-4110-9ee2-217e1a37ded3"},"vehicle_type_id":"4","last_reported":1722024668,"current_range_meters":31200,"station_id":"ce4bgup2rcd13ifvqco0","pricing_plan_id":"cebpf4jnsgd1na2vs0mg"},{"bike_id":"80cb7a64-cafb-4e52-bb71-be1b9737b179","system_id":"levelo_inurba_marseille","lat":43.309589,"lon":5.390258,"is_reserved":false,"is_disabled":false,"rental_uris":{"android":"levelo://app?vid=80cb7a64-cafb-4e52-bb71-be1b9737b179","ios":"levelo://app?vid=80cb7a64-cafb-4e52-bb71-be1b9737b179"},"vehicle_type_id":"4","last_reported":1722024668,"current_range_meters":3200,"station_id":"ce4bgup2rcd13ifvqco0","pricing_plan_id":"cebpf4jnsgd1na2vs0mg"},{"bike_id":"2e1f0cf4-cbe7-41aa-ae3f-c54586b85fca","system_id":"levelo_inurba_marseille","lat":43.30961,"lon":5.39032,"is_reserved":false,"is_disabled":false,"rental_uris":{"android":"levelo://app?vid=2e1f0cf4-cbe7-41aa-ae3f-c54586b85fca","ios":"levelo://app?vid=2e1f0cf4-cbe7-41aa-ae3f-c54586b85fca"},"vehicle_type_id":"4","last_reported":1722024668,"current_range_meters":16400,"station_id":"ce4bgup2rcd13ifvqco0","pricing_plan_id":"cebpf4jnsgd1na2vs0mg"},{"bike_id":"5c6eed61-f1ac-4d99-be09-393686972be9","system_id":"levelo_inurba_marseille","lat":43.309589,"lon":5.390258,"is_reserved":false,"is_disabled":false,"rental_uris":{"android":"levelo://app?vid=5c6eed61-f1ac-4d99-be09-393686972be9","ios":"levelo://app?vid=5c6eed61-f1ac-4d99-be09-393686972be9"},"vehicle_type_id":"4","last_reported":1722024668,"current_range_meters":7600,"station_id":"ce4bgup2rcd13ifvqco0","pricing_plan_id":"cebpf4jnsgd1na2vs0mg"},{"bike_id":"0c4bd1df-3d22-49dc-9f24-5f745134592b","system_id":"levelo_inurba_marseille","lat":43.309589,"lon":5.390258,"is_reserved":false,"is_disabled":false,"rental_uris":{"android":"levelo://app?vid=0c4bd1df-3d22-49dc-9f24-5f745134592b","ios":"levelo://app?vid=0c4bd1df-3d22-49dc-9f24-5f745134592b"},"vehicle_type_id":"4","last_reported":1722024668,"current_range_meters":31200,"station_id":"ce4bgup2rcd13ifvqco0","pricing_plan_id":"cebpf4jnsgd1na2vs0mg"},{"bike_id":"2ffb18a8-d33d-4824-933d-a09ed103dff4","system_id":"levelo_inurba_marseille","lat":43.309589,"lon":5.390258,"is_reserved":false,"is_disabled":false,"rental_uris":{"android":"levelo://app?vid=2ffb18a8-d33d-4824-933d-a09ed103dff4","ios":"levelo://app?vid=2ffb18a8-d33d-4824-933d-a09ed103dff4"},"vehicle_type_id":"4","last_reported":1722024668,"current_range_meters":31200,"station_id":"ce4bgup2rcd13ifvqco0","pricing_plan_id":"cebpf4jnsgd1na2vs0mg"},{"bike_id":"2ecacf18-0194-48e8-ab34-cac4583b117c","system_id":"levelo_inurba_marseille","lat":43.30952,"lon":5.39034,"is_reserved":false,"is_disabled":false,"rental_uris":{"android":"levelo://app?vid=2ecacf18-0194-48e8-ab34-cac4583b117c","ios":"levelo://app?vid=2ecacf18-0194-48e8-ab34-cac4583b117c"},"vehicle_type_id":"4","last_reported":1722024668,"current_range_meters":3600,"station_id":"ce4bgup2rcd13ifvqco0","pricing_plan_id":"cebpf4jnsgd1na2vs0mg"},{"bike_id":"be7169f4-b75d-4290-9cc2-45820f089b7d","system_id":"levelo_inurba_marseille","lat":43.309589,"lon":5.390258,"is_reserved":false,"is_disabled":false,"rental_uris":{"android":"levelo://app?vid=be7169f4-b75d-4290-9cc2-45820f089b7d","ios":"levelo://app?vid=be7169f4-b75d-4290-9cc2-45820f089b7d"},"vehicle_type_id":"4","last_reported":1722024668,"current_range_meters":30800,"station_id":"ce4bgup2rcd13ifvqco0","pricing_plan_id":"cebpf4jnsgd1na2vs0mg"},{"bike_id":"4f6f190b-1988-48db-860b-3a8f5e7cfde5","system_id":"levelo_inurba_marseille","lat":43.309589,"lon":5.390258,"is_reserved":false,"is_disabled":false,"rental_uris":{"android":"levelo://app?vid=4f6f190b-1988-48db-860b-3a8f5e7cfde5","ios":"levelo://app?vid=4f6f190b-1988-48db-860b-3a8f5e7cfde5"},"vehicle_type_id":"4","last_reported":1722024668,"current_range_meters":30000,"station_id":"ce4bgup2rcd13ifvqco0","pricing_plan_id":"cebpf4jnsgd1na2vs0mg"},{"bike_id":"617637ef-30f5-41f3-8dc8-a44ebfbf197d","system_id":"levelo_inurba_marseille","lat":43.309589,"lon":5.390258,"is_reserved":false,"is_disabled":false,"rental_uris":{"android":"levelo://app?vid=617637ef-30f5-41f3-8dc8-a44ebfbf197d","ios":"levelo://app?vid=617637ef-30f5-41f3-8dc8-a44ebfbf197d"},"vehicle_type_id":"4","last_reported":1722024668,"current_range_meters":19600,"station_id":"ce4bgup2rcd13ifvqco0","pricing_plan_id":"cebpf4jnsgd1na2vs0mg"},{"bike_id":"67cd5056-be41-43e4-bbbc-8dcebc30eab7","system_id":"levelo_inurba_marseille","lat":43.309589,"lon":5.390258,"is_reserved":false,"is_disabled":false,"rental_uris":{"android":"levelo://app?vid=67cd5056-be41-43e4-bbbc-8dcebc30eab7","ios":"levelo://app?vid=67cd5056-be41-43e4-bbbc-8dcebc30eab7"},"vehicle_type_id":"4","last_reported":1722024668,"current_range_meters":10800,"station_id":"ce4bgup2rcd13ifvqco0","pricing_plan_id":"cebpf4jnsgd1na2vs0mg"},{"bike_id":"387010d2-1681-4036-9108-146e163eebbf","system_id":"levelo_inurba_marseille","lat":43.309589,"lon":5.390258,"is_reserved":false,"is_disabled":false,"rental_uris":{"android":"levelo://app?vid=387010d2-1681-4036-9108-146e163eebbf","ios":"levelo://app?vid=387010d2-1681-4036-9108-146e163eebbf"},"vehicle_type_id":"4","last_reported":1722024668,"current_range_meters":30400,"station_id":"ce4bgup2rcd13ifvqco0","pricing_plan_id":"cebpf4jnsgd1na2vs0mg"},{"bike_id":"a6a75611-b514-468b-b6e6-a9797efa4fe7","system_id":"levelo_inurba_marseille","lat":43.309589,"lon":5.390258,"is_reserved":false,"is_disabled":false,"rental_uris":{"android":"levelo://app?vid=a6a75611-b514-468b-b6e6-a9797efa4fe7","ios":"levelo://app?vid=a6a75611-b514-468b-b6e6-a9797efa4fe7"},"vehicle_type_id":"4","last_reported":1722024668,"current_range_meters":30000,"station_id":"ce4bgup2rcd13ifvqco0","pricing_plan_id":"cebpf4jnsgd1na2vs0mg"},{"bike_id":"c3535a35-c6da-492e-bd01-9ce987e071c4","system_id":"levelo_inurba_marseille","lat":43.309589,"lon":5.390258,"is_reserved":false,"is_disabled":false,"rental_uris":{"android":"levelo://app?vid=c3535a35-c6da-492e-bd01-9ce987e071c4","ios":"levelo://app?vid=c3535a35-c6da-492e-bd01-9ce987e071c4"},"vehicle_type_id":"4","last_reported":1722024668,"current_range_meters":31200,"station_id":"ce4bgup2rcd13ifvqco0","pricing_plan_id":"cebpf4jnsgd1na2vs0mg"},{"bike_id":"49ce15f9-bfe0-408e-b8f2-ccba8dd71bb9","system_id":"levelo_inurba_marseille","lat":43.309589,"lon":5.390258,"is_reserved":false,"is_disabled":false,"rental_uris":{"android":"levelo://app?vid=49ce15f9-bfe0-408e-b8f2-ccba8dd71bb9","ios":"levelo://app?vid=49ce15f9-bfe0-408e-b8f2-ccba8dd71bb9"},"vehicle_type_id":"4","last_reported":1722024668,"current_range_meters":12000,"station_id":"ce4bgup2rcd13ifvqco0","pricing_plan_id":"cebpf4jnsgd1na2vs0mg"},{"bike_id":"9158da8c-7139-40f0-9f8b-897da4b22c1c","system_id":"levelo_inurba_marseille","lat":43.317557,"lon":5.390173,"is_reserved":false,"is_disabled":false,"rental_uris":{"android":"levelo://app?vid=9158da8c-7139-40f0-9f8b-897da4b22c1c","ios":"levelo://app?vid=9158da8c-7139-40f0-9f8b-897da4b22c1c"},"vehicle_type_id":"4","last_reported":1722024668,"current_range_meters":25600,"station_id":"ce4bhqp2rcd13ifvqhng","pricing_plan_id":"cebpf4jnsgd1na2vs0mg"},{"bike_id":"b95abda4-a41b-4b32-ab09-a530b4974883","system_id":"levelo_inurba_marseille","lat":43.317557,"lon":5.390173,"is_reserved":false,"is_disabled":false,"rental_uris":{"android":"levelo://app?vid=b95abda4-a41b-4b32-ab09-a530b4974883","ios":"levelo://app?vid=b95abda4-a41b-4b32-ab09-a530b4974883"},"vehicle_type_id":"4","last_reported":1722024668,"current_range_meters":2000,"station_id":"ce4bhqp2rcd13ifvqhng","pricing_plan_id":"cebpf4jnsgd1na2vs0mg"},{"bike_id":"ea4db562-8c63-48e3-b97e-a2e9d45b0a20","system_id":"levelo_inurba_marseille","lat":43.29802,"lon":5.38089,"is_reserved":false,"is_disabled":false,"rental_uris":{"android":"levelo://app?vid=ea4db562-8c63-48e3-b97e-a2e9d45b0a20","ios":"levelo://app?vid=ea4db562-8c63-48e3-b97e-a2e9d45b0a20"},"vehicle_type_id":"4","last_reported":1722024668,"current_range_meters":31200,"station_id":"ce4bgip2rcd13ifvqbb0","pricing_plan_id":"cebpf4jnsgd1na2vs0mg"},{"bike_id":"d174510d-b116-4165-ad2d-ee5876e07cbd","system_id":"levelo_inurba_marseille","lat":43.29583,"lon":5.3751,"is_reserved":false,"is_disabled":false,"rental_uris":{"android":"levelo://app?vid=d174510d-b116-4165-ad2d-ee5876e07cbd","ios":"levelo://app?vid=d174510d-b116-4165-ad2d-ee5876e07cbd"},"vehicle_type_id":"4","last_reported":1722024668,"current_range_meters":0,"station_id":"ce4bgh92rcd13ifvqb50","pricing_plan_id":"cebpf4jnsgd1na2vs0mg"},{"bike_id":"20b70d34-5c92-4680-8946-ec06f972ec72","system_id":"levelo_inurba_marseille","lat":43.297963,"lon":5.38104,"is_reserved":false,"is_disabled":false,"rental_uris":{"android":"levelo://app?vid=20b70d34-5c92-4680-8946-ec06f972ec72","ios":"levelo://app?vid=20b70d34-5c92-4680-8946-ec06f972ec72"},"vehicle_type_id":"4","last_reported":1722024668,"current_range_meters":31200,"station_id":"ce4bgip2rcd13ifvqbb0","pricing_plan_id":"cebpf4jnsgd1na2vs0mg"},{"bike_id":"3a85b05b-47de-4d14-af50-38262c1587bf","system_id":"levelo_inurba_marseille","lat":43.29572,"lon":5.37502,"is_reserved":false,"is_disabled":false,"rental_uris":{"android":"levelo://app?vid=3a85b05b-47de-4d14-af50-38262c1587bf","ios":"levelo://app?vid=3a85b05b-47de-4d14-af50-38262c1587bf"},"vehicle_type_id":"4","last_reported":1722024668,"current_range_meters":28000,"station_id":"ce4bgh92rcd13ifvqb50","pricing_plan_id":"cebpf4jnsgd1na2vs0mg"},{"bike_id":"00478c33-481d-441e-a552-fe3056b2eb5b","system_id":"levelo_inurba_marseille","lat":43.295748,"lon":5.37522,"is_reserved":false,"is_disabled":false,"rental_uris":{"android":"levelo://app?vid=00478c33-481d-441e-a552-fe3056b2eb5b","ios":"levelo://app?vid=00478c33-481d-441e-a552-fe3056b2eb5b"},"vehicle_type_id":"4","last_reported":1722024668,"current_range_meters":2000,"station_id":"ce4bgh92rcd13ifvqb50","pricing_plan_id":"cebpf4jnsgd1na2vs0mg"},{"bike_id":"4dd8c04a-4350-483f-b3d5-694f6bea59e5","system_id":"levelo_inurba_marseille","lat":43.295748,"lon":5.37522,"is_reserved":false,"is_disabled":false,"rental_uris":{"android":"levelo://app?vid=4dd8c04a-4350-483f-b3d5-694f6bea59e5","ios":"levelo://app?vid=4dd8c04a-4350-483f-b3d5-694f6bea59e5"},"vehicle_type_id":"4","last_reported":1722024668,"current_range_meters":30400,"station_id":"ce4bgh92rcd13ifvqb50","pricing_plan_id":"cebpf4jnsgd1na2vs0mg"},{"bike_id":"3cd28227-de13-4040-885c-8b524cb65acb","system_id":"levelo_inurba_marseille","lat":43.305712,"lon":5.365641,"is_reserved":false,"is_disabled":false,"rental_uris":{"android":"levelo://app?vid=3cd28227-de13-4040-885c-8b524cb65acb","ios":"levelo://app?vid=3cd28227-de13-4040-885c-8b524cb65acb"},"vehicle_type_id":"4","last_reported":1722024668,"current_range_meters":20800,"station_id":"ce4bgs12rcd13ifvqcag","pricing_plan_id":"cebpf4jnsgd1na2vs0mg"},{"bike_id":"d58f1c22-4ac8-4f70-a612-5d6c607d95d6","system_id":"levelo_inurba_marseille","lat":43.295279,"lon":5.375048,"is_reserved":false,"is_disabled":false,"rental_uris":{"android":"levelo://app?vid=d58f1c22-4ac8-4f70-a612-5d6c607d95d6","ios":"levelo://app?vid=d58f1c22-4ac8-4f70-a612-5d6c607d95d6"},"vehicle_type_id":"4","last_reported":1722024668,"current_range_meters":0,"station_id":"ce4bgkp2rcd13ifvqbmg","pricing_plan_id":"cebpf4jnsgd1na2vs0mg"},{"bike_id":"1c770430-655c-4196-8e44-2213eeab8dbc","system_id":"levelo_inurba_marseille","lat":43.299707,"lon":5.384859,"is_reserved":false,"is_disabled":false,"rental_uris":{"android":"levelo://app?vid=1c770430-655c-4196-8e44-2213eeab8dbc","ios":"levelo://app?vid=1c770430-655c-4196-8e44-2213eeab8dbc"},"vehicle_type_id":"4","last_reported":1722024668,"current_range_meters":2400,"station_id":"ce4bgj92rcd13ifvqbd0","pricing_plan_id":"cebpf4jnsgd1na2vs0mg"},{"bike_id":"a43bc9c9-1d0f-4b24-a8d8-6d1225fc987b","system_id":"levelo_inurba_marseille","lat":43.299707,"lon":5.384859,"is_reserved":false,"is_disabled":false,"rental_uris":{"android":"levelo://app?vid=a43bc9c9-1d0f-4b24-a8d8-6d1225fc987b","ios":"levelo://app?vid=a43bc9c9-1d0f-4b24-a8d8-6d1225fc987b"},"vehicle_type_id":"4","last_reported":1722024668,"current_range_meters":16400,"station_id":"ce4bgj92rcd13ifvqbd0","pricing_plan_id":"cebpf4jnsgd1na2vs0mg"},{"bike_id":"2e2e3aed-89bd-45e7-bed2-38889ad7bb1f","system_id":"levelo_inurba_marseille","lat":43.299717,"lon":5.384845,"is_reserved":false,"is_disabled":false,"rental_uris":{"android":"levelo://app?vid=2e2e3aed-89bd-45e7-bed2-38889ad7bb1f","ios":"levelo://app?vid=2e2e3aed-89bd-45e7-bed2-38889ad7bb1f"},"vehicle_type_id":"4","last_reported":1722024668,"current_range_meters":4400,"station_id":"ce4bgj92rcd13ifvqbd0","pricing_plan_id":"cebpf4jnsgd1na2vs0mg"},{"bike_id":"67ebfabc-c064-4dd9-a74d-b92f0b10f45f","system_id":"levelo_inurba_marseille","lat":43.299717,"lon":5.384845,"is_reserved":false,"is_disabled":false,"rental_uris":{"android":"levelo://app?vid=67ebfabc-c064-4dd9-a74d-b92f0b10f45f","ios":"levelo://app?vid=67ebfabc-c064-4dd9-a74d-b92f0b10f45f"},"vehicle_type_id":"4","last_reported":1722024668,"current_range_meters":22000,"station_id":"ce4bgj92rcd13ifvqbd0","pricing_plan_id":"cebpf4jnsgd1na2vs0mg"},{"bike_id":"487e194d-5ff8-4820-a813-10ae129ab07c","system_id":"levelo_inurba_marseille","lat":43.29968,"lon":5.38496,"is_reserved":false,"is_disabled":false,"rental_uris":{"android":"levelo://app?vid=487e194d-5ff8-4820-a813-10ae129ab07c","ios":"levelo://app?vid=487e194d-5ff8-4820-a813-10ae129ab07c"},"vehicle_type_id":"4","last_reported":1722024668,"current_range_meters":0,"station_id":"ce4bgj92rcd13ifvqbd0","pricing_plan_id":"cebpf4jnsgd1na2vs0mg"},{"bike_id":"e189510d-80a4-4e18-9ecb-9c9d79479c35","system_id":"levelo_inurba_marseille","lat":43.299717,"lon":5.384845,"is_reserved":false,"is_disabled":false,"rental_uris":{"android":"levelo://app?vid=e189510d-80a4-4e18-9ecb-9c9d79479c35","ios":"levelo://app?vid=e189510d-80a4-4e18-9ecb-9c9d79479c35"},"vehicle_type_id":"4","last_reported":1722024668,"current_range_meters":29600,"station_id":"ce4bgj92rcd13ifvqbd0","pricing_plan_id":"cebpf4jnsgd1na2vs0mg"},{"bike_id":"11815297-2d74-48b2-b9c5-6c8c12e61bb6","system_id":"levelo_inurba_marseille","lat":43.301407,"lon":5.387813,"is_reserved":false,"is_disabled":false,"rental_uris":{"android":"levelo://app?vid=11815297-2d74-48b2-b9c5-6c8c12e61bb6","ios":"levelo://app?vid=11815297-2d74-48b2-b9c5-6c8c12e61bb6"},"vehicle_type_id":"4","last_reported":1722024668,"current_range_meters":3600,"station_id":"ce4bghh2rcd13ifvqb60","pricing_plan_id":"cebpf4jnsgd1na2vs0mg"},{"bike_id":"31be1ab6-37b3-48c3-86da-a0a96a85e610","system_id":"levelo_inurba_marseille","lat":43.301396,"lon":5.387812,"is_reserved":false,"is_disabled":false,"rental_uris":{"android":"levelo://app?vid=31be1ab6-37b3-48c3-86da-a0a96a85e610","ios":"levelo://app?vid=31be1ab6-37b3-48c3-86da-a0a96a85e610"},"vehicle_type_id":"4","last_reported":1722024668,"current_range_meters":0,"station_id":"ce4bghh2rcd13ifvqb60","pricing_plan_id":"cebpf4jnsgd1na2vs0mg"},{"bike_id":"0d9e0db6-6d21-4a95-9b04-a6281498b825","system_id":"levelo_inurba_marseille","lat":43.30129,"lon":5.38781,"is_reserved":false,"is_disabled":false,"rental_uris":{"android":"levelo://app?vid=0d9e0db6-6d21-4a95-9b04-a6281498b825","ios":"levelo://app?vid=0d9e0db6-6d21-4a95-9b04-a6281498b825"},"vehicle_type_id":"4","last_reported":1722024668,"current_range_meters":18400,"station_id":"ce4bghh2rcd13ifvqb60","pricing_plan_id":"cebpf4jnsgd1na2vs0mg"},{"bike_id":"0d143887-b26c-417e-9849-0ba3ca3553bd","system_id":"levelo_inurba_marseille","lat":43.30131,"lon":5.38785,"is_reserved":false,"is_disabled":false,"rental_uris":{"android":"levelo://app?vid=0d143887-b26c-417e-9849-0ba3ca3553bd","ios":"levelo://app?vid=0d143887-b26c-417e-9849-0ba3ca3553bd"},"vehicle_type_id":"4","last_reported":1722024668,"current_range_meters":21200,"station_id":"ce4bghh2rcd13ifvqb60","pricing_plan_id":"cebpf4jnsgd1na2vs0mg"},{"bike_id":"2f92e4fc-31bc-4df8-81cc-5ac20a810535","system_id":"levelo_inurba_marseille","lat":43.30129,"lon":5.38784,"is_reserved":false,"is_disabled":false,"rental_uris":{"android":"levelo://app?vid=2f92e4fc-31bc-4df8-81cc-5ac20a810535","ios":"levelo://app?vid=2f92e4fc-31bc-4df8-81cc-5ac20a810535"},"vehicle_type_id":"4","last_reported":1722024668,"current_range_meters":25200,"station_id":"ce4bghh2rcd13ifvqb60","pricing_plan_id":"cebpf4jnsgd1na2vs0mg"},{"bike_id":"1c65182f-760a-4b88-a9a0-1b88d84e347e","system_id":"levelo_inurba_marseille","lat":43.30128,"lon":5.38787,"is_reserved":false,"is_disabled":false,"rental_uris":{"android":"levelo://app?vid=1c65182f-760a-4b88-a9a0-1b88d84e347e","ios":"levelo://app?vid=1c65182f-760a-4b88-a9a0-1b88d84e347e"},"vehicle_type_id":"4","last_reported":1722024668,"current_range_meters":3200,"station_id":"ce4bghh2rcd13ifvqb60","pricing_plan_id":"cebpf4jnsgd1na2vs0mg"},{"bike_id":"95c8342d-0d65-4440-a6c4-164e07a1f137","system_id":"levelo_inurba_marseille","lat":43.32367,"lon":5.388836,"is_reserved":false,"is_disabled":false,"rental_uris":{"android":"levelo://app?vid=95c8342d-0d65-4440-a6c4-164e07a1f137","ios":"levelo://app?vid=95c8342d-0d65-4440-a6c4-164e07a1f137"},"vehicle_type_id":"4","last_reported":1722024668,"current_range_meters":21200,"station_id":"ce4bhqp2rcd13ifvqhog","pricing_plan_id":"cebpf4jnsgd1na2vs0mg"},{"bike_id":"1875e847-d70f-4c29-988f-a67ab9784f82","system_id":"levelo_inurba_marseille","lat":43.32367,"lon":5.388836,"is_reserved":false,"is_disabled":false,"rental_uris":{"android":"levelo://app?vid=1875e847-d70f-4c29-988f-a67ab9784f82","ios":"levelo://app?vid=1875e847-d70f-4c29-988f-a67ab9784f82"},"vehicle_type_id":"4","last_reported":1722024668,"current_range_meters":15200,"station_id":"ce4bhqp2rcd13ifvqhog","pricing_plan_id":"cebpf4jnsgd1na2vs0mg"},{"bike_id":"3b40bf3f-03d0-4ee6-9c04-5adf14e50bf7","system_id":"levelo_inurba_marseille","lat":43.32365,"lon":5.38883,"is_reserved":false,"is_disabled":false,"rental_uris":{"android":"levelo://app?vid=3b40bf3f-03d0-4ee6-9c04-5adf14e50bf7","ios":"levelo://app?vid=3b40bf3f-03d0-4ee6-9c04-5adf14e50bf7"},"vehicle_type_id":"4","last_reported":1722024668,"current_range_meters":0,"station_id":"ce4bhqp2rcd13ifvqhog","pricing_plan_id":"cebpf4jnsgd1na2vs0mg"},{"bike_id":"c5d42244-9aa1-42eb-9ca8-d5759b9e2c2a","system_id":"levelo_inurba_marseille","lat":43.29596,"lon":5.38103,"is_reserved":false,"is_disabled":false,"rental_uris":{"android":"levelo://app?vid=c5d42244-9aa1-42eb-9ca8-d5759b9e2c2a","ios":"levelo://app?vid=c5d42244-9aa1-42eb-9ca8-d5759b9e2c2a"},"vehicle_type_id":"4","last_reported":1722024668,"current_range_meters":31200,"station_id":"ce4bgl12rcd13ifvqbo0","pricing_plan_id":"cebpf4jnsgd1na2vs0mg"},{"bike_id":"da2c6d77-1086-4da3-a022-d989f2d907e3","system_id":"levelo_inurba_marseille","lat":43.29328,"lon":5.37089,"is_reserved":false,"is_disabled":false,"rental_uris":{"android":"levelo://app?vid=da2c6d77-1086-4da3-a022-d989f2d907e3","ios":"levelo://app?vid=da2c6d77-1086-4da3-a022-d989f2d907e3"},"vehicle_type_id":"4","last_reported":1722024668,"current_range_meters":4000,"station_id":"","pricing_plan_id":"cebpf4jnsgd1na2vs0mg"},{"bike_id":"0687e4e8-77d3-4d43-8cde-2f55753814ad","system_id":"levelo_inurba_marseille","lat":43.29602,"lon":5.381084,"is_reserved":false,"is_disabled":false,"rental_uris":{"android":"levelo://app?vid=0687e4e8-77d3-4d43-8cde-2f55753814ad","ios":"levelo://app?vid=0687e4e8-77d3-4d43-8cde-2f55753814ad"},"vehicle_type_id":"4","last_reported":1722024668,"current_range_meters":5600,"station_id":"ce4bgl12rcd13ifvqbo0","pricing_plan_id":"cebpf4jnsgd1na2vs0mg"},{"bike_id":"9224342d-35ba-4066-94fb-cb96cba40c06","system_id":"levelo_inurba_marseille","lat":43.29601,"lon":5.381084,"is_reserved":false,"is_disabled":false,"rental_uris":{"android":"levelo://app?vid=9224342d-35ba-4066-94fb-cb96cba40c06","ios":"levelo://app?vid=9224342d-35ba-4066-94fb-cb96cba40c06"},"vehicle_type_id":"4","last_reported":1722024668,"current_range_meters":5600,"station_id":"ce4bgl12rcd13ifvqbo0","pricing_plan_id":"cebpf4jnsgd1na2vs0mg"},{"bike_id":"5befec28-2f83-48be-a521-85a90db43418","system_id":"levelo_inurba_marseille","lat":43.2959,"lon":5.38097,"is_reserved":false,"is_disabled":false,"rental_uris":{"android":"levelo://app?vid=5befec28-2f83-48be-a521-85a90db43418","ios":"levelo://app?vid=5befec28-2f83-48be-a521-85a90db43418"},"vehicle_type_id":"4","last_reported":1722024668,"current_range_meters":31200,"station_id":"ce4bgl12rcd13ifvqbo0","pricing_plan_id":"cebpf4jnsgd1na2vs0mg"},{"bike_id":"76ce4b68-b9b3-41a6-a332-20c5f9f06b94","system_id":"levelo_inurba_marseille","lat":43.29585,"lon":5.38091,"is_reserved":false,"is_disabled":false,"rental_uris":{"android":"levelo://app?vid=76ce4b68-b9b3-41a6-a332-20c5f9f06b94","ios":"levelo://app?vid=76ce4b68-b9b3-41a6-a332-20c5f9f06b94"},"vehicle_type_id":"4","last_reported":1722024668,"current_range_meters":5200,"station_id":"","pricing_plan_id":"cebpf4jnsgd1na2vs0mg"},{"bike_id":"2b344f8e-bc0c-49d6-afbd-dbb63ffbb4d3","system_id":"levelo_inurba_marseille","lat":43.295835,"lon":5.380896,"is_reserved":false,"is_disabled":false,"rental_uris":{"android":"levelo://app?vid=2b344f8e-bc0c-49d6-afbd-dbb63ffbb4d3","ios":"levelo://app?vid=2b344f8e-bc0c-49d6-afbd-dbb63ffbb4d3"},"vehicle_type_id":"4","last_reported":1722024668,"current_range_meters":30800,"station_id":"ce4bgl12rcd13ifvqbo0","pricing_plan_id":"cebpf4jnsgd1na2vs0mg"},{"bike_id":"abdd1f4f-a4cc-4d76-9f75-4353dd5424b1","system_id":"levelo_inurba_marseille","lat":43.29284,"lon":5.36845,"is_reserved":false,"is_disabled":false,"rental_uris":{"android":"levelo://app?vid=abdd1f4f-a4cc-4d76-9f75-4353dd5424b1","ios":"levelo://app?vid=abdd1f4f-a4cc-4d76-9f75-4353dd5424b1"},"vehicle_type_id":"4","last_reported":1722024668,"current_range_meters":0,"station_id":"ce4bhbp2rcd13ifvqesg","pricing_plan_id":"cebpf4jnsgd1na2vs0mg"},{"bike_id":"69f33ed4-3927-4753-97aa-7a350dff1fde","system_id":"levelo_inurba_marseille","lat":43.293249,"lon":5.371578,"is_reserved":false,"is_disabled":false,"rental_uris":{"android":"levelo://app?vid=69f33ed4-3927-4753-97aa-7a350dff1fde","ios":"levelo://app?vid=69f33ed4-3927-4753-97aa-7a350dff1fde"},"vehicle_type_id":"4","last_reported":1722024668,"current_range_meters":3600,"station_id":"ce4bgh92rcd13ifvqb40","pricing_plan_id":"cebpf4jnsgd1na2vs0mg"},{"bike_id":"3bcfc2c4-3713-48a9-ac68-515b61dc8a0c","system_id":"levelo_inurba_marseille","lat":43.29279,"lon":5.36845,"is_reserved":false,"is_disabled":false,"rental_uris":{"android":"levelo://app?vid=3bcfc2c4-3713-48a9-ac68-515b61dc8a0c","ios":"levelo://app?vid=3bcfc2c4-3713-48a9-ac68-515b61dc8a0c"},"vehicle_type_id":"4","last_reported":1722024668,"current_range_meters":2400,"station_id":"ce4bhbp2rcd13ifvqesg","pricing_plan_id":"cebpf4jnsgd1na2vs0mg"},{"bike_id":"4c0b30c7-5adc-4383-82a4-dec04fe225f3","system_id":"levelo_inurba_marseille","lat":43.29277,"lon":5.36851,"is_reserved":false,"is_disabled":false,"rental_uris":{"android":"levelo://app?vid=4c0b30c7-5adc-4383-82a4-dec04fe225f3","ios":"levelo://app?vid=4c0b30c7-5adc-4383-82a4-dec04fe225f3"},"vehicle_type_id":"4","last_reported":1722024668,"current_range_meters":0,"station_id":"ce4bhbp2rcd13ifvqesg","pricing_plan_id":"cebpf4jnsgd1na2vs0mg"},{"bike_id":"d75e712c-5446-4ad7-b143-3c7270b69c0a","system_id":"levelo_inurba_marseille","lat":43.29276,"lon":5.36843,"is_reserved":false,"is_disabled":false,"rental_uris":{"android":"levelo://app?vid=d75e712c-5446-4ad7-b143-3c7270b69c0a","ios":"levelo://app?vid=d75e712c-5446-4ad7-b143-3c7270b69c0a"},"vehicle_type_id":"4","last_reported":1722024668,"current_range_meters":0,"station_id":"ce4bhbp2rcd13ifvqesg","pricing_plan_id":"cebpf4jnsgd1na2vs0mg"},{"bike_id":"b3d99147-4585-4b2b-819e-49664f92b0b3","system_id":"levelo_inurba_marseille","lat":43.293259,"lon":5.371586,"is_reserved":false,"is_disabled":false,"rental_uris":{"android":"levelo://app?vid=b3d99147-4585-4b2b-819e-49664f92b0b3","ios":"levelo://app?vid=b3d99147-4585-4b2b-819e-49664f92b0b3"},"vehicle_type_id":"4","last_reported":1722024668,"current_range_meters":21200,"station_id":"ce4bgh92rcd13ifvqb40","pricing_plan_id":"cebpf4jnsgd1na2vs0mg"},{"bike_id":"29b24ff3-2f53-424c-a624-383bc3f96705","system_id":"levelo_inurba_marseille","lat":43.29271,"lon":5.36846,"is_reserved":false,"is_disabled":false,"rental_uris":{"android":"levelo://app?vid=29b24ff3-2f53-424c-a624-383bc3f96705","ios":"levelo://app?vid=29b24ff3-2f53-424c-a624-383bc3f96705"},"vehicle_type_id":"4","last_reported":1722024668,"current_range_meters":0,"station_id":"ce4bhbp2rcd13ifvqesg","pricing_plan_id":"cebpf4jnsgd1na2vs0mg"},{"bike_id":"0e97df0f-a9df-4f46-a7ec-2a6933854f23","system_id":"levelo_inurba_marseille","lat":43.292749,"lon":5.368402,"is_reserved":false,"is_disabled":false,"rental_uris":{"android":"levelo://app?vid=0e97df0f-a9df-4f46-a7ec-2a6933854f23","ios":"levelo://app?vid=0e97df0f-a9df-4f46-a7ec-2a6933854f23"},"vehicle_type_id":"4","last_reported":1722024668,"current_range_meters":23200,"station_id":"ce4bhbp2rcd13ifvqesg","pricing_plan_id":"cebpf4jnsgd1na2vs0mg"},{"bike_id":"9ca9efa8-a1cf-4bfc-8c4a-01dc7b137ce8","system_id":"levelo_inurba_marseille","lat":43.303002,"lon":5.392142,"is_reserved":false,"is_disabled":false,"rental_uris":{"android":"levelo://app?vid=9ca9efa8-a1cf-4bfc-8c4a-01dc7b137ce8","ios":"levelo://app?vid=9ca9efa8-a1cf-4bfc-8c4a-01dc7b137ce8"},"vehicle_type_id":"4","last_reported":1722024668,"current_range_meters":5600,"station_id":"ce4bgkh2rcd13ifvqbk0","pricing_plan_id":"cebpf4jnsgd1na2vs0mg"},{"bike_id":"07312a87-1d0c-4e87-b686-a21fc442537f","system_id":"levelo_inurba_marseille","lat":43.29301,"lon":5.37463,"is_reserved":false,"is_disabled":false,"rental_uris":{"android":"levelo://app?vid=07312a87-1d0c-4e87-b686-a21fc442537f","ios":"levelo://app?vid=07312a87-1d0c-4e87-b686-a21fc442537f"},"vehicle_type_id":"4","last_reported":1722024668,"current_range_meters":22800,"station_id":"ce4bgi12rcd13ifvqb70","pricing_plan_id":"cebpf4jnsgd1na2vs0mg"},{"bike_id":"96e3de19-0cd8-4885-8815-d4fa638a2220","system_id":"levelo_inurba_marseille","lat":43.293009,"lon":5.374584,"is_reserved":false,"is_disabled":false,"rental_uris":{"android":"levelo://app?vid=96e3de19-0cd8-4885-8815-d4fa638a2220","ios":"levelo://app?vid=96e3de19-0cd8-4885-8815-d4fa638a2220"},"vehicle_type_id":"4","last_reported":1722024668,"current_range_meters":0,"station_id":"ce4bgi12rcd13ifvqb70","pricing_plan_id":"cebpf4jnsgd1na2vs0mg"},{"bike_id":"64c7c612-40cd-4f58-885b-c256321ae490","system_id":"levelo_inurba_marseille","lat":43.29301,"lon":5.3747,"is_reserved":false,"is_disabled":false,"rental_uris":{"android":"levelo://app?vid=64c7c612-40cd-4f58-885b-c256321ae490","ios":"levelo://app?vid=64c7c612-40cd-4f58-885b-c256321ae490"},"vehicle_type_id":"4","last_reported":1722024668,"current_range_meters":25200,"station_id":"ce4bgi12rcd13ifvqb70","pricing_plan_id":"cebpf4jnsgd1na2vs0mg"},{"bike_id":"30208f12-c509-4c68-9ce4-4d0e790c1bac","system_id":"levelo_inurba_marseille","lat":43.29298,"lon":5.3746,"is_reserved":false,"is_disabled":false,"rental_uris":{"android":"levelo://app?vid=30208f12-c509-4c68-9ce4-4d0e790c1bac","ios":"levelo://app?vid=30208f12-c509-4c68-9ce4-4d0e790c1bac"},"vehicle_type_id":"4","last_reported":1722024668,"current_range_meters":26800,"station_id":"ce4bgi12rcd13ifvqb70","pricing_plan_id":"cebpf4jnsgd1na2vs0mg"},{"bike_id":"40d6e794-7fb6-4218-b3ea-f880fdc7396c","system_id":"levelo_inurba_marseille","lat":43.293009,"lon":5.374584,"is_reserved":false,"is_disabled":false,"rental_uris":{"android":"levelo://app?vid=40d6e794-7fb6-4218-b3ea-f880fdc7396c","ios":"levelo://app?vid=40d6e794-7fb6-4218-b3ea-f880fdc7396c"},"vehicle_type_id":"4","last_reported":1722024668,"current_range_meters":17600,"station_id":"ce4bgi12rcd13ifvqb70","pricing_plan_id":"cebpf4jnsgd1na2vs0mg"},{"bike_id":"21d6b170-92ba-4f3a-bb37-0c0a94db0ea9","system_id":"levelo_inurba_marseille","lat":43.305994,"lon":5.393687,"is_reserved":false,"is_disabled":false,"rental_uris":{"android":"levelo://app?vid=21d6b170-92ba-4f3a-bb37-0c0a94db0ea9","ios":"levelo://app?vid=21d6b170-92ba-4f3a-bb37-0c0a94db0ea9"},"vehicle_type_id":"4","last_reported":1722024668,"current_range_meters":2000,"station_id":"ce4bh0p2rcd13ifvqd80","pricing_plan_id":"cebpf4jnsgd1na2vs0mg"},{"bike_id":"6680650a-ee17-41ce-8dc9-219056ef6c71","system_id":"levelo_inurba_marseille","lat":43.2936,"lon":5.37835,"is_reserved":false,"is_disabled":false,"rental_uris":{"android":"levelo://app?vid=6680650a-ee17-41ce-8dc9-219056ef6c71","ios":"levelo://app?vid=6680650a-ee17-41ce-8dc9-219056ef6c71"},"vehicle_type_id":"4","last_reported":1722024668,"current_range_meters":400,"station_id":"ce4bgjh2rcd13ifvqbf0","pricing_plan_id":"cebpf4jnsgd1na2vs0mg"},{"bike_id":"269f59dc-f3a5-4c58-8a36-24ec42a73c13","system_id":"levelo_inurba_marseille","lat":43.302992,"lon":5.392136,"is_reserved":false,"is_disabled":false,"rental_uris":{"android":"levelo://app?vid=269f59dc-f3a5-4c58-8a36-24ec42a73c13","ios":"levelo://app?vid=269f59dc-f3a5-4c58-8a36-24ec42a73c13"},"vehicle_type_id":"4","last_reported":1722024668,"current_range_meters":12000,"station_id":"ce4bgkh2rcd13ifvqbk0","pricing_plan_id":"cebpf4jnsgd1na2vs0mg"},{"bike_id":"9de1af92-baca-48d7-93e6-c4bff9d00d22","system_id":"levelo_inurba_marseille","lat":43.29228,"lon":5.36065,"is_reserved":false,"is_disabled":false,"rental_uris":{"android":"levelo://app?vid=9de1af92-baca-48d7-93e6-c4bff9d00d22","ios":"levelo://app?vid=9de1af92-baca-48d7-93e6-c4bff9d00d22"},"vehicle_type_id":"4","last_reported":1722024668,"current_range_meters":0,"station_id":"ce4bhbh2rcd13ifvqeqg","pricing_plan_id":"cebpf4jnsgd1na2vs0mg"},{"bike_id":"5180fdfb-0b01-4fea-8780-9af5360c3f82","system_id":"levelo_inurba_marseille","lat":43.30085,"lon":5.390856,"is_reserved":false,"is_disabled":false,"rental_uris":{"android":"levelo://app?vid=5180fdfb-0b01-4fea-8780-9af5360c3f82","ios":"levelo://app?vid=5180fdfb-0b01-4fea-8780-9af5360c3f82"},"vehicle_type_id":"4","last_reported":1722024668,"current_range_meters":11200,"station_id":"ce4bh192rcd13ifvqdb0","pricing_plan_id":"cebpf4jnsgd1na2vs0mg"},{"bike_id":"c7432ee4-44ce-4043-b0f2-755db33fe3ec","system_id":"levelo_inurba_marseille","lat":43.326578,"lon":5.388656,"is_reserved":false,"is_disabled":false,"rental_uris":{"android":"levelo://app?vid=c7432ee4-44ce-4043-b0f2-755db33fe3ec","ios":"levelo://app?vid=c7432ee4-44ce-4043-b0f2-755db33fe3ec"},"vehicle_type_id":"4","last_reported":1722024668,"current_range_meters":9600,"station_id":"","pricing_plan_id":"cebpf4jnsgd1na2vs0mg"},{"bike_id":"f00492ae-b75c-457b-8eb3-9f292b39b265","system_id":"levelo_inurba_marseille","lat":43.292311,"lon":5.360731,"is_reserved":false,"is_disabled":false,"rental_uris":{"android":"levelo://app?vid=f00492ae-b75c-457b-8eb3-9f292b39b265","ios":"levelo://app?vid=f00492ae-b75c-457b-8eb3-9f292b39b265"},"vehicle_type_id":"4","last_reported":1722024668,"current_range_meters":22000,"station_id":"ce4bhbh2rcd13ifvqeqg","pricing_plan_id":"cebpf4jnsgd1na2vs0mg"},{"bike_id":"cb4a00d3-77cc-4469-bfbb-8fba90a78218","system_id":"levelo_inurba_marseille","lat":43.29218,"lon":5.36066,"is_reserved":false,"is_disabled":false,"rental_uris":{"android":"levelo://app?vid=cb4a00d3-77cc-4469-bfbb-8fba90a78218","ios":"levelo://app?vid=cb4a00d3-77cc-4469-bfbb-8fba90a78218"},"vehicle_type_id":"4","last_reported":1722024668,"current_range_meters":0,"station_id":"ce4bhbh2rcd13ifvqeqg","pricing_plan_id":"cebpf4jnsgd1na2vs0mg"},{"bike_id":"e3d266ba-2744-405d-9f2f-b991b0addde0","system_id":"levelo_inurba_marseille","lat":43.30085,"lon":5.390856,"is_reserved":false,"is_disabled":false,"rental_uris":{"android":"levelo://app?vid=e3d266ba-2744-405d-9f2f-b991b0addde0","ios":"levelo://app?vid=e3d266ba-2744-405d-9f2f-b991b0addde0"},"vehicle_type_id":"4","last_reported":1722024668,"current_range_meters":16000,"station_id":"ce4bh192rcd13ifvqdb0","pricing_plan_id":"cebpf4jnsgd1na2vs0mg"},{"bike_id":"754852a5-29cb-4a03-a6ec-0a613c966318","system_id":"levelo_inurba_marseille","lat":43.30085,"lon":5.390856,"is_reserved":false,"is_disabled":false,"rental_uris":{"android":"levelo://app?vid=754852a5-29cb-4a03-a6ec-0a613c966318","ios":"levelo://app?vid=754852a5-29cb-4a03-a6ec-0a613c966318"},"vehicle_type_id":"4","last_reported":1722024668,"current_range_meters":0,"station_id":"ce4bh192rcd13ifvqdb0","pricing_plan_id":"cebpf4jnsgd1na2vs0mg"},{"bike_id":"c4040012-e1a7-4ef9-a560-b03f244abef1","system_id":"levelo_inurba_marseille","lat":43.29656,"lon":5.3855,"is_reserved":false,"is_disabled":false,"rental_uris":{"android":"levelo://app?vid=c4040012-e1a7-4ef9-a560-b03f244abef1","ios":"levelo://app?vid=c4040012-e1a7-4ef9-a560-b03f244abef1"},"vehicle_type_id":"4","last_reported":1722024668,"current_range_meters":22400,"station_id":"","pricing_plan_id":"cebpf4jnsgd1na2vs0mg"},{"bike_id":"77ac9abc-cacc-43f7-a9d0-dbc5f0468900","system_id":"levelo_inurba_marseille","lat":43.298764,"lon":5.388973,"is_reserved":false,"is_disabled":false,"rental_uris":{"android":"levelo://app?vid=77ac9abc-cacc-43f7-a9d0-dbc5f0468900","ios":"levelo://app?vid=77ac9abc-cacc-43f7-a9d0-dbc5f0468900"},"vehicle_type_id":"4","last_reported":1722024668,"current_range_meters":2400,"station_id":"ce4bh392rcd13ifvqdl0","pricing_plan_id":"cebpf4jnsgd1na2vs0mg"},{"bike_id":"97d24d19-e2c8-478d-8c53-8d7daa3c2081","system_id":"levelo_inurba_marseille","lat":43.298764,"lon":5.388973,"is_reserved":false,"is_disabled":false,"rental_uris":{"android":"levelo://app?vid=97d24d19-e2c8-478d-8c53-8d7daa3c2081","ios":"levelo://app?vid=97d24d19-e2c8-478d-8c53-8d7daa3c2081"},"vehicle_type_id":"4","last_reported":1722024668,"current_range_meters":30400,"station_id":"ce4bh392rcd13ifvqdl0","pricing_plan_id":"cebpf4jnsgd1na2vs0mg"},{"bike_id":"d3456546-206e-40be-8dc4-da2d00df3f95","system_id":"levelo_inurba_marseille","lat":43.298764,"lon":5.388973,"is_reserved":false,"is_disabled":false,"rental_uris":{"android":"levelo://app?vid=d3456546-206e-40be-8dc4-da2d00df3f95","ios":"levelo://app?vid=d3456546-206e-40be-8dc4-da2d00df3f95"},"vehicle_type_id":"4","last_reported":1722024668,"current_range_meters":0,"station_id":"ce4bh392rcd13ifvqdl0","pricing_plan_id":"cebpf4jnsgd1na2vs0mg"},{"bike_id":"d9d0fd4f-afcf-4c99-808d-d078fed0655a","system_id":"levelo_inurba_marseille","lat":43.298764,"lon":5.388973,"is_reserved":false,"is_disabled":false,"rental_uris":{"android":"levelo://app?vid=d9d0fd4f-afcf-4c99-808d-d078fed0655a","ios":"levelo://app?vid=d9d0fd4f-afcf-4c99-808d-d078fed0655a"},"vehicle_type_id":"4","last_reported":1722024668,"current_range_meters":6000,"station_id":"ce4bh392rcd13ifvqdl0","pricing_plan_id":"cebpf4jnsgd1na2vs0mg"},{"bike_id":"596881ef-5671-4836-aa5c-738a4d5beb2b","system_id":"levelo_inurba_marseille","lat":43.29634,"lon":5.38558,"is_reserved":false,"is_disabled":false,"rental_uris":{"android":"levelo://app?vid=596881ef-5671-4836-aa5c-738a4d5beb2b","ios":"levelo://app?vid=596881ef-5671-4836-aa5c-738a4d5beb2b"},"vehicle_type_id":"4","last_reported":1722024668,"current_range_meters":21600,"station_id":"","pricing_plan_id":"cebpf4jnsgd1na2vs0mg"},{"bike_id":"38cc371b-3079-4897-a325-d209a0066029","system_id":"levelo_inurba_marseille","lat":43.291675,"lon":5.371583,"is_reserved":false,"is_disabled":false,"rental_uris":{"android":"levelo://app?vid=38cc371b-3079-4897-a325-d209a0066029","ios":"levelo://app?vid=38cc371b-3079-4897-a325-d209a0066029"},"vehicle_type_id":"4","last_reported":1722024668,"current_range_meters":27600,"station_id":"ce4bha92rcd13ifvqeh0","pricing_plan_id":"cebpf4jnsgd1na2vs0mg"},{"bike_id":"3c85cf5d-695a-4d89-8329-eaa66e4d61e1","system_id":"levelo_inurba_marseille","lat":43.291671,"lon":5.371575,"is_reserved":false,"is_disabled":false,"rental_uris":{"android":"levelo://app?vid=3c85cf5d-695a-4d89-8329-eaa66e4d61e1","ios":"levelo://app?vid=3c85cf5d-695a-4d89-8329-eaa66e4d61e1"},"vehicle_type_id":"4","last_reported":1722024668,"current_range_meters":26800,"station_id":"ce4bha92rcd13ifvqeh0","pricing_plan_id":"cebpf4jnsgd1na2vs0mg"},{"bike_id":"de71b2d4-7d7d-44a3-b0a4-9505345fc8a4","system_id":"levelo_inurba_marseille","lat":43.293009,"lon":5.374584,"is_reserved":false,"is_disabled":false,"rental_uris":{"android":"levelo://app?vid=de71b2d4-7d7d-44a3-b0a4-9505345fc8a4","ios":"levelo://app?vid=de71b2d4-7d7d-44a3-b0a4-9505345fc8a4"},"vehicle_type_id":"4","last_reported":1722024668,"current_range_meters":0,"station_id":"ce4bgi12rcd13ifvqb70","pricing_plan_id":"cebpf4jnsgd1na2vs0mg"},{"bike_id":"17f93748-bc11-457e-adda-4851179c68a3","system_id":"levelo_inurba_marseille","lat":43.293009,"lon":5.374584,"is_reserved":false,"is_disabled":false,"rental_uris":{"android":"levelo://app?vid=17f93748-bc11-457e-adda-4851179c68a3","ios":"levelo://app?vid=17f93748-bc11-457e-adda-4851179c68a3"},"vehicle_type_id":"4","last_reported":1722024668,"current_range_meters":19200,"station_id":"ce4bgi12rcd13ifvqb70","pricing_plan_id":"cebpf4jnsgd1na2vs0mg"},{"bike_id":"d5f04152-5c86-44aa-85a6-685b8a1fea32","system_id":"levelo_inurba_marseille","lat":43.293009,"lon":5.374584,"is_reserved":false,"is_disabled":false,"rental_uris":{"android":"levelo://app?vid=d5f04152-5c86-44aa-85a6-685b8a1fea32","ios":"levelo://app?vid=d5f04152-5c86-44aa-85a6-685b8a1fea32"},"vehicle_type_id":"4","last_reported":1722024668,"current_range_meters":31200,"station_id":"ce4bgi12rcd13ifvqb70","pricing_plan_id":"cebpf4jnsgd1na2vs0mg"},{"bike_id":"505893ed-c9c9-466c-a490-4223d81ec5be","system_id":"levelo_inurba_marseille","lat":43.309588,"lon":5.396276,"is_reserved":false,"is_disabled":false,"rental_uris":{"android":"levelo://app?vid=505893ed-c9c9-466c-a490-4223d81ec5be","ios":"levelo://app?vid=505893ed-c9c9-466c-a490-4223d81ec5be"},"vehicle_type_id":"4","last_reported":1722024668,"current_range_meters":20800,"station_id":"ce4bghh2rcd13ifvqb60","pricing_plan_id":"cebpf4jnsgd1na2vs0mg"},{"bike_id":"72c70b00-1fb4-4804-af1f-dc680bb5b5fa","system_id":"levelo_inurba_marseille","lat":43.31329,"lon":5.39678,"is_reserved":false,"is_disabled":false,"rental_uris":{"android":"levelo://app?vid=72c70b00-1fb4-4804-af1f-dc680bb5b5fa","ios":"levelo://app?vid=72c70b00-1fb4-4804-af1f-dc680bb5b5fa"},"vehicle_type_id":"4","last_reported":1722024668,"current_range_meters":8800,"station_id":"ce4bgvp2rcd13ifvqcu0","pricing_plan_id":"cebpf4jnsgd1na2vs0mg"},{"bike_id":"51a5a29d-2931-4f2a-8ed8-cad020fd564c","system_id":"levelo_inurba_marseille","lat":43.291994,"lon":5.357886,"is_reserved":false,"is_disabled":false,"rental_uris":{"android":"levelo://app?vid=51a5a29d-2931-4f2a-8ed8-cad020fd564c","ios":"levelo://app?vid=51a5a29d-2931-4f2a-8ed8-cad020fd564c"},"vehicle_type_id":"4","last_reported":1722024668,"current_range_meters":0,"station_id":"ce4bhb12rcd13ifvqel0","pricing_plan_id":"cebpf4jnsgd1na2vs0mg"},{"bike_id":"501d9e5f-7fd1-428c-8bf8-e95f6134b189","system_id":"levelo_inurba_marseille","lat":43.291994,"lon":5.357886,"is_reserved":false,"is_disabled":false,"rental_uris":{"android":"levelo://app?vid=501d9e5f-7fd1-428c-8bf8-e95f6134b189","ios":"levelo://app?vid=501d9e5f-7fd1-428c-8bf8-e95f6134b189"},"vehicle_type_id":"4","last_reported":1722024668,"current_range_meters":4400,"station_id":"ce4bhb12rcd13ifvqel0","pricing_plan_id":"cebpf4jnsgd1na2vs0mg"},{"bike_id":"501a3ada-4c64-468b-bff0-f9f9d5f7e06f","system_id":"levelo_inurba_marseille","lat":43.29194,"lon":5.35803,"is_reserved":false,"is_disabled":false,"rental_uris":{"android":"levelo://app?vid=501a3ada-4c64-468b-bff0-f9f9d5f7e06f","ios":"levelo://app?vid=501a3ada-4c64-468b-bff0-f9f9d5f7e06f"},"vehicle_type_id":"4","last_reported":1722024668,"current_range_meters":0,"station_id":"ce4bhb12rcd13ifvqel0","pricing_plan_id":"cebpf4jnsgd1na2vs0mg"},{"bike_id":"9d24eec5-fd19-4196-8d30-e0591ca164b4","system_id":"levelo_inurba_marseille","lat":43.31324,"lon":5.39687,"is_reserved":false,"is_disabled":false,"rental_uris":{"android":"levelo://app?vid=9d24eec5-fd19-4196-8d30-e0591ca164b4","ios":"levelo://app?vid=9d24eec5-fd19-4196-8d30-e0591ca164b4"},"vehicle_type_id":"4","last_reported":1722024668,"current_range_meters":0,"station_id":"ce4bgvp2rcd13ifvqcu0","pricing_plan_id":"cebpf4jnsgd1na2vs0mg"},{"bike_id":"f69bf7f0-0d7e-44cf-89eb-024bccb53cf3","system_id":"levelo_inurba_marseille","lat":43.29192,"lon":5.35805,"is_reserved":false,"is_disabled":false,"rental_uris":{"android":"levelo://app?vid=f69bf7f0-0d7e-44cf-89eb-024bccb53cf3","ios":"levelo://app?vid=f69bf7f0-0d7e-44cf-89eb-024bccb53cf3"},"vehicle_type_id":"4","last_reported":1722024668,"current_range_meters":0,"station_id":"ce4bhb12rcd13ifvqel0","pricing_plan_id":"cebpf4jnsgd1na2vs0mg"},{"bike_id":"6ea3f4e7-2d0b-4657-b6e2-ea2f4c6b4ef2","system_id":"levelo_inurba_marseille","lat":43.3133,"lon":5.39688,"is_reserved":false,"is_disabled":false,"rental_uris":{"android":"levelo://app?vid=6ea3f4e7-2d0b-4657-b6e2-ea2f4c6b4ef2","ios":"levelo://app?vid=6ea3f4e7-2d0b-4657-b6e2-ea2f4c6b4ef2"},"vehicle_type_id":"4","last_reported":1722024668,"current_range_meters":26000,"station_id":"ce4bgvp2rcd13ifvqcu0","pricing_plan_id":"cebpf4jnsgd1na2vs0mg"},{"bike_id":"db34944d-2a44-4777-9934-0d5e5205d58b","system_id":"levelo_inurba_marseille","lat":43.31319,"lon":5.39694,"is_reserved":false,"is_disabled":false,"rental_uris":{"android":"levelo://app?vid=db34944d-2a44-4777-9934-0d5e5205d58b","ios":"levelo://app?vid=db34944d-2a44-4777-9934-0d5e5205d58b"},"vehicle_type_id":"4","last_reported":1722024668,"current_range_meters":0,"station_id":"ce4bgvp2rcd13ifvqcu0","pricing_plan_id":"cebpf4jnsgd1na2vs0mg"},{"bike_id":"6fbac4dc-a5ae-4143-a53d-fe87a913a94b","system_id":"levelo_inurba_marseille","lat":43.313291,"lon":5.396838,"is_reserved":false,"is_disabled":false,"rental_uris":{"android":"levelo://app?vid=6fbac4dc-a5ae-4143-a53d-fe87a913a94b","ios":"levelo://app?vid=6fbac4dc-a5ae-4143-a53d-fe87a913a94b"},"vehicle_type_id":"4","last_reported":1722024668,"current_range_meters":17200,"station_id":"ce4bgvp2rcd13ifvqcu0","pricing_plan_id":"cebpf4jnsgd1na2vs0mg"},{"bike_id":"5abeff50-5d15-4edd-bf90-e161ec3e7ae0","system_id":"levelo_inurba_marseille","lat":43.29188,"lon":5.357983,"is_reserved":false,"is_disabled":false,"rental_uris":{"android":"levelo://app?vid=5abeff50-5d15-4edd-bf90-e161ec3e7ae0","ios":"levelo://app?vid=5abeff50-5d15-4edd-bf90-e161ec3e7ae0"},"vehicle_type_id":"4","last_reported":1722024668,"current_range_meters":0,"station_id":"ce4bhb12rcd13ifvqel0","pricing_plan_id":"cebpf4jnsgd1na2vs0mg"},{"bike_id":"602ae9a1-202d-44e9-81c3-f9864caa80b1","system_id":"levelo_inurba_marseille","lat":43.313291,"lon":5.396838,"is_reserved":false,"is_disabled":false,"rental_uris":{"android":"levelo://app?vid=602ae9a1-202d-44e9-81c3-f9864caa80b1","ios":"levelo://app?vid=602ae9a1-202d-44e9-81c3-f9864caa80b1"},"vehicle_type_id":"4","last_reported":1722024668,"current_range_meters":10800,"station_id":"ce4bgvp2rcd13ifvqcu0","pricing_plan_id":"cebpf4jnsgd1na2vs0mg"},{"bike_id":"d4369356-6d52-4378-a130-49532cf6ce1a","system_id":"levelo_inurba_marseille","lat":43.302008,"lon":5.394694,"is_reserved":false,"is_disabled":false,"rental_uris":{"android":"levelo://app?vid=d4369356-6d52-4378-a130-49532cf6ce1a","ios":"levelo://app?vid=d4369356-6d52-4378-a130-49532cf6ce1a"},"vehicle_type_id":"4","last_reported":1722024668,"current_range_meters":8000,"station_id":"ce4bh0p2rcd13ifvqd70","pricing_plan_id":"cebpf4jnsgd1na2vs0mg"},{"bike_id":"49ff847c-a73e-4ad3-84c0-c62c91e7568c","system_id":"levelo_inurba_marseille","lat":43.29529,"lon":5.385581,"is_reserved":false,"is_disabled":false,"rental_uris":{"android":"levelo://app?vid=49ff847c-a73e-4ad3-84c0-c62c91e7568c","ios":"levelo://app?vid=49ff847c-a73e-4ad3-84c0-c62c91e7568c"},"vehicle_type_id":"4","last_reported":1722024668,"current_range_meters":28400,"station_id":"ce4bgih2rcd13ifvqba0","pricing_plan_id":"cebpf4jnsgd1na2vs0mg"},{"bike_id":"d95fd480-4a9d-43d9-b76d-e53593a253e8","system_id":"levelo_inurba_marseille","lat":43.29529,"lon":5.385581,"is_reserved":false,"is_disabled":false,"rental_uris":{"android":"levelo://app?vid=d95fd480-4a9d-43d9-b76d-e53593a253e8","ios":"levelo://app?vid=d95fd480-4a9d-43d9-b76d-e53593a253e8"},"vehicle_type_id":"4","last_reported":1722024668,"current_range_meters":31200,"station_id":"ce4bgih2rcd13ifvqba0","pricing_plan_id":"cebpf4jnsgd1na2vs0mg"},{"bike_id":"dd7e6d51-8741-4ad8-8297-7dae11f347db","system_id":"levelo_inurba_marseille","lat":43.29529,"lon":5.385581,"is_reserved":false,"is_disabled":false,"rental_uris":{"android":"levelo://app?vid=dd7e6d51-8741-4ad8-8297-7dae11f347db","ios":"levelo://app?vid=dd7e6d51-8741-4ad8-8297-7dae11f347db"},"vehicle_type_id":"4","last_reported":1722024668,"current_range_meters":31600,"station_id":"ce4bgih2rcd13ifvqba0","pricing_plan_id":"cebpf4jnsgd1na2vs0mg"},{"bike_id":"3340cbb6-d4cf-4f6d-a3e1-2b08284d3396","system_id":"levelo_inurba_marseille","lat":43.29529,"lon":5.385581,"is_reserved":false,"is_disabled":false,"rental_uris":{"android":"levelo://app?vid=3340cbb6-d4cf-4f6d-a3e1-2b08284d3396","ios":"levelo://app?vid=3340cbb6-d4cf-4f6d-a3e1-2b08284d3396"},"vehicle_type_id":"4","last_reported":1722024668,"current_range_meters":11600,"station_id":"ce4bgih2rcd13ifvqba0","pricing_plan_id":"cebpf4jnsgd1na2vs0mg"},{"bike_id":"66a8bf4c-cae8-4ad3-b820-a75896e8a5d1","system_id":"levelo_inurba_marseille","lat":43.29529,"lon":5.385581,"is_reserved":false,"is_disabled":false,"rental_uris":{"android":"levelo://app?vid=66a8bf4c-cae8-4ad3-b820-a75896e8a5d1","ios":"levelo://app?vid=66a8bf4c-cae8-4ad3-b820-a75896e8a5d1"},"vehicle_type_id":"4","last_reported":1722024668,"current_range_meters":22400,"station_id":"ce4bgih2rcd13ifvqba0","pricing_plan_id":"cebpf4jnsgd1na2vs0mg"},{"bike_id":"f8982909-0a27-4aa2-9736-67dae03466e6","system_id":"levelo_inurba_marseille","lat":43.29529,"lon":5.385581,"is_reserved":false,"is_disabled":false,"rental_uris":{"android":"levelo://app?vid=f8982909-0a27-4aa2-9736-67dae03466e6","ios":"levelo://app?vid=f8982909-0a27-4aa2-9736-67dae03466e6"},"vehicle_type_id":"4","last_reported":1722024668,"current_range_meters":31200,"station_id":"ce4bgih2rcd13ifvqba0","pricing_plan_id":"cebpf4jnsgd1na2vs0mg"},{"bike_id":"14d3342e-92b7-4abb-ae3e-227a8f8c62b9","system_id":"levelo_inurba_marseille","lat":43.29529,"lon":5.385581,"is_reserved":false,"is_disabled":false,"rental_uris":{"android":"levelo://app?vid=14d3342e-92b7-4abb-ae3e-227a8f8c62b9","ios":"levelo://app?vid=14d3342e-92b7-4abb-ae3e-227a8f8c62b9"},"vehicle_type_id":"4","last_reported":1722024668,"current_range_meters":6800,"station_id":"ce4bgih2rcd13ifvqba0","pricing_plan_id":"cebpf4jnsgd1na2vs0mg"},{"bike_id":"d4d9385e-a686-4700-9854-c499901180c9","system_id":"levelo_inurba_marseille","lat":43.29529,"lon":5.385581,"is_reserved":false,"is_disabled":false,"rental_uris":{"android":"levelo://app?vid=d4d9385e-a686-4700-9854-c499901180c9","ios":"levelo://app?vid=d4d9385e-a686-4700-9854-c499901180c9"},"vehicle_type_id":"4","last_reported":1722024668,"current_range_meters":18800,"station_id":"ce4bgih2rcd13ifvqba0","pricing_plan_id":"cebpf4jnsgd1na2vs0mg"},{"bike_id":"aef3d81c-9294-4ea3-afd3-3977c7050f1f","system_id":"levelo_inurba_marseille","lat":43.29529,"lon":5.385581,"is_reserved":false,"is_disabled":false,"rental_uris":{"android":"levelo://app?vid=aef3d81c-9294-4ea3-afd3-3977c7050f1f","ios":"levelo://app?vid=aef3d81c-9294-4ea3-afd3-3977c7050f1f"},"vehicle_type_id":"4","last_reported":1722024668,"current_range_meters":8000,"station_id":"ce4bgih2rcd13ifvqba0","pricing_plan_id":"cebpf4jnsgd1na2vs0mg"},{"bike_id":"6daa2c84-40a3-48c1-9ddb-a14c280d06b3","system_id":"levelo_inurba_marseille","lat":43.29529,"lon":5.385581,"is_reserved":false,"is_disabled":false,"rental_uris":{"android":"levelo://app?vid=6daa2c84-40a3-48c1-9ddb-a14c280d06b3","ios":"levelo://app?vid=6daa2c84-40a3-48c1-9ddb-a14c280d06b3"},"vehicle_type_id":"4","last_reported":1722024668,"current_range_meters":18400,"station_id":"ce4bgih2rcd13ifvqba0","pricing_plan_id":"cebpf4jnsgd1na2vs0mg"},{"bike_id":"094d3e2f-dffa-4c4e-9f52-9576938c32c3","system_id":"levelo_inurba_marseille","lat":43.29529,"lon":5.385581,"is_reserved":false,"is_disabled":false,"rental_uris":{"android":"levelo://app?vid=094d3e2f-dffa-4c4e-9f52-9576938c32c3","ios":"levelo://app?vid=094d3e2f-dffa-4c4e-9f52-9576938c32c3"},"vehicle_type_id":"4","last_reported":1722024668,"current_range_meters":4800,"station_id":"ce4bgih2rcd13ifvqba0","pricing_plan_id":"cebpf4jnsgd1na2vs0mg"},{"bike_id":"0c99d31e-e940-4b60-a9c2-f7484968ec9a","system_id":"levelo_inurba_marseille","lat":43.29529,"lon":5.385581,"is_reserved":false,"is_disabled":false,"rental_uris":{"android":"levelo://app?vid=0c99d31e-e940-4b60-a9c2-f7484968ec9a","ios":"levelo://app?vid=0c99d31e-e940-4b60-a9c2-f7484968ec9a"},"vehicle_type_id":"4","last_reported":1722024668,"current_range_meters":11600,"station_id":"ce4bgih2rcd13ifvqba0","pricing_plan_id":"cebpf4jnsgd1na2vs0mg"},{"bike_id":"7649727d-b1e0-48ce-b2d1-a871b521e2dc","system_id":"levelo_inurba_marseille","lat":43.29529,"lon":5.385581,"is_reserved":false,"is_disabled":false,"rental_uris":{"android":"levelo://app?vid=7649727d-b1e0-48ce-b2d1-a871b521e2dc","ios":"levelo://app?vid=7649727d-b1e0-48ce-b2d1-a871b521e2dc"},"vehicle_type_id":"4","last_reported":1722024668,"current_range_meters":22400,"station_id":"ce4bgih2rcd13ifvqba0","pricing_plan_id":"cebpf4jnsgd1na2vs0mg"},{"bike_id":"d0924647-e115-4283-a6ac-759e5ddcf261","system_id":"levelo_inurba_marseille","lat":43.29529,"lon":5.385581,"is_reserved":false,"is_disabled":false,"rental_uris":{"android":"levelo://app?vid=d0924647-e115-4283-a6ac-759e5ddcf261","ios":"levelo://app?vid=d0924647-e115-4283-a6ac-759e5ddcf261"},"vehicle_type_id":"4","last_reported":1722024668,"current_range_meters":11200,"station_id":"ce4bgih2rcd13ifvqba0","pricing_plan_id":"cebpf4jnsgd1na2vs0mg"},{"bike_id":"a5bcad5d-c5b6-4acb-8feb-67e2e18615c9","system_id":"levelo_inurba_marseille","lat":43.29529,"lon":5.385581,"is_reserved":false,"is_disabled":false,"rental_uris":{"android":"levelo://app?vid=a5bcad5d-c5b6-4acb-8feb-67e2e18615c9","ios":"levelo://app?vid=a5bcad5d-c5b6-4acb-8feb-67e2e18615c9"},"vehicle_type_id":"4","last_reported":1722024668,"current_range_meters":27600,"station_id":"ce4bgih2rcd13ifvqba0","pricing_plan_id":"cebpf4jnsgd1na2vs0mg"},{"bike_id":"51485bc1-9d66-4d51-a92f-f465552cca9c","system_id":"levelo_inurba_marseille","lat":43.29529,"lon":5.385581,"is_reserved":false,"is_disabled":false,"rental_uris":{"android":"levelo://app?vid=51485bc1-9d66-4d51-a92f-f465552cca9c","ios":"levelo://app?vid=51485bc1-9d66-4d51-a92f-f465552cca9c"},"vehicle_type_id":"4","last_reported":1722024668,"current_range_meters":8800,"station_id":"ce4bgih2rcd13ifvqba0","pricing_plan_id":"cebpf4jnsgd1na2vs0mg"},{"bike_id":"031f9fce-4afa-451e-ad98-a5bf47dabd23","system_id":"levelo_inurba_marseille","lat":43.29529,"lon":5.385581,"is_reserved":false,"is_disabled":false,"rental_uris":{"android":"levelo://app?vid=031f9fce-4afa-451e-ad98-a5bf47dabd23","ios":"levelo://app?vid=031f9fce-4afa-451e-ad98-a5bf47dabd23"},"vehicle_type_id":"4","last_reported":1722024668,"current_range_meters":0,"station_id":"ce4bgih2rcd13ifvqba0","pricing_plan_id":"cebpf4jnsgd1na2vs0mg"},{"bike_id":"29bf3331-13db-42de-ad27-d72d089a305b","system_id":"levelo_inurba_marseille","lat":43.334383,"lon":5.359283,"is_reserved":false,"is_disabled":false,"rental_uris":{"android":"levelo://app?vid=29bf3331-13db-42de-ad27-d72d089a305b","ios":"levelo://app?vid=29bf3331-13db-42de-ad27-d72d089a305b"},"vehicle_type_id":"4","last_reported":1722024668,"current_range_meters":400,"station_id":"","pricing_plan_id":"cebpf4jnsgd1na2vs0mg"},{"bike_id":"1a1918ce-e869-41ab-b52c-a70b43040238","system_id":"levelo_inurba_marseille","lat":43.30202,"lon":5.39457,"is_reserved":false,"is_disabled":false,"rental_uris":{"android":"levelo://app?vid=1a1918ce-e869-41ab-b52c-a70b43040238","ios":"levelo://app?vid=1a1918ce-e869-41ab-b52c-a70b43040238"},"vehicle_type_id":"4","last_reported":1722024668,"current_range_meters":0,"station_id":"ce4bh0p2rcd13ifvqd70","pricing_plan_id":"cebpf4jnsgd1na2vs0mg"},{"bike_id":"e906c0ab-5bf1-4234-90e1-e7fd2297b2fe","system_id":"levelo_inurba_marseille","lat":43.29529,"lon":5.385581,"is_reserved":false,"is_disabled":false,"rental_uris":{"android":"levelo://app?vid=e906c0ab-5bf1-4234-90e1-e7fd2297b2fe","ios":"levelo://app?vid=e906c0ab-5bf1-4234-90e1-e7fd2297b2fe"},"vehicle_type_id":"4","last_reported":1722024668,"current_range_meters":4800,"station_id":"ce4bgih2rcd13ifvqba0","pricing_plan_id":"cebpf4jnsgd1na2vs0mg"},{"bike_id":"e502f73c-4bc7-4b9f-80f7-6f0d928a1c47","system_id":"levelo_inurba_marseille","lat":43.290407,"lon":5.359183,"is_reserved":false,"is_disabled":false,"rental_uris":{"android":"levelo://app?vid=e502f73c-4bc7-4b9f-80f7-6f0d928a1c47","ios":"levelo://app?vid=e502f73c-4bc7-4b9f-80f7-6f0d928a1c47"},"vehicle_type_id":"4","last_reported":1722024668,"current_range_meters":0,"station_id":"ce4bha92rcd13ifvqeg0","pricing_plan_id":"cebpf4jnsgd1na2vs0mg"},{"bike_id":"cd6a1c70-fecd-4865-a1f7-8dfbbcaae4e5","system_id":"levelo_inurba_marseille","lat":43.29041,"lon":5.37575,"is_reserved":false,"is_disabled":false,"rental_uris":{"android":"levelo://app?vid=cd6a1c70-fecd-4865-a1f7-8dfbbcaae4e5","ios":"levelo://app?vid=cd6a1c70-fecd-4865-a1f7-8dfbbcaae4e5"},"vehicle_type_id":"4","last_reported":1722024668,"current_range_meters":0,"station_id":"ce4bh692rcd13ifvqe90","pricing_plan_id":"cebpf4jnsgd1na2vs0mg"},{"bike_id":"1b90e81b-5e0a-4cd2-9dcd-c941acdace66","system_id":"levelo_inurba_marseille","lat":43.290405,"lon":5.375741,"is_reserved":false,"is_disabled":false,"rental_uris":{"android":"levelo://app?vid=1b90e81b-5e0a-4cd2-9dcd-c941acdace66","ios":"levelo://app?vid=1b90e81b-5e0a-4cd2-9dcd-c941acdace66"},"vehicle_type_id":"4","last_reported":1722024668,"current_range_meters":0,"station_id":"ce4bh692rcd13ifvqe90","pricing_plan_id":"cebpf4jnsgd1na2vs0mg"},{"bike_id":"09806532-77c0-4eef-b380-073ecc7e58fb","system_id":"levelo_inurba_marseille","lat":43.294162,"lon":5.386292,"is_reserved":false,"is_disabled":false,"rental_uris":{"android":"levelo://app?vid=09806532-77c0-4eef-b380-073ecc7e58fb","ios":"levelo://app?vid=09806532-77c0-4eef-b380-073ecc7e58fb"},"vehicle_type_id":"4","last_reported":1722024668,"current_range_meters":7200,"station_id":"ce4bh2h2rcd13ifvqdh0","pricing_plan_id":"cebpf4jnsgd1na2vs0mg"},{"bike_id":"e7365090-23e1-4d2d-ab57-af04dc963c67","system_id":"levelo_inurba_marseille","lat":43.294153,"lon":5.386305,"is_reserved":false,"is_disabled":false,"rental_uris":{"android":"levelo://app?vid=e7365090-23e1-4d2d-ab57-af04dc963c67","ios":"levelo://app?vid=e7365090-23e1-4d2d-ab57-af04dc963c67"},"vehicle_type_id":"4","last_reported":1722024668,"current_range_meters":6400,"station_id":"ce4bh2h2rcd13ifvqdh0","pricing_plan_id":"cebpf4jnsgd1na2vs0mg"},{"bike_id":"b680e99c-95e9-4bc8-8353-44384d0e2f0d","system_id":"levelo_inurba_marseille","lat":43.29418,"lon":5.3862,"is_reserved":false,"is_disabled":false,"rental_uris":{"android":"levelo://app?vid=b680e99c-95e9-4bc8-8353-44384d0e2f0d","ios":"levelo://app?vid=b680e99c-95e9-4bc8-8353-44384d0e2f0d"},"vehicle_type_id":"4","last_reported":1722024668,"current_range_meters":0,"station_id":"ce4bh2h2rcd13ifvqdh0","pricing_plan_id":"cebpf4jnsgd1na2vs0mg"},{"bike_id":"6cc38ecb-ccfa-4a69-9da6-abc7d1207095","system_id":"levelo_inurba_marseille","lat":43.29417,"lon":5.3862,"is_reserved":false,"is_disabled":false,"rental_uris":{"android":"levelo://app?vid=6cc38ecb-ccfa-4a69-9da6-abc7d1207095","ios":"levelo://app?vid=6cc38ecb-ccfa-4a69-9da6-abc7d1207095"},"vehicle_type_id":"4","last_reported":1722024668,"current_range_meters":17600,"station_id":"ce4bh2h2rcd13ifvqdh0","pricing_plan_id":"cebpf4jnsgd1na2vs0mg"},{"bike_id":"a6d02851-8859-4c77-a007-319f5877c6fa","system_id":"levelo_inurba_marseille","lat":43.290327,"lon":5.375711,"is_reserved":false,"is_disabled":false,"rental_uris":{"android":"levelo://app?vid=a6d02851-8859-4c77-a007-319f5877c6fa","ios":"levelo://app?vid=a6d02851-8859-4c77-a007-319f5877c6fa"},"vehicle_type_id":"4","last_reported":1722024668,"current_range_meters":10000,"station_id":"ce4bh692rcd13ifvqe90","pricing_plan_id":"cebpf4jnsgd1na2vs0mg"},{"bike_id":"07785e1f-49a7-48db-b256-b9957d0aa38d","system_id":"levelo_inurba_marseille","lat":43.289468,"lon":5.363719,"is_reserved":false,"is_disabled":false,"rental_uris":{"android":"levelo://app?vid=07785e1f-49a7-48db-b256-b9957d0aa38d","ios":"levelo://app?vid=07785e1f-49a7-48db-b256-b9957d0aa38d"},"vehicle_type_id":"4","last_reported":1722024668,"current_range_meters":11200,"station_id":"ce4bhc92rcd13ifvqetg","pricing_plan_id":"cebpf4jnsgd1na2vs0mg"},{"bike_id":"33804857-91c0-4d45-aece-a58cc8b206a3","system_id":"levelo_inurba_marseille","lat":43.29034,"lon":5.37567,"is_reserved":false,"is_disabled":false,"rental_uris":{"android":"levelo://app?vid=33804857-91c0-4d45-aece-a58cc8b206a3","ios":"levelo://app?vid=33804857-91c0-4d45-aece-a58cc8b206a3"},"vehicle_type_id":"4","last_reported":1722024668,"current_range_meters":0,"station_id":"ce4bh692rcd13ifvqe90","pricing_plan_id":"cebpf4jnsgd1na2vs0mg"},{"bike_id":"55df3744-5488-4eb2-8f3a-8ca2b3016041","system_id":"levelo_inurba_marseille","lat":43.29415,"lon":5.3862,"is_reserved":false,"is_disabled":false,"rental_uris":{"android":"levelo://app?vid=55df3744-5488-4eb2-8f3a-8ca2b3016041","ios":"levelo://app?vid=55df3744-5488-4eb2-8f3a-8ca2b3016041"},"vehicle_type_id":"4","last_reported":1722024668,"current_range_meters":17600,"station_id":"ce4bh2h2rcd13ifvqdh0","pricing_plan_id":"cebpf4jnsgd1na2vs0mg"},{"bike_id":"3fe0ada0-b3be-4719-83ac-79503348a0be","system_id":"levelo_inurba_marseille","lat":43.29418,"lon":5.38627,"is_reserved":false,"is_disabled":false,"rental_uris":{"android":"levelo://app?vid=3fe0ada0-b3be-4719-83ac-79503348a0be","ios":"levelo://app?vid=3fe0ada0-b3be-4719-83ac-79503348a0be"},"vehicle_type_id":"4","last_reported":1722024668,"current_range_meters":0,"station_id":"ce4bh2h2rcd13ifvqdh0","pricing_plan_id":"cebpf4jnsgd1na2vs0mg"},