{"last_updated":1777142089,"ttl":60,"version":"2.2","data":{"bikes":[{"bike_id":"7bf40885-9fd6-4e3a-a52b-7d7afa2f3ad2","system_id":"levelo_inurba_marseille","lat":43.302602,"lon":5.400806,"is_reserved":false,"is_disabled":false,"rental_uris":{"android":"levelo://app?vid=7bf40885-9fd6-4e3a-a52b-7d7afa2f3ad2","ios":"levelo://app?vid=7bf40885-9fd6-4e3a-a52b-7d7afa2f3ad2"},"vehicle_type_id":"4","last_reported":1777142089,"current_range_meters":1600,"station_id":"ce4bgvh2rcd13ifvqcs0","pricing_plan_id":"cebpf4jnsgd1na2vs0mg"},{"bike_id":"a6c68547-1d5a-4d58-8692-f94627b7b78d","system_id":"levelo_inurba_marseille","lat":43.28428,"lon":5.37516,"is_reserved":false,"is_disabled":false,"rental_uris":{"android":"levelo://app?vid=a6c68547-1d5a-4d58-8692-f94627b7b78d","ios":"levelo://app?vid=a6c68547-1d5a-4d58-8692-f94627b7b78d"},"vehicle_type_id":"4","last_reported":1777142089,"current_range_meters":2800,"station_id":"ce4bh412rcd13ifvqds0","pricing_plan_id":"cebpf4jnsgd1na2vs0mg"},{"bike_id":"3762a15a-49a2-4fc6-b2e6-a79b5f91a12f","system_id":"levelo_inurba_marseille","lat":43.28473,"lon":5.48407,"is_reserved":false,"is_disabled":false,"rental_uris":{"android":"levelo://app?vid=3762a15a-49a2-4fc6-b2e6-a79b5f91a12f","ios":"levelo://app?vid=3762a15a-49a2-4fc6-b2e6-a79b5f91a12f"},"vehicle_type_id":"4","last_reported":1777142089,"current_range_meters":2800,"station_id":"","pricing_plan_id":"cebpf4jnsgd1na2vs0mg"},{"bike_id":"2813910b-bfe0-425f-a483-9778de4facfb","system_id":"levelo_inurba_marseille","lat":43.30231,"lon":5.44977,"is_reserved":false,"is_disabled":false,"rental_uris":{"android":"levelo://app?vid=2813910b-bfe0-425f-a483-9778de4facfb","ios":"levelo://app?vid=2813910b-bfe0-425f-a483-9778de4facfb"},"vehicle_type_id":"4","last_reported":1777142089,"current_range_meters":2800,"station_id":"","pricing_plan_id":"cebpf4jnsgd1na2vs0mg"},{"bike_id":"676f4845-6b49-4773-b82f-ef4c6a0d7c2d","system_id":"levelo_inurba_marseille","lat":43.26098,"lon":5.37529,"is_reserved":false,"is_disabled":false,"rental_uris":{"android":"levelo://app?vid=676f4845-6b49-4773-b82f-ef4c6a0d7c2d","ios":"levelo://app?vid=676f4845-6b49-4773-b82f-ef4c6a0d7c2d"},"vehicle_type_id":"4","last_reported":1777142089,"current_range_meters":2800,"station_id":"","pricing_plan_id":"cebpf4jnsgd1na2vs0mg"},{"bike_id":"528cddcc-ee63-4760-8453-738a5d1c0bd4","system_id":"levelo_inurba_marseille","lat":43.29294,"lon":5.37174,"is_reserved":false,"is_disabled":false,"rental_uris":{"android":"levelo://app?vid=528cddcc-ee63-4760-8453-738a5d1c0bd4","ios":"levelo://app?vid=528cddcc-ee63-4760-8453-738a5d1c0bd4"},"vehicle_type_id":"4","last_reported":1777142089,"current_range_meters":2800,"station_id":"ce4bgh92rcd13ifvqb40","pricing_plan_id":"cebpf4jnsgd1na2vs0mg"},{"bike_id":"26209853-d527-47ab-ac56-d1c2607daa2d","system_id":"levelo_inurba_marseille","lat":43.261994,"lon":5.374422,"is_reserved":false,"is_disabled":true,"rental_uris":{"android":"levelo://app?vid=26209853-d527-47ab-ac56-d1c2607daa2d","ios":"levelo://app?vid=26209853-d527-47ab-ac56-d1c2607daa2d"},"vehicle_type_id":"4","last_reported":1777142089,"current_range_meters":2800,"station_id":"ce4bhgp2rcd13ifvqfc0","pricing_plan_id":"cebpf4jnsgd1na2vs0mg"},{"bike_id":"4228a033-3e3a-44f3-bc8d-22d48e61ecbc","system_id":"levelo_inurba_marseille","lat":43.28205,"lon":5.39068,"is_reserved":false,"is_disabled":false,"rental_uris":{"android":"levelo://app?vid=4228a033-3e3a-44f3-bc8d-22d48e61ecbc","ios":"levelo://app?vid=4228a033-3e3a-44f3-bc8d-22d48e61ecbc"},"vehicle_type_id":"4","last_reported":1777142089,"current_range_meters":2800,"station_id":"ce4bhn92rcd13ifvqgsg","pricing_plan_id":"cebpf4jnsgd1na2vs0mg"},{"bike_id":"ccfe4cd0-874e-47b1-89c7-c4d9ae3fc674","system_id":"levelo_inurba_marseille","lat":43.28499,"lon":5.38495,"is_reserved":false,"is_disabled":false,"rental_uris":{"android":"levelo://app?vid=ccfe4cd0-874e-47b1-89c7-c4d9ae3fc674","ios":"levelo://app?vid=ccfe4cd0-874e-47b1-89c7-c4d9ae3fc674"},"vehicle_type_id":"4","last_reported":1777142089,"current_range_meters":2800,"station_id":"","pricing_plan_id":"cebpf4jnsgd1na2vs0mg"},{"bike_id":"1b245a40-66a2-490e-a353-6345ea78a882","system_id":"levelo_inurba_marseille","lat":43.29964,"lon":5.38499,"is_reserved":false,"is_disabled":false,"rental_uris":{"android":"levelo://app?vid=1b245a40-66a2-490e-a353-6345ea78a882","ios":"levelo://app?vid=1b245a40-66a2-490e-a353-6345ea78a882"},"vehicle_type_id":"4","last_reported":1777142089,"current_range_meters":2800,"station_id":"ce4bgj92rcd13ifvqbd0","pricing_plan_id":"cebpf4jnsgd1na2vs0mg"},{"bike_id":"7c37dfed-cc90-4e1f-b81e-6422c98e74f6","system_id":"levelo_inurba_marseille","lat":43.29975,"lon":5.3848,"is_reserved":false,"is_disabled":false,"rental_uris":{"android":"levelo://app?vid=7c37dfed-cc90-4e1f-b81e-6422c98e74f6","ios":"levelo://app?vid=7c37dfed-cc90-4e1f-b81e-6422c98e74f6"},"vehicle_type_id":"4","last_reported":1777142089,"current_range_meters":2800,"station_id":"ce4bgj92rcd13ifvqbd0","pricing_plan_id":"cebpf4jnsgd1na2vs0mg"},{"bike_id":"b2cb9d30-4edc-49f4-8a2d-41e148cb41a1","system_id":"levelo_inurba_marseille","lat":43.24164,"lon":5.36394,"is_reserved":false,"is_disabled":false,"rental_uris":{"android":"levelo://app?vid=b2cb9d30-4edc-49f4-8a2d-41e148cb41a1","ios":"levelo://app?vid=b2cb9d30-4edc-49f4-8a2d-41e148cb41a1"},"vehicle_type_id":"4","last_reported":1777142089,"current_range_meters":2800,"station_id":"cpo36qri1sfpv3e86is0","pricing_plan_id":"cebpf4jnsgd1na2vs0mg"},{"bike_id":"fcb61a12-c0fa-46af-9d99-18df4ead6db0","system_id":"levelo_inurba_marseille","lat":43.29194,"lon":5.358,"is_reserved":false,"is_disabled":false,"rental_uris":{"android":"levelo://app?vid=fcb61a12-c0fa-46af-9d99-18df4ead6db0","ios":"levelo://app?vid=fcb61a12-c0fa-46af-9d99-18df4ead6db0"},"vehicle_type_id":"4","last_reported":1777142089,"current_range_meters":2800,"station_id":"ce4bhb12rcd13ifvqel0","pricing_plan_id":"cebpf4jnsgd1na2vs0mg"},{"bike_id":"36083d0d-36eb-4ce6-bb81-4eee378f0183","system_id":"levelo_inurba_marseille","lat":43.302,"lon":5.3946,"is_reserved":false,"is_disabled":false,"rental_uris":{"android":"levelo://app?vid=36083d0d-36eb-4ce6-bb81-4eee378f0183","ios":"levelo://app?vid=36083d0d-36eb-4ce6-bb81-4eee378f0183"},"vehicle_type_id":"4","last_reported":1777142089,"current_range_meters":2800,"station_id":"ce4bh0p2rcd13ifvqd70","pricing_plan_id":"cebpf4jnsgd1na2vs0mg"},{"bike_id":"931d703e-4043-4cf3-8b49-a4394f33276a","system_id":"levelo_inurba_marseille","lat":43.27815,"lon":5.40724,"is_reserved":false,"is_disabled":false,"rental_uris":{"android":"levelo://app?vid=931d703e-4043-4cf3-8b49-a4394f33276a","ios":"levelo://app?vid=931d703e-4043-4cf3-8b49-a4394f33276a"},"vehicle_type_id":"4","last_reported":1777142089,"current_range_meters":2800,"station_id":"ce4bhnh2rcd13ifvqgtg","pricing_plan_id":"cebpf4jnsgd1na2vs0mg"},{"bike_id":"e0f94df4-15e9-40c6-a83c-2a0231163fb7","system_id":"levelo_inurba_marseille","lat":43.24551,"lon":5.39529,"is_reserved":false,"is_disabled":false,"rental_uris":{"android":"levelo://app?vid=e0f94df4-15e9-40c6-a83c-2a0231163fb7","ios":"levelo://app?vid=e0f94df4-15e9-40c6-a83c-2a0231163fb7"},"vehicle_type_id":"4","last_reported":1777142089,"current_range_meters":2800,"station_id":"ce4bhlp2rcd13ifvqgjg","pricing_plan_id":"cebpf4jnsgd1na2vs0mg"},{"bike_id":"ccecfb0f-c1ad-4e9d-a879-1d3d4553be01","system_id":"levelo_inurba_marseille","lat":43.25329,"lon":5.42176,"is_reserved":false,"is_disabled":false,"rental_uris":{"android":"levelo://app?vid=ccecfb0f-c1ad-4e9d-a879-1d3d4553be01","ios":"levelo://app?vid=ccecfb0f-c1ad-4e9d-a879-1d3d4553be01"},"vehicle_type_id":"4","last_reported":1777142089,"current_range_meters":2800,"station_id":"st_d2m65c5bi1j21697t3ng","pricing_plan_id":"cebpf4jnsgd1na2vs0mg"},{"bike_id":"8e1ab35c-8494-44b5-90eb-97c7a87f8e3a","system_id":"levelo_inurba_marseille","lat":43.229332,"lon":5.353762,"is_reserved":false,"is_disabled":false,"rental_uris":{"android":"levelo://app?vid=8e1ab35c-8494-44b5-90eb-97c7a87f8e3a","ios":"levelo://app?vid=8e1ab35c-8494-44b5-90eb-97c7a87f8e3a"},"vehicle_type_id":"4","last_reported":1777142089,"current_range_meters":3200,"station_id":"cpo3532slgdg3j2ikp40","pricing_plan_id":"cebpf4jnsgd1na2vs0mg"},{"bike_id":"8abac1b2-aca5-4376-b464-f5bc6999888e","system_id":"levelo_inurba_marseille","lat":43.29766,"lon":5.37108,"is_reserved":false,"is_disabled":false,"rental_uris":{"android":"levelo://app?vid=8abac1b2-aca5-4376-b464-f5bc6999888e","ios":"levelo://app?vid=8abac1b2-aca5-4376-b464-f5bc6999888e"},"vehicle_type_id":"4","last_reported":1777142089,"current_range_meters":3200,"station_id":"ce4bgop2rcd13ifvqc1g","pricing_plan_id":"cebpf4jnsgd1na2vs0mg"},{"bike_id":"c35ef435-7351-4292-8bd0-8be9078d3a7d","system_id":"levelo_inurba_marseille","lat":43.31002,"lon":5.39024,"is_reserved":false,"is_disabled":true,"rental_uris":{"android":"levelo://app?vid=c35ef435-7351-4292-8bd0-8be9078d3a7d","ios":"levelo://app?vid=c35ef435-7351-4292-8bd0-8be9078d3a7d"},"vehicle_type_id":"4","last_reported":1777142089,"current_range_meters":3200,"station_id":"ce4bgup2rcd13ifvqco0","pricing_plan_id":"cebpf4jnsgd1na2vs0mg"},{"bike_id":"517ec2b6-ba14-4eb4-ab3e-a5bf995acc99","system_id":"levelo_inurba_marseille","lat":43.28729,"lon":5.37934,"is_reserved":false,"is_disabled":false,"rental_uris":{"android":"levelo://app?vid=517ec2b6-ba14-4eb4-ab3e-a5bf995acc99","ios":"levelo://app?vid=517ec2b6-ba14-4eb4-ab3e-a5bf995acc99"},"vehicle_type_id":"4","last_reported":1777142089,"current_range_meters":3200,"station_id":"ce4bh9p2rcd13ifvqec0","pricing_plan_id":"cebpf4jnsgd1na2vs0mg"},{"bike_id":"b38d89b8-c3c9-4fae-b6f2-09980d89f2e9","system_id":"levelo_inurba_marseille","lat":43.2847,"lon":5.48402,"is_reserved":false,"is_disabled":false,"rental_uris":{"android":"levelo://app?vid=b38d89b8-c3c9-4fae-b6f2-09980d89f2e9","ios":"levelo://app?vid=b38d89b8-c3c9-4fae-b6f2-09980d89f2e9"},"vehicle_type_id":"4","last_reported":1777142089,"current_range_meters":3200,"station_id":"","pricing_plan_id":"cebpf4jnsgd1na2vs0mg"},{"bike_id":"5b48cb57-3c35-4619-a5c0-2baa632df264","system_id":"levelo_inurba_marseille","lat":43.29519,"lon":5.38546,"is_reserved":false,"is_disabled":false,"rental_uris":{"android":"levelo://app?vid=5b48cb57-3c35-4619-a5c0-2baa632df264","ios":"levelo://app?vid=5b48cb57-3c35-4619-a5c0-2baa632df264"},"vehicle_type_id":"4","last_reported":1777142089,"current_range_meters":3200,"station_id":"ce4bgih2rcd13ifvqba0","pricing_plan_id":"cebpf4jnsgd1na2vs0mg"},{"bike_id":"616ae45d-d641-4a69-8d81-2261107b5285","system_id":"levelo_inurba_marseille","lat":43.23964,"lon":5.36624,"is_reserved":false,"is_disabled":false,"rental_uris":{"android":"levelo://app?vid=616ae45d-d641-4a69-8d81-2261107b5285","ios":"levelo://app?vid=616ae45d-d641-4a69-8d81-2261107b5285"},"vehicle_type_id":"4","last_reported":1777142089,"current_range_meters":3200,"station_id":"ce4bhi12rcd13ifvqfp0","pricing_plan_id":"cebpf4jnsgd1na2vs0mg"},{"bike_id":"c6172422-6b0d-4c06-97ab-4b8888528f97","system_id":"levelo_inurba_marseille","lat":43.28599,"lon":5.38104,"is_reserved":false,"is_disabled":false,"rental_uris":{"android":"levelo://app?vid=c6172422-6b0d-4c06-97ab-4b8888528f97","ios":"levelo://app?vid=c6172422-6b0d-4c06-97ab-4b8888528f97"},"vehicle_type_id":"4","last_reported":1777142089,"current_range_meters":3200,"station_id":"","pricing_plan_id":"cebpf4jnsgd1na2vs0mg"},{"bike_id":"6b69a1c1-71a6-4aba-b096-b9c344c721e7","system_id":"levelo_inurba_marseille","lat":43.28037,"lon":5.36944,"is_reserved":false,"is_disabled":false,"rental_uris":{"android":"levelo://app?vid=6b69a1c1-71a6-4aba-b096-b9c344c721e7","ios":"levelo://app?vid=6b69a1c1-71a6-4aba-b096-b9c344c721e7"},"vehicle_type_id":"4","last_reported":1777142089,"current_range_meters":3200,"station_id":"ce4bha12rcd13ifvqef0","pricing_plan_id":"cebpf4jnsgd1na2vs0mg"},{"bike_id":"4379f4fa-084b-4b3e-a42a-c447588399b2","system_id":"levelo_inurba_marseille","lat":43.30963,"lon":5.39039,"is_reserved":false,"is_disabled":false,"rental_uris":{"android":"levelo://app?vid=4379f4fa-084b-4b3e-a42a-c447588399b2","ios":"levelo://app?vid=4379f4fa-084b-4b3e-a42a-c447588399b2"},"vehicle_type_id":"4","last_reported":1777142089,"current_range_meters":3200,"station_id":"ce4bgup2rcd13ifvqco0","pricing_plan_id":"cebpf4jnsgd1na2vs0mg"},{"bike_id":"5f8cdfbc-37c6-486e-8a09-9620e14e43ce","system_id":"levelo_inurba_marseille","lat":43.23893,"lon":5.3746,"is_reserved":false,"is_disabled":true,"rental_uris":{"android":"levelo://app?vid=5f8cdfbc-37c6-486e-8a09-9620e14e43ce","ios":"levelo://app?vid=5f8cdfbc-37c6-486e-8a09-9620e14e43ce"},"vehicle_type_id":"4","last_reported":1777142089,"current_range_meters":3200,"station_id":"st_d6sm7csbq4hs73f8fpjg","pricing_plan_id":"cebpf4jnsgd1na2vs0mg"},{"bike_id":"7ab9e9d2-55c6-492f-8e60-126c7a6965ab","system_id":"levelo_inurba_marseille","lat":43.27957,"lon":5.37052,"is_reserved":false,"is_disabled":false,"rental_uris":{"android":"levelo://app?vid=7ab9e9d2-55c6-492f-8e60-126c7a6965ab","ios":"levelo://app?vid=7ab9e9d2-55c6-492f-8e60-126c7a6965ab"},"vehicle_type_id":"4","last_reported":1777142089,"current_range_meters":3200,"station_id":"","pricing_plan_id":"cebpf4jnsgd1na2vs0mg"},{"bike_id":"0ced46a1-d204-47a0-a52b-f6d0b4dc7033","system_id":"levelo_inurba_marseille","lat":43.28363,"lon":5.38629,"is_reserved":false,"is_disabled":false,"rental_uris":{"android":"levelo://app?vid=0ced46a1-d204-47a0-a52b-f6d0b4dc7033","ios":"levelo://app?vid=0ced46a1-d204-47a0-a52b-f6d0b4dc7033"},"vehicle_type_id":"4","last_reported":1777142089,"current_range_meters":3200,"station_id":"ce4bh492rcd13ifvqdvg","pricing_plan_id":"cebpf4jnsgd1na2vs0mg"},{"bike_id":"30ae163a-44ad-49ad-bf51-c1f54df5559c","system_id":"levelo_inurba_marseille","lat":43.28871,"lon":5.42512,"is_reserved":false,"is_disabled":false,"rental_uris":{"android":"levelo://app?vid=30ae163a-44ad-49ad-bf51-c1f54df5559c","ios":"levelo://app?vid=30ae163a-44ad-49ad-bf51-c1f54df5559c"},"vehicle_type_id":"4","last_reported":1777142089,"current_range_meters":3200,"station_id":"st_d3b462108ojc7389ooeg","pricing_plan_id":"cebpf4jnsgd1na2vs0mg"},{"bike_id":"eb5e2c76-35f3-4d25-b80b-4c84d4f1d0c2","system_id":"levelo_inurba_marseille","lat":43.29818,"lon":5.4406,"is_reserved":false,"is_disabled":false,"rental_uris":{"android":"levelo://app?vid=eb5e2c76-35f3-4d25-b80b-4c84d4f1d0c2","ios":"levelo://app?vid=eb5e2c76-35f3-4d25-b80b-4c84d4f1d0c2"},"vehicle_type_id":"4","last_reported":1777142089,"current_range_meters":3200,"station_id":"st_d3jp68qikq2c7381ktn0","pricing_plan_id":"cebpf4jnsgd1na2vs0mg"},{"bike_id":"38ee7da5-65e7-4997-97cb-9531b47e81d6","system_id":"levelo_inurba_marseille","lat":43.2658,"lon":5.39025,"is_reserved":false,"is_disabled":false,"rental_uris":{"android":"levelo://app?vid=38ee7da5-65e7-4997-97cb-9531b47e81d6","ios":"levelo://app?vid=38ee7da5-65e7-4997-97cb-9531b47e81d6"},"vehicle_type_id":"4","last_reported":1777142089,"current_range_meters":3200,"station_id":"ce4bhe12rcd13ifvqf30","pricing_plan_id":"cebpf4jnsgd1na2vs0mg"},{"bike_id":"5f0889b2-0826-4769-bd31-f8fce6f21e1e","system_id":"levelo_inurba_marseille","lat":43.31269,"lon":5.40168,"is_reserved":false,"is_disabled":false,"rental_uris":{"android":"levelo://app?vid=5f0889b2-0826-4769-bd31-f8fce6f21e1e","ios":"levelo://app?vid=5f0889b2-0826-4769-bd31-f8fce6f21e1e"},"vehicle_type_id":"4","last_reported":1777142089,"current_range_meters":3600,"station_id":"ce4bh092rcd13ifvqd30","pricing_plan_id":"cebpf4jnsgd1na2vs0mg"},{"bike_id":"d70320f1-5e83-436f-822f-c8457a777236","system_id":"levelo_inurba_marseille","lat":43.26214,"lon":5.40446,"is_reserved":false,"is_disabled":false,"rental_uris":{"android":"levelo://app?vid=d70320f1-5e83-436f-822f-c8457a777236","ios":"levelo://app?vid=d70320f1-5e83-436f-822f-c8457a777236"},"vehicle_type_id":"4","last_reported":1777142089,"current_range_meters":3600,"station_id":"ce4bhmh2rcd13ifvqgmg","pricing_plan_id":"cebpf4jnsgd1na2vs0mg"},{"bike_id":"168b5534-ff13-4dc9-af35-5eae8b61ed60","system_id":"levelo_inurba_marseille","lat":43.22577,"lon":5.41654,"is_reserved":false,"is_disabled":false,"rental_uris":{"android":"levelo://app?vid=168b5534-ff13-4dc9-af35-5eae8b61ed60","ios":"levelo://app?vid=168b5534-ff13-4dc9-af35-5eae8b61ed60"},"vehicle_type_id":"4","last_reported":1777142089,"current_range_meters":3600,"station_id":"st_d2o4gvlbi1j2169b742g","pricing_plan_id":"cebpf4jnsgd1na2vs0mg"},{"bike_id":"00864c84-7b58-495a-91b9-7345dd5dd4ca","system_id":"levelo_inurba_marseille","lat":43.24813,"lon":5.37468,"is_reserved":false,"is_disabled":false,"rental_uris":{"android":"levelo://app?vid=00864c84-7b58-495a-91b9-7345dd5dd4ca","ios":"levelo://app?vid=00864c84-7b58-495a-91b9-7345dd5dd4ca"},"vehicle_type_id":"4","last_reported":1777142089,"current_range_meters":3600,"station_id":"ce4bhgh2rcd13ifvqfb0","pricing_plan_id":"cebpf4jnsgd1na2vs0mg"},{"bike_id":"e5e2d4fc-ce30-4a1c-9439-eb98de4d30d1","system_id":"levelo_inurba_marseille","lat":43.28398,"lon":5.37541,"is_reserved":false,"is_disabled":false,"rental_uris":{"android":"levelo://app?vid=e5e2d4fc-ce30-4a1c-9439-eb98de4d30d1","ios":"levelo://app?vid=e5e2d4fc-ce30-4a1c-9439-eb98de4d30d1"},"vehicle_type_id":"4","last_reported":1777142089,"current_range_meters":3600,"station_id":"ce4bh412rcd13ifvqds0","pricing_plan_id":"cebpf4jnsgd1na2vs0mg"},{"bike_id":"2641c710-c356-484c-ad6b-64a7684da468","system_id":"levelo_inurba_marseille","lat":43.28931,"lon":5.36637,"is_reserved":false,"is_disabled":false,"rental_uris":{"android":"levelo://app?vid=2641c710-c356-484c-ad6b-64a7684da468","ios":"levelo://app?vid=2641c710-c356-484c-ad6b-64a7684da468"},"vehicle_type_id":"4","last_reported":1777142089,"current_range_meters":3600,"station_id":"ce4bhap2rcd13ifvqek0","pricing_plan_id":"cebpf4jnsgd1na2vs0mg"},{"bike_id":"f1bf9343-5c6b-49b5-9931-ecf5549569a6","system_id":"levelo_inurba_marseille","lat":43.2731,"lon":5.39119,"is_reserved":false,"is_disabled":false,"rental_uris":{"android":"levelo://app?vid=f1bf9343-5c6b-49b5-9931-ecf5549569a6","ios":"levelo://app?vid=f1bf9343-5c6b-49b5-9931-ecf5549569a6"},"vehicle_type_id":"4","last_reported":1777142089,"current_range_meters":4000,"station_id":"ce4bhgp2rcd13ifvqfe0","pricing_plan_id":"cebpf4jnsgd1na2vs0mg"},{"bike_id":"35f763f0-2040-4017-9c4b-1f9f4cbf81cc","system_id":"levelo_inurba_marseille","lat":43.29707,"lon":5.36633,"is_reserved":false,"is_disabled":false,"rental_uris":{"android":"levelo://app?vid=35f763f0-2040-4017-9c4b-1f9f4cbf81cc","ios":"levelo://app?vid=35f763f0-2040-4017-9c4b-1f9f4cbf81cc"},"vehicle_type_id":"4","last_reported":1777142089,"current_range_meters":4000,"station_id":"ce4bgn12rcd13ifvqbt0","pricing_plan_id":"cebpf4jnsgd1na2vs0mg"},{"bike_id":"4af5f932-71ad-4954-ac3b-fecb2a352994","system_id":"levelo_inurba_marseille","lat":43.32372,"lon":5.36749,"is_reserved":false,"is_disabled":false,"rental_uris":{"android":"levelo://app?vid=4af5f932-71ad-4954-ac3b-fecb2a352994","ios":"levelo://app?vid=4af5f932-71ad-4954-ac3b-fecb2a352994"},"vehicle_type_id":"4","last_reported":1777142089,"current_range_meters":4000,"station_id":"ce4bhsh2rcd13ifvqi2g","pricing_plan_id":"cebpf4jnsgd1na2vs0mg"},{"bike_id":"7437f83a-2a48-47b1-b463-50e2fbe0ea1c","system_id":"levelo_inurba_marseille","lat":43.2926,"lon":5.38439,"is_reserved":false,"is_disabled":false,"rental_uris":{"android":"levelo://app?vid=7437f83a-2a48-47b1-b463-50e2fbe0ea1c","ios":"levelo://app?vid=7437f83a-2a48-47b1-b463-50e2fbe0ea1c"},"vehicle_type_id":"4","last_reported":1777142089,"current_range_meters":4000,"station_id":"ce4bh692rcd13ifvqea0","pricing_plan_id":"cebpf4jnsgd1na2vs0mg"},{"bike_id":"196cf3f1-21a5-47dc-ba7c-3de76966c3f7","system_id":"levelo_inurba_marseille","lat":43.31275,"lon":5.40171,"is_reserved":false,"is_disabled":false,"rental_uris":{"android":"levelo://app?vid=196cf3f1-21a5-47dc-ba7c-3de76966c3f7","ios":"levelo://app?vid=196cf3f1-21a5-47dc-ba7c-3de76966c3f7"},"vehicle_type_id":"4","last_reported":1777142089,"current_range_meters":4000,"station_id":"ce4bh092rcd13ifvqd30","pricing_plan_id":"cebpf4jnsgd1na2vs0mg"},{"bike_id":"027f1395-b19a-436e-b146-68a7465c5a8c","system_id":"levelo_inurba_marseille","lat":43.29025,"lon":5.37565,"is_reserved":false,"is_disabled":false,"rental_uris":{"android":"levelo://app?vid=027f1395-b19a-436e-b146-68a7465c5a8c","ios":"levelo://app?vid=027f1395-b19a-436e-b146-68a7465c5a8c"},"vehicle_type_id":"4","last_reported":1777142089,"current_range_meters":4000,"station_id":"ce4bh692rcd13ifvqe90","pricing_plan_id":"cebpf4jnsgd1na2vs0mg"},{"bike_id":"1370c3f0-6074-43de-a93b-f7f87c829b3b","system_id":"levelo_inurba_marseille","lat":43.2912,"lon":5.39985,"is_reserved":false,"is_disabled":false,"rental_uris":{"android":"levelo://app?vid=1370c3f0-6074-43de-a93b-f7f87c829b3b","ios":"levelo://app?vid=1370c3f0-6074-43de-a93b-f7f87c829b3b"},"vehicle_type_id":"4","last_reported":1777142089,"current_range_meters":4000,"station_id":"","pricing_plan_id":"cebpf4jnsgd1na2vs0mg"},{"bike_id":"0752925b-4cf9-48f5-b1c9-bd312a7f6169","system_id":"levelo_inurba_marseille","lat":43.29972,"lon":5.38493,"is_reserved":false,"is_disabled":false,"rental_uris":{"android":"levelo://app?vid=0752925b-4cf9-48f5-b1c9-bd312a7f6169","ios":"levelo://app?vid=0752925b-4cf9-48f5-b1c9-bd312a7f6169"},"vehicle_type_id":"4","last_reported":1777142089,"current_range_meters":4000,"station_id":"ce4bgj92rcd13ifvqbd0","pricing_plan_id":"cebpf4jnsgd1na2vs0mg"},{"bike_id":"dafc4c6f-3e7f-4e31-91d5-62f3da7dfeaa","system_id":"levelo_inurba_marseille","lat":43.24164,"lon":5.36387,"is_reserved":false,"is_disabled":false,"rental_uris":{"android":"levelo://app?vid=dafc4c6f-3e7f-4e31-91d5-62f3da7dfeaa","ios":"levelo://app?vid=dafc4c6f-3e7f-4e31-91d5-62f3da7dfeaa"},"vehicle_type_id":"4","last_reported":1777142089,"current_range_meters":4000,"station_id":"cpo36qri1sfpv3e86is0","pricing_plan_id":"cebpf4jnsgd1na2vs0mg"},{"bike_id":"4d5b4915-5fc0-4782-a3a4-e445cc2cf470","system_id":"levelo_inurba_marseille","lat":43.29871,"lon":5.42101,"is_reserved":false,"is_disabled":false,"rental_uris":{"android":"levelo://app?vid=4d5b4915-5fc0-4782-a3a4-e445cc2cf470","ios":"levelo://app?vid=4d5b4915-5fc0-4782-a3a4-e445cc2cf470"},"vehicle_type_id":"4","last_reported":1777142089,"current_range_meters":4000,"station_id":"st_d6tc004otcvc738tfe70","pricing_plan_id":"cebpf4jnsgd1na2vs0mg"},{"bike_id":"ec91c01b-63b1-4278-b8de-9dad76b76c9c","system_id":"levelo_inurba_marseille","lat":43.31833,"lon":5.40011,"is_reserved":false,"is_disabled":false,"rental_uris":{"android":"levelo://app?vid=ec91c01b-63b1-4278-b8de-9dad76b76c9c","ios":"levelo://app?vid=ec91c01b-63b1-4278-b8de-9dad76b76c9c"},"vehicle_type_id":"4","last_reported":1777142089,"current_range_meters":4000,"station_id":"","pricing_plan_id":"cebpf4jnsgd1na2vs0mg"},{"bike_id":"c7ac0306-6afc-4781-8692-f962ddfe1a23","system_id":"levelo_inurba_marseille","lat":43.32356,"lon":5.36752,"is_reserved":false,"is_disabled":false,"rental_uris":{"android":"levelo://app?vid=c7ac0306-6afc-4781-8692-f962ddfe1a23","ios":"levelo://app?vid=c7ac0306-6afc-4781-8692-f962ddfe1a23"},"vehicle_type_id":"4","last_reported":1777142089,"current_range_meters":4000,"station_id":"ce4bhsh2rcd13ifvqi2g","pricing_plan_id":"cebpf4jnsgd1na2vs0mg"},{"bike_id":"f8b71621-9ee0-4284-b9b2-be8fa047ba8a","system_id":"levelo_inurba_marseille","lat":43.30135,"lon":5.43089,"is_reserved":false,"is_disabled":false,"rental_uris":{"android":"levelo://app?vid=f8b71621-9ee0-4284-b9b2-be8fa047ba8a","ios":"levelo://app?vid=f8b71621-9ee0-4284-b9b2-be8fa047ba8a"},"vehicle_type_id":"4","last_reported":1777142089,"current_range_meters":4000,"station_id":"st_d3js3co5814s73ftftug","pricing_plan_id":"cebpf4jnsgd1na2vs0mg"},{"bike_id":"04537082-bb38-4f58-bbaf-613506c42c58","system_id":"levelo_inurba_marseille","lat":43.30444,"lon":5.38894,"is_reserved":false,"is_disabled":false,"rental_uris":{"android":"levelo://app?vid=04537082-bb38-4f58-bbaf-613506c42c58","ios":"levelo://app?vid=04537082-bb38-4f58-bbaf-613506c42c58"},"vehicle_type_id":"4","last_reported":1777142089,"current_range_meters":4000,"station_id":"ce4bgk12rcd13ifvqbi0","pricing_plan_id":"cebpf4jnsgd1na2vs0mg"},{"bike_id":"aae839f0-f109-414f-a5ca-b3215961a88a","system_id":"levelo_inurba_marseille","lat":43.30644,"lon":5.40088,"is_reserved":false,"is_disabled":false,"rental_uris":{"android":"levelo://app?vid=aae839f0-f109-414f-a5ca-b3215961a88a","ios":"levelo://app?vid=aae839f0-f109-414f-a5ca-b3215961a88a"},"vehicle_type_id":"4","last_reported":1777142089,"current_range_meters":4400,"station_id":"ce4bh112rcd13ifvqda0","pricing_plan_id":"cebpf4jnsgd1na2vs0mg"},{"bike_id":"c613523a-4370-46c8-ae0c-9cd8a476f13c","system_id":"levelo_inurba_marseille","lat":43.29792,"lon":5.39347,"is_reserved":false,"is_disabled":false,"rental_uris":{"android":"levelo://app?vid=c613523a-4370-46c8-ae0c-9cd8a476f13c","ios":"levelo://app?vid=c613523a-4370-46c8-ae0c-9cd8a476f13c"},"vehicle_type_id":"4","last_reported":1777142089,"current_range_meters":4400,"station_id":"chh1huq6cuj3fo74tm60","pricing_plan_id":"cebpf4jnsgd1na2vs0mg"},{"bike_id":"1d368fe1-0c8f-4a40-864c-b54082c58fa1","system_id":"levelo_inurba_marseille","lat":43.33531,"lon":5.37455,"is_reserved":false,"is_disabled":false,"rental_uris":{"android":"levelo://app?vid=1d368fe1-0c8f-4a40-864c-b54082c58fa1","ios":"levelo://app?vid=1d368fe1-0c8f-4a40-864c-b54082c58fa1"},"vehicle_type_id":"4","last_reported":1777142089,"current_range_meters":4400,"station_id":"st_d46tts09ee8s73dlu43g","pricing_plan_id":"cebpf4jnsgd1na2vs0mg"},{"bike_id":"08e140d6-548b-4a57-8948-fd1f2d4f4e77","system_id":"levelo_inurba_marseille","lat":43.29023,"lon":5.38649,"is_reserved":false,"is_disabled":false,"rental_uris":{"android":"levelo://app?vid=08e140d6-548b-4a57-8948-fd1f2d4f4e77","ios":"levelo://app?vid=08e140d6-548b-4a57-8948-fd1f2d4f4e77"},"vehicle_type_id":"4","last_reported":1777142089,"current_range_meters":4400,"station_id":"ce4bh4p2rcd13ifvqe0g","pricing_plan_id":"cebpf4jnsgd1na2vs0mg"},{"bike_id":"0fb20b22-105a-49c6-b3c4-7ef833992223","system_id":"levelo_inurba_marseille","lat":43.31694,"lon":5.40448,"is_reserved":false,"is_disabled":false,"rental_uris":{"android":"levelo://app?vid=0fb20b22-105a-49c6-b3c4-7ef833992223","ios":"levelo://app?vid=0fb20b22-105a-49c6-b3c4-7ef833992223"},"vehicle_type_id":"4","last_reported":1777142089,"current_range_meters":4400,"station_id":"ce4bh012rcd13ifvqd00","pricing_plan_id":"cebpf4jnsgd1na2vs0mg"},{"bike_id":"5be0883e-9142-4b71-9b48-50fc24227f7d","system_id":"levelo_inurba_marseille","lat":43.24172,"lon":5.36383,"is_reserved":false,"is_disabled":false,"rental_uris":{"android":"levelo://app?vid=5be0883e-9142-4b71-9b48-50fc24227f7d","ios":"levelo://app?vid=5be0883e-9142-4b71-9b48-50fc24227f7d"},"vehicle_type_id":"4","last_reported":1777142089,"current_range_meters":4400,"station_id":"cpo36qri1sfpv3e86is0","pricing_plan_id":"cebpf4jnsgd1na2vs0mg"},{"bike_id":"6753dad5-4f65-43a5-b942-85e898c11906","system_id":"levelo_inurba_marseille","lat":43.24804,"lon":5.37438,"is_reserved":false,"is_disabled":false,"rental_uris":{"android":"levelo://app?vid=6753dad5-4f65-43a5-b942-85e898c11906","ios":"levelo://app?vid=6753dad5-4f65-43a5-b942-85e898c11906"},"vehicle_type_id":"4","last_reported":1777142089,"current_range_meters":4400,"station_id":"ce4bhgh2rcd13ifvqfb0","pricing_plan_id":"cebpf4jnsgd1na2vs0mg"},{"bike_id":"09dca68d-a96e-4c7c-8c93-084a9274aaf6","system_id":"levelo_inurba_marseille","lat":43.22526,"lon":5.34827,"is_reserved":false,"is_disabled":false,"rental_uris":{"android":"levelo://app?vid=09dca68d-a96e-4c7c-8c93-084a9274aaf6","ios":"levelo://app?vid=09dca68d-a96e-4c7c-8c93-084a9274aaf6"},"vehicle_type_id":"4","last_reported":1777142089,"current_range_meters":4400,"station_id":"st_cvj5dfep6f1abm77gieg","pricing_plan_id":"cebpf4jnsgd1na2vs0mg"},{"bike_id":"9fcc3659-40be-4abf-b57a-e2a31a8e1ac7","system_id":"levelo_inurba_marseille","lat":43.30456,"lon":5.37902,"is_reserved":false,"is_disabled":false,"rental_uris":{"android":"levelo://app?vid=9fcc3659-40be-4abf-b57a-e2a31a8e1ac7","ios":"levelo://app?vid=9fcc3659-40be-4abf-b57a-e2a31a8e1ac7"},"vehicle_type_id":"4","last_reported":1777142089,"current_range_meters":4400,"station_id":"ce4bgup2rcd13ifvqcn0","pricing_plan_id":"cebpf4jnsgd1na2vs0mg"},{"bike_id":"12e3170c-3401-42a8-b7fb-4950b48d21a8","system_id":"levelo_inurba_marseille","lat":43.24179,"lon":5.36382,"is_reserved":false,"is_disabled":false,"rental_uris":{"android":"levelo://app?vid=12e3170c-3401-42a8-b7fb-4950b48d21a8","ios":"levelo://app?vid=12e3170c-3401-42a8-b7fb-4950b48d21a8"},"vehicle_type_id":"4","last_reported":1777142089,"current_range_meters":4400,"station_id":"cpo36qri1sfpv3e86is0","pricing_plan_id":"cebpf4jnsgd1na2vs0mg"},{"bike_id":"e4c05550-3c8b-465b-9688-1aee4c05f542","system_id":"levelo_inurba_marseille","lat":43.24375,"lon":5.37088,"is_reserved":false,"is_disabled":false,"rental_uris":{"android":"levelo://app?vid=e4c05550-3c8b-465b-9688-1aee4c05f542","ios":"levelo://app?vid=e4c05550-3c8b-465b-9688-1aee4c05f542"},"vehicle_type_id":"4","last_reported":1777142089,"current_range_meters":4400,"station_id":"ce4bhhh2rcd13ifvqfk0","pricing_plan_id":"cebpf4jnsgd1na2vs0mg"},{"bike_id":"261b4d20-3fce-4a9a-b1df-f7d9447249df","system_id":"levelo_inurba_marseille","lat":43.28478,"lon":5.48396,"is_reserved":false,"is_disabled":false,"rental_uris":{"android":"levelo://app?vid=261b4d20-3fce-4a9a-b1df-f7d9447249df","ios":"levelo://app?vid=261b4d20-3fce-4a9a-b1df-f7d9447249df"},"vehicle_type_id":"4","last_reported":1777142089,"current_range_meters":4400,"station_id":"st_d3svhcjqgbts73a3dn0g","pricing_plan_id":"cebpf4jnsgd1na2vs0mg"},{"bike_id":"284bb20f-7bbf-450c-9c94-2dc57069e2bf","system_id":"levelo_inurba_marseille","lat":43.2707,"lon":5.42278,"is_reserved":false,"is_disabled":false,"rental_uris":{"android":"levelo://app?vid=284bb20f-7bbf-450c-9c94-2dc57069e2bf","ios":"levelo://app?vid=284bb20f-7bbf-450c-9c94-2dc57069e2bf"},"vehicle_type_id":"4","last_reported":1777142089,"current_range_meters":4400,"station_id":"ce4bhk92rcd13ifvqgb0","pricing_plan_id":"cebpf4jnsgd1na2vs0mg"},{"bike_id":"e243155c-2775-42d9-9d4e-ad6e7e6fab95","system_id":"levelo_inurba_marseille","lat":43.23893,"lon":5.37452,"is_reserved":false,"is_disabled":false,"rental_uris":{"android":"levelo://app?vid=e243155c-2775-42d9-9d4e-ad6e7e6fab95","ios":"levelo://app?vid=e243155c-2775-42d9-9d4e-ad6e7e6fab95"},"vehicle_type_id":"4","last_reported":1777142089,"current_range_meters":4400,"station_id":"","pricing_plan_id":"cebpf4jnsgd1na2vs0mg"},{"bike_id":"93cdc952-98c4-4a63-a909-2745e7429f18","system_id":"levelo_inurba_marseille","lat":43.2953,"lon":5.38538,"is_reserved":false,"is_disabled":false,"rental_uris":{"android":"levelo://app?vid=93cdc952-98c4-4a63-a909-2745e7429f18","ios":"levelo://app?vid=93cdc952-98c4-4a63-a909-2745e7429f18"},"vehicle_type_id":"4","last_reported":1777142089,"current_range_meters":4400,"station_id":"ce4bgih2rcd13ifvqba0","pricing_plan_id":"cebpf4jnsgd1na2vs0mg"},{"bike_id":"229e4557-384d-4a68-9d9c-a426b264692f","system_id":"levelo_inurba_marseille","lat":43.26041,"lon":5.37534,"is_reserved":false,"is_disabled":false,"rental_uris":{"android":"levelo://app?vid=229e4557-384d-4a68-9d9c-a426b264692f","ios":"levelo://app?vid=229e4557-384d-4a68-9d9c-a426b264692f"},"vehicle_type_id":"4","last_reported":1777142089,"current_range_meters":4800,"station_id":"ce4bhgh2rcd13ifvqfa0","pricing_plan_id":"cebpf4jnsgd1na2vs0mg"},{"bike_id":"a3dee876-3af2-46d4-9131-1dd0997e500a","system_id":"levelo_inurba_marseille","lat":43.24411,"lon":5.37064,"is_reserved":false,"is_disabled":true,"rental_uris":{"android":"levelo://app?vid=a3dee876-3af2-46d4-9131-1dd0997e500a","ios":"levelo://app?vid=a3dee876-3af2-46d4-9131-1dd0997e500a"},"vehicle_type_id":"4","last_reported":1777142089,"current_range_meters":4800,"station_id":"ce4bhhh2rcd13ifvqfk0","pricing_plan_id":"cebpf4jnsgd1na2vs0mg"},{"bike_id":"46e2c498-3037-43b8-b3f3-a177b649eeb1","system_id":"levelo_inurba_marseille","lat":43.30453,"lon":5.37906,"is_reserved":false,"is_disabled":false,"rental_uris":{"android":"levelo://app?vid=46e2c498-3037-43b8-b3f3-a177b649eeb1","ios":"levelo://app?vid=46e2c498-3037-43b8-b3f3-a177b649eeb1"},"vehicle_type_id":"4","last_reported":1777142089,"current_range_meters":4800,"station_id":"ce4bgup2rcd13ifvqcn0","pricing_plan_id":"cebpf4jnsgd1na2vs0mg"},{"bike_id":"f5d16d6d-39fd-4d43-a4cc-2ffb6d5c9e41","system_id":"levelo_inurba_marseille","lat":43.29579,"lon":5.37498,"is_reserved":false,"is_disabled":false,"rental_uris":{"android":"levelo://app?vid=f5d16d6d-39fd-4d43-a4cc-2ffb6d5c9e41","ios":"levelo://app?vid=f5d16d6d-39fd-4d43-a4cc-2ffb6d5c9e41"},"vehicle_type_id":"4","last_reported":1777142089,"current_range_meters":4800,"station_id":"ce4bgh92rcd13ifvqb50","pricing_plan_id":"cebpf4jnsgd1na2vs0mg"},{"bike_id":"e7244574-847b-4fe5-89c9-abd6f3ca93d3","system_id":"levelo_inurba_marseille","lat":43.31688,"lon":5.40472,"is_reserved":false,"is_disabled":false,"rental_uris":{"android":"levelo://app?vid=e7244574-847b-4fe5-89c9-abd6f3ca93d3","ios":"levelo://app?vid=e7244574-847b-4fe5-89c9-abd6f3ca93d3"},"vehicle_type_id":"4","last_reported":1777142089,"current_range_meters":4800,"station_id":"ce4bh012rcd13ifvqd00","pricing_plan_id":"cebpf4jnsgd1na2vs0mg"},{"bike_id":"62a20b6e-e98d-4cc9-b298-e865d7184b00","system_id":"levelo_inurba_marseille","lat":43.25509,"lon":5.37627,"is_reserved":false,"is_disabled":false,"rental_uris":{"android":"levelo://app?vid=62a20b6e-e98d-4cc9-b298-e865d7184b00","ios":"levelo://app?vid=62a20b6e-e98d-4cc9-b298-e865d7184b00"},"vehicle_type_id":"4","last_reported":1777142089,"current_range_meters":4800,"station_id":"ce4bhh12rcd13ifvqff0","pricing_plan_id":"cebpf4jnsgd1na2vs0mg"},{"bike_id":"00ec9811-c491-4632-b144-7c61702dd074","system_id":"levelo_inurba_marseille","lat":43.30302,"lon":5.39201,"is_reserved":false,"is_disabled":false,"rental_uris":{"android":"levelo://app?vid=00ec9811-c491-4632-b144-7c61702dd074","ios":"levelo://app?vid=00ec9811-c491-4632-b144-7c61702dd074"},"vehicle_type_id":"4","last_reported":1777142089,"current_range_meters":4800,"station_id":"ce4bgkh2rcd13ifvqbk0","pricing_plan_id":"cebpf4jnsgd1na2vs0mg"},{"bike_id":"74ea0707-705f-4342-8804-abebccbc3e01","system_id":"levelo_inurba_marseille","lat":43.24182,"lon":5.36393,"is_reserved":false,"is_disabled":false,"rental_uris":{"android":"levelo://app?vid=74ea0707-705f-4342-8804-abebccbc3e01","ios":"levelo://app?vid=74ea0707-705f-4342-8804-abebccbc3e01"},"vehicle_type_id":"4","last_reported":1777142089,"current_range_meters":4800,"station_id":"cpo36qri1sfpv3e86is0","pricing_plan_id":"cebpf4jnsgd1na2vs0mg"},{"bike_id":"1fc600c4-40db-454f-84ed-9471d7fa3c8b","system_id":"levelo_inurba_marseille","lat":43.28924,"lon":5.38376,"is_reserved":false,"is_disabled":false,"rental_uris":{"android":"levelo://app?vid=1fc600c4-40db-454f-84ed-9471d7fa3c8b","ios":"levelo://app?vid=1fc600c4-40db-454f-84ed-9471d7fa3c8b"},"vehicle_type_id":"4","last_reported":1777142089,"current_range_meters":4800,"station_id":"ce4bh612rcd13ifvqe6g","pricing_plan_id":"cebpf4jnsgd1na2vs0mg"},{"bike_id":"43807d1a-19bd-49be-999d-cacf0c02df31","system_id":"levelo_inurba_marseille","lat":43.24542,"lon":5.39528,"is_reserved":false,"is_disabled":false,"rental_uris":{"android":"levelo://app?vid=43807d1a-19bd-49be-999d-cacf0c02df31","ios":"levelo://app?vid=43807d1a-19bd-49be-999d-cacf0c02df31"},"vehicle_type_id":"4","last_reported":1777142089,"current_range_meters":4800,"station_id":"ce4bhlp2rcd13ifvqgjg","pricing_plan_id":"cebpf4jnsgd1na2vs0mg"},{"bike_id":"e23b9ece-c9f6-406b-8155-0493007fcdca","system_id":"levelo_inurba_marseille","lat":43.29031,"lon":5.38638,"is_reserved":false,"is_disabled":false,"rental_uris":{"android":"levelo://app?vid=e23b9ece-c9f6-406b-8155-0493007fcdca","ios":"levelo://app?vid=e23b9ece-c9f6-406b-8155-0493007fcdca"},"vehicle_type_id":"4","last_reported":1777142089,"current_range_meters":4800,"station_id":"ce4bh4p2rcd13ifvqe0g","pricing_plan_id":"cebpf4jnsgd1na2vs0mg"},{"bike_id":"071eb1fd-1dcf-4e3a-a611-a7bf2415e8af","system_id":"levelo_inurba_marseille","lat":43.26036,"lon":5.37531,"is_reserved":false,"is_disabled":false,"rental_uris":{"android":"levelo://app?vid=071eb1fd-1dcf-4e3a-a611-a7bf2415e8af","ios":"levelo://app?vid=071eb1fd-1dcf-4e3a-a611-a7bf2415e8af"},"vehicle_type_id":"4","last_reported":1777142089,"current_range_meters":5600,"station_id":"ce4bhgh2rcd13ifvqfa0","pricing_plan_id":"cebpf4jnsgd1na2vs0mg"},{"bike_id":"a18a394f-a610-42d7-b58a-6d9e4023733d","system_id":"levelo_inurba_marseille","lat":43.30594,"lon":5.39345,"is_reserved":false,"is_disabled":false,"rental_uris":{"android":"levelo://app?vid=a18a394f-a610-42d7-b58a-6d9e4023733d","ios":"levelo://app?vid=a18a394f-a610-42d7-b58a-6d9e4023733d"},"vehicle_type_id":"4","last_reported":1777142089,"current_range_meters":5600,"station_id":"ce4bh0p2rcd13ifvqd80","pricing_plan_id":"cebpf4jnsgd1na2vs0mg"},{"bike_id":"8c8d3a1e-3e2c-407c-b8ad-af868cc54226","system_id":"levelo_inurba_marseille","lat":43.294882,"lon":5.393907,"is_reserved":false,"is_disabled":false,"rental_uris":{"android":"levelo://app?vid=8c8d3a1e-3e2c-407c-b8ad-af868cc54226","ios":"levelo://app?vid=8c8d3a1e-3e2c-407c-b8ad-af868cc54226"},"vehicle_type_id":"4","last_reported":1777142089,"current_range_meters":5600,"station_id":"","pricing_plan_id":"cebpf4jnsgd1na2vs0mg"},{"bike_id":"f645e30b-5616-45b3-a17d-faf4a49d971d","system_id":"levelo_inurba_marseille","lat":43.31,"lon":5.37533,"is_reserved":false,"is_disabled":false,"rental_uris":{"android":"levelo://app?vid=f645e30b-5616-45b3-a17d-faf4a49d971d","ios":"levelo://app?vid=f645e30b-5616-45b3-a17d-faf4a49d971d"},"vehicle_type_id":"4","last_reported":1777142089,"current_range_meters":5600,"station_id":"","pricing_plan_id":"cebpf4jnsgd1na2vs0mg"},{"bike_id":"45ad0d0e-efdd-4c05-bbcd-19b309dc3892","system_id":"levelo_inurba_marseille","lat":43.27998,"lon":5.41653,"is_reserved":false,"is_disabled":false,"rental_uris":{"android":"levelo://app?vid=45ad0d0e-efdd-4c05-bbcd-19b309dc3892","ios":"levelo://app?vid=45ad0d0e-efdd-4c05-bbcd-19b309dc3892"},"vehicle_type_id":"4","last_reported":1777142089,"current_range_meters":5600,"station_id":"ce4bho12rcd13ifvqh1g","pricing_plan_id":"cebpf4jnsgd1na2vs0mg"},{"bike_id":"9278db47-07ec-490b-96cb-556e160c5c2f","system_id":"levelo_inurba_marseille","lat":43.29705,"lon":5.38022,"is_reserved":false,"is_disabled":false,"rental_uris":{"android":"levelo://app?vid=9278db47-07ec-490b-96cb-556e160c5c2f","ios":"levelo://app?vid=9278db47-07ec-490b-96cb-556e160c5c2f"},"vehicle_type_id":"4","last_reported":1777142089,"current_range_meters":5600,"station_id":"","pricing_plan_id":"cebpf4jnsgd1na2vs0mg"},{"bike_id":"69688320-fc94-4eeb-b07a-722aeb59cd49","system_id":"levelo_inurba_marseille","lat":43.29872,"lon":5.38922,"is_reserved":false,"is_disabled":false,"rental_uris":{"android":"levelo://app?vid=69688320-fc94-4eeb-b07a-722aeb59cd49","ios":"levelo://app?vid=69688320-fc94-4eeb-b07a-722aeb59cd49"},"vehicle_type_id":"4","last_reported":1777142089,"current_range_meters":5600,"station_id":"ce4bh392rcd13ifvqdl0","pricing_plan_id":"cebpf4jnsgd1na2vs0mg"},{"bike_id":"9551b7f8-7ec6-44ce-b417-c7266eba15be","system_id":"levelo_inurba_marseille","lat":43.29256,"lon":5.38446,"is_reserved":false,"is_disabled":false,"rental_uris":{"android":"levelo://app?vid=9551b7f8-7ec6-44ce-b417-c7266eba15be","ios":"levelo://app?vid=9551b7f8-7ec6-44ce-b417-c7266eba15be"},"vehicle_type_id":"4","last_reported":1777142089,"current_range_meters":5600,"station_id":"ce4bh692rcd13ifvqea0","pricing_plan_id":"cebpf4jnsgd1na2vs0mg"},{"bike_id":"75471a09-e4ee-4438-b4e9-ebcc3c66f359","system_id":"levelo_inurba_marseille","lat":43.212,"lon":5.3506,"is_reserved":false,"is_disabled":false,"rental_uris":{"android":"levelo://app?vid=75471a09-e4ee-4438-b4e9-ebcc3c66f359","ios":"levelo://app?vid=75471a09-e4ee-4438-b4e9-ebcc3c66f359"},"vehicle_type_id":"4","last_reported":1777142089,"current_range_meters":5600,"station_id":"st_cvj6sg6p6f1abm77japg","pricing_plan_id":"cebpf4jnsgd1na2vs0mg"},{"bike_id":"128521d5-883e-4bf6-af47-0bc59aee3e65","system_id":"levelo_inurba_marseille","lat":43.25336,"lon":5.42167,"is_reserved":false,"is_disabled":false,"rental_uris":{"android":"levelo://app?vid=128521d5-883e-4bf6-af47-0bc59aee3e65","ios":"levelo://app?vid=128521d5-883e-4bf6-af47-0bc59aee3e65"},"vehicle_type_id":"4","last_reported":1777142089,"current_range_meters":5600,"station_id":"st_d2m65c5bi1j21697t3ng","pricing_plan_id":"cebpf4jnsgd1na2vs0mg"},{"bike_id":"13b9682c-b7d4-42ac-b512-01155ff66482","system_id":"levelo_inurba_marseille","lat":43.30092,"lon":5.3907,"is_reserved":false,"is_disabled":false,"rental_uris":{"android":"levelo://app?vid=13b9682c-b7d4-42ac-b512-01155ff66482","ios":"levelo://app?vid=13b9682c-b7d4-42ac-b512-01155ff66482"},"vehicle_type_id":"4","last_reported":1777142089,"current_range_meters":5600,"station_id":"ce4bh192rcd13ifvqdb0","pricing_plan_id":"cebpf4jnsgd1na2vs0mg"},{"bike_id":"f13cbeb5-e880-445e-bdac-edb536f92a53","system_id":"levelo_inurba_marseille","lat":43.284119,"lon":5.375065,"is_reserved":false,"is_disabled":false,"rental_uris":{"android":"levelo://app?vid=f13cbeb5-e880-445e-bdac-edb536f92a53","ios":"levelo://app?vid=f13cbeb5-e880-445e-bdac-edb536f92a53"},"vehicle_type_id":"4","last_reported":1777142089,"current_range_meters":5600,"station_id":"ce4bh412rcd13ifvqds0","pricing_plan_id":"cebpf4jnsgd1na2vs0mg"},{"bike_id":"4f81052a-376c-4dec-a1c7-95196629e642","system_id":"levelo_inurba_marseille","lat":43.30957,"lon":5.3903,"is_reserved":false,"is_disabled":false,"rental_uris":{"android":"levelo://app?vid=4f81052a-376c-4dec-a1c7-95196629e642","ios":"levelo://app?vid=4f81052a-376c-4dec-a1c7-95196629e642"},"vehicle_type_id":"4","last_reported":1777142089,"current_range_meters":5600,"station_id":"ce4bgup2rcd13ifvqco0","pricing_plan_id":"cebpf4jnsgd1na2vs0mg"},{"bike_id":"6b498e23-233c-44e7-bdf2-4e8481886ee3","system_id":"levelo_inurba_marseille","lat":43.25519,"lon":5.3764,"is_reserved":false,"is_disabled":false,"rental_uris":{"android":"levelo://app?vid=6b498e23-233c-44e7-bdf2-4e8481886ee3","ios":"levelo://app?vid=6b498e23-233c-44e7-bdf2-4e8481886ee3"},"vehicle_type_id":"4","last_reported":1777142089,"current_range_meters":5600,"station_id":"ce4bhh12rcd13ifvqff0","pricing_plan_id":"cebpf4jnsgd1na2vs0mg"},{"bike_id":"9e736a24-151b-4861-9d3c-68515cd11e0f","system_id":"levelo_inurba_marseille","lat":43.32087,"lon":5.36776,"is_reserved":false,"is_disabled":false,"rental_uris":{"android":"levelo://app?vid=9e736a24-151b-4861-9d3c-68515cd11e0f","ios":"levelo://app?vid=9e736a24-151b-4861-9d3c-68515cd11e0f"},"vehicle_type_id":"4","last_reported":1777142089,"current_range_meters":5600,"station_id":"ce4bhrh2rcd13ifvqhug","pricing_plan_id":"cebpf4jnsgd1na2vs0mg"},{"bike_id":"c025845f-1e58-40db-928d-6c13a1caeb39","system_id":"levelo_inurba_marseille","lat":43.24383,"lon":5.3705,"is_reserved":false,"is_disabled":false,"rental_uris":{"android":"levelo://app?vid=c025845f-1e58-40db-928d-6c13a1caeb39","ios":"levelo://app?vid=c025845f-1e58-40db-928d-6c13a1caeb39"},"vehicle_type_id":"4","last_reported":1777142089,"current_range_meters":5600,"station_id":"ce4bhhh2rcd13ifvqfk0","pricing_plan_id":"cebpf4jnsgd1na2vs0mg"},{"bike_id":"5091d3df-140a-4a96-ba1e-f44ab742c57b","system_id":"levelo_inurba_marseille","lat":43.23187,"lon":5.40006,"is_reserved":false,"is_disabled":true,"rental_uris":{"android":"levelo://app?vid=5091d3df-140a-4a96-ba1e-f44ab742c57b","ios":"levelo://app?vid=5091d3df-140a-4a96-ba1e-f44ab742c57b"},"vehicle_type_id":"4","last_reported":1777142089,"current_range_meters":5600,"station_id":"ce4bhn12rcd13ifvqgqg","pricing_plan_id":"cebpf4jnsgd1na2vs0mg"},{"bike_id":"8af7cc4d-787c-4a52-85ef-58bed94c7550","system_id":"levelo_inurba_marseille","lat":43.262102,"lon":5.404329,"is_reserved":false,"is_disabled":false,"rental_uris":{"android":"levelo://app?vid=8af7cc4d-787c-4a52-85ef-58bed94c7550","ios":"levelo://app?vid=8af7cc4d-787c-4a52-85ef-58bed94c7550"},"vehicle_type_id":"4","last_reported":1777142089,"current_range_meters":5600,"station_id":"ce4bhmh2rcd13ifvqgmg","pricing_plan_id":"cebpf4jnsgd1na2vs0mg"},{"bike_id":"8b8ffd76-6d96-4c9f-bbd9-da4245c9ff77","system_id":"levelo_inurba_marseille","lat":43.29297,"lon":5.37463,"is_reserved":false,"is_disabled":false,"rental_uris":{"android":"levelo://app?vid=8b8ffd76-6d96-4c9f-bbd9-da4245c9ff77","ios":"levelo://app?vid=8b8ffd76-6d96-4c9f-bbd9-da4245c9ff77"},"vehicle_type_id":"4","last_reported":1777142089,"current_range_meters":5600,"station_id":"ce4bgi12rcd13ifvqb70","pricing_plan_id":"cebpf4jnsgd1na2vs0mg"},{"bike_id":"0ce641a1-ca62-4f05-b894-4a72f77b98f2","system_id":"levelo_inurba_marseille","lat":43.32366,"lon":5.36717,"is_reserved":false,"is_disabled":false,"rental_uris":{"android":"levelo://app?vid=0ce641a1-ca62-4f05-b894-4a72f77b98f2","ios":"levelo://app?vid=0ce641a1-ca62-4f05-b894-4a72f77b98f2"},"vehicle_type_id":"4","last_reported":1777142089,"current_range_meters":6000,"station_id":"ce4bhsh2rcd13ifvqi2g","pricing_plan_id":"cebpf4jnsgd1na2vs0mg"},{"bike_id":"54dd0309-49d2-49f6-bbb2-520a1e5622f4","system_id":"levelo_inurba_marseille","lat":43.24174,"lon":5.3641,"is_reserved":false,"is_disabled":false,"rental_uris":{"android":"levelo://app?vid=54dd0309-49d2-49f6-bbb2-520a1e5622f4","ios":"levelo://app?vid=54dd0309-49d2-49f6-bbb2-520a1e5622f4"},"vehicle_type_id":"4","last_reported":1777142089,"current_range_meters":6000,"station_id":"cpo36qri1sfpv3e86is0","pricing_plan_id":"cebpf4jnsgd1na2vs0mg"},{"bike_id":"c0126e79-e455-4033-aa6f-9cd2537e8b04","system_id":"levelo_inurba_marseille","lat":43.28697,"lon":5.46686,"is_reserved":false,"is_disabled":false,"rental_uris":{"android":"levelo://app?vid=c0126e79-e455-4033-aa6f-9cd2537e8b04","ios":"levelo://app?vid=c0126e79-e455-4033-aa6f-9cd2537e8b04"},"vehicle_type_id":"4","last_reported":1777142089,"current_range_meters":6000,"station_id":"st_d6tc3vkotcvc738tfjhg","pricing_plan_id":"cebpf4jnsgd1na2vs0mg"},{"bike_id":"5eb70184-bd60-42f4-8653-f05f6f255058","system_id":"levelo_inurba_marseille","lat":43.28338,"lon":5.38099,"is_reserved":false,"is_disabled":false,"rental_uris":{"android":"levelo://app?vid=5eb70184-bd60-42f4-8653-f05f6f255058","ios":"levelo://app?vid=5eb70184-bd60-42f4-8653-f05f6f255058"},"vehicle_type_id":"4","last_reported":1777142089,"current_range_meters":6000,"station_id":"ce4bh412rcd13ifvqdr0","pricing_plan_id":"cebpf4jnsgd1na2vs0mg"},{"bike_id":"8d087c60-78e6-40f1-847c-41984b3a6f63","system_id":"levelo_inurba_marseille","lat":43.24814,"lon":5.37463,"is_reserved":false,"is_disabled":false,"rental_uris":{"android":"levelo://app?vid=8d087c60-78e6-40f1-847c-41984b3a6f63","ios":"levelo://app?vid=8d087c60-78e6-40f1-847c-41984b3a6f63"},"vehicle_type_id":"4","last_reported":1777142089,"current_range_meters":6000,"station_id":"ce4bhgh2rcd13ifvqfb0","pricing_plan_id":"cebpf4jnsgd1na2vs0mg"},{"bike_id":"8edc89f6-3e03-480c-8bcb-8a6278edddc4","system_id":"levelo_inurba_marseille","lat":43.2909,"lon":5.38115,"is_reserved":false,"is_disabled":false,"rental_uris":{"android":"levelo://app?vid=8edc89f6-3e03-480c-8bcb-8a6278edddc4","ios":"levelo://app?vid=8edc89f6-3e03-480c-8bcb-8a6278edddc4"},"vehicle_type_id":"4","last_reported":1777142089,"current_range_meters":6000,"station_id":"ce4bh512rcd13ifvqe2g","pricing_plan_id":"cebpf4jnsgd1na2vs0mg"},{"bike_id":"6fc400a6-f028-4b49-86c7-01a37f0c4d06","system_id":"levelo_inurba_marseille","lat":43.2966,"lon":5.37672,"is_reserved":false,"is_disabled":false,"rental_uris":{"android":"levelo://app?vid=6fc400a6-f028-4b49-86c7-01a37f0c4d06","ios":"levelo://app?vid=6fc400a6-f028-4b49-86c7-01a37f0c4d06"},"vehicle_type_id":"4","last_reported":1777142089,"current_range_meters":6000,"station_id":"ce4bgi92rcd13ifvqb90","pricing_plan_id":"cebpf4jnsgd1na2vs0mg"},{"bike_id":"7c7a6e62-e130-431f-b3ec-a07feec308d8","system_id":"levelo_inurba_marseille","lat":43.22703,"lon":5.34817,"is_reserved":false,"is_disabled":false,"rental_uris":{"android":"levelo://app?vid=7c7a6e62-e130-431f-b3ec-a07feec308d8","ios":"levelo://app?vid=7c7a6e62-e130-431f-b3ec-a07feec308d8"},"vehicle_type_id":"4","last_reported":1777142089,"current_range_meters":6000,"station_id":"","pricing_plan_id":"cebpf4jnsgd1na2vs0mg"},{"bike_id":"ec381707-e3cf-458c-ab27-d0aaa4d21a63","system_id":"levelo_inurba_marseille","lat":43.29521,"lon":5.37487,"is_reserved":false,"is_disabled":false,"rental_uris":{"android":"levelo://app?vid=ec381707-e3cf-458c-ab27-d0aaa4d21a63","ios":"levelo://app?vid=ec381707-e3cf-458c-ab27-d0aaa4d21a63"},"vehicle_type_id":"4","last_reported":1777142089,"current_range_meters":6000,"station_id":"ce4bgkp2rcd13ifvqbmg","pricing_plan_id":"cebpf4jnsgd1na2vs0mg"},{"bike_id":"724d0869-017c-4e7e-9911-705be0df09b1","system_id":"levelo_inurba_marseille","lat":43.24588,"lon":5.4182,"is_reserved":false,"is_disabled":false,"rental_uris":{"android":"levelo://app?vid=724d0869-017c-4e7e-9911-705be0df09b1","ios":"levelo://app?vid=724d0869-017c-4e7e-9911-705be0df09b1"},"vehicle_type_id":"4","last_reported":1777142089,"current_range_meters":6000,"station_id":"","pricing_plan_id":"cebpf4jnsgd1na2vs0mg"},{"bike_id":"b94e542f-178a-41f5-8cef-fb0778f39648","system_id":"levelo_inurba_marseille","lat":43.33154,"lon":5.37683,"is_reserved":false,"is_disabled":false,"rental_uris":{"android":"levelo://app?vid=b94e542f-178a-41f5-8cef-fb0778f39648","ios":"levelo://app?vid=b94e542f-178a-41f5-8cef-fb0778f39648"},"vehicle_type_id":"4","last_reported":1777142089,"current_range_meters":6000,"station_id":"st_d46cu089ee8s73dldbu0","pricing_plan_id":"cebpf4jnsgd1na2vs0mg"},{"bike_id":"021c3599-d960-4255-bf18-8b3b47549997","system_id":"levelo_inurba_marseille","lat":43.30176,"lon":5.4308,"is_reserved":false,"is_disabled":false,"rental_uris":{"android":"levelo://app?vid=021c3599-d960-4255-bf18-8b3b47549997","ios":"levelo://app?vid=021c3599-d960-4255-bf18-8b3b47549997"},"vehicle_type_id":"4","last_reported":1777142089,"current_range_meters":6000,"station_id":"st_d3js3co5814s73ftftug","pricing_plan_id":"cebpf4jnsgd1na2vs0mg"},{"bike_id":"b14c6416-724a-4ae0-8e0d-0a861e3a9f05","system_id":"levelo_inurba_marseille","lat":43.262151,"lon":5.374409,"is_reserved":false,"is_disabled":false,"rental_uris":{"android":"levelo://app?vid=b14c6416-724a-4ae0-8e0d-0a861e3a9f05","ios":"levelo://app?vid=b14c6416-724a-4ae0-8e0d-0a861e3a9f05"},"vehicle_type_id":"4","last_reported":1777142089,"current_range_meters":6000,"station_id":"ce4bhgp2rcd13ifvqfc0","pricing_plan_id":"cebpf4jnsgd1na2vs0mg"},{"bike_id":"95233bee-e759-4b85-82c7-7875c8b779d5","system_id":"levelo_inurba_marseille","lat":43.28717,"lon":5.3795,"is_reserved":false,"is_disabled":false,"rental_uris":{"android":"levelo://app?vid=95233bee-e759-4b85-82c7-7875c8b779d5","ios":"levelo://app?vid=95233bee-e759-4b85-82c7-7875c8b779d5"},"vehicle_type_id":"4","last_reported":1777142089,"current_range_meters":6000,"station_id":"ce4bh9p2rcd13ifvqec0","pricing_plan_id":"cebpf4jnsgd1na2vs0mg"},{"bike_id":"45cd9781-7f1f-41b5-bb2f-c8bfe3433986","system_id":"levelo_inurba_marseille","lat":43.29515,"lon":5.38546,"is_reserved":false,"is_disabled":false,"rental_uris":{"android":"levelo://app?vid=45cd9781-7f1f-41b5-bb2f-c8bfe3433986","ios":"levelo://app?vid=45cd9781-7f1f-41b5-bb2f-c8bfe3433986"},"vehicle_type_id":"4","last_reported":1777142089,"current_range_meters":6000,"station_id":"ce4bgih2rcd13ifvqba0","pricing_plan_id":"cebpf4jnsgd1na2vs0mg"},{"bike_id":"99674f0e-fd7d-485a-9ede-b5083a657631","system_id":"levelo_inurba_marseille","lat":43.30954,"lon":5.39055,"is_reserved":false,"is_disabled":false,"rental_uris":{"android":"levelo://app?vid=99674f0e-fd7d-485a-9ede-b5083a657631","ios":"levelo://app?vid=99674f0e-fd7d-485a-9ede-b5083a657631"},"vehicle_type_id":"4","last_reported":1777142089,"current_range_meters":6000,"station_id":"ce4bgup2rcd13ifvqco0","pricing_plan_id":"cebpf4jnsgd1na2vs0mg"},{"bike_id":"318b0f19-64fa-4af9-92a2-6b5d9e2e4a7b","system_id":"levelo_inurba_marseille","lat":43.21197,"lon":5.35065,"is_reserved":false,"is_disabled":false,"rental_uris":{"android":"levelo://app?vid=318b0f19-64fa-4af9-92a2-6b5d9e2e4a7b","ios":"levelo://app?vid=318b0f19-64fa-4af9-92a2-6b5d9e2e4a7b"},"vehicle_type_id":"4","last_reported":1777142089,"current_range_meters":6000,"station_id":"st_cvj6sg6p6f1abm77japg","pricing_plan_id":"cebpf4jnsgd1na2vs0mg"},{"bike_id":"a76a89e8-c00c-47b3-9b8e-e3c38d7a7831","system_id":"levelo_inurba_marseille","lat":43.29875,"lon":5.38904,"is_reserved":false,"is_disabled":false,"rental_uris":{"android":"levelo://app?vid=a76a89e8-c00c-47b3-9b8e-e3c38d7a7831","ios":"levelo://app?vid=a76a89e8-c00c-47b3-9b8e-e3c38d7a7831"},"vehicle_type_id":"4","last_reported":1777142089,"current_range_meters":6000,"station_id":"ce4bh392rcd13ifvqdl0","pricing_plan_id":"cebpf4jnsgd1na2vs0mg"},{"bike_id":"c971000d-19a6-4036-9154-589c2ea7fd1a","system_id":"levelo_inurba_marseille","lat":43.30327,"lon":5.40417,"is_reserved":false,"is_disabled":false,"rental_uris":{"android":"levelo://app?vid=c971000d-19a6-4036-9154-589c2ea7fd1a","ios":"levelo://app?vid=c971000d-19a6-4036-9154-589c2ea7fd1a"},"vehicle_type_id":"4","last_reported":1777142089,"current_range_meters":6000,"station_id":"ce4bh012rcd13ifvqd10","pricing_plan_id":"cebpf4jnsgd1na2vs0mg"},{"bike_id":"849fbb18-7ad9-446a-8b63-b409790c0ba0","system_id":"levelo_inurba_marseille","lat":43.303277,"lon":5.404361,"is_reserved":false,"is_disabled":false,"rental_uris":{"android":"levelo://app?vid=849fbb18-7ad9-446a-8b63-b409790c0ba0","ios":"levelo://app?vid=849fbb18-7ad9-446a-8b63-b409790c0ba0"},"vehicle_type_id":"4","last_reported":1777142089,"current_range_meters":6000,"station_id":"ce4bh012rcd13ifvqd10","pricing_plan_id":"cebpf4jnsgd1na2vs0mg"},{"bike_id":"d54ba243-3fa7-4f57-81a5-dd9699270ba4","system_id":"levelo_inurba_marseille","lat":43.27487,"lon":5.42455,"is_reserved":false,"is_disabled":false,"rental_uris":{"android":"levelo://app?vid=d54ba243-3fa7-4f57-81a5-dd9699270ba4","ios":"levelo://app?vid=d54ba243-3fa7-4f57-81a5-dd9699270ba4"},"vehicle_type_id":"4","last_reported":1777142089,"current_range_meters":6000,"station_id":"ce4bhn92rcd13ifvqgrg","pricing_plan_id":"cebpf4jnsgd1na2vs0mg"},{"bike_id":"53dbf641-581b-4f89-95c3-72bcb77923f7","system_id":"levelo_inurba_marseille","lat":43.23966,"lon":5.3663,"is_reserved":false,"is_disabled":false,"rental_uris":{"android":"levelo://app?vid=53dbf641-581b-4f89-95c3-72bcb77923f7","ios":"levelo://app?vid=53dbf641-581b-4f89-95c3-72bcb77923f7"},"vehicle_type_id":"4","last_reported":1777142089,"current_range_meters":6000,"station_id":"ce4bhi12rcd13ifvqfp0","pricing_plan_id":"cebpf4jnsgd1na2vs0mg"},{"bike_id":"9200be72-d6d3-43ea-8b48-fa87bb44e0c8","system_id":"levelo_inurba_marseille","lat":43.28717,"lon":5.3794,"is_reserved":false,"is_disabled":false,"rental_uris":{"android":"levelo://app?vid=9200be72-d6d3-43ea-8b48-fa87bb44e0c8","ios":"levelo://app?vid=9200be72-d6d3-43ea-8b48-fa87bb44e0c8"},"vehicle_type_id":"4","last_reported":1777142089,"current_range_meters":6400,"station_id":"ce4bh9p2rcd13ifvqec0","pricing_plan_id":"cebpf4jnsgd1na2vs0mg"},{"bike_id":"64448080-9e2b-4a6e-a5eb-fd7381764743","system_id":"levelo_inurba_marseille","lat":43.24814,"lon":5.37462,"is_reserved":false,"is_disabled":false,"rental_uris":{"android":"levelo://app?vid=64448080-9e2b-4a6e-a5eb-fd7381764743","ios":"levelo://app?vid=64448080-9e2b-4a6e-a5eb-fd7381764743"},"vehicle_type_id":"4","last_reported":1777142089,"current_range_meters":6400,"station_id":"ce4bhgh2rcd13ifvqfb0","pricing_plan_id":"cebpf4jnsgd1na2vs0mg"},{"bike_id":"31bd48a0-2526-4167-9d5b-bcce2a22e1f4","system_id":"levelo_inurba_marseille","lat":43.258241,"lon":5.394437,"is_reserved":false,"is_disabled":false,"rental_uris":{"android":"levelo://app?vid=31bd48a0-2526-4167-9d5b-bcce2a22e1f4","ios":"levelo://app?vid=31bd48a0-2526-4167-9d5b-bcce2a22e1f4"},"vehicle_type_id":"4","last_reported":1777142089,"current_range_meters":6400,"station_id":"ce4bhip2rcd13ifvqft0","pricing_plan_id":"cebpf4jnsgd1na2vs0mg"},{"bike_id":"bbbc1212-7e21-40eb-8f2c-135ee6c32106","system_id":"levelo_inurba_marseille","lat":43.27624,"lon":5.36103,"is_reserved":false,"is_disabled":false,"rental_uris":{"android":"levelo://app?vid=bbbc1212-7e21-40eb-8f2c-135ee6c32106","ios":"levelo://app?vid=bbbc1212-7e21-40eb-8f2c-135ee6c32106"},"vehicle_type_id":"4","last_reported":1777142089,"current_range_meters":6400,"station_id":"ce4bgj92rcd13ifvqbe0","pricing_plan_id":"cebpf4jnsgd1na2vs0mg"},{"bike_id":"9bcb5bad-dbb2-431c-9005-5d79941461cd","system_id":"levelo_inurba_marseille","lat":43.24415,"lon":5.3705,"is_reserved":false,"is_disabled":false,"rental_uris":{"android":"levelo://app?vid=9bcb5bad-dbb2-431c-9005-5d79941461cd","ios":"levelo://app?vid=9bcb5bad-dbb2-431c-9005-5d79941461cd"},"vehicle_type_id":"4","last_reported":1777142089,"current_range_meters":6400,"station_id":"ce4bhhh2rcd13ifvqfk0","pricing_plan_id":"cebpf4jnsgd1na2vs0mg"},{"bike_id":"47cdfd85-c850-4193-aaa5-b5a23a2b2f3d","system_id":"levelo_inurba_marseille","lat":43.31096,"lon":5.37235,"is_reserved":false,"is_disabled":false,"rental_uris":{"android":"levelo://app?vid=47cdfd85-c850-4193-aaa5-b5a23a2b2f3d","ios":"levelo://app?vid=47cdfd85-c850-4193-aaa5-b5a23a2b2f3d"},"vehicle_type_id":"4","last_reported":1777142089,"current_range_meters":6400,"station_id":"st_d4kl2rp97mjs73e7tdfg","pricing_plan_id":"cebpf4jnsgd1na2vs0mg"},{"bike_id":"3c21f0ef-7f78-49a9-8bbf-12a3b7f18f2e","system_id":"levelo_inurba_marseille","lat":43.27486,"lon":5.42453,"is_reserved":false,"is_disabled":false,"rental_uris":{"android":"levelo://app?vid=3c21f0ef-7f78-49a9-8bbf-12a3b7f18f2e","ios":"levelo://app?vid=3c21f0ef-7f78-49a9-8bbf-12a3b7f18f2e"},"vehicle_type_id":"4","last_reported":1777142089,"current_range_meters":6400,"station_id":"ce4bhn92rcd13ifvqgrg","pricing_plan_id":"cebpf4jnsgd1na2vs0mg"},{"bike_id":"085eefc3-42b6-4e5f-8fa3-5e096f60ac23","system_id":"levelo_inurba_marseille","lat":43.21748,"lon":5.34616,"is_reserved":false,"is_disabled":true,"rental_uris":{"android":"levelo://app?vid=085eefc3-42b6-4e5f-8fa3-5e096f60ac23","ios":"levelo://app?vid=085eefc3-42b6-4e5f-8fa3-5e096f60ac23"},"vehicle_type_id":"4","last_reported":1777142089,"current_range_meters":6400,"station_id":"st_cvj6r9ubvosntc0bgbag","pricing_plan_id":"cebpf4jnsgd1na2vs0mg"},{"bike_id":"b7808ecd-7c49-495a-ae8b-eadddd23df3d","system_id":"levelo_inurba_marseille","lat":43.29067,"lon":5.37169,"is_reserved":false,"is_disabled":false,"rental_uris":{"android":"levelo://app?vid=b7808ecd-7c49-495a-ae8b-eadddd23df3d","ios":"levelo://app?vid=b7808ecd-7c49-495a-ae8b-eadddd23df3d"},"vehicle_type_id":"4","last_reported":1777142089,"current_range_meters":6400,"station_id":"ce4bh5p2rcd13ifvqe4g","pricing_plan_id":"cebpf4jnsgd1na2vs0mg"},{"bike_id":"1c2caaee-55b8-489a-964c-02a5a01453f3","system_id":"levelo_inurba_marseille","lat":43.28839,"lon":5.39319,"is_reserved":false,"is_disabled":false,"rental_uris":{"android":"levelo://app?vid=1c2caaee-55b8-489a-964c-02a5a01453f3","ios":"levelo://app?vid=1c2caaee-55b8-489a-964c-02a5a01453f3"},"vehicle_type_id":"4","last_reported":1777142089,"current_range_meters":6400,"station_id":"ce4bh2p2rcd13ifvqdi0","pricing_plan_id":"cebpf4jnsgd1na2vs0mg"},{"bike_id":"1b220113-281c-47e6-acd7-9d49e8223553","system_id":"levelo_inurba_marseille","lat":43.2602,"lon":5.37559,"is_reserved":false,"is_disabled":false,"rental_uris":{"android":"levelo://app?vid=1b220113-281c-47e6-acd7-9d49e8223553","ios":"levelo://app?vid=1b220113-281c-47e6-acd7-9d49e8223553"},"vehicle_type_id":"4","last_reported":1777142089,"current_range_meters":6400,"station_id":"ce4bhgh2rcd13ifvqfa0","pricing_plan_id":"cebpf4jnsgd1na2vs0mg"},{"bike_id":"ab6f758a-3eca-407e-a136-980b0d3ef21b","system_id":"levelo_inurba_marseille","lat":43.29869,"lon":5.39737,"is_reserved":false,"is_disabled":false,"rental_uris":{"android":"levelo://app?vid=ab6f758a-3eca-407e-a136-980b0d3ef21b","ios":"levelo://app?vid=ab6f758a-3eca-407e-a136-980b0d3ef21b"},"vehicle_type_id":"4","last_reported":1777142089,"current_range_meters":6400,"station_id":"ce4bh0h2rcd13ifvqd50","pricing_plan_id":"cebpf4jnsgd1na2vs0mg"},{"bike_id":"6830a6a2-57b1-4138-8073-51c787ff3315","system_id":"levelo_inurba_marseille","lat":43.29572,"lon":5.37497,"is_reserved":false,"is_disabled":false,"rental_uris":{"android":"levelo://app?vid=6830a6a2-57b1-4138-8073-51c787ff3315","ios":"levelo://app?vid=6830a6a2-57b1-4138-8073-51c787ff3315"},"vehicle_type_id":"4","last_reported":1777142089,"current_range_meters":6400,"station_id":"ce4bgh92rcd13ifvqb50","pricing_plan_id":"cebpf4jnsgd1na2vs0mg"},{"bike_id":"efd35ed0-18b4-41db-9c6d-9d7eb8b97cbd","system_id":"levelo_inurba_marseille","lat":43.31341,"lon":5.39659,"is_reserved":false,"is_disabled":false,"rental_uris":{"android":"levelo://app?vid=efd35ed0-18b4-41db-9c6d-9d7eb8b97cbd","ios":"levelo://app?vid=efd35ed0-18b4-41db-9c6d-9d7eb8b97cbd"},"vehicle_type_id":"4","last_reported":1777142089,"current_range_meters":6400,"station_id":"ce4bgvp2rcd13ifvqcu0","pricing_plan_id":"cebpf4jnsgd1na2vs0mg"},{"bike_id":"8b7c62ad-8abe-465b-915b-910b5410de34","system_id":"levelo_inurba_marseille","lat":43.27621,"lon":5.36083,"is_reserved":false,"is_disabled":false,"rental_uris":{"android":"levelo://app?vid=8b7c62ad-8abe-465b-915b-910b5410de34","ios":"levelo://app?vid=8b7c62ad-8abe-465b-915b-910b5410de34"},"vehicle_type_id":"4","last_reported":1777142089,"current_range_meters":6400,"station_id":"ce4bgj92rcd13ifvqbe0","pricing_plan_id":"cebpf4jnsgd1na2vs0mg"},{"bike_id":"ecc6bee0-4fd9-4047-b0ae-1ff637ff623b","system_id":"levelo_inurba_marseille","lat":43.24185,"lon":5.36395,"is_reserved":false,"is_disabled":false,"rental_uris":{"android":"levelo://app?vid=ecc6bee0-4fd9-4047-b0ae-1ff637ff623b","ios":"levelo://app?vid=ecc6bee0-4fd9-4047-b0ae-1ff637ff623b"},"vehicle_type_id":"4","last_reported":1777142089,"current_range_meters":6400,"station_id":"cpo36qri1sfpv3e86is0","pricing_plan_id":"cebpf4jnsgd1na2vs0mg"},{"bike_id":"1cfdc941-02f8-40cd-8818-fb2416fb8dbb","system_id":"levelo_inurba_marseille","lat":43.232,"lon":5.35552,"is_reserved":false,"is_disabled":false,"rental_uris":{"android":"levelo://app?vid=1cfdc941-02f8-40cd-8818-fb2416fb8dbb","ios":"levelo://app?vid=1cfdc941-02f8-40cd-8818-fb2416fb8dbb"},"vehicle_type_id":"4","last_reported":1777142089,"current_range_meters":6400,"station_id":"ce4bhu92rcd13ifvqi70","pricing_plan_id":"cebpf4jnsgd1na2vs0mg"},{"bike_id":"1a53a67e-9022-4580-83c0-fc3f72c9ef8d","system_id":"levelo_inurba_marseille","lat":43.29595,"lon":5.38112,"is_reserved":false,"is_disabled":false,"rental_uris":{"android":"levelo://app?vid=1a53a67e-9022-4580-83c0-fc3f72c9ef8d","ios":"levelo://app?vid=1a53a67e-9022-4580-83c0-fc3f72c9ef8d"},"vehicle_type_id":"4","last_reported":1777142089,"current_range_meters":6400,"station_id":"ce4bgl12rcd13ifvqbo0","pricing_plan_id":"cebpf4jnsgd1na2vs0mg"},{"bike_id":"df386e57-448e-4704-ac08-a5b75efa584b","system_id":"levelo_inurba_marseille","lat":43.29813,"lon":5.38095,"is_reserved":false,"is_disabled":false,"rental_uris":{"android":"levelo://app?vid=df386e57-448e-4704-ac08-a5b75efa584b","ios":"levelo://app?vid=df386e57-448e-4704-ac08-a5b75efa584b"},"vehicle_type_id":"4","last_reported":1777142089,"current_range_meters":6400,"station_id":"","pricing_plan_id":"cebpf4jnsgd1na2vs0mg"},{"bike_id":"66deb6d0-15df-4e9d-9eb1-777f05e90d1f","system_id":"levelo_inurba_marseille","lat":43.292966,"lon":5.37465,"is_reserved":false,"is_disabled":false,"rental_uris":{"android":"levelo://app?vid=66deb6d0-15df-4e9d-9eb1-777f05e90d1f","ios":"levelo://app?vid=66deb6d0-15df-4e9d-9eb1-777f05e90d1f"},"vehicle_type_id":"4","last_reported":1777142089,"current_range_meters":6400,"station_id":"ce4bgi12rcd13ifvqb70","pricing_plan_id":"cebpf4jnsgd1na2vs0mg"},{"bike_id":"594ec612-59e6-482d-9d2e-9ab931142263","system_id":"levelo_inurba_marseille","lat":43.28482,"lon":5.38402,"is_reserved":false,"is_disabled":false,"rental_uris":{"android":"levelo://app?vid=594ec612-59e6-482d-9d2e-9ab931142263","ios":"levelo://app?vid=594ec612-59e6-482d-9d2e-9ab931142263"},"vehicle_type_id":"4","last_reported":1777142089,"current_range_meters":6800,"station_id":"ce4bh512rcd13ifvqe3g","pricing_plan_id":"cebpf4jnsgd1na2vs0mg"},{"bike_id":"436c1674-c2e7-4794-b637-9b42638a162e","system_id":"levelo_inurba_marseille","lat":43.30074,"lon":5.39064,"is_reserved":false,"is_disabled":false,"rental_uris":{"android":"levelo://app?vid=436c1674-c2e7-4794-b637-9b42638a162e","ios":"levelo://app?vid=436c1674-c2e7-4794-b637-9b42638a162e"},"vehicle_type_id":"4","last_reported":1777142089,"current_range_meters":6800,"station_id":"ce4bh192rcd13ifvqdb0","pricing_plan_id":"cebpf4jnsgd1na2vs0mg"},{"bike_id":"8d715502-1f4d-495a-aba7-e255ad4122f8","system_id":"levelo_inurba_marseille","lat":43.23959,"lon":5.36624,"is_reserved":false,"is_disabled":false,"rental_uris":{"android":"levelo://app?vid=8d715502-1f4d-495a-aba7-e255ad4122f8","ios":"levelo://app?vid=8d715502-1f4d-495a-aba7-e255ad4122f8"},"vehicle_type_id":"4","last_reported":1777142089,"current_range_meters":6800,"station_id":"ce4bhi12rcd13ifvqfp0","pricing_plan_id":"cebpf4jnsgd1na2vs0mg"},{"bike_id":"c639e9dd-379a-46f8-b469-b2b3bc25eac4","system_id":"levelo_inurba_marseille","lat":43.29009,"lon":5.35616,"is_reserved":false,"is_disabled":true,"rental_uris":{"android":"levelo://app?vid=c639e9dd-379a-46f8-b469-b2b3bc25eac4","ios":"levelo://app?vid=c639e9dd-379a-46f8-b469-b2b3bc25eac4"},"vehicle_type_id":"4","last_reported":1777142089,"current_range_meters":6800,"station_id":"ce4bhb92rcd13ifvqen0","pricing_plan_id":"cebpf4jnsgd1na2vs0mg"},{"bike_id":"4bbbb14a-8fcc-43d3-a29a-3f8be7e2f321","system_id":"levelo_inurba_marseille","lat":43.29349,"lon":5.37215,"is_reserved":false,"is_disabled":false,"rental_uris":{"android":"levelo://app?vid=4bbbb14a-8fcc-43d3-a29a-3f8be7e2f321","ios":"levelo://app?vid=4bbbb14a-8fcc-43d3-a29a-3f8be7e2f321"},"vehicle_type_id":"4","last_reported":1777142089,"current_range_meters":6800,"station_id":"","pricing_plan_id":"cebpf4jnsgd1na2vs0mg"},{"bike_id":"90610949-5042-40f1-8252-076aeddd7d81","system_id":"levelo_inurba_marseille","lat":43.31927,"lon":5.36779,"is_reserved":false,"is_disabled":false,"rental_uris":{"android":"levelo://app?vid=90610949-5042-40f1-8252-076aeddd7d81","ios":"levelo://app?vid=90610949-5042-40f1-8252-076aeddd7d81"},"vehicle_type_id":"4","last_reported":1777142089,"current_range_meters":6800,"station_id":"st_d6o2h0d0559c73evc1b0","pricing_plan_id":"cebpf4jnsgd1na2vs0mg"},{"bike_id":"36fe2575-22d8-45fc-b110-398032622606","system_id":"levelo_inurba_marseille","lat":43.28469,"lon":5.38422,"is_reserved":false,"is_disabled":true,"rental_uris":{"android":"levelo://app?vid=36fe2575-22d8-45fc-b110-398032622606","ios":"levelo://app?vid=36fe2575-22d8-45fc-b110-398032622606"},"vehicle_type_id":"4","last_reported":1777142089,"current_range_meters":6800,"station_id":"ce4bh512rcd13ifvqe3g","pricing_plan_id":"cebpf4jnsgd1na2vs0mg"},{"bike_id":"f45c6cef-0c24-46b7-81bc-53822d8483bd","system_id":"levelo_inurba_marseille","lat":43.31351,"lon":5.38493,"is_reserved":false,"is_disabled":false,"rental_uris":{"android":"levelo://app?vid=f45c6cef-0c24-46b7-81bc-53822d8483bd","ios":"levelo://app?vid=f45c6cef-0c24-46b7-81bc-53822d8483bd"},"vehicle_type_id":"4","last_reported":1777142089,"current_range_meters":6800,"station_id":"ce4bgt92rcd13ifvqcf0","pricing_plan_id":"cebpf4jnsgd1na2vs0mg"},{"bike_id":"40d69b45-a292-4d7d-b8e6-837b8b5a9d0c","system_id":"levelo_inurba_marseille","lat":43.28482,"lon":5.48385,"is_reserved":false,"is_disabled":false,"rental_uris":{"android":"levelo://app?vid=40d69b45-a292-4d7d-b8e6-837b8b5a9d0c","ios":"levelo://app?vid=40d69b45-a292-4d7d-b8e6-837b8b5a9d0c"},"vehicle_type_id":"4","last_reported":1777142089,"current_range_meters":6800,"station_id":"","pricing_plan_id":"cebpf4jnsgd1na2vs0mg"},{"bike_id":"d2dd8492-3ca5-4d20-a0fc-be6121a7842d","system_id":"levelo_inurba_marseille","lat":43.31367,"lon":5.38496,"is_reserved":false,"is_disabled":false,"rental_uris":{"android":"levelo://app?vid=d2dd8492-3ca5-4d20-a0fc-be6121a7842d","ios":"levelo://app?vid=d2dd8492-3ca5-4d20-a0fc-be6121a7842d"},"vehicle_type_id":"4","last_reported":1777142089,"current_range_meters":6800,"station_id":"ce4bgt92rcd13ifvqcf0","pricing_plan_id":"cebpf4jnsgd1na2vs0mg"},{"bike_id":"c39c4448-49f0-4607-b3b5-17b48dfc7778","system_id":"levelo_inurba_marseille","lat":43.29301,"lon":5.37158,"is_reserved":false,"is_disabled":false,"rental_uris":{"android":"levelo://app?vid=c39c4448-49f0-4607-b3b5-17b48dfc7778","ios":"levelo://app?vid=c39c4448-49f0-4607-b3b5-17b48dfc7778"},"vehicle_type_id":"4","last_reported":1777142089,"current_range_meters":6800,"station_id":"ce4bgh92rcd13ifvqb40","pricing_plan_id":"cebpf4jnsgd1na2vs0mg"},{"bike_id":"a0a43e54-2226-4b6a-8d78-f47f31eeea48","system_id":"levelo_inurba_marseille","lat":43.27324,"lon":5.39073,"is_reserved":false,"is_disabled":false,"rental_uris":{"android":"levelo://app?vid=a0a43e54-2226-4b6a-8d78-f47f31eeea48","ios":"levelo://app?vid=a0a43e54-2226-4b6a-8d78-f47f31eeea48"},"vehicle_type_id":"4","last_reported":1777142089,"current_range_meters":6800,"station_id":"ce4bhgp2rcd13ifvqfe0","pricing_plan_id":"cebpf4jnsgd1na2vs0mg"},{"bike_id":"541dbded-315f-4ca8-ac49-47fcb4294bb7","system_id":"levelo_inurba_marseille","lat":43.33537,"lon":5.37451,"is_reserved":false,"is_disabled":false,"rental_uris":{"android":"levelo://app?vid=541dbded-315f-4ca8-ac49-47fcb4294bb7","ios":"levelo://app?vid=541dbded-315f-4ca8-ac49-47fcb4294bb7"},"vehicle_type_id":"4","last_reported":1777142089,"current_range_meters":6800,"station_id":"st_d46tts09ee8s73dlu43g","pricing_plan_id":"cebpf4jnsgd1na2vs0mg"},{"bike_id":"28dc652e-391e-4daa-a243-946582e83158","system_id":"levelo_inurba_marseille","lat":43.31728,"lon":5.40422,"is_reserved":false,"is_disabled":false,"rental_uris":{"android":"levelo://app?vid=28dc652e-391e-4daa-a243-946582e83158","ios":"levelo://app?vid=28dc652e-391e-4daa-a243-946582e83158"},"vehicle_type_id":"4","last_reported":1777142089,"current_range_meters":6800,"station_id":"","pricing_plan_id":"cebpf4jnsgd1na2vs0mg"},{"bike_id":"0fb5bdad-cf89-4b49-8199-c24f462ae13f","system_id":"levelo_inurba_marseille","lat":43.298805,"lon":5.388996,"is_reserved":false,"is_disabled":false,"rental_uris":{"android":"levelo://app?vid=0fb5bdad-cf89-4b49-8199-c24f462ae13f","ios":"levelo://app?vid=0fb5bdad-cf89-4b49-8199-c24f462ae13f"},"vehicle_type_id":"4","last_reported":1777142089,"current_range_meters":6800,"station_id":"ce4bh392rcd13ifvqdl0","pricing_plan_id":"cebpf4jnsgd1na2vs0mg"},{"bike_id":"5da31f44-85fc-4da3-a937-cc8d9bf4c090","system_id":"levelo_inurba_marseille","lat":43.31103,"lon":5.42417,"is_reserved":false,"is_disabled":false,"rental_uris":{"android":"levelo://app?vid=5da31f44-85fc-4da3-a937-cc8d9bf4c090","ios":"levelo://app?vid=5da31f44-85fc-4da3-a937-cc8d9bf4c090"},"vehicle_type_id":"4","last_reported":1777142089,"current_range_meters":6800,"station_id":"ce4bhp92rcd13ifvqhag","pricing_plan_id":"cebpf4jnsgd1na2vs0mg"},{"bike_id":"354385cb-cd42-4cc9-b4a2-04700bb645c3","system_id":"levelo_inurba_marseille","lat":43.24948,"lon":5.40485,"is_reserved":false,"is_disabled":false,"rental_uris":{"android":"levelo://app?vid=354385cb-cd42-4cc9-b4a2-04700bb645c3","ios":"levelo://app?vid=354385cb-cd42-4cc9-b4a2-04700bb645c3"},"vehicle_type_id":"4","last_reported":1777142089,"current_range_meters":6800,"station_id":"st_d2ngiaodas8pm72gd1h0","pricing_plan_id":"cebpf4jnsgd1na2vs0mg"},{"bike_id":"d2dc1a36-51f9-4423-a54f-f3a7a5fdf737","system_id":"levelo_inurba_marseille","lat":43.23773,"lon":5.36631,"is_reserved":false,"is_disabled":false,"rental_uris":{"android":"levelo://app?vid=d2dc1a36-51f9-4423-a54f-f3a7a5fdf737","ios":"levelo://app?vid=d2dc1a36-51f9-4423-a54f-f3a7a5fdf737"},"vehicle_type_id":"4","last_reported":1777142089,"current_range_meters":6800,"station_id":"st_d3nk18o9ro0c73en2l3g","pricing_plan_id":"cebpf4jnsgd1na2vs0mg"},{"bike_id":"bcb85a92-7bae-4534-869b-1e2905cc17b7","system_id":"levelo_inurba_marseille","lat":43.30325,"lon":5.40426,"is_reserved":false,"is_disabled":false,"rental_uris":{"android":"levelo://app?vid=bcb85a92-7bae-4534-869b-1e2905cc17b7","ios":"levelo://app?vid=bcb85a92-7bae-4534-869b-1e2905cc17b7"},"vehicle_type_id":"4","last_reported":1777142089,"current_range_meters":6800,"station_id":"ce4bh012rcd13ifvqd10","pricing_plan_id":"cebpf4jnsgd1na2vs0mg"},{"bike_id":"477c03a2-13a6-433d-9318-7ca116e87f5b","system_id":"levelo_inurba_marseille","lat":43.26951,"lon":5.38644,"is_reserved":false,"is_disabled":false,"rental_uris":{"android":"levelo://app?vid=477c03a2-13a6-433d-9318-7ca116e87f5b","ios":"levelo://app?vid=477c03a2-13a6-433d-9318-7ca116e87f5b"},"vehicle_type_id":"4","last_reported":1777142089,"current_range_meters":6800,"station_id":"ce4bhh92rcd13ifvqfh0","pricing_plan_id":"cebpf4jnsgd1na2vs0mg"},{"bike_id":"5b4ff86a-1579-4226-8d06-7aecac4e56ca","system_id":"levelo_inurba_marseille","lat":43.30171,"lon":5.36627,"is_reserved":false,"is_disabled":false,"rental_uris":{"android":"levelo://app?vid=5b4ff86a-1579-4226-8d06-7aecac4e56ca","ios":"levelo://app?vid=5b4ff86a-1579-4226-8d06-7aecac4e56ca"},"vehicle_type_id":"4","last_reported":1777142089,"current_range_meters":6800,"station_id":"ce4bgrh2rcd13ifvqc8g","pricing_plan_id":"cebpf4jnsgd1na2vs0mg"},{"bike_id":"8e89e54b-add0-444f-8e17-f9be11300c58","system_id":"levelo_inurba_marseille","lat":43.31375,"lon":5.38487,"is_reserved":false,"is_disabled":false,"rental_uris":{"android":"levelo://app?vid=8e89e54b-add0-444f-8e17-f9be11300c58","ios":"levelo://app?vid=8e89e54b-add0-444f-8e17-f9be11300c58"},"vehicle_type_id":"4","last_reported":1777142089,"current_range_meters":6800,"station_id":"ce4bgt92rcd13ifvqcf0","pricing_plan_id":"cebpf4jnsgd1na2vs0mg"},{"bike_id":"a40210db-7320-4d26-9e7f-43470ffb7ab8","system_id":"levelo_inurba_marseille","lat":43.24345,"lon":5.37014,"is_reserved":false,"is_disabled":false,"rental_uris":{"android":"levelo://app?vid=a40210db-7320-4d26-9e7f-43470ffb7ab8","ios":"levelo://app?vid=a40210db-7320-4d26-9e7f-43470ffb7ab8"},"vehicle_type_id":"4","last_reported":1777142089,"current_range_meters":7200,"station_id":"","pricing_plan_id":"cebpf4jnsgd1na2vs0mg"},{"bike_id":"4e09535f-a46c-4fd9-8c4a-595683209474","system_id":"levelo_inurba_marseille","lat":43.23986,"lon":5.36628,"is_reserved":false,"is_disabled":false,"rental_uris":{"android":"levelo://app?vid=4e09535f-a46c-4fd9-8c4a-595683209474","ios":"levelo://app?vid=4e09535f-a46c-4fd9-8c4a-595683209474"},"vehicle_type_id":"4","last_reported":1777142089,"current_range_meters":7200,"station_id":"ce4bhi12rcd13ifvqfp0","pricing_plan_id":"cebpf4jnsgd1na2vs0mg"},{"bike_id":"19ca21ff-92f3-46a1-b1dc-c5d64c8d102f","system_id":"levelo_inurba_marseille","lat":43.23973,"lon":5.36626,"is_reserved":false,"is_disabled":false,"rental_uris":{"android":"levelo://app?vid=19ca21ff-92f3-46a1-b1dc-c5d64c8d102f","ios":"levelo://app?vid=19ca21ff-92f3-46a1-b1dc-c5d64c8d102f"},"vehicle_type_id":"4","last_reported":1777142089,"current_range_meters":7200,"station_id":"ce4bhi12rcd13ifvqfp0","pricing_plan_id":"cebpf4jnsgd1na2vs0mg"},{"bike_id":"ca045976-1c17-4569-93a0-302525638f0c","system_id":"levelo_inurba_marseille","lat":43.28576,"lon":5.39493,"is_reserved":false,"is_disabled":false,"rental_uris":{"android":"levelo://app?vid=ca045976-1c17-4569-93a0-302525638f0c","ios":"levelo://app?vid=ca045976-1c17-4569-93a0-302525638f0c"},"vehicle_type_id":"4","last_reported":1777142089,"current_range_meters":7200,"station_id":"ce4bh292rcd13ifvqdg0","pricing_plan_id":"cebpf4jnsgd1na2vs0mg"},{"bike_id":"e5bab3d4-51df-40f4-acb7-898a38cfd436","system_id":"levelo_inurba_marseille","lat":43.21183,"lon":5.35071,"is_reserved":false,"is_disabled":false,"rental_uris":{"android":"levelo://app?vid=e5bab3d4-51df-40f4-acb7-898a38cfd436","ios":"levelo://app?vid=e5bab3d4-51df-40f4-acb7-898a38cfd436"},"vehicle_type_id":"4","last_reported":1777142089,"current_range_meters":7200,"station_id":"st_cvj6sg6p6f1abm77japg","pricing_plan_id":"cebpf4jnsgd1na2vs0mg"},{"bike_id":"af17ae5c-1230-49ce-b9e2-43b0d4f25b31","system_id":"levelo_inurba_marseille","lat":43.29299,"lon":5.37467,"is_reserved":false,"is_disabled":false,"rental_uris":{"android":"levelo://app?vid=af17ae5c-1230-49ce-b9e2-43b0d4f25b31","ios":"levelo://app?vid=af17ae5c-1230-49ce-b9e2-43b0d4f25b31"},"vehicle_type_id":"4","last_reported":1777142089,"current_range_meters":7200,"station_id":"ce4bgi12rcd13ifvqb70","pricing_plan_id":"cebpf4jnsgd1na2vs0mg"},{"bike_id":"548e4a82-32b2-49d2-a8d0-a6b1676f8a48","system_id":"levelo_inurba_marseille","lat":43.32491,"lon":5.36572,"is_reserved":false,"is_disabled":false,"rental_uris":{"android":"levelo://app?vid=548e4a82-32b2-49d2-a8d0-a6b1676f8a48","ios":"levelo://app?vid=548e4a82-32b2-49d2-a8d0-a6b1676f8a48"},"vehicle_type_id":"4","last_reported":1777142089,"current_range_meters":7200,"station_id":"ce4bhs12rcd13ifvqhvg","pricing_plan_id":"cebpf4jnsgd1na2vs0mg"},{"bike_id":"a4b333a0-7fa7-42c6-a7d4-7b2b56a0efa1","system_id":"levelo_inurba_marseille","lat":43.29017,"lon":5.38658,"is_reserved":false,"is_disabled":false,"rental_uris":{"android":"levelo://app?vid=a4b333a0-7fa7-42c6-a7d4-7b2b56a0efa1","ios":"levelo://app?vid=a4b333a0-7fa7-42c6-a7d4-7b2b56a0efa1"},"vehicle_type_id":"4","last_reported":1777142089,"current_range_meters":7200,"station_id":"ce4bh4p2rcd13ifvqe0g","pricing_plan_id":"cebpf4jnsgd1na2vs0mg"},{"bike_id":"d1d5c7cf-8e64-4123-ad8a-ccd792fc4d10","system_id":"levelo_inurba_marseille","lat":43.29337,"lon":5.39877,"is_reserved":false,"is_disabled":false,"rental_uris":{"android":"levelo://app?vid=d1d5c7cf-8e64-4123-ad8a-ccd792fc4d10","ios":"levelo://app?vid=d1d5c7cf-8e64-4123-ad8a-ccd792fc4d10"},"vehicle_type_id":"4","last_reported":1777142089,"current_range_meters":7200,"station_id":"","pricing_plan_id":"cebpf4jnsgd1na2vs0mg"},{"bike_id":"00cadce8-7903-4092-8b5c-5695ce27b5b2","system_id":"levelo_inurba_marseille","lat":43.2956,"lon":5.38529,"is_reserved":false,"is_disabled":true,"rental_uris":{"android":"levelo://app?vid=00cadce8-7903-4092-8b5c-5695ce27b5b2","ios":"levelo://app?vid=00cadce8-7903-4092-8b5c-5695ce27b5b2"},"vehicle_type_id":"4","last_reported":1777142089,"current_range_meters":7200,"station_id":"ce4bgih2rcd13ifvqba0","pricing_plan_id":"cebpf4jnsgd1na2vs0mg"},{"bike_id":"3cc37908-32a6-4dbb-bca1-e1b546196cc1","system_id":"levelo_inurba_marseille","lat":43.29244,"lon":5.38441,"is_reserved":false,"is_disabled":false,"rental_uris":{"android":"levelo://app?vid=3cc37908-32a6-4dbb-bca1-e1b546196cc1","ios":"levelo://app?vid=3cc37908-32a6-4dbb-bca1-e1b546196cc1"},"vehicle_type_id":"4","last_reported":1777142089,"current_range_meters":7200,"station_id":"ce4bh692rcd13ifvqea0","pricing_plan_id":"cebpf4jnsgd1na2vs0mg"},{"bike_id":"85e28e2a-2421-4551-a813-382122811cec","system_id":"levelo_inurba_marseille","lat":43.31874,"lon":5.36817,"is_reserved":false,"is_disabled":false,"rental_uris":{"android":"levelo://app?vid=85e28e2a-2421-4551-a813-382122811cec","ios":"levelo://app?vid=85e28e2a-2421-4551-a813-382122811cec"},"vehicle_type_id":"4","last_reported":1777142089,"current_range_meters":7200,"station_id":"st_d6o2h0d0559c73evc1b0","pricing_plan_id":"cebpf4jnsgd1na2vs0mg"},{"bike_id":"f1047fff-f193-467c-a44c-f7f0a9c4cbe1","system_id":"levelo_inurba_marseille","lat":43.29256,"lon":5.38423,"is_reserved":false,"is_disabled":false,"rental_uris":{"android":"levelo://app?vid=f1047fff-f193-467c-a44c-f7f0a9c4cbe1","ios":"levelo://app?vid=f1047fff-f193-467c-a44c-f7f0a9c4cbe1"},"vehicle_type_id":"4","last_reported":1777142089,"current_range_meters":7200,"station_id":"ce4bh692rcd13ifvqea0","pricing_plan_id":"cebpf4jnsgd1na2vs0mg"},{"bike_id":"3deb095f-0346-4d9f-aae1-8d59d80b3d6e","system_id":"levelo_inurba_marseille","lat":43.24404,"lon":5.37062,"is_reserved":false,"is_disabled":false,"rental_uris":{"android":"levelo://app?vid=3deb095f-0346-4d9f-aae1-8d59d80b3d6e","ios":"levelo://app?vid=3deb095f-0346-4d9f-aae1-8d59d80b3d6e"},"vehicle_type_id":"4","last_reported":1777142089,"current_range_meters":7200,"station_id":"ce4bhhh2rcd13ifvqfk0","pricing_plan_id":"cebpf4jnsgd1na2vs0mg"},{"bike_id":"90fac789-06e9-4c33-94b9-e82543e03c21","system_id":"levelo_inurba_marseille","lat":43.22561,"lon":5.41626,"is_reserved":false,"is_disabled":true,"rental_uris":{"android":"levelo://app?vid=90fac789-06e9-4c33-94b9-e82543e03c21","ios":"levelo://app?vid=90fac789-06e9-4c33-94b9-e82543e03c21"},"vehicle_type_id":"4","last_reported":1777142089,"current_range_meters":7200,"station_id":"st_d2o4gvlbi1j2169b742g","pricing_plan_id":"cebpf4jnsgd1na2vs0mg"},{"bike_id":"7925a045-73c0-4f98-927e-f88f512d0cf4","system_id":"levelo_inurba_marseille","lat":43.23891,"lon":5.37459,"is_reserved":false,"is_disabled":false,"rental_uris":{"android":"levelo://app?vid=7925a045-73c0-4f98-927e-f88f512d0cf4","ios":"levelo://app?vid=7925a045-73c0-4f98-927e-f88f512d0cf4"},"vehicle_type_id":"4","last_reported":1777142089,"current_range_meters":7200,"station_id":"st_d6sm7csbq4hs73f8fpjg","pricing_plan_id":"cebpf4jnsgd1na2vs0mg"},{"bike_id":"eae15767-1273-4c97-a72b-146c0cc1aa60","system_id":"levelo_inurba_marseille","lat":43.30429,"lon":5.39749,"is_reserved":false,"is_disabled":false,"rental_uris":{"android":"levelo://app?vid=eae15767-1273-4c97-a72b-146c0cc1aa60","ios":"levelo://app?vid=eae15767-1273-4c97-a72b-146c0cc1aa60"},"vehicle_type_id":"4","last_reported":1777142089,"current_range_meters":8000,"station_id":"ce4bh092rcd13ifvqd20","pricing_plan_id":"cebpf4jnsgd1na2vs0mg"},{"bike_id":"413e4623-e4a6-44c0-8fe0-f06c3e224af8","system_id":"levelo_inurba_marseille","lat":43.31915,"lon":5.36788,"is_reserved":false,"is_disabled":false,"rental_uris":{"android":"levelo://app?vid=413e4623-e4a6-44c0-8fe0-f06c3e224af8","ios":"levelo://app?vid=413e4623-e4a6-44c0-8fe0-f06c3e224af8"},"vehicle_type_id":"4","last_reported":1777142089,"current_range_meters":8000,"station_id":"st_d6o2h0d0559c73evc1b0","pricing_plan_id":"cebpf4jnsgd1na2vs0mg"},{"bike_id":"0cd2fd7c-6402-466e-aa1b-fa186d7a7ed3","system_id":"levelo_inurba_marseille","lat":43.33194,"lon":5.37792,"is_reserved":false,"is_disabled":false,"rental_uris":{"android":"levelo://app?vid=0cd2fd7c-6402-466e-aa1b-fa186d7a7ed3","ios":"levelo://app?vid=0cd2fd7c-6402-466e-aa1b-fa186d7a7ed3"},"vehicle_type_id":"4","last_reported":1777142089,"current_range_meters":8000,"station_id":"","pricing_plan_id":"cebpf4jnsgd1na2vs0mg"},{"bike_id":"308f68c0-c326-4383-b2d4-3d5ce68f7df6","system_id":"levelo_inurba_marseille","lat":43.27993,"lon":5.36373,"is_reserved":false,"is_disabled":false,"rental_uris":{"android":"levelo://app?vid=308f68c0-c326-4383-b2d4-3d5ce68f7df6","ios":"levelo://app?vid=308f68c0-c326-4383-b2d4-3d5ce68f7df6"},"vehicle_type_id":"4","last_reported":1777142089,"current_range_meters":8000,"station_id":"","pricing_plan_id":"cebpf4jnsgd1na2vs0mg"},{"bike_id":"14fb6572-c823-498b-bea2-03eb3402f8ee","system_id":"levelo_inurba_marseille","lat":43.27621,"lon":5.36111,"is_reserved":false,"is_disabled":false,"rental_uris":{"android":"levelo://app?vid=14fb6572-c823-498b-bea2-03eb3402f8ee","ios":"levelo://app?vid=14fb6572-c823-498b-bea2-03eb3402f8ee"},"vehicle_type_id":"4","last_reported":1777142089,"current_range_meters":8000,"station_id":"ce4bgj92rcd13ifvqbe0","pricing_plan_id":"cebpf4jnsgd1na2vs0mg"},{"bike_id":"27cd71a7-0940-4415-a67f-21597fbf1cd9","system_id":"levelo_inurba_marseille","lat":43.34886,"lon":5.37377,"is_reserved":false,"is_disabled":false,"rental_uris":{"android":"levelo://app?vid=27cd71a7-0940-4415-a67f-21597fbf1cd9","ios":"levelo://app?vid=27cd71a7-0940-4415-a67f-21597fbf1cd9"},"vehicle_type_id":"4","last_reported":1777142089,"current_range_meters":8000,"station_id":"","pricing_plan_id":"cebpf4jnsgd1na2vs0mg"},{"bike_id":"cd5ae753-0ce4-45ab-886c-3f79fabdb3b1","system_id":"levelo_inurba_marseille","lat":43.24786,"lon":5.37468,"is_reserved":false,"is_disabled":false,"rental_uris":{"android":"levelo://app?vid=cd5ae753-0ce4-45ab-886c-3f79fabdb3b1","ios":"levelo://app?vid=cd5ae753-0ce4-45ab-886c-3f79fabdb3b1"},"vehicle_type_id":"4","last_reported":1777142089,"current_range_meters":8000,"station_id":"ce4bhgh2rcd13ifvqfb0","pricing_plan_id":"cebpf4jnsgd1na2vs0mg"},{"bike_id":"044ce3d4-5f89-49a7-a22e-6dad240318c7","system_id":"levelo_inurba_marseille","lat":43.31288,"lon":5.40174,"is_reserved":false,"is_disabled":false,"rental_uris":{"android":"levelo://app?vid=044ce3d4-5f89-49a7-a22e-6dad240318c7","ios":"levelo://app?vid=044ce3d4-5f89-49a7-a22e-6dad240318c7"},"vehicle_type_id":"4","last_reported":1777142089,"current_range_meters":8000,"station_id":"ce4bh092rcd13ifvqd30","pricing_plan_id":"cebpf4jnsgd1na2vs0mg"},{"bike_id":"a03ce919-3949-4c06-bbb8-c0f13ba943b2","system_id":"levelo_inurba_marseille","lat":43.2552,"lon":5.37654,"is_reserved":false,"is_disabled":true,"rental_uris":{"android":"levelo://app?vid=a03ce919-3949-4c06-bbb8-c0f13ba943b2","ios":"levelo://app?vid=a03ce919-3949-4c06-bbb8-c0f13ba943b2"},"vehicle_type_id":"4","last_reported":1777142089,"current_range_meters":8000,"station_id":"ce4bhh12rcd13ifvqff0","pricing_plan_id":"cebpf4jnsgd1na2vs0mg"},{"bike_id":"ace34436-51fe-4536-a1f6-cfa009f56977","system_id":"levelo_inurba_marseille","lat":43.33579,"lon":5.37448,"is_reserved":false,"is_disabled":false,"rental_uris":{"android":"levelo://app?vid=ace34436-51fe-4536-a1f6-cfa009f56977","ios":"levelo://app?vid=ace34436-51fe-4536-a1f6-cfa009f56977"},"vehicle_type_id":"4","last_reported":1777142089,"current_range_meters":8000,"station_id":"st_d46tts09ee8s73dlu43g","pricing_plan_id":"cebpf4jnsgd1na2vs0mg"},{"bike_id":"5d3fd44c-b59d-41d4-a478-9d5eb2e2ef58","system_id":"levelo_inurba_marseille","lat":43.30374,"lon":5.42485,"is_reserved":false,"is_disabled":false,"rental_uris":{"android":"levelo://app?vid=5d3fd44c-b59d-41d4-a478-9d5eb2e2ef58","ios":"levelo://app?vid=5d3fd44c-b59d-41d4-a478-9d5eb2e2ef58"},"vehicle_type_id":"4","last_reported":1777142089,"current_range_meters":8000,"station_id":"ce4bhoh2rcd13ifvqh6g","pricing_plan_id":"cebpf4jnsgd1na2vs0mg"},{"bike_id":"9a179763-1687-4b2b-8886-1b18924799ad","system_id":"levelo_inurba_marseille","lat":43.25859,"lon":5.399,"is_reserved":false,"is_disabled":false,"rental_uris":{"android":"levelo://app?vid=9a179763-1687-4b2b-8886-1b18924799ad","ios":"levelo://app?vid=9a179763-1687-4b2b-8886-1b18924799ad"},"vehicle_type_id":"4","last_reported":1777142089,"current_range_meters":8000,"station_id":"ce4bhl92rcd13ifvqghg","pricing_plan_id":"cebpf4jnsgd1na2vs0mg"},{"bike_id":"17fe3f56-b486-40dd-ac6a-710ede14c97d","system_id":"levelo_inurba_marseille","lat":43.314869,"lon":5.373029,"is_reserved":false,"is_disabled":false,"rental_uris":{"android":"levelo://app?vid=17fe3f56-b486-40dd-ac6a-710ede14c97d","ios":"levelo://app?vid=17fe3f56-b486-40dd-ac6a-710ede14c97d"},"vehicle_type_id":"4","last_reported":1777142089,"current_range_meters":8000,"station_id":"","pricing_plan_id":"cebpf4jnsgd1na2vs0mg"},{"bike_id":"81df374b-78e5-4afd-9272-8119b942b935","system_id":"levelo_inurba_marseille","lat":43.24179,"lon":5.36385,"is_reserved":false,"is_disabled":false,"rental_uris":{"android":"levelo://app?vid=81df374b-78e5-4afd-9272-8119b942b935","ios":"levelo://app?vid=81df374b-78e5-4afd-9272-8119b942b935"},"vehicle_type_id":"4","last_reported":1777142089,"current_range_meters":8000,"station_id":"cpo36qri1sfpv3e86is0","pricing_plan_id":"cebpf4jnsgd1na2vs0mg"},{"bike_id":"7df5a73c-54d9-4df0-a5db-351499d6dc87","system_id":"levelo_inurba_marseille","lat":43.33156,"lon":5.3769,"is_reserved":false,"is_disabled":false,"rental_uris":{"android":"levelo://app?vid=7df5a73c-54d9-4df0-a5db-351499d6dc87","ios":"levelo://app?vid=7df5a73c-54d9-4df0-a5db-351499d6dc87"},"vehicle_type_id":"4","last_reported":1777142089,"current_range_meters":8000,"station_id":"st_d46cu089ee8s73dldbu0","pricing_plan_id":"cebpf4jnsgd1na2vs0mg"},{"bike_id":"06558e5b-846f-4e20-b375-c8972d75dc5a","system_id":"levelo_inurba_marseille","lat":43.27342,"lon":5.43117,"is_reserved":false,"is_disabled":false,"rental_uris":{"android":"levelo://app?vid=06558e5b-846f-4e20-b375-c8972d75dc5a","ios":"levelo://app?vid=06558e5b-846f-4e20-b375-c8972d75dc5a"},"vehicle_type_id":"4","last_reported":1777142089,"current_range_meters":8000,"station_id":"","pricing_plan_id":"cebpf4jnsgd1na2vs0mg"},{"bike_id":"2ac72f42-4414-46dd-8ec4-bd5b970d98e0","system_id":"levelo_inurba_marseille","lat":43.30954,"lon":5.39022,"is_reserved":false,"is_disabled":false,"rental_uris":{"android":"levelo://app?vid=2ac72f42-4414-46dd-8ec4-bd5b970d98e0","ios":"levelo://app?vid=2ac72f42-4414-46dd-8ec4-bd5b970d98e0"},"vehicle_type_id":"4","last_reported":1777142089,"current_range_meters":8000,"station_id":"ce4bgup2rcd13ifvqco0","pricing_plan_id":"cebpf4jnsgd1na2vs0mg"},{"bike_id":"f6bd4c2a-309e-4e27-bf6f-d86946388ea4","system_id":"levelo_inurba_marseille","lat":43.29563,"lon":5.3749,"is_reserved":false,"is_disabled":false,"rental_uris":{"android":"levelo://app?vid=f6bd4c2a-309e-4e27-bf6f-d86946388ea4","ios":"levelo://app?vid=f6bd4c2a-309e-4e27-bf6f-d86946388ea4"},"vehicle_type_id":"4","last_reported":1777142089,"current_range_meters":8000,"station_id":"ce4bgh92rcd13ifvqb50","pricing_plan_id":"cebpf4jnsgd1na2vs0mg"},{"bike_id":"7f14f307-ed9b-4bde-a995-2c9126a5e681","system_id":"levelo_inurba_marseille","lat":43.30481,"lon":5.37857,"is_reserved":false,"is_disabled":true,"rental_uris":{"android":"levelo://app?vid=7f14f307-ed9b-4bde-a995-2c9126a5e681","ios":"levelo://app?vid=7f14f307-ed9b-4bde-a995-2c9126a5e681"},"vehicle_type_id":"4","last_reported":1777142089,"current_range_meters":8000,"station_id":"ce4bgup2rcd13ifvqcn0","pricing_plan_id":"cebpf4jnsgd1na2vs0mg"},{"bike_id":"73b29586-6035-4b17-8f89-10c778399a16","system_id":"levelo_inurba_marseille","lat":43.31993,"lon":5.38146,"is_reserved":false,"is_disabled":false,"rental_uris":{"android":"levelo://app?vid=73b29586-6035-4b17-8f89-10c778399a16","ios":"levelo://app?vid=73b29586-6035-4b17-8f89-10c778399a16"},"vehicle_type_id":"4","last_reported":1777142089,"current_range_meters":8000,"station_id":"ce4bhr12rcd13ifvqhpg","pricing_plan_id":"cebpf4jnsgd1na2vs0mg"},{"bike_id":"31166bba-88bf-44aa-8777-85a9c5634847","system_id":"levelo_inurba_marseille","lat":43.28712,"lon":5.37953,"is_reserved":false,"is_disabled":false,"rental_uris":{"android":"levelo://app?vid=31166bba-88bf-44aa-8777-85a9c5634847","ios":"levelo://app?vid=31166bba-88bf-44aa-8777-85a9c5634847"},"vehicle_type_id":"4","last_reported":1777142089,"current_range_meters":8000,"station_id":"ce4bh9p2rcd13ifvqec0","pricing_plan_id":"cebpf4jnsgd1na2vs0mg"},{"bike_id":"a8efdf94-3910-4fe8-9ec0-bdf906b9c60c","system_id":"levelo_inurba_marseille","lat":43.30967,"lon":5.39028,"is_reserved":false,"is_disabled":false,"rental_uris":{"android":"levelo://app?vid=a8efdf94-3910-4fe8-9ec0-bdf906b9c60c","ios":"levelo://app?vid=a8efdf94-3910-4fe8-9ec0-bdf906b9c60c"},"vehicle_type_id":"4","last_reported":1777142089,"current_range_meters":8000,"station_id":"ce4bgup2rcd13ifvqco0","pricing_plan_id":"cebpf4jnsgd1na2vs0mg"},{"bike_id":"370fcdc4-a958-4ffd-bbe5-ab43cbfa9717","system_id":"levelo_inurba_marseille","lat":43.27551,"lon":5.38418,"is_reserved":false,"is_disabled":false,"rental_uris":{"android":"levelo://app?vid=370fcdc4-a958-4ffd-bbe5-ab43cbfa9717","ios":"levelo://app?vid=370fcdc4-a958-4ffd-bbe5-ab43cbfa9717"},"vehicle_type_id":"4","last_reported":1777142089,"current_range_meters":8000,"station_id":"ce4bhh92rcd13ifvqfi0","pricing_plan_id":"cebpf4jnsgd1na2vs0mg"},{"bike_id":"bfa7c1d6-71d5-4139-8708-a911840c9801","system_id":"levelo_inurba_marseille","lat":43.28467,"lon":5.38533,"is_reserved":false,"is_disabled":true,"rental_uris":{"android":"levelo://app?vid=bfa7c1d6-71d5-4139-8708-a911840c9801","ios":"levelo://app?vid=bfa7c1d6-71d5-4139-8708-a911840c9801"},"vehicle_type_id":"4","last_reported":1777142089,"current_range_meters":8400,"station_id":"ce4bh8p2rcd13ifvqeb0","pricing_plan_id":"cebpf4jnsgd1na2vs0mg"},{"bike_id":"7f1337a2-a2ec-4515-8410-88abd757ca57","system_id":"levelo_inurba_marseille","lat":43.302881,"lon":5.404401,"is_reserved":false,"is_disabled":false,"rental_uris":{"android":"levelo://app?vid=7f1337a2-a2ec-4515-8410-88abd757ca57","ios":"levelo://app?vid=7f1337a2-a2ec-4515-8410-88abd757ca57"},"vehicle_type_id":"4","last_reported":1777142089,"current_range_meters":8400,"station_id":"ce4bh012rcd13ifvqd10","pricing_plan_id":"cebpf4jnsgd1na2vs0mg"},{"bike_id":"9a7c39d8-ef30-4694-b180-b6fe0a089530","system_id":"levelo_inurba_marseille","lat":43.30114,"lon":5.4311,"is_reserved":false,"is_disabled":false,"rental_uris":{"android":"levelo://app?vid=9a7c39d8-ef30-4694-b180-b6fe0a089530","ios":"levelo://app?vid=9a7c39d8-ef30-4694-b180-b6fe0a089530"},"vehicle_type_id":"4","last_reported":1777142089,"current_range_meters":8400,"station_id":"st_d3js3co5814s73ftftug","pricing_plan_id":"cebpf4jnsgd1na2vs0mg"},{"bike_id":"2603c559-7e0e-4179-8aa6-46bc0e3a86a6","system_id":"levelo_inurba_marseille","lat":43.29726,"lon":5.37681,"is_reserved":false,"is_disabled":false,"rental_uris":{"android":"levelo://app?vid=2603c559-7e0e-4179-8aa6-46bc0e3a86a6","ios":"levelo://app?vid=2603c559-7e0e-4179-8aa6-46bc0e3a86a6"},"vehicle_type_id":"4","last_reported":1777142089,"current_range_meters":8400,"station_id":"ce4bgkh2rcd13ifvqbl0","pricing_plan_id":"cebpf4jnsgd1na2vs0mg"},{"bike_id":"7ac59c81-01df-4b8e-9807-86f926b0041a","system_id":"levelo_inurba_marseille","lat":43.28094,"lon":5.39133,"is_reserved":false,"is_disabled":false,"rental_uris":{"android":"levelo://app?vid=7ac59c81-01df-4b8e-9807-86f926b0041a","ios":"levelo://app?vid=7ac59c81-01df-4b8e-9807-86f926b0041a"},"vehicle_type_id":"4","last_reported":1777142089,"current_range_meters":8400,"station_id":"","pricing_plan_id":"cebpf4jnsgd1na2vs0mg"},{"bike_id":"b34c9baf-e738-45ca-a796-61f6cce4fc3f","system_id":"levelo_inurba_marseille","lat":43.29251,"lon":5.38434,"is_reserved":false,"is_disabled":false,"rental_uris":{"android":"levelo://app?vid=b34c9baf-e738-45ca-a796-61f6cce4fc3f","ios":"levelo://app?vid=b34c9baf-e738-45ca-a796-61f6cce4fc3f"},"vehicle_type_id":"4","last_reported":1777142089,"current_range_meters":8400,"station_id":"ce4bh692rcd13ifvqea0","pricing_plan_id":"cebpf4jnsgd1na2vs0mg"},{"bike_id":"5687bcf3-d7dc-457c-91e4-c37491638fcd","system_id":"levelo_inurba_marseille","lat":43.24164,"lon":5.36399,"is_reserved":false,"is_disabled":false,"rental_uris":{"android":"levelo://app?vid=5687bcf3-d7dc-457c-91e4-c37491638fcd","ios":"levelo://app?vid=5687bcf3-d7dc-457c-91e4-c37491638fcd"},"vehicle_type_id":"4","last_reported":1777142089,"current_range_meters":8400,"station_id":"cpo36qri1sfpv3e86is0","pricing_plan_id":"cebpf4jnsgd1na2vs0mg"},{"bike_id":"70c7e508-dee8-4c48-84ef-dd92c8416275","system_id":"levelo_inurba_marseille","lat":43.24206,"lon":5.36386,"is_reserved":false,"is_disabled":false,"rental_uris":{"android":"levelo://app?vid=70c7e508-dee8-4c48-84ef-dd92c8416275","ios":"levelo://app?vid=70c7e508-dee8-4c48-84ef-dd92c8416275"},"vehicle_type_id":"4","last_reported":1777142089,"current_range_meters":8400,"station_id":"cpo36qri1sfpv3e86is0","pricing_plan_id":"cebpf4jnsgd1na2vs0mg"},{"bike_id":"170f9fa3-5911-4bf7-bd72-41d01ffc44dd","system_id":"levelo_inurba_marseille","lat":43.30948,"lon":5.39034,"is_reserved":false,"is_disabled":false,"rental_uris":{"android":"levelo://app?vid=170f9fa3-5911-4bf7-bd72-41d01ffc44dd","ios":"levelo://app?vid=170f9fa3-5911-4bf7-bd72-41d01ffc44dd"},"vehicle_type_id":"4","last_reported":1777142089,"current_range_meters":8400,"station_id":"ce4bgup2rcd13ifvqco0","pricing_plan_id":"cebpf4jnsgd1na2vs0mg"},{"bike_id":"4d933abc-d857-4449-ace5-4e57fc94654b","system_id":"levelo_inurba_marseille","lat":43.29172,"lon":5.38599,"is_reserved":false,"is_disabled":false,"rental_uris":{"android":"levelo://app?vid=4d933abc-d857-4449-ace5-4e57fc94654b","ios":"levelo://app?vid=4d933abc-d857-4449-ace5-4e57fc94654b"},"vehicle_type_id":"4","last_reported":1777142089,"current_range_meters":8400,"station_id":"","pricing_plan_id":"cebpf4jnsgd1na2vs0mg"},{"bike_id":"fea5a28c-0167-4a62-9062-e629ed9b3e8f","system_id":"levelo_inurba_marseille","lat":43.28472,"lon":5.48403,"is_reserved":false,"is_disabled":false,"rental_uris":{"android":"levelo://app?vid=fea5a28c-0167-4a62-9062-e629ed9b3e8f","ios":"levelo://app?vid=fea5a28c-0167-4a62-9062-e629ed9b3e8f"},"vehicle_type_id":"4","last_reported":1777142089,"current_range_meters":8400,"station_id":"st_d3svhcjqgbts73a3dn0g","pricing_plan_id":"cebpf4jnsgd1na2vs0mg"},{"bike_id":"648bc781-8e68-4ccd-aedc-987a153e904f","system_id":"levelo_inurba_marseille","lat":43.29265,"lon":5.38457,"is_reserved":false,"is_disabled":false,"rental_uris":{"android":"levelo://app?vid=648bc781-8e68-4ccd-aedc-987a153e904f","ios":"levelo://app?vid=648bc781-8e68-4ccd-aedc-987a153e904f"},"vehicle_type_id":"4","last_reported":1777142089,"current_range_meters":8400,"station_id":"ce4bh692rcd13ifvqea0","pricing_plan_id":"cebpf4jnsgd1na2vs0mg"},{"bike_id":"e79bde01-2f2e-4687-9114-2908a926683e","system_id":"levelo_inurba_marseille","lat":43.33543,"lon":5.3747,"is_reserved":false,"is_disabled":false,"rental_uris":{"android":"levelo://app?vid=e79bde01-2f2e-4687-9114-2908a926683e","ios":"levelo://app?vid=e79bde01-2f2e-4687-9114-2908a926683e"},"vehicle_type_id":"4","last_reported":1777142089,"current_range_meters":8400,"station_id":"st_d46tts09ee8s73dlu43g","pricing_plan_id":"cebpf4jnsgd1na2vs0mg"},{"bike_id":"2b011dfd-b31a-42cc-be3f-96f7ba6133ca","system_id":"levelo_inurba_marseille","lat":43.30972,"lon":5.39065,"is_reserved":false,"is_disabled":false,"rental_uris":{"android":"levelo://app?vid=2b011dfd-b31a-42cc-be3f-96f7ba6133ca","ios":"levelo://app?vid=2b011dfd-b31a-42cc-be3f-96f7ba6133ca"},"vehicle_type_id":"4","last_reported":1777142089,"current_range_meters":8400,"station_id":"ce4bgup2rcd13ifvqco0","pricing_plan_id":"cebpf4jnsgd1na2vs0mg"},{"bike_id":"09b781c5-07ce-4225-9496-87b04af98e8a","system_id":"levelo_inurba_marseille","lat":43.31894,"lon":5.36809,"is_reserved":false,"is_disabled":false,"rental_uris":{"android":"levelo://app?vid=09b781c5-07ce-4225-9496-87b04af98e8a","ios":"levelo://app?vid=09b781c5-07ce-4225-9496-87b04af98e8a"},"vehicle_type_id":"4","last_reported":1777142089,"current_range_meters":8400,"station_id":"st_d6o2h0d0559c73evc1b0","pricing_plan_id":"cebpf4jnsgd1na2vs0mg"},{"bike_id":"f9abfc14-4984-4633-bfe0-edc7f68db5b6","system_id":"levelo_inurba_marseille","lat":43.29307,"lon":5.37439,"is_reserved":false,"is_disabled":false,"rental_uris":{"android":"levelo://app?vid=f9abfc14-4984-4633-bfe0-edc7f68db5b6","ios":"levelo://app?vid=f9abfc14-4984-4633-bfe0-edc7f68db5b6"},"vehicle_type_id":"4","last_reported":1777142089,"current_range_meters":8400,"station_id":"ce4bgi12rcd13ifvqb70","pricing_plan_id":"cebpf4jnsgd1na2vs0mg"},{"bike_id":"7b485935-d17f-42a8-a305-002f529f6d15","system_id":"levelo_inurba_marseille","lat":43.30947,"lon":5.3903,"is_reserved":false,"is_disabled":false,"rental_uris":{"android":"levelo://app?vid=7b485935-d17f-42a8-a305-002f529f6d15","ios":"levelo://app?vid=7b485935-d17f-42a8-a305-002f529f6d15"},"vehicle_type_id":"4","last_reported":1777142089,"current_range_meters":8400,"station_id":"ce4bgup2rcd13ifvqco0","pricing_plan_id":"cebpf4jnsgd1na2vs0mg"},{"bike_id":"86ca0180-cdb2-4a00-99a0-17b345712f77","system_id":"levelo_inurba_marseille","lat":43.28837,"lon":5.39304,"is_reserved":false,"is_disabled":false,"rental_uris":{"android":"levelo://app?vid=86ca0180-cdb2-4a00-99a0-17b345712f77","ios":"levelo://app?vid=86ca0180-cdb2-4a00-99a0-17b345712f77"},"vehicle_type_id":"4","last_reported":1777142089,"current_range_meters":8400,"station_id":"ce4bh2p2rcd13ifvqdi0","pricing_plan_id":"cebpf4jnsgd1na2vs0mg"},{"bike_id":"d1f6968a-81c2-4b32-b7e6-f947487a144f","system_id":"levelo_inurba_marseille","lat":43.296368,"lon":5.3779,"is_reserved":false,"is_disabled":false,"rental_uris":{"android":"levelo://app?vid=d1f6968a-81c2-4b32-b7e6-f947487a144f","ios":"levelo://app?vid=d1f6968a-81c2-4b32-b7e6-f947487a144f"},"vehicle_type_id":"4","last_reported":1777142089,"current_range_meters":8400,"station_id":"ce4bgip2rcd13ifvqbb0","pricing_plan_id":"cebpf4jnsgd1na2vs0mg"},