{"last_updated":1753301574,"ttl":60,"version":"2.2","data":{"bikes":[{"bike_id":"9cb726da-72d0-44e4-830c-69a1c23bdf3c","system_id":"levelo_inurba_marseille","lat":43.296232,"lon":5.371485,"is_reserved":false,"is_disabled":true,"rental_uris":{"android":"levelo://app?vid=9cb726da-72d0-44e4-830c-69a1c23bdf3c","ios":"levelo://app?vid=9cb726da-72d0-44e4-830c-69a1c23bdf3c"},"vehicle_type_id":"4","last_reported":1753301574,"current_range_meters":2800,"station_id":"ce4bgnh2rcd13ifvqc0g","pricing_plan_id":"cebpf4jnsgd1na2vs0mg"},{"bike_id":"9404c477-0d00-441c-893e-1c1873aea768","system_id":"levelo_inurba_marseille","lat":43.29003,"lon":5.35609,"is_reserved":false,"is_disabled":false,"rental_uris":{"android":"levelo://app?vid=9404c477-0d00-441c-893e-1c1873aea768","ios":"levelo://app?vid=9404c477-0d00-441c-893e-1c1873aea768"},"vehicle_type_id":"4","last_reported":1753301574,"current_range_meters":2000,"station_id":"ce4bhb92rcd13ifvqen0","pricing_plan_id":"cebpf4jnsgd1na2vs0mg"},{"bike_id":"a35e0d3b-7b45-4544-b22a-dfb6ea3016e8","system_id":"levelo_inurba_marseille","lat":43.29498,"lon":5.3818,"is_reserved":false,"is_disabled":false,"rental_uris":{"android":"levelo://app?vid=a35e0d3b-7b45-4544-b22a-dfb6ea3016e8","ios":"levelo://app?vid=a35e0d3b-7b45-4544-b22a-dfb6ea3016e8"},"vehicle_type_id":"4","last_reported":1753301574,"current_range_meters":3200,"station_id":"","pricing_plan_id":"cebpf4jnsgd1na2vs0mg"},{"bike_id":"ed0f9f65-5585-461d-be08-dcb83dc5f2bc","system_id":"levelo_inurba_marseille","lat":43.281,"lon":5.37839,"is_reserved":false,"is_disabled":false,"rental_uris":{"android":"levelo://app?vid=ed0f9f65-5585-461d-be08-dcb83dc5f2bc","ios":"levelo://app?vid=ed0f9f65-5585-461d-be08-dcb83dc5f2bc"},"vehicle_type_id":"4","last_reported":1753301574,"current_range_meters":3200,"station_id":"ce4bha12rcd13ifvqee0","pricing_plan_id":"cebpf4jnsgd1na2vs0mg"},{"bike_id":"35b58eb7-239f-4ff3-aa4c-9520de81c490","system_id":"levelo_inurba_marseille","lat":43.29549,"lon":5.39394,"is_reserved":false,"is_disabled":false,"rental_uris":{"android":"levelo://app?vid=35b58eb7-239f-4ff3-aa4c-9520de81c490","ios":"levelo://app?vid=35b58eb7-239f-4ff3-aa4c-9520de81c490"},"vehicle_type_id":"4","last_reported":1753301574,"current_range_meters":3600,"station_id":"ce4bh292rcd13ifvqdf0","pricing_plan_id":"cebpf4jnsgd1na2vs0mg"},{"bike_id":"7105257c-cf94-4486-8b0d-6e0b1685a238","system_id":"levelo_inurba_marseille","lat":43.28425,"lon":5.3499,"is_reserved":false,"is_disabled":false,"rental_uris":{"android":"levelo://app?vid=7105257c-cf94-4486-8b0d-6e0b1685a238","ios":"levelo://app?vid=7105257c-cf94-4486-8b0d-6e0b1685a238"},"vehicle_type_id":"4","last_reported":1753301574,"current_range_meters":4000,"station_id":"ce4bhbh2rcd13ifvqepg","pricing_plan_id":"cebpf4jnsgd1na2vs0mg"},{"bike_id":"484ad076-168c-4940-9f18-c5bf54d75ce2","system_id":"levelo_inurba_marseille","lat":43.292,"lon":5.3932,"is_reserved":false,"is_disabled":false,"rental_uris":{"android":"levelo://app?vid=484ad076-168c-4940-9f18-c5bf54d75ce2","ios":"levelo://app?vid=484ad076-168c-4940-9f18-c5bf54d75ce2"},"vehicle_type_id":"4","last_reported":1753301574,"current_range_meters":3600,"station_id":"ce4bh192rcd13ifvqdd0","pricing_plan_id":"cebpf4jnsgd1na2vs0mg"},{"bike_id":"25f2ce7f-f765-40af-bf27-534e5c303723","system_id":"levelo_inurba_marseille","lat":43.30142,"lon":5.38069,"is_reserved":false,"is_disabled":false,"rental_uris":{"android":"levelo://app?vid=25f2ce7f-f765-40af-bf27-534e5c303723","ios":"levelo://app?vid=25f2ce7f-f765-40af-bf27-534e5c303723"},"vehicle_type_id":"4","last_reported":1753301574,"current_range_meters":3600,"station_id":"ce4bgjp2rcd13ifvqbh0","pricing_plan_id":"cebpf4jnsgd1na2vs0mg"},{"bike_id":"5cccb452-224d-486f-8f55-ab6f9fb0d289","system_id":"levelo_inurba_marseille","lat":43.30111,"lon":5.39769,"is_reserved":false,"is_disabled":false,"rental_uris":{"android":"levelo://app?vid=5cccb452-224d-486f-8f55-ab6f9fb0d289","ios":"levelo://app?vid=5cccb452-224d-486f-8f55-ab6f9fb0d289"},"vehicle_type_id":"4","last_reported":1753301574,"current_range_meters":4000,"station_id":"","pricing_plan_id":"cebpf4jnsgd1na2vs0mg"},{"bike_id":"dd4ee137-0323-4a01-ad86-c4a4e32dbc14","system_id":"levelo_inurba_marseille","lat":43.28851,"lon":5.3931,"is_reserved":false,"is_disabled":false,"rental_uris":{"android":"levelo://app?vid=dd4ee137-0323-4a01-ad86-c4a4e32dbc14","ios":"levelo://app?vid=dd4ee137-0323-4a01-ad86-c4a4e32dbc14"},"vehicle_type_id":"4","last_reported":1753301574,"current_range_meters":4400,"station_id":"ce4bh2p2rcd13ifvqdi0","pricing_plan_id":"cebpf4jnsgd1na2vs0mg"},{"bike_id":"eb5143c0-abcb-40a4-a015-cf18bad49f95","system_id":"levelo_inurba_marseille","lat":43.26219,"lon":5.37443,"is_reserved":false,"is_disabled":false,"rental_uris":{"android":"levelo://app?vid=eb5143c0-abcb-40a4-a015-cf18bad49f95","ios":"levelo://app?vid=eb5143c0-abcb-40a4-a015-cf18bad49f95"},"vehicle_type_id":"4","last_reported":1753301574,"current_range_meters":4400,"station_id":"ce4bhgp2rcd13ifvqfc0","pricing_plan_id":"cebpf4jnsgd1na2vs0mg"},{"bike_id":"b28505e2-51f4-45dd-a85d-de922978f6de","system_id":"levelo_inurba_marseille","lat":43.30594,"lon":5.3721,"is_reserved":false,"is_disabled":false,"rental_uris":{"android":"levelo://app?vid=b28505e2-51f4-45dd-a85d-de922978f6de","ios":"levelo://app?vid=b28505e2-51f4-45dd-a85d-de922978f6de"},"vehicle_type_id":"4","last_reported":1753301574,"current_range_meters":4000,"station_id":"ce4bgqh2rcd13ifvqc4g","pricing_plan_id":"cebpf4jnsgd1na2vs0mg"},{"bike_id":"67f4c76b-2833-4d64-abca-788c4db1ae53","system_id":"levelo_inurba_marseille","lat":43.30307,"lon":5.368859,"is_reserved":false,"is_disabled":false,"rental_uris":{"android":"levelo://app?vid=67f4c76b-2833-4d64-abca-788c4db1ae53","ios":"levelo://app?vid=67f4c76b-2833-4d64-abca-788c4db1ae53"},"vehicle_type_id":"4","last_reported":1753301574,"current_range_meters":4800,"station_id":"ce4bgqh2rcd13ifvqc5g","pricing_plan_id":"cebpf4jnsgd1na2vs0mg"},{"bike_id":"6cbd5bb8-ece6-4a6e-9708-07d298472fb3","system_id":"levelo_inurba_marseille","lat":43.28356,"lon":5.38111,"is_reserved":false,"is_disabled":false,"rental_uris":{"android":"levelo://app?vid=6cbd5bb8-ece6-4a6e-9708-07d298472fb3","ios":"levelo://app?vid=6cbd5bb8-ece6-4a6e-9708-07d298472fb3"},"vehicle_type_id":"4","last_reported":1753301574,"current_range_meters":4800,"station_id":"ce4bh412rcd13ifvqdr0","pricing_plan_id":"cebpf4jnsgd1na2vs0mg"},{"bike_id":"500247d2-2e48-436e-8f86-0ecd9e77ceff","system_id":"levelo_inurba_marseille","lat":43.24662,"lon":5.38169,"is_reserved":false,"is_disabled":false,"rental_uris":{"android":"levelo://app?vid=500247d2-2e48-436e-8f86-0ecd9e77ceff","ios":"levelo://app?vid=500247d2-2e48-436e-8f86-0ecd9e77ceff"},"vehicle_type_id":"4","last_reported":1753301574,"current_range_meters":4800,"station_id":"ce4bhih2rcd13ifvqfr0","pricing_plan_id":"cebpf4jnsgd1na2vs0mg"},{"bike_id":"f1cce97c-a87d-40c8-9fc0-12fac9d6c197","system_id":"levelo_inurba_marseille","lat":43.314888,"lon":5.373072,"is_reserved":false,"is_disabled":false,"rental_uris":{"android":"levelo://app?vid=f1cce97c-a87d-40c8-9fc0-12fac9d6c197","ios":"levelo://app?vid=f1cce97c-a87d-40c8-9fc0-12fac9d6c197"},"vehicle_type_id":"4","last_reported":1753301574,"current_range_meters":5600,"station_id":"ce4bgt12rcd13ifvqcd0","pricing_plan_id":"cebpf4jnsgd1na2vs0mg"},{"bike_id":"3e672a12-a06c-421d-8d90-001874a4fd84","system_id":"levelo_inurba_marseille","lat":43.30205,"lon":5.39472,"is_reserved":false,"is_disabled":true,"rental_uris":{"android":"levelo://app?vid=3e672a12-a06c-421d-8d90-001874a4fd84","ios":"levelo://app?vid=3e672a12-a06c-421d-8d90-001874a4fd84"},"vehicle_type_id":"4","last_reported":1753301574,"current_range_meters":5600,"station_id":"ce4bh0p2rcd13ifvqd70","pricing_plan_id":"cebpf4jnsgd1na2vs0mg"},{"bike_id":"8c3466f5-9e6b-42c6-8075-c37965fb4db6","system_id":"levelo_inurba_marseille","lat":43.29518,"lon":5.39403,"is_reserved":false,"is_disabled":true,"rental_uris":{"android":"levelo://app?vid=8c3466f5-9e6b-42c6-8075-c37965fb4db6","ios":"levelo://app?vid=8c3466f5-9e6b-42c6-8075-c37965fb4db6"},"vehicle_type_id":"4","last_reported":1753301574,"current_range_meters":5600,"station_id":"ce4bh292rcd13ifvqdf0","pricing_plan_id":"cebpf4jnsgd1na2vs0mg"},{"bike_id":"cec54183-4175-4e4a-8f8a-f4fafb6e7dc0","system_id":"levelo_inurba_marseille","lat":43.27964,"lon":5.3897,"is_reserved":false,"is_disabled":false,"rental_uris":{"android":"levelo://app?vid=cec54183-4175-4e4a-8f8a-f4fafb6e7dc0","ios":"levelo://app?vid=cec54183-4175-4e4a-8f8a-f4fafb6e7dc0"},"vehicle_type_id":"4","last_reported":1753301574,"current_range_meters":5600,"station_id":"","pricing_plan_id":"cebpf4jnsgd1na2vs0mg"},{"bike_id":"05716265-58af-4f46-b482-0b2e4d1d3d44","system_id":"levelo_inurba_marseille","lat":43.29528,"lon":5.39037,"is_reserved":false,"is_disabled":false,"rental_uris":{"android":"levelo://app?vid=05716265-58af-4f46-b482-0b2e4d1d3d44","ios":"levelo://app?vid=05716265-58af-4f46-b482-0b2e4d1d3d44"},"vehicle_type_id":"4","last_reported":1753301574,"current_range_meters":5600,"station_id":"ce4bh3p2rcd13ifvqdp0","pricing_plan_id":"cebpf4jnsgd1na2vs0mg"},{"bike_id":"98926446-80c4-4528-8755-3648798c1d08","system_id":"levelo_inurba_marseille","lat":43.29846,"lon":5.36279,"is_reserved":false,"is_disabled":false,"rental_uris":{"android":"levelo://app?vid=98926446-80c4-4528-8755-3648798c1d08","ios":"levelo://app?vid=98926446-80c4-4528-8755-3648798c1d08"},"vehicle_type_id":"4","last_reported":1753301574,"current_range_meters":5600,"station_id":"","pricing_plan_id":"cebpf4jnsgd1na2vs0mg"},{"bike_id":"83766871-d64f-4fc8-9d3b-2ceaf03b1036","system_id":"levelo_inurba_marseille","lat":43.21188,"lon":5.35073,"is_reserved":false,"is_disabled":false,"rental_uris":{"android":"levelo://app?vid=83766871-d64f-4fc8-9d3b-2ceaf03b1036","ios":"levelo://app?vid=83766871-d64f-4fc8-9d3b-2ceaf03b1036"},"vehicle_type_id":"4","last_reported":1753301574,"current_range_meters":6000,"station_id":"st_cvj6sg6p6f1abm77japg","pricing_plan_id":"cebpf4jnsgd1na2vs0mg"},{"bike_id":"f8b60c6f-2759-49d2-9eb1-cf1dd4817401","system_id":"levelo_inurba_marseille","lat":43.28354,"lon":5.38636,"is_reserved":false,"is_disabled":false,"rental_uris":{"android":"levelo://app?vid=f8b60c6f-2759-49d2-9eb1-cf1dd4817401","ios":"levelo://app?vid=f8b60c6f-2759-49d2-9eb1-cf1dd4817401"},"vehicle_type_id":"4","last_reported":1753301574,"current_range_meters":6000,"station_id":"ce4bh492rcd13ifvqdvg","pricing_plan_id":"cebpf4jnsgd1na2vs0mg"},{"bike_id":"4ad402cc-7498-4eb7-b5ae-6bf8b3fa1f82","system_id":"levelo_inurba_marseille","lat":43.28266,"lon":5.35106,"is_reserved":false,"is_disabled":false,"rental_uris":{"android":"levelo://app?vid=4ad402cc-7498-4eb7-b5ae-6bf8b3fa1f82","ios":"levelo://app?vid=4ad402cc-7498-4eb7-b5ae-6bf8b3fa1f82"},"vehicle_type_id":"4","last_reported":1753301574,"current_range_meters":6000,"station_id":"ce4bhbp2rcd13ifvqerg","pricing_plan_id":"cebpf4jnsgd1na2vs0mg"},{"bike_id":"7b9f249c-a7e9-487e-b653-d13625c73dbd","system_id":"levelo_inurba_marseille","lat":43.29243,"lon":5.3843,"is_reserved":false,"is_disabled":false,"rental_uris":{"android":"levelo://app?vid=7b9f249c-a7e9-487e-b653-d13625c73dbd","ios":"levelo://app?vid=7b9f249c-a7e9-487e-b653-d13625c73dbd"},"vehicle_type_id":"4","last_reported":1753301574,"current_range_meters":6400,"station_id":"ce4bh692rcd13ifvqea0","pricing_plan_id":"cebpf4jnsgd1na2vs0mg"},{"bike_id":"2c11cc8d-cbc9-4f36-8f09-70b22b944181","system_id":"levelo_inurba_marseille","lat":43.29262,"lon":5.384417,"is_reserved":false,"is_disabled":false,"rental_uris":{"android":"levelo://app?vid=2c11cc8d-cbc9-4f36-8f09-70b22b944181","ios":"levelo://app?vid=2c11cc8d-cbc9-4f36-8f09-70b22b944181"},"vehicle_type_id":"4","last_reported":1753301574,"current_range_meters":6400,"station_id":"ce4bh692rcd13ifvqea0","pricing_plan_id":"cebpf4jnsgd1na2vs0mg"},{"bike_id":"424d6cff-044a-4c81-b233-68b8aee0b2e0","system_id":"levelo_inurba_marseille","lat":43.295292,"lon":5.385407,"is_reserved":false,"is_disabled":false,"rental_uris":{"android":"levelo://app?vid=424d6cff-044a-4c81-b233-68b8aee0b2e0","ios":"levelo://app?vid=424d6cff-044a-4c81-b233-68b8aee0b2e0"},"vehicle_type_id":"4","last_reported":1753301574,"current_range_meters":6400,"station_id":"","pricing_plan_id":"cebpf4jnsgd1na2vs0mg"},{"bike_id":"ec0adf83-6184-4d63-a8bd-8a4c46331101","system_id":"levelo_inurba_marseille","lat":43.26066,"lon":5.39394,"is_reserved":false,"is_disabled":true,"rental_uris":{"android":"levelo://app?vid=ec0adf83-6184-4d63-a8bd-8a4c46331101","ios":"levelo://app?vid=ec0adf83-6184-4d63-a8bd-8a4c46331101"},"vehicle_type_id":"4","last_reported":1753301574,"current_range_meters":6400,"station_id":"ce4bhh92rcd13ifvqfj0","pricing_plan_id":"cebpf4jnsgd1na2vs0mg"},{"bike_id":"31c059cc-b7dd-48bf-aeb0-a2087975bbc9","system_id":"levelo_inurba_marseille","lat":43.31079,"lon":5.38358,"is_reserved":false,"is_disabled":false,"rental_uris":{"android":"levelo://app?vid=31c059cc-b7dd-48bf-aeb0-a2087975bbc9","ios":"levelo://app?vid=31c059cc-b7dd-48bf-aeb0-a2087975bbc9"},"vehicle_type_id":"4","last_reported":1753301574,"current_range_meters":6400,"station_id":"ce4bgv92rcd13ifvqcr0","pricing_plan_id":"cebpf4jnsgd1na2vs0mg"},{"bike_id":"13bff831-2cc5-482d-8db5-e2cd49eba06c","system_id":"levelo_inurba_marseille","lat":43.32322,"lon":5.40616,"is_reserved":false,"is_disabled":false,"rental_uris":{"android":"levelo://app?vid=13bff831-2cc5-482d-8db5-e2cd49eba06c","ios":"levelo://app?vid=13bff831-2cc5-482d-8db5-e2cd49eba06c"},"vehicle_type_id":"4","last_reported":1753301574,"current_range_meters":6800,"station_id":"ce4bhq92rcd13ifvqhjg","pricing_plan_id":"cebpf4jnsgd1na2vs0mg"},{"bike_id":"184b0f35-d636-4a07-bab3-0b462122de8d","system_id":"levelo_inurba_marseille","lat":43.33721,"lon":5.3919,"is_reserved":false,"is_disabled":false,"rental_uris":{"android":"levelo://app?vid=184b0f35-d636-4a07-bab3-0b462122de8d","ios":"levelo://app?vid=184b0f35-d636-4a07-bab3-0b462122de8d"},"vehicle_type_id":"4","last_reported":1753301574,"current_range_meters":6400,"station_id":"ce4bhr92rcd13ifvqhsg","pricing_plan_id":"cebpf4jnsgd1na2vs0mg"},{"bike_id":"6664b110-6024-4d10-904c-70f0e732d65e","system_id":"levelo_inurba_marseille","lat":43.26214,"lon":5.37438,"is_reserved":false,"is_disabled":true,"rental_uris":{"android":"levelo://app?vid=6664b110-6024-4d10-904c-70f0e732d65e","ios":"levelo://app?vid=6664b110-6024-4d10-904c-70f0e732d65e"},"vehicle_type_id":"4","last_reported":1753301574,"current_range_meters":6800,"station_id":"ce4bhgp2rcd13ifvqfc0","pricing_plan_id":"cebpf4jnsgd1na2vs0mg"},{"bike_id":"bbd27b56-345e-4319-8ab6-74405d523b9a","system_id":"levelo_inurba_marseille","lat":43.29845,"lon":5.36274,"is_reserved":false,"is_disabled":false,"rental_uris":{"android":"levelo://app?vid=bbd27b56-345e-4319-8ab6-74405d523b9a","ios":"levelo://app?vid=bbd27b56-345e-4319-8ab6-74405d523b9a"},"vehicle_type_id":"4","last_reported":1753301574,"current_range_meters":6800,"station_id":"ce4bgpp2rcd13ifvqc3g","pricing_plan_id":"cebpf4jnsgd1na2vs0mg"},{"bike_id":"81f48beb-cba8-4a10-929a-d7834448108c","system_id":"levelo_inurba_marseille","lat":43.33267,"lon":5.39915,"is_reserved":false,"is_disabled":false,"rental_uris":{"android":"levelo://app?vid=81f48beb-cba8-4a10-929a-d7834448108c","ios":"levelo://app?vid=81f48beb-cba8-4a10-929a-d7834448108c"},"vehicle_type_id":"4","last_reported":1753301574,"current_range_meters":6800,"station_id":"","pricing_plan_id":"cebpf4jnsgd1na2vs0mg"},{"bike_id":"8e0188c2-db5f-469b-8343-8f8d475f5c7a","system_id":"levelo_inurba_marseille","lat":43.26193,"lon":5.37449,"is_reserved":false,"is_disabled":false,"rental_uris":{"android":"levelo://app?vid=8e0188c2-db5f-469b-8343-8f8d475f5c7a","ios":"levelo://app?vid=8e0188c2-db5f-469b-8343-8f8d475f5c7a"},"vehicle_type_id":"4","last_reported":1753301574,"current_range_meters":6800,"station_id":"ce4bhgp2rcd13ifvqfc0","pricing_plan_id":"cebpf4jnsgd1na2vs0mg"},{"bike_id":"9ae7d50c-a3ea-4136-8080-315c191e000a","system_id":"levelo_inurba_marseille","lat":43.287568,"lon":5.384202,"is_reserved":false,"is_disabled":false,"rental_uris":{"android":"levelo://app?vid=9ae7d50c-a3ea-4136-8080-315c191e000a","ios":"levelo://app?vid=9ae7d50c-a3ea-4136-8080-315c191e000a"},"vehicle_type_id":"4","last_reported":1753301574,"current_range_meters":7200,"station_id":"","pricing_plan_id":"cebpf4jnsgd1na2vs0mg"},{"bike_id":"fc72a200-474e-4424-8476-ae910ea84dd8","system_id":"levelo_inurba_marseille","lat":43.287157,"lon":5.379336,"is_reserved":false,"is_disabled":false,"rental_uris":{"android":"levelo://app?vid=fc72a200-474e-4424-8476-ae910ea84dd8","ios":"levelo://app?vid=fc72a200-474e-4424-8476-ae910ea84dd8"},"vehicle_type_id":"4","last_reported":1753301574,"current_range_meters":7200,"station_id":"ce4bh9p2rcd13ifvqec0","pricing_plan_id":"cebpf4jnsgd1na2vs0mg"},{"bike_id":"47dbb427-f3ea-4365-beb7-259fa1d4cc00","system_id":"levelo_inurba_marseille","lat":43.29275,"lon":5.38449,"is_reserved":false,"is_disabled":false,"rental_uris":{"android":"levelo://app?vid=47dbb427-f3ea-4365-beb7-259fa1d4cc00","ios":"levelo://app?vid=47dbb427-f3ea-4365-beb7-259fa1d4cc00"},"vehicle_type_id":"4","last_reported":1753301574,"current_range_meters":7200,"station_id":"ce4bh692rcd13ifvqea0","pricing_plan_id":"cebpf4jnsgd1na2vs0mg"},{"bike_id":"3c9678bd-8534-4cad-9adf-0a76d5e5d5cd","system_id":"levelo_inurba_marseille","lat":43.3176,"lon":5.390174,"is_reserved":false,"is_disabled":false,"rental_uris":{"android":"levelo://app?vid=3c9678bd-8534-4cad-9adf-0a76d5e5d5cd","ios":"levelo://app?vid=3c9678bd-8534-4cad-9adf-0a76d5e5d5cd"},"vehicle_type_id":"4","last_reported":1753301574,"current_range_meters":8000,"station_id":"","pricing_plan_id":"cebpf4jnsgd1na2vs0mg"},{"bike_id":"bf1c35e7-568f-4d87-92c1-3d971e7e6aff","system_id":"levelo_inurba_marseille","lat":43.29849,"lon":5.36281,"is_reserved":false,"is_disabled":false,"rental_uris":{"android":"levelo://app?vid=bf1c35e7-568f-4d87-92c1-3d971e7e6aff","ios":"levelo://app?vid=bf1c35e7-568f-4d87-92c1-3d971e7e6aff"},"vehicle_type_id":"4","last_reported":1753301574,"current_range_meters":8000,"station_id":"ce4bgpp2rcd13ifvqc3g","pricing_plan_id":"cebpf4jnsgd1na2vs0mg"},{"bike_id":"d07f0755-aca6-4050-807e-9c5aaf0dd619","system_id":"levelo_inurba_marseille","lat":43.296823,"lon":5.372723,"is_reserved":false,"is_disabled":true,"rental_uris":{"android":"levelo://app?vid=d07f0755-aca6-4050-807e-9c5aaf0dd619","ios":"levelo://app?vid=d07f0755-aca6-4050-807e-9c5aaf0dd619"},"vehicle_type_id":"4","last_reported":1753301574,"current_range_meters":8000,"station_id":"ce4bgk12rcd13ifvqbj0","pricing_plan_id":"cebpf4jnsgd1na2vs0mg"},{"bike_id":"846538d0-e796-454f-89ab-7343700ac6bf","system_id":"levelo_inurba_marseille","lat":43.29263,"lon":5.38438,"is_reserved":false,"is_disabled":false,"rental_uris":{"android":"levelo://app?vid=846538d0-e796-454f-89ab-7343700ac6bf","ios":"levelo://app?vid=846538d0-e796-454f-89ab-7343700ac6bf"},"vehicle_type_id":"4","last_reported":1753301574,"current_range_meters":8000,"station_id":"ce4bh692rcd13ifvqea0","pricing_plan_id":"cebpf4jnsgd1na2vs0mg"},{"bike_id":"a7abbd16-7464-47d6-bce3-b9d619de3c6f","system_id":"levelo_inurba_marseille","lat":43.29979,"lon":5.3759,"is_reserved":false,"is_disabled":false,"rental_uris":{"android":"levelo://app?vid=a7abbd16-7464-47d6-bce3-b9d619de3c6f","ios":"levelo://app?vid=a7abbd16-7464-47d6-bce3-b9d619de3c6f"},"vehicle_type_id":"4","last_reported":1753301574,"current_range_meters":8000,"station_id":"","pricing_plan_id":"cebpf4jnsgd1na2vs0mg"},{"bike_id":"d4ecb26b-d4d9-42a2-98cb-c28ce33b061e","system_id":"levelo_inurba_marseille","lat":43.29843,"lon":5.36278,"is_reserved":false,"is_disabled":false,"rental_uris":{"android":"levelo://app?vid=d4ecb26b-d4d9-42a2-98cb-c28ce33b061e","ios":"levelo://app?vid=d4ecb26b-d4d9-42a2-98cb-c28ce33b061e"},"vehicle_type_id":"4","last_reported":1753301574,"current_range_meters":8400,"station_id":"ce4bgpp2rcd13ifvqc3g","pricing_plan_id":"cebpf4jnsgd1na2vs0mg"},{"bike_id":"56d6580e-bce0-49f8-83c1-c1c86d82a0a6","system_id":"levelo_inurba_marseille","lat":43.30807,"lon":5.38158,"is_reserved":false,"is_disabled":true,"rental_uris":{"android":"levelo://app?vid=56d6580e-bce0-49f8-83c1-c1c86d82a0a6","ios":"levelo://app?vid=56d6580e-bce0-49f8-83c1-c1c86d82a0a6"},"vehicle_type_id":"4","last_reported":1753301574,"current_range_meters":8400,"station_id":"ce4bgt12rcd13ifvqce0","pricing_plan_id":"cebpf4jnsgd1na2vs0mg"},{"bike_id":"7634156a-368b-429c-9ace-14ee2370e3ab","system_id":"levelo_inurba_marseille","lat":43.29248,"lon":5.38451,"is_reserved":false,"is_disabled":false,"rental_uris":{"android":"levelo://app?vid=7634156a-368b-429c-9ace-14ee2370e3ab","ios":"levelo://app?vid=7634156a-368b-429c-9ace-14ee2370e3ab"},"vehicle_type_id":"4","last_reported":1753301574,"current_range_meters":8400,"station_id":"ce4bh692rcd13ifvqea0","pricing_plan_id":"cebpf4jnsgd1na2vs0mg"},{"bike_id":"2a7dd72f-bdf3-4547-90e6-34b8049722b6","system_id":"levelo_inurba_marseille","lat":43.22505,"lon":5.34782,"is_reserved":false,"is_disabled":false,"rental_uris":{"android":"levelo://app?vid=2a7dd72f-bdf3-4547-90e6-34b8049722b6","ios":"levelo://app?vid=2a7dd72f-bdf3-4547-90e6-34b8049722b6"},"vehicle_type_id":"4","last_reported":1753301574,"current_range_meters":8400,"station_id":"st_cvj5dfep6f1abm77gieg","pricing_plan_id":"cebpf4jnsgd1na2vs0mg"},{"bike_id":"48966734-3dca-4c86-8eaf-f41df9cd5fd5","system_id":"levelo_inurba_marseille","lat":43.29436,"lon":5.39763,"is_reserved":false,"is_disabled":false,"rental_uris":{"android":"levelo://app?vid=48966734-3dca-4c86-8eaf-f41df9cd5fd5","ios":"levelo://app?vid=48966734-3dca-4c86-8eaf-f41df9cd5fd5"},"vehicle_type_id":"4","last_reported":1753301574,"current_range_meters":8400,"station_id":"ce4bh3h2rcd13ifvqdo0","pricing_plan_id":"cebpf4jnsgd1na2vs0mg"},{"bike_id":"4f6f3d53-18bb-4ce4-aeb4-b34234469867","system_id":"levelo_inurba_marseille","lat":43.2466,"lon":5.38155,"is_reserved":false,"is_disabled":false,"rental_uris":{"android":"levelo://app?vid=4f6f3d53-18bb-4ce4-aeb4-b34234469867","ios":"levelo://app?vid=4f6f3d53-18bb-4ce4-aeb4-b34234469867"},"vehicle_type_id":"4","last_reported":1753301574,"current_range_meters":8400,"station_id":"ce4bhih2rcd13ifvqfr0","pricing_plan_id":"cebpf4jnsgd1na2vs0mg"},{"bike_id":"a5f1f0d6-c678-45f4-9b29-96eaa29a3e36","system_id":"levelo_inurba_marseille","lat":43.25171,"lon":5.3734,"is_reserved":false,"is_disabled":true,"rental_uris":{"android":"levelo://app?vid=a5f1f0d6-c678-45f4-9b29-96eaa29a3e36","ios":"levelo://app?vid=a5f1f0d6-c678-45f4-9b29-96eaa29a3e36"},"vehicle_type_id":"4","last_reported":1753301574,"current_range_meters":8400,"station_id":"","pricing_plan_id":"cebpf4jnsgd1na2vs0mg"},{"bike_id":"1a78f63a-106a-4cad-a5ab-6ea0947f769f","system_id":"levelo_inurba_marseille","lat":43.26193,"lon":5.37453,"is_reserved":false,"is_disabled":false,"rental_uris":{"android":"levelo://app?vid=1a78f63a-106a-4cad-a5ab-6ea0947f769f","ios":"levelo://app?vid=1a78f63a-106a-4cad-a5ab-6ea0947f769f"},"vehicle_type_id":"4","last_reported":1753301574,"current_range_meters":8800,"station_id":"ce4bhgp2rcd13ifvqfc0","pricing_plan_id":"cebpf4jnsgd1na2vs0mg"},{"bike_id":"e4761578-ae86-4dfa-b146-0428e5d8cca7","system_id":"levelo_inurba_marseille","lat":43.24159,"lon":5.36408,"is_reserved":false,"is_disabled":true,"rental_uris":{"android":"levelo://app?vid=e4761578-ae86-4dfa-b146-0428e5d8cca7","ios":"levelo://app?vid=e4761578-ae86-4dfa-b146-0428e5d8cca7"},"vehicle_type_id":"4","last_reported":1753301574,"current_range_meters":8800,"station_id":"cpo36qri1sfpv3e86is0","pricing_plan_id":"cebpf4jnsgd1na2vs0mg"},{"bike_id":"3c21b9e1-b296-4844-a6d5-b8d19c7f36c9","system_id":"levelo_inurba_marseille","lat":43.29169,"lon":5.38441,"is_reserved":false,"is_disabled":false,"rental_uris":{"android":"levelo://app?vid=3c21b9e1-b296-4844-a6d5-b8d19c7f36c9","ios":"levelo://app?vid=3c21b9e1-b296-4844-a6d5-b8d19c7f36c9"},"vehicle_type_id":"4","last_reported":1753301574,"current_range_meters":8800,"station_id":"","pricing_plan_id":"cebpf4jnsgd1na2vs0mg"},{"bike_id":"38f877b3-3ec6-4e30-8e01-f93bf1b1b233","system_id":"levelo_inurba_marseille","lat":43.33015,"lon":5.3903,"is_reserved":false,"is_disabled":false,"rental_uris":{"android":"levelo://app?vid=38f877b3-3ec6-4e30-8e01-f93bf1b1b233","ios":"levelo://app?vid=38f877b3-3ec6-4e30-8e01-f93bf1b1b233"},"vehicle_type_id":"4","last_reported":1753301574,"current_range_meters":8800,"station_id":"ce4bhr92rcd13ifvqhrg","pricing_plan_id":"cebpf4jnsgd1na2vs0mg"},{"bike_id":"462db6f8-c7ba-4ad3-8795-ca2903944b63","system_id":"levelo_inurba_marseille","lat":43.2467,"lon":5.38156,"is_reserved":false,"is_disabled":false,"rental_uris":{"android":"levelo://app?vid=462db6f8-c7ba-4ad3-8795-ca2903944b63","ios":"levelo://app?vid=462db6f8-c7ba-4ad3-8795-ca2903944b63"},"vehicle_type_id":"4","last_reported":1753301574,"current_range_meters":9200,"station_id":"ce4bhih2rcd13ifvqfr0","pricing_plan_id":"cebpf4jnsgd1na2vs0mg"},{"bike_id":"615b9078-722c-40b2-b900-c0d47f3b105c","system_id":"levelo_inurba_marseille","lat":43.29848,"lon":5.36278,"is_reserved":false,"is_disabled":false,"rental_uris":{"android":"levelo://app?vid=615b9078-722c-40b2-b900-c0d47f3b105c","ios":"levelo://app?vid=615b9078-722c-40b2-b900-c0d47f3b105c"},"vehicle_type_id":"4","last_reported":1753301574,"current_range_meters":9200,"station_id":"ce4bgpp2rcd13ifvqc3g","pricing_plan_id":"cebpf4jnsgd1na2vs0mg"},{"bike_id":"c9dbd36b-479c-4a5c-b200-3aa7673340d9","system_id":"levelo_inurba_marseille","lat":43.241448,"lon":5.363743,"is_reserved":false,"is_disabled":true,"rental_uris":{"android":"levelo://app?vid=c9dbd36b-479c-4a5c-b200-3aa7673340d9","ios":"levelo://app?vid=c9dbd36b-479c-4a5c-b200-3aa7673340d9"},"vehicle_type_id":"4","last_reported":1753301574,"current_range_meters":9200,"station_id":"","pricing_plan_id":"cebpf4jnsgd1na2vs0mg"},{"bike_id":"0d80a694-5732-489f-9572-204533c777dc","system_id":"levelo_inurba_marseille","lat":43.29058,"lon":5.3717,"is_reserved":false,"is_disabled":false,"rental_uris":{"android":"levelo://app?vid=0d80a694-5732-489f-9572-204533c777dc","ios":"levelo://app?vid=0d80a694-5732-489f-9572-204533c777dc"},"vehicle_type_id":"4","last_reported":1753301574,"current_range_meters":9200,"station_id":"ce4bgh92rcd13ifvqb40","pricing_plan_id":"cebpf4jnsgd1na2vs0mg"},{"bike_id":"cc90d8b1-c5a5-4868-b902-1a8ca8c3d09b","system_id":"levelo_inurba_marseille","lat":43.29581,"lon":5.36757,"is_reserved":false,"is_disabled":false,"rental_uris":{"android":"levelo://app?vid=cc90d8b1-c5a5-4868-b902-1a8ca8c3d09b","ios":"levelo://app?vid=cc90d8b1-c5a5-4868-b902-1a8ca8c3d09b"},"vehicle_type_id":"4","last_reported":1753301574,"current_range_meters":9200,"station_id":"ce4bgph2rcd13ifvqc2g","pricing_plan_id":"cebpf4jnsgd1na2vs0mg"},{"bike_id":"bdcb8fef-4f0e-4894-bfdf-01748a3012ce","system_id":"levelo_inurba_marseille","lat":43.25586,"lon":5.38251,"is_reserved":false,"is_disabled":false,"rental_uris":{"android":"levelo://app?vid=bdcb8fef-4f0e-4894-bfdf-01748a3012ce","ios":"levelo://app?vid=bdcb8fef-4f0e-4894-bfdf-01748a3012ce"},"vehicle_type_id":"4","last_reported":1753301574,"current_range_meters":9200,"station_id":"ce4bhih2rcd13ifvqfs0","pricing_plan_id":"cebpf4jnsgd1na2vs0mg"},{"bike_id":"4fa3ba88-b81c-47db-93f7-635c1b652bf0","system_id":"levelo_inurba_marseille","lat":43.2959,"lon":5.36745,"is_reserved":false,"is_disabled":false,"rental_uris":{"android":"levelo://app?vid=4fa3ba88-b81c-47db-93f7-635c1b652bf0","ios":"levelo://app?vid=4fa3ba88-b81c-47db-93f7-635c1b652bf0"},"vehicle_type_id":"4","last_reported":1753301574,"current_range_meters":9200,"station_id":"ce4bgph2rcd13ifvqc2g","pricing_plan_id":"cebpf4jnsgd1na2vs0mg"},{"bike_id":"7a1ef1c2-c058-45b6-b788-86d261e4f088","system_id":"levelo_inurba_marseille","lat":43.29196,"lon":5.39334,"is_reserved":false,"is_disabled":true,"rental_uris":{"android":"levelo://app?vid=7a1ef1c2-c058-45b6-b788-86d261e4f088","ios":"levelo://app?vid=7a1ef1c2-c058-45b6-b788-86d261e4f088"},"vehicle_type_id":"4","last_reported":1753301574,"current_range_meters":9200,"station_id":"ce4bh192rcd13ifvqdd0","pricing_plan_id":"cebpf4jnsgd1na2vs0mg"},{"bike_id":"9066b036-de04-4785-9c66-53ad8e53c475","system_id":"levelo_inurba_marseille","lat":43.29569,"lon":5.39973,"is_reserved":false,"is_disabled":false,"rental_uris":{"android":"levelo://app?vid=9066b036-de04-4785-9c66-53ad8e53c475","ios":"levelo://app?vid=9066b036-de04-4785-9c66-53ad8e53c475"},"vehicle_type_id":"4","last_reported":1753301574,"current_range_meters":9200,"station_id":"ce4bh312rcd13ifvqdj0","pricing_plan_id":"cebpf4jnsgd1na2vs0mg"},{"bike_id":"aa5097b6-6968-4aec-b711-e7780938924b","system_id":"levelo_inurba_marseille","lat":43.32955,"lon":5.35901,"is_reserved":false,"is_disabled":false,"rental_uris":{"android":"levelo://app?vid=aa5097b6-6968-4aec-b711-e7780938924b","ios":"levelo://app?vid=aa5097b6-6968-4aec-b711-e7780938924b"},"vehicle_type_id":"4","last_reported":1753301574,"current_range_meters":9200,"station_id":"","pricing_plan_id":"cebpf4jnsgd1na2vs0mg"},{"bike_id":"5280ef12-30a1-4829-9600-118f246fd027","system_id":"levelo_inurba_marseille","lat":43.2927,"lon":5.37612,"is_reserved":false,"is_disabled":false,"rental_uris":{"android":"levelo://app?vid=5280ef12-30a1-4829-9600-118f246fd027","ios":"levelo://app?vid=5280ef12-30a1-4829-9600-118f246fd027"},"vehicle_type_id":"4","last_reported":1753301574,"current_range_meters":9600,"station_id":"ce4bgi12rcd13ifvqb80","pricing_plan_id":"cebpf4jnsgd1na2vs0mg"},{"bike_id":"8159044c-058a-4433-8702-eff3014dcf28","system_id":"levelo_inurba_marseille","lat":43.29204,"lon":5.3932,"is_reserved":false,"is_disabled":false,"rental_uris":{"android":"levelo://app?vid=8159044c-058a-4433-8702-eff3014dcf28","ios":"levelo://app?vid=8159044c-058a-4433-8702-eff3014dcf28"},"vehicle_type_id":"4","last_reported":1753301574,"current_range_meters":9600,"station_id":"ce4bh192rcd13ifvqdd0","pricing_plan_id":"cebpf4jnsgd1na2vs0mg"},{"bike_id":"71883e3a-ecc9-49e8-81d2-45700188f7a5","system_id":"levelo_inurba_marseille","lat":43.29575,"lon":5.36747,"is_reserved":false,"is_disabled":false,"rental_uris":{"android":"levelo://app?vid=71883e3a-ecc9-49e8-81d2-45700188f7a5","ios":"levelo://app?vid=71883e3a-ecc9-49e8-81d2-45700188f7a5"},"vehicle_type_id":"4","last_reported":1753301574,"current_range_meters":9600,"station_id":"ce4bgph2rcd13ifvqc2g","pricing_plan_id":"cebpf4jnsgd1na2vs0mg"},{"bike_id":"265012ac-1301-4b91-8401-42847d4fcdb9","system_id":"levelo_inurba_marseille","lat":43.29571,"lon":5.3675,"is_reserved":false,"is_disabled":false,"rental_uris":{"android":"levelo://app?vid=265012ac-1301-4b91-8401-42847d4fcdb9","ios":"levelo://app?vid=265012ac-1301-4b91-8401-42847d4fcdb9"},"vehicle_type_id":"4","last_reported":1753301574,"current_range_meters":9600,"station_id":"ce4bgph2rcd13ifvqc2g","pricing_plan_id":"cebpf4jnsgd1na2vs0mg"},{"bike_id":"f20b4cc0-d1a1-4852-93b7-7fda4062e267","system_id":"levelo_inurba_marseille","lat":43.29855,"lon":5.36286,"is_reserved":false,"is_disabled":false,"rental_uris":{"android":"levelo://app?vid=f20b4cc0-d1a1-4852-93b7-7fda4062e267","ios":"levelo://app?vid=f20b4cc0-d1a1-4852-93b7-7fda4062e267"},"vehicle_type_id":"4","last_reported":1753301574,"current_range_meters":10000,"station_id":"ce4bgpp2rcd13ifvqc3g","pricing_plan_id":"cebpf4jnsgd1na2vs0mg"},{"bike_id":"ba47df25-a982-4c5f-b34b-280fe7f14c7d","system_id":"levelo_inurba_marseille","lat":43.3058,"lon":5.39321,"is_reserved":false,"is_disabled":false,"rental_uris":{"android":"levelo://app?vid=ba47df25-a982-4c5f-b34b-280fe7f14c7d","ios":"levelo://app?vid=ba47df25-a982-4c5f-b34b-280fe7f14c7d"},"vehicle_type_id":"4","last_reported":1753301574,"current_range_meters":10000,"station_id":"ce4bh0p2rcd13ifvqd80","pricing_plan_id":"cebpf4jnsgd1na2vs0mg"},{"bike_id":"9ed76ab7-815b-4fb8-a57f-76527b5432a9","system_id":"levelo_inurba_marseille","lat":43.29831,"lon":5.36334,"is_reserved":false,"is_disabled":false,"rental_uris":{"android":"levelo://app?vid=9ed76ab7-815b-4fb8-a57f-76527b5432a9","ios":"levelo://app?vid=9ed76ab7-815b-4fb8-a57f-76527b5432a9"},"vehicle_type_id":"4","last_reported":1753301574,"current_range_meters":10000,"station_id":"ce4bgpp2rcd13ifvqc3g","pricing_plan_id":"cebpf4jnsgd1na2vs0mg"},{"bike_id":"da053e6a-15f2-492e-8bc1-42b1d66cc329","system_id":"levelo_inurba_marseille","lat":43.28337,"lon":5.43303,"is_reserved":false,"is_disabled":false,"rental_uris":{"android":"levelo://app?vid=da053e6a-15f2-492e-8bc1-42b1d66cc329","ios":"levelo://app?vid=da053e6a-15f2-492e-8bc1-42b1d66cc329"},"vehicle_type_id":"4","last_reported":1753301574,"current_range_meters":10000,"station_id":"","pricing_plan_id":"cebpf4jnsgd1na2vs0mg"},{"bike_id":"56069e2e-0638-44dd-97e3-d34ae1708b48","system_id":"levelo_inurba_marseille","lat":43.29851,"lon":5.36274,"is_reserved":false,"is_disabled":false,"rental_uris":{"android":"levelo://app?vid=56069e2e-0638-44dd-97e3-d34ae1708b48","ios":"levelo://app?vid=56069e2e-0638-44dd-97e3-d34ae1708b48"},"vehicle_type_id":"4","last_reported":1753301574,"current_range_meters":10000,"station_id":"ce4bgpp2rcd13ifvqc3g","pricing_plan_id":"cebpf4jnsgd1na2vs0mg"},{"bike_id":"5584f004-a932-4bd5-8ad7-b43d2eea8e5c","system_id":"levelo_inurba_marseille","lat":43.29579,"lon":5.36748,"is_reserved":false,"is_disabled":false,"rental_uris":{"android":"levelo://app?vid=5584f004-a932-4bd5-8ad7-b43d2eea8e5c","ios":"levelo://app?vid=5584f004-a932-4bd5-8ad7-b43d2eea8e5c"},"vehicle_type_id":"4","last_reported":1753301574,"current_range_meters":10800,"station_id":"ce4bgph2rcd13ifvqc2g","pricing_plan_id":"cebpf4jnsgd1na2vs0mg"},{"bike_id":"c3b4c842-89f1-49ff-abb9-fc4b30df4519","system_id":"levelo_inurba_marseille","lat":43.2558,"lon":5.38238,"is_reserved":false,"is_disabled":true,"rental_uris":{"android":"levelo://app?vid=c3b4c842-89f1-49ff-abb9-fc4b30df4519","ios":"levelo://app?vid=c3b4c842-89f1-49ff-abb9-fc4b30df4519"},"vehicle_type_id":"4","last_reported":1753301574,"current_range_meters":10800,"station_id":"ce4bhih2rcd13ifvqfs0","pricing_plan_id":"cebpf4jnsgd1na2vs0mg"},{"bike_id":"6cd0dc95-e91c-44fb-82bf-14703f047428","system_id":"levelo_inurba_marseille","lat":43.26557,"lon":5.37286,"is_reserved":false,"is_disabled":false,"rental_uris":{"android":"levelo://app?vid=6cd0dc95-e91c-44fb-82bf-14703f047428","ios":"levelo://app?vid=6cd0dc95-e91c-44fb-82bf-14703f047428"},"vehicle_type_id":"4","last_reported":1753301574,"current_range_meters":10800,"station_id":"ce4bhg12rcd13ifvqf70","pricing_plan_id":"cebpf4jnsgd1na2vs0mg"},{"bike_id":"9a4488b7-f2aa-4fc7-b403-c7b5ab5fa8b6","system_id":"levelo_inurba_marseille","lat":43.29436,"lon":5.39743,"is_reserved":false,"is_disabled":false,"rental_uris":{"android":"levelo://app?vid=9a4488b7-f2aa-4fc7-b403-c7b5ab5fa8b6","ios":"levelo://app?vid=9a4488b7-f2aa-4fc7-b403-c7b5ab5fa8b6"},"vehicle_type_id":"4","last_reported":1753301574,"current_range_meters":10800,"station_id":"ce4bh3h2rcd13ifvqdo0","pricing_plan_id":"cebpf4jnsgd1na2vs0mg"},{"bike_id":"2de0dc63-c0f7-45c0-9915-ac256941e32d","system_id":"levelo_inurba_marseille","lat":43.28467,"lon":5.35891,"is_reserved":false,"is_disabled":false,"rental_uris":{"android":"levelo://app?vid=2de0dc63-c0f7-45c0-9915-ac256941e32d","ios":"levelo://app?vid=2de0dc63-c0f7-45c0-9915-ac256941e32d"},"vehicle_type_id":"4","last_reported":1753301574,"current_range_meters":11200,"station_id":"ce4bhah2rcd13ifvqei0","pricing_plan_id":"cebpf4jnsgd1na2vs0mg"},{"bike_id":"b48c7fa6-9ba7-43cc-99eb-0cc0c519a16b","system_id":"levelo_inurba_marseille","lat":43.29579,"lon":5.36754,"is_reserved":false,"is_disabled":false,"rental_uris":{"android":"levelo://app?vid=b48c7fa6-9ba7-43cc-99eb-0cc0c519a16b","ios":"levelo://app?vid=b48c7fa6-9ba7-43cc-99eb-0cc0c519a16b"},"vehicle_type_id":"4","last_reported":1753301574,"current_range_meters":10800,"station_id":"ce4bgph2rcd13ifvqc2g","pricing_plan_id":"cebpf4jnsgd1na2vs0mg"},{"bike_id":"6f4ca621-dfe2-45f5-af82-d3bd6a3e8423","system_id":"levelo_inurba_marseille","lat":43.29532,"lon":5.38538,"is_reserved":false,"is_disabled":false,"rental_uris":{"android":"levelo://app?vid=6f4ca621-dfe2-45f5-af82-d3bd6a3e8423","ios":"levelo://app?vid=6f4ca621-dfe2-45f5-af82-d3bd6a3e8423"},"vehicle_type_id":"4","last_reported":1753301574,"current_range_meters":10800,"station_id":"ce4bgih2rcd13ifvqba0","pricing_plan_id":"cebpf4jnsgd1na2vs0mg"},{"bike_id":"f9062784-0417-4840-bb15-81c56a64826f","system_id":"levelo_inurba_marseille","lat":43.22504,"lon":5.3478,"is_reserved":false,"is_disabled":false,"rental_uris":{"android":"levelo://app?vid=f9062784-0417-4840-bb15-81c56a64826f","ios":"levelo://app?vid=f9062784-0417-4840-bb15-81c56a64826f"},"vehicle_type_id":"4","last_reported":1753301574,"current_range_meters":11200,"station_id":"","pricing_plan_id":"cebpf4jnsgd1na2vs0mg"},{"bike_id":"b338cc75-b357-4b38-9d26-c64b47d6ee40","system_id":"levelo_inurba_marseille","lat":43.30325,"lon":5.36891,"is_reserved":false,"is_disabled":false,"rental_uris":{"android":"levelo://app?vid=b338cc75-b357-4b38-9d26-c64b47d6ee40","ios":"levelo://app?vid=b338cc75-b357-4b38-9d26-c64b47d6ee40"},"vehicle_type_id":"4","last_reported":1753301574,"current_range_meters":11200,"station_id":"ce4bgqh2rcd13ifvqc5g","pricing_plan_id":"cebpf4jnsgd1na2vs0mg"},{"bike_id":"c4ab8b6f-b9e7-4d47-91c0-82fcf9196b75","system_id":"levelo_inurba_marseille","lat":43.30235,"lon":5.40027,"is_reserved":false,"is_disabled":true,"rental_uris":{"android":"levelo://app?vid=c4ab8b6f-b9e7-4d47-91c0-82fcf9196b75","ios":"levelo://app?vid=c4ab8b6f-b9e7-4d47-91c0-82fcf9196b75"},"vehicle_type_id":"4","last_reported":1753301574,"current_range_meters":11200,"station_id":"ce4bgvh2rcd13ifvqcs0","pricing_plan_id":"cebpf4jnsgd1na2vs0mg"},{"bike_id":"cc926983-7496-48df-9677-b8723ddc96b9","system_id":"levelo_inurba_marseille","lat":43.22923,"lon":5.35391,"is_reserved":false,"is_disabled":false,"rental_uris":{"android":"levelo://app?vid=cc926983-7496-48df-9677-b8723ddc96b9","ios":"levelo://app?vid=cc926983-7496-48df-9677-b8723ddc96b9"},"vehicle_type_id":"4","last_reported":1753301574,"current_range_meters":11600,"station_id":"cpo3532slgdg3j2ikp40","pricing_plan_id":"cebpf4jnsgd1na2vs0mg"},{"bike_id":"466652dc-513a-412c-ad48-6562c34e5cd5","system_id":"levelo_inurba_marseille","lat":43.28561,"lon":5.39499,"is_reserved":false,"is_disabled":false,"rental_uris":{"android":"levelo://app?vid=466652dc-513a-412c-ad48-6562c34e5cd5","ios":"levelo://app?vid=466652dc-513a-412c-ad48-6562c34e5cd5"},"vehicle_type_id":"4","last_reported":1753301574,"current_range_meters":11600,"station_id":"ce4bh292rcd13ifvqdg0","pricing_plan_id":"cebpf4jnsgd1na2vs0mg"},{"bike_id":"836c0b14-b37d-4fb0-b55e-68694fdbdd96","system_id":"levelo_inurba_marseille","lat":43.25588,"lon":5.38198,"is_reserved":false,"is_disabled":false,"rental_uris":{"android":"levelo://app?vid=836c0b14-b37d-4fb0-b55e-68694fdbdd96","ios":"levelo://app?vid=836c0b14-b37d-4fb0-b55e-68694fdbdd96"},"vehicle_type_id":"4","last_reported":1753301574,"current_range_meters":11600,"station_id":"ce4bhih2rcd13ifvqfs0","pricing_plan_id":"cebpf4jnsgd1na2vs0mg"},{"bike_id":"40e3e5f9-3a02-47f7-88fc-0f07eaefc0f9","system_id":"levelo_inurba_marseille","lat":43.25113,"lon":5.40322,"is_reserved":false,"is_disabled":false,"rental_uris":{"android":"levelo://app?vid=40e3e5f9-3a02-47f7-88fc-0f07eaefc0f9","ios":"levelo://app?vid=40e3e5f9-3a02-47f7-88fc-0f07eaefc0f9"},"vehicle_type_id":"4","last_reported":1753301574,"current_range_meters":11600,"station_id":"ce4bhlh2rcd13ifvqgig","pricing_plan_id":"cebpf4jnsgd1na2vs0mg"},{"bike_id":"5110c428-49c8-4321-80d3-645f9bfd8112","system_id":"levelo_inurba_marseille","lat":43.29569,"lon":5.36749,"is_reserved":false,"is_disabled":false,"rental_uris":{"android":"levelo://app?vid=5110c428-49c8-4321-80d3-645f9bfd8112","ios":"levelo://app?vid=5110c428-49c8-4321-80d3-645f9bfd8112"},"vehicle_type_id":"4","last_reported":1753301574,"current_range_meters":11600,"station_id":"ce4bgph2rcd13ifvqc2g","pricing_plan_id":"cebpf4jnsgd1na2vs0mg"},{"bike_id":"c4403314-b5a1-46da-92b4-ea9f98b119fd","system_id":"levelo_inurba_marseille","lat":43.31237,"lon":5.36878,"is_reserved":false,"is_disabled":false,"rental_uris":{"android":"levelo://app?vid=c4403314-b5a1-46da-92b4-ea9f98b119fd","ios":"levelo://app?vid=c4403314-b5a1-46da-92b4-ea9f98b119fd"},"vehicle_type_id":"4","last_reported":1753301574,"current_range_meters":11600,"station_id":"ce4bgl92rcd13ifvqbq0","pricing_plan_id":"cebpf4jnsgd1na2vs0mg"},{"bike_id":"309e862b-9251-4ca3-80ab-dc1bb91e7b5c","system_id":"levelo_inurba_marseille","lat":43.28356,"lon":5.38112,"is_reserved":false,"is_disabled":false,"rental_uris":{"android":"levelo://app?vid=309e862b-9251-4ca3-80ab-dc1bb91e7b5c","ios":"levelo://app?vid=309e862b-9251-4ca3-80ab-dc1bb91e7b5c"},"vehicle_type_id":"4","last_reported":1753301574,"current_range_meters":11600,"station_id":"ce4bh412rcd13ifvqdr0","pricing_plan_id":"cebpf4jnsgd1na2vs0mg"},{"bike_id":"a4f5aa19-c47c-430a-abc4-49aef34b58f3","system_id":"levelo_inurba_marseille","lat":43.2984,"lon":5.36275,"is_reserved":false,"is_disabled":false,"rental_uris":{"android":"levelo://app?vid=a4f5aa19-c47c-430a-abc4-49aef34b58f3","ios":"levelo://app?vid=a4f5aa19-c47c-430a-abc4-49aef34b58f3"},"vehicle_type_id":"4","last_reported":1753301574,"current_range_meters":11600,"station_id":"ce4bgpp2rcd13ifvqc3g","pricing_plan_id":"cebpf4jnsgd1na2vs0mg"},{"bike_id":"12378482-e136-456e-a117-02dbdd3342e6","system_id":"levelo_inurba_marseille","lat":43.29593,"lon":5.36729,"is_reserved":false,"is_disabled":false,"rental_uris":{"android":"levelo://app?vid=12378482-e136-456e-a117-02dbdd3342e6","ios":"levelo://app?vid=12378482-e136-456e-a117-02dbdd3342e6"},"vehicle_type_id":"4","last_reported":1753301574,"current_range_meters":12000,"station_id":"ce4bgph2rcd13ifvqc2g","pricing_plan_id":"cebpf4jnsgd1na2vs0mg"},{"bike_id":"24174566-09fc-40e5-b0a6-7352cec24e58","system_id":"levelo_inurba_marseille","lat":43.24387,"lon":5.37061,"is_reserved":false,"is_disabled":false,"rental_uris":{"android":"levelo://app?vid=24174566-09fc-40e5-b0a6-7352cec24e58","ios":"levelo://app?vid=24174566-09fc-40e5-b0a6-7352cec24e58"},"vehicle_type_id":"4","last_reported":1753301574,"current_range_meters":11600,"station_id":"ce4bhhh2rcd13ifvqfk0","pricing_plan_id":"cebpf4jnsgd1na2vs0mg"},{"bike_id":"eb954183-4e28-47d1-a5c2-d40cd268372d","system_id":"levelo_inurba_marseille","lat":43.28847,"lon":5.35827,"is_reserved":false,"is_disabled":true,"rental_uris":{"android":"levelo://app?vid=eb954183-4e28-47d1-a5c2-d40cd268372d","ios":"levelo://app?vid=eb954183-4e28-47d1-a5c2-d40cd268372d"},"vehicle_type_id":"4","last_reported":1753301574,"current_range_meters":12000,"station_id":"ce4bhb12rcd13ifvqem0","pricing_plan_id":"cebpf4jnsgd1na2vs0mg"},{"bike_id":"9f3ed220-9e9e-4bc8-a5f6-aeb6066011ca","system_id":"levelo_inurba_marseille","lat":43.262103,"lon":5.374439,"is_reserved":false,"is_disabled":false,"rental_uris":{"android":"levelo://app?vid=9f3ed220-9e9e-4bc8-a5f6-aeb6066011ca","ios":"levelo://app?vid=9f3ed220-9e9e-4bc8-a5f6-aeb6066011ca"},"vehicle_type_id":"4","last_reported":1753301574,"current_range_meters":12000,"station_id":"ce4bhgp2rcd13ifvqfc0","pricing_plan_id":"cebpf4jnsgd1na2vs0mg"},{"bike_id":"e1f22cc8-1e36-4714-b714-1aa9f6f37b26","system_id":"levelo_inurba_marseille","lat":43.2827,"lon":5.35075,"is_reserved":false,"is_disabled":false,"rental_uris":{"android":"levelo://app?vid=e1f22cc8-1e36-4714-b714-1aa9f6f37b26","ios":"levelo://app?vid=e1f22cc8-1e36-4714-b714-1aa9f6f37b26"},"vehicle_type_id":"4","last_reported":1753301574,"current_range_meters":12400,"station_id":"ce4bhbp2rcd13ifvqerg","pricing_plan_id":"cebpf4jnsgd1na2vs0mg"},{"bike_id":"220d370a-fe8f-4719-a62a-7388a95bfb88","system_id":"levelo_inurba_marseille","lat":43.296167,"lon":5.377473,"is_reserved":false,"is_disabled":false,"rental_uris":{"android":"levelo://app?vid=220d370a-fe8f-4719-a62a-7388a95bfb88","ios":"levelo://app?vid=220d370a-fe8f-4719-a62a-7388a95bfb88"},"vehicle_type_id":"4","last_reported":1753301574,"current_range_meters":12400,"station_id":"ce4bgi92rcd13ifvqb90","pricing_plan_id":"cebpf4jnsgd1na2vs0mg"},{"bike_id":"bbc2b271-396f-4875-9f1d-0fcc163d87b6","system_id":"levelo_inurba_marseille","lat":43.29057,"lon":5.39902,"is_reserved":false,"is_disabled":false,"rental_uris":{"android":"levelo://app?vid=bbc2b271-396f-4875-9f1d-0fcc163d87b6","ios":"levelo://app?vid=bbc2b271-396f-4875-9f1d-0fcc163d87b6"},"vehicle_type_id":"4","last_reported":1753301574,"current_range_meters":12400,"station_id":"","pricing_plan_id":"cebpf4jnsgd1na2vs0mg"},{"bike_id":"2c369b09-856a-461f-acef-8a5959d82f6c","system_id":"levelo_inurba_marseille","lat":43.29822,"lon":5.36309,"is_reserved":false,"is_disabled":false,"rental_uris":{"android":"levelo://app?vid=2c369b09-856a-461f-acef-8a5959d82f6c","ios":"levelo://app?vid=2c369b09-856a-461f-acef-8a5959d82f6c"},"vehicle_type_id":"4","last_reported":1753301574,"current_range_meters":12400,"station_id":"ce4bgpp2rcd13ifvqc3g","pricing_plan_id":"cebpf4jnsgd1na2vs0mg"},{"bike_id":"319ff353-d996-4eed-9e49-29cead50a1cd","system_id":"levelo_inurba_marseille","lat":43.295329,"lon":5.385454,"is_reserved":false,"is_disabled":false,"rental_uris":{"android":"levelo://app?vid=319ff353-d996-4eed-9e49-29cead50a1cd","ios":"levelo://app?vid=319ff353-d996-4eed-9e49-29cead50a1cd"},"vehicle_type_id":"4","last_reported":1753301574,"current_range_meters":12400,"station_id":"ce4bgih2rcd13ifvqba0","pricing_plan_id":"cebpf4jnsgd1na2vs0mg"},{"bike_id":"e316de38-cddf-473a-9560-ebfe3300a0f1","system_id":"levelo_inurba_marseille","lat":43.28492,"lon":5.38586,"is_reserved":false,"is_disabled":false,"rental_uris":{"android":"levelo://app?vid=e316de38-cddf-473a-9560-ebfe3300a0f1","ios":"levelo://app?vid=e316de38-cddf-473a-9560-ebfe3300a0f1"},"vehicle_type_id":"4","last_reported":1753301574,"current_range_meters":12400,"station_id":"ce4bh8p2rcd13ifvqeb0","pricing_plan_id":"cebpf4jnsgd1na2vs0mg"},{"bike_id":"057af047-22d1-4bda-b494-c99ebd0082fd","system_id":"levelo_inurba_marseille","lat":43.33601,"lon":5.4104,"is_reserved":false,"is_disabled":false,"rental_uris":{"android":"levelo://app?vid=057af047-22d1-4bda-b494-c99ebd0082fd","ios":"levelo://app?vid=057af047-22d1-4bda-b494-c99ebd0082fd"},"vehicle_type_id":"4","last_reported":1753301574,"current_range_meters":12400,"station_id":"ce4bhqh2rcd13ifvqhmg","pricing_plan_id":"cebpf4jnsgd1na2vs0mg"},{"bike_id":"8aeb6c61-f5c3-4738-9680-41cc4aacbb8f","system_id":"levelo_inurba_marseille","lat":43.29582,"lon":5.3674,"is_reserved":false,"is_disabled":false,"rental_uris":{"android":"levelo://app?vid=8aeb6c61-f5c3-4738-9680-41cc4aacbb8f","ios":"levelo://app?vid=8aeb6c61-f5c3-4738-9680-41cc4aacbb8f"},"vehicle_type_id":"4","last_reported":1753301574,"current_range_meters":12800,"station_id":"ce4bgph2rcd13ifvqc2g","pricing_plan_id":"cebpf4jnsgd1na2vs0mg"},{"bike_id":"2f61fd6c-d657-4c53-bdf7-4cb4dc022375","system_id":"levelo_inurba_marseille","lat":43.29583,"lon":5.36745,"is_reserved":false,"is_disabled":false,"rental_uris":{"android":"levelo://app?vid=2f61fd6c-d657-4c53-bdf7-4cb4dc022375","ios":"levelo://app?vid=2f61fd6c-d657-4c53-bdf7-4cb4dc022375"},"vehicle_type_id":"4","last_reported":1753301574,"current_range_meters":12800,"station_id":"ce4bgph2rcd13ifvqc2g","pricing_plan_id":"cebpf4jnsgd1na2vs0mg"},{"bike_id":"184e7ca1-2751-41a3-abf6-c8837d90e289","system_id":"levelo_inurba_marseille","lat":43.289735,"lon":5.378285,"is_reserved":false,"is_disabled":false,"rental_uris":{"android":"levelo://app?vid=184e7ca1-2751-41a3-abf6-c8837d90e289","ios":"levelo://app?vid=184e7ca1-2751-41a3-abf6-c8837d90e289"},"vehicle_type_id":"4","last_reported":1753301574,"current_range_meters":12800,"station_id":"ce4bh9p2rcd13ifvqed0","pricing_plan_id":"cebpf4jnsgd1na2vs0mg"},{"bike_id":"396dbd6b-bd12-4fba-a413-85741f08daa2","system_id":"levelo_inurba_marseille","lat":43.23058,"lon":5.35516,"is_reserved":false,"is_disabled":false,"rental_uris":{"android":"levelo://app?vid=396dbd6b-bd12-4fba-a413-85741f08daa2","ios":"levelo://app?vid=396dbd6b-bd12-4fba-a413-85741f08daa2"},"vehicle_type_id":"4","last_reported":1753301574,"current_range_meters":12800,"station_id":"cpo3342slgdg3j2ifvpg","pricing_plan_id":"cebpf4jnsgd1na2vs0mg"},{"bike_id":"88a9f625-7de7-4de5-aa62-8abe9be22433","system_id":"levelo_inurba_marseille","lat":43.29018,"lon":5.38645,"is_reserved":false,"is_disabled":false,"rental_uris":{"android":"levelo://app?vid=88a9f625-7de7-4de5-aa62-8abe9be22433","ios":"levelo://app?vid=88a9f625-7de7-4de5-aa62-8abe9be22433"},"vehicle_type_id":"4","last_reported":1753301574,"current_range_meters":12800,"station_id":"ce4bh4p2rcd13ifvqe0g","pricing_plan_id":"cebpf4jnsgd1na2vs0mg"},{"bike_id":"ce48a911-4507-4b74-976c-1633ca96f1c2","system_id":"levelo_inurba_marseille","lat":43.29582,"lon":5.36733,"is_reserved":false,"is_disabled":false,"rental_uris":{"android":"levelo://app?vid=ce48a911-4507-4b74-976c-1633ca96f1c2","ios":"levelo://app?vid=ce48a911-4507-4b74-976c-1633ca96f1c2"},"vehicle_type_id":"4","last_reported":1753301574,"current_range_meters":13600,"station_id":"ce4bgph2rcd13ifvqc2g","pricing_plan_id":"cebpf4jnsgd1na2vs0mg"},{"bike_id":"fec3b07e-037a-4fea-a191-679ee2b99950","system_id":"levelo_inurba_marseille","lat":43.24171,"lon":5.36392,"is_reserved":false,"is_disabled":false,"rental_uris":{"android":"levelo://app?vid=fec3b07e-037a-4fea-a191-679ee2b99950","ios":"levelo://app?vid=fec3b07e-037a-4fea-a191-679ee2b99950"},"vehicle_type_id":"4","last_reported":1753301574,"current_range_meters":13600,"station_id":"cpo36qri1sfpv3e86is0","pricing_plan_id":"cebpf4jnsgd1na2vs0mg"},{"bike_id":"a57f0c65-77c9-4cbc-b2cf-5b1182967c78","system_id":"levelo_inurba_marseille","lat":43.25112,"lon":5.4032,"is_reserved":false,"is_disabled":false,"rental_uris":{"android":"levelo://app?vid=a57f0c65-77c9-4cbc-b2cf-5b1182967c78","ios":"levelo://app?vid=a57f0c65-77c9-4cbc-b2cf-5b1182967c78"},"vehicle_type_id":"4","last_reported":1753301574,"current_range_meters":13600,"station_id":"ce4bhlh2rcd13ifvqgig","pricing_plan_id":"cebpf4jnsgd1na2vs0mg"},{"bike_id":"1f9335bf-80a4-4f4f-94df-e4c366ebb5ed","system_id":"levelo_inurba_marseille","lat":43.28415,"lon":5.34974,"is_reserved":false,"is_disabled":false,"rental_uris":{"android":"levelo://app?vid=1f9335bf-80a4-4f4f-94df-e4c366ebb5ed","ios":"levelo://app?vid=1f9335bf-80a4-4f4f-94df-e4c366ebb5ed"},"vehicle_type_id":"4","last_reported":1753301574,"current_range_meters":13600,"station_id":"ce4bhbh2rcd13ifvqepg","pricing_plan_id":"cebpf4jnsgd1na2vs0mg"},{"bike_id":"6ba8bf23-faf4-4e7f-a0da-6f0984da5df1","system_id":"levelo_inurba_marseille","lat":43.26212,"lon":5.37454,"is_reserved":false,"is_disabled":false,"rental_uris":{"android":"levelo://app?vid=6ba8bf23-faf4-4e7f-a0da-6f0984da5df1","ios":"levelo://app?vid=6ba8bf23-faf4-4e7f-a0da-6f0984da5df1"},"vehicle_type_id":"4","last_reported":1753301574,"current_range_meters":13600,"station_id":"ce4bhgp2rcd13ifvqfc0","pricing_plan_id":"cebpf4jnsgd1na2vs0mg"},{"bike_id":"38a28b1f-e48d-4fb2-93dc-e80e1ec8bb1d","system_id":"levelo_inurba_marseille","lat":43.29817,"lon":5.36274,"is_reserved":false,"is_disabled":false,"rental_uris":{"android":"levelo://app?vid=38a28b1f-e48d-4fb2-93dc-e80e1ec8bb1d","ios":"levelo://app?vid=38a28b1f-e48d-4fb2-93dc-e80e1ec8bb1d"},"vehicle_type_id":"4","last_reported":1753301574,"current_range_meters":14000,"station_id":"ce4bgpp2rcd13ifvqc3g","pricing_plan_id":"cebpf4jnsgd1na2vs0mg"},{"bike_id":"f9c9ff83-8548-4acb-a33b-495af4adeef4","system_id":"levelo_inurba_marseille","lat":43.32342,"lon":5.36731,"is_reserved":false,"is_disabled":false,"rental_uris":{"android":"levelo://app?vid=f9c9ff83-8548-4acb-a33b-495af4adeef4","ios":"levelo://app?vid=f9c9ff83-8548-4acb-a33b-495af4adeef4"},"vehicle_type_id":"4","last_reported":1753301574,"current_range_meters":14000,"station_id":"ce4bhsh2rcd13ifvqi2g","pricing_plan_id":"cebpf4jnsgd1na2vs0mg"},{"bike_id":"7e9569d5-15fb-47a8-a656-b6e890819cc2","system_id":"levelo_inurba_marseille","lat":43.30116,"lon":5.39843,"is_reserved":false,"is_disabled":false,"rental_uris":{"android":"levelo://app?vid=7e9569d5-15fb-47a8-a656-b6e890819cc2","ios":"levelo://app?vid=7e9569d5-15fb-47a8-a656-b6e890819cc2"},"vehicle_type_id":"4","last_reported":1753301574,"current_range_meters":14000,"station_id":"ce4bh0h2rcd13ifvqd40","pricing_plan_id":"cebpf4jnsgd1na2vs0mg"},{"bike_id":"d5a6c524-d271-4f57-a2f0-642fd942afc3","system_id":"levelo_inurba_marseille","lat":43.28601,"lon":5.37065,"is_reserved":false,"is_disabled":false,"rental_uris":{"android":"levelo://app?vid=d5a6c524-d271-4f57-a2f0-642fd942afc3","ios":"levelo://app?vid=d5a6c524-d271-4f57-a2f0-642fd942afc3"},"vehicle_type_id":"4","last_reported":1753301574,"current_range_meters":14000,"station_id":"ce4bht12rcd13ifvqi60","pricing_plan_id":"cebpf4jnsgd1na2vs0mg"},{"bike_id":"f01e414c-b427-4592-8575-1dbbdc0a685f","system_id":"levelo_inurba_marseille","lat":43.291271,"lon":5.392262,"is_reserved":false,"is_disabled":false,"rental_uris":{"android":"levelo://app?vid=f01e414c-b427-4592-8575-1dbbdc0a685f","ios":"levelo://app?vid=f01e414c-b427-4592-8575-1dbbdc0a685f"},"vehicle_type_id":"4","last_reported":1753301574,"current_range_meters":14000,"station_id":"ce4bh192rcd13ifvqdd0","pricing_plan_id":"cebpf4jnsgd1na2vs0mg"},{"bike_id":"d81a83d1-7e0f-4342-866a-dbc41bd13708","system_id":"levelo_inurba_marseille","lat":43.298439,"lon":5.362713,"is_reserved":false,"is_disabled":false,"rental_uris":{"android":"levelo://app?vid=d81a83d1-7e0f-4342-866a-dbc41bd13708","ios":"levelo://app?vid=d81a83d1-7e0f-4342-866a-dbc41bd13708"},"vehicle_type_id":"4","last_reported":1753301574,"current_range_meters":14000,"station_id":"ce4bgpp2rcd13ifvqc3g","pricing_plan_id":"cebpf4jnsgd1na2vs0mg"},{"bike_id":"8c88448a-fb33-41bd-ae09-f0aac6cee4c1","system_id":"levelo_inurba_marseille","lat":43.26207,"lon":5.37443,"is_reserved":false,"is_disabled":false,"rental_uris":{"android":"levelo://app?vid=8c88448a-fb33-41bd-ae09-f0aac6cee4c1","ios":"levelo://app?vid=8c88448a-fb33-41bd-ae09-f0aac6cee4c1"},"vehicle_type_id":"4","last_reported":1753301574,"current_range_meters":14000,"station_id":"ce4bhgp2rcd13ifvqfc0","pricing_plan_id":"cebpf4jnsgd1na2vs0mg"},{"bike_id":"f82f6472-5e60-48fd-853e-7328c7c3da9e","system_id":"levelo_inurba_marseille","lat":43.29603,"lon":5.36784,"is_reserved":false,"is_disabled":false,"rental_uris":{"android":"levelo://app?vid=f82f6472-5e60-48fd-853e-7328c7c3da9e","ios":"levelo://app?vid=f82f6472-5e60-48fd-853e-7328c7c3da9e"},"vehicle_type_id":"4","last_reported":1753301574,"current_range_meters":14000,"station_id":"","pricing_plan_id":"cebpf4jnsgd1na2vs0mg"},{"bike_id":"541e3f7a-640b-4d8c-977d-949ca2a087ab","system_id":"levelo_inurba_marseille","lat":43.30796,"lon":5.379577,"is_reserved":false,"is_disabled":true,"rental_uris":{"android":"levelo://app?vid=541e3f7a-640b-4d8c-977d-949ca2a087ab","ios":"levelo://app?vid=541e3f7a-640b-4d8c-977d-949ca2a087ab"},"vehicle_type_id":"4","last_reported":1753301574,"current_range_meters":14000,"station_id":"ce4bgt12rcd13ifvqce0","pricing_plan_id":"cebpf4jnsgd1na2vs0mg"},{"bike_id":"be73e0c3-1fcd-4852-b65a-d69995cb5cc9","system_id":"levelo_inurba_marseille","lat":43.3233,"lon":5.4064,"is_reserved":false,"is_disabled":true,"rental_uris":{"android":"levelo://app?vid=be73e0c3-1fcd-4852-b65a-d69995cb5cc9","ios":"levelo://app?vid=be73e0c3-1fcd-4852-b65a-d69995cb5cc9"},"vehicle_type_id":"4","last_reported":1753301574,"current_range_meters":14000,"station_id":"ce4bhq92rcd13ifvqhjg","pricing_plan_id":"cebpf4jnsgd1na2vs0mg"},{"bike_id":"77062733-ffc3-4b24-b733-1116c031dbb0","system_id":"levelo_inurba_marseille","lat":43.298474,"lon":5.362802,"is_reserved":false,"is_disabled":false,"rental_uris":{"android":"levelo://app?vid=77062733-ffc3-4b24-b733-1116c031dbb0","ios":"levelo://app?vid=77062733-ffc3-4b24-b733-1116c031dbb0"},"vehicle_type_id":"4","last_reported":1753301574,"current_range_meters":14000,"station_id":"ce4bgpp2rcd13ifvqc3g","pricing_plan_id":"cebpf4jnsgd1na2vs0mg"},{"bike_id":"97f010fe-5e02-4a28-bcb3-2c90c9ddd00a","system_id":"levelo_inurba_marseille","lat":43.297,"lon":5.36616,"is_reserved":false,"is_disabled":false,"rental_uris":{"android":"levelo://app?vid=97f010fe-5e02-4a28-bcb3-2c90c9ddd00a","ios":"levelo://app?vid=97f010fe-5e02-4a28-bcb3-2c90c9ddd00a"},"vehicle_type_id":"4","last_reported":1753301574,"current_range_meters":14000,"station_id":"ce4bgn12rcd13ifvqbt0","pricing_plan_id":"cebpf4jnsgd1na2vs0mg"},{"bike_id":"9591447c-65f8-4229-b566-ff232d2d2832","system_id":"levelo_inurba_marseille","lat":43.28563,"lon":5.39495,"is_reserved":false,"is_disabled":false,"rental_uris":{"android":"levelo://app?vid=9591447c-65f8-4229-b566-ff232d2d2832","ios":"levelo://app?vid=9591447c-65f8-4229-b566-ff232d2d2832"},"vehicle_type_id":"4","last_reported":1753301574,"current_range_meters":14000,"station_id":"ce4bh292rcd13ifvqdg0","pricing_plan_id":"cebpf4jnsgd1na2vs0mg"},{"bike_id":"9ce312f1-cb07-4159-91d6-c11a68a5ee71","system_id":"levelo_inurba_marseille","lat":43.21181,"lon":5.35076,"is_reserved":false,"is_disabled":false,"rental_uris":{"android":"levelo://app?vid=9ce312f1-cb07-4159-91d6-c11a68a5ee71","ios":"levelo://app?vid=9ce312f1-cb07-4159-91d6-c11a68a5ee71"},"vehicle_type_id":"4","last_reported":1753301574,"current_range_meters":14000,"station_id":"st_cvj6sg6p6f1abm77japg","pricing_plan_id":"cebpf4jnsgd1na2vs0mg"},{"bike_id":"bbd16db7-d82b-4de1-8c69-f183ff4f975d","system_id":"levelo_inurba_marseille","lat":43.29567,"lon":5.3677,"is_reserved":false,"is_disabled":false,"rental_uris":{"android":"levelo://app?vid=bbd16db7-d82b-4de1-8c69-f183ff4f975d","ios":"levelo://app?vid=bbd16db7-d82b-4de1-8c69-f183ff4f975d"},"vehicle_type_id":"4","last_reported":1753301574,"current_range_meters":14400,"station_id":"ce4bgph2rcd13ifvqc2g","pricing_plan_id":"cebpf4jnsgd1na2vs0mg"},{"bike_id":"f3217e35-0bb5-43ab-beb0-dd5e233a7114","system_id":"levelo_inurba_marseille","lat":43.25584,"lon":5.382241,"is_reserved":false,"is_disabled":false,"rental_uris":{"android":"levelo://app?vid=f3217e35-0bb5-43ab-beb0-dd5e233a7114","ios":"levelo://app?vid=f3217e35-0bb5-43ab-beb0-dd5e233a7114"},"vehicle_type_id":"4","last_reported":1753301574,"current_range_meters":14400,"station_id":"ce4bhih2rcd13ifvqfs0","pricing_plan_id":"cebpf4jnsgd1na2vs0mg"},{"bike_id":"b5ce8d93-17c0-45a5-b2b1-eefce45c2d79","system_id":"levelo_inurba_marseille","lat":43.31802,"lon":5.43517,"is_reserved":false,"is_disabled":false,"rental_uris":{"android":"levelo://app?vid=b5ce8d93-17c0-45a5-b2b1-eefce45c2d79","ios":"levelo://app?vid=b5ce8d93-17c0-45a5-b2b1-eefce45c2d79"},"vehicle_type_id":"4","last_reported":1753301574,"current_range_meters":14400,"station_id":"","pricing_plan_id":"cebpf4jnsgd1na2vs0mg"},{"bike_id":"b8d738d9-a006-4f85-9da8-a7f3edbaa544","system_id":"levelo_inurba_marseille","lat":43.26227,"lon":5.40453,"is_reserved":false,"is_disabled":false,"rental_uris":{"android":"levelo://app?vid=b8d738d9-a006-4f85-9da8-a7f3edbaa544","ios":"levelo://app?vid=b8d738d9-a006-4f85-9da8-a7f3edbaa544"},"vehicle_type_id":"4","last_reported":1753301574,"current_range_meters":14400,"station_id":"ce4bhmh2rcd13ifvqgmg","pricing_plan_id":"cebpf4jnsgd1na2vs0mg"},{"bike_id":"8006020a-6cfe-4131-82ca-a6c8f07671d2","system_id":"levelo_inurba_marseille","lat":43.31173,"lon":5.37715,"is_reserved":false,"is_disabled":false,"rental_uris":{"android":"levelo://app?vid=8006020a-6cfe-4131-82ca-a6c8f07671d2","ios":"levelo://app?vid=8006020a-6cfe-4131-82ca-a6c8f07671d2"},"vehicle_type_id":"4","last_reported":1753301574,"current_range_meters":14400,"station_id":"","pricing_plan_id":"cebpf4jnsgd1na2vs0mg"},{"bike_id":"cea74219-6b4a-42a1-9ddb-291eafad4793","system_id":"levelo_inurba_marseille","lat":43.29704,"lon":5.36608,"is_reserved":false,"is_disabled":false,"rental_uris":{"android":"levelo://app?vid=cea74219-6b4a-42a1-9ddb-291eafad4793","ios":"levelo://app?vid=cea74219-6b4a-42a1-9ddb-291eafad4793"},"vehicle_type_id":"4","last_reported":1753301574,"current_range_meters":14400,"station_id":"ce4bgn12rcd13ifvqbt0","pricing_plan_id":"cebpf4jnsgd1na2vs0mg"},{"bike_id":"a0de01aa-cd68-4a4d-8bab-65fa167b8610","system_id":"levelo_inurba_marseille","lat":43.23193,"lon":5.35547,"is_reserved":false,"is_disabled":false,"rental_uris":{"android":"levelo://app?vid=a0de01aa-cd68-4a4d-8bab-65fa167b8610","ios":"levelo://app?vid=a0de01aa-cd68-4a4d-8bab-65fa167b8610"},"vehicle_type_id":"4","last_reported":1753301574,"current_range_meters":14400,"station_id":"ce4bhu92rcd13ifvqi70","pricing_plan_id":"cebpf4jnsgd1na2vs0mg"},{"bike_id":"0f94997b-6e28-475a-a8dc-523d62ce4285","system_id":"levelo_inurba_marseille","lat":43.28942,"lon":5.39634,"is_reserved":false,"is_disabled":false,"rental_uris":{"android":"levelo://app?vid=0f94997b-6e28-475a-a8dc-523d62ce4285","ios":"levelo://app?vid=0f94997b-6e28-475a-a8dc-523d62ce4285"},"vehicle_type_id":"4","last_reported":1753301574,"current_range_meters":14000,"station_id":"ce4bh3h2rcd13ifvqdn0","pricing_plan_id":"cebpf4jnsgd1na2vs0mg"},{"bike_id":"f8232130-db52-4ff5-b354-f78033a04c00","system_id":"levelo_inurba_marseille","lat":43.27944,"lon":5.41078,"is_reserved":false,"is_disabled":false,"rental_uris":{"android":"levelo://app?vid=f8232130-db52-4ff5-b354-f78033a04c00","ios":"levelo://app?vid=f8232130-db52-4ff5-b354-f78033a04c00"},"vehicle_type_id":"4","last_reported":1753301574,"current_range_meters":14400,"station_id":"ce4bhnp2rcd13ifvqh0g","pricing_plan_id":"cebpf4jnsgd1na2vs0mg"},{"bike_id":"0bc3f237-b88a-46f0-8d05-cf18e190c453","system_id":"levelo_inurba_marseille","lat":43.29029,"lon":5.38638,"is_reserved":false,"is_disabled":false,"rental_uris":{"android":"levelo://app?vid=0bc3f237-b88a-46f0-8d05-cf18e190c453","ios":"levelo://app?vid=0bc3f237-b88a-46f0-8d05-cf18e190c453"},"vehicle_type_id":"4","last_reported":1753301574,"current_range_meters":14800,"station_id":"ce4bh4p2rcd13ifvqe0g","pricing_plan_id":"cebpf4jnsgd1na2vs0mg"},{"bike_id":"6628d4e6-7699-4848-9c52-17cefd00d3c2","system_id":"levelo_inurba_marseille","lat":43.29696,"lon":5.36602,"is_reserved":false,"is_disabled":false,"rental_uris":{"android":"levelo://app?vid=6628d4e6-7699-4848-9c52-17cefd00d3c2","ios":"levelo://app?vid=6628d4e6-7699-4848-9c52-17cefd00d3c2"},"vehicle_type_id":"4","last_reported":1753301574,"current_range_meters":14800,"station_id":"ce4bgn12rcd13ifvqbt0","pricing_plan_id":"cebpf4jnsgd1na2vs0mg"},{"bike_id":"cae798aa-5ae3-4174-b812-4524f36a6b85","system_id":"levelo_inurba_marseille","lat":43.29909,"lon":5.38154,"is_reserved":false,"is_disabled":false,"rental_uris":{"android":"levelo://app?vid=cae798aa-5ae3-4174-b812-4524f36a6b85","ios":"levelo://app?vid=cae798aa-5ae3-4174-b812-4524f36a6b85"},"vehicle_type_id":"4","last_reported":1753301574,"current_range_meters":14400,"station_id":"ce4bgj12rcd13ifvqbc0","pricing_plan_id":"cebpf4jnsgd1na2vs0mg"},{"bike_id":"73d2990e-6aee-4f85-84dd-bd747d92bedc","system_id":"levelo_inurba_marseille","lat":43.32035,"lon":5.41559,"is_reserved":false,"is_disabled":false,"rental_uris":{"android":"levelo://app?vid=73d2990e-6aee-4f85-84dd-bd747d92bedc","ios":"levelo://app?vid=73d2990e-6aee-4f85-84dd-bd747d92bedc"},"vehicle_type_id":"4","last_reported":1753301574,"current_range_meters":14800,"station_id":"ce4bhq92rcd13ifvqhkg","pricing_plan_id":"cebpf4jnsgd1na2vs0mg"},{"bike_id":"028b05be-ec4c-43ca-adc8-d551502182de","system_id":"levelo_inurba_marseille","lat":43.255805,"lon":5.382353,"is_reserved":false,"is_disabled":false,"rental_uris":{"android":"levelo://app?vid=028b05be-ec4c-43ca-adc8-d551502182de","ios":"levelo://app?vid=028b05be-ec4c-43ca-adc8-d551502182de"},"vehicle_type_id":"4","last_reported":1753301574,"current_range_meters":14800,"station_id":"ce4bhih2rcd13ifvqfs0","pricing_plan_id":"cebpf4jnsgd1na2vs0mg"},{"bike_id":"b2b6a3f3-1a05-41ca-a833-63ec0e350362","system_id":"levelo_inurba_marseille","lat":43.29845,"lon":5.36269,"is_reserved":false,"is_disabled":false,"rental_uris":{"android":"levelo://app?vid=b2b6a3f3-1a05-41ca-a833-63ec0e350362","ios":"levelo://app?vid=b2b6a3f3-1a05-41ca-a833-63ec0e350362"},"vehicle_type_id":"4","last_reported":1753301574,"current_range_meters":14800,"station_id":"ce4bgpp2rcd13ifvqc3g","pricing_plan_id":"cebpf4jnsgd1na2vs0mg"},{"bike_id":"a8b6b608-9ecc-4a96-b91d-e88ce53d3625","system_id":"levelo_inurba_marseille","lat":43.29849,"lon":5.36279,"is_reserved":false,"is_disabled":false,"rental_uris":{"android":"levelo://app?vid=a8b6b608-9ecc-4a96-b91d-e88ce53d3625","ios":"levelo://app?vid=a8b6b608-9ecc-4a96-b91d-e88ce53d3625"},"vehicle_type_id":"4","last_reported":1753301574,"current_range_meters":14800,"station_id":"ce4bgpp2rcd13ifvqc3g","pricing_plan_id":"cebpf4jnsgd1na2vs0mg"},{"bike_id":"683283d1-1591-4a43-8a61-cb832e45927b","system_id":"levelo_inurba_marseille","lat":43.24388,"lon":5.37061,"is_reserved":false,"is_disabled":false,"rental_uris":{"android":"levelo://app?vid=683283d1-1591-4a43-8a61-cb832e45927b","ios":"levelo://app?vid=683283d1-1591-4a43-8a61-cb832e45927b"},"vehicle_type_id":"4","last_reported":1753301574,"current_range_meters":14800,"station_id":"ce4bhhh2rcd13ifvqfk0","pricing_plan_id":"cebpf4jnsgd1na2vs0mg"},{"bike_id":"a3640f8d-e562-4f12-8803-79ea76a806b7","system_id":"levelo_inurba_marseille","lat":43.26531,"lon":5.37319,"is_reserved":false,"is_disabled":false,"rental_uris":{"android":"levelo://app?vid=a3640f8d-e562-4f12-8803-79ea76a806b7","ios":"levelo://app?vid=a3640f8d-e562-4f12-8803-79ea76a806b7"},"vehicle_type_id":"4","last_reported":1753301574,"current_range_meters":14800,"station_id":"","pricing_plan_id":"cebpf4jnsgd1na2vs0mg"},{"bike_id":"96f4d3b3-6136-4451-a843-6103378c0f9f","system_id":"levelo_inurba_marseille","lat":43.27995,"lon":5.41664,"is_reserved":false,"is_disabled":false,"rental_uris":{"android":"levelo://app?vid=96f4d3b3-6136-4451-a843-6103378c0f9f","ios":"levelo://app?vid=96f4d3b3-6136-4451-a843-6103378c0f9f"},"vehicle_type_id":"4","last_reported":1753301574,"current_range_meters":14400,"station_id":"ce4bho12rcd13ifvqh1g","pricing_plan_id":"cebpf4jnsgd1na2vs0mg"},{"bike_id":"0116e031-f452-4b1a-b95f-cdd45c324d43","system_id":"levelo_inurba_marseille","lat":43.29258,"lon":5.38444,"is_reserved":false,"is_disabled":false,"rental_uris":{"android":"levelo://app?vid=0116e031-f452-4b1a-b95f-cdd45c324d43","ios":"levelo://app?vid=0116e031-f452-4b1a-b95f-cdd45c324d43"},"vehicle_type_id":"4","last_reported":1753301574,"current_range_meters":14800,"station_id":"ce4bh692rcd13ifvqea0","pricing_plan_id":"cebpf4jnsgd1na2vs0mg"},{"bike_id":"d4e5dd79-2b52-4d97-8cab-d2aa23e54cd3","system_id":"levelo_inurba_marseille","lat":43.2926,"lon":5.3844,"is_reserved":false,"is_disabled":false,"rental_uris":{"android":"levelo://app?vid=d4e5dd79-2b52-4d97-8cab-d2aa23e54cd3","ios":"levelo://app?vid=d4e5dd79-2b52-4d97-8cab-d2aa23e54cd3"},"vehicle_type_id":"4","last_reported":1753301574,"current_range_meters":15200,"station_id":"ce4bh692rcd13ifvqea0","pricing_plan_id":"cebpf4jnsgd1na2vs0mg"},{"bike_id":"d9d3254b-557d-4def-8feb-ef7b406b766f","system_id":"levelo_inurba_marseille","lat":43.29852,"lon":5.36283,"is_reserved":false,"is_disabled":false,"rental_uris":{"android":"levelo://app?vid=d9d3254b-557d-4def-8feb-ef7b406b766f","ios":"levelo://app?vid=d9d3254b-557d-4def-8feb-ef7b406b766f"},"vehicle_type_id":"4","last_reported":1753301574,"current_range_meters":15200,"station_id":"ce4bgpp2rcd13ifvqc3g","pricing_plan_id":"cebpf4jnsgd1na2vs0mg"},{"bike_id":"4fca153b-9dee-43e4-9d3d-784cffa27ce0","system_id":"levelo_inurba_marseille","lat":43.301319,"lon":5.39874,"is_reserved":false,"is_disabled":false,"rental_uris":{"android":"levelo://app?vid=4fca153b-9dee-43e4-9d3d-784cffa27ce0","ios":"levelo://app?vid=4fca153b-9dee-43e4-9d3d-784cffa27ce0"},"vehicle_type_id":"4","last_reported":1753301574,"current_range_meters":15200,"station_id":"","pricing_plan_id":"cebpf4jnsgd1na2vs0mg"},{"bike_id":"fd806929-766b-4e70-9fda-08bb1966d1c7","system_id":"levelo_inurba_marseille","lat":43.28848,"lon":5.39321,"is_reserved":false,"is_disabled":false,"rental_uris":{"android":"levelo://app?vid=fd806929-766b-4e70-9fda-08bb1966d1c7","ios":"levelo://app?vid=fd806929-766b-4e70-9fda-08bb1966d1c7"},"vehicle_type_id":"4","last_reported":1753301574,"current_range_meters":15200,"station_id":"ce4bh2p2rcd13ifvqdi0","pricing_plan_id":"cebpf4jnsgd1na2vs0mg"},{"bike_id":"e6c29dab-f364-466c-9e50-3364d4df321e","system_id":"levelo_inurba_marseille","lat":43.28076,"lon":5.3966,"is_reserved":false,"is_disabled":false,"rental_uris":{"android":"levelo://app?vid=e6c29dab-f364-466c-9e50-3364d4df321e","ios":"levelo://app?vid=e6c29dab-f364-466c-9e50-3364d4df321e"},"vehicle_type_id":"4","last_reported":1753301574,"current_range_meters":15200,"station_id":"ce4bho12rcd13ifvqh2g","pricing_plan_id":"cebpf4jnsgd1na2vs0mg"},{"bike_id":"e1563fd2-2cb4-43d1-91ff-12ef546ab072","system_id":"levelo_inurba_marseille","lat":43.28038,"lon":5.36966,"is_reserved":false,"is_disabled":false,"rental_uris":{"android":"levelo://app?vid=e1563fd2-2cb4-43d1-91ff-12ef546ab072","ios":"levelo://app?vid=e1563fd2-2cb4-43d1-91ff-12ef546ab072"},"vehicle_type_id":"4","last_reported":1753301574,"current_range_meters":15200,"station_id":"ce4bha12rcd13ifvqef0","pricing_plan_id":"cebpf4jnsgd1na2vs0mg"},{"bike_id":"75921511-23bf-408f-9470-1062209789d6","system_id":"levelo_inurba_marseille","lat":43.25577,"lon":5.38234,"is_reserved":false,"is_disabled":false,"rental_uris":{"android":"levelo://app?vid=75921511-23bf-408f-9470-1062209789d6","ios":"levelo://app?vid=75921511-23bf-408f-9470-1062209789d6"},"vehicle_type_id":"4","last_reported":1753301574,"current_range_meters":16000,"station_id":"ce4bhih2rcd13ifvqfs0","pricing_plan_id":"cebpf4jnsgd1na2vs0mg"},{"bike_id":"40902f81-8d4b-4071-aa25-91bac3573b61","system_id":"levelo_inurba_marseille","lat":43.29704,"lon":5.36616,"is_reserved":false,"is_disabled":false,"rental_uris":{"android":"levelo://app?vid=40902f81-8d4b-4071-aa25-91bac3573b61","ios":"levelo://app?vid=40902f81-8d4b-4071-aa25-91bac3573b61"},"vehicle_type_id":"4","last_reported":1753301574,"current_range_meters":16000,"station_id":"ce4bgn12rcd13ifvqbt0","pricing_plan_id":"cebpf4jnsgd1na2vs0mg"},{"bike_id":"b36603ab-fcac-4dd8-9943-bf3b329d0c15","system_id":"levelo_inurba_marseille","lat":43.30937,"lon":5.40139,"is_reserved":false,"is_disabled":false,"rental_uris":{"android":"levelo://app?vid=b36603ab-fcac-4dd8-9943-bf3b329d0c15","ios":"levelo://app?vid=b36603ab-fcac-4dd8-9943-bf3b329d0c15"},"vehicle_type_id":"4","last_reported":1753301574,"current_range_meters":15200,"station_id":"ce4bgvp2rcd13ifvqct0","pricing_plan_id":"cebpf4jnsgd1na2vs0mg"},{"bike_id":"98fe5f1a-fd77-4242-a046-b68a76478c11","system_id":"levelo_inurba_marseille","lat":43.29264,"lon":5.38443,"is_reserved":false,"is_disabled":false,"rental_uris":{"android":"levelo://app?vid=98fe5f1a-fd77-4242-a046-b68a76478c11","ios":"levelo://app?vid=98fe5f1a-fd77-4242-a046-b68a76478c11"},"vehicle_type_id":"4","last_reported":1753301574,"current_range_meters":16000,"station_id":"ce4bh692rcd13ifvqea0","pricing_plan_id":"cebpf4jnsgd1na2vs0mg"},{"bike_id":"3a6b3c54-f5c1-4aba-947e-8c09d14224b5","system_id":"levelo_inurba_marseille","lat":43.2827,"lon":5.35064,"is_reserved":false,"is_disabled":false,"rental_uris":{"android":"levelo://app?vid=3a6b3c54-f5c1-4aba-947e-8c09d14224b5","ios":"levelo://app?vid=3a6b3c54-f5c1-4aba-947e-8c09d14224b5"},"vehicle_type_id":"4","last_reported":1753301574,"current_range_meters":16000,"station_id":"ce4bhbp2rcd13ifvqerg","pricing_plan_id":"cebpf4jnsgd1na2vs0mg"},{"bike_id":"3cd09fc8-9554-4236-8496-0931a7be09d1","system_id":"levelo_inurba_marseille","lat":43.21163,"lon":5.35074,"is_reserved":false,"is_disabled":false,"rental_uris":{"android":"levelo://app?vid=3cd09fc8-9554-4236-8496-0931a7be09d1","ios":"levelo://app?vid=3cd09fc8-9554-4236-8496-0931a7be09d1"},"vehicle_type_id":"4","last_reported":1753301574,"current_range_meters":16000,"station_id":"st_cvj6sg6p6f1abm77japg","pricing_plan_id":"cebpf4jnsgd1na2vs0mg"},{"bike_id":"543662f5-9843-4633-8c64-89c30a6c541f","system_id":"levelo_inurba_marseille","lat":43.28614,"lon":5.351,"is_reserved":false,"is_disabled":false,"rental_uris":{"android":"levelo://app?vid=543662f5-9843-4633-8c64-89c30a6c541f","ios":"levelo://app?vid=543662f5-9843-4633-8c64-89c30a6c541f"},"vehicle_type_id":"4","last_reported":1753301574,"current_range_meters":16000,"station_id":"","pricing_plan_id":"cebpf4jnsgd1na2vs0mg"},{"bike_id":"83f868a2-5d8e-48ef-ac82-40376bea65ae","system_id":"levelo_inurba_marseille","lat":43.25581,"lon":5.38267,"is_reserved":false,"is_disabled":false,"rental_uris":{"android":"levelo://app?vid=83f868a2-5d8e-48ef-ac82-40376bea65ae","ios":"levelo://app?vid=83f868a2-5d8e-48ef-ac82-40376bea65ae"},"vehicle_type_id":"4","last_reported":1753301574,"current_range_meters":16000,"station_id":"ce4bhih2rcd13ifvqfs0","pricing_plan_id":"cebpf4jnsgd1na2vs0mg"},{"bike_id":"577105e5-d8e4-4c2b-8c24-84ae101274aa","system_id":"levelo_inurba_marseille","lat":43.29233,"lon":5.38361,"is_reserved":false,"is_disabled":false,"rental_uris":{"android":"levelo://app?vid=577105e5-d8e4-4c2b-8c24-84ae101274aa","ios":"levelo://app?vid=577105e5-d8e4-4c2b-8c24-84ae101274aa"},"vehicle_type_id":"4","last_reported":1753301574,"current_range_meters":16000,"station_id":"","pricing_plan_id":"cebpf4jnsgd1na2vs0mg"},{"bike_id":"ba41c70d-58da-4ac8-b646-54004092a48b","system_id":"levelo_inurba_marseille","lat":43.29576,"lon":5.36741,"is_reserved":false,"is_disabled":false,"rental_uris":{"android":"levelo://app?vid=ba41c70d-58da-4ac8-b646-54004092a48b","ios":"levelo://app?vid=ba41c70d-58da-4ac8-b646-54004092a48b"},"vehicle_type_id":"4","last_reported":1753301574,"current_range_meters":16000,"station_id":"ce4bgph2rcd13ifvqc2g","pricing_plan_id":"cebpf4jnsgd1na2vs0mg"},{"bike_id":"f77e2119-efdf-4f97-ae6a-f4423c6f3a21","system_id":"levelo_inurba_marseille","lat":43.29578,"lon":5.36754,"is_reserved":false,"is_disabled":false,"rental_uris":{"android":"levelo://app?vid=f77e2119-efdf-4f97-ae6a-f4423c6f3a21","ios":"levelo://app?vid=f77e2119-efdf-4f97-ae6a-f4423c6f3a21"},"vehicle_type_id":"4","last_reported":1753301574,"current_range_meters":16000,"station_id":"ce4bgph2rcd13ifvqc2g","pricing_plan_id":"cebpf4jnsgd1na2vs0mg"},{"bike_id":"e480bd8b-ab3b-474e-85dc-cd917472d2ed","system_id":"levelo_inurba_marseille","lat":43.239602,"lon":5.36634,"is_reserved":false,"is_disabled":false,"rental_uris":{"android":"levelo://app?vid=e480bd8b-ab3b-474e-85dc-cd917472d2ed","ios":"levelo://app?vid=e480bd8b-ab3b-474e-85dc-cd917472d2ed"},"vehicle_type_id":"4","last_reported":1753301574,"current_range_meters":16000,"station_id":"ce4bhi12rcd13ifvqfp0","pricing_plan_id":"cebpf4jnsgd1na2vs0mg"},{"bike_id":"b0526b9c-728a-469d-889f-40c6ee4daf11","system_id":"levelo_inurba_marseille","lat":43.26679,"lon":5.38267,"is_reserved":false,"is_disabled":false,"rental_uris":{"android":"levelo://app?vid=b0526b9c-728a-469d-889f-40c6ee4daf11","ios":"levelo://app?vid=b0526b9c-728a-469d-889f-40c6ee4daf11"},"vehicle_type_id":"4","last_reported":1753301574,"current_range_meters":15200,"station_id":"ce4bhg92rcd13ifvqf90","pricing_plan_id":"cebpf4jnsgd1na2vs0mg"},{"bike_id":"da02e45a-a7af-4ba3-a013-1f386c6cc032","system_id":"levelo_inurba_marseille","lat":43.29584,"lon":5.36749,"is_reserved":false,"is_disabled":false,"rental_uris":{"android":"levelo://app?vid=da02e45a-a7af-4ba3-a013-1f386c6cc032","ios":"levelo://app?vid=da02e45a-a7af-4ba3-a013-1f386c6cc032"},"vehicle_type_id":"4","last_reported":1753301574,"current_range_meters":16000,"station_id":"ce4bgph2rcd13ifvqc2g","pricing_plan_id":"cebpf4jnsgd1na2vs0mg"},{"bike_id":"072249e0-6b31-4d65-814c-3886177b7a41","system_id":"levelo_inurba_marseille","lat":43.31768,"lon":5.38999,"is_reserved":false,"is_disabled":false,"rental_uris":{"android":"levelo://app?vid=072249e0-6b31-4d65-814c-3886177b7a41","ios":"levelo://app?vid=072249e0-6b31-4d65-814c-3886177b7a41"},"vehicle_type_id":"4","last_reported":1753301574,"current_range_meters":16000,"station_id":"ce4bhqp2rcd13ifvqhng","pricing_plan_id":"cebpf4jnsgd1na2vs0mg"},{"bike_id":"8da50daa-01e3-4f17-ab0c-8f1f061fcf2c","system_id":"levelo_inurba_marseille","lat":43.26197,"lon":5.37453,"is_reserved":false,"is_disabled":false,"rental_uris":{"android":"levelo://app?vid=8da50daa-01e3-4f17-ab0c-8f1f061fcf2c","ios":"levelo://app?vid=8da50daa-01e3-4f17-ab0c-8f1f061fcf2c"},"vehicle_type_id":"4","last_reported":1753301574,"current_range_meters":16000,"station_id":"ce4bhgp2rcd13ifvqfc0","pricing_plan_id":"cebpf4jnsgd1na2vs0mg"},{"bike_id":"efce9bd7-0f84-4c4c-8629-017c0e0428bd","system_id":"levelo_inurba_marseille","lat":43.25585,"lon":5.38242,"is_reserved":false,"is_disabled":false,"rental_uris":{"android":"levelo://app?vid=efce9bd7-0f84-4c4c-8629-017c0e0428bd","ios":"levelo://app?vid=efce9bd7-0f84-4c4c-8629-017c0e0428bd"},"vehicle_type_id":"4","last_reported":1753301574,"current_range_meters":16400,"station_id":"ce4bhih2rcd13ifvqfs0","pricing_plan_id":"cebpf4jnsgd1na2vs0mg"},{"bike_id":"3df976ed-be3f-45c4-96eb-0f482e6c81eb","system_id":"levelo_inurba_marseille","lat":43.26215,"lon":5.37455,"is_reserved":false,"is_disabled":false,"rental_uris":{"android":"levelo://app?vid=3df976ed-be3f-45c4-96eb-0f482e6c81eb","ios":"levelo://app?vid=3df976ed-be3f-45c4-96eb-0f482e6c81eb"},"vehicle_type_id":"4","last_reported":1753301574,"current_range_meters":16400,"station_id":"ce4bhgp2rcd13ifvqfc0","pricing_plan_id":"cebpf4jnsgd1na2vs0mg"},{"bike_id":"5ac85406-65d0-4336-aa89-4b04b2e6689e","system_id":"levelo_inurba_marseille","lat":43.332775,"lon":5.419868,"is_reserved":false,"is_disabled":false,"rental_uris":{"android":"levelo://app?vid=5ac85406-65d0-4336-aa89-4b04b2e6689e","ios":"levelo://app?vid=5ac85406-65d0-4336-aa89-4b04b2e6689e"},"vehicle_type_id":"4","last_reported":1753301574,"current_range_meters":16400,"station_id":"","pricing_plan_id":"cebpf4jnsgd1na2vs0mg"},{"bike_id":"496cac02-0e91-4f64-97b9-cb34cf0ab931","system_id":"levelo_inurba_marseille","lat":43.22504,"lon":5.34781,"is_reserved":false,"is_disabled":false,"rental_uris":{"android":"levelo://app?vid=496cac02-0e91-4f64-97b9-cb34cf0ab931","ios":"levelo://app?vid=496cac02-0e91-4f64-97b9-cb34cf0ab931"},"vehicle_type_id":"4","last_reported":1753301574,"current_range_meters":16400,"station_id":"st_cvj5dfep6f1abm77gieg","pricing_plan_id":"cebpf4jnsgd1na2vs0mg"},{"bike_id":"9a57aecf-d21f-46e0-89e5-d1961cdc3a3a","system_id":"levelo_inurba_marseille","lat":43.26801,"lon":5.40272,"is_reserved":false,"is_disabled":false,"rental_uris":{"android":"levelo://app?vid=9a57aecf-d21f-46e0-89e5-d1961cdc3a3a","ios":"levelo://app?vid=9a57aecf-d21f-46e0-89e5-d1961cdc3a3a"},"vehicle_type_id":"4","last_reported":1753301574,"current_range_meters":16000,"station_id":"ce501612rcd8frsf0b60","pricing_plan_id":"cebpf4jnsgd1na2vs0mg"},{"bike_id":"68b23df6-72cc-481a-a09a-6413f815ff4e","system_id":"levelo_inurba_marseille","lat":43.25493,"lon":5.37644,"is_reserved":false,"is_disabled":true,"rental_uris":{"android":"levelo://app?vid=68b23df6-72cc-481a-a09a-6413f815ff4e","ios":"levelo://app?vid=68b23df6-72cc-481a-a09a-6413f815ff4e"},"vehicle_type_id":"4","last_reported":1753301574,"current_range_meters":16400,"station_id":"ce4bhh12rcd13ifvqff0","pricing_plan_id":"cebpf4jnsgd1na2vs0mg"},{"bike_id":"70737bad-8214-4681-8a7d-fa98042cf105","system_id":"levelo_inurba_marseille","lat":43.29048,"lon":5.3995,"is_reserved":false,"is_disabled":false,"rental_uris":{"android":"levelo://app?vid=70737bad-8214-4681-8a7d-fa98042cf105","ios":"levelo://app?vid=70737bad-8214-4681-8a7d-fa98042cf105"},"vehicle_type_id":"4","last_reported":1753301574,"current_range_meters":16400,"station_id":"ce4bh392rcd13ifvqdm0","pricing_plan_id":"cebpf4jnsgd1na2vs0mg"},{"bike_id":"ae131367-d818-44a0-9e1d-4aa65dcdb16a","system_id":"levelo_inurba_marseille","lat":43.27491,"lon":5.39658,"is_reserved":false,"is_disabled":false,"rental_uris":{"android":"levelo://app?vid=ae131367-d818-44a0-9e1d-4aa65dcdb16a","ios":"levelo://app?vid=ae131367-d818-44a0-9e1d-4aa65dcdb16a"},"vehicle_type_id":"4","last_reported":1753301574,"current_range_meters":16400,"station_id":"","pricing_plan_id":"cebpf4jnsgd1na2vs0mg"},{"bike_id":"e3068abd-a6a3-46e1-9a23-adb8e1fc32f6","system_id":"levelo_inurba_marseille","lat":43.30129,"lon":5.39868,"is_reserved":false,"is_disabled":false,"rental_uris":{"android":"levelo://app?vid=e3068abd-a6a3-46e1-9a23-adb8e1fc32f6","ios":"levelo://app?vid=e3068abd-a6a3-46e1-9a23-adb8e1fc32f6"},"vehicle_type_id":"4","last_reported":1753301574,"current_range_meters":16400,"station_id":"ce4bh0h2rcd13ifvqd40","pricing_plan_id":"cebpf4jnsgd1na2vs0mg"},{"bike_id":"0648eb3b-38dc-45ba-994e-ffad74a620d8","system_id":"levelo_inurba_marseille","lat":43.28996,"lon":5.3864,"is_reserved":false,"is_disabled":true,"rental_uris":{"android":"levelo://app?vid=0648eb3b-38dc-45ba-994e-ffad74a620d8","ios":"levelo://app?vid=0648eb3b-38dc-45ba-994e-ffad74a620d8"},"vehicle_type_id":"4","last_reported":1753301574,"current_range_meters":16400,"station_id":"ce4bh4p2rcd13ifvqe0g","pricing_plan_id":"cebpf4jnsgd1na2vs0mg"},{"bike_id":"6d4ff16f-f8b9-4f42-bdbe-009a867fa37b","system_id":"levelo_inurba_marseille","lat":43.2957,"lon":5.3678,"is_reserved":false,"is_disabled":false,"rental_uris":{"android":"levelo://app?vid=6d4ff16f-f8b9-4f42-bdbe-009a867fa37b","ios":"levelo://app?vid=6d4ff16f-f8b9-4f42-bdbe-009a867fa37b"},"vehicle_type_id":"4","last_reported":1753301574,"current_range_meters":16400,"station_id":"ce4bgph2rcd13ifvqc2g","pricing_plan_id":"cebpf4jnsgd1na2vs0mg"},{"bike_id":"6bb1f31c-9335-4f39-9585-31374a4775f9","system_id":"levelo_inurba_marseille","lat":43.325583,"lon":5.379059,"is_reserved":false,"is_disabled":false,"rental_uris":{"android":"levelo://app?vid=6bb1f31c-9335-4f39-9585-31374a4775f9","ios":"levelo://app?vid=6bb1f31c-9335-4f39-9585-31374a4775f9"},"vehicle_type_id":"4","last_reported":1753301574,"current_range_meters":16400,"station_id":"","pricing_plan_id":"cebpf4jnsgd1na2vs0mg"},{"bike_id":"21153219-6d23-4427-acaa-a9c5818d34e0","system_id":"levelo_inurba_marseille","lat":43.29636,"lon":5.37161,"is_reserved":false,"is_disabled":false,"rental_uris":{"android":"levelo://app?vid=21153219-6d23-4427-acaa-a9c5818d34e0","ios":"levelo://app?vid=21153219-6d23-4427-acaa-a9c5818d34e0"},"vehicle_type_id":"4","last_reported":1753301574,"current_range_meters":16400,"station_id":"ce4bgnh2rcd13ifvqc0g","pricing_plan_id":"cebpf4jnsgd1na2vs0mg"},{"bike_id":"f6419716-c272-46b5-b908-d91a04b2b53d","system_id":"levelo_inurba_marseille","lat":43.28036,"lon":5.36949,"is_reserved":false,"is_disabled":false,"rental_uris":{"android":"levelo://app?vid=f6419716-c272-46b5-b908-d91a04b2b53d","ios":"levelo://app?vid=f6419716-c272-46b5-b908-d91a04b2b53d"},"vehicle_type_id":"4","last_reported":1753301574,"current_range_meters":16400,"station_id":"ce4bha12rcd13ifvqef0","pricing_plan_id":"cebpf4jnsgd1na2vs0mg"},{"bike_id":"5771bc00-065d-4aca-9a53-c03e85646abb","system_id":"levelo_inurba_marseille","lat":43.29851,"lon":5.36294,"is_reserved":false,"is_disabled":false,"rental_uris":{"android":"levelo://app?vid=5771bc00-065d-4aca-9a53-c03e85646abb","ios":"levelo://app?vid=5771bc00-065d-4aca-9a53-c03e85646abb"},"vehicle_type_id":"4","last_reported":1753301574,"current_range_meters":16400,"station_id":"ce4bgpp2rcd13ifvqc3g","pricing_plan_id":"cebpf4jnsgd1na2vs0mg"},{"bike_id":"f7c54aad-ac10-4cd7-826e-701710590f70","system_id":"levelo_inurba_marseille","lat":43.28271,"lon":5.3506,"is_reserved":false,"is_disabled":false,"rental_uris":{"android":"levelo://app?vid=f7c54aad-ac10-4cd7-826e-701710590f70","ios":"levelo://app?vid=f7c54aad-ac10-4cd7-826e-701710590f70"},"vehicle_type_id":"4","last_reported":1753301574,"current_range_meters":16400,"station_id":"ce4bhbp2rcd13ifvqerg","pricing_plan_id":"cebpf4jnsgd1na2vs0mg"},{"bike_id":"e09c7a24-0d1f-4a6c-9e83-0c5a75ec3ecb","system_id":"levelo_inurba_marseille","lat":43.29849,"lon":5.3628,"is_reserved":false,"is_disabled":false,"rental_uris":{"android":"levelo://app?vid=e09c7a24-0d1f-4a6c-9e83-0c5a75ec3ecb","ios":"levelo://app?vid=e09c7a24-0d1f-4a6c-9e83-0c5a75ec3ecb"},"vehicle_type_id":"4","last_reported":1753301574,"current_range_meters":16400,"station_id":"ce4bgpp2rcd13ifvqc3g","pricing_plan_id":"cebpf4jnsgd1na2vs0mg"},{"bike_id":"a7e4d4c1-b3bb-4c5d-9e58-9f0e47edee61","system_id":"levelo_inurba_marseille","lat":43.29574,"lon":5.39964,"is_reserved":false,"is_disabled":false,"rental_uris":{"android":"levelo://app?vid=a7e4d4c1-b3bb-4c5d-9e58-9f0e47edee61","ios":"levelo://app?vid=a7e4d4c1-b3bb-4c5d-9e58-9f0e47edee61"},"vehicle_type_id":"4","last_reported":1753301574,"current_range_meters":16400,"station_id":"ce4bh312rcd13ifvqdj0","pricing_plan_id":"cebpf4jnsgd1na2vs0mg"},{"bike_id":"c5b6e4f9-7b58-468e-87dd-3b39b07fbb76","system_id":"levelo_inurba_marseille","lat":43.29568,"lon":5.36773,"is_reserved":false,"is_disabled":false,"rental_uris":{"android":"levelo://app?vid=c5b6e4f9-7b58-468e-87dd-3b39b07fbb76","ios":"levelo://app?vid=c5b6e4f9-7b58-468e-87dd-3b39b07fbb76"},"vehicle_type_id":"4","last_reported":1753301574,"current_range_meters":16400,"station_id":"ce4bgph2rcd13ifvqc2g","pricing_plan_id":"cebpf4jnsgd1na2vs0mg"},{"bike_id":"92e197f5-5f7e-41ca-932d-2a3ff826c4fb","system_id":"levelo_inurba_marseille","lat":43.29704,"lon":5.36615,"is_reserved":false,"is_disabled":false,"rental_uris":{"android":"levelo://app?vid=92e197f5-5f7e-41ca-932d-2a3ff826c4fb","ios":"levelo://app?vid=92e197f5-5f7e-41ca-932d-2a3ff826c4fb"},"vehicle_type_id":"4","last_reported":1753301574,"current_range_meters":16400,"station_id":"ce4bgn12rcd13ifvqbt0","pricing_plan_id":"cebpf4jnsgd1na2vs0mg"},{"bike_id":"27b5acbc-b1fd-4385-9be5-bae49e9e4f6a","system_id":"levelo_inurba_marseille","lat":43.24804,"lon":5.37458,"is_reserved":false,"is_disabled":false,"rental_uris":{"android":"levelo://app?vid=27b5acbc-b1fd-4385-9be5-bae49e9e4f6a","ios":"levelo://app?vid=27b5acbc-b1fd-4385-9be5-bae49e9e4f6a"},"vehicle_type_id":"4","last_reported":1753301574,"current_range_meters":16400,"station_id":"ce4bhgh2rcd13ifvqfb0","pricing_plan_id":"cebpf4jnsgd1na2vs0mg"},{"bike_id":"54943e91-61ee-496b-9667-a7c6c3a25bb5","system_id":"levelo_inurba_marseille","lat":43.26262,"lon":5.37486,"is_reserved":false,"is_disabled":false,"rental_uris":{"android":"levelo://app?vid=54943e91-61ee-496b-9667-a7c6c3a25bb5","ios":"levelo://app?vid=54943e91-61ee-496b-9667-a7c6c3a25bb5"},"vehicle_type_id":"4","last_reported":1753301574,"current_range_meters":16400,"station_id":"ce4bhgp2rcd13ifvqfc0","pricing_plan_id":"cebpf4jnsgd1na2vs0mg"},{"bike_id":"f9003d10-d9c2-4f36-aaab-0b06e5143ac9","system_id":"levelo_inurba_marseille","lat":43.30126,"lon":5.37417,"is_reserved":false,"is_disabled":true,"rental_uris":{"android":"levelo://app?vid=f9003d10-d9c2-4f36-aaab-0b06e5143ac9","ios":"levelo://app?vid=f9003d10-d9c2-4f36-aaab-0b06e5143ac9"},"vehicle_type_id":"4","last_reported":1753301574,"current_range_meters":16800,"station_id":"ce4bgs92rcd13ifvqcc0","pricing_plan_id":"cebpf4jnsgd1na2vs0mg"},{"bike_id":"b1611388-74da-4bd8-aa35-2fd1ff7cb76e","system_id":"levelo_inurba_marseille","lat":43.27059,"lon":5.423,"is_reserved":false,"is_disabled":false,"rental_uris":{"android":"levelo://app?vid=b1611388-74da-4bd8-aa35-2fd1ff7cb76e","ios":"levelo://app?vid=b1611388-74da-4bd8-aa35-2fd1ff7cb76e"},"vehicle_type_id":"4","last_reported":1753301574,"current_range_meters":16800,"station_id":"ce4bhk92rcd13ifvqgb0","pricing_plan_id":"cebpf4jnsgd1na2vs0mg"},{"bike_id":"74667481-5f03-4636-8b5a-495e4f40157d","system_id":"levelo_inurba_marseille","lat":43.29866,"lon":5.37654,"is_reserved":false,"is_disabled":false,"rental_uris":{"android":"levelo://app?vid=74667481-5f03-4636-8b5a-495e4f40157d","ios":"levelo://app?vid=74667481-5f03-4636-8b5a-495e4f40157d"},"vehicle_type_id":"4","last_reported":1753301574,"current_range_meters":16800,"station_id":"","pricing_plan_id":"cebpf4jnsgd1na2vs0mg"},{"bike_id":"dd4392ea-2629-4507-80f1-9482946aee9e","system_id":"levelo_inurba_marseille","lat":43.30597,"lon":5.3936,"is_reserved":false,"is_disabled":false,"rental_uris":{"android":"levelo://app?vid=dd4392ea-2629-4507-80f1-9482946aee9e","ios":"levelo://app?vid=dd4392ea-2629-4507-80f1-9482946aee9e"},"vehicle_type_id":"4","last_reported":1753301574,"current_range_meters":16800,"station_id":"ce4bh0p2rcd13ifvqd80","pricing_plan_id":"cebpf4jnsgd1na2vs0mg"},{"bike_id":"24d41707-0aa6-41f4-a142-43a8857ed779","system_id":"levelo_inurba_marseille","lat":43.29824,"lon":5.36307,"is_reserved":false,"is_disabled":false,"rental_uris":{"android":"levelo://app?vid=24d41707-0aa6-41f4-a142-43a8857ed779","ios":"levelo://app?vid=24d41707-0aa6-41f4-a142-43a8857ed779"},"vehicle_type_id":"4","last_reported":1753301574,"current_range_meters":16800,"station_id":"ce4bgpp2rcd13ifvqc3g","pricing_plan_id":"cebpf4jnsgd1na2vs0mg"},{"bike_id":"c056311f-78c9-4e18-8685-91c659ddb125","system_id":"levelo_inurba_marseille","lat":43.31624,"lon":5.38988,"is_reserved":false,"is_disabled":false,"rental_uris":{"android":"levelo://app?vid=c056311f-78c9-4e18-8685-91c659ddb125","ios":"levelo://app?vid=c056311f-78c9-4e18-8685-91c659ddb125"},"vehicle_type_id":"4","last_reported":1753301574,"current_range_meters":16800,"station_id":"","pricing_plan_id":"cebpf4jnsgd1na2vs0mg"},{"bike_id":"1699da3b-157a-4d07-ba4d-8fe9df7d93c7","system_id":"levelo_inurba_marseille","lat":43.30375,"lon":5.41931,"is_reserved":false,"is_disabled":false,"rental_uris":{"android":"levelo://app?vid=1699da3b-157a-4d07-ba4d-8fe9df7d93c7","ios":"levelo://app?vid=1699da3b-157a-4d07-ba4d-8fe9df7d93c7"},"vehicle_type_id":"4","last_reported":1753301574,"current_range_meters":16800,"station_id":"","pricing_plan_id":"cebpf4jnsgd1na2vs0mg"},{"bike_id":"8cb533f0-6034-460b-90e0-0fbfd987312f","system_id":"levelo_inurba_marseille","lat":43.29846,"lon":5.36276,"is_reserved":false,"is_disabled":false,"rental_uris":{"android":"levelo://app?vid=8cb533f0-6034-460b-90e0-0fbfd987312f","ios":"levelo://app?vid=8cb533f0-6034-460b-90e0-0fbfd987312f"},"vehicle_type_id":"4","last_reported":1753301574,"current_range_meters":16800,"station_id":"ce4bgpp2rcd13ifvqc3g","pricing_plan_id":"cebpf4jnsgd1na2vs0mg"},{"bike_id":"6de8fc52-e45e-477b-90bf-433880c071d3","system_id":"levelo_inurba_marseille","lat":43.30887,"lon":5.39662,"is_reserved":false,"is_disabled":false,"rental_uris":{"android":"levelo://app?vid=6de8fc52-e45e-477b-90bf-433880c071d3","ios":"levelo://app?vid=6de8fc52-e45e-477b-90bf-433880c071d3"},"vehicle_type_id":"4","last_reported":1753301574,"current_range_meters":16800,"station_id":"ce4bh012rcd13ifvqcv0","pricing_plan_id":"cebpf4jnsgd1na2vs0mg"},{"bike_id":"71e90140-b60d-43a9-8b0d-2884eaff215a","system_id":"levelo_inurba_marseille","lat":43.24386,"lon":5.37058,"is_reserved":false,"is_disabled":false,"rental_uris":{"android":"levelo://app?vid=71e90140-b60d-43a9-8b0d-2884eaff215a","ios":"levelo://app?vid=71e90140-b60d-43a9-8b0d-2884eaff215a"},"vehicle_type_id":"4","last_reported":1753301574,"current_range_meters":16400,"station_id":"ce4bhhh2rcd13ifvqfk0","pricing_plan_id":"cebpf4jnsgd1na2vs0mg"},{"bike_id":"18b86593-4f21-41ed-81b3-f3a5b378dc91","system_id":"levelo_inurba_marseille","lat":43.312339,"lon":5.381309,"is_reserved":false,"is_disabled":false,"rental_uris":{"android":"levelo://app?vid=18b86593-4f21-41ed-81b3-f3a5b378dc91","ios":"levelo://app?vid=18b86593-4f21-41ed-81b3-f3a5b378dc91"},"vehicle_type_id":"4","last_reported":1753301574,"current_range_meters":16800,"station_id":"","pricing_plan_id":"cebpf4jnsgd1na2vs0mg"},{"bike_id":"40bbd148-7bb0-45bc-a788-4125ece0f0e2","system_id":"levelo_inurba_marseille","lat":43.31173,"lon":5.38714,"is_reserved":false,"is_disabled":false,"rental_uris":{"android":"levelo://app?vid=40bbd148-7bb0-45bc-a788-4125ece0f0e2","ios":"levelo://app?vid=40bbd148-7bb0-45bc-a788-4125ece0f0e2"},"vehicle_type_id":"4","last_reported":1753301574,"current_range_meters":16800,"station_id":"ce4bgv12rcd13ifvqcp0","pricing_plan_id":"cebpf4jnsgd1na2vs0mg"},{"bike_id":"0bec025c-941d-4e4b-95eb-0eb94ac72d39","system_id":"levelo_inurba_marseille","lat":43.28468,"lon":5.38546,"is_reserved":false,"is_disabled":false,"rental_uris":{"android":"levelo://app?vid=0bec025c-941d-4e4b-95eb-0eb94ac72d39","ios":"levelo://app?vid=0bec025c-941d-4e4b-95eb-0eb94ac72d39"},"vehicle_type_id":"4","last_reported":1753301574,"current_range_meters":16800,"station_id":"ce4bh8p2rcd13ifvqeb0","pricing_plan_id":"cebpf4jnsgd1na2vs0mg"},{"bike_id":"b52e74cd-ff69-4417-b50e-80e0e49ad997","system_id":"levelo_inurba_marseille","lat":43.22515,"lon":5.34788,"is_reserved":false,"is_disabled":false,"rental_uris":{"android":"levelo://app?vid=b52e74cd-ff69-4417-b50e-80e0e49ad997","ios":"levelo://app?vid=b52e74cd-ff69-4417-b50e-80e0e49ad997"},"vehicle_type_id":"4","last_reported":1753301574,"current_range_meters":16800,"station_id":"st_cvj5dfep6f1abm77gieg","pricing_plan_id":"cebpf4jnsgd1na2vs0mg"},{"bike_id":"6fc8fc40-c38b-4780-9720-ea88c39bb86e","system_id":"levelo_inurba_marseille","lat":43.29278,"lon":5.40115,"is_reserved":false,"is_disabled":false,"rental_uris":{"android":"levelo://app?vid=6fc8fc40-c38b-4780-9720-ea88c39bb86e","ios":"levelo://app?vid=6fc8fc40-c38b-4780-9720-ea88c39bb86e"},"vehicle_type_id":"4","last_reported":1753301574,"current_range_meters":16800,"station_id":"ce4bh312rcd13ifvqdk0","pricing_plan_id":"cebpf4jnsgd1na2vs0mg"},{"bike_id":"6a79a396-2f47-4b1c-9dce-b0d5464f72e4","system_id":"levelo_inurba_marseille","lat":43.22916,"lon":5.35387,"is_reserved":false,"is_disabled":false,"rental_uris":{"android":"levelo://app?vid=6a79a396-2f47-4b1c-9dce-b0d5464f72e4","ios":"levelo://app?vid=6a79a396-2f47-4b1c-9dce-b0d5464f72e4"},"vehicle_type_id":"4","last_reported":1753301574,"current_range_meters":16800,"station_id":"cpo3532slgdg3j2ikp40","pricing_plan_id":"cebpf4jnsgd1na2vs0mg"},{"bike_id":"0f015389-098c-449f-91dd-7f77c61d6819","system_id":"levelo_inurba_marseille","lat":43.29266,"lon":5.38438,"is_reserved":false,"is_disabled":false,"rental_uris":{"android":"levelo://app?vid=0f015389-098c-449f-91dd-7f77c61d6819","ios":"levelo://app?vid=0f015389-098c-449f-91dd-7f77c61d6819"},"vehicle_type_id":"4","last_reported":1753301574,"current_range_meters":16800,"station_id":"ce4bh692rcd13ifvqea0","pricing_plan_id":"cebpf4jnsgd1na2vs0mg"},{"bike_id":"e75808ef-f535-4b18-a3df-0dc0f0f71d2d","system_id":"levelo_inurba_marseille","lat":43.29696,"lon":5.36645,"is_reserved":false,"is_disabled":false,"rental_uris":{"android":"levelo://app?vid=e75808ef-f535-4b18-a3df-0dc0f0f71d2d","ios":"levelo://app?vid=e75808ef-f535-4b18-a3df-0dc0f0f71d2d"},"vehicle_type_id":"4","last_reported":1753301574,"current_range_meters":16800,"station_id":"ce4bgn12rcd13ifvqbt0","pricing_plan_id":"cebpf4jnsgd1na2vs0mg"},{"bike_id":"5d4601b3-8d3f-4ed2-9aec-56a375699611","system_id":"levelo_inurba_marseille","lat":43.28076,"lon":5.39665,"is_reserved":false,"is_disabled":false,"rental_uris":{"android":"levelo://app?vid=5d4601b3-8d3f-4ed2-9aec-56a375699611","ios":"levelo://app?vid=5d4601b3-8d3f-4ed2-9aec-56a375699611"},"vehicle_type_id":"4","last_reported":1753301574,"current_range_meters":16400,"station_id":"ce4bho12rcd13ifvqh2g","pricing_plan_id":"cebpf4jnsgd1na2vs0mg"},{"bike_id":"d33a195d-1aba-4725-a7a9-74d21f9597a0","system_id":"levelo_inurba_marseille","lat":43.26215,"lon":5.37459,"is_reserved":false,"is_disabled":false,"rental_uris":{"android":"levelo://app?vid=d33a195d-1aba-4725-a7a9-74d21f9597a0","ios":"levelo://app?vid=d33a195d-1aba-4725-a7a9-74d21f9597a0"},"vehicle_type_id":"4","last_reported":1753301574,"current_range_meters":17200,"station_id":"ce4bhgp2rcd13ifvqfc0","pricing_plan_id":"cebpf4jnsgd1na2vs0mg"},{"bike_id":"88951e3a-63fb-4d5d-b85a-e51e07231f7f","system_id":"levelo_inurba_marseille","lat":43.30603,"lon":5.39351,"is_reserved":false,"is_disabled":false,"rental_uris":{"android":"levelo://app?vid=88951e3a-63fb-4d5d-b85a-e51e07231f7f","ios":"levelo://app?vid=88951e3a-63fb-4d5d-b85a-e51e07231f7f"},"vehicle_type_id":"4","last_reported":1753301574,"current_range_meters":17200,"station_id":"ce4bh0p2rcd13ifvqd80","pricing_plan_id":"cebpf4jnsgd1na2vs0mg"},{"bike_id":"8653745e-84f9-4064-b6e8-6e4e8bfce0ff","system_id":"levelo_inurba_marseille","lat":43.23964,"lon":5.36614,"is_reserved":false,"is_disabled":false,"rental_uris":{"android":"levelo://app?vid=8653745e-84f9-4064-b6e8-6e4e8bfce0ff","ios":"levelo://app?vid=8653745e-84f9-4064-b6e8-6e4e8bfce0ff"},"vehicle_type_id":"4","last_reported":1753301574,"current_range_meters":17200,"station_id":"ce4bhi12rcd13ifvqfp0","pricing_plan_id":"cebpf4jnsgd1na2vs0mg"},{"bike_id":"e1b51a81-d796-418d-95b5-e07ff541f307","system_id":"levelo_inurba_marseille","lat":43.29599,"lon":5.36749,"is_reserved":false,"is_disabled":false,"rental_uris":{"android":"levelo://app?vid=e1b51a81-d796-418d-95b5-e07ff541f307","ios":"levelo://app?vid=e1b51a81-d796-418d-95b5-e07ff541f307"},"vehicle_type_id":"4","last_reported":1753301574,"current_range_meters":17200,"station_id":"ce4bgph2rcd13ifvqc2g","pricing_plan_id":"cebpf4jnsgd1na2vs0mg"},{"bike_id":"3211cbdc-74b2-4255-8fba-b1e6690e199f","system_id":"levelo_inurba_marseille","lat":43.29836,"lon":5.36289,"is_reserved":false,"is_disabled":false,"rental_uris":{"android":"levelo://app?vid=3211cbdc-74b2-4255-8fba-b1e6690e199f","ios":"levelo://app?vid=3211cbdc-74b2-4255-8fba-b1e6690e199f"},"vehicle_type_id":"4","last_reported":1753301574,"current_range_meters":17200,"station_id":"ce4bgpp2rcd13ifvqc3g","pricing_plan_id":"cebpf4jnsgd1na2vs0mg"},{"bike_id":"c3b7093a-c6fc-4872-a465-95918521be48","system_id":"levelo_inurba_marseille","lat":43.314903,"lon":5.373237,"is_reserved":false,"is_disabled":false,"rental_uris":{"android":"levelo://app?vid=c3b7093a-c6fc-4872-a465-95918521be48","ios":"levelo://app?vid=c3b7093a-c6fc-4872-a465-95918521be48"},"vehicle_type_id":"4","last_reported":1753301574,"current_range_meters":17200,"station_id":"ce4bgt12rcd13ifvqcd0","pricing_plan_id":"cebpf4jnsgd1na2vs0mg"},{"bike_id":"e4c9b708-1f15-4215-89bf-bf3ff540d3c4","system_id":"levelo_inurba_marseille","lat":43.292,"lon":5.393275,"is_reserved":false,"is_disabled":false,"rental_uris":{"android":"levelo://app?vid=e4c9b708-1f15-4215-89bf-bf3ff540d3c4","ios":"levelo://app?vid=e4c9b708-1f15-4215-89bf-bf3ff540d3c4"},"vehicle_type_id":"4","last_reported":1753301574,"current_range_meters":17200,"station_id":"ce4bh192rcd13ifvqdd0","pricing_plan_id":"cebpf4jnsgd1na2vs0mg"},{"bike_id":"35c14987-3d71-4187-8b70-199e8ffb58d7","system_id":"levelo_inurba_marseille","lat":43.29577,"lon":5.36735,"is_reserved":false,"is_disabled":false,"rental_uris":{"android":"levelo://app?vid=35c14987-3d71-4187-8b70-199e8ffb58d7","ios":"levelo://app?vid=35c14987-3d71-4187-8b70-199e8ffb58d7"},"vehicle_type_id":"4","last_reported":1753301574,"current_range_meters":17200,"station_id":"ce4bgph2rcd13ifvqc2g","pricing_plan_id":"cebpf4jnsgd1na2vs0mg"},{"bike_id":"6539e352-47dd-44dd-a6d9-e19c50381eba","system_id":"levelo_inurba_marseille","lat":43.28077,"lon":5.39653,"is_reserved":false,"is_disabled":false,"rental_uris":{"android":"levelo://app?vid=6539e352-47dd-44dd-a6d9-e19c50381eba","ios":"levelo://app?vid=6539e352-47dd-44dd-a6d9-e19c50381eba"},"vehicle_type_id":"4","last_reported":1753301574,"current_range_meters":17200,"station_id":"ce4bho12rcd13ifvqh2g","pricing_plan_id":"cebpf4jnsgd1na2vs0mg"},{"bike_id":"67911e6a-1ddb-4fb2-b0eb-b87b39e6fdd1","system_id":"levelo_inurba_marseille","lat":43.29585,"lon":5.36733,"is_reserved":false,"is_disabled":false,"rental_uris":{"android":"levelo://app?vid=67911e6a-1ddb-4fb2-b0eb-b87b39e6fdd1","ios":"levelo://app?vid=67911e6a-1ddb-4fb2-b0eb-b87b39e6fdd1"},"vehicle_type_id":"4","last_reported":1753301574,"current_range_meters":17200,"station_id":"ce4bgph2rcd13ifvqc2g","pricing_plan_id":"cebpf4jnsgd1na2vs0mg"},{"bike_id":"ce59a62d-17ec-416f-b54d-751bd3f6f3dd","system_id":"levelo_inurba_marseille","lat":43.27065,"lon":5.42285,"is_reserved":false,"is_disabled":false,"rental_uris":{"android":"levelo://app?vid=ce59a62d-17ec-416f-b54d-751bd3f6f3dd","ios":"levelo://app?vid=ce59a62d-17ec-416f-b54d-751bd3f6f3dd"},"vehicle_type_id":"4","last_reported":1753301574,"current_range_meters":17200,"station_id":"ce4bhk92rcd13ifvqgb0","pricing_plan_id":"cebpf4jnsgd1na2vs0mg"},