{"last_updated":1727626195,"ttl":60,"version":"2.2","data":{"bikes":[{"bike_id":"4c41c39c-7559-4ee0-ac18-7f1532b69a55","system_id":"levelo_inurba_marseille","lat":43.24402,"lon":5.37073,"is_reserved":false,"is_disabled":false,"rental_uris":{"android":"levelo://app?vid=4c41c39c-7559-4ee0-ac18-7f1532b69a55","ios":"levelo://app?vid=4c41c39c-7559-4ee0-ac18-7f1532b69a55"},"vehicle_type_id":"4","last_reported":1727626196,"current_range_meters":38800,"station_id":"ce4bhhh2rcd13ifvqfk0","pricing_plan_id":"cebpf4jnsgd1na2vs0mg"},{"bike_id":"f3b66d61-a485-40e6-8d85-a2de5d60618f","system_id":"levelo_inurba_marseille","lat":43.30132,"lon":5.39882,"is_reserved":false,"is_disabled":false,"rental_uris":{"android":"levelo://app?vid=f3b66d61-a485-40e6-8d85-a2de5d60618f","ios":"levelo://app?vid=f3b66d61-a485-40e6-8d85-a2de5d60618f"},"vehicle_type_id":"4","last_reported":1727626196,"current_range_meters":12400,"station_id":"ce4bho92rcd13ifvqh4g","pricing_plan_id":"cebpf4jnsgd1na2vs0mg"},{"bike_id":"b8ea5685-b742-4434-8245-d999c72b86dc","system_id":"levelo_inurba_marseille","lat":43.30883,"lon":5.39633,"is_reserved":false,"is_disabled":false,"rental_uris":{"android":"levelo://app?vid=b8ea5685-b742-4434-8245-d999c72b86dc","ios":"levelo://app?vid=b8ea5685-b742-4434-8245-d999c72b86dc"},"vehicle_type_id":"4","last_reported":1727626196,"current_range_meters":25600,"station_id":"ce4bh012rcd13ifvqcv0","pricing_plan_id":"cebpf4jnsgd1na2vs0mg"},{"bike_id":"0ea9e4c4-cc08-41d9-862d-a80f7d54740c","system_id":"levelo_inurba_marseille","lat":43.3268,"lon":5.37494,"is_reserved":false,"is_disabled":false,"rental_uris":{"android":"levelo://app?vid=0ea9e4c4-cc08-41d9-862d-a80f7d54740c","ios":"levelo://app?vid=0ea9e4c4-cc08-41d9-862d-a80f7d54740c"},"vehicle_type_id":"4","last_reported":1727626196,"current_range_meters":36400,"station_id":"","pricing_plan_id":"cebpf4jnsgd1na2vs0mg"},{"bike_id":"431acd76-2fda-479a-af23-895917a7252a","system_id":"levelo_inurba_marseille","lat":43.32382,"lon":5.38913,"is_reserved":false,"is_disabled":false,"rental_uris":{"android":"levelo://app?vid=431acd76-2fda-479a-af23-895917a7252a","ios":"levelo://app?vid=431acd76-2fda-479a-af23-895917a7252a"},"vehicle_type_id":"4","last_reported":1727626196,"current_range_meters":22800,"station_id":"ce4bhqp2rcd13ifvqhog","pricing_plan_id":"cebpf4jnsgd1na2vs0mg"},{"bike_id":"d62ff928-8efb-4634-8397-7fd3cff73d42","system_id":"levelo_inurba_marseille","lat":43.32367,"lon":5.38888,"is_reserved":false,"is_disabled":false,"rental_uris":{"android":"levelo://app?vid=d62ff928-8efb-4634-8397-7fd3cff73d42","ios":"levelo://app?vid=d62ff928-8efb-4634-8397-7fd3cff73d42"},"vehicle_type_id":"4","last_reported":1727626196,"current_range_meters":19200,"station_id":"ce4bhqp2rcd13ifvqhog","pricing_plan_id":"cebpf4jnsgd1na2vs0mg"},{"bike_id":"d4c74265-2442-4454-aa29-65e3cce400cc","system_id":"levelo_inurba_marseille","lat":43.32392,"lon":5.38918,"is_reserved":false,"is_disabled":false,"rental_uris":{"android":"levelo://app?vid=d4c74265-2442-4454-aa29-65e3cce400cc","ios":"levelo://app?vid=d4c74265-2442-4454-aa29-65e3cce400cc"},"vehicle_type_id":"4","last_reported":1727626196,"current_range_meters":37600,"station_id":"ce4bhqp2rcd13ifvqhog","pricing_plan_id":"cebpf4jnsgd1na2vs0mg"},{"bike_id":"93548b47-845c-41b2-ba50-4b7e05794e79","system_id":"levelo_inurba_marseille","lat":43.23968,"lon":5.36619,"is_reserved":false,"is_disabled":false,"rental_uris":{"android":"levelo://app?vid=93548b47-845c-41b2-ba50-4b7e05794e79","ios":"levelo://app?vid=93548b47-845c-41b2-ba50-4b7e05794e79"},"vehicle_type_id":"4","last_reported":1727626196,"current_range_meters":31200,"station_id":"ce4bhi12rcd13ifvqfp0","pricing_plan_id":"cebpf4jnsgd1na2vs0mg"},{"bike_id":"fe717800-a41a-4601-9973-12ba7d76866d","system_id":"levelo_inurba_marseille","lat":43.26191,"lon":5.37453,"is_reserved":false,"is_disabled":false,"rental_uris":{"android":"levelo://app?vid=fe717800-a41a-4601-9973-12ba7d76866d","ios":"levelo://app?vid=fe717800-a41a-4601-9973-12ba7d76866d"},"vehicle_type_id":"4","last_reported":1727626196,"current_range_meters":10800,"station_id":"ce4bhgp2rcd13ifvqfc0","pricing_plan_id":"cebpf4jnsgd1na2vs0mg"},{"bike_id":"9a47dcb1-61bb-411f-affb-55731480b4cc","system_id":"levelo_inurba_marseille","lat":43.23962,"lon":5.36613,"is_reserved":false,"is_disabled":false,"rental_uris":{"android":"levelo://app?vid=9a47dcb1-61bb-411f-affb-55731480b4cc","ios":"levelo://app?vid=9a47dcb1-61bb-411f-affb-55731480b4cc"},"vehicle_type_id":"4","last_reported":1727626196,"current_range_meters":36800,"station_id":"ce4bhi12rcd13ifvqfp0","pricing_plan_id":"cebpf4jnsgd1na2vs0mg"},{"bike_id":"f13e98b7-ec4b-4dad-86a4-68fd7b328688","system_id":"levelo_inurba_marseille","lat":43.26199,"lon":5.37453,"is_reserved":false,"is_disabled":false,"rental_uris":{"android":"levelo://app?vid=f13e98b7-ec4b-4dad-86a4-68fd7b328688","ios":"levelo://app?vid=f13e98b7-ec4b-4dad-86a4-68fd7b328688"},"vehicle_type_id":"4","last_reported":1727626196,"current_range_meters":38800,"station_id":"ce4bhgp2rcd13ifvqfc0","pricing_plan_id":"cebpf4jnsgd1na2vs0mg"},{"bike_id":"6c497d99-8532-4f7f-8d5d-779ea355478d","system_id":"levelo_inurba_marseille","lat":43.26195,"lon":5.37453,"is_reserved":false,"is_disabled":false,"rental_uris":{"android":"levelo://app?vid=6c497d99-8532-4f7f-8d5d-779ea355478d","ios":"levelo://app?vid=6c497d99-8532-4f7f-8d5d-779ea355478d"},"vehicle_type_id":"4","last_reported":1727626196,"current_range_meters":38800,"station_id":"ce4bhgp2rcd13ifvqfc0","pricing_plan_id":"cebpf4jnsgd1na2vs0mg"},{"bike_id":"ea6d877b-5181-4f29-a8e9-363c5c8a5da3","system_id":"levelo_inurba_marseille","lat":43.27811,"lon":5.40727,"is_reserved":false,"is_disabled":false,"rental_uris":{"android":"levelo://app?vid=ea6d877b-5181-4f29-a8e9-363c5c8a5da3","ios":"levelo://app?vid=ea6d877b-5181-4f29-a8e9-363c5c8a5da3"},"vehicle_type_id":"4","last_reported":1727626196,"current_range_meters":10000,"station_id":"ce4bhnh2rcd13ifvqgtg","pricing_plan_id":"cebpf4jnsgd1na2vs0mg"},{"bike_id":"96aec292-b5f8-4eb1-ace4-a5b0b63e6ac7","system_id":"levelo_inurba_marseille","lat":43.28153,"lon":5.42648,"is_reserved":false,"is_disabled":false,"rental_uris":{"android":"levelo://app?vid=96aec292-b5f8-4eb1-ace4-a5b0b63e6ac7","ios":"levelo://app?vid=96aec292-b5f8-4eb1-ace4-a5b0b63e6ac7"},"vehicle_type_id":"4","last_reported":1727626196,"current_range_meters":34000,"station_id":"ce4bhnh2rcd13ifvqgug","pricing_plan_id":"cebpf4jnsgd1na2vs0mg"},{"bike_id":"0521cc37-3a0f-4bc8-964a-96f026706e98","system_id":"levelo_inurba_marseille","lat":43.28024,"lon":5.36081,"is_reserved":false,"is_disabled":false,"rental_uris":{"android":"levelo://app?vid=0521cc37-3a0f-4bc8-964a-96f026706e98","ios":"levelo://app?vid=0521cc37-3a0f-4bc8-964a-96f026706e98"},"vehicle_type_id":"4","last_reported":1727626196,"current_range_meters":24000,"station_id":"","pricing_plan_id":"cebpf4jnsgd1na2vs0mg"},{"bike_id":"7d4e28c9-55a3-4f6b-96ba-616158dfb3ba","system_id":"levelo_inurba_marseille","lat":43.2549,"lon":5.3765,"is_reserved":false,"is_disabled":false,"rental_uris":{"android":"levelo://app?vid=7d4e28c9-55a3-4f6b-96ba-616158dfb3ba","ios":"levelo://app?vid=7d4e28c9-55a3-4f6b-96ba-616158dfb3ba"},"vehicle_type_id":"4","last_reported":1727626196,"current_range_meters":4400,"station_id":"ce4bhh12rcd13ifvqff0","pricing_plan_id":"cebpf4jnsgd1na2vs0mg"},{"bike_id":"9a8201f0-d552-4acd-a790-29b0fd192640","system_id":"levelo_inurba_marseille","lat":43.23054,"lon":5.35493,"is_reserved":false,"is_disabled":false,"rental_uris":{"android":"levelo://app?vid=9a8201f0-d552-4acd-a790-29b0fd192640","ios":"levelo://app?vid=9a8201f0-d552-4acd-a790-29b0fd192640"},"vehicle_type_id":"4","last_reported":1727626196,"current_range_meters":12400,"station_id":"cpo3342slgdg3j2ifvpg","pricing_plan_id":"cebpf4jnsgd1na2vs0mg"},{"bike_id":"447ba63b-0121-42c1-a500-145e3871c539","system_id":"levelo_inurba_marseille","lat":43.29888,"lon":5.38908,"is_reserved":false,"is_disabled":false,"rental_uris":{"android":"levelo://app?vid=447ba63b-0121-42c1-a500-145e3871c539","ios":"levelo://app?vid=447ba63b-0121-42c1-a500-145e3871c539"},"vehicle_type_id":"4","last_reported":1727626196,"current_range_meters":8800,"station_id":"ce4bh392rcd13ifvqdl0","pricing_plan_id":"cebpf4jnsgd1na2vs0mg"},{"bike_id":"a2e2d605-d375-49aa-bc24-e8380436cdb1","system_id":"levelo_inurba_marseille","lat":43.31108,"lon":5.370225,"is_reserved":false,"is_disabled":false,"rental_uris":{"android":"levelo://app?vid=a2e2d605-d375-49aa-bc24-e8380436cdb1","ios":"levelo://app?vid=a2e2d605-d375-49aa-bc24-e8380436cdb1"},"vehicle_type_id":"4","last_reported":1727626196,"current_range_meters":16800,"station_id":"ce4bh692rcd13ifvqe90","pricing_plan_id":"cebpf4jnsgd1na2vs0mg"},{"bike_id":"1ce7c25b-6bd2-4b64-b4ae-543ea784fc5d","system_id":"levelo_inurba_marseille","lat":43.337444,"lon":5.374475,"is_reserved":false,"is_disabled":false,"rental_uris":{"android":"levelo://app?vid=1ce7c25b-6bd2-4b64-b4ae-543ea784fc5d","ios":"levelo://app?vid=1ce7c25b-6bd2-4b64-b4ae-543ea784fc5d"},"vehicle_type_id":"4","last_reported":1727626196,"current_range_meters":32000,"station_id":"","pricing_plan_id":"cebpf4jnsgd1na2vs0mg"},{"bike_id":"f2cec66c-2fa4-4b45-8216-d6c9099d1621","system_id":"levelo_inurba_marseille","lat":43.23965,"lon":5.36626,"is_reserved":false,"is_disabled":false,"rental_uris":{"android":"levelo://app?vid=f2cec66c-2fa4-4b45-8216-d6c9099d1621","ios":"levelo://app?vid=f2cec66c-2fa4-4b45-8216-d6c9099d1621"},"vehicle_type_id":"4","last_reported":1727626196,"current_range_meters":10800,"station_id":"ce4bhi12rcd13ifvqfp0","pricing_plan_id":"cebpf4jnsgd1na2vs0mg"},{"bike_id":"eeb4b54b-284a-4a51-af38-bfe005d55c3e","system_id":"levelo_inurba_marseille","lat":43.24808,"lon":5.37452,"is_reserved":false,"is_disabled":false,"rental_uris":{"android":"levelo://app?vid=eeb4b54b-284a-4a51-af38-bfe005d55c3e","ios":"levelo://app?vid=eeb4b54b-284a-4a51-af38-bfe005d55c3e"},"vehicle_type_id":"4","last_reported":1727626196,"current_range_meters":38800,"station_id":"ce4bhgh2rcd13ifvqfb0","pricing_plan_id":"cebpf4jnsgd1na2vs0mg"},{"bike_id":"28e2d33c-a3d2-401d-b198-c1e25e3b9c00","system_id":"levelo_inurba_marseille","lat":43.28114,"lon":5.37834,"is_reserved":false,"is_disabled":false,"rental_uris":{"android":"levelo://app?vid=28e2d33c-a3d2-401d-b198-c1e25e3b9c00","ios":"levelo://app?vid=28e2d33c-a3d2-401d-b198-c1e25e3b9c00"},"vehicle_type_id":"4","last_reported":1727626196,"current_range_meters":35200,"station_id":"ce4bha12rcd13ifvqee0","pricing_plan_id":"cebpf4jnsgd1na2vs0mg"},{"bike_id":"0c6a3edd-0259-43fd-a8d1-3d4bb6023605","system_id":"levelo_inurba_marseille","lat":43.2439,"lon":5.37053,"is_reserved":false,"is_disabled":false,"rental_uris":{"android":"levelo://app?vid=0c6a3edd-0259-43fd-a8d1-3d4bb6023605","ios":"levelo://app?vid=0c6a3edd-0259-43fd-a8d1-3d4bb6023605"},"vehicle_type_id":"4","last_reported":1727626196,"current_range_meters":38800,"station_id":"ce4bhhh2rcd13ifvqfk0","pricing_plan_id":"cebpf4jnsgd1na2vs0mg"},{"bike_id":"c4288e36-2d1b-428c-a449-921cf3c0800a","system_id":"levelo_inurba_marseille","lat":43.28039,"lon":5.36941,"is_reserved":false,"is_disabled":false,"rental_uris":{"android":"levelo://app?vid=c4288e36-2d1b-428c-a449-921cf3c0800a","ios":"levelo://app?vid=c4288e36-2d1b-428c-a449-921cf3c0800a"},"vehicle_type_id":"4","last_reported":1727626196,"current_range_meters":7200,"station_id":"ce4bhh12rcd13ifvqff0","pricing_plan_id":"cebpf4jnsgd1na2vs0mg"},{"bike_id":"9e3eeb26-cc9e-49cd-b725-9554a29e2b2b","system_id":"levelo_inurba_marseille","lat":43.25725,"lon":5.41119,"is_reserved":false,"is_disabled":false,"rental_uris":{"android":"levelo://app?vid=9e3eeb26-cc9e-49cd-b725-9554a29e2b2b","ios":"levelo://app?vid=9e3eeb26-cc9e-49cd-b725-9554a29e2b2b"},"vehicle_type_id":"4","last_reported":1727626196,"current_range_meters":8000,"station_id":"ce4bhkp2rcd13ifvqgd0","pricing_plan_id":"cebpf4jnsgd1na2vs0mg"},{"bike_id":"6a52f468-9bf5-46c2-819d-2c732c18128e","system_id":"levelo_inurba_marseille","lat":43.23965,"lon":5.36616,"is_reserved":false,"is_disabled":false,"rental_uris":{"android":"levelo://app?vid=6a52f468-9bf5-46c2-819d-2c732c18128e","ios":"levelo://app?vid=6a52f468-9bf5-46c2-819d-2c732c18128e"},"vehicle_type_id":"4","last_reported":1727626196,"current_range_meters":35200,"station_id":"ce4bhi12rcd13ifvqfp0","pricing_plan_id":"cebpf4jnsgd1na2vs0mg"},{"bike_id":"bc66b6b6-aed2-4b1b-b587-495e00376a49","system_id":"levelo_inurba_marseille","lat":43.27949,"lon":5.41053,"is_reserved":false,"is_disabled":false,"rental_uris":{"android":"levelo://app?vid=bc66b6b6-aed2-4b1b-b587-495e00376a49","ios":"levelo://app?vid=bc66b6b6-aed2-4b1b-b587-495e00376a49"},"vehicle_type_id":"4","last_reported":1727626196,"current_range_meters":8400,"station_id":"ce4bhnp2rcd13ifvqh0g","pricing_plan_id":"cebpf4jnsgd1na2vs0mg"},{"bike_id":"b7970621-381d-4d32-9d4f-e6f7117a2874","system_id":"levelo_inurba_marseille","lat":43.29564,"lon":5.42292,"is_reserved":false,"is_disabled":false,"rental_uris":{"android":"levelo://app?vid=b7970621-381d-4d32-9d4f-e6f7117a2874","ios":"levelo://app?vid=b7970621-381d-4d32-9d4f-e6f7117a2874"},"vehicle_type_id":"4","last_reported":1727626196,"current_range_meters":17200,"station_id":"ce4bhph2rcd13ifvqhdg","pricing_plan_id":"cebpf4jnsgd1na2vs0mg"},{"bike_id":"79e2f594-5492-4436-ae63-ad5c021a2d83","system_id":"levelo_inurba_marseille","lat":43.28932,"lon":5.38396,"is_reserved":false,"is_disabled":false,"rental_uris":{"android":"levelo://app?vid=79e2f594-5492-4436-ae63-ad5c021a2d83","ios":"levelo://app?vid=79e2f594-5492-4436-ae63-ad5c021a2d83"},"vehicle_type_id":"4","last_reported":1727626196,"current_range_meters":10800,"station_id":"ce4bh612rcd13ifvqe6g","pricing_plan_id":"cebpf4jnsgd1na2vs0mg"},{"bike_id":"240b6ed0-de28-4b78-b2af-b6ff5eb271e9","system_id":"levelo_inurba_marseille","lat":43.23594,"lon":5.36607,"is_reserved":false,"is_disabled":false,"rental_uris":{"android":"levelo://app?vid=240b6ed0-de28-4b78-b2af-b6ff5eb271e9","ios":"levelo://app?vid=240b6ed0-de28-4b78-b2af-b6ff5eb271e9"},"vehicle_type_id":"4","last_reported":1727626196,"current_range_meters":30000,"station_id":"","pricing_plan_id":"cebpf4jnsgd1na2vs0mg"},{"bike_id":"9cab4b77-e73b-485b-9196-05681379298d","system_id":"levelo_inurba_marseille","lat":43.32316,"lon":5.38286,"is_reserved":false,"is_disabled":false,"rental_uris":{"android":"levelo://app?vid=9cab4b77-e73b-485b-9196-05681379298d","ios":"levelo://app?vid=9cab4b77-e73b-485b-9196-05681379298d"},"vehicle_type_id":"4","last_reported":1727626196,"current_range_meters":36800,"station_id":"ce4bhr12rcd13ifvqhqg","pricing_plan_id":"cebpf4jnsgd1na2vs0mg"},{"bike_id":"8052f078-4e20-41b6-b408-0331d8013a67","system_id":"levelo_inurba_marseille","lat":43.23956,"lon":5.36628,"is_reserved":false,"is_disabled":false,"rental_uris":{"android":"levelo://app?vid=8052f078-4e20-41b6-b408-0331d8013a67","ios":"levelo://app?vid=8052f078-4e20-41b6-b408-0331d8013a67"},"vehicle_type_id":"4","last_reported":1727626196,"current_range_meters":18000,"station_id":"ce4bhi12rcd13ifvqfp0","pricing_plan_id":"cebpf4jnsgd1na2vs0mg"},{"bike_id":"328f8b97-4cf3-4102-b052-4037dae7cd2d","system_id":"levelo_inurba_marseille","lat":43.31888,"lon":5.40733,"is_reserved":false,"is_disabled":false,"rental_uris":{"android":"levelo://app?vid=328f8b97-4cf3-4102-b052-4037dae7cd2d","ios":"levelo://app?vid=328f8b97-4cf3-4102-b052-4037dae7cd2d"},"vehicle_type_id":"4","last_reported":1727626196,"current_range_meters":6800,"station_id":"ce4bhq12rcd13ifvqhig","pricing_plan_id":"cebpf4jnsgd1na2vs0mg"},{"bike_id":"e150718b-3b11-4746-aaf5-ed9fe54bd243","system_id":"levelo_inurba_marseille","lat":43.24084,"lon":5.37755,"is_reserved":false,"is_disabled":false,"rental_uris":{"android":"levelo://app?vid=e150718b-3b11-4746-aaf5-ed9fe54bd243","ios":"levelo://app?vid=e150718b-3b11-4746-aaf5-ed9fe54bd243"},"vehicle_type_id":"4","last_reported":1727626196,"current_range_meters":17200,"station_id":"ce4bhnp2rcd13ifvqgvg","pricing_plan_id":"cebpf4jnsgd1na2vs0mg"},{"bike_id":"883dbd06-c2fc-4488-9b5e-ef4f05339f9b","system_id":"levelo_inurba_marseille","lat":43.30208,"lon":5.36615,"is_reserved":false,"is_disabled":false,"rental_uris":{"android":"levelo://app?vid=883dbd06-c2fc-4488-9b5e-ef4f05339f9b","ios":"levelo://app?vid=883dbd06-c2fc-4488-9b5e-ef4f05339f9b"},"vehicle_type_id":"4","last_reported":1727626196,"current_range_meters":28800,"station_id":"ce4bgrh2rcd13ifvqc8g","pricing_plan_id":"cebpf4jnsgd1na2vs0mg"},{"bike_id":"813e2c28-4f2a-410e-8089-6614808225c4","system_id":"levelo_inurba_marseille","lat":43.28508,"lon":5.37779,"is_reserved":false,"is_disabled":false,"rental_uris":{"android":"levelo://app?vid=813e2c28-4f2a-410e-8089-6614808225c4","ios":"levelo://app?vid=813e2c28-4f2a-410e-8089-6614808225c4"},"vehicle_type_id":"4","last_reported":1727626196,"current_range_meters":36400,"station_id":"","pricing_plan_id":"cebpf4jnsgd1na2vs0mg"},{"bike_id":"cf2a99f0-171d-46e2-b5f9-b8e518581e33","system_id":"levelo_inurba_marseille","lat":43.23966,"lon":5.36621,"is_reserved":false,"is_disabled":false,"rental_uris":{"android":"levelo://app?vid=cf2a99f0-171d-46e2-b5f9-b8e518581e33","ios":"levelo://app?vid=cf2a99f0-171d-46e2-b5f9-b8e518581e33"},"vehicle_type_id":"4","last_reported":1727626196,"current_range_meters":32000,"station_id":"ce4bhi12rcd13ifvqfp0","pricing_plan_id":"cebpf4jnsgd1na2vs0mg"},{"bike_id":"3b7406cb-8e46-475b-b698-8b0e7c733a15","system_id":"levelo_inurba_marseille","lat":43.2873,"lon":5.36089,"is_reserved":false,"is_disabled":false,"rental_uris":{"android":"levelo://app?vid=3b7406cb-8e46-475b-b698-8b0e7c733a15","ios":"levelo://app?vid=3b7406cb-8e46-475b-b698-8b0e7c733a15"},"vehicle_type_id":"4","last_reported":1727626196,"current_range_meters":38800,"station_id":"cki0cbj6b192h4jlfktg","pricing_plan_id":"cebpf4jnsgd1na2vs0mg"},{"bike_id":"6c5dccb6-46cf-4027-bcd5-6ba708d845cc","system_id":"levelo_inurba_marseille","lat":43.23194,"lon":5.35555,"is_reserved":false,"is_disabled":false,"rental_uris":{"android":"levelo://app?vid=6c5dccb6-46cf-4027-bcd5-6ba708d845cc","ios":"levelo://app?vid=6c5dccb6-46cf-4027-bcd5-6ba708d845cc"},"vehicle_type_id":"4","last_reported":1727626196,"current_range_meters":9200,"station_id":"ce4bhu92rcd13ifvqi70","pricing_plan_id":"cebpf4jnsgd1na2vs0mg"},{"bike_id":"11988553-6e3c-4174-a4ae-bee627e42e39","system_id":"levelo_inurba_marseille","lat":43.29229,"lon":5.36054,"is_reserved":false,"is_disabled":false,"rental_uris":{"android":"levelo://app?vid=11988553-6e3c-4174-a4ae-bee627e42e39","ios":"levelo://app?vid=11988553-6e3c-4174-a4ae-bee627e42e39"},"vehicle_type_id":"4","last_reported":1727626196,"current_range_meters":22000,"station_id":"ce4bhbh2rcd13ifvqeqg","pricing_plan_id":"cebpf4jnsgd1na2vs0mg"},{"bike_id":"7d7e9132-ff16-446e-8db6-e0b158e4692f","system_id":"levelo_inurba_marseille","lat":43.2844,"lon":5.39204,"is_reserved":false,"is_disabled":false,"rental_uris":{"android":"levelo://app?vid=7d7e9132-ff16-446e-8db6-e0b158e4692f","ios":"levelo://app?vid=7d7e9132-ff16-446e-8db6-e0b158e4692f"},"vehicle_type_id":"4","last_reported":1727626196,"current_range_meters":28400,"station_id":"ce4bh292rcd13ifvqdg0","pricing_plan_id":"cebpf4jnsgd1na2vs0mg"},{"bike_id":"52f17877-110a-422d-89ae-fdeda162e6f3","system_id":"levelo_inurba_marseille","lat":43.23961,"lon":5.36624,"is_reserved":false,"is_disabled":false,"rental_uris":{"android":"levelo://app?vid=52f17877-110a-422d-89ae-fdeda162e6f3","ios":"levelo://app?vid=52f17877-110a-422d-89ae-fdeda162e6f3"},"vehicle_type_id":"4","last_reported":1727626196,"current_range_meters":6400,"station_id":"ce4bhi12rcd13ifvqfp0","pricing_plan_id":"cebpf4jnsgd1na2vs0mg"},{"bike_id":"47996f73-21a9-42aa-875d-1b7713923a29","system_id":"levelo_inurba_marseille","lat":43.28978,"lon":5.37836,"is_reserved":false,"is_disabled":false,"rental_uris":{"android":"levelo://app?vid=47996f73-21a9-42aa-875d-1b7713923a29","ios":"levelo://app?vid=47996f73-21a9-42aa-875d-1b7713923a29"},"vehicle_type_id":"4","last_reported":1727626196,"current_range_meters":32400,"station_id":"","pricing_plan_id":"cebpf4jnsgd1na2vs0mg"},{"bike_id":"69af8515-f65f-443d-b69e-c841363fb688","system_id":"levelo_inurba_marseille","lat":43.29908,"lon":5.3816,"is_reserved":false,"is_disabled":false,"rental_uris":{"android":"levelo://app?vid=69af8515-f65f-443d-b69e-c841363fb688","ios":"levelo://app?vid=69af8515-f65f-443d-b69e-c841363fb688"},"vehicle_type_id":"4","last_reported":1727626196,"current_range_meters":3600,"station_id":"ce4bgj12rcd13ifvqbc0","pricing_plan_id":"cebpf4jnsgd1na2vs0mg"},{"bike_id":"876f8507-1f4a-4a45-ba23-dca68bfcb6a7","system_id":"levelo_inurba_marseille","lat":43.32546,"lon":5.41435,"is_reserved":false,"is_disabled":false,"rental_uris":{"android":"levelo://app?vid=876f8507-1f4a-4a45-ba23-dca68bfcb6a7","ios":"levelo://app?vid=876f8507-1f4a-4a45-ba23-dca68bfcb6a7"},"vehicle_type_id":"4","last_reported":1727626196,"current_range_meters":38800,"station_id":"ce4bhq12rcd13ifvqhhg","pricing_plan_id":"cebpf4jnsgd1na2vs0mg"},{"bike_id":"9e0e602a-711e-4e75-a4b3-f0d70db8f823","system_id":"levelo_inurba_marseille","lat":43.23966,"lon":5.36627,"is_reserved":false,"is_disabled":false,"rental_uris":{"android":"levelo://app?vid=9e0e602a-711e-4e75-a4b3-f0d70db8f823","ios":"levelo://app?vid=9e0e602a-711e-4e75-a4b3-f0d70db8f823"},"vehicle_type_id":"4","last_reported":1727626196,"current_range_meters":13600,"station_id":"ce4bhi12rcd13ifvqfp0","pricing_plan_id":"cebpf4jnsgd1na2vs0mg"},{"bike_id":"124cc49e-bc3f-4ee2-96b6-78f4c29aba27","system_id":"levelo_inurba_marseille","lat":43.25011,"lon":5.38918,"is_reserved":false,"is_disabled":false,"rental_uris":{"android":"levelo://app?vid=124cc49e-bc3f-4ee2-96b6-78f4c29aba27","ios":"levelo://app?vid=124cc49e-bc3f-4ee2-96b6-78f4c29aba27"},"vehicle_type_id":"4","last_reported":1727626196,"current_range_meters":23200,"station_id":"ce4bhgp2rcd13ifvqfd0","pricing_plan_id":"cebpf4jnsgd1na2vs0mg"},{"bike_id":"fd14ba81-3f44-4ac1-b066-8941269a20c6","system_id":"levelo_inurba_marseille","lat":43.29251,"lon":5.42672,"is_reserved":false,"is_disabled":false,"rental_uris":{"android":"levelo://app?vid=fd14ba81-3f44-4ac1-b066-8941269a20c6","ios":"levelo://app?vid=fd14ba81-3f44-4ac1-b066-8941269a20c6"},"vehicle_type_id":"4","last_reported":1727626196,"current_range_meters":18800,"station_id":"ce4bhnh2rcd13ifvqgug","pricing_plan_id":"cebpf4jnsgd1na2vs0mg"},{"bike_id":"f9183585-d783-4365-895b-5de3da21bcd0","system_id":"levelo_inurba_marseille","lat":43.26195,"lon":5.37447,"is_reserved":false,"is_disabled":false,"rental_uris":{"android":"levelo://app?vid=f9183585-d783-4365-895b-5de3da21bcd0","ios":"levelo://app?vid=f9183585-d783-4365-895b-5de3da21bcd0"},"vehicle_type_id":"4","last_reported":1727626196,"current_range_meters":38800,"station_id":"ce4bhgp2rcd13ifvqfc0","pricing_plan_id":"cebpf4jnsgd1na2vs0mg"},{"bike_id":"770d96c2-85ab-4bc6-ade8-fd2f11595187","system_id":"levelo_inurba_marseille","lat":43.27905,"lon":5.38017,"is_reserved":false,"is_disabled":false,"rental_uris":{"android":"levelo://app?vid=770d96c2-85ab-4bc6-ade8-fd2f11595187","ios":"levelo://app?vid=770d96c2-85ab-4bc6-ade8-fd2f11595187"},"vehicle_type_id":"4","last_reported":1727626196,"current_range_meters":12400,"station_id":"ce4bhf92rcd13ifvqf50","pricing_plan_id":"cebpf4jnsgd1na2vs0mg"},{"bike_id":"286a38be-9a17-42ac-b216-07a9e5a83131","system_id":"levelo_inurba_marseille","lat":43.23195,"lon":5.3555,"is_reserved":false,"is_disabled":false,"rental_uris":{"android":"levelo://app?vid=286a38be-9a17-42ac-b216-07a9e5a83131","ios":"levelo://app?vid=286a38be-9a17-42ac-b216-07a9e5a83131"},"vehicle_type_id":"4","last_reported":1727626196,"current_range_meters":18000,"station_id":"ce4bhu92rcd13ifvqi70","pricing_plan_id":"cebpf4jnsgd1na2vs0mg"},{"bike_id":"d7ef811d-49c8-4c74-812f-8dd1bca16a06","system_id":"levelo_inurba_marseille","lat":43.26195,"lon":5.37443,"is_reserved":false,"is_disabled":false,"rental_uris":{"android":"levelo://app?vid=d7ef811d-49c8-4c74-812f-8dd1bca16a06","ios":"levelo://app?vid=d7ef811d-49c8-4c74-812f-8dd1bca16a06"},"vehicle_type_id":"4","last_reported":1727626196,"current_range_meters":28400,"station_id":"ce4bhgp2rcd13ifvqfc0","pricing_plan_id":"cebpf4jnsgd1na2vs0mg"},{"bike_id":"9116828f-d560-4357-84f5-0b8af952d459","system_id":"levelo_inurba_marseille","lat":43.23194,"lon":5.35556,"is_reserved":false,"is_disabled":false,"rental_uris":{"android":"levelo://app?vid=9116828f-d560-4357-84f5-0b8af952d459","ios":"levelo://app?vid=9116828f-d560-4357-84f5-0b8af952d459"},"vehicle_type_id":"4","last_reported":1727626196,"current_range_meters":20800,"station_id":"ce4bhu92rcd13ifvqi70","pricing_plan_id":"cebpf4jnsgd1na2vs0mg"},{"bike_id":"07ab11cd-dbaf-44b3-96fc-9f1de1d31415","system_id":"levelo_inurba_marseille","lat":43.23197,"lon":5.35555,"is_reserved":false,"is_disabled":false,"rental_uris":{"android":"levelo://app?vid=07ab11cd-dbaf-44b3-96fc-9f1de1d31415","ios":"levelo://app?vid=07ab11cd-dbaf-44b3-96fc-9f1de1d31415"},"vehicle_type_id":"4","last_reported":1727626196,"current_range_meters":22000,"station_id":"ce4bhu92rcd13ifvqi70","pricing_plan_id":"cebpf4jnsgd1na2vs0mg"},{"bike_id":"e3ea97a2-94d9-4243-838a-21a8bdcb663f","system_id":"levelo_inurba_marseille","lat":43.30132,"lon":5.39871,"is_reserved":false,"is_disabled":false,"rental_uris":{"android":"levelo://app?vid=e3ea97a2-94d9-4243-838a-21a8bdcb663f","ios":"levelo://app?vid=e3ea97a2-94d9-4243-838a-21a8bdcb663f"},"vehicle_type_id":"4","last_reported":1727626196,"current_range_meters":16800,"station_id":"ce4bhjp2rcd13ifvqga0","pricing_plan_id":"cebpf4jnsgd1na2vs0mg"},{"bike_id":"edf703c8-8283-4d8b-b99a-a349bd99279b","system_id":"levelo_inurba_marseille","lat":43.29684,"lon":5.3717,"is_reserved":false,"is_disabled":false,"rental_uris":{"android":"levelo://app?vid=edf703c8-8283-4d8b-b99a-a349bd99279b","ios":"levelo://app?vid=edf703c8-8283-4d8b-b99a-a349bd99279b"},"vehicle_type_id":"4","last_reported":1727626196,"current_range_meters":18800,"station_id":"ce4bgop2rcd13ifvqc1g","pricing_plan_id":"cebpf4jnsgd1na2vs0mg"},{"bike_id":"408d9401-5194-45b1-948e-a2c15040c41f","system_id":"levelo_inurba_marseille","lat":43.23198,"lon":5.35545,"is_reserved":false,"is_disabled":false,"rental_uris":{"android":"levelo://app?vid=408d9401-5194-45b1-948e-a2c15040c41f","ios":"levelo://app?vid=408d9401-5194-45b1-948e-a2c15040c41f"},"vehicle_type_id":"4","last_reported":1727626196,"current_range_meters":16000,"station_id":"ce4bhu92rcd13ifvqi70","pricing_plan_id":"cebpf4jnsgd1na2vs0mg"},{"bike_id":"94fdfe10-8c09-41e0-b800-38c859b3f321","system_id":"levelo_inurba_marseille","lat":43.3293,"lon":5.3907,"is_reserved":false,"is_disabled":false,"rental_uris":{"android":"levelo://app?vid=94fdfe10-8c09-41e0-b800-38c859b3f321","ios":"levelo://app?vid=94fdfe10-8c09-41e0-b800-38c859b3f321"},"vehicle_type_id":"4","last_reported":1727626196,"current_range_meters":38000,"station_id":"","pricing_plan_id":"cebpf4jnsgd1na2vs0mg"},{"bike_id":"7de17d6f-7679-4900-b591-7ca87a8a6da2","system_id":"levelo_inurba_marseille","lat":43.31366,"lon":5.38491,"is_reserved":false,"is_disabled":false,"rental_uris":{"android":"levelo://app?vid=7de17d6f-7679-4900-b591-7ca87a8a6da2","ios":"levelo://app?vid=7de17d6f-7679-4900-b591-7ca87a8a6da2"},"vehicle_type_id":"4","last_reported":1727626196,"current_range_meters":38000,"station_id":"ce4bgt92rcd13ifvqcf0","pricing_plan_id":"cebpf4jnsgd1na2vs0mg"},{"bike_id":"8241f9a2-75e2-474d-aab1-856dcc42a27b","system_id":"levelo_inurba_marseille","lat":43.26213,"lon":5.37446,"is_reserved":false,"is_disabled":false,"rental_uris":{"android":"levelo://app?vid=8241f9a2-75e2-474d-aab1-856dcc42a27b","ios":"levelo://app?vid=8241f9a2-75e2-474d-aab1-856dcc42a27b"},"vehicle_type_id":"4","last_reported":1727626196,"current_range_meters":24800,"station_id":"ce4bhgp2rcd13ifvqfc0","pricing_plan_id":"cebpf4jnsgd1na2vs0mg"},{"bike_id":"d509c491-bf6a-485c-9898-d71a5a81d3df","system_id":"levelo_inurba_marseille","lat":43.27977,"lon":5.38739,"is_reserved":false,"is_disabled":false,"rental_uris":{"android":"levelo://app?vid=d509c491-bf6a-485c-9898-d71a5a81d3df","ios":"levelo://app?vid=d509c491-bf6a-485c-9898-d71a5a81d3df"},"vehicle_type_id":"4","last_reported":1727626196,"current_range_meters":9200,"station_id":"ce4bhg12rcd13ifvqf80","pricing_plan_id":"cebpf4jnsgd1na2vs0mg"},{"bike_id":"921741de-4af2-4ea5-a92b-98e3525c8571","system_id":"levelo_inurba_marseille","lat":43.24078,"lon":5.3776,"is_reserved":false,"is_disabled":false,"rental_uris":{"android":"levelo://app?vid=921741de-4af2-4ea5-a92b-98e3525c8571","ios":"levelo://app?vid=921741de-4af2-4ea5-a92b-98e3525c8571"},"vehicle_type_id":"4","last_reported":1727626196,"current_range_meters":17200,"station_id":"ce4bhnp2rcd13ifvqgvg","pricing_plan_id":"cebpf4jnsgd1na2vs0mg"},{"bike_id":"ba1eb684-0748-45a0-9f21-4423181420eb","system_id":"levelo_inurba_marseille","lat":43.27624,"lon":5.36112,"is_reserved":false,"is_disabled":false,"rental_uris":{"android":"levelo://app?vid=ba1eb684-0748-45a0-9f21-4423181420eb","ios":"levelo://app?vid=ba1eb684-0748-45a0-9f21-4423181420eb"},"vehicle_type_id":"4","last_reported":1727626196,"current_range_meters":30400,"station_id":"ce4bgj92rcd13ifvqbe0","pricing_plan_id":"cebpf4jnsgd1na2vs0mg"},{"bike_id":"c8f2f771-c125-44bc-8ff4-207cb274d4bc","system_id":"levelo_inurba_marseille","lat":43.22937,"lon":5.35378,"is_reserved":false,"is_disabled":false,"rental_uris":{"android":"levelo://app?vid=c8f2f771-c125-44bc-8ff4-207cb274d4bc","ios":"levelo://app?vid=c8f2f771-c125-44bc-8ff4-207cb274d4bc"},"vehicle_type_id":"4","last_reported":1727626196,"current_range_meters":28400,"station_id":"cpo3532slgdg3j2ikp40","pricing_plan_id":"cebpf4jnsgd1na2vs0mg"},{"bike_id":"40af7eb4-6cd7-462c-b9fb-34273e78aa71","system_id":"levelo_inurba_marseille","lat":43.24073,"lon":5.37759,"is_reserved":false,"is_disabled":false,"rental_uris":{"android":"levelo://app?vid=40af7eb4-6cd7-462c-b9fb-34273e78aa71","ios":"levelo://app?vid=40af7eb4-6cd7-462c-b9fb-34273e78aa71"},"vehicle_type_id":"4","last_reported":1727626196,"current_range_meters":10800,"station_id":"ce4bhnp2rcd13ifvqgvg","pricing_plan_id":"cebpf4jnsgd1na2vs0mg"},{"bike_id":"a63d4449-4f5a-4f1c-9a3c-27c8d74bd2a3","system_id":"levelo_inurba_marseille","lat":43.24395,"lon":5.37063,"is_reserved":false,"is_disabled":false,"rental_uris":{"android":"levelo://app?vid=a63d4449-4f5a-4f1c-9a3c-27c8d74bd2a3","ios":"levelo://app?vid=a63d4449-4f5a-4f1c-9a3c-27c8d74bd2a3"},"vehicle_type_id":"4","last_reported":1727626196,"current_range_meters":9600,"station_id":"ce4bhhh2rcd13ifvqfk0","pricing_plan_id":"cebpf4jnsgd1na2vs0mg"},{"bike_id":"ad18efa3-a942-4983-a0f8-122a2f877e56","system_id":"levelo_inurba_marseille","lat":43.26215,"lon":5.3744,"is_reserved":false,"is_disabled":false,"rental_uris":{"android":"levelo://app?vid=ad18efa3-a942-4983-a0f8-122a2f877e56","ios":"levelo://app?vid=ad18efa3-a942-4983-a0f8-122a2f877e56"},"vehicle_type_id":"4","last_reported":1727626196,"current_range_meters":30800,"station_id":"ce4bhgp2rcd13ifvqfc0","pricing_plan_id":"cebpf4jnsgd1na2vs0mg"},{"bike_id":"cd525fe5-ea60-46c0-bd29-b850f527988a","system_id":"levelo_inurba_marseille","lat":43.29558,"lon":5.42286,"is_reserved":false,"is_disabled":false,"rental_uris":{"android":"levelo://app?vid=cd525fe5-ea60-46c0-bd29-b850f527988a","ios":"levelo://app?vid=cd525fe5-ea60-46c0-bd29-b850f527988a"},"vehicle_type_id":"4","last_reported":1727626196,"current_range_meters":38000,"station_id":"ce4bhph2rcd13ifvqhdg","pricing_plan_id":"cebpf4jnsgd1na2vs0mg"},{"bike_id":"11f02fd9-0de4-4e9d-99d9-ba2487b73d2d","system_id":"levelo_inurba_marseille","lat":43.32291,"lon":5.38275,"is_reserved":false,"is_disabled":false,"rental_uris":{"android":"levelo://app?vid=11f02fd9-0de4-4e9d-99d9-ba2487b73d2d","ios":"levelo://app?vid=11f02fd9-0de4-4e9d-99d9-ba2487b73d2d"},"vehicle_type_id":"4","last_reported":1727626196,"current_range_meters":26000,"station_id":"ce4bhr12rcd13ifvqhqg","pricing_plan_id":"cebpf4jnsgd1na2vs0mg"},{"bike_id":"e4fb0c9a-4777-4847-bd18-22bf5ecdc055","system_id":"levelo_inurba_marseille","lat":43.24655,"lon":5.38891,"is_reserved":false,"is_disabled":false,"rental_uris":{"android":"levelo://app?vid=e4fb0c9a-4777-4847-bd18-22bf5ecdc055","ios":"levelo://app?vid=e4fb0c9a-4777-4847-bd18-22bf5ecdc055"},"vehicle_type_id":"4","last_reported":1727626196,"current_range_meters":30800,"station_id":"ce4bhg12rcd13ifvqf60","pricing_plan_id":"cebpf4jnsgd1na2vs0mg"},{"bike_id":"652d66df-ff77-40ea-b279-302d9eb679e7","system_id":"levelo_inurba_marseille","lat":43.24654,"lon":5.3889,"is_reserved":false,"is_disabled":false,"rental_uris":{"android":"levelo://app?vid=652d66df-ff77-40ea-b279-302d9eb679e7","ios":"levelo://app?vid=652d66df-ff77-40ea-b279-302d9eb679e7"},"vehicle_type_id":"4","last_reported":1727626196,"current_range_meters":38000,"station_id":"ce4bhg12rcd13ifvqf60","pricing_plan_id":"cebpf4jnsgd1na2vs0mg"},{"bike_id":"bc7dc6a9-589f-4649-9e06-6ce7434d3293","system_id":"levelo_inurba_marseille","lat":43.2905,"lon":5.36949,"is_reserved":false,"is_disabled":false,"rental_uris":{"android":"levelo://app?vid=bc7dc6a9-589f-4649-9e06-6ce7434d3293","ios":"levelo://app?vid=bc7dc6a9-589f-4649-9e06-6ce7434d3293"},"vehicle_type_id":"4","last_reported":1727626196,"current_range_meters":25200,"station_id":"ce4bhah2rcd13ifvqej0","pricing_plan_id":"cebpf4jnsgd1na2vs0mg"},{"bike_id":"18569fb4-ef0f-43b5-9972-6a270e63f426","system_id":"levelo_inurba_marseille","lat":43.28669,"lon":5.36351,"is_reserved":false,"is_disabled":false,"rental_uris":{"android":"levelo://app?vid=18569fb4-ef0f-43b5-9972-6a270e63f426","ios":"levelo://app?vid=18569fb4-ef0f-43b5-9972-6a270e63f426"},"vehicle_type_id":"4","last_reported":1727626196,"current_range_meters":20800,"station_id":"ce4bhah2rcd13ifvqej0","pricing_plan_id":"cebpf4jnsgd1na2vs0mg"},{"bike_id":"10acec28-eb61-4077-8e16-a5a0a8f4d588","system_id":"levelo_inurba_marseille","lat":43.28957,"lon":5.36833,"is_reserved":false,"is_disabled":false,"rental_uris":{"android":"levelo://app?vid=10acec28-eb61-4077-8e16-a5a0a8f4d588","ios":"levelo://app?vid=10acec28-eb61-4077-8e16-a5a0a8f4d588"},"vehicle_type_id":"4","last_reported":1727626196,"current_range_meters":19200,"station_id":"","pricing_plan_id":"cebpf4jnsgd1na2vs0mg"},{"bike_id":"80888999-8ba1-47f2-9028-e8a1f3b64255","system_id":"levelo_inurba_marseille","lat":43.24673,"lon":5.38158,"is_reserved":false,"is_disabled":false,"rental_uris":{"android":"levelo://app?vid=80888999-8ba1-47f2-9028-e8a1f3b64255","ios":"levelo://app?vid=80888999-8ba1-47f2-9028-e8a1f3b64255"},"vehicle_type_id":"4","last_reported":1727626196,"current_range_meters":25600,"station_id":"ce4bhih2rcd13ifvqfr0","pricing_plan_id":"cebpf4jnsgd1na2vs0mg"},{"bike_id":"ed84faff-17c5-48fb-8753-c2f883b40c1d","system_id":"levelo_inurba_marseille","lat":43.23972,"lon":5.36626,"is_reserved":false,"is_disabled":false,"rental_uris":{"android":"levelo://app?vid=ed84faff-17c5-48fb-8753-c2f883b40c1d","ios":"levelo://app?vid=ed84faff-17c5-48fb-8753-c2f883b40c1d"},"vehicle_type_id":"4","last_reported":1727626196,"current_range_meters":37600,"station_id":"ce4bhi12rcd13ifvqfp0","pricing_plan_id":"cebpf4jnsgd1na2vs0mg"},{"bike_id":"3b170ecf-4bbb-421f-886d-94818fba1de8","system_id":"levelo_inurba_marseille","lat":43.28484,"lon":5.40034,"is_reserved":false,"is_disabled":false,"rental_uris":{"android":"levelo://app?vid=3b170ecf-4bbb-421f-886d-94818fba1de8","ios":"levelo://app?vid=3b170ecf-4bbb-421f-886d-94818fba1de8"},"vehicle_type_id":"4","last_reported":1727626196,"current_range_meters":30000,"station_id":"ce4bh2h2rcd13ifvqdh0","pricing_plan_id":"cebpf4jnsgd1na2vs0mg"},{"bike_id":"7497ada0-4e52-442c-9aa1-86afe522b93f","system_id":"levelo_inurba_marseille","lat":43.29904,"lon":5.43663,"is_reserved":false,"is_disabled":false,"rental_uris":{"android":"levelo://app?vid=7497ada0-4e52-442c-9aa1-86afe522b93f","ios":"levelo://app?vid=7497ada0-4e52-442c-9aa1-86afe522b93f"},"vehicle_type_id":"4","last_reported":1727626196,"current_range_meters":24800,"station_id":"ce4bhpp2rcd13ifvqhfg","pricing_plan_id":"cebpf4jnsgd1na2vs0mg"},{"bike_id":"8a2141b5-4ed1-48ef-bcb9-2550c31a6897","system_id":"levelo_inurba_marseille","lat":43.2396,"lon":5.36628,"is_reserved":false,"is_disabled":false,"rental_uris":{"android":"levelo://app?vid=8a2141b5-4ed1-48ef-bcb9-2550c31a6897","ios":"levelo://app?vid=8a2141b5-4ed1-48ef-bcb9-2550c31a6897"},"vehicle_type_id":"4","last_reported":1727626196,"current_range_meters":17600,"station_id":"ce4bhi12rcd13ifvqfp0","pricing_plan_id":"cebpf4jnsgd1na2vs0mg"},{"bike_id":"83c5a04d-213a-461b-8aa5-105a7c11538d","system_id":"levelo_inurba_marseille","lat":43.25087,"lon":5.39521,"is_reserved":false,"is_disabled":false,"rental_uris":{"android":"levelo://app?vid=83c5a04d-213a-461b-8aa5-105a7c11538d","ios":"levelo://app?vid=83c5a04d-213a-461b-8aa5-105a7c11538d"},"vehicle_type_id":"4","last_reported":1727626196,"current_range_meters":38000,"station_id":"ce4bhm12rcd13ifvqgkg","pricing_plan_id":"cebpf4jnsgd1na2vs0mg"},{"bike_id":"83fd991f-100a-4de1-8af8-ea630d920357","system_id":"levelo_inurba_marseille","lat":43.301514,"lon":5.374229,"is_reserved":false,"is_disabled":false,"rental_uris":{"android":"levelo://app?vid=83fd991f-100a-4de1-8af8-ea630d920357","ios":"levelo://app?vid=83fd991f-100a-4de1-8af8-ea630d920357"},"vehicle_type_id":"4","last_reported":1727626196,"current_range_meters":16800,"station_id":"ce4bh5p2rcd13ifvqe4g","pricing_plan_id":"cebpf4jnsgd1na2vs0mg"},{"bike_id":"530ebee0-3821-4918-8f9b-3c2003125331","system_id":"levelo_inurba_marseille","lat":43.24083,"lon":5.37751,"is_reserved":false,"is_disabled":false,"rental_uris":{"android":"levelo://app?vid=530ebee0-3821-4918-8f9b-3c2003125331","ios":"levelo://app?vid=530ebee0-3821-4918-8f9b-3c2003125331"},"vehicle_type_id":"4","last_reported":1727626196,"current_range_meters":11600,"station_id":"ce4bhnp2rcd13ifvqgvg","pricing_plan_id":"cebpf4jnsgd1na2vs0mg"},{"bike_id":"bfe6a602-9ae6-421d-b828-2b1da27866ba","system_id":"levelo_inurba_marseille","lat":43.28725,"lon":5.37937,"is_reserved":false,"is_disabled":false,"rental_uris":{"android":"levelo://app?vid=bfe6a602-9ae6-421d-b828-2b1da27866ba","ios":"levelo://app?vid=bfe6a602-9ae6-421d-b828-2b1da27866ba"},"vehicle_type_id":"4","last_reported":1727626196,"current_range_meters":24800,"station_id":"ce4bh9p2rcd13ifvqec0","pricing_plan_id":"cebpf4jnsgd1na2vs0mg"},{"bike_id":"963f30e2-16cc-49a7-b0c7-23a4ed5e5923","system_id":"levelo_inurba_marseille","lat":43.30309,"lon":5.39222,"is_reserved":false,"is_disabled":false,"rental_uris":{"android":"levelo://app?vid=963f30e2-16cc-49a7-b0c7-23a4ed5e5923","ios":"levelo://app?vid=963f30e2-16cc-49a7-b0c7-23a4ed5e5923"},"vehicle_type_id":"4","last_reported":1727626196,"current_range_meters":2000,"station_id":"ce4bgkh2rcd13ifvqbk0","pricing_plan_id":"cebpf4jnsgd1na2vs0mg"},{"bike_id":"0a9db6a3-6f2a-435c-801c-8333c7a53f0c","system_id":"levelo_inurba_marseille","lat":43.23198,"lon":5.35547,"is_reserved":false,"is_disabled":false,"rental_uris":{"android":"levelo://app?vid=0a9db6a3-6f2a-435c-801c-8333c7a53f0c","ios":"levelo://app?vid=0a9db6a3-6f2a-435c-801c-8333c7a53f0c"},"vehicle_type_id":"4","last_reported":1727626196,"current_range_meters":38800,"station_id":"ce4bhu92rcd13ifvqi70","pricing_plan_id":"cebpf4jnsgd1na2vs0mg"},{"bike_id":"18745465-d841-4217-9ac3-c6a27d2347ff","system_id":"levelo_inurba_marseille","lat":43.27621,"lon":5.36111,"is_reserved":false,"is_disabled":false,"rental_uris":{"android":"levelo://app?vid=18745465-d841-4217-9ac3-c6a27d2347ff","ios":"levelo://app?vid=18745465-d841-4217-9ac3-c6a27d2347ff"},"vehicle_type_id":"4","last_reported":1727626196,"current_range_meters":14400,"station_id":"ce4bgj92rcd13ifvqbe0","pricing_plan_id":"cebpf4jnsgd1na2vs0mg"},{"bike_id":"f3f70c0b-aa4d-4489-8679-c4b8462a3788","system_id":"levelo_inurba_marseille","lat":43.24811,"lon":5.37461,"is_reserved":false,"is_disabled":false,"rental_uris":{"android":"levelo://app?vid=f3f70c0b-aa4d-4489-8679-c4b8462a3788","ios":"levelo://app?vid=f3f70c0b-aa4d-4489-8679-c4b8462a3788"},"vehicle_type_id":"4","last_reported":1727626196,"current_range_meters":25200,"station_id":"ce4bhgh2rcd13ifvqfb0","pricing_plan_id":"cebpf4jnsgd1na2vs0mg"},{"bike_id":"80052677-a184-47b6-b7ba-4401badcd8a9","system_id":"levelo_inurba_marseille","lat":43.32297,"lon":5.38266,"is_reserved":false,"is_disabled":false,"rental_uris":{"android":"levelo://app?vid=80052677-a184-47b6-b7ba-4401badcd8a9","ios":"levelo://app?vid=80052677-a184-47b6-b7ba-4401badcd8a9"},"vehicle_type_id":"4","last_reported":1727626196,"current_range_meters":36800,"station_id":"ce4bhr12rcd13ifvqhqg","pricing_plan_id":"cebpf4jnsgd1na2vs0mg"},{"bike_id":"1151f09b-61aa-476c-b402-6c1f02b595da","system_id":"levelo_inurba_marseille","lat":43.29801,"lon":5.40403,"is_reserved":false,"is_disabled":false,"rental_uris":{"android":"levelo://app?vid=1151f09b-61aa-476c-b402-6c1f02b595da","ios":"levelo://app?vid=1151f09b-61aa-476c-b402-6c1f02b595da"},"vehicle_type_id":"4","last_reported":1727626196,"current_range_meters":13600,"station_id":"ce4bh112rcd13ifvqd90","pricing_plan_id":"cebpf4jnsgd1na2vs0mg"},{"bike_id":"26d1f138-c34a-4bae-93b6-b53fcc7d23ef","system_id":"levelo_inurba_marseille","lat":43.30362,"lon":5.41886,"is_reserved":false,"is_disabled":false,"rental_uris":{"android":"levelo://app?vid=26d1f138-c34a-4bae-93b6-b53fcc7d23ef","ios":"levelo://app?vid=26d1f138-c34a-4bae-93b6-b53fcc7d23ef"},"vehicle_type_id":"4","last_reported":1727626196,"current_range_meters":18000,"station_id":"ce4bhop2rcd13ifvqh7g","pricing_plan_id":"cebpf4jnsgd1na2vs0mg"},{"bike_id":"a974d009-942e-477b-b4db-19f84bd48313","system_id":"levelo_inurba_marseille","lat":43.32399,"lon":5.38919,"is_reserved":false,"is_disabled":false,"rental_uris":{"android":"levelo://app?vid=a974d009-942e-477b-b4db-19f84bd48313","ios":"levelo://app?vid=a974d009-942e-477b-b4db-19f84bd48313"},"vehicle_type_id":"4","last_reported":1727626196,"current_range_meters":38800,"station_id":"ce4bhqp2rcd13ifvqhog","pricing_plan_id":"cebpf4jnsgd1na2vs0mg"},{"bike_id":"6a66b30d-b7e8-4317-88c5-fb9f52bf2878","system_id":"levelo_inurba_marseille","lat":43.2396,"lon":5.36617,"is_reserved":false,"is_disabled":false,"rental_uris":{"android":"levelo://app?vid=6a66b30d-b7e8-4317-88c5-fb9f52bf2878","ios":"levelo://app?vid=6a66b30d-b7e8-4317-88c5-fb9f52bf2878"},"vehicle_type_id":"4","last_reported":1727626196,"current_range_meters":37600,"station_id":"ce4bhi12rcd13ifvqfp0","pricing_plan_id":"cebpf4jnsgd1na2vs0mg"},{"bike_id":"bf99d2d7-a570-4edf-a701-5edea1e95be9","system_id":"levelo_inurba_marseille","lat":43.27183,"lon":5.40994,"is_reserved":false,"is_disabled":false,"rental_uris":{"android":"levelo://app?vid=bf99d2d7-a570-4edf-a701-5edea1e95be9","ios":"levelo://app?vid=bf99d2d7-a570-4edf-a701-5edea1e95be9"},"vehicle_type_id":"4","last_reported":1727626196,"current_range_meters":12400,"station_id":"ce4bhl12rcd13ifvqgf0","pricing_plan_id":"cebpf4jnsgd1na2vs0mg"},{"bike_id":"49df06d5-2919-499d-ad19-7762099b2215","system_id":"levelo_inurba_marseille","lat":43.2927,"lon":5.38452,"is_reserved":false,"is_disabled":false,"rental_uris":{"android":"levelo://app?vid=49df06d5-2919-499d-ad19-7762099b2215","ios":"levelo://app?vid=49df06d5-2919-499d-ad19-7762099b2215"},"vehicle_type_id":"4","last_reported":1727626196,"current_range_meters":14800,"station_id":"ce4bh692rcd13ifvqea0","pricing_plan_id":"cebpf4jnsgd1na2vs0mg"},{"bike_id":"3ae16357-9b43-46d1-bbc8-483fcc70804b","system_id":"levelo_inurba_marseille","lat":43.25724,"lon":5.41113,"is_reserved":false,"is_disabled":false,"rental_uris":{"android":"levelo://app?vid=3ae16357-9b43-46d1-bbc8-483fcc70804b","ios":"levelo://app?vid=3ae16357-9b43-46d1-bbc8-483fcc70804b"},"vehicle_type_id":"4","last_reported":1727626196,"current_range_meters":28000,"station_id":"ce4bhkp2rcd13ifvqgd0","pricing_plan_id":"cebpf4jnsgd1na2vs0mg"},{"bike_id":"1e57dcc1-8aef-4806-ac60-e32a67ee92ac","system_id":"levelo_inurba_marseille","lat":43.311737,"lon":5.429277,"is_reserved":false,"is_disabled":false,"rental_uris":{"android":"levelo://app?vid=1e57dcc1-8aef-4806-ac60-e32a67ee92ac","ios":"levelo://app?vid=1e57dcc1-8aef-4806-ac60-e32a67ee92ac"},"vehicle_type_id":"4","last_reported":1727626196,"current_range_meters":34800,"station_id":"ce4bhpp2rcd13ifvqhfg","pricing_plan_id":"cebpf4jnsgd1na2vs0mg"},{"bike_id":"199f764e-7942-4511-a407-33ff4a7dc457","system_id":"levelo_inurba_marseille","lat":43.26025,"lon":5.3755,"is_reserved":false,"is_disabled":false,"rental_uris":{"android":"levelo://app?vid=199f764e-7942-4511-a407-33ff4a7dc457","ios":"levelo://app?vid=199f764e-7942-4511-a407-33ff4a7dc457"},"vehicle_type_id":"4","last_reported":1727626196,"current_range_meters":36800,"station_id":"ce4bhgh2rcd13ifvqfa0","pricing_plan_id":"cebpf4jnsgd1na2vs0mg"},{"bike_id":"0701cf2a-674c-4c9d-af1e-6650acbaaf74","system_id":"levelo_inurba_marseille","lat":43.283761,"lon":5.372946,"is_reserved":false,"is_disabled":false,"rental_uris":{"android":"levelo://app?vid=0701cf2a-674c-4c9d-af1e-6650acbaaf74","ios":"levelo://app?vid=0701cf2a-674c-4c9d-af1e-6650acbaaf74"},"vehicle_type_id":"4","last_reported":1727626196,"current_range_meters":9200,"station_id":"","pricing_plan_id":"cebpf4jnsgd1na2vs0mg"},{"bike_id":"a48460e4-d4da-4877-ad08-62dca9d34780","system_id":"levelo_inurba_marseille","lat":43.24165,"lon":5.36395,"is_reserved":false,"is_disabled":false,"rental_uris":{"android":"levelo://app?vid=a48460e4-d4da-4877-ad08-62dca9d34780","ios":"levelo://app?vid=a48460e4-d4da-4877-ad08-62dca9d34780"},"vehicle_type_id":"4","last_reported":1727626196,"current_range_meters":33200,"station_id":"cpo36qri1sfpv3e86is0","pricing_plan_id":"cebpf4jnsgd1na2vs0mg"},{"bike_id":"aa4db3f6-239b-4899-b23f-6177bc7230e9","system_id":"levelo_inurba_marseille","lat":43.26212,"lon":5.37445,"is_reserved":false,"is_disabled":false,"rental_uris":{"android":"levelo://app?vid=aa4db3f6-239b-4899-b23f-6177bc7230e9","ios":"levelo://app?vid=aa4db3f6-239b-4899-b23f-6177bc7230e9"},"vehicle_type_id":"4","last_reported":1727626196,"current_range_meters":25200,"station_id":"ce4bhgp2rcd13ifvqfc0","pricing_plan_id":"cebpf4jnsgd1na2vs0mg"},{"bike_id":"7199a17f-8505-4d54-b9b6-2ec943c49cf2","system_id":"levelo_inurba_marseille","lat":43.33034,"lon":5.39383,"is_reserved":false,"is_disabled":false,"rental_uris":{"android":"levelo://app?vid=7199a17f-8505-4d54-b9b6-2ec943c49cf2","ios":"levelo://app?vid=7199a17f-8505-4d54-b9b6-2ec943c49cf2"},"vehicle_type_id":"4","last_reported":1727626196,"current_range_meters":38800,"station_id":"","pricing_plan_id":"cebpf4jnsgd1na2vs0mg"},{"bike_id":"6cdca13d-24d1-4302-912a-54d18c748242","system_id":"levelo_inurba_marseille","lat":43.31083,"lon":5.40132,"is_reserved":false,"is_disabled":false,"rental_uris":{"android":"levelo://app?vid=6cdca13d-24d1-4302-912a-54d18c748242","ios":"levelo://app?vid=6cdca13d-24d1-4302-912a-54d18c748242"},"vehicle_type_id":"4","last_reported":1727626196,"current_range_meters":4000,"station_id":"","pricing_plan_id":"cebpf4jnsgd1na2vs0mg"},{"bike_id":"58889e29-2f5d-44ff-ac2e-0367f30a7978","system_id":"levelo_inurba_marseille","lat":43.276775,"lon":5.361518,"is_reserved":false,"is_disabled":false,"rental_uris":{"android":"levelo://app?vid=58889e29-2f5d-44ff-ac2e-0367f30a7978","ios":"levelo://app?vid=58889e29-2f5d-44ff-ac2e-0367f30a7978"},"vehicle_type_id":"4","last_reported":1727626196,"current_range_meters":34800,"station_id":"","pricing_plan_id":"cebpf4jnsgd1na2vs0mg"},{"bike_id":"1683f8ac-dad3-4bad-86cd-566142bc74e1","system_id":"levelo_inurba_marseille","lat":43.261908,"lon":5.374486,"is_reserved":false,"is_disabled":false,"rental_uris":{"android":"levelo://app?vid=1683f8ac-dad3-4bad-86cd-566142bc74e1","ios":"levelo://app?vid=1683f8ac-dad3-4bad-86cd-566142bc74e1"},"vehicle_type_id":"4","last_reported":1727626196,"current_range_meters":37600,"station_id":"ce4bhg92rcd13ifvqf90","pricing_plan_id":"cebpf4jnsgd1na2vs0mg"},{"bike_id":"62b420a6-5b61-476a-a5c3-bc184262758b","system_id":"levelo_inurba_marseille","lat":43.30603,"lon":5.393639,"is_reserved":false,"is_disabled":false,"rental_uris":{"android":"levelo://app?vid=62b420a6-5b61-476a-a5c3-bc184262758b","ios":"levelo://app?vid=62b420a6-5b61-476a-a5c3-bc184262758b"},"vehicle_type_id":"4","last_reported":1727626196,"current_range_meters":28400,"station_id":"ce4bh0p2rcd13ifvqd80","pricing_plan_id":"cebpf4jnsgd1na2vs0mg"},{"bike_id":"239f3aee-f17c-4c1f-81e9-c6011fd48da2","system_id":"levelo_inurba_marseille","lat":43.27992,"lon":5.40006,"is_reserved":false,"is_disabled":false,"rental_uris":{"android":"levelo://app?vid=239f3aee-f17c-4c1f-81e9-c6011fd48da2","ios":"levelo://app?vid=239f3aee-f17c-4c1f-81e9-c6011fd48da2"},"vehicle_type_id":"4","last_reported":1727626196,"current_range_meters":38800,"station_id":"ce4bho92rcd13ifvqh4g","pricing_plan_id":"cebpf4jnsgd1na2vs0mg"},{"bike_id":"65a948e1-19e2-4391-b433-66f5388a79a1","system_id":"levelo_inurba_marseille","lat":43.26691,"lon":5.38277,"is_reserved":false,"is_disabled":false,"rental_uris":{"android":"levelo://app?vid=65a948e1-19e2-4391-b433-66f5388a79a1","ios":"levelo://app?vid=65a948e1-19e2-4391-b433-66f5388a79a1"},"vehicle_type_id":"4","last_reported":1727626196,"current_range_meters":32000,"station_id":"ce4bhg92rcd13ifvqf90","pricing_plan_id":"cebpf4jnsgd1na2vs0mg"},{"bike_id":"6d4a33cd-b9a3-4626-8c27-694825074b6f","system_id":"levelo_inurba_marseille","lat":43.27213,"lon":5.39192,"is_reserved":false,"is_disabled":false,"rental_uris":{"android":"levelo://app?vid=6d4a33cd-b9a3-4626-8c27-694825074b6f","ios":"levelo://app?vid=6d4a33cd-b9a3-4626-8c27-694825074b6f"},"vehicle_type_id":"4","last_reported":1727626196,"current_range_meters":17200,"station_id":"ce4bhhp2rcd13ifvqfm0","pricing_plan_id":"cebpf4jnsgd1na2vs0mg"},{"bike_id":"a5f6ee97-c1f2-46bf-8dda-5ad13777e0c7","system_id":"levelo_inurba_marseille","lat":43.28273,"lon":5.38545,"is_reserved":false,"is_disabled":false,"rental_uris":{"android":"levelo://app?vid=a5f6ee97-c1f2-46bf-8dda-5ad13777e0c7","ios":"levelo://app?vid=a5f6ee97-c1f2-46bf-8dda-5ad13777e0c7"},"vehicle_type_id":"4","last_reported":1727626196,"current_range_meters":35600,"station_id":"ce4bhi12rcd13ifvqfo0","pricing_plan_id":"cebpf4jnsgd1na2vs0mg"},{"bike_id":"7dad3a58-67e8-4e41-a4ff-66ade5c62965","system_id":"levelo_inurba_marseille","lat":43.25582,"lon":5.38231,"is_reserved":false,"is_disabled":false,"rental_uris":{"android":"levelo://app?vid=7dad3a58-67e8-4e41-a4ff-66ade5c62965","ios":"levelo://app?vid=7dad3a58-67e8-4e41-a4ff-66ade5c62965"},"vehicle_type_id":"4","last_reported":1727626196,"current_range_meters":24800,"station_id":"ce4bhih2rcd13ifvqfs0","pricing_plan_id":"cebpf4jnsgd1na2vs0mg"},{"bike_id":"26083257-d46a-40a2-9db5-386245853566","system_id":"levelo_inurba_marseille","lat":43.29205,"lon":5.39317,"is_reserved":false,"is_disabled":false,"rental_uris":{"android":"levelo://app?vid=26083257-d46a-40a2-9db5-386245853566","ios":"levelo://app?vid=26083257-d46a-40a2-9db5-386245853566"},"vehicle_type_id":"4","last_reported":1727626196,"current_range_meters":34800,"station_id":"ce4bh192rcd13ifvqdd0","pricing_plan_id":"cebpf4jnsgd1na2vs0mg"},{"bike_id":"41ca4c63-8def-4c31-9103-fc1045ebe4a5","system_id":"levelo_inurba_marseille","lat":43.23195,"lon":5.3555,"is_reserved":false,"is_disabled":false,"rental_uris":{"android":"levelo://app?vid=41ca4c63-8def-4c31-9103-fc1045ebe4a5","ios":"levelo://app?vid=41ca4c63-8def-4c31-9103-fc1045ebe4a5"},"vehicle_type_id":"4","last_reported":1727626196,"current_range_meters":24400,"station_id":"ce4bhu92rcd13ifvqi70","pricing_plan_id":"cebpf4jnsgd1na2vs0mg"},{"bike_id":"718c5a91-1463-4178-be55-8d1fecbe3ea3","system_id":"levelo_inurba_marseille","lat":43.280354,"lon":5.369413,"is_reserved":false,"is_disabled":false,"rental_uris":{"android":"levelo://app?vid=718c5a91-1463-4178-be55-8d1fecbe3ea3","ios":"levelo://app?vid=718c5a91-1463-4178-be55-8d1fecbe3ea3"},"vehicle_type_id":"4","last_reported":1727626196,"current_range_meters":16800,"station_id":"ce4bha12rcd13ifvqef0","pricing_plan_id":"cebpf4jnsgd1na2vs0mg"},{"bike_id":"3bff0a02-8e5a-453d-81ad-f6fc0e9fb706","system_id":"levelo_inurba_marseille","lat":43.248327,"lon":5.375137,"is_reserved":false,"is_disabled":false,"rental_uris":{"android":"levelo://app?vid=3bff0a02-8e5a-453d-81ad-f6fc0e9fb706","ios":"levelo://app?vid=3bff0a02-8e5a-453d-81ad-f6fc0e9fb706"},"vehicle_type_id":"4","last_reported":1727626196,"current_range_meters":3600,"station_id":"","pricing_plan_id":"cebpf4jnsgd1na2vs0mg"},{"bike_id":"16aef7bc-6e34-4da1-be38-669be00420e2","system_id":"levelo_inurba_marseille","lat":43.29903,"lon":5.43673,"is_reserved":false,"is_disabled":false,"rental_uris":{"android":"levelo://app?vid=16aef7bc-6e34-4da1-be38-669be00420e2","ios":"levelo://app?vid=16aef7bc-6e34-4da1-be38-669be00420e2"},"vehicle_type_id":"4","last_reported":1727626196,"current_range_meters":28000,"station_id":"ce4bhpp2rcd13ifvqhfg","pricing_plan_id":"cebpf4jnsgd1na2vs0mg"},{"bike_id":"d506f765-7389-4724-a7e4-a15c05a4de75","system_id":"levelo_inurba_marseille","lat":43.23197,"lon":5.35548,"is_reserved":false,"is_disabled":false,"rental_uris":{"android":"levelo://app?vid=d506f765-7389-4724-a7e4-a15c05a4de75","ios":"levelo://app?vid=d506f765-7389-4724-a7e4-a15c05a4de75"},"vehicle_type_id":"4","last_reported":1727626196,"current_range_meters":20800,"station_id":"ce4bhu92rcd13ifvqi70","pricing_plan_id":"cebpf4jnsgd1na2vs0mg"},{"bike_id":"db48e4a7-9b5a-4fdc-bdb1-92b99f39c384","system_id":"levelo_inurba_marseille","lat":43.330276,"lon":5.39044,"is_reserved":false,"is_disabled":false,"rental_uris":{"android":"levelo://app?vid=db48e4a7-9b5a-4fdc-bdb1-92b99f39c384","ios":"levelo://app?vid=db48e4a7-9b5a-4fdc-bdb1-92b99f39c384"},"vehicle_type_id":"4","last_reported":1727626196,"current_range_meters":28800,"station_id":"ce4bhr92rcd13ifvqhrg","pricing_plan_id":"cebpf4jnsgd1na2vs0mg"},{"bike_id":"275b0a25-1a9f-498c-9202-be550b06c3de","system_id":"levelo_inurba_marseille","lat":43.32292,"lon":5.38281,"is_reserved":false,"is_disabled":false,"rental_uris":{"android":"levelo://app?vid=275b0a25-1a9f-498c-9202-be550b06c3de","ios":"levelo://app?vid=275b0a25-1a9f-498c-9202-be550b06c3de"},"vehicle_type_id":"4","last_reported":1727626196,"current_range_meters":38800,"station_id":"ce4bhr12rcd13ifvqhqg","pricing_plan_id":"cebpf4jnsgd1na2vs0mg"},{"bike_id":"90bd98a8-64e4-485e-ae20-a830b64e6d1f","system_id":"levelo_inurba_marseille","lat":43.26209,"lon":5.37444,"is_reserved":false,"is_disabled":false,"rental_uris":{"android":"levelo://app?vid=90bd98a8-64e4-485e-ae20-a830b64e6d1f","ios":"levelo://app?vid=90bd98a8-64e4-485e-ae20-a830b64e6d1f"},"vehicle_type_id":"4","last_reported":1727626196,"current_range_meters":28000,"station_id":"ce4bhgp2rcd13ifvqfc0","pricing_plan_id":"cebpf4jnsgd1na2vs0mg"},{"bike_id":"e53b7352-3b7d-4328-926f-3fb542a2f31f","system_id":"levelo_inurba_marseille","lat":43.28616,"lon":5.35101,"is_reserved":false,"is_disabled":false,"rental_uris":{"android":"levelo://app?vid=e53b7352-3b7d-4328-926f-3fb542a2f31f","ios":"levelo://app?vid=e53b7352-3b7d-4328-926f-3fb542a2f31f"},"vehicle_type_id":"4","last_reported":1727626196,"current_range_meters":16800,"station_id":"ce4bhch2rcd13ifvqeug","pricing_plan_id":"cebpf4jnsgd1na2vs0mg"},{"bike_id":"0c3f0369-7cdf-4cba-a0db-09435ab8c8da","system_id":"levelo_inurba_marseille","lat":43.23188,"lon":5.39991,"is_reserved":false,"is_disabled":false,"rental_uris":{"android":"levelo://app?vid=0c3f0369-7cdf-4cba-a0db-09435ab8c8da","ios":"levelo://app?vid=0c3f0369-7cdf-4cba-a0db-09435ab8c8da"},"vehicle_type_id":"4","last_reported":1727626196,"current_range_meters":25600,"station_id":"ce4bhn12rcd13ifvqgqg","pricing_plan_id":"cebpf4jnsgd1na2vs0mg"},{"bike_id":"bc1d0df4-b8e6-47e3-ae86-a51b9bfea8c1","system_id":"levelo_inurba_marseille","lat":43.23198,"lon":5.35555,"is_reserved":false,"is_disabled":false,"rental_uris":{"android":"levelo://app?vid=bc1d0df4-b8e6-47e3-ae86-a51b9bfea8c1","ios":"levelo://app?vid=bc1d0df4-b8e6-47e3-ae86-a51b9bfea8c1"},"vehicle_type_id":"4","last_reported":1727626196,"current_range_meters":14800,"station_id":"ce4bhu92rcd13ifvqi70","pricing_plan_id":"cebpf4jnsgd1na2vs0mg"},{"bike_id":"65f6ace6-d725-4a41-932f-8a4a832c47d8","system_id":"levelo_inurba_marseille","lat":43.24808,"lon":5.3746,"is_reserved":false,"is_disabled":false,"rental_uris":{"android":"levelo://app?vid=65f6ace6-d725-4a41-932f-8a4a832c47d8","ios":"levelo://app?vid=65f6ace6-d725-4a41-932f-8a4a832c47d8"},"vehicle_type_id":"4","last_reported":1727626196,"current_range_meters":38800,"station_id":"ce4bhgh2rcd13ifvqfb0","pricing_plan_id":"cebpf4jnsgd1na2vs0mg"},{"bike_id":"b3ddf8b8-aa3f-4641-b019-ee3e8717523d","system_id":"levelo_inurba_marseille","lat":43.29273,"lon":5.40122,"is_reserved":false,"is_disabled":false,"rental_uris":{"android":"levelo://app?vid=b3ddf8b8-aa3f-4641-b019-ee3e8717523d","ios":"levelo://app?vid=b3ddf8b8-aa3f-4641-b019-ee3e8717523d"},"vehicle_type_id":"4","last_reported":1727626196,"current_range_meters":36800,"station_id":"ce4bh312rcd13ifvqdk0","pricing_plan_id":"cebpf4jnsgd1na2vs0mg"},{"bike_id":"fab15ef1-ab12-43f7-a74c-21f49eb4f2a2","system_id":"levelo_inurba_marseille","lat":43.254852,"lon":5.376426,"is_reserved":false,"is_disabled":false,"rental_uris":{"android":"levelo://app?vid=fab15ef1-ab12-43f7-a74c-21f49eb4f2a2","ios":"levelo://app?vid=fab15ef1-ab12-43f7-a74c-21f49eb4f2a2"},"vehicle_type_id":"4","last_reported":1727626196,"current_range_meters":38800,"station_id":"ce4bhh12rcd13ifvqff0","pricing_plan_id":"cebpf4jnsgd1na2vs0mg"},{"bike_id":"f9544fb1-c02e-4ef0-828d-b520c9bc1616","system_id":"levelo_inurba_marseille","lat":43.2439,"lon":5.37064,"is_reserved":false,"is_disabled":false,"rental_uris":{"android":"levelo://app?vid=f9544fb1-c02e-4ef0-828d-b520c9bc1616","ios":"levelo://app?vid=f9544fb1-c02e-4ef0-828d-b520c9bc1616"},"vehicle_type_id":"4","last_reported":1727626196,"current_range_meters":8000,"station_id":"ce4bhhh2rcd13ifvqfk0","pricing_plan_id":"cebpf4jnsgd1na2vs0mg"},{"bike_id":"3fb0e359-7a1b-43d8-a1de-40143e01bde5","system_id":"levelo_inurba_marseille","lat":43.25718,"lon":5.41118,"is_reserved":false,"is_disabled":false,"rental_uris":{"android":"levelo://app?vid=3fb0e359-7a1b-43d8-a1de-40143e01bde5","ios":"levelo://app?vid=3fb0e359-7a1b-43d8-a1de-40143e01bde5"},"vehicle_type_id":"4","last_reported":1727626196,"current_range_meters":36000,"station_id":"ce4bhkp2rcd13ifvqgd0","pricing_plan_id":"cebpf4jnsgd1na2vs0mg"},{"bike_id":"83a13b63-dfac-4e20-8d88-4cae179033ca","system_id":"levelo_inurba_marseille","lat":43.27496,"lon":5.42447,"is_reserved":false,"is_disabled":false,"rental_uris":{"android":"levelo://app?vid=83a13b63-dfac-4e20-8d88-4cae179033ca","ios":"levelo://app?vid=83a13b63-dfac-4e20-8d88-4cae179033ca"},"vehicle_type_id":"4","last_reported":1727626196,"current_range_meters":9200,"station_id":"ce4bhn92rcd13ifvqgrg","pricing_plan_id":"cebpf4jnsgd1na2vs0mg"},{"bike_id":"e4361fa2-90d9-45ff-9d8a-e7b112f4e011","system_id":"levelo_inurba_marseille","lat":43.28517,"lon":5.39134,"is_reserved":false,"is_disabled":false,"rental_uris":{"android":"levelo://app?vid=e4361fa2-90d9-45ff-9d8a-e7b112f4e011","ios":"levelo://app?vid=e4361fa2-90d9-45ff-9d8a-e7b112f4e011"},"vehicle_type_id":"4","last_reported":1727626196,"current_range_meters":27600,"station_id":"ce4bh3p2rcd13ifvqdp0","pricing_plan_id":"cebpf4jnsgd1na2vs0mg"},{"bike_id":"d0d42476-cb5e-4a16-af9d-696df4a8c53b","system_id":"levelo_inurba_marseille","lat":43.26191,"lon":5.3745,"is_reserved":false,"is_disabled":false,"rental_uris":{"android":"levelo://app?vid=d0d42476-cb5e-4a16-af9d-696df4a8c53b","ios":"levelo://app?vid=d0d42476-cb5e-4a16-af9d-696df4a8c53b"},"vehicle_type_id":"4","last_reported":1727626196,"current_range_meters":38800,"station_id":"ce4bhgp2rcd13ifvqfc0","pricing_plan_id":"cebpf4jnsgd1na2vs0mg"},{"bike_id":"93444417-14a4-46ee-96ed-7b7f467c6940","system_id":"levelo_inurba_marseille","lat":43.29799,"lon":5.38099,"is_reserved":false,"is_disabled":false,"rental_uris":{"android":"levelo://app?vid=93444417-14a4-46ee-96ed-7b7f467c6940","ios":"levelo://app?vid=93444417-14a4-46ee-96ed-7b7f467c6940"},"vehicle_type_id":"4","last_reported":1727626196,"current_range_meters":24000,"station_id":"ce4bgip2rcd13ifvqbb0","pricing_plan_id":"cebpf4jnsgd1na2vs0mg"},{"bike_id":"20e5e2e6-6789-4212-8f03-0adafbbc617b","system_id":"levelo_inurba_marseille","lat":43.273749,"lon":5.362626,"is_reserved":false,"is_disabled":false,"rental_uris":{"android":"levelo://app?vid=20e5e2e6-6789-4212-8f03-0adafbbc617b","ios":"levelo://app?vid=20e5e2e6-6789-4212-8f03-0adafbbc617b"},"vehicle_type_id":"4","last_reported":1727626196,"current_range_meters":34800,"station_id":"ce4bh5p2rcd13ifvqe4g","pricing_plan_id":"cebpf4jnsgd1na2vs0mg"},{"bike_id":"6e476f28-902d-4971-ad1c-83bd552282b4","system_id":"levelo_inurba_marseille","lat":43.28715,"lon":5.37392,"is_reserved":false,"is_disabled":false,"rental_uris":{"android":"levelo://app?vid=6e476f28-902d-4971-ad1c-83bd552282b4","ios":"levelo://app?vid=6e476f28-902d-4971-ad1c-83bd552282b4"},"vehicle_type_id":"4","last_reported":1727626196,"current_range_meters":38800,"station_id":"ce4bh3p2rcd13ifvqdq0","pricing_plan_id":"cebpf4jnsgd1na2vs0mg"},{"bike_id":"a2a893c9-8653-4507-989d-2378ecc684a5","system_id":"levelo_inurba_marseille","lat":43.297729,"lon":5.371492,"is_reserved":false,"is_disabled":false,"rental_uris":{"android":"levelo://app?vid=a2a893c9-8653-4507-989d-2378ecc684a5","ios":"levelo://app?vid=a2a893c9-8653-4507-989d-2378ecc684a5"},"vehicle_type_id":"4","last_reported":1727626196,"current_range_meters":6000,"station_id":"ce4bgop2rcd13ifvqc1g","pricing_plan_id":"cebpf4jnsgd1na2vs0mg"},{"bike_id":"6eff8d2d-61fa-4715-9388-b30a052d3e98","system_id":"levelo_inurba_marseille","lat":43.337444,"lon":5.374475,"is_reserved":false,"is_disabled":false,"rental_uris":{"android":"levelo://app?vid=6eff8d2d-61fa-4715-9388-b30a052d3e98","ios":"levelo://app?vid=6eff8d2d-61fa-4715-9388-b30a052d3e98"},"vehicle_type_id":"4","last_reported":1727626196,"current_range_meters":27600,"station_id":"","pricing_plan_id":"cebpf4jnsgd1na2vs0mg"},{"bike_id":"5561ba97-cc61-4a9c-bb93-36a893b9716f","system_id":"levelo_inurba_marseille","lat":43.28922,"lon":5.42431,"is_reserved":false,"is_disabled":false,"rental_uris":{"android":"levelo://app?vid=5561ba97-cc61-4a9c-bb93-36a893b9716f","ios":"levelo://app?vid=5561ba97-cc61-4a9c-bb93-36a893b9716f"},"vehicle_type_id":"4","last_reported":1727626196,"current_range_meters":32800,"station_id":"","pricing_plan_id":"cebpf4jnsgd1na2vs0mg"},{"bike_id":"834c0370-4237-4159-896d-ca0a5eb765c0","system_id":"levelo_inurba_marseille","lat":43.29063,"lon":5.37587,"is_reserved":false,"is_disabled":false,"rental_uris":{"android":"levelo://app?vid=834c0370-4237-4159-896d-ca0a5eb765c0","ios":"levelo://app?vid=834c0370-4237-4159-896d-ca0a5eb765c0"},"vehicle_type_id":"4","last_reported":1727626196,"current_range_meters":8800,"station_id":"ce4bh692rcd13ifvqe90","pricing_plan_id":"cebpf4jnsgd1na2vs0mg"},{"bike_id":"fe1536c8-4c0e-465d-8e26-5e87756dd823","system_id":"levelo_inurba_marseille","lat":43.22927,"lon":5.35377,"is_reserved":false,"is_disabled":false,"rental_uris":{"android":"levelo://app?vid=fe1536c8-4c0e-465d-8e26-5e87756dd823","ios":"levelo://app?vid=fe1536c8-4c0e-465d-8e26-5e87756dd823"},"vehicle_type_id":"4","last_reported":1727626196,"current_range_meters":24400,"station_id":"cpo3532slgdg3j2ikp40","pricing_plan_id":"cebpf4jnsgd1na2vs0mg"},{"bike_id":"49103c36-092f-43a6-a665-96ac4218adb8","system_id":"levelo_inurba_marseille","lat":43.32299,"lon":5.38265,"is_reserved":false,"is_disabled":false,"rental_uris":{"android":"levelo://app?vid=49103c36-092f-43a6-a665-96ac4218adb8","ios":"levelo://app?vid=49103c36-092f-43a6-a665-96ac4218adb8"},"vehicle_type_id":"4","last_reported":1727626196,"current_range_meters":39200,"station_id":"ce4bhr12rcd13ifvqhqg","pricing_plan_id":"cebpf4jnsgd1na2vs0mg"},{"bike_id":"71e8dc74-7957-4612-bc46-b84716719d3e","system_id":"levelo_inurba_marseille","lat":43.2481,"lon":5.37456,"is_reserved":false,"is_disabled":false,"rental_uris":{"android":"levelo://app?vid=71e8dc74-7957-4612-bc46-b84716719d3e","ios":"levelo://app?vid=71e8dc74-7957-4612-bc46-b84716719d3e"},"vehicle_type_id":"4","last_reported":1727626196,"current_range_meters":38800,"station_id":"ce4bhgh2rcd13ifvqfb0","pricing_plan_id":"cebpf4jnsgd1na2vs0mg"},{"bike_id":"09f4c5c0-5fb7-4867-9303-aacc6f8948d6","system_id":"levelo_inurba_marseille","lat":43.27315,"lon":5.39066,"is_reserved":false,"is_disabled":false,"rental_uris":{"android":"levelo://app?vid=09f4c5c0-5fb7-4867-9303-aacc6f8948d6","ios":"levelo://app?vid=09f4c5c0-5fb7-4867-9303-aacc6f8948d6"},"vehicle_type_id":"4","last_reported":1727626196,"current_range_meters":25600,"station_id":"ce4bhgp2rcd13ifvqfe0","pricing_plan_id":"cebpf4jnsgd1na2vs0mg"},{"bike_id":"6f0f9c32-de70-4574-9b89-cca29ab0554e","system_id":"levelo_inurba_marseille","lat":43.337444,"lon":5.374475,"is_reserved":false,"is_disabled":false,"rental_uris":{"android":"levelo://app?vid=6f0f9c32-de70-4574-9b89-cca29ab0554e","ios":"levelo://app?vid=6f0f9c32-de70-4574-9b89-cca29ab0554e"},"vehicle_type_id":"4","last_reported":1727626196,"current_range_meters":25600,"station_id":"","pricing_plan_id":"cebpf4jnsgd1na2vs0mg"},{"bike_id":"44839918-e841-4578-a34d-4d8014b09bc8","system_id":"levelo_inurba_marseille","lat":43.31234,"lon":5.36865,"is_reserved":false,"is_disabled":false,"rental_uris":{"android":"levelo://app?vid=44839918-e841-4578-a34d-4d8014b09bc8","ios":"levelo://app?vid=44839918-e841-4578-a34d-4d8014b09bc8"},"vehicle_type_id":"4","last_reported":1727626196,"current_range_meters":36800,"station_id":"ce4bgl92rcd13ifvqbq0","pricing_plan_id":"cebpf4jnsgd1na2vs0mg"},{"bike_id":"b9897cf6-b27e-4987-8a36-ce737823aa7b","system_id":"levelo_inurba_marseille","lat":43.32314,"lon":5.38287,"is_reserved":false,"is_disabled":false,"rental_uris":{"android":"levelo://app?vid=b9897cf6-b27e-4987-8a36-ce737823aa7b","ios":"levelo://app?vid=b9897cf6-b27e-4987-8a36-ce737823aa7b"},"vehicle_type_id":"4","last_reported":1727626196,"current_range_meters":38400,"station_id":"ce4bhr12rcd13ifvqhqg","pricing_plan_id":"cebpf4jnsgd1na2vs0mg"},{"bike_id":"0687a646-be72-47a3-8907-22e0afb02a46","system_id":"levelo_inurba_marseille","lat":43.23963,"lon":5.36618,"is_reserved":false,"is_disabled":false,"rental_uris":{"android":"levelo://app?vid=0687a646-be72-47a3-8907-22e0afb02a46","ios":"levelo://app?vid=0687a646-be72-47a3-8907-22e0afb02a46"},"vehicle_type_id":"4","last_reported":1727626196,"current_range_meters":28800,"station_id":"ce4bhi12rcd13ifvqfp0","pricing_plan_id":"cebpf4jnsgd1na2vs0mg"},{"bike_id":"bc62f930-b5c7-4f73-9e7e-6e947951ae5d","system_id":"levelo_inurba_marseille","lat":43.25586,"lon":5.38236,"is_reserved":false,"is_disabled":false,"rental_uris":{"android":"levelo://app?vid=bc62f930-b5c7-4f73-9e7e-6e947951ae5d","ios":"levelo://app?vid=bc62f930-b5c7-4f73-9e7e-6e947951ae5d"},"vehicle_type_id":"4","last_reported":1727626196,"current_range_meters":35600,"station_id":"ce4bhih2rcd13ifvqfs0","pricing_plan_id":"cebpf4jnsgd1na2vs0mg"},{"bike_id":"d5a1b281-d9f3-4e8d-bdc8-181e1ee5f46d","system_id":"levelo_inurba_marseille","lat":43.23195,"lon":5.35546,"is_reserved":false,"is_disabled":false,"rental_uris":{"android":"levelo://app?vid=d5a1b281-d9f3-4e8d-bdc8-181e1ee5f46d","ios":"levelo://app?vid=d5a1b281-d9f3-4e8d-bdc8-181e1ee5f46d"},"vehicle_type_id":"4","last_reported":1727626196,"current_range_meters":38800,"station_id":"ce4bhu92rcd13ifvqi70","pricing_plan_id":"cebpf4jnsgd1na2vs0mg"},{"bike_id":"290c78af-ee38-4eb7-b41e-e46a67267194","system_id":"levelo_inurba_marseille","lat":43.29636,"lon":5.40596,"is_reserved":false,"is_disabled":false,"rental_uris":{"android":"levelo://app?vid=290c78af-ee38-4eb7-b41e-e46a67267194","ios":"levelo://app?vid=290c78af-ee38-4eb7-b41e-e46a67267194"},"vehicle_type_id":"4","last_reported":1727626196,"current_range_meters":1600,"station_id":"ce4bh0h2rcd13ifvqd60","pricing_plan_id":"cebpf4jnsgd1na2vs0mg"},{"bike_id":"90c05d40-f5db-4a12-95b3-f8d41ae2e51b","system_id":"levelo_inurba_marseille","lat":43.32377,"lon":5.3892,"is_reserved":false,"is_disabled":false,"rental_uris":{"android":"levelo://app?vid=90c05d40-f5db-4a12-95b3-f8d41ae2e51b","ios":"levelo://app?vid=90c05d40-f5db-4a12-95b3-f8d41ae2e51b"},"vehicle_type_id":"4","last_reported":1727626196,"current_range_meters":29600,"station_id":"ce4bhqp2rcd13ifvqhog","pricing_plan_id":"cebpf4jnsgd1na2vs0mg"},{"bike_id":"7f6c02ee-6254-420a-9b86-8459648974a0","system_id":"levelo_inurba_marseille","lat":43.243866,"lon":5.37058,"is_reserved":false,"is_disabled":false,"rental_uris":{"android":"levelo://app?vid=7f6c02ee-6254-420a-9b86-8459648974a0","ios":"levelo://app?vid=7f6c02ee-6254-420a-9b86-8459648974a0"},"vehicle_type_id":"4","last_reported":1727626196,"current_range_meters":10000,"station_id":"ce4bgr92rcd13ifvqc7g","pricing_plan_id":"cebpf4jnsgd1na2vs0mg"},{"bike_id":"dc2df302-eaf5-4ed7-8ba6-31c984d1c0cc","system_id":"levelo_inurba_marseille","lat":43.3091,"lon":5.36847,"is_reserved":false,"is_disabled":false,"rental_uris":{"android":"levelo://app?vid=dc2df302-eaf5-4ed7-8ba6-31c984d1c0cc","ios":"levelo://app?vid=dc2df302-eaf5-4ed7-8ba6-31c984d1c0cc"},"vehicle_type_id":"4","last_reported":1727626196,"current_range_meters":22400,"station_id":"ce4bgn92rcd13ifvqbvg","pricing_plan_id":"cebpf4jnsgd1na2vs0mg"},{"bike_id":"b18fb3e3-4ebe-4164-ba10-8087d6fcc0f0","system_id":"levelo_inurba_marseille","lat":43.24809,"lon":5.37455,"is_reserved":false,"is_disabled":false,"rental_uris":{"android":"levelo://app?vid=b18fb3e3-4ebe-4164-ba10-8087d6fcc0f0","ios":"levelo://app?vid=b18fb3e3-4ebe-4164-ba10-8087d6fcc0f0"},"vehicle_type_id":"4","last_reported":1727626196,"current_range_meters":38800,"station_id":"ce4bhgh2rcd13ifvqfb0","pricing_plan_id":"cebpf4jnsgd1na2vs0mg"},{"bike_id":"b78bf4b9-a0f5-47fa-9697-ee2a1badce13","system_id":"levelo_inurba_marseille","lat":43.29885,"lon":5.38911,"is_reserved":false,"is_disabled":false,"rental_uris":{"android":"levelo://app?vid=b78bf4b9-a0f5-47fa-9697-ee2a1badce13","ios":"levelo://app?vid=b78bf4b9-a0f5-47fa-9697-ee2a1badce13"},"vehicle_type_id":"4","last_reported":1727626196,"current_range_meters":27200,"station_id":"ce4bh392rcd13ifvqdl0","pricing_plan_id":"cebpf4jnsgd1na2vs0mg"},{"bike_id":"bad5e9e2-06bc-4820-836e-39c4e1f5032d","system_id":"levelo_inurba_marseille","lat":43.3056,"lon":5.36724,"is_reserved":false,"is_disabled":false,"rental_uris":{"android":"levelo://app?vid=bad5e9e2-06bc-4820-836e-39c4e1f5032d","ios":"levelo://app?vid=bad5e9e2-06bc-4820-836e-39c4e1f5032d"},"vehicle_type_id":"4","last_reported":1727626196,"current_range_meters":6400,"station_id":"ce4bgrp2rcd13ifvqc9g","pricing_plan_id":"cebpf4jnsgd1na2vs0mg"},{"bike_id":"da6d972e-ca14-4b3b-998f-39e0d82463b3","system_id":"levelo_inurba_marseille","lat":43.26512,"lon":5.39538,"is_reserved":false,"is_disabled":false,"rental_uris":{"android":"levelo://app?vid=da6d972e-ca14-4b3b-998f-39e0d82463b3","ios":"levelo://app?vid=da6d972e-ca14-4b3b-998f-39e0d82463b3"},"vehicle_type_id":"4","last_reported":1727626196,"current_range_meters":36000,"station_id":"ce4bhi12rcd13ifvqfq0","pricing_plan_id":"cebpf4jnsgd1na2vs0mg"},{"bike_id":"572f1a05-c94a-456c-8614-3a38c1b93394","system_id":"levelo_inurba_marseille","lat":43.28354,"lon":5.381,"is_reserved":false,"is_disabled":false,"rental_uris":{"android":"levelo://app?vid=572f1a05-c94a-456c-8614-3a38c1b93394","ios":"levelo://app?vid=572f1a05-c94a-456c-8614-3a38c1b93394"},"vehicle_type_id":"4","last_reported":1727626196,"current_range_meters":27200,"station_id":"ce4bh412rcd13ifvqdr0","pricing_plan_id":"cebpf4jnsgd1na2vs0mg"},{"bike_id":"0fa8b223-8090-4672-8b04-b57125694314","system_id":"levelo_inurba_marseille","lat":43.28956,"lon":5.36842,"is_reserved":false,"is_disabled":false,"rental_uris":{"android":"levelo://app?vid=0fa8b223-8090-4672-8b04-b57125694314","ios":"levelo://app?vid=0fa8b223-8090-4672-8b04-b57125694314"},"vehicle_type_id":"4","last_reported":1727626196,"current_range_meters":34000,"station_id":"","pricing_plan_id":"cebpf4jnsgd1na2vs0mg"},{"bike_id":"e8f6998e-adf5-48f6-a3d3-43ee09432e50","system_id":"levelo_inurba_marseille","lat":43.28106,"lon":5.37831,"is_reserved":false,"is_disabled":false,"rental_uris":{"android":"levelo://app?vid=e8f6998e-adf5-48f6-a3d3-43ee09432e50","ios":"levelo://app?vid=e8f6998e-adf5-48f6-a3d3-43ee09432e50"},"vehicle_type_id":"4","last_reported":1727626196,"current_range_meters":19600,"station_id":"ce4bha12rcd13ifvqee0","pricing_plan_id":"cebpf4jnsgd1na2vs0mg"},{"bike_id":"db630383-d2d1-428d-b9f0-973005a9160a","system_id":"levelo_inurba_marseille","lat":43.24393,"lon":5.37055,"is_reserved":false,"is_disabled":false,"rental_uris":{"android":"levelo://app?vid=db630383-d2d1-428d-b9f0-973005a9160a","ios":"levelo://app?vid=db630383-d2d1-428d-b9f0-973005a9160a"},"vehicle_type_id":"4","last_reported":1727626196,"current_range_meters":38800,"station_id":"ce4bhhh2rcd13ifvqfk0","pricing_plan_id":"cebpf4jnsgd1na2vs0mg"},{"bike_id":"8c6c5c5d-8e7b-4ad7-b0c6-8ed8876dc5f4","system_id":"levelo_inurba_marseille","lat":43.291779,"lon":5.355787,"is_reserved":false,"is_disabled":false,"rental_uris":{"android":"levelo://app?vid=8c6c5c5d-8e7b-4ad7-b0c6-8ed8876dc5f4","ios":"levelo://app?vid=8c6c5c5d-8e7b-4ad7-b0c6-8ed8876dc5f4"},"vehicle_type_id":"4","last_reported":1727626196,"current_range_meters":24800,"station_id":"ce4bhb12rcd13ifvqel0","pricing_plan_id":"cebpf4jnsgd1na2vs0mg"},{"bike_id":"15c8c7c2-d3d1-4095-a55f-806d05faaee1","system_id":"levelo_inurba_marseille","lat":43.28341,"lon":5.38098,"is_reserved":false,"is_disabled":false,"rental_uris":{"android":"levelo://app?vid=15c8c7c2-d3d1-4095-a55f-806d05faaee1","ios":"levelo://app?vid=15c8c7c2-d3d1-4095-a55f-806d05faaee1"},"vehicle_type_id":"4","last_reported":1727626196,"current_range_meters":30800,"station_id":"ce4bh412rcd13ifvqdr0","pricing_plan_id":"cebpf4jnsgd1na2vs0mg"},{"bike_id":"9d933d2a-f72c-492c-ae3d-eb238dac3442","system_id":"levelo_inurba_marseille","lat":43.317589,"lon":5.390251,"is_reserved":false,"is_disabled":false,"rental_uris":{"android":"levelo://app?vid=9d933d2a-f72c-492c-ae3d-eb238dac3442","ios":"levelo://app?vid=9d933d2a-f72c-492c-ae3d-eb238dac3442"},"vehicle_type_id":"4","last_reported":1727626196,"current_range_meters":12400,"station_id":"ce4bhqp2rcd13ifvqhng","pricing_plan_id":"cebpf4jnsgd1na2vs0mg"},{"bike_id":"e5caedb3-e9d3-40ba-84ce-bc37b396d9df","system_id":"levelo_inurba_marseille","lat":43.299,"lon":5.4365,"is_reserved":false,"is_disabled":false,"rental_uris":{"android":"levelo://app?vid=e5caedb3-e9d3-40ba-84ce-bc37b396d9df","ios":"levelo://app?vid=e5caedb3-e9d3-40ba-84ce-bc37b396d9df"},"vehicle_type_id":"4","last_reported":1727626196,"current_range_meters":8800,"station_id":"ce4bhpp2rcd13ifvqhfg","pricing_plan_id":"cebpf4jnsgd1na2vs0mg"},{"bike_id":"9a634e2c-38a6-4fd7-823a-84e176568dd3","system_id":"levelo_inurba_marseille","lat":43.27906,"lon":5.38008,"is_reserved":false,"is_disabled":false,"rental_uris":{"android":"levelo://app?vid=9a634e2c-38a6-4fd7-823a-84e176568dd3","ios":"levelo://app?vid=9a634e2c-38a6-4fd7-823a-84e176568dd3"},"vehicle_type_id":"4","last_reported":1727626196,"current_range_meters":38800,"station_id":"ce4bhf92rcd13ifvqf50","pricing_plan_id":"cebpf4jnsgd1na2vs0mg"},{"bike_id":"436275e9-f62c-43fe-9e11-d3a2b91303f1","system_id":"levelo_inurba_marseille","lat":43.24395,"lon":5.37063,"is_reserved":false,"is_disabled":false,"rental_uris":{"android":"levelo://app?vid=436275e9-f62c-43fe-9e11-d3a2b91303f1","ios":"levelo://app?vid=436275e9-f62c-43fe-9e11-d3a2b91303f1"},"vehicle_type_id":"4","last_reported":1727626196,"current_range_meters":36400,"station_id":"ce4bhhh2rcd13ifvqfk0","pricing_plan_id":"cebpf4jnsgd1na2vs0mg"},{"bike_id":"6ba8bdee-0775-4480-8579-2126a9329ee0","system_id":"levelo_inurba_marseille","lat":43.28937,"lon":5.36395,"is_reserved":false,"is_disabled":false,"rental_uris":{"android":"levelo://app?vid=6ba8bdee-0775-4480-8579-2126a9329ee0","ios":"levelo://app?vid=6ba8bdee-0775-4480-8579-2126a9329ee0"},"vehicle_type_id":"4","last_reported":1727626196,"current_range_meters":26000,"station_id":"ce4bhc92rcd13ifvqetg","pricing_plan_id":"cebpf4jnsgd1na2vs0mg"},{"bike_id":"ae420688-5730-4c04-90f7-fb439220597f","system_id":"levelo_inurba_marseille","lat":43.337444,"lon":5.374475,"is_reserved":false,"is_disabled":false,"rental_uris":{"android":"levelo://app?vid=ae420688-5730-4c04-90f7-fb439220597f","ios":"levelo://app?vid=ae420688-5730-4c04-90f7-fb439220597f"},"vehicle_type_id":"4","last_reported":1727626196,"current_range_meters":28000,"station_id":"","pricing_plan_id":"cebpf4jnsgd1na2vs0mg"},{"bike_id":"64c5a41d-9764-4555-8564-e0109a27d62f","system_id":"levelo_inurba_marseille","lat":43.3227,"lon":5.38274,"is_reserved":false,"is_disabled":false,"rental_uris":{"android":"levelo://app?vid=64c5a41d-9764-4555-8564-e0109a27d62f","ios":"levelo://app?vid=64c5a41d-9764-4555-8564-e0109a27d62f"},"vehicle_type_id":"4","last_reported":1727626196,"current_range_meters":9600,"station_id":"ce4bhr12rcd13ifvqhqg","pricing_plan_id":"cebpf4jnsgd1na2vs0mg"},{"bike_id":"86a71ee8-d43f-4ebe-bee2-169dfe2232ae","system_id":"levelo_inurba_marseille","lat":43.23962,"lon":5.3663,"is_reserved":false,"is_disabled":false,"rental_uris":{"android":"levelo://app?vid=86a71ee8-d43f-4ebe-bee2-169dfe2232ae","ios":"levelo://app?vid=86a71ee8-d43f-4ebe-bee2-169dfe2232ae"},"vehicle_type_id":"4","last_reported":1727626196,"current_range_meters":34800,"station_id":"ce4bhi12rcd13ifvqfp0","pricing_plan_id":"cebpf4jnsgd1na2vs0mg"},{"bike_id":"1d120e83-3e47-438c-ad2e-ee0c593707f6","system_id":"levelo_inurba_marseille","lat":43.24674,"lon":5.38161,"is_reserved":false,"is_disabled":false,"rental_uris":{"android":"levelo://app?vid=1d120e83-3e47-438c-ad2e-ee0c593707f6","ios":"levelo://app?vid=1d120e83-3e47-438c-ad2e-ee0c593707f6"},"vehicle_type_id":"4","last_reported":1727626196,"current_range_meters":15200,"station_id":"ce4bhih2rcd13ifvqfr0","pricing_plan_id":"cebpf4jnsgd1na2vs0mg"},{"bike_id":"adaf8c99-95b8-4c2d-8814-a55aadeeb624","system_id":"levelo_inurba_marseille","lat":43.232,"lon":5.35547,"is_reserved":false,"is_disabled":false,"rental_uris":{"android":"levelo://app?vid=adaf8c99-95b8-4c2d-8814-a55aadeeb624","ios":"levelo://app?vid=adaf8c99-95b8-4c2d-8814-a55aadeeb624"},"vehicle_type_id":"4","last_reported":1727626196,"current_range_meters":26000,"station_id":"ce4bhu92rcd13ifvqi70","pricing_plan_id":"cebpf4jnsgd1na2vs0mg"},{"bike_id":"6589ed56-cb47-4581-8832-f7240483fc73","system_id":"levelo_inurba_marseille","lat":43.23059,"lon":5.35489,"is_reserved":false,"is_disabled":false,"rental_uris":{"android":"levelo://app?vid=6589ed56-cb47-4581-8832-f7240483fc73","ios":"levelo://app?vid=6589ed56-cb47-4581-8832-f7240483fc73"},"vehicle_type_id":"4","last_reported":1727626196,"current_range_meters":15200,"station_id":"cpo3342slgdg3j2ifvpg","pricing_plan_id":"cebpf4jnsgd1na2vs0mg"},{"bike_id":"a3a47351-bfd0-416a-a975-6c02d73c223a","system_id":"levelo_inurba_marseille","lat":43.25824,"lon":5.39432,"is_reserved":false,"is_disabled":false,"rental_uris":{"android":"levelo://app?vid=a3a47351-bfd0-416a-a975-6c02d73c223a","ios":"levelo://app?vid=a3a47351-bfd0-416a-a975-6c02d73c223a"},"vehicle_type_id":"4","last_reported":1727626196,"current_range_meters":26800,"station_id":"ce4bhip2rcd13ifvqft0","pricing_plan_id":"cebpf4jnsgd1na2vs0mg"},{"bike_id":"1f1955f1-bed6-439b-b8cb-d07b1d9ef4bc","system_id":"levelo_inurba_marseille","lat":43.23961,"lon":5.36626,"is_reserved":false,"is_disabled":false,"rental_uris":{"android":"levelo://app?vid=1f1955f1-bed6-439b-b8cb-d07b1d9ef4bc","ios":"levelo://app?vid=1f1955f1-bed6-439b-b8cb-d07b1d9ef4bc"},"vehicle_type_id":"4","last_reported":1727626196,"current_range_meters":38800,"station_id":"ce4bhi12rcd13ifvqfp0","pricing_plan_id":"cebpf4jnsgd1na2vs0mg"},{"bike_id":"4c4582ca-9559-4a3f-8fe5-23f17c49cb76","system_id":"levelo_inurba_marseille","lat":43.30211,"lon":5.39464,"is_reserved":false,"is_disabled":false,"rental_uris":{"android":"levelo://app?vid=4c4582ca-9559-4a3f-8fe5-23f17c49cb76","ios":"levelo://app?vid=4c4582ca-9559-4a3f-8fe5-23f17c49cb76"},"vehicle_type_id":"4","last_reported":1727626196,"current_range_meters":3600,"station_id":"ce4bh0p2rcd13ifvqd70","pricing_plan_id":"cebpf4jnsgd1na2vs0mg"},{"bike_id":"8f0d3b2f-8fe9-4097-bd5f-e96b1a043e99","system_id":"levelo_inurba_marseille","lat":43.23206,"lon":5.35551,"is_reserved":false,"is_disabled":false,"rental_uris":{"android":"levelo://app?vid=8f0d3b2f-8fe9-4097-bd5f-e96b1a043e99","ios":"levelo://app?vid=8f0d3b2f-8fe9-4097-bd5f-e96b1a043e99"},"vehicle_type_id":"4","last_reported":1727626196,"current_range_meters":6000,"station_id":"ce4bhu92rcd13ifvqi70","pricing_plan_id":"cebpf4jnsgd1na2vs0mg"},{"bike_id":"9cb3412e-3587-47af-8a8a-114bb5acd038","system_id":"levelo_inurba_marseille","lat":43.29896,"lon":5.4366,"is_reserved":false,"is_disabled":false,"rental_uris":{"android":"levelo://app?vid=9cb3412e-3587-47af-8a8a-114bb5acd038","ios":"levelo://app?vid=9cb3412e-3587-47af-8a8a-114bb5acd038"},"vehicle_type_id":"4","last_reported":1727626196,"current_range_meters":38800,"station_id":"ce4bhpp2rcd13ifvqhfg","pricing_plan_id":"cebpf4jnsgd1na2vs0mg"},{"bike_id":"257d51a4-0453-4c57-a25f-8915d4c4e277","system_id":"levelo_inurba_marseille","lat":43.26218,"lon":5.37441,"is_reserved":false,"is_disabled":false,"rental_uris":{"android":"levelo://app?vid=257d51a4-0453-4c57-a25f-8915d4c4e277","ios":"levelo://app?vid=257d51a4-0453-4c57-a25f-8915d4c4e277"},"vehicle_type_id":"4","last_reported":1727626196,"current_range_meters":12800,"station_id":"ce4bhgp2rcd13ifvqfc0","pricing_plan_id":"cebpf4jnsgd1na2vs0mg"},{"bike_id":"86c229bc-f163-4e41-b138-e497bebda808","system_id":"levelo_inurba_marseille","lat":43.28936,"lon":5.36393,"is_reserved":false,"is_disabled":false,"rental_uris":{"android":"levelo://app?vid=86c229bc-f163-4e41-b138-e497bebda808","ios":"levelo://app?vid=86c229bc-f163-4e41-b138-e497bebda808"},"vehicle_type_id":"4","last_reported":1727626196,"current_range_meters":38800,"station_id":"ce4bhc92rcd13ifvqetg","pricing_plan_id":"cebpf4jnsgd1na2vs0mg"},{"bike_id":"514406d6-130c-4404-b7cb-e9c48856d761","system_id":"levelo_inurba_marseille","lat":43.24662,"lon":5.38167,"is_reserved":false,"is_disabled":false,"rental_uris":{"android":"levelo://app?vid=514406d6-130c-4404-b7cb-e9c48856d761","ios":"levelo://app?vid=514406d6-130c-4404-b7cb-e9c48856d761"},"vehicle_type_id":"4","last_reported":1727626196,"current_range_meters":13600,"station_id":"ce4bhih2rcd13ifvqfr0","pricing_plan_id":"cebpf4jnsgd1na2vs0mg"},{"bike_id":"6d4498e6-d1af-4183-90b6-4c14bf32b656","system_id":"levelo_inurba_marseille","lat":43.23198,"lon":5.35542,"is_reserved":false,"is_disabled":false,"rental_uris":{"android":"levelo://app?vid=6d4498e6-d1af-4183-90b6-4c14bf32b656","ios":"levelo://app?vid=6d4498e6-d1af-4183-90b6-4c14bf32b656"},"vehicle_type_id":"4","last_reported":1727626196,"current_range_meters":20400,"station_id":"ce4bhu92rcd13ifvqi70","pricing_plan_id":"cebpf4jnsgd1na2vs0mg"},{"bike_id":"232a27c0-86cc-436e-9988-dd61c29b689e","system_id":"levelo_inurba_marseille","lat":43.26244,"lon":5.37527,"is_reserved":false,"is_disabled":false,"rental_uris":{"android":"levelo://app?vid=232a27c0-86cc-436e-9988-dd61c29b689e","ios":"levelo://app?vid=232a27c0-86cc-436e-9988-dd61c29b689e"},"vehicle_type_id":"4","last_reported":1727626196,"current_range_meters":38800,"station_id":"ce4bhgp2rcd13ifvqfc0","pricing_plan_id":"cebpf4jnsgd1na2vs0mg"},{"bike_id":"a6f3456f-f73f-4350-91cf-0ecbb08350d1","system_id":"levelo_inurba_marseille","lat":43.32388,"lon":5.38915,"is_reserved":false,"is_disabled":false,"rental_uris":{"android":"levelo://app?vid=a6f3456f-f73f-4350-91cf-0ecbb08350d1","ios":"levelo://app?vid=a6f3456f-f73f-4350-91cf-0ecbb08350d1"},"vehicle_type_id":"4","last_reported":1727626196,"current_range_meters":27600,"station_id":"ce4bhqp2rcd13ifvqhog","pricing_plan_id":"cebpf4jnsgd1na2vs0mg"},{"bike_id":"617bce1d-1530-4e36-8e10-2c2185df9b7c","system_id":"levelo_inurba_marseille","lat":43.31997,"lon":5.38155,"is_reserved":false,"is_disabled":false,"rental_uris":{"android":"levelo://app?vid=617bce1d-1530-4e36-8e10-2c2185df9b7c","ios":"levelo://app?vid=617bce1d-1530-4e36-8e10-2c2185df9b7c"},"vehicle_type_id":"4","last_reported":1727626196,"current_range_meters":3200,"station_id":"ce4bhr12rcd13ifvqhpg","pricing_plan_id":"cebpf4jnsgd1na2vs0mg"},{"bike_id":"c0f42d82-7648-4fd8-9170-e67e3031bc12","system_id":"levelo_inurba_marseille","lat":43.28422,"lon":5.3499,"is_reserved":false,"is_disabled":false,"rental_uris":{"android":"levelo://app?vid=c0f42d82-7648-4fd8-9170-e67e3031bc12","ios":"levelo://app?vid=c0f42d82-7648-4fd8-9170-e67e3031bc12"},"vehicle_type_id":"4","last_reported":1727626196,"current_range_meters":3600,"station_id":"ce4bhbh2rcd13ifvqepg","pricing_plan_id":"cebpf4jnsgd1na2vs0mg"},{"bike_id":"1e7e1759-135d-4212-9866-9b0393c404b8","system_id":"levelo_inurba_marseille","lat":43.26195,"lon":5.37451,"is_reserved":false,"is_disabled":false,"rental_uris":{"android":"levelo://app?vid=1e7e1759-135d-4212-9866-9b0393c404b8","ios":"levelo://app?vid=1e7e1759-135d-4212-9866-9b0393c404b8"},"vehicle_type_id":"4","last_reported":1727626196,"current_range_meters":23200,"station_id":"ce4bhgp2rcd13ifvqfc0","pricing_plan_id":"cebpf4jnsgd1na2vs0mg"},{"bike_id":"72f04bea-87ff-462d-a51f-4ab9221a2163","system_id":"levelo_inurba_marseille","lat":43.23965,"lon":5.36628,"is_reserved":false,"is_disabled":false,"rental_uris":{"android":"levelo://app?vid=72f04bea-87ff-462d-a51f-4ab9221a2163","ios":"levelo://app?vid=72f04bea-87ff-462d-a51f-4ab9221a2163"},"vehicle_type_id":"4","last_reported":1727626196,"current_range_meters":25200,"station_id":"ce4bhi12rcd13ifvqfp0","pricing_plan_id":"cebpf4jnsgd1na2vs0mg"},{"bike_id":"51e287a5-b406-4bc2-885f-17e3718b5849","system_id":"levelo_inurba_marseille","lat":43.307213,"lon":5.386447,"is_reserved":false,"is_disabled":false,"rental_uris":{"android":"levelo://app?vid=51e287a5-b406-4bc2-885f-17e3718b5849","ios":"levelo://app?vid=51e287a5-b406-4bc2-885f-17e3718b5849"},"vehicle_type_id":"4","last_reported":1727626196,"current_range_meters":32800,"station_id":"","pricing_plan_id":"cebpf4jnsgd1na2vs0mg"},{"bike_id":"72644075-504b-485d-99e5-6a7047bb56ca","system_id":"levelo_inurba_marseille","lat":43.2935,"lon":5.42832,"is_reserved":false,"is_disabled":false,"rental_uris":{"android":"levelo://app?vid=72644075-504b-485d-99e5-6a7047bb56ca","ios":"levelo://app?vid=72644075-504b-485d-99e5-6a7047bb56ca"},"vehicle_type_id":"4","last_reported":1727626196,"current_range_meters":23200,"station_id":"","pricing_plan_id":"cebpf4jnsgd1na2vs0mg"},{"bike_id":"9875a1f0-e592-46f9-8699-96387cfa5ee3","system_id":"levelo_inurba_marseille","lat":43.25721,"lon":5.41114,"is_reserved":false,"is_disabled":false,"rental_uris":{"android":"levelo://app?vid=9875a1f0-e592-46f9-8699-96387cfa5ee3","ios":"levelo://app?vid=9875a1f0-e592-46f9-8699-96387cfa5ee3"},"vehicle_type_id":"4","last_reported":1727626196,"current_range_meters":17600,"station_id":"ce4bhkp2rcd13ifvqgd0","pricing_plan_id":"cebpf4jnsgd1na2vs0mg"},{"bike_id":"a36e8dd2-a807-4cda-af86-54a935b9baed","system_id":"levelo_inurba_marseille","lat":43.27177,"lon":5.40995,"is_reserved":false,"is_disabled":false,"rental_uris":{"android":"levelo://app?vid=a36e8dd2-a807-4cda-af86-54a935b9baed","ios":"levelo://app?vid=a36e8dd2-a807-4cda-af86-54a935b9baed"},"vehicle_type_id":"4","last_reported":1727626196,"current_range_meters":26000,"station_id":"ce4bhl12rcd13ifvqgf0","pricing_plan_id":"cebpf4jnsgd1na2vs0mg"},{"bike_id":"b0c31863-9489-4555-8c14-cc83b377024c","system_id":"levelo_inurba_marseille","lat":43.26039,"lon":5.38199,"is_reserved":false,"is_disabled":false,"rental_uris":{"android":"levelo://app?vid=b0c31863-9489-4555-8c14-cc83b377024c","ios":"levelo://app?vid=b0c31863-9489-4555-8c14-cc83b377024c"},"vehicle_type_id":"4","last_reported":1727626196,"current_range_meters":24400,"station_id":"","pricing_plan_id":"cebpf4jnsgd1na2vs0mg"},{"bike_id":"c5780541-b30d-4d72-9466-9846f9352508","system_id":"levelo_inurba_marseille","lat":43.24394,"lon":5.37066,"is_reserved":false,"is_disabled":false,"rental_uris":{"android":"levelo://app?vid=c5780541-b30d-4d72-9466-9846f9352508","ios":"levelo://app?vid=c5780541-b30d-4d72-9466-9846f9352508"},"vehicle_type_id":"4","last_reported":1727626196,"current_range_meters":28400,"station_id":"ce4bhhh2rcd13ifvqfk0","pricing_plan_id":"cebpf4jnsgd1na2vs0mg"},{"bike_id":"a371f3ca-2c24-4ae8-9bd3-d7f7f2713aee","system_id":"levelo_inurba_marseille","lat":43.25489,"lon":5.37648,"is_reserved":false,"is_disabled":false,"rental_uris":{"android":"levelo://app?vid=a371f3ca-2c24-4ae8-9bd3-d7f7f2713aee","ios":"levelo://app?vid=a371f3ca-2c24-4ae8-9bd3-d7f7f2713aee"},"vehicle_type_id":"4","last_reported":1727626196,"current_range_meters":32000,"station_id":"ce4bhh12rcd13ifvqff0","pricing_plan_id":"cebpf4jnsgd1na2vs0mg"},{"bike_id":"bbf952ac-e334-4066-8586-c2a54f21154f","system_id":"levelo_inurba_marseille","lat":43.24494,"lon":5.37832,"is_reserved":false,"is_disabled":false,"rental_uris":{"android":"levelo://app?vid=bbf952ac-e334-4066-8586-c2a54f21154f","ios":"levelo://app?vid=bbf952ac-e334-4066-8586-c2a54f21154f"},"vehicle_type_id":"4","last_reported":1727626196,"current_range_meters":20800,"station_id":"","pricing_plan_id":"cebpf4jnsgd1na2vs0mg"},{"bike_id":"cc189bdb-be15-4ec1-9a90-3ed3ce93f053","system_id":"levelo_inurba_marseille","lat":43.340712,"lon":5.420391,"is_reserved":false,"is_disabled":false,"rental_uris":{"android":"levelo://app?vid=cc189bdb-be15-4ec1-9a90-3ed3ce93f053","ios":"levelo://app?vid=cc189bdb-be15-4ec1-9a90-3ed3ce93f053"},"vehicle_type_id":"4","last_reported":1727626196,"current_range_meters":28000,"station_id":"","pricing_plan_id":"cebpf4jnsgd1na2vs0mg"},{"bike_id":"6db6ea78-ba34-4a53-a4a8-4d7391f2ac26","system_id":"levelo_inurba_marseille","lat":43.23065,"lon":5.35491,"is_reserved":false,"is_disabled":false,"rental_uris":{"android":"levelo://app?vid=6db6ea78-ba34-4a53-a4a8-4d7391f2ac26","ios":"levelo://app?vid=6db6ea78-ba34-4a53-a4a8-4d7391f2ac26"},"vehicle_type_id":"4","last_reported":1727626196,"current_range_meters":20000,"station_id":"cpo3342slgdg3j2ifvpg","pricing_plan_id":"cebpf4jnsgd1na2vs0mg"},{"bike_id":"55b2afce-fd78-441d-b03b-2d1abeeddc13","system_id":"levelo_inurba_marseille","lat":43.27725,"lon":5.35661,"is_reserved":false,"is_disabled":false,"rental_uris":{"android":"levelo://app?vid=55b2afce-fd78-441d-b03b-2d1abeeddc13","ios":"levelo://app?vid=55b2afce-fd78-441d-b03b-2d1abeeddc13"},"vehicle_type_id":"4","last_reported":1727626196,"current_range_meters":20400,"station_id":"ce4bgn12rcd13ifvqbt0","pricing_plan_id":"cebpf4jnsgd1na2vs0mg"},{"bike_id":"b54c7d05-965e-4978-85d3-d1f47d1f8ac9","system_id":"levelo_inurba_marseille","lat":43.30548,"lon":5.36567,"is_reserved":false,"is_disabled":false,"rental_uris":{"android":"levelo://app?vid=b54c7d05-965e-4978-85d3-d1f47d1f8ac9","ios":"levelo://app?vid=b54c7d05-965e-4978-85d3-d1f47d1f8ac9"},"vehicle_type_id":"4","last_reported":1727626196,"current_range_meters":18800,"station_id":"ce4bgs12rcd13ifvqcag","pricing_plan_id":"cebpf4jnsgd1na2vs0mg"},{"bike_id":"5d5a76cf-b385-40f2-b609-439e6ff2e253","system_id":"levelo_inurba_marseille","lat":43.32289,"lon":5.3826,"is_reserved":false,"is_disabled":false,"rental_uris":{"android":"levelo://app?vid=5d5a76cf-b385-40f2-b609-439e6ff2e253","ios":"levelo://app?vid=5d5a76cf-b385-40f2-b609-439e6ff2e253"},"vehicle_type_id":"4","last_reported":1727626196,"current_range_meters":28800,"station_id":"ce4bhr12rcd13ifvqhqg","pricing_plan_id":"cebpf4jnsgd1na2vs0mg"},{"bike_id":"4655ee1c-92f5-4e61-ba50-5b57ef7514bc","system_id":"levelo_inurba_marseille","lat":43.32291,"lon":5.38273,"is_reserved":false,"is_disabled":false,"rental_uris":{"android":"levelo://app?vid=4655ee1c-92f5-4e61-ba50-5b57ef7514bc","ios":"levelo://app?vid=4655ee1c-92f5-4e61-ba50-5b57ef7514bc"},"vehicle_type_id":"4","last_reported":1727626196,"current_range_meters":32000,"station_id":"ce4bhr12rcd13ifvqhqg","pricing_plan_id":"cebpf4jnsgd1na2vs0mg"},{"bike_id":"c98f4d9e-251f-48a9-9483-ed323549282b","system_id":"levelo_inurba_marseille","lat":43.30142,"lon":5.38788,"is_reserved":false,"is_disabled":false,"rental_uris":{"android":"levelo://app?vid=c98f4d9e-251f-48a9-9483-ed323549282b","ios":"levelo://app?vid=c98f4d9e-251f-48a9-9483-ed323549282b"},"vehicle_type_id":"4","last_reported":1727626196,"current_range_meters":38800,"station_id":"ce4bghh2rcd13ifvqb60","pricing_plan_id":"cebpf4jnsgd1na2vs0mg"},{"bike_id":"24e19e99-6916-49e4-a3d4-5054efecf38c","system_id":"levelo_inurba_marseille","lat":43.28459,"lon":5.35884,"is_reserved":false,"is_disabled":false,"rental_uris":{"android":"levelo://app?vid=24e19e99-6916-49e4-a3d4-5054efecf38c","ios":"levelo://app?vid=24e19e99-6916-49e4-a3d4-5054efecf38c"},"vehicle_type_id":"4","last_reported":1727626196,"current_range_meters":3600,"station_id":"ce4bhah2rcd13ifvqei0","pricing_plan_id":"cebpf4jnsgd1na2vs0mg"},{"bike_id":"fe41d896-cf8a-401c-b61d-c24e7603db94","system_id":"levelo_inurba_marseille","lat":43.27424,"lon":5.3941,"is_reserved":false,"is_disabled":false,"rental_uris":{"android":"levelo://app?vid=fe41d896-cf8a-401c-b61d-c24e7603db94","ios":"levelo://app?vid=fe41d896-cf8a-401c-b61d-c24e7603db94"},"vehicle_type_id":"4","last_reported":1727626196,"current_range_meters":37600,"station_id":"ce4bhdp2rcd13ifvqf20","pricing_plan_id":"cebpf4jnsgd1na2vs0mg"},{"bike_id":"f9907c14-2e98-4992-9fac-86a0d516fb1f","system_id":"levelo_inurba_marseille","lat":43.29909,"lon":5.43662,"is_reserved":false,"is_disabled":false,"rental_uris":{"android":"levelo://app?vid=f9907c14-2e98-4992-9fac-86a0d516fb1f","ios":"levelo://app?vid=f9907c14-2e98-4992-9fac-86a0d516fb1f"},"vehicle_type_id":"4","last_reported":1727626196,"current_range_meters":18800,"station_id":"ce4bhpp2rcd13ifvqhfg","pricing_plan_id":"cebpf4jnsgd1na2vs0mg"},{"bike_id":"2e9c2069-3d9e-4717-9797-8fff7261a51c","system_id":"levelo_inurba_marseille","lat":43.2407,"lon":5.37768,"is_reserved":false,"is_disabled":false,"rental_uris":{"android":"levelo://app?vid=2e9c2069-3d9e-4717-9797-8fff7261a51c","ios":"levelo://app?vid=2e9c2069-3d9e-4717-9797-8fff7261a51c"},"vehicle_type_id":"4","last_reported":1727626196,"current_range_meters":12400,"station_id":"ce4bhnp2rcd13ifvqgvg","pricing_plan_id":"cebpf4jnsgd1na2vs0mg"},{"bike_id":"85dde43c-b03a-4766-8820-da31b6fead0e","system_id":"levelo_inurba_marseille","lat":43.28658,"lon":5.36339,"is_reserved":false,"is_disabled":false,"rental_uris":{"android":"levelo://app?vid=85dde43c-b03a-4766-8820-da31b6fead0e","ios":"levelo://app?vid=85dde43c-b03a-4766-8820-da31b6fead0e"},"vehicle_type_id":"4","last_reported":1727626196,"current_range_meters":24000,"station_id":"ce4bhah2rcd13ifvqej0","pricing_plan_id":"cebpf4jnsgd1na2vs0mg"},{"bike_id":"2856642f-6299-4492-ad8d-9c50708e61ef","system_id":"levelo_inurba_marseille","lat":43.23186,"lon":5.39991,"is_reserved":false,"is_disabled":false,"rental_uris":{"android":"levelo://app?vid=2856642f-6299-4492-ad8d-9c50708e61ef","ios":"levelo://app?vid=2856642f-6299-4492-ad8d-9c50708e61ef"},"vehicle_type_id":"4","last_reported":1727626196,"current_range_meters":24400,"station_id":"ce4bhn12rcd13ifvqgqg","pricing_plan_id":"cebpf4jnsgd1na2vs0mg"},{"bike_id":"e03136bf-e2fb-44b1-9b2e-f68c228824a7","system_id":"levelo_inurba_marseille","lat":43.24817,"lon":5.37456,"is_reserved":false,"is_disabled":false,"rental_uris":{"android":"levelo://app?vid=e03136bf-e2fb-44b1-9b2e-f68c228824a7","ios":"levelo://app?vid=e03136bf-e2fb-44b1-9b2e-f68c228824a7"},"vehicle_type_id":"4","last_reported":1727626196,"current_range_meters":30800,"station_id":"ce4bhgh2rcd13ifvqfb0","pricing_plan_id":"cebpf4jnsgd1na2vs0mg"},{"bike_id":"a7c31554-baf8-4519-bae9-c037896996f2","system_id":"levelo_inurba_marseille","lat":43.30559,"lon":5.39234,"is_reserved":false,"is_disabled":false,"rental_uris":{"android":"levelo://app?vid=a7c31554-baf8-4519-bae9-c037896996f2","ios":"levelo://app?vid=a7c31554-baf8-4519-bae9-c037896996f2"},"vehicle_type_id":"4","last_reported":1727626196,"current_range_meters":19600,"station_id":"ce4bgh92rcd13ifvqb40","pricing_plan_id":"cebpf4jnsgd1na2vs0mg"},{"bike_id":"6d7daa3b-af39-4a7e-a368-df745386430d","system_id":"levelo_inurba_marseille","lat":43.32292,"lon":5.3827,"is_reserved":false,"is_disabled":false,"rental_uris":{"android":"levelo://app?vid=6d7daa3b-af39-4a7e-a368-df745386430d","ios":"levelo://app?vid=6d7daa3b-af39-4a7e-a368-df745386430d"},"vehicle_type_id":"4","last_reported":1727626196,"current_range_meters":28400,"station_id":"ce4bhr12rcd13ifvqhqg","pricing_plan_id":"cebpf4jnsgd1na2vs0mg"},{"bike_id":"b1fd0d1d-b772-4aa3-adb9-68f332fd0d01","system_id":"levelo_inurba_marseille","lat":43.25583,"lon":5.3824,"is_reserved":false,"is_disabled":false,"rental_uris":{"android":"levelo://app?vid=b1fd0d1d-b772-4aa3-adb9-68f332fd0d01","ios":"levelo://app?vid=b1fd0d1d-b772-4aa3-adb9-68f332fd0d01"},"vehicle_type_id":"4","last_reported":1727626196,"current_range_meters":38800,"station_id":"ce4bhih2rcd13ifvqfs0","pricing_plan_id":"cebpf4jnsgd1na2vs0mg"},{"bike_id":"86957b1f-bf46-40a2-8549-216c2471eedd","system_id":"levelo_inurba_marseille","lat":43.286194,"lon":5.350996,"is_reserved":false,"is_disabled":false,"rental_uris":{"android":"levelo://app?vid=86957b1f-bf46-40a2-8549-216c2471eedd","ios":"levelo://app?vid=86957b1f-bf46-40a2-8549-216c2471eedd"},"vehicle_type_id":"4","last_reported":1727626196,"current_range_meters":10000,"station_id":"ce4bhch2rcd13ifvqeug","pricing_plan_id":"cebpf4jnsgd1na2vs0mg"},{"bike_id":"b29b3d15-94da-47f4-9c3e-61641b543ee3","system_id":"levelo_inurba_marseille","lat":43.32468,"lon":5.3656,"is_reserved":false,"is_disabled":false,"rental_uris":{"android":"levelo://app?vid=b29b3d15-94da-47f4-9c3e-61641b543ee3","ios":"levelo://app?vid=b29b3d15-94da-47f4-9c3e-61641b543ee3"},"vehicle_type_id":"4","last_reported":1727626196,"current_range_meters":36000,"station_id":"ce4bhs12rcd13ifvqhvg","pricing_plan_id":"cebpf4jnsgd1na2vs0mg"},{"bike_id":"0f5882bc-eb8f-4fcb-b5f6-156986c7eb2c","system_id":"levelo_inurba_marseille","lat":43.23202,"lon":5.35555,"is_reserved":false,"is_disabled":false,"rental_uris":{"android":"levelo://app?vid=0f5882bc-eb8f-4fcb-b5f6-156986c7eb2c","ios":"levelo://app?vid=0f5882bc-eb8f-4fcb-b5f6-156986c7eb2c"},"vehicle_type_id":"4","last_reported":1727626196,"current_range_meters":18800,"station_id":"ce4bhu92rcd13ifvqi70","pricing_plan_id":"cebpf4jnsgd1na2vs0mg"},{"bike_id":"2e731cd4-a8be-46d0-be1f-0f73c59e3e73","system_id":"levelo_inurba_marseille","lat":43.30314,"lon":5.36905,"is_reserved":false,"is_disabled":false,"rental_uris":{"android":"levelo://app?vid=2e731cd4-a8be-46d0-be1f-0f73c59e3e73","ios":"levelo://app?vid=2e731cd4-a8be-46d0-be1f-0f73c59e3e73"},"vehicle_type_id":"4","last_reported":1727626196,"current_range_meters":36800,"station_id":"ce4bgqh2rcd13ifvqc5g","pricing_plan_id":"cebpf4jnsgd1na2vs0mg"},{"bike_id":"6b311102-0393-4490-954d-8b8772f9924e","system_id":"levelo_inurba_marseille","lat":43.24165,"lon":5.36395,"is_reserved":false,"is_disabled":false,"rental_uris":{"android":"levelo://app?vid=6b311102-0393-4490-954d-8b8772f9924e","ios":"levelo://app?vid=6b311102-0393-4490-954d-8b8772f9924e"},"vehicle_type_id":"4","last_reported":1727626196,"current_range_meters":36800,"station_id":"cpo36qri1sfpv3e86is0","pricing_plan_id":"cebpf4jnsgd1na2vs0mg"},{"bike_id":"586e8006-58ad-4fe0-9242-0a2e899b3c08","system_id":"levelo_inurba_marseille","lat":43.29271,"lon":5.38442,"is_reserved":false,"is_disabled":false,"rental_uris":{"android":"levelo://app?vid=586e8006-58ad-4fe0-9242-0a2e899b3c08","ios":"levelo://app?vid=586e8006-58ad-4fe0-9242-0a2e899b3c08"},"vehicle_type_id":"4","last_reported":1727626196,"current_range_meters":36400,"station_id":"ce4bh692rcd13ifvqea0","pricing_plan_id":"cebpf4jnsgd1na2vs0mg"},{"bike_id":"db88a575-3fee-40bd-b643-16dd61e96803","system_id":"levelo_inurba_marseille","lat":43.26948,"lon":5.38627,"is_reserved":false,"is_disabled":false,"rental_uris":{"android":"levelo://app?vid=db88a575-3fee-40bd-b643-16dd61e96803","ios":"levelo://app?vid=db88a575-3fee-40bd-b643-16dd61e96803"},