{"last_updated":1753114390,"ttl":60,"version":"2.2","data":{"bikes":[{"bike_id":"53b742a7-31ae-4272-9bba-7740339e2a2f","system_id":"levelo_inurba_marseille","lat":43.33747,"lon":5.37463,"is_reserved":false,"is_disabled":false,"rental_uris":{"android":"levelo://app?vid=53b742a7-31ae-4272-9bba-7740339e2a2f","ios":"levelo://app?vid=53b742a7-31ae-4272-9bba-7740339e2a2f"},"vehicle_type_id":"1","last_reported":1753114390,"current_range_meters":6000,"station_id":"","pricing_plan_id":"cebpf4jnsgd1na2vs0mg"},{"bike_id":"d06b6904-72d7-405c-95e3-d1ffba61a69c","system_id":"levelo_inurba_marseille","lat":43.29245,"lon":5.38433,"is_reserved":false,"is_disabled":false,"rental_uris":{"android":"levelo://app?vid=d06b6904-72d7-405c-95e3-d1ffba61a69c","ios":"levelo://app?vid=d06b6904-72d7-405c-95e3-d1ffba61a69c"},"vehicle_type_id":"4","last_reported":1753114390,"current_range_meters":2000,"station_id":"ce4bh692rcd13ifvqea0","pricing_plan_id":"cebpf4jnsgd1na2vs0mg"},{"bike_id":"2b48e930-2049-40e6-bb09-c435b1a35dd4","system_id":"levelo_inurba_marseille","lat":43.288539,"lon":5.358477,"is_reserved":false,"is_disabled":false,"rental_uris":{"android":"levelo://app?vid=2b48e930-2049-40e6-bb09-c435b1a35dd4","ios":"levelo://app?vid=2b48e930-2049-40e6-bb09-c435b1a35dd4"},"vehicle_type_id":"4","last_reported":1753114390,"current_range_meters":2800,"station_id":"ce4bhb12rcd13ifvqem0","pricing_plan_id":"cebpf4jnsgd1na2vs0mg"},{"bike_id":"433415c1-acea-4306-b3ad-c55437db8988","system_id":"levelo_inurba_marseille","lat":43.29501,"lon":5.38184,"is_reserved":false,"is_disabled":false,"rental_uris":{"android":"levelo://app?vid=433415c1-acea-4306-b3ad-c55437db8988","ios":"levelo://app?vid=433415c1-acea-4306-b3ad-c55437db8988"},"vehicle_type_id":"4","last_reported":1753114390,"current_range_meters":3200,"station_id":"","pricing_plan_id":"cebpf4jnsgd1na2vs0mg"},{"bike_id":"ac141403-2eff-454e-8bd1-3d400d40ed2b","system_id":"levelo_inurba_marseille","lat":43.33128,"lon":5.40022,"is_reserved":false,"is_disabled":false,"rental_uris":{"android":"levelo://app?vid=ac141403-2eff-454e-8bd1-3d400d40ed2b","ios":"levelo://app?vid=ac141403-2eff-454e-8bd1-3d400d40ed2b"},"vehicle_type_id":"4","last_reported":1753114390,"current_range_meters":3200,"station_id":"","pricing_plan_id":"cebpf4jnsgd1na2vs0mg"},{"bike_id":"192c0fa5-c826-4847-bdd0-11edb7180ff9","system_id":"levelo_inurba_marseille","lat":43.306593,"lon":5.400826,"is_reserved":false,"is_disabled":true,"rental_uris":{"android":"levelo://app?vid=192c0fa5-c826-4847-bdd0-11edb7180ff9","ios":"levelo://app?vid=192c0fa5-c826-4847-bdd0-11edb7180ff9"},"vehicle_type_id":"4","last_reported":1753114390,"current_range_meters":3200,"station_id":"ce4bh112rcd13ifvqda0","pricing_plan_id":"cebpf4jnsgd1na2vs0mg"},{"bike_id":"c5f5b733-9b58-4b35-af6e-a06a3681bcd6","system_id":"levelo_inurba_marseille","lat":43.34144,"lon":5.40909,"is_reserved":false,"is_disabled":false,"rental_uris":{"android":"levelo://app?vid=c5f5b733-9b58-4b35-af6e-a06a3681bcd6","ios":"levelo://app?vid=c5f5b733-9b58-4b35-af6e-a06a3681bcd6"},"vehicle_type_id":"4","last_reported":1753114390,"current_range_meters":3200,"station_id":"ce4bhqh2rcd13ifvqhlg","pricing_plan_id":"cebpf4jnsgd1na2vs0mg"},{"bike_id":"c389352a-cbae-4e54-8d29-ff448e9976b6","system_id":"levelo_inurba_marseille","lat":43.29204,"lon":5.39324,"is_reserved":false,"is_disabled":false,"rental_uris":{"android":"levelo://app?vid=c389352a-cbae-4e54-8d29-ff448e9976b6","ios":"levelo://app?vid=c389352a-cbae-4e54-8d29-ff448e9976b6"},"vehicle_type_id":"4","last_reported":1753114390,"current_range_meters":3600,"station_id":"ce4bh192rcd13ifvqdd0","pricing_plan_id":"cebpf4jnsgd1na2vs0mg"},{"bike_id":"165d0f96-75ed-4885-a18e-5061696d0d9f","system_id":"levelo_inurba_marseille","lat":43.31708,"lon":5.37727,"is_reserved":false,"is_disabled":false,"rental_uris":{"android":"levelo://app?vid=165d0f96-75ed-4885-a18e-5061696d0d9f","ios":"levelo://app?vid=165d0f96-75ed-4885-a18e-5061696d0d9f"},"vehicle_type_id":"4","last_reported":1753114390,"current_range_meters":3600,"station_id":"ce4bgth2rcd13ifvqch0","pricing_plan_id":"cebpf4jnsgd1na2vs0mg"},{"bike_id":"e9df26e9-b5ae-4a4e-a818-c80da1a3ca39","system_id":"levelo_inurba_marseille","lat":43.29971,"lon":5.38495,"is_reserved":false,"is_disabled":false,"rental_uris":{"android":"levelo://app?vid=e9df26e9-b5ae-4a4e-a818-c80da1a3ca39","ios":"levelo://app?vid=e9df26e9-b5ae-4a4e-a818-c80da1a3ca39"},"vehicle_type_id":"4","last_reported":1753114390,"current_range_meters":4000,"station_id":"ce4bgj92rcd13ifvqbd0","pricing_plan_id":"cebpf4jnsgd1na2vs0mg"},{"bike_id":"91908e07-1296-4e21-94db-8e66e1769a60","system_id":"levelo_inurba_marseille","lat":43.30589,"lon":5.39352,"is_reserved":false,"is_disabled":false,"rental_uris":{"android":"levelo://app?vid=91908e07-1296-4e21-94db-8e66e1769a60","ios":"levelo://app?vid=91908e07-1296-4e21-94db-8e66e1769a60"},"vehicle_type_id":"4","last_reported":1753114390,"current_range_meters":1200,"station_id":"ce4bh0p2rcd13ifvqd80","pricing_plan_id":"cebpf4jnsgd1na2vs0mg"},{"bike_id":"b8dd731d-88dc-446b-8eb3-3e8dbf219716","system_id":"levelo_inurba_marseille","lat":43.29571,"lon":5.39988,"is_reserved":false,"is_disabled":false,"rental_uris":{"android":"levelo://app?vid=b8dd731d-88dc-446b-8eb3-3e8dbf219716","ios":"levelo://app?vid=b8dd731d-88dc-446b-8eb3-3e8dbf219716"},"vehicle_type_id":"4","last_reported":1753114390,"current_range_meters":4400,"station_id":"ce4bh312rcd13ifvqdj0","pricing_plan_id":"cebpf4jnsgd1na2vs0mg"},{"bike_id":"990dc0dd-0175-40e0-b1af-c8f4b3c15c43","system_id":"levelo_inurba_marseille","lat":43.28664,"lon":5.36349,"is_reserved":false,"is_disabled":false,"rental_uris":{"android":"levelo://app?vid=990dc0dd-0175-40e0-b1af-c8f4b3c15c43","ios":"levelo://app?vid=990dc0dd-0175-40e0-b1af-c8f4b3c15c43"},"vehicle_type_id":"4","last_reported":1753114390,"current_range_meters":4000,"station_id":"ce4bhah2rcd13ifvqej0","pricing_plan_id":"cebpf4jnsgd1na2vs0mg"},{"bike_id":"0fd02cf6-67fb-4589-807f-241dd50b7e1a","system_id":"levelo_inurba_marseille","lat":43.29908,"lon":5.43654,"is_reserved":false,"is_disabled":true,"rental_uris":{"android":"levelo://app?vid=0fd02cf6-67fb-4589-807f-241dd50b7e1a","ios":"levelo://app?vid=0fd02cf6-67fb-4589-807f-241dd50b7e1a"},"vehicle_type_id":"4","last_reported":1753114390,"current_range_meters":4800,"station_id":"ce4bhpp2rcd13ifvqhfg","pricing_plan_id":"cebpf4jnsgd1na2vs0mg"},{"bike_id":"17a834d2-0dce-49f5-8ab5-2e7e048169f9","system_id":"levelo_inurba_marseille","lat":43.29526,"lon":5.39051,"is_reserved":false,"is_disabled":false,"rental_uris":{"android":"levelo://app?vid=17a834d2-0dce-49f5-8ab5-2e7e048169f9","ios":"levelo://app?vid=17a834d2-0dce-49f5-8ab5-2e7e048169f9"},"vehicle_type_id":"4","last_reported":1753114390,"current_range_meters":4800,"station_id":"ce4bh3p2rcd13ifvqdp0","pricing_plan_id":"cebpf4jnsgd1na2vs0mg"},{"bike_id":"08e57f00-b6eb-4702-b1a4-67348c511038","system_id":"levelo_inurba_marseille","lat":43.24544,"lon":5.39528,"is_reserved":false,"is_disabled":false,"rental_uris":{"android":"levelo://app?vid=08e57f00-b6eb-4702-b1a4-67348c511038","ios":"levelo://app?vid=08e57f00-b6eb-4702-b1a4-67348c511038"},"vehicle_type_id":"4","last_reported":1753114390,"current_range_meters":4400,"station_id":"ce4bhlp2rcd13ifvqgjg","pricing_plan_id":"cebpf4jnsgd1na2vs0mg"},{"bike_id":"55e1b9ec-90a6-406f-8419-1bc0d9d0c2e8","system_id":"levelo_inurba_marseille","lat":43.2509,"lon":5.39524,"is_reserved":false,"is_disabled":false,"rental_uris":{"android":"levelo://app?vid=55e1b9ec-90a6-406f-8419-1bc0d9d0c2e8","ios":"levelo://app?vid=55e1b9ec-90a6-406f-8419-1bc0d9d0c2e8"},"vehicle_type_id":"4","last_reported":1753114390,"current_range_meters":4800,"station_id":"ce4bhm12rcd13ifvqgkg","pricing_plan_id":"cebpf4jnsgd1na2vs0mg"},{"bike_id":"f512445c-57bb-4619-9698-e56754dfbf6a","system_id":"levelo_inurba_marseille","lat":43.23199,"lon":5.35546,"is_reserved":false,"is_disabled":false,"rental_uris":{"android":"levelo://app?vid=f512445c-57bb-4619-9698-e56754dfbf6a","ios":"levelo://app?vid=f512445c-57bb-4619-9698-e56754dfbf6a"},"vehicle_type_id":"4","last_reported":1753114390,"current_range_meters":5600,"station_id":"ce4bhu92rcd13ifvqi70","pricing_plan_id":"cebpf4jnsgd1na2vs0mg"},{"bike_id":"e1307ee7-5b60-4ce7-ba85-c734a7724c83","system_id":"levelo_inurba_marseille","lat":43.30332,"lon":5.40433,"is_reserved":false,"is_disabled":false,"rental_uris":{"android":"levelo://app?vid=e1307ee7-5b60-4ce7-ba85-c734a7724c83","ios":"levelo://app?vid=e1307ee7-5b60-4ce7-ba85-c734a7724c83"},"vehicle_type_id":"4","last_reported":1753114390,"current_range_meters":6000,"station_id":"ce4bh012rcd13ifvqd10","pricing_plan_id":"cebpf4jnsgd1na2vs0mg"},{"bike_id":"d7fe672b-936b-4d1e-b1d3-c462a46c4d53","system_id":"levelo_inurba_marseille","lat":43.26204,"lon":5.37934,"is_reserved":false,"is_disabled":false,"rental_uris":{"android":"levelo://app?vid=d7fe672b-936b-4d1e-b1d3-c462a46c4d53","ios":"levelo://app?vid=d7fe672b-936b-4d1e-b1d3-c462a46c4d53"},"vehicle_type_id":"4","last_reported":1753114390,"current_range_meters":6400,"station_id":"ce4bhjp2rcd13ifvqg90","pricing_plan_id":"cebpf4jnsgd1na2vs0mg"},{"bike_id":"ed415a14-b4b4-4caf-8a06-7fd1c907bac5","system_id":"levelo_inurba_marseille","lat":43.2152,"lon":5.34616,"is_reserved":false,"is_disabled":false,"rental_uris":{"android":"levelo://app?vid=ed415a14-b4b4-4caf-8a06-7fd1c907bac5","ios":"levelo://app?vid=ed415a14-b4b4-4caf-8a06-7fd1c907bac5"},"vehicle_type_id":"4","last_reported":1753114390,"current_range_meters":6400,"station_id":"","pricing_plan_id":"cebpf4jnsgd1na2vs0mg"},{"bike_id":"e0970957-01ab-48d1-a9c0-d8f89b64ae56","system_id":"levelo_inurba_marseille","lat":43.27371,"lon":5.36255,"is_reserved":false,"is_disabled":true,"rental_uris":{"android":"levelo://app?vid=e0970957-01ab-48d1-a9c0-d8f89b64ae56","ios":"levelo://app?vid=e0970957-01ab-48d1-a9c0-d8f89b64ae56"},"vehicle_type_id":"4","last_reported":1753114390,"current_range_meters":6400,"station_id":"ce4bhbh2rcd13ifvqeo0","pricing_plan_id":"cebpf4jnsgd1na2vs0mg"},{"bike_id":"3a9cc41e-030c-4c43-ab96-90fbd63fbbc7","system_id":"levelo_inurba_marseille","lat":43.298619,"lon":5.373508,"is_reserved":false,"is_disabled":false,"rental_uris":{"android":"levelo://app?vid=3a9cc41e-030c-4c43-ab96-90fbd63fbbc7","ios":"levelo://app?vid=3a9cc41e-030c-4c43-ab96-90fbd63fbbc7"},"vehicle_type_id":"4","last_reported":1753114390,"current_range_meters":6400,"station_id":"ce4bht12rcd13ifvqi60","pricing_plan_id":"cebpf4jnsgd1na2vs0mg"},{"bike_id":"5dc2a61c-9a0d-4eb3-b07f-765ca306c97b","system_id":"levelo_inurba_marseille","lat":43.27918,"lon":5.3958,"is_reserved":false,"is_disabled":false,"rental_uris":{"android":"levelo://app?vid=5dc2a61c-9a0d-4eb3-b07f-765ca306c97b","ios":"levelo://app?vid=5dc2a61c-9a0d-4eb3-b07f-765ca306c97b"},"vehicle_type_id":"4","last_reported":1753114390,"current_range_meters":6800,"station_id":"ce4bhf92rcd13ifvqf40","pricing_plan_id":"cebpf4jnsgd1na2vs0mg"},{"bike_id":"a6de290b-5c15-427b-bc37-8301607e1735","system_id":"levelo_inurba_marseille","lat":43.337725,"lon":5.374294,"is_reserved":false,"is_disabled":false,"rental_uris":{"android":"levelo://app?vid=a6de290b-5c15-427b-bc37-8301607e1735","ios":"levelo://app?vid=a6de290b-5c15-427b-bc37-8301607e1735"},"vehicle_type_id":"4","last_reported":1753114390,"current_range_meters":6800,"station_id":"","pricing_plan_id":"cebpf4jnsgd1na2vs0mg"},{"bike_id":"84133b2c-54f7-40c0-9db6-ff896dc83184","system_id":"levelo_inurba_marseille","lat":43.301395,"lon":5.39881,"is_reserved":false,"is_disabled":true,"rental_uris":{"android":"levelo://app?vid=84133b2c-54f7-40c0-9db6-ff896dc83184","ios":"levelo://app?vid=84133b2c-54f7-40c0-9db6-ff896dc83184"},"vehicle_type_id":"4","last_reported":1753114390,"current_range_meters":7200,"station_id":"ce4bh0h2rcd13ifvqd40","pricing_plan_id":"cebpf4jnsgd1na2vs0mg"},{"bike_id":"f18952d9-de72-4b00-ac50-ca46d1bc16b9","system_id":"levelo_inurba_marseille","lat":43.21191,"lon":5.35074,"is_reserved":false,"is_disabled":false,"rental_uris":{"android":"levelo://app?vid=f18952d9-de72-4b00-ac50-ca46d1bc16b9","ios":"levelo://app?vid=f18952d9-de72-4b00-ac50-ca46d1bc16b9"},"vehicle_type_id":"4","last_reported":1753114390,"current_range_meters":7200,"station_id":"st_cvj6sg6p6f1abm77japg","pricing_plan_id":"cebpf4jnsgd1na2vs0mg"},{"bike_id":"ef5c1446-37bd-4830-b7b0-ea420576a56f","system_id":"levelo_inurba_marseille","lat":43.2681,"lon":5.40262,"is_reserved":false,"is_disabled":true,"rental_uris":{"android":"levelo://app?vid=ef5c1446-37bd-4830-b7b0-ea420576a56f","ios":"levelo://app?vid=ef5c1446-37bd-4830-b7b0-ea420576a56f"},"vehicle_type_id":"4","last_reported":1753114390,"current_range_meters":7200,"station_id":"ce501612rcd8frsf0b60","pricing_plan_id":"cebpf4jnsgd1na2vs0mg"},{"bike_id":"0878a695-32f9-4229-9713-332a54ebf3bc","system_id":"levelo_inurba_marseille","lat":43.295294,"lon":5.394076,"is_reserved":false,"is_disabled":false,"rental_uris":{"android":"levelo://app?vid=0878a695-32f9-4229-9713-332a54ebf3bc","ios":"levelo://app?vid=0878a695-32f9-4229-9713-332a54ebf3bc"},"vehicle_type_id":"4","last_reported":1753114390,"current_range_meters":6800,"station_id":"ce4bh292rcd13ifvqdf0","pricing_plan_id":"cebpf4jnsgd1na2vs0mg"},{"bike_id":"736c363b-3641-43dd-b890-bd43d8fd5283","system_id":"levelo_inurba_marseille","lat":43.29656,"lon":5.36866,"is_reserved":false,"is_disabled":false,"rental_uris":{"android":"levelo://app?vid=736c363b-3641-43dd-b890-bd43d8fd5283","ios":"levelo://app?vid=736c363b-3641-43dd-b890-bd43d8fd5283"},"vehicle_type_id":"4","last_reported":1753114390,"current_range_meters":8000,"station_id":"","pricing_plan_id":"cebpf4jnsgd1na2vs0mg"},{"bike_id":"bdf04ed2-e6a7-4cad-9c20-d530b6be9825","system_id":"levelo_inurba_marseille","lat":43.276253,"lon":5.361053,"is_reserved":false,"is_disabled":false,"rental_uris":{"android":"levelo://app?vid=bdf04ed2-e6a7-4cad-9c20-d530b6be9825","ios":"levelo://app?vid=bdf04ed2-e6a7-4cad-9c20-d530b6be9825"},"vehicle_type_id":"4","last_reported":1753114390,"current_range_meters":8000,"station_id":"ce4bgj92rcd13ifvqbe0","pricing_plan_id":"cebpf4jnsgd1na2vs0mg"},{"bike_id":"da431369-3dbb-43ab-8c6f-ea00e9025ec9","system_id":"levelo_inurba_marseille","lat":43.3237,"lon":5.38888,"is_reserved":false,"is_disabled":false,"rental_uris":{"android":"levelo://app?vid=da431369-3dbb-43ab-8c6f-ea00e9025ec9","ios":"levelo://app?vid=da431369-3dbb-43ab-8c6f-ea00e9025ec9"},"vehicle_type_id":"4","last_reported":1753114390,"current_range_meters":8400,"station_id":"ce4bhqp2rcd13ifvqhog","pricing_plan_id":"cebpf4jnsgd1na2vs0mg"},{"bike_id":"04b8beeb-d190-45ad-bc37-7eaa1482dd3e","system_id":"levelo_inurba_marseille","lat":43.230719,"lon":5.354812,"is_reserved":false,"is_disabled":false,"rental_uris":{"android":"levelo://app?vid=04b8beeb-d190-45ad-bc37-7eaa1482dd3e","ios":"levelo://app?vid=04b8beeb-d190-45ad-bc37-7eaa1482dd3e"},"vehicle_type_id":"4","last_reported":1753114390,"current_range_meters":8400,"station_id":"cpo3342slgdg3j2ifvpg","pricing_plan_id":"cebpf4jnsgd1na2vs0mg"},{"bike_id":"875817bc-d58f-4805-8d4f-7a9589f13336","system_id":"levelo_inurba_marseille","lat":43.26207,"lon":5.37931,"is_reserved":false,"is_disabled":false,"rental_uris":{"android":"levelo://app?vid=875817bc-d58f-4805-8d4f-7a9589f13336","ios":"levelo://app?vid=875817bc-d58f-4805-8d4f-7a9589f13336"},"vehicle_type_id":"4","last_reported":1753114390,"current_range_meters":8400,"station_id":"ce4bhjp2rcd13ifvqg90","pricing_plan_id":"cebpf4jnsgd1na2vs0mg"},{"bike_id":"54c62cfd-190d-4a0a-99a0-7a5cc5804e08","system_id":"levelo_inurba_marseille","lat":43.21185,"lon":5.35071,"is_reserved":false,"is_disabled":false,"rental_uris":{"android":"levelo://app?vid=54c62cfd-190d-4a0a-99a0-7a5cc5804e08","ios":"levelo://app?vid=54c62cfd-190d-4a0a-99a0-7a5cc5804e08"},"vehicle_type_id":"4","last_reported":1753114390,"current_range_meters":8800,"station_id":"st_cvj6sg6p6f1abm77japg","pricing_plan_id":"cebpf4jnsgd1na2vs0mg"},{"bike_id":"d8bfd82e-9c8a-4518-903b-8ab88ef11124","system_id":"levelo_inurba_marseille","lat":43.24661,"lon":5.38162,"is_reserved":false,"is_disabled":false,"rental_uris":{"android":"levelo://app?vid=d8bfd82e-9c8a-4518-903b-8ab88ef11124","ios":"levelo://app?vid=d8bfd82e-9c8a-4518-903b-8ab88ef11124"},"vehicle_type_id":"4","last_reported":1753114390,"current_range_meters":8800,"station_id":"ce4bhih2rcd13ifvqfr0","pricing_plan_id":"cebpf4jnsgd1na2vs0mg"},{"bike_id":"9036d315-4723-4cdd-9f68-856fe767f9c3","system_id":"levelo_inurba_marseille","lat":43.33146,"lon":5.38174,"is_reserved":false,"is_disabled":false,"rental_uris":{"android":"levelo://app?vid=9036d315-4723-4cdd-9f68-856fe767f9c3","ios":"levelo://app?vid=9036d315-4723-4cdd-9f68-856fe767f9c3"},"vehicle_type_id":"4","last_reported":1753114390,"current_range_meters":8800,"station_id":"","pricing_plan_id":"cebpf4jnsgd1na2vs0mg"},{"bike_id":"f089b17b-e03d-4380-b5a0-209595a63a36","system_id":"levelo_inurba_marseille","lat":43.27493,"lon":5.42464,"is_reserved":false,"is_disabled":false,"rental_uris":{"android":"levelo://app?vid=f089b17b-e03d-4380-b5a0-209595a63a36","ios":"levelo://app?vid=f089b17b-e03d-4380-b5a0-209595a63a36"},"vehicle_type_id":"4","last_reported":1753114390,"current_range_meters":8800,"station_id":"ce4bhn92rcd13ifvqgrg","pricing_plan_id":"cebpf4jnsgd1na2vs0mg"},{"bike_id":"905dcef8-d7c2-4dd1-8de7-df6a7fef7e53","system_id":"levelo_inurba_marseille","lat":43.30138,"lon":5.39858,"is_reserved":false,"is_disabled":false,"rental_uris":{"android":"levelo://app?vid=905dcef8-d7c2-4dd1-8de7-df6a7fef7e53","ios":"levelo://app?vid=905dcef8-d7c2-4dd1-8de7-df6a7fef7e53"},"vehicle_type_id":"4","last_reported":1753114390,"current_range_meters":8400,"station_id":"ce4bh0h2rcd13ifvqd40","pricing_plan_id":"cebpf4jnsgd1na2vs0mg"},{"bike_id":"3692982d-e997-4528-8ae4-2cd8752d7f88","system_id":"levelo_inurba_marseille","lat":43.23196,"lon":5.35549,"is_reserved":false,"is_disabled":false,"rental_uris":{"android":"levelo://app?vid=3692982d-e997-4528-8ae4-2cd8752d7f88","ios":"levelo://app?vid=3692982d-e997-4528-8ae4-2cd8752d7f88"},"vehicle_type_id":"4","last_reported":1753114390,"current_range_meters":9200,"station_id":"ce4bhu92rcd13ifvqi70","pricing_plan_id":"cebpf4jnsgd1na2vs0mg"},{"bike_id":"b5bbdaba-cca1-4045-ab5f-648ae4641bcd","system_id":"levelo_inurba_marseille","lat":43.29603,"lon":5.36701,"is_reserved":false,"is_disabled":false,"rental_uris":{"android":"levelo://app?vid=b5bbdaba-cca1-4045-ab5f-648ae4641bcd","ios":"levelo://app?vid=b5bbdaba-cca1-4045-ab5f-648ae4641bcd"},"vehicle_type_id":"4","last_reported":1753114390,"current_range_meters":9200,"station_id":"ce4bgph2rcd13ifvqc2g","pricing_plan_id":"cebpf4jnsgd1na2vs0mg"},{"bike_id":"84ef117c-ed19-4180-9901-38d884946c45","system_id":"levelo_inurba_marseille","lat":43.30732,"lon":5.42448,"is_reserved":false,"is_disabled":false,"rental_uris":{"android":"levelo://app?vid=84ef117c-ed19-4180-9901-38d884946c45","ios":"levelo://app?vid=84ef117c-ed19-4180-9901-38d884946c45"},"vehicle_type_id":"4","last_reported":1753114390,"current_range_meters":9200,"station_id":"st_cvj6ca6bvosntc0bfgr0","pricing_plan_id":"cebpf4jnsgd1na2vs0mg"},{"bike_id":"5512a66a-8f78-427a-84a1-ade479b1c068","system_id":"levelo_inurba_marseille","lat":43.248,"lon":5.37455,"is_reserved":false,"is_disabled":false,"rental_uris":{"android":"levelo://app?vid=5512a66a-8f78-427a-84a1-ade479b1c068","ios":"levelo://app?vid=5512a66a-8f78-427a-84a1-ade479b1c068"},"vehicle_type_id":"4","last_reported":1753114390,"current_range_meters":9200,"station_id":"ce4bhgh2rcd13ifvqfb0","pricing_plan_id":"cebpf4jnsgd1na2vs0mg"},{"bike_id":"f1e3207b-839c-427a-aff5-8d2497af9eed","system_id":"levelo_inurba_marseille","lat":43.29071,"lon":5.37173,"is_reserved":false,"is_disabled":false,"rental_uris":{"android":"levelo://app?vid=f1e3207b-839c-427a-aff5-8d2497af9eed","ios":"levelo://app?vid=f1e3207b-839c-427a-aff5-8d2497af9eed"},"vehicle_type_id":"4","last_reported":1753114390,"current_range_meters":9200,"station_id":"ce4bh5p2rcd13ifvqe4g","pricing_plan_id":"cebpf4jnsgd1na2vs0mg"},{"bike_id":"a93dde99-7b3b-4907-828c-2b796f672160","system_id":"levelo_inurba_marseille","lat":43.28418,"lon":5.3499,"is_reserved":false,"is_disabled":false,"rental_uris":{"android":"levelo://app?vid=a93dde99-7b3b-4907-828c-2b796f672160","ios":"levelo://app?vid=a93dde99-7b3b-4907-828c-2b796f672160"},"vehicle_type_id":"4","last_reported":1753114390,"current_range_meters":9600,"station_id":"ce4bhbh2rcd13ifvqepg","pricing_plan_id":"cebpf4jnsgd1na2vs0mg"},{"bike_id":"87dcc4aa-5d9e-4b37-aea3-2591288ba518","system_id":"levelo_inurba_marseille","lat":43.28355,"lon":5.38107,"is_reserved":false,"is_disabled":false,"rental_uris":{"android":"levelo://app?vid=87dcc4aa-5d9e-4b37-aea3-2591288ba518","ios":"levelo://app?vid=87dcc4aa-5d9e-4b37-aea3-2591288ba518"},"vehicle_type_id":"4","last_reported":1753114390,"current_range_meters":9600,"station_id":"ce4bh412rcd13ifvqdr0","pricing_plan_id":"cebpf4jnsgd1na2vs0mg"},{"bike_id":"df924138-04f8-44a2-af54-adde89d335e6","system_id":"levelo_inurba_marseille","lat":43.31706,"lon":5.37749,"is_reserved":false,"is_disabled":false,"rental_uris":{"android":"levelo://app?vid=df924138-04f8-44a2-af54-adde89d335e6","ios":"levelo://app?vid=df924138-04f8-44a2-af54-adde89d335e6"},"vehicle_type_id":"4","last_reported":1753114390,"current_range_meters":9600,"station_id":"ce4bgth2rcd13ifvqch0","pricing_plan_id":"cebpf4jnsgd1na2vs0mg"},{"bike_id":"c290374e-4b54-4258-a313-216e7fdbcbcf","system_id":"levelo_inurba_marseille","lat":43.28619,"lon":5.35091,"is_reserved":false,"is_disabled":false,"rental_uris":{"android":"levelo://app?vid=c290374e-4b54-4258-a313-216e7fdbcbcf","ios":"levelo://app?vid=c290374e-4b54-4258-a313-216e7fdbcbcf"},"vehicle_type_id":"4","last_reported":1753114390,"current_range_meters":9600,"station_id":"ce4bhch2rcd13ifvqeug","pricing_plan_id":"cebpf4jnsgd1na2vs0mg"},{"bike_id":"65f38bbf-0e47-45cc-87e9-170b65c6c30c","system_id":"levelo_inurba_marseille","lat":43.26782,"lon":5.39419,"is_reserved":false,"is_disabled":false,"rental_uris":{"android":"levelo://app?vid=65f38bbf-0e47-45cc-87e9-170b65c6c30c","ios":"levelo://app?vid=65f38bbf-0e47-45cc-87e9-170b65c6c30c"},"vehicle_type_id":"4","last_reported":1753114390,"current_range_meters":9200,"station_id":"ce4bhh12rcd13ifvqfg0","pricing_plan_id":"cebpf4jnsgd1na2vs0mg"},{"bike_id":"dee6628b-f370-478a-a4db-32c84542aee7","system_id":"levelo_inurba_marseille","lat":43.33294,"lon":5.39037,"is_reserved":false,"is_disabled":false,"rental_uris":{"android":"levelo://app?vid=dee6628b-f370-478a-a4db-32c84542aee7","ios":"levelo://app?vid=dee6628b-f370-478a-a4db-32c84542aee7"},"vehicle_type_id":"4","last_reported":1753114390,"current_range_meters":9600,"station_id":"","pricing_plan_id":"cebpf4jnsgd1na2vs0mg"},{"bike_id":"37d8cb1b-1988-4390-9e4c-4eca73c82c19","system_id":"levelo_inurba_marseille","lat":43.261973,"lon":5.374509,"is_reserved":false,"is_disabled":true,"rental_uris":{"android":"levelo://app?vid=37d8cb1b-1988-4390-9e4c-4eca73c82c19","ios":"levelo://app?vid=37d8cb1b-1988-4390-9e4c-4eca73c82c19"},"vehicle_type_id":"4","last_reported":1753114390,"current_range_meters":9600,"station_id":"ce4bhgp2rcd13ifvqfc0","pricing_plan_id":"cebpf4jnsgd1na2vs0mg"},{"bike_id":"c3f268b9-bd22-423f-bfea-00e772aa12fd","system_id":"levelo_inurba_marseille","lat":43.28697,"lon":5.39984,"is_reserved":false,"is_disabled":false,"rental_uris":{"android":"levelo://app?vid=c3f268b9-bd22-423f-bfea-00e772aa12fd","ios":"levelo://app?vid=c3f268b9-bd22-423f-bfea-00e772aa12fd"},"vehicle_type_id":"4","last_reported":1753114390,"current_range_meters":9600,"station_id":"ce4bho92rcd13ifvqh3g","pricing_plan_id":"cebpf4jnsgd1na2vs0mg"},{"bike_id":"cfd7c1d9-7bcd-4971-afe4-64d706646a62","system_id":"levelo_inurba_marseille","lat":43.32389,"lon":5.36788,"is_reserved":false,"is_disabled":false,"rental_uris":{"android":"levelo://app?vid=cfd7c1d9-7bcd-4971-afe4-64d706646a62","ios":"levelo://app?vid=cfd7c1d9-7bcd-4971-afe4-64d706646a62"},"vehicle_type_id":"4","last_reported":1753114390,"current_range_meters":9600,"station_id":"","pricing_plan_id":"cebpf4jnsgd1na2vs0mg"},{"bike_id":"6f069f9e-d72c-4983-9566-b19f6d5177b6","system_id":"levelo_inurba_marseille","lat":43.31086,"lon":5.38347,"is_reserved":false,"is_disabled":false,"rental_uris":{"android":"levelo://app?vid=6f069f9e-d72c-4983-9566-b19f6d5177b6","ios":"levelo://app?vid=6f069f9e-d72c-4983-9566-b19f6d5177b6"},"vehicle_type_id":"4","last_reported":1753114390,"current_range_meters":10000,"station_id":"ce4bgv92rcd13ifvqcr0","pricing_plan_id":"cebpf4jnsgd1na2vs0mg"},{"bike_id":"696c5e5f-ee49-4cdd-b0d3-ceab6c87d298","system_id":"levelo_inurba_marseille","lat":43.32112,"lon":5.36779,"is_reserved":false,"is_disabled":false,"rental_uris":{"android":"levelo://app?vid=696c5e5f-ee49-4cdd-b0d3-ceab6c87d298","ios":"levelo://app?vid=696c5e5f-ee49-4cdd-b0d3-ceab6c87d298"},"vehicle_type_id":"4","last_reported":1753114390,"current_range_meters":10000,"station_id":"ce4bhrh2rcd13ifvqhug","pricing_plan_id":"cebpf4jnsgd1na2vs0mg"},{"bike_id":"cc3c5d3e-bd10-4827-bf25-7f7d3ae6ca52","system_id":"levelo_inurba_marseille","lat":43.24069,"lon":5.37764,"is_reserved":false,"is_disabled":false,"rental_uris":{"android":"levelo://app?vid=cc3c5d3e-bd10-4827-bf25-7f7d3ae6ca52","ios":"levelo://app?vid=cc3c5d3e-bd10-4827-bf25-7f7d3ae6ca52"},"vehicle_type_id":"4","last_reported":1753114390,"current_range_meters":10000,"station_id":"ce4bhnp2rcd13ifvqgvg","pricing_plan_id":"cebpf4jnsgd1na2vs0mg"},{"bike_id":"9c6c27ae-d075-49ae-b88e-f77aaa931fab","system_id":"levelo_inurba_marseille","lat":43.28594,"lon":5.37166,"is_reserved":false,"is_disabled":false,"rental_uris":{"android":"levelo://app?vid=9c6c27ae-d075-49ae-b88e-f77aaa931fab","ios":"levelo://app?vid=9c6c27ae-d075-49ae-b88e-f77aaa931fab"},"vehicle_type_id":"4","last_reported":1753114390,"current_range_meters":10000,"station_id":"ce4bht12rcd13ifvqi60","pricing_plan_id":"cebpf4jnsgd1na2vs0mg"},{"bike_id":"53cb4f43-b1af-4efe-9f40-e0338804f4d4","system_id":"levelo_inurba_marseille","lat":43.3129,"lon":5.39036,"is_reserved":false,"is_disabled":false,"rental_uris":{"android":"levelo://app?vid=53cb4f43-b1af-4efe-9f40-e0338804f4d4","ios":"levelo://app?vid=53cb4f43-b1af-4efe-9f40-e0338804f4d4"},"vehicle_type_id":"4","last_reported":1753114390,"current_range_meters":10800,"station_id":"","pricing_plan_id":"cebpf4jnsgd1na2vs0mg"},{"bike_id":"e73311b7-fa70-4b1e-a5d0-1df10e8c7128","system_id":"levelo_inurba_marseille","lat":43.2808,"lon":5.39668,"is_reserved":false,"is_disabled":false,"rental_uris":{"android":"levelo://app?vid=e73311b7-fa70-4b1e-a5d0-1df10e8c7128","ios":"levelo://app?vid=e73311b7-fa70-4b1e-a5d0-1df10e8c7128"},"vehicle_type_id":"4","last_reported":1753114390,"current_range_meters":10800,"station_id":"ce4bho12rcd13ifvqh2g","pricing_plan_id":"cebpf4jnsgd1na2vs0mg"},{"bike_id":"b7082957-3a9f-4d91-9a0b-08d65eafeb7f","system_id":"levelo_inurba_marseille","lat":43.25007,"lon":5.38907,"is_reserved":false,"is_disabled":true,"rental_uris":{"android":"levelo://app?vid=b7082957-3a9f-4d91-9a0b-08d65eafeb7f","ios":"levelo://app?vid=b7082957-3a9f-4d91-9a0b-08d65eafeb7f"},"vehicle_type_id":"4","last_reported":1753114390,"current_range_meters":10800,"station_id":"ce4bhgp2rcd13ifvqfd0","pricing_plan_id":"cebpf4jnsgd1na2vs0mg"},{"bike_id":"984f4597-99ca-482b-950e-03b46a08886b","system_id":"levelo_inurba_marseille","lat":43.269377,"lon":5.389266,"is_reserved":false,"is_disabled":false,"rental_uris":{"android":"levelo://app?vid=984f4597-99ca-482b-950e-03b46a08886b","ios":"levelo://app?vid=984f4597-99ca-482b-950e-03b46a08886b"},"vehicle_type_id":"4","last_reported":1753114390,"current_range_meters":10800,"station_id":"ce4bhhh2rcd13ifvqfl0","pricing_plan_id":"cebpf4jnsgd1na2vs0mg"},{"bike_id":"0cb2c80a-7457-4a4a-ad92-f0361b5225d6","system_id":"levelo_inurba_marseille","lat":43.24413,"lon":5.37413,"is_reserved":false,"is_disabled":false,"rental_uris":{"android":"levelo://app?vid=0cb2c80a-7457-4a4a-ad92-f0361b5225d6","ios":"levelo://app?vid=0cb2c80a-7457-4a4a-ad92-f0361b5225d6"},"vehicle_type_id":"4","last_reported":1753114390,"current_range_meters":10800,"station_id":"","pricing_plan_id":"cebpf4jnsgd1na2vs0mg"},{"bike_id":"4e5823ac-9313-4e20-81da-720a18c2dac7","system_id":"levelo_inurba_marseille","lat":43.321086,"lon":5.367754,"is_reserved":false,"is_disabled":false,"rental_uris":{"android":"levelo://app?vid=4e5823ac-9313-4e20-81da-720a18c2dac7","ios":"levelo://app?vid=4e5823ac-9313-4e20-81da-720a18c2dac7"},"vehicle_type_id":"4","last_reported":1753114390,"current_range_meters":10800,"station_id":"ce4bhrh2rcd13ifvqhug","pricing_plan_id":"cebpf4jnsgd1na2vs0mg"},{"bike_id":"f8feefd9-3017-4e17-8df3-eeb50c3eb5c4","system_id":"levelo_inurba_marseille","lat":43.29521,"lon":5.39037,"is_reserved":false,"is_disabled":false,"rental_uris":{"android":"levelo://app?vid=f8feefd9-3017-4e17-8df3-eeb50c3eb5c4","ios":"levelo://app?vid=f8feefd9-3017-4e17-8df3-eeb50c3eb5c4"},"vehicle_type_id":"4","last_reported":1753114390,"current_range_meters":10000,"station_id":"ce4bh3p2rcd13ifvqdp0","pricing_plan_id":"cebpf4jnsgd1na2vs0mg"},{"bike_id":"4b0ed764-4b67-4fdf-ae3b-d422e118406f","system_id":"levelo_inurba_marseille","lat":43.26195,"lon":5.3745,"is_reserved":false,"is_disabled":false,"rental_uris":{"android":"levelo://app?vid=4b0ed764-4b67-4fdf-ae3b-d422e118406f","ios":"levelo://app?vid=4b0ed764-4b67-4fdf-ae3b-d422e118406f"},"vehicle_type_id":"4","last_reported":1753114390,"current_range_meters":11200,"station_id":"ce4bhgp2rcd13ifvqfc0","pricing_plan_id":"cebpf4jnsgd1na2vs0mg"},{"bike_id":"523d528a-80ef-4c0a-986f-e24abf3cd641","system_id":"levelo_inurba_marseille","lat":43.27328,"lon":5.39089,"is_reserved":false,"is_disabled":true,"rental_uris":{"android":"levelo://app?vid=523d528a-80ef-4c0a-986f-e24abf3cd641","ios":"levelo://app?vid=523d528a-80ef-4c0a-986f-e24abf3cd641"},"vehicle_type_id":"4","last_reported":1753114390,"current_range_meters":11200,"station_id":"ce4bhgp2rcd13ifvqfe0","pricing_plan_id":"cebpf4jnsgd1na2vs0mg"},{"bike_id":"819d0834-cee1-4b2f-9b89-a76a3278c968","system_id":"levelo_inurba_marseille","lat":43.2623,"lon":5.37442,"is_reserved":false,"is_disabled":false,"rental_uris":{"android":"levelo://app?vid=819d0834-cee1-4b2f-9b89-a76a3278c968","ios":"levelo://app?vid=819d0834-cee1-4b2f-9b89-a76a3278c968"},"vehicle_type_id":"4","last_reported":1753114390,"current_range_meters":11200,"station_id":"ce4bhgp2rcd13ifvqfc0","pricing_plan_id":"cebpf4jnsgd1na2vs0mg"},{"bike_id":"829915d1-e486-4f77-a21a-1a0a65722b23","system_id":"levelo_inurba_marseille","lat":43.27073,"lon":5.42276,"is_reserved":false,"is_disabled":false,"rental_uris":{"android":"levelo://app?vid=829915d1-e486-4f77-a21a-1a0a65722b23","ios":"levelo://app?vid=829915d1-e486-4f77-a21a-1a0a65722b23"},"vehicle_type_id":"4","last_reported":1753114390,"current_range_meters":11200,"station_id":"ce4bhk92rcd13ifvqgb0","pricing_plan_id":"cebpf4jnsgd1na2vs0mg"},{"bike_id":"904c6941-2783-493f-9c8e-5cdb36506fdf","system_id":"levelo_inurba_marseille","lat":43.30144,"lon":5.38063,"is_reserved":false,"is_disabled":false,"rental_uris":{"android":"levelo://app?vid=904c6941-2783-493f-9c8e-5cdb36506fdf","ios":"levelo://app?vid=904c6941-2783-493f-9c8e-5cdb36506fdf"},"vehicle_type_id":"4","last_reported":1753114390,"current_range_meters":11600,"station_id":"ce4bgjp2rcd13ifvqbh0","pricing_plan_id":"cebpf4jnsgd1na2vs0mg"},{"bike_id":"e4f86cb4-7f62-49ce-ae1c-bfae213ed2b1","system_id":"levelo_inurba_marseille","lat":43.31764,"lon":5.39012,"is_reserved":false,"is_disabled":false,"rental_uris":{"android":"levelo://app?vid=e4f86cb4-7f62-49ce-ae1c-bfae213ed2b1","ios":"levelo://app?vid=e4f86cb4-7f62-49ce-ae1c-bfae213ed2b1"},"vehicle_type_id":"4","last_reported":1753114390,"current_range_meters":11600,"station_id":"ce4bhqp2rcd13ifvqhng","pricing_plan_id":"cebpf4jnsgd1na2vs0mg"},{"bike_id":"b6e76832-b199-4086-875c-717f2f30f739","system_id":"levelo_inurba_marseille","lat":43.24166,"lon":5.36404,"is_reserved":false,"is_disabled":false,"rental_uris":{"android":"levelo://app?vid=b6e76832-b199-4086-875c-717f2f30f739","ios":"levelo://app?vid=b6e76832-b199-4086-875c-717f2f30f739"},"vehicle_type_id":"4","last_reported":1753114390,"current_range_meters":12000,"station_id":"cpo36qri1sfpv3e86is0","pricing_plan_id":"cebpf4jnsgd1na2vs0mg"},{"bike_id":"7230cb4d-8cd2-4957-9d99-c27265ab6ce1","system_id":"levelo_inurba_marseille","lat":43.29299,"lon":5.37168,"is_reserved":false,"is_disabled":true,"rental_uris":{"android":"levelo://app?vid=7230cb4d-8cd2-4957-9d99-c27265ab6ce1","ios":"levelo://app?vid=7230cb4d-8cd2-4957-9d99-c27265ab6ce1"},"vehicle_type_id":"4","last_reported":1753114390,"current_range_meters":12000,"station_id":"","pricing_plan_id":"cebpf4jnsgd1na2vs0mg"},{"bike_id":"6c044854-6f6d-4a86-85d3-68a507343a54","system_id":"levelo_inurba_marseille","lat":43.290283,"lon":5.375707,"is_reserved":false,"is_disabled":true,"rental_uris":{"android":"levelo://app?vid=6c044854-6f6d-4a86-85d3-68a507343a54","ios":"levelo://app?vid=6c044854-6f6d-4a86-85d3-68a507343a54"},"vehicle_type_id":"4","last_reported":1753114390,"current_range_meters":12000,"station_id":"ce4bh692rcd13ifvqe90","pricing_plan_id":"cebpf4jnsgd1na2vs0mg"},{"bike_id":"c3788289-6002-4639-85a6-b1b1c4ba6eea","system_id":"levelo_inurba_marseille","lat":43.29853,"lon":5.36288,"is_reserved":false,"is_disabled":false,"rental_uris":{"android":"levelo://app?vid=c3788289-6002-4639-85a6-b1b1c4ba6eea","ios":"levelo://app?vid=c3788289-6002-4639-85a6-b1b1c4ba6eea"},"vehicle_type_id":"4","last_reported":1753114390,"current_range_meters":12000,"station_id":"ce4bgpp2rcd13ifvqc3g","pricing_plan_id":"cebpf4jnsgd1na2vs0mg"},{"bike_id":"5a42e90a-94ef-4a1b-b43d-3c279f1b53e1","system_id":"levelo_inurba_marseille","lat":43.23178,"lon":5.35549,"is_reserved":false,"is_disabled":false,"rental_uris":{"android":"levelo://app?vid=5a42e90a-94ef-4a1b-b43d-3c279f1b53e1","ios":"levelo://app?vid=5a42e90a-94ef-4a1b-b43d-3c279f1b53e1"},"vehicle_type_id":"4","last_reported":1753114390,"current_range_meters":12000,"station_id":"ce4bhu92rcd13ifvqi70","pricing_plan_id":"cebpf4jnsgd1na2vs0mg"},{"bike_id":"0848fc35-7125-4b4a-ba24-cb24d6f1e4eb","system_id":"levelo_inurba_marseille","lat":43.27172,"lon":5.40991,"is_reserved":false,"is_disabled":false,"rental_uris":{"android":"levelo://app?vid=0848fc35-7125-4b4a-ba24-cb24d6f1e4eb","ios":"levelo://app?vid=0848fc35-7125-4b4a-ba24-cb24d6f1e4eb"},"vehicle_type_id":"4","last_reported":1753114390,"current_range_meters":12000,"station_id":"ce4bhl12rcd13ifvqgf0","pricing_plan_id":"cebpf4jnsgd1na2vs0mg"},{"bike_id":"0a6d914e-69eb-4600-9b4d-7ac51106a70e","system_id":"levelo_inurba_marseille","lat":43.26178,"lon":5.37441,"is_reserved":false,"is_disabled":false,"rental_uris":{"android":"levelo://app?vid=0a6d914e-69eb-4600-9b4d-7ac51106a70e","ios":"levelo://app?vid=0a6d914e-69eb-4600-9b4d-7ac51106a70e"},"vehicle_type_id":"4","last_reported":1753114390,"current_range_meters":12400,"station_id":"ce4bhgp2rcd13ifvqfc0","pricing_plan_id":"cebpf4jnsgd1na2vs0mg"},{"bike_id":"a82b765a-d946-447e-afbc-d057316c5068","system_id":"levelo_inurba_marseille","lat":43.29988,"lon":5.38509,"is_reserved":false,"is_disabled":false,"rental_uris":{"android":"levelo://app?vid=a82b765a-d946-447e-afbc-d057316c5068","ios":"levelo://app?vid=a82b765a-d946-447e-afbc-d057316c5068"},"vehicle_type_id":"4","last_reported":1753114390,"current_range_meters":12400,"station_id":"ce4bgj92rcd13ifvqbd0","pricing_plan_id":"cebpf4jnsgd1na2vs0mg"},{"bike_id":"0921f7df-2f57-4078-aed8-d9e6f4afda21","system_id":"levelo_inurba_marseille","lat":43.24171,"lon":5.36398,"is_reserved":false,"is_disabled":false,"rental_uris":{"android":"levelo://app?vid=0921f7df-2f57-4078-aed8-d9e6f4afda21","ios":"levelo://app?vid=0921f7df-2f57-4078-aed8-d9e6f4afda21"},"vehicle_type_id":"4","last_reported":1753114390,"current_range_meters":12400,"station_id":"cpo36qri1sfpv3e86is0","pricing_plan_id":"cebpf4jnsgd1na2vs0mg"},{"bike_id":"ea6e057f-884c-4a84-8f85-271b0b3119ff","system_id":"levelo_inurba_marseille","lat":43.265564,"lon":5.372857,"is_reserved":false,"is_disabled":false,"rental_uris":{"android":"levelo://app?vid=ea6e057f-884c-4a84-8f85-271b0b3119ff","ios":"levelo://app?vid=ea6e057f-884c-4a84-8f85-271b0b3119ff"},"vehicle_type_id":"4","last_reported":1753114390,"current_range_meters":12400,"station_id":"ce4bhg12rcd13ifvqf70","pricing_plan_id":"cebpf4jnsgd1na2vs0mg"},{"bike_id":"7f4967d0-1ab9-4d58-a79f-394fef3c4842","system_id":"levelo_inurba_marseille","lat":43.28087,"lon":5.39653,"is_reserved":false,"is_disabled":false,"rental_uris":{"android":"levelo://app?vid=7f4967d0-1ab9-4d58-a79f-394fef3c4842","ios":"levelo://app?vid=7f4967d0-1ab9-4d58-a79f-394fef3c4842"},"vehicle_type_id":"4","last_reported":1753114390,"current_range_meters":12400,"station_id":"ce4bho12rcd13ifvqh2g","pricing_plan_id":"cebpf4jnsgd1na2vs0mg"},{"bike_id":"a978752e-fbd0-41f7-b543-335940a9607f","system_id":"levelo_inurba_marseille","lat":43.3025,"lon":5.40076,"is_reserved":false,"is_disabled":false,"rental_uris":{"android":"levelo://app?vid=a978752e-fbd0-41f7-b543-335940a9607f","ios":"levelo://app?vid=a978752e-fbd0-41f7-b543-335940a9607f"},"vehicle_type_id":"4","last_reported":1753114390,"current_range_meters":12000,"station_id":"ce4bgvh2rcd13ifvqcs0","pricing_plan_id":"cebpf4jnsgd1na2vs0mg"},{"bike_id":"8ec3987c-4e5e-4f67-aba7-96e36709e826","system_id":"levelo_inurba_marseille","lat":43.32735,"lon":5.40931,"is_reserved":false,"is_disabled":false,"rental_uris":{"android":"levelo://app?vid=8ec3987c-4e5e-4f67-aba7-96e36709e826","ios":"levelo://app?vid=8ec3987c-4e5e-4f67-aba7-96e36709e826"},"vehicle_type_id":"4","last_reported":1753114390,"current_range_meters":12400,"station_id":"","pricing_plan_id":"cebpf4jnsgd1na2vs0mg"},{"bike_id":"6e24011c-d8c1-48f3-beed-7748a765c86f","system_id":"levelo_inurba_marseille","lat":43.29528,"lon":5.3903,"is_reserved":false,"is_disabled":false,"rental_uris":{"android":"levelo://app?vid=6e24011c-d8c1-48f3-beed-7748a765c86f","ios":"levelo://app?vid=6e24011c-d8c1-48f3-beed-7748a765c86f"},"vehicle_type_id":"4","last_reported":1753114390,"current_range_meters":12400,"station_id":"ce4bh3p2rcd13ifvqdp0","pricing_plan_id":"cebpf4jnsgd1na2vs0mg"},{"bike_id":"a044c2d6-82df-44e2-a7bb-4de01d9c4ef5","system_id":"levelo_inurba_marseille","lat":43.303594,"lon":5.373835,"is_reserved":false,"is_disabled":false,"rental_uris":{"android":"levelo://app?vid=a044c2d6-82df-44e2-a7bb-4de01d9c4ef5","ios":"levelo://app?vid=a044c2d6-82df-44e2-a7bb-4de01d9c4ef5"},"vehicle_type_id":"4","last_reported":1753114390,"current_range_meters":12800,"station_id":"ce4bhr12rcd13ifvqhqg","pricing_plan_id":"cebpf4jnsgd1na2vs0mg"},{"bike_id":"07481afa-6635-4dc1-8a31-8a97247e4afb","system_id":"levelo_inurba_marseille","lat":43.21208,"lon":5.35063,"is_reserved":false,"is_disabled":false,"rental_uris":{"android":"levelo://app?vid=07481afa-6635-4dc1-8a31-8a97247e4afb","ios":"levelo://app?vid=07481afa-6635-4dc1-8a31-8a97247e4afb"},"vehicle_type_id":"4","last_reported":1753114390,"current_range_meters":12800,"station_id":"st_cvj6sg6p6f1abm77japg","pricing_plan_id":"cebpf4jnsgd1na2vs0mg"},{"bike_id":"b355686e-9711-4834-88a1-57b23f58ae4b","system_id":"levelo_inurba_marseille","lat":43.23203,"lon":5.35555,"is_reserved":false,"is_disabled":false,"rental_uris":{"android":"levelo://app?vid=b355686e-9711-4834-88a1-57b23f58ae4b","ios":"levelo://app?vid=b355686e-9711-4834-88a1-57b23f58ae4b"},"vehicle_type_id":"4","last_reported":1753114390,"current_range_meters":12800,"station_id":"ce4bhu92rcd13ifvqi70","pricing_plan_id":"cebpf4jnsgd1na2vs0mg"},{"bike_id":"d2a9ef2a-3ecf-454e-ac8d-c81b3a196753","system_id":"levelo_inurba_marseille","lat":43.28623,"lon":5.3822,"is_reserved":false,"is_disabled":false,"rental_uris":{"android":"levelo://app?vid=d2a9ef2a-3ecf-454e-ac8d-c81b3a196753","ios":"levelo://app?vid=d2a9ef2a-3ecf-454e-ac8d-c81b3a196753"},"vehicle_type_id":"4","last_reported":1753114390,"current_range_meters":12800,"station_id":"","pricing_plan_id":"cebpf4jnsgd1na2vs0mg"},{"bike_id":"1779b213-4182-4f71-859f-042636a5d049","system_id":"levelo_inurba_marseille","lat":43.304248,"lon":5.388925,"is_reserved":false,"is_disabled":false,"rental_uris":{"android":"levelo://app?vid=1779b213-4182-4f71-859f-042636a5d049","ios":"levelo://app?vid=1779b213-4182-4f71-859f-042636a5d049"},"vehicle_type_id":"4","last_reported":1753114390,"current_range_meters":13600,"station_id":"ce4bgk12rcd13ifvqbi0","pricing_plan_id":"cebpf4jnsgd1na2vs0mg"},{"bike_id":"c695f162-6b42-40d7-8780-ed224e75f8e8","system_id":"levelo_inurba_marseille","lat":43.29696,"lon":5.36833,"is_reserved":false,"is_disabled":false,"rental_uris":{"android":"levelo://app?vid=c695f162-6b42-40d7-8780-ed224e75f8e8","ios":"levelo://app?vid=c695f162-6b42-40d7-8780-ed224e75f8e8"},"vehicle_type_id":"4","last_reported":1753114390,"current_range_meters":13600,"station_id":"","pricing_plan_id":"cebpf4jnsgd1na2vs0mg"},{"bike_id":"bd0b5b18-61a3-442d-abe3-0e8aa5eec80b","system_id":"levelo_inurba_marseille","lat":43.26558,"lon":5.37284,"is_reserved":false,"is_disabled":false,"rental_uris":{"android":"levelo://app?vid=bd0b5b18-61a3-442d-abe3-0e8aa5eec80b","ios":"levelo://app?vid=bd0b5b18-61a3-442d-abe3-0e8aa5eec80b"},"vehicle_type_id":"4","last_reported":1753114390,"current_range_meters":13600,"station_id":"ce4bhg12rcd13ifvqf70","pricing_plan_id":"cebpf4jnsgd1na2vs0mg"},{"bike_id":"25be1609-4f98-4087-a26e-9a887d8d37a0","system_id":"levelo_inurba_marseille","lat":43.30929,"lon":5.40135,"is_reserved":false,"is_disabled":false,"rental_uris":{"android":"levelo://app?vid=25be1609-4f98-4087-a26e-9a887d8d37a0","ios":"levelo://app?vid=25be1609-4f98-4087-a26e-9a887d8d37a0"},"vehicle_type_id":"4","last_reported":1753114390,"current_range_meters":13600,"station_id":"ce4bgvp2rcd13ifvqct0","pricing_plan_id":"cebpf4jnsgd1na2vs0mg"},{"bike_id":"ac49738a-4d4f-43d3-9c67-46980e61ae95","system_id":"levelo_inurba_marseille","lat":43.31726,"lon":5.37685,"is_reserved":false,"is_disabled":false,"rental_uris":{"android":"levelo://app?vid=ac49738a-4d4f-43d3-9c67-46980e61ae95","ios":"levelo://app?vid=ac49738a-4d4f-43d3-9c67-46980e61ae95"},"vehicle_type_id":"4","last_reported":1753114390,"current_range_meters":13600,"station_id":"ce4bgth2rcd13ifvqch0","pricing_plan_id":"cebpf4jnsgd1na2vs0mg"},{"bike_id":"328e472f-5ae1-4ad9-833e-8bfd84d0df0a","system_id":"levelo_inurba_marseille","lat":43.28003,"lon":5.39963,"is_reserved":false,"is_disabled":false,"rental_uris":{"android":"levelo://app?vid=328e472f-5ae1-4ad9-833e-8bfd84d0df0a","ios":"levelo://app?vid=328e472f-5ae1-4ad9-833e-8bfd84d0df0a"},"vehicle_type_id":"4","last_reported":1753114390,"current_range_meters":14000,"station_id":"ce4bho92rcd13ifvqh4g","pricing_plan_id":"cebpf4jnsgd1na2vs0mg"},{"bike_id":"86d7545e-ab6a-46db-94b2-246c282cb529","system_id":"levelo_inurba_marseille","lat":43.2862,"lon":5.35108,"is_reserved":false,"is_disabled":false,"rental_uris":{"android":"levelo://app?vid=86d7545e-ab6a-46db-94b2-246c282cb529","ios":"levelo://app?vid=86d7545e-ab6a-46db-94b2-246c282cb529"},"vehicle_type_id":"4","last_reported":1753114390,"current_range_meters":14000,"station_id":"ce4bhch2rcd13ifvqeug","pricing_plan_id":"cebpf4jnsgd1na2vs0mg"},{"bike_id":"b71dea5e-bd1c-49ff-ab3c-378c0b53d431","system_id":"levelo_inurba_marseille","lat":43.29977,"lon":5.38491,"is_reserved":false,"is_disabled":false,"rental_uris":{"android":"levelo://app?vid=b71dea5e-bd1c-49ff-ab3c-378c0b53d431","ios":"levelo://app?vid=b71dea5e-bd1c-49ff-ab3c-378c0b53d431"},"vehicle_type_id":"4","last_reported":1753114390,"current_range_meters":14000,"station_id":"ce4bgj92rcd13ifvqbd0","pricing_plan_id":"cebpf4jnsgd1na2vs0mg"},{"bike_id":"9c838529-2f8d-4cf1-ba58-27067ac84219","system_id":"levelo_inurba_marseille","lat":43.24172,"lon":5.36399,"is_reserved":false,"is_disabled":false,"rental_uris":{"android":"levelo://app?vid=9c838529-2f8d-4cf1-ba58-27067ac84219","ios":"levelo://app?vid=9c838529-2f8d-4cf1-ba58-27067ac84219"},"vehicle_type_id":"4","last_reported":1753114390,"current_range_meters":14000,"station_id":"cpo36qri1sfpv3e86is0","pricing_plan_id":"cebpf4jnsgd1na2vs0mg"},{"bike_id":"b3399043-b84f-4ebe-8244-780c67e8a71e","system_id":"levelo_inurba_marseille","lat":43.30306,"lon":5.3921,"is_reserved":false,"is_disabled":false,"rental_uris":{"android":"levelo://app?vid=b3399043-b84f-4ebe-8244-780c67e8a71e","ios":"levelo://app?vid=b3399043-b84f-4ebe-8244-780c67e8a71e"},"vehicle_type_id":"4","last_reported":1753114390,"current_range_meters":13600,"station_id":"ce4bgkh2rcd13ifvqbk0","pricing_plan_id":"cebpf4jnsgd1na2vs0mg"},{"bike_id":"2e53d9f8-1df5-48f5-b763-5f8396a6577a","system_id":"levelo_inurba_marseille","lat":43.23196,"lon":5.35553,"is_reserved":false,"is_disabled":false,"rental_uris":{"android":"levelo://app?vid=2e53d9f8-1df5-48f5-b763-5f8396a6577a","ios":"levelo://app?vid=2e53d9f8-1df5-48f5-b763-5f8396a6577a"},"vehicle_type_id":"4","last_reported":1753114390,"current_range_meters":14000,"station_id":"ce4bhu92rcd13ifvqi70","pricing_plan_id":"cebpf4jnsgd1na2vs0mg"},{"bike_id":"4240121c-06ce-4d07-a9dd-320228061375","system_id":"levelo_inurba_marseille","lat":43.29968,"lon":5.38496,"is_reserved":false,"is_disabled":false,"rental_uris":{"android":"levelo://app?vid=4240121c-06ce-4d07-a9dd-320228061375","ios":"levelo://app?vid=4240121c-06ce-4d07-a9dd-320228061375"},"vehicle_type_id":"4","last_reported":1753114390,"current_range_meters":14400,"station_id":"ce4bgj92rcd13ifvqbd0","pricing_plan_id":"cebpf4jnsgd1na2vs0mg"},{"bike_id":"589ddd6f-6128-4a8b-842e-ddbb09710a2f","system_id":"levelo_inurba_marseille","lat":43.28416,"lon":5.34985,"is_reserved":false,"is_disabled":false,"rental_uris":{"android":"levelo://app?vid=589ddd6f-6128-4a8b-842e-ddbb09710a2f","ios":"levelo://app?vid=589ddd6f-6128-4a8b-842e-ddbb09710a2f"},"vehicle_type_id":"4","last_reported":1753114390,"current_range_meters":14400,"station_id":"ce4bhbh2rcd13ifvqepg","pricing_plan_id":"cebpf4jnsgd1na2vs0mg"},{"bike_id":"1dcd8307-b819-42c1-994f-08b191553ef9","system_id":"levelo_inurba_marseille","lat":43.29975,"lon":5.38498,"is_reserved":false,"is_disabled":false,"rental_uris":{"android":"levelo://app?vid=1dcd8307-b819-42c1-994f-08b191553ef9","ios":"levelo://app?vid=1dcd8307-b819-42c1-994f-08b191553ef9"},"vehicle_type_id":"4","last_reported":1753114390,"current_range_meters":14400,"station_id":"ce4bgj92rcd13ifvqbd0","pricing_plan_id":"cebpf4jnsgd1na2vs0mg"},{"bike_id":"3117258b-a0b2-4038-960e-7505313a6719","system_id":"levelo_inurba_marseille","lat":43.321082,"lon":5.367761,"is_reserved":false,"is_disabled":false,"rental_uris":{"android":"levelo://app?vid=3117258b-a0b2-4038-960e-7505313a6719","ios":"levelo://app?vid=3117258b-a0b2-4038-960e-7505313a6719"},"vehicle_type_id":"4","last_reported":1753114390,"current_range_meters":14400,"station_id":"ce4bhrh2rcd13ifvqhug","pricing_plan_id":"cebpf4jnsgd1na2vs0mg"},{"bike_id":"42c6daca-a04f-4385-b335-d79919ebfbf3","system_id":"levelo_inurba_marseille","lat":43.3248,"lon":5.36573,"is_reserved":false,"is_disabled":false,"rental_uris":{"android":"levelo://app?vid=42c6daca-a04f-4385-b335-d79919ebfbf3","ios":"levelo://app?vid=42c6daca-a04f-4385-b335-d79919ebfbf3"},"vehicle_type_id":"4","last_reported":1753114390,"current_range_meters":14400,"station_id":"ce4bhs12rcd13ifvqhvg","pricing_plan_id":"cebpf4jnsgd1na2vs0mg"},{"bike_id":"3f0eaf6c-4f85-489f-9a36-f2e075c8e18f","system_id":"levelo_inurba_marseille","lat":43.29266,"lon":5.38446,"is_reserved":false,"is_disabled":false,"rental_uris":{"android":"levelo://app?vid=3f0eaf6c-4f85-489f-9a36-f2e075c8e18f","ios":"levelo://app?vid=3f0eaf6c-4f85-489f-9a36-f2e075c8e18f"},"vehicle_type_id":"4","last_reported":1753114390,"current_range_meters":14400,"station_id":"ce4bh692rcd13ifvqea0","pricing_plan_id":"cebpf4jnsgd1na2vs0mg"},{"bike_id":"63d8e479-8f5b-426b-9459-4313eb9b5dd3","system_id":"levelo_inurba_marseille","lat":43.28482,"lon":5.38422,"is_reserved":false,"is_disabled":false,"rental_uris":{"android":"levelo://app?vid=63d8e479-8f5b-426b-9459-4313eb9b5dd3","ios":"levelo://app?vid=63d8e479-8f5b-426b-9459-4313eb9b5dd3"},"vehicle_type_id":"4","last_reported":1753114390,"current_range_meters":14400,"station_id":"ce4bh512rcd13ifvqe3g","pricing_plan_id":"cebpf4jnsgd1na2vs0mg"},{"bike_id":"dd898239-d71c-495a-96fa-e4da87b80bdf","system_id":"levelo_inurba_marseille","lat":43.280365,"lon":5.369376,"is_reserved":false,"is_disabled":false,"rental_uris":{"android":"levelo://app?vid=dd898239-d71c-495a-96fa-e4da87b80bdf","ios":"levelo://app?vid=dd898239-d71c-495a-96fa-e4da87b80bdf"},"vehicle_type_id":"4","last_reported":1753114390,"current_range_meters":14800,"station_id":"ce4bha12rcd13ifvqef0","pricing_plan_id":"cebpf4jnsgd1na2vs0mg"},{"bike_id":"f9e31561-8459-4210-aab8-aa4437a8b81e","system_id":"levelo_inurba_marseille","lat":43.27209,"lon":5.39171,"is_reserved":false,"is_disabled":true,"rental_uris":{"android":"levelo://app?vid=f9e31561-8459-4210-aab8-aa4437a8b81e","ios":"levelo://app?vid=f9e31561-8459-4210-aab8-aa4437a8b81e"},"vehicle_type_id":"4","last_reported":1753114390,"current_range_meters":14400,"station_id":"ce4bhhp2rcd13ifvqfm0","pricing_plan_id":"cebpf4jnsgd1na2vs0mg"},{"bike_id":"7a5ad9d0-7886-4cdc-bb2a-a0fdf4e2317b","system_id":"levelo_inurba_marseille","lat":43.31361,"lon":5.38485,"is_reserved":false,"is_disabled":false,"rental_uris":{"android":"levelo://app?vid=7a5ad9d0-7886-4cdc-bb2a-a0fdf4e2317b","ios":"levelo://app?vid=7a5ad9d0-7886-4cdc-bb2a-a0fdf4e2317b"},"vehicle_type_id":"4","last_reported":1753114390,"current_range_meters":14400,"station_id":"ce4bgt92rcd13ifvqcf0","pricing_plan_id":"cebpf4jnsgd1na2vs0mg"},{"bike_id":"54dcdf59-30b3-4cc3-a478-74ff7fe5ab40","system_id":"levelo_inurba_marseille","lat":43.301342,"lon":5.398634,"is_reserved":false,"is_disabled":false,"rental_uris":{"android":"levelo://app?vid=54dcdf59-30b3-4cc3-a478-74ff7fe5ab40","ios":"levelo://app?vid=54dcdf59-30b3-4cc3-a478-74ff7fe5ab40"},"vehicle_type_id":"4","last_reported":1753114390,"current_range_meters":14800,"station_id":"ce4bh112rcd13ifvqda0","pricing_plan_id":"cebpf4jnsgd1na2vs0mg"},{"bike_id":"7be341c9-d7ec-41b6-84d0-af58229bc7ae","system_id":"levelo_inurba_marseille","lat":43.28373,"lon":5.3863,"is_reserved":false,"is_disabled":false,"rental_uris":{"android":"levelo://app?vid=7be341c9-d7ec-41b6-84d0-af58229bc7ae","ios":"levelo://app?vid=7be341c9-d7ec-41b6-84d0-af58229bc7ae"},"vehicle_type_id":"4","last_reported":1753114390,"current_range_meters":14400,"station_id":"ce4bh492rcd13ifvqdvg","pricing_plan_id":"cebpf4jnsgd1na2vs0mg"},{"bike_id":"96e48d28-168f-4543-9328-a4bf44e820ec","system_id":"levelo_inurba_marseille","lat":43.2622,"lon":5.37437,"is_reserved":false,"is_disabled":false,"rental_uris":{"android":"levelo://app?vid=96e48d28-168f-4543-9328-a4bf44e820ec","ios":"levelo://app?vid=96e48d28-168f-4543-9328-a4bf44e820ec"},"vehicle_type_id":"4","last_reported":1753114390,"current_range_meters":14800,"station_id":"ce4bhgp2rcd13ifvqfc0","pricing_plan_id":"cebpf4jnsgd1na2vs0mg"},{"bike_id":"042a6648-454f-4276-89ff-c47222f36252","system_id":"levelo_inurba_marseille","lat":43.24807,"lon":5.37458,"is_reserved":false,"is_disabled":false,"rental_uris":{"android":"levelo://app?vid=042a6648-454f-4276-89ff-c47222f36252","ios":"levelo://app?vid=042a6648-454f-4276-89ff-c47222f36252"},"vehicle_type_id":"4","last_reported":1753114390,"current_range_meters":15200,"station_id":"ce4bhgh2rcd13ifvqfb0","pricing_plan_id":"cebpf4jnsgd1na2vs0mg"},{"bike_id":"c4ddf749-008b-4a14-af16-f3a13a431402","system_id":"levelo_inurba_marseille","lat":43.21196,"lon":5.35085,"is_reserved":false,"is_disabled":false,"rental_uris":{"android":"levelo://app?vid=c4ddf749-008b-4a14-af16-f3a13a431402","ios":"levelo://app?vid=c4ddf749-008b-4a14-af16-f3a13a431402"},"vehicle_type_id":"4","last_reported":1753114390,"current_range_meters":15200,"station_id":"st_cvj6sg6p6f1abm77japg","pricing_plan_id":"cebpf4jnsgd1na2vs0mg"},{"bike_id":"e3f6b2d2-340a-4788-907a-71b4672509f1","system_id":"levelo_inurba_marseille","lat":43.29517,"lon":5.39037,"is_reserved":false,"is_disabled":false,"rental_uris":{"android":"levelo://app?vid=e3f6b2d2-340a-4788-907a-71b4672509f1","ios":"levelo://app?vid=e3f6b2d2-340a-4788-907a-71b4672509f1"},"vehicle_type_id":"4","last_reported":1753114390,"current_range_meters":15200,"station_id":"ce4bh3p2rcd13ifvqdp0","pricing_plan_id":"cebpf4jnsgd1na2vs0mg"},{"bike_id":"545d99d7-6f42-40ce-b244-1c2376ed3ebf","system_id":"levelo_inurba_marseille","lat":43.28421,"lon":5.34991,"is_reserved":false,"is_disabled":false,"rental_uris":{"android":"levelo://app?vid=545d99d7-6f42-40ce-b244-1c2376ed3ebf","ios":"levelo://app?vid=545d99d7-6f42-40ce-b244-1c2376ed3ebf"},"vehicle_type_id":"4","last_reported":1753114390,"current_range_meters":15200,"station_id":"ce4bhbh2rcd13ifvqepg","pricing_plan_id":"cebpf4jnsgd1na2vs0mg"},{"bike_id":"2473c8ec-4ab7-4039-b086-fa3edb444f6d","system_id":"levelo_inurba_marseille","lat":43.2978,"lon":5.37107,"is_reserved":false,"is_disabled":false,"rental_uris":{"android":"levelo://app?vid=2473c8ec-4ab7-4039-b086-fa3edb444f6d","ios":"levelo://app?vid=2473c8ec-4ab7-4039-b086-fa3edb444f6d"},"vehicle_type_id":"4","last_reported":1753114390,"current_range_meters":15200,"station_id":"ce4bgop2rcd13ifvqc1g","pricing_plan_id":"cebpf4jnsgd1na2vs0mg"},{"bike_id":"8002c71a-7809-4815-a9bb-c120cc9e3fbd","system_id":"levelo_inurba_marseille","lat":43.30378,"lon":5.4249,"is_reserved":false,"is_disabled":false,"rental_uris":{"android":"levelo://app?vid=8002c71a-7809-4815-a9bb-c120cc9e3fbd","ios":"levelo://app?vid=8002c71a-7809-4815-a9bb-c120cc9e3fbd"},"vehicle_type_id":"4","last_reported":1753114390,"current_range_meters":15200,"station_id":"ce4bhoh2rcd13ifvqh6g","pricing_plan_id":"cebpf4jnsgd1na2vs0mg"},{"bike_id":"1c22819b-ef69-41c3-af80-068c7a58af48","system_id":"levelo_inurba_marseille","lat":43.32114,"lon":5.3676,"is_reserved":false,"is_disabled":false,"rental_uris":{"android":"levelo://app?vid=1c22819b-ef69-41c3-af80-068c7a58af48","ios":"levelo://app?vid=1c22819b-ef69-41c3-af80-068c7a58af48"},"vehicle_type_id":"4","last_reported":1753114390,"current_range_meters":15200,"station_id":"ce4bhrh2rcd13ifvqhug","pricing_plan_id":"cebpf4jnsgd1na2vs0mg"},{"bike_id":"0ae21465-771a-4cbc-ad0d-afdf088f5d31","system_id":"levelo_inurba_marseille","lat":43.29695,"lon":5.3728,"is_reserved":false,"is_disabled":false,"rental_uris":{"android":"levelo://app?vid=0ae21465-771a-4cbc-ad0d-afdf088f5d31","ios":"levelo://app?vid=0ae21465-771a-4cbc-ad0d-afdf088f5d31"},"vehicle_type_id":"4","last_reported":1753114390,"current_range_meters":15200,"station_id":"ce4bgk12rcd13ifvqbj0","pricing_plan_id":"cebpf4jnsgd1na2vs0mg"},{"bike_id":"f4f3c5e6-6131-4e39-92ce-711087c354c8","system_id":"levelo_inurba_marseille","lat":43.26555,"lon":5.37286,"is_reserved":false,"is_disabled":false,"rental_uris":{"android":"levelo://app?vid=f4f3c5e6-6131-4e39-92ce-711087c354c8","ios":"levelo://app?vid=f4f3c5e6-6131-4e39-92ce-711087c354c8"},"vehicle_type_id":"4","last_reported":1753114390,"current_range_meters":16000,"station_id":"ce4bhg12rcd13ifvqf70","pricing_plan_id":"cebpf4jnsgd1na2vs0mg"},{"bike_id":"37eb163c-27b6-4f21-8e81-022abe2385c0","system_id":"levelo_inurba_marseille","lat":43.28411,"lon":5.34987,"is_reserved":false,"is_disabled":false,"rental_uris":{"android":"levelo://app?vid=37eb163c-27b6-4f21-8e81-022abe2385c0","ios":"levelo://app?vid=37eb163c-27b6-4f21-8e81-022abe2385c0"},"vehicle_type_id":"4","last_reported":1753114390,"current_range_meters":16000,"station_id":"ce4bhbh2rcd13ifvqepg","pricing_plan_id":"cebpf4jnsgd1na2vs0mg"},{"bike_id":"50d16da1-39af-48c8-9080-8fc1a2184959","system_id":"levelo_inurba_marseille","lat":43.21191,"lon":5.35065,"is_reserved":false,"is_disabled":false,"rental_uris":{"android":"levelo://app?vid=50d16da1-39af-48c8-9080-8fc1a2184959","ios":"levelo://app?vid=50d16da1-39af-48c8-9080-8fc1a2184959"},"vehicle_type_id":"4","last_reported":1753114390,"current_range_meters":16000,"station_id":"st_cvj6sg6p6f1abm77japg","pricing_plan_id":"cebpf4jnsgd1na2vs0mg"},{"bike_id":"50de6931-7629-459f-b697-24a808186239","system_id":"levelo_inurba_marseille","lat":43.24401,"lon":5.37062,"is_reserved":false,"is_disabled":false,"rental_uris":{"android":"levelo://app?vid=50de6931-7629-459f-b697-24a808186239","ios":"levelo://app?vid=50de6931-7629-459f-b697-24a808186239"},"vehicle_type_id":"4","last_reported":1753114390,"current_range_meters":16000,"station_id":"ce4bhhh2rcd13ifvqfk0","pricing_plan_id":"cebpf4jnsgd1na2vs0mg"},{"bike_id":"85b008dd-0f9f-4205-aa28-4f549082c3e6","system_id":"levelo_inurba_marseille","lat":43.21196,"lon":5.35078,"is_reserved":false,"is_disabled":false,"rental_uris":{"android":"levelo://app?vid=85b008dd-0f9f-4205-aa28-4f549082c3e6","ios":"levelo://app?vid=85b008dd-0f9f-4205-aa28-4f549082c3e6"},"vehicle_type_id":"4","last_reported":1753114390,"current_range_meters":16400,"station_id":"st_cvj6sg6p6f1abm77japg","pricing_plan_id":"cebpf4jnsgd1na2vs0mg"},{"bike_id":"68ad25bf-3ce4-4219-aae6-b4b4ca3df214","system_id":"levelo_inurba_marseille","lat":43.22495,"lon":5.34784,"is_reserved":false,"is_disabled":false,"rental_uris":{"android":"levelo://app?vid=68ad25bf-3ce4-4219-aae6-b4b4ca3df214","ios":"levelo://app?vid=68ad25bf-3ce4-4219-aae6-b4b4ca3df214"},"vehicle_type_id":"4","last_reported":1753114390,"current_range_meters":16400,"station_id":"st_cvj5dfep6f1abm77gieg","pricing_plan_id":"cebpf4jnsgd1na2vs0mg"},{"bike_id":"6940e707-2866-429c-af31-7f2bd9c2bc86","system_id":"levelo_inurba_marseille","lat":43.24164,"lon":5.364,"is_reserved":false,"is_disabled":false,"rental_uris":{"android":"levelo://app?vid=6940e707-2866-429c-af31-7f2bd9c2bc86","ios":"levelo://app?vid=6940e707-2866-429c-af31-7f2bd9c2bc86"},"vehicle_type_id":"4","last_reported":1753114390,"current_range_meters":16400,"station_id":"cpo36qri1sfpv3e86is0","pricing_plan_id":"cebpf4jnsgd1na2vs0mg"},{"bike_id":"3cfd67ec-31d9-4d85-abd9-cbb1876d3c75","system_id":"levelo_inurba_marseille","lat":43.29372,"lon":5.37827,"is_reserved":false,"is_disabled":false,"rental_uris":{"android":"levelo://app?vid=3cfd67ec-31d9-4d85-abd9-cbb1876d3c75","ios":"levelo://app?vid=3cfd67ec-31d9-4d85-abd9-cbb1876d3c75"},"vehicle_type_id":"4","last_reported":1753114390,"current_range_meters":16000,"station_id":"ce4bgjh2rcd13ifvqbf0","pricing_plan_id":"cebpf4jnsgd1na2vs0mg"},{"bike_id":"ba2b3a99-8668-4f5d-bab3-0079c47bd454","system_id":"levelo_inurba_marseille","lat":43.32546,"lon":5.41453,"is_reserved":false,"is_disabled":true,"rental_uris":{"android":"levelo://app?vid=ba2b3a99-8668-4f5d-bab3-0079c47bd454","ios":"levelo://app?vid=ba2b3a99-8668-4f5d-bab3-0079c47bd454"},"vehicle_type_id":"4","last_reported":1753114390,"current_range_meters":16400,"station_id":"ce4bhq12rcd13ifvqhhg","pricing_plan_id":"cebpf4jnsgd1na2vs0mg"},{"bike_id":"e57606de-d549-4a50-8b75-91216215a181","system_id":"levelo_inurba_marseille","lat":43.274932,"lon":5.424476,"is_reserved":false,"is_disabled":true,"rental_uris":{"android":"levelo://app?vid=e57606de-d549-4a50-8b75-91216215a181","ios":"levelo://app?vid=e57606de-d549-4a50-8b75-91216215a181"},"vehicle_type_id":"4","last_reported":1753114390,"current_range_meters":16400,"station_id":"ce4bhn92rcd13ifvqgrg","pricing_plan_id":"cebpf4jnsgd1na2vs0mg"},{"bike_id":"9180d689-518c-4051-bf85-515becc255ec","system_id":"levelo_inurba_marseille","lat":43.270645,"lon":5.392635,"is_reserved":false,"is_disabled":false,"rental_uris":{"android":"levelo://app?vid=9180d689-518c-4051-bf85-515becc255ec","ios":"levelo://app?vid=9180d689-518c-4051-bf85-515becc255ec"},"vehicle_type_id":"4","last_reported":1753114390,"current_range_meters":16400,"station_id":"","pricing_plan_id":"cebpf4jnsgd1na2vs0mg"},{"bike_id":"f4e07016-6377-40c8-a7c9-4f6adf9a9ada","system_id":"levelo_inurba_marseille","lat":43.32341,"lon":5.40623,"is_reserved":false,"is_disabled":false,"rental_uris":{"android":"levelo://app?vid=f4e07016-6377-40c8-a7c9-4f6adf9a9ada","ios":"levelo://app?vid=f4e07016-6377-40c8-a7c9-4f6adf9a9ada"},"vehicle_type_id":"4","last_reported":1753114390,"current_range_meters":16400,"station_id":"ce4bhq92rcd13ifvqhjg","pricing_plan_id":"cebpf4jnsgd1na2vs0mg"},{"bike_id":"8423e589-47bf-47a8-b90f-452fc938c46b","system_id":"levelo_inurba_marseille","lat":43.32354,"lon":5.36758,"is_reserved":false,"is_disabled":false,"rental_uris":{"android":"levelo://app?vid=8423e589-47bf-47a8-b90f-452fc938c46b","ios":"levelo://app?vid=8423e589-47bf-47a8-b90f-452fc938c46b"},"vehicle_type_id":"4","last_reported":1753114390,"current_range_meters":16400,"station_id":"ce4bhsh2rcd13ifvqi2g","pricing_plan_id":"cebpf4jnsgd1na2vs0mg"},{"bike_id":"8f286a53-11b4-4d84-b9ef-1762d5ab74d4","system_id":"levelo_inurba_marseille","lat":43.28431,"lon":5.34977,"is_reserved":false,"is_disabled":false,"rental_uris":{"android":"levelo://app?vid=8f286a53-11b4-4d84-b9ef-1762d5ab74d4","ios":"levelo://app?vid=8f286a53-11b4-4d84-b9ef-1762d5ab74d4"},"vehicle_type_id":"4","last_reported":1753114390,"current_range_meters":16400,"station_id":"ce4bhbh2rcd13ifvqepg","pricing_plan_id":"cebpf4jnsgd1na2vs0mg"},{"bike_id":"db9f73f7-bb7c-47da-9cfe-dd02081ad627","system_id":"levelo_inurba_marseille","lat":43.27834,"lon":5.39208,"is_reserved":false,"is_disabled":false,"rental_uris":{"android":"levelo://app?vid=db9f73f7-bb7c-47da-9cfe-dd02081ad627","ios":"levelo://app?vid=db9f73f7-bb7c-47da-9cfe-dd02081ad627"},"vehicle_type_id":"4","last_reported":1753114390,"current_range_meters":16000,"station_id":"ce4bhjp2rcd13ifvqga0","pricing_plan_id":"cebpf4jnsgd1na2vs0mg"},{"bike_id":"6ecd5a2b-6dae-44b3-a162-e5286af43d43","system_id":"levelo_inurba_marseille","lat":43.22535,"lon":5.34785,"is_reserved":false,"is_disabled":false,"rental_uris":{"android":"levelo://app?vid=6ecd5a2b-6dae-44b3-a162-e5286af43d43","ios":"levelo://app?vid=6ecd5a2b-6dae-44b3-a162-e5286af43d43"},"vehicle_type_id":"4","last_reported":1753114390,"current_range_meters":16400,"station_id":"st_cvj5dfep6f1abm77gieg","pricing_plan_id":"cebpf4jnsgd1na2vs0mg"},{"bike_id":"0bc6510b-884b-4ddb-ba71-7e5edda3b532","system_id":"levelo_inurba_marseille","lat":43.25091,"lon":5.39523,"is_reserved":false,"is_disabled":false,"rental_uris":{"android":"levelo://app?vid=0bc6510b-884b-4ddb-ba71-7e5edda3b532","ios":"levelo://app?vid=0bc6510b-884b-4ddb-ba71-7e5edda3b532"},"vehicle_type_id":"4","last_reported":1753114390,"current_range_meters":16400,"station_id":"ce4bhm12rcd13ifvqgkg","pricing_plan_id":"cebpf4jnsgd1na2vs0mg"},{"bike_id":"8623e104-31b9-42b2-96cf-b9f1ba7058fc","system_id":"levelo_inurba_marseille","lat":43.21197,"lon":5.35071,"is_reserved":false,"is_disabled":false,"rental_uris":{"android":"levelo://app?vid=8623e104-31b9-42b2-96cf-b9f1ba7058fc","ios":"levelo://app?vid=8623e104-31b9-42b2-96cf-b9f1ba7058fc"},"vehicle_type_id":"4","last_reported":1753114390,"current_range_meters":16400,"station_id":"st_cvj6sg6p6f1abm77japg","pricing_plan_id":"cebpf4jnsgd1na2vs0mg"},{"bike_id":"2d6095ea-f882-494d-a187-fa879408181e","system_id":"levelo_inurba_marseille","lat":43.251486,"lon":5.373463,"is_reserved":false,"is_disabled":false,"rental_uris":{"android":"levelo://app?vid=2d6095ea-f882-494d-a187-fa879408181e","ios":"levelo://app?vid=2d6095ea-f882-494d-a187-fa879408181e"},"vehicle_type_id":"4","last_reported":1753114390,"current_range_meters":16400,"station_id":"","pricing_plan_id":"cebpf4jnsgd1na2vs0mg"},{"bike_id":"298d7476-28c7-4c61-8302-df95a7d5d3d6","system_id":"levelo_inurba_marseille","lat":43.22513,"lon":5.34785,"is_reserved":false,"is_disabled":false,"rental_uris":{"android":"levelo://app?vid=298d7476-28c7-4c61-8302-df95a7d5d3d6","ios":"levelo://app?vid=298d7476-28c7-4c61-8302-df95a7d5d3d6"},"vehicle_type_id":"4","last_reported":1753114390,"current_range_meters":16800,"station_id":"st_cvj5dfep6f1abm77gieg","pricing_plan_id":"cebpf4jnsgd1na2vs0mg"},{"bike_id":"efe4f29a-211a-4aa4-a032-e016afbe0eba","system_id":"levelo_inurba_marseille","lat":43.303,"lon":5.39217,"is_reserved":false,"is_disabled":false,"rental_uris":{"android":"levelo://app?vid=efe4f29a-211a-4aa4-a032-e016afbe0eba","ios":"levelo://app?vid=efe4f29a-211a-4aa4-a032-e016afbe0eba"},"vehicle_type_id":"4","last_reported":1753114390,"current_range_meters":16800,"station_id":"ce4bgkh2rcd13ifvqbk0","pricing_plan_id":"cebpf4jnsgd1na2vs0mg"},{"bike_id":"0398b668-a6c7-44f1-a394-a0cdc8b78887","system_id":"levelo_inurba_marseille","lat":43.30596,"lon":5.39358,"is_reserved":false,"is_disabled":false,"rental_uris":{"android":"levelo://app?vid=0398b668-a6c7-44f1-a394-a0cdc8b78887","ios":"levelo://app?vid=0398b668-a6c7-44f1-a394-a0cdc8b78887"},"vehicle_type_id":"4","last_reported":1753114390,"current_range_meters":16800,"station_id":"ce4bh0p2rcd13ifvqd80","pricing_plan_id":"cebpf4jnsgd1na2vs0mg"},{"bike_id":"a5d420c1-6f63-4560-9fe2-e08db2c4fecb","system_id":"levelo_inurba_marseille","lat":43.21213,"lon":5.35095,"is_reserved":false,"is_disabled":false,"rental_uris":{"android":"levelo://app?vid=a5d420c1-6f63-4560-9fe2-e08db2c4fecb","ios":"levelo://app?vid=a5d420c1-6f63-4560-9fe2-e08db2c4fecb"},"vehicle_type_id":"4","last_reported":1753114390,"current_range_meters":16800,"station_id":"st_cvj6sg6p6f1abm77japg","pricing_plan_id":"cebpf4jnsgd1na2vs0mg"},{"bike_id":"6b2ba991-a419-4a85-b1ba-ba5e1d8ae6db","system_id":"levelo_inurba_marseille","lat":43.28363,"lon":5.38627,"is_reserved":false,"is_disabled":false,"rental_uris":{"android":"levelo://app?vid=6b2ba991-a419-4a85-b1ba-ba5e1d8ae6db","ios":"levelo://app?vid=6b2ba991-a419-4a85-b1ba-ba5e1d8ae6db"},"vehicle_type_id":"4","last_reported":1753114390,"current_range_meters":16400,"station_id":"ce4bh492rcd13ifvqdvg","pricing_plan_id":"cebpf4jnsgd1na2vs0mg"},{"bike_id":"ccb3a2c1-5335-4346-b5bb-08cb08061e0e","system_id":"levelo_inurba_marseille","lat":43.297777,"lon":5.381044,"is_reserved":false,"is_disabled":true,"rental_uris":{"android":"levelo://app?vid=ccb3a2c1-5335-4346-b5bb-08cb08061e0e","ios":"levelo://app?vid=ccb3a2c1-5335-4346-b5bb-08cb08061e0e"},"vehicle_type_id":"4","last_reported":1753114390,"current_range_meters":16800,"station_id":"ce4bgip2rcd13ifvqbb0","pricing_plan_id":"cebpf4jnsgd1na2vs0mg"},{"bike_id":"76e8a4c7-1966-4c02-a21a-c2d4f4e224d8","system_id":"levelo_inurba_marseille","lat":43.292827,"lon":5.376153,"is_reserved":false,"is_disabled":true,"rental_uris":{"android":"levelo://app?vid=76e8a4c7-1966-4c02-a21a-c2d4f4e224d8","ios":"levelo://app?vid=76e8a4c7-1966-4c02-a21a-c2d4f4e224d8"},"vehicle_type_id":"4","last_reported":1753114390,"current_range_meters":17200,"station_id":"ce4bgi12rcd13ifvqb80","pricing_plan_id":"cebpf4jnsgd1na2vs0mg"},{"bike_id":"b6191c96-af83-462f-a3cc-e4778a781fff","system_id":"levelo_inurba_marseille","lat":43.21187,"lon":5.35071,"is_reserved":false,"is_disabled":false,"rental_uris":{"android":"levelo://app?vid=b6191c96-af83-462f-a3cc-e4778a781fff","ios":"levelo://app?vid=b6191c96-af83-462f-a3cc-e4778a781fff"},"vehicle_type_id":"4","last_reported":1753114390,"current_range_meters":17200,"station_id":"st_cvj6sg6p6f1abm77japg","pricing_plan_id":"cebpf4jnsgd1na2vs0mg"},{"bike_id":"0cb19f5e-6a19-4fc0-9b18-698188d68bf4","system_id":"levelo_inurba_marseille","lat":43.29726,"lon":5.43265,"is_reserved":false,"is_disabled":false,"rental_uris":{"android":"levelo://app?vid=0cb19f5e-6a19-4fc0-9b18-698188d68bf4","ios":"levelo://app?vid=0cb19f5e-6a19-4fc0-9b18-698188d68bf4"},"vehicle_type_id":"4","last_reported":1753114390,"current_range_meters":17200,"station_id":"","pricing_plan_id":"cebpf4jnsgd1na2vs0mg"},{"bike_id":"3fb96fc8-d5fa-4cf5-a8ad-367ac5eda46c","system_id":"levelo_inurba_marseille","lat":43.325434,"lon":5.414284,"is_reserved":false,"is_disabled":false,"rental_uris":{"android":"levelo://app?vid=3fb96fc8-d5fa-4cf5-a8ad-367ac5eda46c","ios":"levelo://app?vid=3fb96fc8-d5fa-4cf5-a8ad-367ac5eda46c"},"vehicle_type_id":"4","last_reported":1753114390,"current_range_meters":17200,"station_id":"ce4bhq12rcd13ifvqhhg","pricing_plan_id":"cebpf4jnsgd1na2vs0mg"},{"bike_id":"740b7423-7a27-4daa-9991-c3141fb84b3f","system_id":"levelo_inurba_marseille","lat":43.27174,"lon":5.40998,"is_reserved":false,"is_disabled":false,"rental_uris":{"android":"levelo://app?vid=740b7423-7a27-4daa-9991-c3141fb84b3f","ios":"levelo://app?vid=740b7423-7a27-4daa-9991-c3141fb84b3f"},"vehicle_type_id":"4","last_reported":1753114390,"current_range_meters":17200,"station_id":"ce4bhl12rcd13ifvqgf0","pricing_plan_id":"cebpf4jnsgd1na2vs0mg"},{"bike_id":"81c2deea-9b7c-4964-9e62-7d0a9aed51f5","system_id":"levelo_inurba_marseille","lat":43.30133,"lon":5.3986,"is_reserved":false,"is_disabled":false,"rental_uris":{"android":"levelo://app?vid=81c2deea-9b7c-4964-9e62-7d0a9aed51f5","ios":"levelo://app?vid=81c2deea-9b7c-4964-9e62-7d0a9aed51f5"},"vehicle_type_id":"4","last_reported":1753114390,"current_range_meters":16800,"station_id":"ce4bh0h2rcd13ifvqd40","pricing_plan_id":"cebpf4jnsgd1na2vs0mg"},{"bike_id":"51931bf6-1eb4-445c-8f29-98888cfaefc7","system_id":"levelo_inurba_marseille","lat":43.29389,"lon":5.39837,"is_reserved":false,"is_disabled":false,"rental_uris":{"android":"levelo://app?vid=51931bf6-1eb4-445c-8f29-98888cfaefc7","ios":"levelo://app?vid=51931bf6-1eb4-445c-8f29-98888cfaefc7"},"vehicle_type_id":"4","last_reported":1753114390,"current_range_meters":17200,"station_id":"","pricing_plan_id":"cebpf4jnsgd1na2vs0mg"},{"bike_id":"91faf937-6768-4101-98da-411036d125c4","system_id":"levelo_inurba_marseille","lat":43.22948,"lon":5.35375,"is_reserved":false,"is_disabled":false,"rental_uris":{"android":"levelo://app?vid=91faf937-6768-4101-98da-411036d125c4","ios":"levelo://app?vid=91faf937-6768-4101-98da-411036d125c4"},"vehicle_type_id":"4","last_reported":1753114390,"current_range_meters":17200,"station_id":"cpo3532slgdg3j2ikp40","pricing_plan_id":"cebpf4jnsgd1na2vs0mg"},{"bike_id":"14241bd4-00b3-4eb7-bb78-396872f729c4","system_id":"levelo_inurba_marseille","lat":43.26792,"lon":5.3941,"is_reserved":false,"is_disabled":false,"rental_uris":{"android":"levelo://app?vid=14241bd4-00b3-4eb7-bb78-396872f729c4","ios":"levelo://app?vid=14241bd4-00b3-4eb7-bb78-396872f729c4"},"vehicle_type_id":"4","last_reported":1753114390,"current_range_meters":16800,"station_id":"ce4bhh12rcd13ifvqfg0","pricing_plan_id":"cebpf4jnsgd1na2vs0mg"},{"bike_id":"107554ba-e718-46f2-9a6f-d42cf9fce0d9","system_id":"levelo_inurba_marseille","lat":43.28925,"lon":5.36389,"is_reserved":false,"is_disabled":false,"rental_uris":{"android":"levelo://app?vid=107554ba-e718-46f2-9a6f-d42cf9fce0d9","ios":"levelo://app?vid=107554ba-e718-46f2-9a6f-d42cf9fce0d9"},"vehicle_type_id":"4","last_reported":1753114390,"current_range_meters":17200,"station_id":"ce4bhc92rcd13ifvqetg","pricing_plan_id":"cebpf4jnsgd1na2vs0mg"},{"bike_id":"263d4ced-6e04-4169-ac4b-7fa733c92fa6","system_id":"levelo_inurba_marseille","lat":43.32372,"lon":5.36775,"is_reserved":false,"is_disabled":false,"rental_uris":{"android":"levelo://app?vid=263d4ced-6e04-4169-ac4b-7fa733c92fa6","ios":"levelo://app?vid=263d4ced-6e04-4169-ac4b-7fa733c92fa6"},"vehicle_type_id":"4","last_reported":1753114390,"current_range_meters":17200,"station_id":"ce4bhsh2rcd13ifvqi2g","pricing_plan_id":"cebpf4jnsgd1na2vs0mg"},{"bike_id":"4d2fb385-600a-460f-817d-c81c8838ad28","system_id":"levelo_inurba_marseille","lat":43.32354,"lon":5.36745,"is_reserved":false,"is_disabled":false,"rental_uris":{"android":"levelo://app?vid=4d2fb385-600a-460f-817d-c81c8838ad28","ios":"levelo://app?vid=4d2fb385-600a-460f-817d-c81c8838ad28"},"vehicle_type_id":"4","last_reported":1753114390,"current_range_meters":17600,"station_id":"ce4bhsh2rcd13ifvqi2g","pricing_plan_id":"cebpf4jnsgd1na2vs0mg"},{"bike_id":"5ff1bee7-6911-4ac1-bf13-2cc2d349464d","system_id":"levelo_inurba_marseille","lat":43.283579,"lon":5.381031,"is_reserved":false,"is_disabled":false,"rental_uris":{"android":"levelo://app?vid=5ff1bee7-6911-4ac1-bf13-2cc2d349464d","ios":"levelo://app?vid=5ff1bee7-6911-4ac1-bf13-2cc2d349464d"},"vehicle_type_id":"4","last_reported":1753114390,"current_range_meters":17600,"station_id":"ce4bh412rcd13ifvqdr0","pricing_plan_id":"cebpf4jnsgd1na2vs0mg"},{"bike_id":"c0024a60-46a0-47e2-8496-2688b95b6b7c","system_id":"levelo_inurba_marseille","lat":43.31083,"lon":5.4243,"is_reserved":false,"is_disabled":false,"rental_uris":{"android":"levelo://app?vid=c0024a60-46a0-47e2-8496-2688b95b6b7c","ios":"levelo://app?vid=c0024a60-46a0-47e2-8496-2688b95b6b7c"},"vehicle_type_id":"4","last_reported":1753114390,"current_range_meters":17200,"station_id":"ce4bhp92rcd13ifvqhag","pricing_plan_id":"cebpf4jnsgd1na2vs0mg"},{"bike_id":"2fd31598-6312-4917-95ca-e2f408b1867d","system_id":"levelo_inurba_marseille","lat":43.27385,"lon":5.3628,"is_reserved":false,"is_disabled":false,"rental_uris":{"android":"levelo://app?vid=2fd31598-6312-4917-95ca-e2f408b1867d","ios":"levelo://app?vid=2fd31598-6312-4917-95ca-e2f408b1867d"},"vehicle_type_id":"4","last_reported":1753114390,"current_range_meters":17600,"station_id":"ce4bhbh2rcd13ifvqeo0","pricing_plan_id":"cebpf4jnsgd1na2vs0mg"},{"bike_id":"d8b8fe1a-935a-4849-9347-8d060a09c48c","system_id":"levelo_inurba_marseille","lat":43.231844,"lon":5.399882,"is_reserved":false,"is_disabled":false,"rental_uris":{"android":"levelo://app?vid=d8b8fe1a-935a-4849-9347-8d060a09c48c","ios":"levelo://app?vid=d8b8fe1a-935a-4849-9347-8d060a09c48c"},"vehicle_type_id":"4","last_reported":1753114390,"current_range_meters":17600,"station_id":"ce4bhn12rcd13ifvqgqg","pricing_plan_id":"cebpf4jnsgd1na2vs0mg"},{"bike_id":"58cbfa7e-c704-4866-ba9b-204648f1391a","system_id":"levelo_inurba_marseille","lat":43.299579,"lon":5.380973,"is_reserved":false,"is_disabled":false,"rental_uris":{"android":"levelo://app?vid=58cbfa7e-c704-4866-ba9b-204648f1391a","ios":"levelo://app?vid=58cbfa7e-c704-4866-ba9b-204648f1391a"},"vehicle_type_id":"4","last_reported":1753114390,"current_range_meters":17600,"station_id":"","pricing_plan_id":"cebpf4jnsgd1na2vs0mg"},{"bike_id":"8f1807d4-4667-4439-845b-f287a9a6652f","system_id":"levelo_inurba_marseille","lat":43.29201,"lon":5.39346,"is_reserved":false,"is_disabled":false,"rental_uris":{"android":"levelo://app?vid=8f1807d4-4667-4439-845b-f287a9a6652f","ios":"levelo://app?vid=8f1807d4-4667-4439-845b-f287a9a6652f"},"vehicle_type_id":"4","last_reported":1753114390,"current_range_meters":17600,"station_id":"ce4bh192rcd13ifvqdd0","pricing_plan_id":"cebpf4jnsgd1na2vs0mg"},{"bike_id":"e154ecd3-8f9a-42cf-92cf-0f367d2d1091","system_id":"levelo_inurba_marseille","lat":43.28424,"lon":5.3499,"is_reserved":false,"is_disabled":false,"rental_uris":{"android":"levelo://app?vid=e154ecd3-8f9a-42cf-92cf-0f367d2d1091","ios":"levelo://app?vid=e154ecd3-8f9a-42cf-92cf-0f367d2d1091"},"vehicle_type_id":"4","last_reported":1753114390,"current_range_meters":18000,"station_id":"ce4bhbh2rcd13ifvqepg","pricing_plan_id":"cebpf4jnsgd1na2vs0mg"},{"bike_id":"4a062b19-5034-4363-abce-0b66f8ef5116","system_id":"levelo_inurba_marseille","lat":43.30275,"lon":5.37699,"is_reserved":false,"is_disabled":false,"rental_uris":{"android":"levelo://app?vid=4a062b19-5034-4363-abce-0b66f8ef5116","ios":"levelo://app?vid=4a062b19-5034-4363-abce-0b66f8ef5116"},"vehicle_type_id":"4","last_reported":1753114390,"current_range_meters":18000,"station_id":"ce4bguh2rcd13ifvqcj0","pricing_plan_id":"cebpf4jnsgd1na2vs0mg"},{"bike_id":"e2f86886-eff5-42f7-b7a6-9956f7a22dc5","system_id":"levelo_inurba_marseille","lat":43.28485,"lon":5.38536,"is_reserved":false,"is_disabled":false,"rental_uris":{"android":"levelo://app?vid=e2f86886-eff5-42f7-b7a6-9956f7a22dc5","ios":"levelo://app?vid=e2f86886-eff5-42f7-b7a6-9956f7a22dc5"},"vehicle_type_id":"4","last_reported":1753114390,"current_range_meters":18000,"station_id":"","pricing_plan_id":"cebpf4jnsgd1na2vs0mg"},{"bike_id":"668bfa40-7ae0-42dd-a6b6-6631a40f0c0f","system_id":"levelo_inurba_marseille","lat":43.331428,"lon":5.385932,"is_reserved":false,"is_disabled":false,"rental_uris":{"android":"levelo://app?vid=668bfa40-7ae0-42dd-a6b6-6631a40f0c0f","ios":"levelo://app?vid=668bfa40-7ae0-42dd-a6b6-6631a40f0c0f"},"vehicle_type_id":"4","last_reported":1753114390,"current_range_meters":18000,"station_id":"","pricing_plan_id":"cebpf4jnsgd1na2vs0mg"},{"bike_id":"2d425ec7-4aea-4887-bb9d-238a4729e17b","system_id":"levelo_inurba_marseille","lat":43.302168,"lon":5.394713,"is_reserved":false,"is_disabled":false,"rental_uris":{"android":"levelo://app?vid=2d425ec7-4aea-4887-bb9d-238a4729e17b","ios":"levelo://app?vid=2d425ec7-4aea-4887-bb9d-238a4729e17b"},"vehicle_type_id":"4","last_reported":1753114390,"current_range_meters":18000,"station_id":"","pricing_plan_id":"cebpf4jnsgd1na2vs0mg"},{"bike_id":"e678a69d-7294-4174-bf45-27857c059e51","system_id":"levelo_inurba_marseille","lat":43.29251,"lon":5.38449,"is_reserved":false,"is_disabled":false,"rental_uris":{"android":"levelo://app?vid=e678a69d-7294-4174-bf45-27857c059e51","ios":"levelo://app?vid=e678a69d-7294-4174-bf45-27857c059e51"},"vehicle_type_id":"4","last_reported":1753114390,"current_range_meters":18000,"station_id":"ce4bh692rcd13ifvqea0","pricing_plan_id":"cebpf4jnsgd1na2vs0mg"},{"bike_id":"0d80927c-6395-4de4-af9e-6cbe4fa1fef3","system_id":"levelo_inurba_marseille","lat":43.24393,"lon":5.3707,"is_reserved":false,"is_disabled":false,"rental_uris":{"android":"levelo://app?vid=0d80927c-6395-4de4-af9e-6cbe4fa1fef3","ios":"levelo://app?vid=0d80927c-6395-4de4-af9e-6cbe4fa1fef3"},"vehicle_type_id":"4","last_reported":1753114390,"current_range_meters":18000,"station_id":"ce4bhhh2rcd13ifvqfk0","pricing_plan_id":"cebpf4jnsgd1na2vs0mg"},{"bike_id":"e68c9318-4aac-47d7-8e5f-796cfc39b30a","system_id":"levelo_inurba_marseille","lat":43.278055,"lon":5.390935,"is_reserved":false,"is_disabled":false,"rental_uris":{"android":"levelo://app?vid=e68c9318-4aac-47d7-8e5f-796cfc39b30a","ios":"levelo://app?vid=e68c9318-4aac-47d7-8e5f-796cfc39b30a"},"vehicle_type_id":"4","last_reported":1753114390,"current_range_meters":18800,"station_id":"ce4bhjp2rcd13ifvqga0","pricing_plan_id":"cebpf4jnsgd1na2vs0mg"},{"bike_id":"e9239a64-88e6-49b4-8fb1-b343c1353ad5","system_id":"levelo_inurba_marseille","lat":43.29572,"lon":5.39978,"is_reserved":false,"is_disabled":false,"rental_uris":{"android":"levelo://app?vid=e9239a64-88e6-49b4-8fb1-b343c1353ad5","ios":"levelo://app?vid=e9239a64-88e6-49b4-8fb1-b343c1353ad5"},"vehicle_type_id":"4","last_reported":1753114390,"current_range_meters":18800,"station_id":"ce4bh312rcd13ifvqdj0","pricing_plan_id":"cebpf4jnsgd1na2vs0mg"},{"bike_id":"fe732a6c-bff8-47cc-932a-3c976c2c7a76","system_id":"levelo_inurba_marseille","lat":43.280363,"lon":5.369555,"is_reserved":false,"is_disabled":true,"rental_uris":{"android":"levelo://app?vid=fe732a6c-bff8-47cc-932a-3c976c2c7a76","ios":"levelo://app?vid=fe732a6c-bff8-47cc-932a-3c976c2c7a76"},"vehicle_type_id":"4","last_reported":1753114390,"current_range_meters":18800,"station_id":"","pricing_plan_id":"cebpf4jnsgd1na2vs0mg"},{"bike_id":"07cad5da-863b-4dcd-9b5f-8a55c0a76449","system_id":"levelo_inurba_marseille","lat":43.28794,"lon":5.39124,"is_reserved":false,"is_disabled":false,"rental_uris":{"android":"levelo://app?vid=07cad5da-863b-4dcd-9b5f-8a55c0a76449","ios":"levelo://app?vid=07cad5da-863b-4dcd-9b5f-8a55c0a76449"},"vehicle_type_id":"4","last_reported":1753114390,"current_range_meters":18800,"station_id":"","pricing_plan_id":"cebpf4jnsgd1na2vs0mg"},{"bike_id":"13adf853-6ca7-4ebd-8c9f-f4512dd3a322","system_id":"levelo_inurba_marseille","lat":43.33287,"lon":5.39868,"is_reserved":false,"is_disabled":true,"rental_uris":{"android":"levelo://app?vid=13adf853-6ca7-4ebd-8c9f-f4512dd3a322","ios":"levelo://app?vid=13adf853-6ca7-4ebd-8c9f-f4512dd3a322"},"vehicle_type_id":"4","last_reported":1753114390,"current_range_meters":18800,"station_id":"","pricing_plan_id":"cebpf4jnsgd1na2vs0mg"},{"bike_id":"df8664f0-24ad-4ab4-b015-a965d5b8a8e7","system_id":"levelo_inurba_marseille","lat":43.29972,"lon":5.385,"is_reserved":false,"is_disabled":false,"rental_uris":{"android":"levelo://app?vid=df8664f0-24ad-4ab4-b015-a965d5b8a8e7","ios":"levelo://app?vid=df8664f0-24ad-4ab4-b015-a965d5b8a8e7"},"vehicle_type_id":"4","last_reported":1753114390,"current_range_meters":18800,"station_id":"ce4bgj92rcd13ifvqbd0","pricing_plan_id":"cebpf4jnsgd1na2vs0mg"},{"bike_id":"b050b2a0-6d4d-4d6b-b7de-6a89501ce2b7","system_id":"levelo_inurba_marseille","lat":43.28946,"lon":5.3638,"is_reserved":false,"is_disabled":true,"rental_uris":{"android":"levelo://app?vid=b050b2a0-6d4d-4d6b-b7de-6a89501ce2b7","ios":"levelo://app?vid=b050b2a0-6d4d-4d6b-b7de-6a89501ce2b7"},"vehicle_type_id":"4","last_reported":1753114390,"current_range_meters":18800,"station_id":"ce4bhc92rcd13ifvqetg","pricing_plan_id":"cebpf4jnsgd1na2vs0mg"},{"bike_id":"99841499-c958-4e5a-a8a8-f74cf9b2d2c7","system_id":"levelo_inurba_marseille","lat":43.27052,"lon":5.40253,"is_reserved":false,"is_disabled":false,"rental_uris":{"android":"levelo://app?vid=99841499-c958-4e5a-a8a8-f74cf9b2d2c7","ios":"levelo://app?vid=99841499-c958-4e5a-a8a8-f74cf9b2d2c7"},"vehicle_type_id":"4","last_reported":1753114390,"current_range_meters":18800,"station_id":"ce4bhk92rcd13ifvqgc0","pricing_plan_id":"cebpf4jnsgd1na2vs0mg"},{"bike_id":"88990522-4564-4f12-b40b-b7231a3194da","system_id":"levelo_inurba_marseille","lat":43.29039,"lon":5.38654,"is_reserved":false,"is_disabled":false,"rental_uris":{"android":"levelo://app?vid=88990522-4564-4f12-b40b-b7231a3194da","ios":"levelo://app?vid=88990522-4564-4f12-b40b-b7231a3194da"},"vehicle_type_id":"4","last_reported":1753114390,"current_range_meters":18800,"station_id":"ce4bh4p2rcd13ifvqe0g","pricing_plan_id":"cebpf4jnsgd1na2vs0mg"},{"bike_id":"47072470-8155-443f-b202-9f21a67e2694","system_id":"levelo_inurba_marseille","lat":43.29564,"lon":5.42283,"is_reserved":false,"is_disabled":false,"rental_uris":{"android":"levelo://app?vid=47072470-8155-443f-b202-9f21a67e2694","ios":"levelo://app?vid=47072470-8155-443f-b202-9f21a67e2694"},"vehicle_type_id":"4","last_reported":1753114390,"current_range_meters":18800,"station_id":"ce4bhph2rcd13ifvqhdg","pricing_plan_id":"cebpf4jnsgd1na2vs0mg"},{"bike_id":"ca8da7d0-fc1f-4569-a6f4-27831ffe432e","system_id":"levelo_inurba_marseille","lat":43.29971,"lon":5.38493,"is_reserved":false,"is_disabled":false,"rental_uris":{"android":"levelo://app?vid=ca8da7d0-fc1f-4569-a6f4-27831ffe432e","ios":"levelo://app?vid=ca8da7d0-fc1f-4569-a6f4-27831ffe432e"},"vehicle_type_id":"4","last_reported":1753114390,"current_range_meters":19200,"station_id":"ce4bgj92rcd13ifvqbd0","pricing_plan_id":"cebpf4jnsgd1na2vs0mg"},{"bike_id":"51810feb-c9da-4f93-85f1-44fc0b989db6","system_id":"levelo_inurba_marseille","lat":43.2294,"lon":5.35372,"is_reserved":false,"is_disabled":false,"rental_uris":{"android":"levelo://app?vid=51810feb-c9da-4f93-85f1-44fc0b989db6","ios":"levelo://app?vid=51810feb-c9da-4f93-85f1-44fc0b989db6"},"vehicle_type_id":"4","last_reported":1753114390,"current_range_meters":18800,"station_id":"cpo3532slgdg3j2ikp40","pricing_plan_id":"cebpf4jnsgd1na2vs0mg"},{"bike_id":"f2ae3914-afd9-4ae9-b087-b6a8c5753948","system_id":"levelo_inurba_marseille","lat":43.32371,"lon":5.36768,"is_reserved":false,"is_disabled":false,"rental_uris":{"android":"levelo://app?vid=f2ae3914-afd9-4ae9-b087-b6a8c5753948","ios":"levelo://app?vid=f2ae3914-afd9-4ae9-b087-b6a8c5753948"},"vehicle_type_id":"4","last_reported":1753114390,"current_range_meters":18800,"station_id":"ce4bhsh2rcd13ifvqi2g","pricing_plan_id":"cebpf4jnsgd1na2vs0mg"},{"bike_id":"a8425362-197a-4dc6-a73b-d17d37743a9c","system_id":"levelo_inurba_marseille","lat":43.21755,"lon":5.34598,"is_reserved":false,"is_disabled":false,"rental_uris":{"android":"levelo://app?vid=a8425362-197a-4dc6-a73b-d17d37743a9c","ios":"levelo://app?vid=a8425362-197a-4dc6-a73b-d17d37743a9c"},"vehicle_type_id":"4","last_reported":1753114390,"current_range_meters":18800,"station_id":"st_cvj6r9ubvosntc0bgbag","pricing_plan_id":"cebpf4jnsgd1na2vs0mg"},{"bike_id":"16c53c52-ed19-415c-a2cf-32caa1bf3f98","system_id":"levelo_inurba_marseille","lat":43.29623,"lon":5.3717,"is_reserved":false,"is_disabled":false,"rental_uris":{"android":"levelo://app?vid=16c53c52-ed19-415c-a2cf-32caa1bf3f98","ios":"levelo://app?vid=16c53c52-ed19-415c-a2cf-32caa1bf3f98"},"vehicle_type_id":"4","last_reported":1753114390,"current_range_meters":19200,"station_id":"ce4bgnh2rcd13ifvqc0g","pricing_plan_id":"cebpf4jnsgd1na2vs0mg"},{"bike_id":"9bd5d831-50ac-438a-8ee3-b4526599b83e","system_id":"levelo_inurba_marseille","lat":43.29573,"lon":5.39985,"is_reserved":false,"is_disabled":false,"rental_uris":{"android":"levelo://app?vid=9bd5d831-50ac-438a-8ee3-b4526599b83e","ios":"levelo://app?vid=9bd5d831-50ac-438a-8ee3-b4526599b83e"},"vehicle_type_id":"4","last_reported":1753114390,"current_range_meters":19200,"station_id":"ce4bh312rcd13ifvqdj0","pricing_plan_id":"cebpf4jnsgd1na2vs0mg"},{"bike_id":"cf742a8a-f0f1-40ef-afb9-1639813ecc5d","system_id":"levelo_inurba_marseille","lat":43.25088,"lon":5.39528,"is_reserved":false,"is_disabled":false,"rental_uris":{"android":"levelo://app?vid=cf742a8a-f0f1-40ef-afb9-1639813ecc5d","ios":"levelo://app?vid=cf742a8a-f0f1-40ef-afb9-1639813ecc5d"},"vehicle_type_id":"4","last_reported":1753114390,"current_range_meters":19200,"station_id":"ce4bhm12rcd13ifvqgkg","pricing_plan_id":"cebpf4jnsgd1na2vs0mg"},{"bike_id":"0252eab3-c3f3-4486-b893-58cb3f957c57","system_id":"levelo_inurba_marseille","lat":43.31723,"lon":5.38525,"is_reserved":false,"is_disabled":false,"rental_uris":{"android":"levelo://app?vid=0252eab3-c3f3-4486-b893-58cb3f957c57","ios":"levelo://app?vid=0252eab3-c3f3-4486-b893-58cb3f957c57"},"vehicle_type_id":"4","last_reported":1753114390,"current_range_meters":19200,"station_id":"","pricing_plan_id":"cebpf4jnsgd1na2vs0mg"},{"bike_id":"b4c1aa2a-e931-4ce6-8816-30ad77bdd520","system_id":"levelo_inurba_marseille","lat":43.241448,"lon":5.363743,"is_reserved":false,"is_disabled":false,"rental_uris":{"android":"levelo://app?vid=b4c1aa2a-e931-4ce6-8816-30ad77bdd520","ios":"levelo://app?vid=b4c1aa2a-e931-4ce6-8816-30ad77bdd520"},"vehicle_type_id":"4","last_reported":1753114390,"current_range_meters":19200,"station_id":"","pricing_plan_id":"cebpf4jnsgd1na2vs0mg"},{"bike_id":"7227f2a0-48ac-47a6-aa2d-661ad6a7a763","system_id":"levelo_inurba_marseille","lat":43.29058,"lon":5.3717,"is_reserved":false,"is_disabled":true,"rental_uris":{"android":"levelo://app?vid=7227f2a0-48ac-47a6-aa2d-661ad6a7a763","ios":"levelo://app?vid=7227f2a0-48ac-47a6-aa2d-661ad6a7a763"},"vehicle_type_id":"4","last_reported":1753114390,"current_range_meters":19200,"station_id":"ce4bgh92rcd13ifvqb40","pricing_plan_id":"cebpf4jnsgd1na2vs0mg"},{"bike_id":"58bfe0a7-7c88-412b-9ea2-85fe08e0a235","system_id":"levelo_inurba_marseille","lat":43.302997,"lon":5.369035,"is_reserved":false,"is_disabled":false,"rental_uris":{"android":"levelo://app?vid=58bfe0a7-7c88-412b-9ea2-85fe08e0a235","ios":"levelo://app?vid=58bfe0a7-7c88-412b-9ea2-85fe08e0a235"},"vehicle_type_id":"4","last_reported":1753114390,"current_range_meters":19200,"station_id":"ce4bgrh2rcd13ifvqc8g","pricing_plan_id":"cebpf4jnsgd1na2vs0mg"},{"bike_id":"87bc9e6f-1d5b-4237-a1df-3b5cfd8a9777","system_id":"levelo_inurba_marseille","lat":43.21212,"lon":5.35049,"is_reserved":false,"is_disabled":false,"rental_uris":{"android":"levelo://app?vid=87bc9e6f-1d5b-4237-a1df-3b5cfd8a9777","ios":"levelo://app?vid=87bc9e6f-1d5b-4237-a1df-3b5cfd8a9777"},"vehicle_type_id":"4","last_reported":1753114390,"current_range_meters":19200,"station_id":"st_cvj6sg6p6f1abm77japg","pricing_plan_id":"cebpf4jnsgd1na2vs0mg"},{"bike_id":"07137d19-5d3e-48fa-846f-23aa428fbcee","system_id":"levelo_inurba_marseille","lat":43.25117,"lon":5.4032,"is_reserved":false,"is_disabled":false,"rental_uris":{"android":"levelo://app?vid=07137d19-5d3e-48fa-846f-23aa428fbcee","ios":"levelo://app?vid=07137d19-5d3e-48fa-846f-23aa428fbcee"},"vehicle_type_id":"4","last_reported":1753114390,"current_range_meters":19200,"station_id":"ce4bhlh2rcd13ifvqgig","pricing_plan_id":"cebpf4jnsgd1na2vs0mg"},{"bike_id":"ddfd2492-3d9f-4d7a-9b8a-757b88335651","system_id":"levelo_inurba_marseille","lat":43.28001,"lon":5.41661,"is_reserved":false,"is_disabled":false,"rental_uris":{"android":"levelo://app?vid=ddfd2492-3d9f-4d7a-9b8a-757b88335651","ios":"levelo://app?vid=ddfd2492-3d9f-4d7a-9b8a-757b88335651"},"vehicle_type_id":"4","last_reported":1753114390,"current_range_meters":19200,"station_id":"ce4bho12rcd13ifvqh1g","pricing_plan_id":"cebpf4jnsgd1na2vs0mg"},{"bike_id":"b5bcbfaa-e7cf-4a3a-9568-23d40acb020e","system_id":"levelo_inurba_marseille","lat":43.29036,"lon":5.38653,"is_reserved":false,"is_disabled":false,"rental_uris":{"android":"levelo://app?vid=b5bcbfaa-e7cf-4a3a-9568-23d40acb020e","ios":"levelo://app?vid=b5bcbfaa-e7cf-4a3a-9568-23d40acb020e"},"vehicle_type_id":"4","last_reported":1753114390,"current_range_meters":19200,"station_id":"ce4bh4p2rcd13ifvqe0g","pricing_plan_id":"cebpf4jnsgd1na2vs0mg"},{"bike_id":"2ff165a3-4efe-4922-9358-ba744c17e1b7","system_id":"levelo_inurba_marseille","lat":43.29269,"lon":5.37633,"is_reserved":false,"is_disabled":false,"rental_uris":{"android":"levelo://app?vid=2ff165a3-4efe-4922-9358-ba744c17e1b7","ios":"levelo://app?vid=2ff165a3-4efe-4922-9358-ba744c17e1b7"},"vehicle_type_id":"4","last_reported":1753114390,"current_range_meters":19200,"station_id":"ce4bgi12rcd13ifvqb80","pricing_plan_id":"cebpf4jnsgd1na2vs0mg"},{"bike_id":"534098fe-a2b0-45be-a076-83fc2f5e28f9","system_id":"levelo_inurba_marseille","lat":43.32123,"lon":5.36781,"is_reserved":false,"is_disabled":false,"rental_uris":{"android":"levelo://app?vid=534098fe-a2b0-45be-a076-83fc2f5e28f9","ios":"levelo://app?vid=534098fe-a2b0-45be-a076-83fc2f5e28f9"},"vehicle_type_id":"4","last_reported":1753114390,"current_range_meters":19600,"station_id":"ce4bhrh2rcd13ifvqhug","pricing_plan_id":"cebpf4jnsgd1na2vs0mg"},{"bike_id":"ae526434-b1b3-4cf0-b9c7-9a4ea251d318","system_id":"levelo_inurba_marseille","lat":43.3105,"lon":5.38348,"is_reserved":false,"is_disabled":false,"rental_uris":{"android":"levelo://app?vid=ae526434-b1b3-4cf0-b9c7-9a4ea251d318","ios":"levelo://app?vid=ae526434-b1b3-4cf0-b9c7-9a4ea251d318"},"vehicle_type_id":"4","last_reported":1753114390,"current_range_meters":19600,"station_id":"ce4bgv92rcd13ifvqcr0","pricing_plan_id":"cebpf4jnsgd1na2vs0mg"},{"bike_id":"e5da96a9-a90f-4ac9-a648-ad53cb3946be","system_id":"levelo_inurba_marseille","lat":43.28358,"lon":5.38096,"is_reserved":false,"is_disabled":false,"rental_uris":{"android":"levelo://app?vid=e5da96a9-a90f-4ac9-a648-ad53cb3946be","ios":"levelo://app?vid=e5da96a9-a90f-4ac9-a648-ad53cb3946be"},"vehicle_type_id":"4","last_reported":1753114390,"current_range_meters":19200,"station_id":"ce4bh412rcd13ifvqdr0","pricing_plan_id":"cebpf4jnsgd1na2vs0mg"},{"bike_id":"c00ec1f1-e823-4b62-8160-25981a7dec69","system_id":"levelo_inurba_marseille","lat":43.283991,"lon":5.385954,"is_reserved":false,"is_disabled":false,"rental_uris":{"android":"levelo://app?vid=c00ec1f1-e823-4b62-8160-25981a7dec69","ios":"levelo://app?vid=c00ec1f1-e823-4b62-8160-25981a7dec69"},"vehicle_type_id":"4","last_reported":1753114390,"current_range_meters":19600,"station_id":"ce4bh492rcd13ifvqdvg","pricing_plan_id":"cebpf4jnsgd1na2vs0mg"},{"bike_id":"ce77ed30-76a6-46cf-94f3-a626fe24a481","system_id":"levelo_inurba_marseille","lat":43.24172,"lon":5.36392,"is_reserved":false,"is_disabled":false,"rental_uris":{"android":"levelo://app?vid=ce77ed30-76a6-46cf-94f3-a626fe24a481","ios":"levelo://app?vid=ce77ed30-76a6-46cf-94f3-a626fe24a481"},"vehicle_type_id":"4","last_reported":1753114390,"current_range_meters":19600,"station_id":"cpo36qri1sfpv3e86is0","pricing_plan_id":"cebpf4jnsgd1na2vs0mg"},{"bike_id":"02bda465-5730-4d42-a0d1-5ffc89217a3f","system_id":"levelo_inurba_marseille","lat":43.30658,"lon":5.38184,"is_reserved":false,"is_disabled":false,"rental_uris":{"android":"levelo://app?vid=02bda465-5730-4d42-a0d1-5ffc89217a3f","ios":"levelo://app?vid=02bda465-5730-4d42-a0d1-5ffc89217a3f"},"vehicle_type_id":"4","last_reported":1753114390,"current_range_meters":19600,"station_id":"","pricing_plan_id":"cebpf4jnsgd1na2vs0mg"},{"bike_id":"010eb6f6-220b-4025-9f98-dc12647d18f6","system_id":"levelo_inurba_marseille","lat":43.26946,"lon":5.38657,"is_reserved":false,"is_disabled":false,"rental_uris":{"android":"levelo://app?vid=010eb6f6-220b-4025-9f98-dc12647d18f6","ios":"levelo://app?vid=010eb6f6-220b-4025-9f98-dc12647d18f6"},"vehicle_type_id":"4","last_reported":1753114390,"current_range_meters":19600,"station_id":"ce4bhh92rcd13ifvqfh0","pricing_plan_id":"cebpf4jnsgd1na2vs0mg"},{"bike_id":"d05bc00b-7e16-4441-9e07-1ae48a2b4f5f","system_id":"levelo_inurba_marseille","lat":43.27493,"lon":5.42452,"is_reserved":false,"is_disabled":false,"rental_uris":{"android":"levelo://app?vid=d05bc00b-7e16-4441-9e07-1ae48a2b4f5f","ios":"levelo://app?vid=d05bc00b-7e16-4441-9e07-1ae48a2b4f5f"},"vehicle_type_id":"4","last_reported":1753114390,"current_range_meters":19600,"station_id":"ce4bhn92rcd13ifvqgrg","pricing_plan_id":"cebpf4jnsgd1na2vs0mg"},{"bike_id":"de5426ba-ae67-47a4-bece-c11c7065cd1e","system_id":"levelo_inurba_marseille","lat":43.2119,"lon":5.35078,"is_reserved":false,"is_disabled":false,"rental_uris":{"android":"levelo://app?vid=de5426ba-ae67-47a4-bece-c11c7065cd1e","ios":"levelo://app?vid=de5426ba-ae67-47a4-bece-c11c7065cd1e"},"vehicle_type_id":"4","last_reported":1753114390,"current_range_meters":19600,"station_id":"st_cvj6sg6p6f1abm77japg","pricing_plan_id":"cebpf4jnsgd1na2vs0mg"},{"bike_id":"dda96cde-9f78-4371-a72f-1d24145c396a","system_id":"levelo_inurba_marseille","lat":43.211916,"lon":5.350771,"is_reserved":false,"is_disabled":false,"rental_uris":{"android":"levelo://app?vid=dda96cde-9f78-4371-a72f-1d24145c396a","ios":"levelo://app?vid=dda96cde-9f78-4371-a72f-1d24145c396a"},"vehicle_type_id":"4","last_reported":1753114390,"current_range_meters":20000,"station_id":"st_cvj6sg6p6f1abm77japg","pricing_plan_id":"cebpf4jnsgd1na2vs0mg"},{"bike_id":"1d76d70f-2d5f-4bdb-8e77-059b3c40a824","system_id":"levelo_inurba_marseille","lat":43.295366,"lon":5.385616,"is_reserved":false,"is_disabled":false,"rental_uris":{"android":"levelo://app?vid=1d76d70f-2d5f-4bdb-8e77-059b3c40a824","ios":"levelo://app?vid=1d76d70f-2d5f-4bdb-8e77-059b3c40a824"},"vehicle_type_id":"4","last_reported":1753114390,"current_range_meters":20000,"station_id":"ce4bgih2rcd13ifvqba0","pricing_plan_id":"cebpf4jnsgd1na2vs0mg"},{"bike_id":"f8ebe74b-4441-4edb-8298-fc28b5ac4988","system_id":"levelo_inurba_marseille","lat":43.31884,"lon":5.40734,"is_reserved":false,"is_disabled":false,"rental_uris":{"android":"levelo://app?vid=f8ebe74b-4441-4edb-8298-fc28b5ac4988","ios":"levelo://app?vid=f8ebe74b-4441-4edb-8298-fc28b5ac4988"},"vehicle_type_id":"4","last_reported":1753114390,"current_range_meters":19600,"station_id":"ce4bhq12rcd13ifvqhig","pricing_plan_id":"cebpf4jnsgd1na2vs0mg"},{"bike_id":"1b201660-08e0-4e35-8269-4929ff07affc","system_id":"levelo_inurba_marseille","lat":43.21743,"lon":5.34603,"is_reserved":false,"is_disabled":false,"rental_uris":{"android":"levelo://app?vid=1b201660-08e0-4e35-8269-4929ff07affc","ios":"levelo://app?vid=1b201660-08e0-4e35-8269-4929ff07affc"},"vehicle_type_id":"4","last_reported":1753114390,"current_range_meters":20000,"station_id":"st_cvj6r9ubvosntc0bgbag","pricing_plan_id":"cebpf4jnsgd1na2vs0mg"},{"bike_id":"f5767321-03ff-4c6c-8a78-ad57e022e0a0","system_id":"levelo_inurba_marseille","lat":43.29027,"lon":5.38128,"is_reserved":false,"is_disabled":true,"rental_uris":{"android":"levelo://app?vid=f5767321-03ff-4c6c-8a78-ad57e022e0a0","ios":"levelo://app?vid=f5767321-03ff-4c6c-8a78-ad57e022e0a0"},"vehicle_type_id":"4","last_reported":1753114390,"current_range_meters":20000,"station_id":"ce4bh4p2rcd13ifvqe1g","pricing_plan_id":"cebpf4jnsgd1na2vs0mg"},{"bike_id":"5153e984-1abc-4d5b-91ef-21249865a3e6","system_id":"levelo_inurba_marseille","lat":43.21198,"lon":5.35066,"is_reserved":false,"is_disabled":false,"rental_uris":{"android":"levelo://app?vid=5153e984-1abc-4d5b-91ef-21249865a3e6","ios":"levelo://app?vid=5153e984-1abc-4d5b-91ef-21249865a3e6"},"vehicle_type_id":"4","last_reported":1753114390,"current_range_meters":20000,"station_id":"st_cvj6sg6p6f1abm77japg","pricing_plan_id":"cebpf4jnsgd1na2vs0mg"},{"bike_id":"64a2f514-4942-458d-b3fc-7d7fd0dfd1b1","system_id":"levelo_inurba_marseille","lat":43.21202,"lon":5.3507,"is_reserved":false,"is_disabled":false,"rental_uris":{"android":"levelo://app?vid=64a2f514-4942-458d-b3fc-7d7fd0dfd1b1","ios":"levelo://app?vid=64a2f514-4942-458d-b3fc-7d7fd0dfd1b1"},"vehicle_type_id":"4","last_reported":1753114390,"current_range_meters":20000,"station_id":"st_cvj6sg6p6f1abm77japg","pricing_plan_id":"cebpf4jnsgd1na2vs0mg"},{"bike_id":"fef172f6-618e-4855-b15a-1d2d029a7d1f","system_id":"levelo_inurba_marseille","lat":43.26558,"lon":5.37286,"is_reserved":false,"is_disabled":false,"rental_uris":{"android":"levelo://app?vid=fef172f6-618e-4855-b15a-1d2d029a7d1f","ios":"levelo://app?vid=fef172f6-618e-4855-b15a-1d2d029a7d1f"},"vehicle_type_id":"4","last_reported":1753114390,"current_range_meters":20000,"station_id":"ce4bhg12rcd13ifvqf70","pricing_plan_id":"cebpf4jnsgd1na2vs0mg"},{"bike_id":"6b80e8b3-946c-4946-8624-4e3f642c9dbd","system_id":"levelo_inurba_marseille","lat":43.28001,"lon":5.41666,"is_reserved":false,"is_disabled":false,"rental_uris":{"android":"levelo://app?vid=6b80e8b3-946c-4946-8624-4e3f642c9dbd","ios":"levelo://app?vid=6b80e8b3-946c-4946-8624-4e3f642c9dbd"},"vehicle_type_id":"4","last_reported":1753114390,"current_range_meters":20000,"station_id":"ce4bho12rcd13ifvqh1g","pricing_plan_id":"cebpf4jnsgd1na2vs0mg"},{"bike_id":"90f092d5-bc40-495f-84e3-59d8c2a39182","system_id":"levelo_inurba_marseille","lat":43.30213,"lon":5.39461,"is_reserved":false,"is_disabled":false,"rental_uris":{"android":"levelo://app?vid=90f092d5-bc40-495f-84e3-59d8c2a39182","ios":"levelo://app?vid=90f092d5-bc40-495f-84e3-59d8c2a39182"},"vehicle_type_id":"4","last_reported":1753114390,"current_range_meters":20400,"station_id":"ce4bh0p2rcd13ifvqd70","pricing_plan_id":"cebpf4jnsgd1na2vs0mg"},{"bike_id":"e730d36a-13f0-49bb-86fb-4a20da2e6767","system_id":"levelo_inurba_marseille","lat":43.24176,"lon":5.36397,"is_reserved":false,"is_disabled":false,"rental_uris":{"android":"levelo://app?vid=e730d36a-13f0-49bb-86fb-4a20da2e6767","ios":"levelo://app?vid=e730d36a-13f0-49bb-86fb-4a20da2e6767"},"vehicle_type_id":"4","last_reported":1753114390,"current_range_meters":20400,"station_id":"cpo36qri1sfpv3e86is0","pricing_plan_id":"cebpf4jnsgd1na2vs0mg"},{"bike_id":"e80f062d-07e0-4564-b2a0-f9c94e191f16","system_id":"levelo_inurba_marseille","lat":43.26197,"lon":5.37441,"is_reserved":false,"is_disabled":false,"rental_uris":{"android":"levelo://app?vid=e80f062d-07e0-4564-b2a0-f9c94e191f16","ios":"levelo://app?vid=e80f062d-07e0-4564-b2a0-f9c94e191f16"},"vehicle_type_id":"4","last_reported":1753114390,"current_range_meters":20400,"station_id":"ce4bhgp2rcd13ifvqfc0","pricing_plan_id":"cebpf4jnsgd1na2vs0mg"},{"bike_id":"7a3e8286-d23a-436c-a229-6ffa0c627ba2","system_id":"levelo_inurba_marseille","lat":43.21196,"lon":5.35071,"is_reserved":false,"is_disabled":false,"rental_uris":{"android":"levelo://app?vid=7a3e8286-d23a-436c-a229-6ffa0c627ba2","ios":"levelo://app?vid=7a3e8286-d23a-436c-a229-6ffa0c627ba2"},"vehicle_type_id":"4","last_reported":1753114390,"current_range_meters":20400,"station_id":"st_cvj6sg6p6f1abm77japg","pricing_plan_id":"cebpf4jnsgd1na2vs0mg"},{"bike_id":"2975a10e-052a-4ed4-8afb-b52549159b49","system_id":"levelo_inurba_marseille","lat":43.33024,"lon":5.37487,"is_reserved":false,"is_disabled":false,"rental_uris":{"android":"levelo://app?vid=2975a10e-052a-4ed4-8afb-b52549159b49","ios":"levelo://app?vid=2975a10e-052a-4ed4-8afb-b52549159b49"},"vehicle_type_id":"4","last_reported":1753114390,"current_range_meters":20400,"station_id":"","pricing_plan_id":"cebpf4jnsgd1na2vs0mg"},{"bike_id":"1367b248-8421-4a8a-b4ce-b5b27d626155","system_id":"levelo_inurba_marseille","lat":43.28033,"lon":5.36945,"is_reserved":false,"is_disabled":false,"rental_uris":{"android":"levelo://app?vid=1367b248-8421-4a8a-b4ce-b5b27d626155","ios":"levelo://app?vid=1367b248-8421-4a8a-b4ce-b5b27d626155"},