{"last_updated":1738802743,"ttl":60,"version":"2.2","data":{"bikes":[{"bike_id":"f2b9350d-5244-4ead-9684-289d3a400861","system_id":"levelo_inurba_marseille","lat":43.28709,"lon":5.36088,"is_reserved":false,"is_disabled":false,"rental_uris":{"android":"levelo://app?vid=f2b9350d-5244-4ead-9684-289d3a400861","ios":"levelo://app?vid=f2b9350d-5244-4ead-9684-289d3a400861"},"vehicle_type_id":"4","last_reported":1738802743,"current_range_meters":33600,"station_id":"cki0cbj6b192h4jlfktg","pricing_plan_id":"cebpf4jnsgd1na2vs0mg"},{"bike_id":"5c30c709-e546-4a60-a782-8ef25eddc77e","system_id":"levelo_inurba_marseille","lat":43.3042,"lon":5.41288,"is_reserved":false,"is_disabled":false,"rental_uris":{"android":"levelo://app?vid=5c30c709-e546-4a60-a782-8ef25eddc77e","ios":"levelo://app?vid=5c30c709-e546-4a60-a782-8ef25eddc77e"},"vehicle_type_id":"4","last_reported":1738802743,"current_range_meters":38800,"station_id":"ce4bhop2rcd13ifvqh8g","pricing_plan_id":"cebpf4jnsgd1na2vs0mg"},{"bike_id":"4927017d-00a4-41ad-adcc-553dace88671","system_id":"levelo_inurba_marseille","lat":43.33605,"lon":5.41021,"is_reserved":false,"is_disabled":true,"rental_uris":{"android":"levelo://app?vid=4927017d-00a4-41ad-adcc-553dace88671","ios":"levelo://app?vid=4927017d-00a4-41ad-adcc-553dace88671"},"vehicle_type_id":"4","last_reported":1738802743,"current_range_meters":38800,"station_id":"ce4bhqh2rcd13ifvqhmg","pricing_plan_id":"cebpf4jnsgd1na2vs0mg"},{"bike_id":"b7e5c29f-226b-4196-b946-d360cdc48734","system_id":"levelo_inurba_marseille","lat":43.27949,"lon":5.41046,"is_reserved":false,"is_disabled":false,"rental_uris":{"android":"levelo://app?vid=b7e5c29f-226b-4196-b946-d360cdc48734","ios":"levelo://app?vid=b7e5c29f-226b-4196-b946-d360cdc48734"},"vehicle_type_id":"4","last_reported":1738802743,"current_range_meters":16400,"station_id":"ce4bhnp2rcd13ifvqh0g","pricing_plan_id":"cebpf4jnsgd1na2vs0mg"},{"bike_id":"8c944e44-bfd5-44d6-ac5c-2b2bd433c5b2","system_id":"levelo_inurba_marseille","lat":43.2469,"lon":5.38153,"is_reserved":false,"is_disabled":false,"rental_uris":{"android":"levelo://app?vid=8c944e44-bfd5-44d6-ac5c-2b2bd433c5b2","ios":"levelo://app?vid=8c944e44-bfd5-44d6-ac5c-2b2bd433c5b2"},"vehicle_type_id":"4","last_reported":1738802743,"current_range_meters":6400,"station_id":"ce4bhih2rcd13ifvqfr0","pricing_plan_id":"cebpf4jnsgd1na2vs0mg"},{"bike_id":"a8fa3984-d920-418c-9f2f-f24bfb9eab80","system_id":"levelo_inurba_marseille","lat":43.29041,"lon":5.35918,"is_reserved":false,"is_disabled":false,"rental_uris":{"android":"levelo://app?vid=a8fa3984-d920-418c-9f2f-f24bfb9eab80","ios":"levelo://app?vid=a8fa3984-d920-418c-9f2f-f24bfb9eab80"},"vehicle_type_id":"4","last_reported":1738802743,"current_range_meters":37600,"station_id":"ce4bha92rcd13ifvqeg0","pricing_plan_id":"cebpf4jnsgd1na2vs0mg"},{"bike_id":"7d25c0ce-35d9-4d2c-aecd-cfd223e68d83","system_id":"levelo_inurba_marseille","lat":43.28003,"lon":5.41648,"is_reserved":false,"is_disabled":false,"rental_uris":{"android":"levelo://app?vid=7d25c0ce-35d9-4d2c-aecd-cfd223e68d83","ios":"levelo://app?vid=7d25c0ce-35d9-4d2c-aecd-cfd223e68d83"},"vehicle_type_id":"4","last_reported":1738802743,"current_range_meters":17200,"station_id":"ce4bho12rcd13ifvqh1g","pricing_plan_id":"cebpf4jnsgd1na2vs0mg"},{"bike_id":"d56f05d9-400d-45d3-942d-1b60a36d7286","system_id":"levelo_inurba_marseille","lat":43.30777,"lon":5.37631,"is_reserved":false,"is_disabled":false,"rental_uris":{"android":"levelo://app?vid=d56f05d9-400d-45d3-942d-1b60a36d7286","ios":"levelo://app?vid=d56f05d9-400d-45d3-942d-1b60a36d7286"},"vehicle_type_id":"4","last_reported":1738802743,"current_range_meters":37600,"station_id":"ce4bgv92rcd13ifvqcq0","pricing_plan_id":"cebpf4jnsgd1na2vs0mg"},{"bike_id":"9ae42d59-dc0f-42f7-88f6-c93b8c42961e","system_id":"levelo_inurba_marseille","lat":43.28936,"lon":5.36636,"is_reserved":false,"is_disabled":false,"rental_uris":{"android":"levelo://app?vid=9ae42d59-dc0f-42f7-88f6-c93b8c42961e","ios":"levelo://app?vid=9ae42d59-dc0f-42f7-88f6-c93b8c42961e"},"vehicle_type_id":"4","last_reported":1738802743,"current_range_meters":22400,"station_id":"ce4bhap2rcd13ifvqek0","pricing_plan_id":"cebpf4jnsgd1na2vs0mg"},{"bike_id":"5e9f9825-c8ef-4900-b8eb-698cddaf40b1","system_id":"levelo_inurba_marseille","lat":43.29941,"lon":5.36557,"is_reserved":false,"is_disabled":false,"rental_uris":{"android":"levelo://app?vid=5e9f9825-c8ef-4900-b8eb-698cddaf40b1","ios":"levelo://app?vid=5e9f9825-c8ef-4900-b8eb-698cddaf40b1"},"vehicle_type_id":"4","last_reported":1738802743,"current_range_meters":27600,"station_id":"ce4bgm92rcd13ifvqbr0","pricing_plan_id":"cebpf4jnsgd1na2vs0mg"},{"bike_id":"695c8903-2a1f-4f36-ae79-da101aaac2a2","system_id":"levelo_inurba_marseille","lat":43.23189,"lon":5.39994,"is_reserved":false,"is_disabled":false,"rental_uris":{"android":"levelo://app?vid=695c8903-2a1f-4f36-ae79-da101aaac2a2","ios":"levelo://app?vid=695c8903-2a1f-4f36-ae79-da101aaac2a2"},"vehicle_type_id":"4","last_reported":1738802743,"current_range_meters":19200,"station_id":"ce4bhn12rcd13ifvqgqg","pricing_plan_id":"cebpf4jnsgd1na2vs0mg"},{"bike_id":"60efba71-1f79-4331-8e03-d1cbb62a05fd","system_id":"levelo_inurba_marseille","lat":43.23198,"lon":5.39972,"is_reserved":false,"is_disabled":false,"rental_uris":{"android":"levelo://app?vid=60efba71-1f79-4331-8e03-d1cbb62a05fd","ios":"levelo://app?vid=60efba71-1f79-4331-8e03-d1cbb62a05fd"},"vehicle_type_id":"4","last_reported":1738802743,"current_range_meters":19600,"station_id":"ce4bhn12rcd13ifvqgqg","pricing_plan_id":"cebpf4jnsgd1na2vs0mg"},{"bike_id":"16f8a4d4-b726-4a64-8c50-a5239f304bf4","system_id":"levelo_inurba_marseille","lat":43.30514,"lon":5.36532,"is_reserved":false,"is_disabled":false,"rental_uris":{"android":"levelo://app?vid=16f8a4d4-b726-4a64-8c50-a5239f304bf4","ios":"levelo://app?vid=16f8a4d4-b726-4a64-8c50-a5239f304bf4"},"vehicle_type_id":"4","last_reported":1738802743,"current_range_meters":38800,"station_id":"ce4bgs12rcd13ifvqcag","pricing_plan_id":"cebpf4jnsgd1na2vs0mg"},{"bike_id":"57063e1f-c82d-4dec-a47a-2d22341b0a6c","system_id":"levelo_inurba_marseille","lat":43.30766,"lon":5.37659,"is_reserved":false,"is_disabled":false,"rental_uris":{"android":"levelo://app?vid=57063e1f-c82d-4dec-a47a-2d22341b0a6c","ios":"levelo://app?vid=57063e1f-c82d-4dec-a47a-2d22341b0a6c"},"vehicle_type_id":"4","last_reported":1738802743,"current_range_meters":38400,"station_id":"ce4bgv92rcd13ifvqcq0","pricing_plan_id":"cebpf4jnsgd1na2vs0mg"},{"bike_id":"2d3b19a1-1de6-497b-8338-8d32b0d15521","system_id":"levelo_inurba_marseille","lat":43.30598,"lon":5.3726,"is_reserved":false,"is_disabled":false,"rental_uris":{"android":"levelo://app?vid=2d3b19a1-1de6-497b-8338-8d32b0d15521","ios":"levelo://app?vid=2d3b19a1-1de6-497b-8338-8d32b0d15521"},"vehicle_type_id":"4","last_reported":1738802743,"current_range_meters":8400,"station_id":"ce4bgqh2rcd13ifvqc4g","pricing_plan_id":"cebpf4jnsgd1na2vs0mg"},{"bike_id":"a8544cd9-a18d-422a-9580-7b05d2524da6","system_id":"levelo_inurba_marseille","lat":43.287138,"lon":5.379391,"is_reserved":false,"is_disabled":false,"rental_uris":{"android":"levelo://app?vid=a8544cd9-a18d-422a-9580-7b05d2524da6","ios":"levelo://app?vid=a8544cd9-a18d-422a-9580-7b05d2524da6"},"vehicle_type_id":"4","last_reported":1738802743,"current_range_meters":35600,"station_id":"ce4bh9p2rcd13ifvqec0","pricing_plan_id":"cebpf4jnsgd1na2vs0mg"},{"bike_id":"1f891960-b66e-4bbe-8d84-bb5481980c0c","system_id":"levelo_inurba_marseille","lat":43.29415,"lon":5.38625,"is_reserved":false,"is_disabled":false,"rental_uris":{"android":"levelo://app?vid=1f891960-b66e-4bbe-8d84-bb5481980c0c","ios":"levelo://app?vid=1f891960-b66e-4bbe-8d84-bb5481980c0c"},"vehicle_type_id":"4","last_reported":1738802743,"current_range_meters":23200,"station_id":"ce4bh2h2rcd13ifvqdh0","pricing_plan_id":"cebpf4jnsgd1na2vs0mg"},{"bike_id":"96559f85-f0b0-4a89-9803-99a731c200eb","system_id":"levelo_inurba_marseille","lat":43.31352,"lon":5.38493,"is_reserved":false,"is_disabled":false,"rental_uris":{"android":"levelo://app?vid=96559f85-f0b0-4a89-9803-99a731c200eb","ios":"levelo://app?vid=96559f85-f0b0-4a89-9803-99a731c200eb"},"vehicle_type_id":"4","last_reported":1738802743,"current_range_meters":36400,"station_id":"ce4bgt92rcd13ifvqcf0","pricing_plan_id":"cebpf4jnsgd1na2vs0mg"},{"bike_id":"c47151b7-6300-4d10-af3b-e7f427fdce45","system_id":"levelo_inurba_marseille","lat":43.29694,"lon":5.37689,"is_reserved":false,"is_disabled":true,"rental_uris":{"android":"levelo://app?vid=c47151b7-6300-4d10-af3b-e7f427fdce45","ios":"levelo://app?vid=c47151b7-6300-4d10-af3b-e7f427fdce45"},"vehicle_type_id":"4","last_reported":1738802743,"current_range_meters":22800,"station_id":"ce4bgkh2rcd13ifvqbl0","pricing_plan_id":"cebpf4jnsgd1na2vs0mg"},{"bike_id":"824cbd66-f15f-4d94-9a57-5cc66d325a14","system_id":"levelo_inurba_marseille","lat":43.3053,"lon":5.36531,"is_reserved":false,"is_disabled":false,"rental_uris":{"android":"levelo://app?vid=824cbd66-f15f-4d94-9a57-5cc66d325a14","ios":"levelo://app?vid=824cbd66-f15f-4d94-9a57-5cc66d325a14"},"vehicle_type_id":"4","last_reported":1738802743,"current_range_meters":38800,"station_id":"ce4bgs12rcd13ifvqcag","pricing_plan_id":"cebpf4jnsgd1na2vs0mg"},{"bike_id":"1a5a485e-b6bb-47e8-8052-7790998d814a","system_id":"levelo_inurba_marseille","lat":43.251123,"lon":5.403304,"is_reserved":false,"is_disabled":false,"rental_uris":{"android":"levelo://app?vid=1a5a485e-b6bb-47e8-8052-7790998d814a","ios":"levelo://app?vid=1a5a485e-b6bb-47e8-8052-7790998d814a"},"vehicle_type_id":"4","last_reported":1738802743,"current_range_meters":18000,"station_id":"ce4bhlh2rcd13ifvqgig","pricing_plan_id":"cebpf4jnsgd1na2vs0mg"},{"bike_id":"af7d62a3-9dd4-4a14-8ce3-460ca17c81d5","system_id":"levelo_inurba_marseille","lat":43.33024,"lon":5.39007,"is_reserved":false,"is_disabled":false,"rental_uris":{"android":"levelo://app?vid=af7d62a3-9dd4-4a14-8ce3-460ca17c81d5","ios":"levelo://app?vid=af7d62a3-9dd4-4a14-8ce3-460ca17c81d5"},"vehicle_type_id":"4","last_reported":1738802743,"current_range_meters":28000,"station_id":"ce4bhr92rcd13ifvqhrg","pricing_plan_id":"cebpf4jnsgd1na2vs0mg"},{"bike_id":"aa0d92f4-82df-4948-9930-90d93b687eba","system_id":"levelo_inurba_marseille","lat":43.25106,"lon":5.40355,"is_reserved":false,"is_disabled":false,"rental_uris":{"android":"levelo://app?vid=aa0d92f4-82df-4948-9930-90d93b687eba","ios":"levelo://app?vid=aa0d92f4-82df-4948-9930-90d93b687eba"},"vehicle_type_id":"4","last_reported":1738802743,"current_range_meters":8400,"station_id":"ce4bhlh2rcd13ifvqgig","pricing_plan_id":"cebpf4jnsgd1na2vs0mg"},{"bike_id":"7eaacd34-10f9-4246-8aa1-4a22e07a7c06","system_id":"levelo_inurba_marseille","lat":43.31628,"lon":5.37365,"is_reserved":false,"is_disabled":false,"rental_uris":{"android":"levelo://app?vid=7eaacd34-10f9-4246-8aa1-4a22e07a7c06","ios":"levelo://app?vid=7eaacd34-10f9-4246-8aa1-4a22e07a7c06"},"vehicle_type_id":"4","last_reported":1738802743,"current_range_meters":24800,"station_id":"","pricing_plan_id":"cebpf4jnsgd1na2vs0mg"},{"bike_id":"b85d0f36-4ceb-47ae-b932-72d8372ef081","system_id":"levelo_inurba_marseille","lat":43.23194,"lon":5.39978,"is_reserved":false,"is_disabled":false,"rental_uris":{"android":"levelo://app?vid=b85d0f36-4ceb-47ae-b932-72d8372ef081","ios":"levelo://app?vid=b85d0f36-4ceb-47ae-b932-72d8372ef081"},"vehicle_type_id":"4","last_reported":1738802743,"current_range_meters":38800,"station_id":"ce4bhn12rcd13ifvqgqg","pricing_plan_id":"cebpf4jnsgd1na2vs0mg"},{"bike_id":"695c8159-ac4a-408d-a3d5-26e203af1693","system_id":"levelo_inurba_marseille","lat":43.33013,"lon":5.38988,"is_reserved":false,"is_disabled":false,"rental_uris":{"android":"levelo://app?vid=695c8159-ac4a-408d-a3d5-26e203af1693","ios":"levelo://app?vid=695c8159-ac4a-408d-a3d5-26e203af1693"},"vehicle_type_id":"4","last_reported":1738802743,"current_range_meters":36000,"station_id":"ce4bhr92rcd13ifvqhrg","pricing_plan_id":"cebpf4jnsgd1na2vs0mg"},{"bike_id":"19cfb078-9854-4658-91b7-e1746e55420c","system_id":"levelo_inurba_marseille","lat":43.31538,"lon":5.38059,"is_reserved":false,"is_disabled":false,"rental_uris":{"android":"levelo://app?vid=19cfb078-9854-4658-91b7-e1746e55420c","ios":"levelo://app?vid=19cfb078-9854-4658-91b7-e1746e55420c"},"vehicle_type_id":"4","last_reported":1738802743,"current_range_meters":39200,"station_id":"ce4bhsp2rcd13ifvqi50","pricing_plan_id":"cebpf4jnsgd1na2vs0mg"},{"bike_id":"321a7fe4-6953-4c8f-9479-aca227879548","system_id":"levelo_inurba_marseille","lat":43.23945,"lon":5.36641,"is_reserved":false,"is_disabled":false,"rental_uris":{"android":"levelo://app?vid=321a7fe4-6953-4c8f-9479-aca227879548","ios":"levelo://app?vid=321a7fe4-6953-4c8f-9479-aca227879548"},"vehicle_type_id":"4","last_reported":1738802743,"current_range_meters":37600,"station_id":"ce4bhi12rcd13ifvqfp0","pricing_plan_id":"cebpf4jnsgd1na2vs0mg"},{"bike_id":"11c556d6-c6b7-4156-aeb0-e99ce30fdcd7","system_id":"levelo_inurba_marseille","lat":43.248076,"lon":5.374514,"is_reserved":false,"is_disabled":false,"rental_uris":{"android":"levelo://app?vid=11c556d6-c6b7-4156-aeb0-e99ce30fdcd7","ios":"levelo://app?vid=11c556d6-c6b7-4156-aeb0-e99ce30fdcd7"},"vehicle_type_id":"4","last_reported":1738802743,"current_range_meters":20800,"station_id":"ce4bhgh2rcd13ifvqfb0","pricing_plan_id":"cebpf4jnsgd1na2vs0mg"},{"bike_id":"bd42563d-6ded-4a27-8446-f13fff32889d","system_id":"levelo_inurba_marseille","lat":43.31753,"lon":5.39005,"is_reserved":false,"is_disabled":false,"rental_uris":{"android":"levelo://app?vid=bd42563d-6ded-4a27-8446-f13fff32889d","ios":"levelo://app?vid=bd42563d-6ded-4a27-8446-f13fff32889d"},"vehicle_type_id":"4","last_reported":1738802743,"current_range_meters":39200,"station_id":"ce4bhqp2rcd13ifvqhng","pricing_plan_id":"cebpf4jnsgd1na2vs0mg"},{"bike_id":"f7fb2d19-273e-48be-836c-c6cdf3cdce36","system_id":"levelo_inurba_marseille","lat":43.279,"lon":5.38004,"is_reserved":false,"is_disabled":false,"rental_uris":{"android":"levelo://app?vid=f7fb2d19-273e-48be-836c-c6cdf3cdce36","ios":"levelo://app?vid=f7fb2d19-273e-48be-836c-c6cdf3cdce36"},"vehicle_type_id":"4","last_reported":1738802743,"current_range_meters":38800,"station_id":"ce4bhf92rcd13ifvqf50","pricing_plan_id":"cebpf4jnsgd1na2vs0mg"},{"bike_id":"b1513fdb-67c0-4fae-a62f-8aa36b850e04","system_id":"levelo_inurba_marseille","lat":43.27952,"lon":5.41046,"is_reserved":false,"is_disabled":false,"rental_uris":{"android":"levelo://app?vid=b1513fdb-67c0-4fae-a62f-8aa36b850e04","ios":"levelo://app?vid=b1513fdb-67c0-4fae-a62f-8aa36b850e04"},"vehicle_type_id":"4","last_reported":1738802743,"current_range_meters":13600,"station_id":"ce4bhnp2rcd13ifvqh0g","pricing_plan_id":"cebpf4jnsgd1na2vs0mg"},{"bike_id":"a6ba5ef6-5b99-47d9-acea-ad62a4cd0a59","system_id":"levelo_inurba_marseille","lat":43.2657,"lon":5.39207,"is_reserved":false,"is_disabled":false,"rental_uris":{"android":"levelo://app?vid=a6ba5ef6-5b99-47d9-acea-ad62a4cd0a59","ios":"levelo://app?vid=a6ba5ef6-5b99-47d9-acea-ad62a4cd0a59"},"vehicle_type_id":"4","last_reported":1738802743,"current_range_meters":36800,"station_id":"","pricing_plan_id":"cebpf4jnsgd1na2vs0mg"},{"bike_id":"85506d97-0f87-4df9-ad07-8dd2dedad0b3","system_id":"levelo_inurba_marseille","lat":43.27209,"lon":5.39223,"is_reserved":false,"is_disabled":true,"rental_uris":{"android":"levelo://app?vid=85506d97-0f87-4df9-ad07-8dd2dedad0b3","ios":"levelo://app?vid=85506d97-0f87-4df9-ad07-8dd2dedad0b3"},"vehicle_type_id":"4","last_reported":1738802743,"current_range_meters":36000,"station_id":"ce4bhhp2rcd13ifvqfm0","pricing_plan_id":"cebpf4jnsgd1na2vs0mg"},{"bike_id":"a1a7079b-68b5-45ca-9af8-b6bc9f7cd559","system_id":"levelo_inurba_marseille","lat":43.22932,"lon":5.35376,"is_reserved":false,"is_disabled":false,"rental_uris":{"android":"levelo://app?vid=a1a7079b-68b5-45ca-9af8-b6bc9f7cd559","ios":"levelo://app?vid=a1a7079b-68b5-45ca-9af8-b6bc9f7cd559"},"vehicle_type_id":"4","last_reported":1738802743,"current_range_meters":38800,"station_id":"cpo3532slgdg3j2ikp40","pricing_plan_id":"cebpf4jnsgd1na2vs0mg"},{"bike_id":"018b4378-f735-4ba5-8db2-1d214629c8c9","system_id":"levelo_inurba_marseille","lat":43.30439,"lon":5.38886,"is_reserved":false,"is_disabled":false,"rental_uris":{"android":"levelo://app?vid=018b4378-f735-4ba5-8db2-1d214629c8c9","ios":"levelo://app?vid=018b4378-f735-4ba5-8db2-1d214629c8c9"},"vehicle_type_id":"4","last_reported":1738802743,"current_range_meters":39200,"station_id":"ce4bgk12rcd13ifvqbi0","pricing_plan_id":"cebpf4jnsgd1na2vs0mg"},{"bike_id":"b2660fa8-4e11-4fe9-a0db-a5dbdd15312e","system_id":"levelo_inurba_marseille","lat":43.24383,"lon":5.37065,"is_reserved":false,"is_disabled":false,"rental_uris":{"android":"levelo://app?vid=b2660fa8-4e11-4fe9-a0db-a5dbdd15312e","ios":"levelo://app?vid=b2660fa8-4e11-4fe9-a0db-a5dbdd15312e"},"vehicle_type_id":"4","last_reported":1738802743,"current_range_meters":7200,"station_id":"ce4bhhh2rcd13ifvqfk0","pricing_plan_id":"cebpf4jnsgd1na2vs0mg"},{"bike_id":"db5a7b63-0d80-4388-9438-8f703cbdcc3a","system_id":"levelo_inurba_marseille","lat":43.31115,"lon":5.37758,"is_reserved":false,"is_disabled":false,"rental_uris":{"android":"levelo://app?vid=db5a7b63-0d80-4388-9438-8f703cbdcc3a","ios":"levelo://app?vid=db5a7b63-0d80-4388-9438-8f703cbdcc3a"},"vehicle_type_id":"4","last_reported":1738802743,"current_range_meters":14400,"station_id":"ce4bgt92rcd13ifvqcg0","pricing_plan_id":"cebpf4jnsgd1na2vs0mg"},{"bike_id":"9bed730f-1adf-4444-a5ac-fa2d282ef048","system_id":"levelo_inurba_marseille","lat":43.30802,"lon":5.43521,"is_reserved":false,"is_disabled":false,"rental_uris":{"android":"levelo://app?vid=9bed730f-1adf-4444-a5ac-fa2d282ef048","ios":"levelo://app?vid=9bed730f-1adf-4444-a5ac-fa2d282ef048"},"vehicle_type_id":"4","last_reported":1738802743,"current_range_meters":38800,"station_id":"ce4bhph2rcd13ifvqheg","pricing_plan_id":"cebpf4jnsgd1na2vs0mg"},{"bike_id":"90c4c78b-e4a7-4853-a5ee-228a6bb5a7ce","system_id":"levelo_inurba_marseille","lat":43.29025,"lon":5.37567,"is_reserved":false,"is_disabled":true,"rental_uris":{"android":"levelo://app?vid=90c4c78b-e4a7-4853-a5ee-228a6bb5a7ce","ios":"levelo://app?vid=90c4c78b-e4a7-4853-a5ee-228a6bb5a7ce"},"vehicle_type_id":"4","last_reported":1738802743,"current_range_meters":39200,"station_id":"ce4bh692rcd13ifvqe90","pricing_plan_id":"cebpf4jnsgd1na2vs0mg"},{"bike_id":"b0b70dbd-bdde-4326-96ee-f00c6aa1d2d8","system_id":"levelo_inurba_marseille","lat":43.33586,"lon":5.41022,"is_reserved":false,"is_disabled":false,"rental_uris":{"android":"levelo://app?vid=b0b70dbd-bdde-4326-96ee-f00c6aa1d2d8","ios":"levelo://app?vid=b0b70dbd-bdde-4326-96ee-f00c6aa1d2d8"},"vehicle_type_id":"4","last_reported":1738802743,"current_range_meters":26800,"station_id":"ce4bhqh2rcd13ifvqhmg","pricing_plan_id":"cebpf4jnsgd1na2vs0mg"},{"bike_id":"f423adf0-93aa-4c47-9d8a-b1e2e7e85005","system_id":"levelo_inurba_marseille","lat":43.28485,"lon":5.35022,"is_reserved":false,"is_disabled":true,"rental_uris":{"android":"levelo://app?vid=f423adf0-93aa-4c47-9d8a-b1e2e7e85005","ios":"levelo://app?vid=f423adf0-93aa-4c47-9d8a-b1e2e7e85005"},"vehicle_type_id":"4","last_reported":1738802743,"current_range_meters":9200,"station_id":"","pricing_plan_id":"cebpf4jnsgd1na2vs0mg"},{"bike_id":"770db6e9-cd74-4bd2-9d00-237aaff5d805","system_id":"levelo_inurba_marseille","lat":43.31171,"lon":5.38717,"is_reserved":false,"is_disabled":false,"rental_uris":{"android":"levelo://app?vid=770db6e9-cd74-4bd2-9d00-237aaff5d805","ios":"levelo://app?vid=770db6e9-cd74-4bd2-9d00-237aaff5d805"},"vehicle_type_id":"4","last_reported":1738802743,"current_range_meters":39200,"station_id":"ce4bgv12rcd13ifvqcp0","pricing_plan_id":"cebpf4jnsgd1na2vs0mg"},{"bike_id":"28e814d5-4407-4077-a3f3-b04d77aefc7f","system_id":"levelo_inurba_marseille","lat":43.2861,"lon":5.35098,"is_reserved":false,"is_disabled":false,"rental_uris":{"android":"levelo://app?vid=28e814d5-4407-4077-a3f3-b04d77aefc7f","ios":"levelo://app?vid=28e814d5-4407-4077-a3f3-b04d77aefc7f"},"vehicle_type_id":"4","last_reported":1738802743,"current_range_meters":14000,"station_id":"ce4bhch2rcd13ifvqeug","pricing_plan_id":"cebpf4jnsgd1na2vs0mg"},{"bike_id":"31da273c-2d88-464d-8eff-b87d306a408c","system_id":"levelo_inurba_marseille","lat":43.29985,"lon":5.41301,"is_reserved":false,"is_disabled":false,"rental_uris":{"android":"levelo://app?vid=31da273c-2d88-464d-8eff-b87d306a408c","ios":"levelo://app?vid=31da273c-2d88-464d-8eff-b87d306a408c"},"vehicle_type_id":"4","last_reported":1738802743,"current_range_meters":39200,"station_id":"ce4bhp12rcd13ifvqh9g","pricing_plan_id":"cebpf4jnsgd1na2vs0mg"},{"bike_id":"c499befc-3cea-4716-83ce-726482559d5e","system_id":"levelo_inurba_marseille","lat":43.28496,"lon":5.38356,"is_reserved":false,"is_disabled":false,"rental_uris":{"android":"levelo://app?vid=c499befc-3cea-4716-83ce-726482559d5e","ios":"levelo://app?vid=c499befc-3cea-4716-83ce-726482559d5e"},"vehicle_type_id":"4","last_reported":1738802743,"current_range_meters":23200,"station_id":"ce4bh512rcd13ifvqe3g","pricing_plan_id":"cebpf4jnsgd1na2vs0mg"},{"bike_id":"0e28d866-e509-43b0-8b1e-0fd6790842dc","system_id":"levelo_inurba_marseille","lat":43.29738,"lon":5.3661,"is_reserved":false,"is_disabled":false,"rental_uris":{"android":"levelo://app?vid=0e28d866-e509-43b0-8b1e-0fd6790842dc","ios":"levelo://app?vid=0e28d866-e509-43b0-8b1e-0fd6790842dc"},"vehicle_type_id":"4","last_reported":1738802743,"current_range_meters":35200,"station_id":"ce4bgn12rcd13ifvqbt0","pricing_plan_id":"cebpf4jnsgd1na2vs0mg"},{"bike_id":"32155d92-6a5d-4149-bd83-b23de380e002","system_id":"levelo_inurba_marseille","lat":43.28684,"lon":5.386573,"is_reserved":false,"is_disabled":false,"rental_uris":{"android":"levelo://app?vid=32155d92-6a5d-4149-bd83-b23de380e002","ios":"levelo://app?vid=32155d92-6a5d-4149-bd83-b23de380e002"},"vehicle_type_id":"4","last_reported":1738802743,"current_range_meters":39200,"station_id":"ce4bh492rcd13ifvqdug","pricing_plan_id":"cebpf4jnsgd1na2vs0mg"},{"bike_id":"22d7d5c8-23b1-4a29-9d97-2595194d451f","system_id":"levelo_inurba_marseille","lat":43.28093,"lon":5.3786,"is_reserved":false,"is_disabled":false,"rental_uris":{"android":"levelo://app?vid=22d7d5c8-23b1-4a29-9d97-2595194d451f","ios":"levelo://app?vid=22d7d5c8-23b1-4a29-9d97-2595194d451f"},"vehicle_type_id":"4","last_reported":1738802743,"current_range_meters":39200,"station_id":"ce4bha12rcd13ifvqee0","pricing_plan_id":"cebpf4jnsgd1na2vs0mg"},{"bike_id":"6bba36c7-75a6-4b1b-96cb-c03d219a6faa","system_id":"levelo_inurba_marseille","lat":43.33005,"lon":5.39039,"is_reserved":false,"is_disabled":false,"rental_uris":{"android":"levelo://app?vid=6bba36c7-75a6-4b1b-96cb-c03d219a6faa","ios":"levelo://app?vid=6bba36c7-75a6-4b1b-96cb-c03d219a6faa"},"vehicle_type_id":"4","last_reported":1738802743,"current_range_meters":36000,"station_id":"ce4bhr92rcd13ifvqhrg","pricing_plan_id":"cebpf4jnsgd1na2vs0mg"},{"bike_id":"6584c9b6-002d-4e04-8e77-7c80cb49906b","system_id":"levelo_inurba_marseille","lat":43.24668,"lon":5.38169,"is_reserved":false,"is_disabled":false,"rental_uris":{"android":"levelo://app?vid=6584c9b6-002d-4e04-8e77-7c80cb49906b","ios":"levelo://app?vid=6584c9b6-002d-4e04-8e77-7c80cb49906b"},"vehicle_type_id":"4","last_reported":1738802743,"current_range_meters":34000,"station_id":"ce4bhih2rcd13ifvqfr0","pricing_plan_id":"cebpf4jnsgd1na2vs0mg"},{"bike_id":"1af63a99-36b1-4f29-8c78-2e71539c52b6","system_id":"levelo_inurba_marseille","lat":43.28094,"lon":5.37895,"is_reserved":false,"is_disabled":false,"rental_uris":{"android":"levelo://app?vid=1af63a99-36b1-4f29-8c78-2e71539c52b6","ios":"levelo://app?vid=1af63a99-36b1-4f29-8c78-2e71539c52b6"},"vehicle_type_id":"4","last_reported":1738802743,"current_range_meters":34800,"station_id":"","pricing_plan_id":"cebpf4jnsgd1na2vs0mg"},{"bike_id":"72f7305e-164a-4aee-aee4-d2f7ba187038","system_id":"levelo_inurba_marseille","lat":43.25867,"lon":5.39911,"is_reserved":false,"is_disabled":false,"rental_uris":{"android":"levelo://app?vid=72f7305e-164a-4aee-aee4-d2f7ba187038","ios":"levelo://app?vid=72f7305e-164a-4aee-aee4-d2f7ba187038"},"vehicle_type_id":"4","last_reported":1738802743,"current_range_meters":38800,"station_id":"ce4bhl92rcd13ifvqghg","pricing_plan_id":"cebpf4jnsgd1na2vs0mg"},{"bike_id":"fd7df63b-a22c-4266-ac74-36048b4286e2","system_id":"levelo_inurba_marseille","lat":43.28864,"lon":5.39278,"is_reserved":false,"is_disabled":false,"rental_uris":{"android":"levelo://app?vid=fd7df63b-a22c-4266-ac74-36048b4286e2","ios":"levelo://app?vid=fd7df63b-a22c-4266-ac74-36048b4286e2"},"vehicle_type_id":"4","last_reported":1738802743,"current_range_meters":28800,"station_id":"ce4bh2p2rcd13ifvqdi0","pricing_plan_id":"cebpf4jnsgd1na2vs0mg"},{"bike_id":"c90bee22-93e6-4769-a402-7c2dd626c38f","system_id":"levelo_inurba_marseille","lat":43.276169,"lon":5.361099,"is_reserved":false,"is_disabled":false,"rental_uris":{"android":"levelo://app?vid=c90bee22-93e6-4769-a402-7c2dd626c38f","ios":"levelo://app?vid=c90bee22-93e6-4769-a402-7c2dd626c38f"},"vehicle_type_id":"4","last_reported":1738802743,"current_range_meters":36000,"station_id":"ce4bgj92rcd13ifvqbe0","pricing_plan_id":"cebpf4jnsgd1na2vs0mg"},{"bike_id":"56ec3037-73f2-4dea-95b9-0161b73a13cd","system_id":"levelo_inurba_marseille","lat":43.28149,"lon":5.42644,"is_reserved":false,"is_disabled":false,"rental_uris":{"android":"levelo://app?vid=56ec3037-73f2-4dea-95b9-0161b73a13cd","ios":"levelo://app?vid=56ec3037-73f2-4dea-95b9-0161b73a13cd"},"vehicle_type_id":"4","last_reported":1738802743,"current_range_meters":15200,"station_id":"ce4bhnh2rcd13ifvqgug","pricing_plan_id":"cebpf4jnsgd1na2vs0mg"},{"bike_id":"865da38e-7662-4cd0-8259-ddab14436918","system_id":"levelo_inurba_marseille","lat":43.2842,"lon":5.392,"is_reserved":false,"is_disabled":false,"rental_uris":{"android":"levelo://app?vid=865da38e-7662-4cd0-8259-ddab14436918","ios":"levelo://app?vid=865da38e-7662-4cd0-8259-ddab14436918"},"vehicle_type_id":"4","last_reported":1738802743,"current_range_meters":38800,"station_id":"ce4bhoh2rcd13ifvqh5g","pricing_plan_id":"cebpf4jnsgd1na2vs0mg"},{"bike_id":"2296cbfa-8f8f-453e-a84f-b98511aad854","system_id":"levelo_inurba_marseille","lat":43.3042,"lon":5.39765,"is_reserved":false,"is_disabled":false,"rental_uris":{"android":"levelo://app?vid=2296cbfa-8f8f-453e-a84f-b98511aad854","ios":"levelo://app?vid=2296cbfa-8f8f-453e-a84f-b98511aad854"},"vehicle_type_id":"4","last_reported":1738802743,"current_range_meters":38800,"station_id":"ce4bh092rcd13ifvqd20","pricing_plan_id":"cebpf4jnsgd1na2vs0mg"},{"bike_id":"7f657d43-65c7-468d-ad0e-f606466b52ae","system_id":"levelo_inurba_marseille","lat":43.32522,"lon":5.36511,"is_reserved":false,"is_disabled":false,"rental_uris":{"android":"levelo://app?vid=7f657d43-65c7-468d-ad0e-f606466b52ae","ios":"levelo://app?vid=7f657d43-65c7-468d-ad0e-f606466b52ae"},"vehicle_type_id":"4","last_reported":1738802743,"current_range_meters":16400,"station_id":"ce4bhs12rcd13ifvqhvg","pricing_plan_id":"cebpf4jnsgd1na2vs0mg"},{"bike_id":"a2be1eec-df16-4f34-83e8-d48874ea9150","system_id":"levelo_inurba_marseille","lat":43.27944,"lon":5.41048,"is_reserved":false,"is_disabled":false,"rental_uris":{"android":"levelo://app?vid=a2be1eec-df16-4f34-83e8-d48874ea9150","ios":"levelo://app?vid=a2be1eec-df16-4f34-83e8-d48874ea9150"},"vehicle_type_id":"4","last_reported":1738802743,"current_range_meters":28000,"station_id":"ce4bhnp2rcd13ifvqh0g","pricing_plan_id":"cebpf4jnsgd1na2vs0mg"},{"bike_id":"585829b3-6401-45a0-8835-1ef0bbd3a57c","system_id":"levelo_inurba_marseille","lat":43.28164,"lon":5.42613,"is_reserved":false,"is_disabled":false,"rental_uris":{"android":"levelo://app?vid=585829b3-6401-45a0-8835-1ef0bbd3a57c","ios":"levelo://app?vid=585829b3-6401-45a0-8835-1ef0bbd3a57c"},"vehicle_type_id":"4","last_reported":1738802743,"current_range_meters":26800,"station_id":"ce4bhnh2rcd13ifvqgug","pricing_plan_id":"cebpf4jnsgd1na2vs0mg"},{"bike_id":"3ad586a6-f8ca-4df3-8b31-b85c6f3b51f7","system_id":"levelo_inurba_marseille","lat":43.2997,"lon":5.38491,"is_reserved":false,"is_disabled":false,"rental_uris":{"android":"levelo://app?vid=3ad586a6-f8ca-4df3-8b31-b85c6f3b51f7","ios":"levelo://app?vid=3ad586a6-f8ca-4df3-8b31-b85c6f3b51f7"},"vehicle_type_id":"4","last_reported":1738802743,"current_range_meters":38000,"station_id":"ce4bgj92rcd13ifvqbd0","pricing_plan_id":"cebpf4jnsgd1na2vs0mg"},{"bike_id":"4a71a176-eb41-4410-abfa-fed6dcd64cff","system_id":"levelo_inurba_marseille","lat":43.3118,"lon":5.38719,"is_reserved":false,"is_disabled":false,"rental_uris":{"android":"levelo://app?vid=4a71a176-eb41-4410-abfa-fed6dcd64cff","ios":"levelo://app?vid=4a71a176-eb41-4410-abfa-fed6dcd64cff"},"vehicle_type_id":"4","last_reported":1738802743,"current_range_meters":39200,"station_id":"ce4bgv12rcd13ifvqcp0","pricing_plan_id":"cebpf4jnsgd1na2vs0mg"},{"bike_id":"456c2483-451e-4b48-9b76-5c5ac4c47346","system_id":"levelo_inurba_marseille","lat":43.28085,"lon":5.39657,"is_reserved":false,"is_disabled":false,"rental_uris":{"android":"levelo://app?vid=456c2483-451e-4b48-9b76-5c5ac4c47346","ios":"levelo://app?vid=456c2483-451e-4b48-9b76-5c5ac4c47346"},"vehicle_type_id":"4","last_reported":1738802743,"current_range_meters":10800,"station_id":"ce4bho12rcd13ifvqh2g","pricing_plan_id":"cebpf4jnsgd1na2vs0mg"},{"bike_id":"3715ef74-2343-44e5-af7f-05285560b3e5","system_id":"levelo_inurba_marseille","lat":43.286655,"lon":5.363505,"is_reserved":false,"is_disabled":false,"rental_uris":{"android":"levelo://app?vid=3715ef74-2343-44e5-af7f-05285560b3e5","ios":"levelo://app?vid=3715ef74-2343-44e5-af7f-05285560b3e5"},"vehicle_type_id":"4","last_reported":1738802743,"current_range_meters":38000,"station_id":"ce4bhah2rcd13ifvqej0","pricing_plan_id":"cebpf4jnsgd1na2vs0mg"},{"bike_id":"5beba67c-ea4a-4d78-a82b-da804eb7867e","system_id":"levelo_inurba_marseille","lat":43.30654,"lon":5.40084,"is_reserved":false,"is_disabled":false,"rental_uris":{"android":"levelo://app?vid=5beba67c-ea4a-4d78-a82b-da804eb7867e","ios":"levelo://app?vid=5beba67c-ea4a-4d78-a82b-da804eb7867e"},"vehicle_type_id":"4","last_reported":1738802743,"current_range_meters":8400,"station_id":"ce4bh112rcd13ifvqda0","pricing_plan_id":"cebpf4jnsgd1na2vs0mg"},{"bike_id":"c67d8e59-7626-453e-9b14-a4daf41b2b5f","system_id":"levelo_inurba_marseille","lat":43.28571,"lon":5.39494,"is_reserved":false,"is_disabled":false,"rental_uris":{"android":"levelo://app?vid=c67d8e59-7626-453e-9b14-a4daf41b2b5f","ios":"levelo://app?vid=c67d8e59-7626-453e-9b14-a4daf41b2b5f"},"vehicle_type_id":"4","last_reported":1738802743,"current_range_meters":38800,"station_id":"ce4bh292rcd13ifvqdg0","pricing_plan_id":"cebpf4jnsgd1na2vs0mg"},{"bike_id":"6712f04b-f35d-4e3a-a70d-c89aec85d9b2","system_id":"levelo_inurba_marseille","lat":43.22936,"lon":5.35381,"is_reserved":false,"is_disabled":false,"rental_uris":{"android":"levelo://app?vid=6712f04b-f35d-4e3a-a70d-c89aec85d9b2","ios":"levelo://app?vid=6712f04b-f35d-4e3a-a70d-c89aec85d9b2"},"vehicle_type_id":"4","last_reported":1738802743,"current_range_meters":38800,"station_id":"cpo3532slgdg3j2ikp40","pricing_plan_id":"cebpf4jnsgd1na2vs0mg"},{"bike_id":"7db43954-496b-4924-89e8-8ce217c559c1","system_id":"levelo_inurba_marseille","lat":43.296332,"lon":5.4061,"is_reserved":false,"is_disabled":false,"rental_uris":{"android":"levelo://app?vid=7db43954-496b-4924-89e8-8ce217c559c1","ios":"levelo://app?vid=7db43954-496b-4924-89e8-8ce217c559c1"},"vehicle_type_id":"4","last_reported":1738802743,"current_range_meters":37600,"station_id":"ce4bh0h2rcd13ifvqd60","pricing_plan_id":"cebpf4jnsgd1na2vs0mg"},{"bike_id":"9470dd73-7393-47ca-8f05-fd76cdac2879","system_id":"levelo_inurba_marseille","lat":43.24061,"lon":5.37771,"is_reserved":false,"is_disabled":false,"rental_uris":{"android":"levelo://app?vid=9470dd73-7393-47ca-8f05-fd76cdac2879","ios":"levelo://app?vid=9470dd73-7393-47ca-8f05-fd76cdac2879"},"vehicle_type_id":"4","last_reported":1738802743,"current_range_meters":38800,"station_id":"ce4bhnp2rcd13ifvqgvg","pricing_plan_id":"cebpf4jnsgd1na2vs0mg"},{"bike_id":"9df3ebf0-4444-47df-8f70-31e5203e0317","system_id":"levelo_inurba_marseille","lat":43.28339,"lon":5.38108,"is_reserved":false,"is_disabled":false,"rental_uris":{"android":"levelo://app?vid=9df3ebf0-4444-47df-8f70-31e5203e0317","ios":"levelo://app?vid=9df3ebf0-4444-47df-8f70-31e5203e0317"},"vehicle_type_id":"4","last_reported":1738802743,"current_range_meters":32000,"station_id":"ce4bh412rcd13ifvqdr0","pricing_plan_id":"cebpf4jnsgd1na2vs0mg"},{"bike_id":"2630754e-b9e6-457b-bf47-234f3bba53a1","system_id":"levelo_inurba_marseille","lat":43.29051,"lon":5.35914,"is_reserved":false,"is_disabled":false,"rental_uris":{"android":"levelo://app?vid=2630754e-b9e6-457b-bf47-234f3bba53a1","ios":"levelo://app?vid=2630754e-b9e6-457b-bf47-234f3bba53a1"},"vehicle_type_id":"4","last_reported":1738802743,"current_range_meters":30800,"station_id":"ce4bha92rcd13ifvqeg0","pricing_plan_id":"cebpf4jnsgd1na2vs0mg"},{"bike_id":"cb2e142b-8956-4e08-816f-7dc7ab66ecae","system_id":"levelo_inurba_marseille","lat":43.31711,"lon":5.37791,"is_reserved":false,"is_disabled":false,"rental_uris":{"android":"levelo://app?vid=cb2e142b-8956-4e08-816f-7dc7ab66ecae","ios":"levelo://app?vid=cb2e142b-8956-4e08-816f-7dc7ab66ecae"},"vehicle_type_id":"4","last_reported":1738802743,"current_range_meters":39200,"station_id":"ce4bgth2rcd13ifvqch0","pricing_plan_id":"cebpf4jnsgd1na2vs0mg"},{"bike_id":"2c0e26dd-9e66-407f-9384-efd866399aa3","system_id":"levelo_inurba_marseille","lat":43.29178,"lon":5.37136,"is_reserved":false,"is_disabled":true,"rental_uris":{"android":"levelo://app?vid=2c0e26dd-9e66-407f-9384-efd866399aa3","ios":"levelo://app?vid=2c0e26dd-9e66-407f-9384-efd866399aa3"},"vehicle_type_id":"4","last_reported":1738802743,"current_range_meters":38800,"station_id":"ce4bha92rcd13ifvqeh0","pricing_plan_id":"cebpf4jnsgd1na2vs0mg"},{"bike_id":"b6d3b5ed-c2cb-4273-aef7-6ab08a2571e1","system_id":"levelo_inurba_marseille","lat":43.30654,"lon":5.40083,"is_reserved":false,"is_disabled":false,"rental_uris":{"android":"levelo://app?vid=b6d3b5ed-c2cb-4273-aef7-6ab08a2571e1","ios":"levelo://app?vid=b6d3b5ed-c2cb-4273-aef7-6ab08a2571e1"},"vehicle_type_id":"4","last_reported":1738802743,"current_range_meters":34000,"station_id":"ce4bh112rcd13ifvqda0","pricing_plan_id":"cebpf4jnsgd1na2vs0mg"},{"bike_id":"65ba0a5d-7185-49a0-ac1c-710fa5b31319","system_id":"levelo_inurba_marseille","lat":43.29227,"lon":5.3606,"is_reserved":false,"is_disabled":false,"rental_uris":{"android":"levelo://app?vid=65ba0a5d-7185-49a0-ac1c-710fa5b31319","ios":"levelo://app?vid=65ba0a5d-7185-49a0-ac1c-710fa5b31319"},"vehicle_type_id":"4","last_reported":1738802743,"current_range_meters":37600,"station_id":"ce4bhbh2rcd13ifvqeqg","pricing_plan_id":"cebpf4jnsgd1na2vs0mg"},{"bike_id":"de17b08d-e7c7-4305-ae96-d404f42cebb5","system_id":"levelo_inurba_marseille","lat":43.29935,"lon":5.36556,"is_reserved":false,"is_disabled":false,"rental_uris":{"android":"levelo://app?vid=de17b08d-e7c7-4305-ae96-d404f42cebb5","ios":"levelo://app?vid=de17b08d-e7c7-4305-ae96-d404f42cebb5"},"vehicle_type_id":"4","last_reported":1738802743,"current_range_meters":24800,"station_id":"ce4bgm92rcd13ifvqbr0","pricing_plan_id":"cebpf4jnsgd1na2vs0mg"},{"bike_id":"d2883f5c-c74b-4794-a67e-fcb675612689","system_id":"levelo_inurba_marseille","lat":43.29879,"lon":5.39739,"is_reserved":false,"is_disabled":false,"rental_uris":{"android":"levelo://app?vid=d2883f5c-c74b-4794-a67e-fcb675612689","ios":"levelo://app?vid=d2883f5c-c74b-4794-a67e-fcb675612689"},"vehicle_type_id":"4","last_reported":1738802743,"current_range_meters":36800,"station_id":"ce4bh0h2rcd13ifvqd50","pricing_plan_id":"cebpf4jnsgd1na2vs0mg"},{"bike_id":"96283d00-ede9-46ed-a906-e47bd3a98cc9","system_id":"levelo_inurba_marseille","lat":43.27916,"lon":5.39586,"is_reserved":false,"is_disabled":false,"rental_uris":{"android":"levelo://app?vid=96283d00-ede9-46ed-a906-e47bd3a98cc9","ios":"levelo://app?vid=96283d00-ede9-46ed-a906-e47bd3a98cc9"},"vehicle_type_id":"4","last_reported":1738802743,"current_range_meters":35600,"station_id":"ce4bhf92rcd13ifvqf40","pricing_plan_id":"cebpf4jnsgd1na2vs0mg"},{"bike_id":"12be4a65-e7b3-4220-9442-37e04da9989a","system_id":"levelo_inurba_marseille","lat":43.27214,"lon":5.40956,"is_reserved":false,"is_disabled":false,"rental_uris":{"android":"levelo://app?vid=12be4a65-e7b3-4220-9442-37e04da9989a","ios":"levelo://app?vid=12be4a65-e7b3-4220-9442-37e04da9989a"},"vehicle_type_id":"4","last_reported":1738802743,"current_range_meters":39200,"station_id":"ce4bhl12rcd13ifvqgf0","pricing_plan_id":"cebpf4jnsgd1na2vs0mg"},{"bike_id":"2e1abfed-ad85-4b9a-87cf-cf9e5bddfe3f","system_id":"levelo_inurba_marseille","lat":43.28466,"lon":5.35864,"is_reserved":false,"is_disabled":false,"rental_uris":{"android":"levelo://app?vid=2e1abfed-ad85-4b9a-87cf-cf9e5bddfe3f","ios":"levelo://app?vid=2e1abfed-ad85-4b9a-87cf-cf9e5bddfe3f"},"vehicle_type_id":"4","last_reported":1738802743,"current_range_meters":36800,"station_id":"ce4bhah2rcd13ifvqei0","pricing_plan_id":"cebpf4jnsgd1na2vs0mg"},{"bike_id":"091d41d7-c1d3-4cdf-9b5c-052439e6b669","system_id":"levelo_inurba_marseille","lat":43.3048,"lon":5.36668,"is_reserved":false,"is_disabled":true,"rental_uris":{"android":"levelo://app?vid=091d41d7-c1d3-4cdf-9b5c-052439e6b669","ios":"levelo://app?vid=091d41d7-c1d3-4cdf-9b5c-052439e6b669"},"vehicle_type_id":"4","last_reported":1738802743,"current_range_meters":24800,"station_id":"","pricing_plan_id":"cebpf4jnsgd1na2vs0mg"},{"bike_id":"205283b2-a0b9-4a6f-b278-0f0a01187f2c","system_id":"levelo_inurba_marseille","lat":43.30895,"lon":5.39646,"is_reserved":false,"is_disabled":false,"rental_uris":{"android":"levelo://app?vid=205283b2-a0b9-4a6f-b278-0f0a01187f2c","ios":"levelo://app?vid=205283b2-a0b9-4a6f-b278-0f0a01187f2c"},"vehicle_type_id":"4","last_reported":1738802743,"current_range_meters":38800,"station_id":"ce4bh012rcd13ifvqcv0","pricing_plan_id":"cebpf4jnsgd1na2vs0mg"},{"bike_id":"44dde5cf-c2f0-4ca3-a927-e2c7152ee089","system_id":"levelo_inurba_marseille","lat":43.278115,"lon":5.407044,"is_reserved":false,"is_disabled":false,"rental_uris":{"android":"levelo://app?vid=44dde5cf-c2f0-4ca3-a927-e2c7152ee089","ios":"levelo://app?vid=44dde5cf-c2f0-4ca3-a927-e2c7152ee089"},"vehicle_type_id":"4","last_reported":1738802743,"current_range_meters":38800,"station_id":"ce4bhnh2rcd13ifvqgtg","pricing_plan_id":"cebpf4jnsgd1na2vs0mg"},{"bike_id":"28ed67be-d274-4072-ac13-956e0df14b19","system_id":"levelo_inurba_marseille","lat":43.29867,"lon":5.39737,"is_reserved":false,"is_disabled":false,"rental_uris":{"android":"levelo://app?vid=28ed67be-d274-4072-ac13-956e0df14b19","ios":"levelo://app?vid=28ed67be-d274-4072-ac13-956e0df14b19"},"vehicle_type_id":"4","last_reported":1738802743,"current_range_meters":39200,"station_id":"ce4bh0h2rcd13ifvqd50","pricing_plan_id":"cebpf4jnsgd1na2vs0mg"},{"bike_id":"a6b2428a-7d23-4892-a3bf-86cc25978b7a","system_id":"levelo_inurba_marseille","lat":43.25517,"lon":5.37637,"is_reserved":false,"is_disabled":true,"rental_uris":{"android":"levelo://app?vid=a6b2428a-7d23-4892-a3bf-86cc25978b7a","ios":"levelo://app?vid=a6b2428a-7d23-4892-a3bf-86cc25978b7a"},"vehicle_type_id":"4","last_reported":1738802743,"current_range_meters":24400,"station_id":"ce4bhh12rcd13ifvqff0","pricing_plan_id":"cebpf4jnsgd1na2vs0mg"},{"bike_id":"8f55a9a2-e3bf-4734-b1cd-752d8460ce0f","system_id":"levelo_inurba_marseille","lat":43.29539,"lon":5.39404,"is_reserved":false,"is_disabled":false,"rental_uris":{"android":"levelo://app?vid=8f55a9a2-e3bf-4734-b1cd-752d8460ce0f","ios":"levelo://app?vid=8f55a9a2-e3bf-4734-b1cd-752d8460ce0f"},"vehicle_type_id":"4","last_reported":1738802743,"current_range_meters":38800,"station_id":"ce4bh292rcd13ifvqdf0","pricing_plan_id":"cebpf4jnsgd1na2vs0mg"},{"bike_id":"9e069c3b-a78d-4060-b3a9-a269e57bf4ef","system_id":"levelo_inurba_marseille","lat":43.29897,"lon":5.39748,"is_reserved":false,"is_disabled":false,"rental_uris":{"android":"levelo://app?vid=9e069c3b-a78d-4060-b3a9-a269e57bf4ef","ios":"levelo://app?vid=9e069c3b-a78d-4060-b3a9-a269e57bf4ef"},"vehicle_type_id":"4","last_reported":1738802743,"current_range_meters":39200,"station_id":"ce4bh0h2rcd13ifvqd50","pricing_plan_id":"cebpf4jnsgd1na2vs0mg"},{"bike_id":"a59c6707-1c68-44fb-a212-8e3c952c6753","system_id":"levelo_inurba_marseille","lat":43.26917,"lon":5.40241,"is_reserved":false,"is_disabled":false,"rental_uris":{"android":"levelo://app?vid=a59c6707-1c68-44fb-a212-8e3c952c6753","ios":"levelo://app?vid=a59c6707-1c68-44fb-a212-8e3c952c6753"},"vehicle_type_id":"4","last_reported":1738802743,"current_range_meters":38800,"station_id":"cjm6bp8fraef2m0cb0m0","pricing_plan_id":"cebpf4jnsgd1na2vs0mg"},{"bike_id":"c85a26e1-f53e-4ec1-b1ea-8b32d23f1f4d","system_id":"levelo_inurba_marseille","lat":43.23039,"lon":5.35483,"is_reserved":false,"is_disabled":false,"rental_uris":{"android":"levelo://app?vid=c85a26e1-f53e-4ec1-b1ea-8b32d23f1f4d","ios":"levelo://app?vid=c85a26e1-f53e-4ec1-b1ea-8b32d23f1f4d"},"vehicle_type_id":"4","last_reported":1738802743,"current_range_meters":20000,"station_id":"cpo3342slgdg3j2ifvpg","pricing_plan_id":"cebpf4jnsgd1na2vs0mg"},{"bike_id":"1368b82d-e5b6-4c03-95ce-b6cc44f0d8ef","system_id":"levelo_inurba_marseille","lat":43.28024,"lon":5.36951,"is_reserved":false,"is_disabled":false,"rental_uris":{"android":"levelo://app?vid=1368b82d-e5b6-4c03-95ce-b6cc44f0d8ef","ios":"levelo://app?vid=1368b82d-e5b6-4c03-95ce-b6cc44f0d8ef"},"vehicle_type_id":"4","last_reported":1738802743,"current_range_meters":38800,"station_id":"ce4bha12rcd13ifvqef0","pricing_plan_id":"cebpf4jnsgd1na2vs0mg"},{"bike_id":"c44714d4-d1ec-4f71-b2c6-cd30bee8b564","system_id":"levelo_inurba_marseille","lat":43.28701,"lon":5.39975,"is_reserved":false,"is_disabled":false,"rental_uris":{"android":"levelo://app?vid=c44714d4-d1ec-4f71-b2c6-cd30bee8b564","ios":"levelo://app?vid=c44714d4-d1ec-4f71-b2c6-cd30bee8b564"},"vehicle_type_id":"4","last_reported":1738802743,"current_range_meters":14800,"station_id":"ce4bho92rcd13ifvqh3g","pricing_plan_id":"cebpf4jnsgd1na2vs0mg"},{"bike_id":"7719c3fc-c35a-467e-a121-4f70bc9c738d","system_id":"levelo_inurba_marseille","lat":43.29172,"lon":5.35804,"is_reserved":false,"is_disabled":false,"rental_uris":{"android":"levelo://app?vid=7719c3fc-c35a-467e-a121-4f70bc9c738d","ios":"levelo://app?vid=7719c3fc-c35a-467e-a121-4f70bc9c738d"},"vehicle_type_id":"4","last_reported":1738802743,"current_range_meters":30400,"station_id":"ce4bhb12rcd13ifvqel0","pricing_plan_id":"cebpf4jnsgd1na2vs0mg"},{"bike_id":"ce4ebaf6-6758-4e43-a8cb-ebfb067f7ee8","system_id":"levelo_inurba_marseille","lat":43.30802,"lon":5.43525,"is_reserved":false,"is_disabled":false,"rental_uris":{"android":"levelo://app?vid=ce4ebaf6-6758-4e43-a8cb-ebfb067f7ee8","ios":"levelo://app?vid=ce4ebaf6-6758-4e43-a8cb-ebfb067f7ee8"},"vehicle_type_id":"4","last_reported":1738802743,"current_range_meters":12400,"station_id":"ce4bhph2rcd13ifvqheg","pricing_plan_id":"cebpf4jnsgd1na2vs0mg"},{"bike_id":"d514230b-01d1-4e6e-b07b-dd83ae518c95","system_id":"levelo_inurba_marseille","lat":43.25086,"lon":5.39529,"is_reserved":false,"is_disabled":false,"rental_uris":{"android":"levelo://app?vid=d514230b-01d1-4e6e-b07b-dd83ae518c95","ios":"levelo://app?vid=d514230b-01d1-4e6e-b07b-dd83ae518c95"},"vehicle_type_id":"4","last_reported":1738802743,"current_range_meters":39200,"station_id":"ce4bhm12rcd13ifvqgkg","pricing_plan_id":"cebpf4jnsgd1na2vs0mg"},{"bike_id":"9c207c45-ddb2-4217-8d34-079a5658cd14","system_id":"levelo_inurba_marseille","lat":43.32279,"lon":5.38316,"is_reserved":false,"is_disabled":false,"rental_uris":{"android":"levelo://app?vid=9c207c45-ddb2-4217-8d34-079a5658cd14","ios":"levelo://app?vid=9c207c45-ddb2-4217-8d34-079a5658cd14"},"vehicle_type_id":"4","last_reported":1738802743,"current_range_meters":36400,"station_id":"ce4bhr12rcd13ifvqhqg","pricing_plan_id":"cebpf4jnsgd1na2vs0mg"},{"bike_id":"565d6fca-10b7-4b88-8101-89e4cbc6df92","system_id":"levelo_inurba_marseille","lat":43.28885,"lon":5.3579,"is_reserved":false,"is_disabled":false,"rental_uris":{"android":"levelo://app?vid=565d6fca-10b7-4b88-8101-89e4cbc6df92","ios":"levelo://app?vid=565d6fca-10b7-4b88-8101-89e4cbc6df92"},"vehicle_type_id":"4","last_reported":1738802743,"current_range_meters":36800,"station_id":"","pricing_plan_id":"cebpf4jnsgd1na2vs0mg"},{"bike_id":"969c5b62-9428-4d6f-938f-e63db2f5c261","system_id":"levelo_inurba_marseille","lat":43.28338,"lon":5.38126,"is_reserved":false,"is_disabled":false,"rental_uris":{"android":"levelo://app?vid=969c5b62-9428-4d6f-938f-e63db2f5c261","ios":"levelo://app?vid=969c5b62-9428-4d6f-938f-e63db2f5c261"},"vehicle_type_id":"4","last_reported":1738802743,"current_range_meters":35600,"station_id":"ce4bh412rcd13ifvqdr0","pricing_plan_id":"cebpf4jnsgd1na2vs0mg"},{"bike_id":"0f058f84-efc7-41c5-a7d3-74697b81d49f","system_id":"levelo_inurba_marseille","lat":43.29582,"lon":5.39983,"is_reserved":false,"is_disabled":false,"rental_uris":{"android":"levelo://app?vid=0f058f84-efc7-41c5-a7d3-74697b81d49f","ios":"levelo://app?vid=0f058f84-efc7-41c5-a7d3-74697b81d49f"},"vehicle_type_id":"4","last_reported":1738802743,"current_range_meters":26800,"station_id":"ce4bh312rcd13ifvqdj0","pricing_plan_id":"cebpf4jnsgd1na2vs0mg"},{"bike_id":"650e3abc-18a6-480b-9725-ce95af20516f","system_id":"levelo_inurba_marseille","lat":43.28667,"lon":5.38652,"is_reserved":false,"is_disabled":false,"rental_uris":{"android":"levelo://app?vid=650e3abc-18a6-480b-9725-ce95af20516f","ios":"levelo://app?vid=650e3abc-18a6-480b-9725-ce95af20516f"},"vehicle_type_id":"4","last_reported":1738802743,"current_range_meters":28800,"station_id":"ce4bh492rcd13ifvqdug","pricing_plan_id":"cebpf4jnsgd1na2vs0mg"},{"bike_id":"b03cf5dd-4aeb-4e18-a1be-256d53c24ae1","system_id":"levelo_inurba_marseille","lat":43.27944,"lon":5.41055,"is_reserved":false,"is_disabled":false,"rental_uris":{"android":"levelo://app?vid=b03cf5dd-4aeb-4e18-a1be-256d53c24ae1","ios":"levelo://app?vid=b03cf5dd-4aeb-4e18-a1be-256d53c24ae1"},"vehicle_type_id":"4","last_reported":1738802743,"current_range_meters":29600,"station_id":"ce4bhnp2rcd13ifvqh0g","pricing_plan_id":"cebpf4jnsgd1na2vs0mg"},{"bike_id":"c27d8cef-128f-467e-8ca2-b33835376bb2","system_id":"levelo_inurba_marseille","lat":43.30655,"lon":5.40101,"is_reserved":false,"is_disabled":false,"rental_uris":{"android":"levelo://app?vid=c27d8cef-128f-467e-8ca2-b33835376bb2","ios":"levelo://app?vid=c27d8cef-128f-467e-8ca2-b33835376bb2"},"vehicle_type_id":"4","last_reported":1738802743,"current_range_meters":36000,"station_id":"ce4bh112rcd13ifvqda0","pricing_plan_id":"cebpf4jnsgd1na2vs0mg"},{"bike_id":"78f4c34c-e935-4821-bc3b-aef9f51050f9","system_id":"levelo_inurba_marseille","lat":43.27942,"lon":5.41034,"is_reserved":false,"is_disabled":false,"rental_uris":{"android":"levelo://app?vid=78f4c34c-e935-4821-bc3b-aef9f51050f9","ios":"levelo://app?vid=78f4c34c-e935-4821-bc3b-aef9f51050f9"},"vehicle_type_id":"4","last_reported":1738802743,"current_range_meters":24800,"station_id":"ce4bhnp2rcd13ifvqh0g","pricing_plan_id":"cebpf4jnsgd1na2vs0mg"},{"bike_id":"1f60af65-67e4-4506-92ce-b099d71368bc","system_id":"levelo_inurba_marseille","lat":43.2736,"lon":5.36241,"is_reserved":false,"is_disabled":false,"rental_uris":{"android":"levelo://app?vid=1f60af65-67e4-4506-92ce-b099d71368bc","ios":"levelo://app?vid=1f60af65-67e4-4506-92ce-b099d71368bc"},"vehicle_type_id":"4","last_reported":1738802743,"current_range_meters":38800,"station_id":"ce4bhbh2rcd13ifvqeo0","pricing_plan_id":"cebpf4jnsgd1na2vs0mg"},{"bike_id":"18006c0f-7b1f-44ea-9654-cb2f88e12168","system_id":"levelo_inurba_marseille","lat":43.30197,"lon":5.36629,"is_reserved":false,"is_disabled":false,"rental_uris":{"android":"levelo://app?vid=18006c0f-7b1f-44ea-9654-cb2f88e12168","ios":"levelo://app?vid=18006c0f-7b1f-44ea-9654-cb2f88e12168"},"vehicle_type_id":"4","last_reported":1738802743,"current_range_meters":23200,"station_id":"ce4bgrh2rcd13ifvqc8g","pricing_plan_id":"cebpf4jnsgd1na2vs0mg"},{"bike_id":"24014241-5b95-4a31-94b3-518cf14b5577","system_id":"levelo_inurba_marseille","lat":43.30787,"lon":5.37648,"is_reserved":false,"is_disabled":true,"rental_uris":{"android":"levelo://app?vid=24014241-5b95-4a31-94b3-518cf14b5577","ios":"levelo://app?vid=24014241-5b95-4a31-94b3-518cf14b5577"},"vehicle_type_id":"4","last_reported":1738802743,"current_range_meters":27600,"station_id":"ce4bgv92rcd13ifvqcq0","pricing_plan_id":"cebpf4jnsgd1na2vs0mg"},{"bike_id":"a9d2cdd8-e8cc-40c9-87d7-d5a1d12197b1","system_id":"levelo_inurba_marseille","lat":43.27477,"lon":5.4245,"is_reserved":false,"is_disabled":false,"rental_uris":{"android":"levelo://app?vid=a9d2cdd8-e8cc-40c9-87d7-d5a1d12197b1","ios":"levelo://app?vid=a9d2cdd8-e8cc-40c9-87d7-d5a1d12197b1"},"vehicle_type_id":"4","last_reported":1738802743,"current_range_meters":38800,"station_id":"ce4bhn92rcd13ifvqgrg","pricing_plan_id":"cebpf4jnsgd1na2vs0mg"},{"bike_id":"053fe29b-8a6c-40a9-966e-365491a47db8","system_id":"levelo_inurba_marseille","lat":43.25827,"lon":5.39438,"is_reserved":false,"is_disabled":false,"rental_uris":{"android":"levelo://app?vid=053fe29b-8a6c-40a9-966e-365491a47db8","ios":"levelo://app?vid=053fe29b-8a6c-40a9-966e-365491a47db8"},"vehicle_type_id":"4","last_reported":1738802743,"current_range_meters":38800,"station_id":"ce4bhip2rcd13ifvqft0","pricing_plan_id":"cebpf4jnsgd1na2vs0mg"},{"bike_id":"07c5ae97-d777-4a56-9742-df935bfa8469","system_id":"levelo_inurba_marseille","lat":43.28945,"lon":5.36419,"is_reserved":false,"is_disabled":false,"rental_uris":{"android":"levelo://app?vid=07c5ae97-d777-4a56-9742-df935bfa8469","ios":"levelo://app?vid=07c5ae97-d777-4a56-9742-df935bfa8469"},"vehicle_type_id":"4","last_reported":1738802743,"current_range_meters":28400,"station_id":"ce4bhc92rcd13ifvqetg","pricing_plan_id":"cebpf4jnsgd1na2vs0mg"},{"bike_id":"405a9b8c-5cf1-485c-b2f3-8353ace33ecd","system_id":"levelo_inurba_marseille","lat":43.29899,"lon":5.43652,"is_reserved":false,"is_disabled":false,"rental_uris":{"android":"levelo://app?vid=405a9b8c-5cf1-485c-b2f3-8353ace33ecd","ios":"levelo://app?vid=405a9b8c-5cf1-485c-b2f3-8353ace33ecd"},"vehicle_type_id":"4","last_reported":1738802743,"current_range_meters":37600,"station_id":"ce4bhpp2rcd13ifvqhfg","pricing_plan_id":"cebpf4jnsgd1na2vs0mg"},{"bike_id":"35b0fbe6-22db-46fb-a54a-76af362a8729","system_id":"levelo_inurba_marseille","lat":43.29969,"lon":5.41334,"is_reserved":false,"is_disabled":false,"rental_uris":{"android":"levelo://app?vid=35b0fbe6-22db-46fb-a54a-76af362a8729","ios":"levelo://app?vid=35b0fbe6-22db-46fb-a54a-76af362a8729"},"vehicle_type_id":"4","last_reported":1738802743,"current_range_meters":36000,"station_id":"ce4bhp12rcd13ifvqh9g","pricing_plan_id":"cebpf4jnsgd1na2vs0mg"},{"bike_id":"88ce7e1b-d6f8-4620-beef-be982f304f3e","system_id":"levelo_inurba_marseille","lat":43.3211,"lon":5.36773,"is_reserved":false,"is_disabled":false,"rental_uris":{"android":"levelo://app?vid=88ce7e1b-d6f8-4620-beef-be982f304f3e","ios":"levelo://app?vid=88ce7e1b-d6f8-4620-beef-be982f304f3e"},"vehicle_type_id":"4","last_reported":1738802743,"current_range_meters":38800,"station_id":"ce4bhrh2rcd13ifvqhug","pricing_plan_id":"cebpf4jnsgd1na2vs0mg"},{"bike_id":"eabb9936-397f-4ce6-8690-89ca8b14d83e","system_id":"levelo_inurba_marseille","lat":43.239618,"lon":5.366357,"is_reserved":false,"is_disabled":false,"rental_uris":{"android":"levelo://app?vid=eabb9936-397f-4ce6-8690-89ca8b14d83e","ios":"levelo://app?vid=eabb9936-397f-4ce6-8690-89ca8b14d83e"},"vehicle_type_id":"4","last_reported":1738802743,"current_range_meters":38800,"station_id":"ce4bhi12rcd13ifvqfp0","pricing_plan_id":"cebpf4jnsgd1na2vs0mg"},{"bike_id":"891bb5b6-460f-4360-bb82-fb26b3cff7a9","system_id":"levelo_inurba_marseille","lat":43.30885,"lon":5.39619,"is_reserved":false,"is_disabled":false,"rental_uris":{"android":"levelo://app?vid=891bb5b6-460f-4360-bb82-fb26b3cff7a9","ios":"levelo://app?vid=891bb5b6-460f-4360-bb82-fb26b3cff7a9"},"vehicle_type_id":"4","last_reported":1738802743,"current_range_meters":20400,"station_id":"ce4bh012rcd13ifvqcv0","pricing_plan_id":"cebpf4jnsgd1na2vs0mg"},{"bike_id":"708f8f9e-18a1-4802-893a-04d77b904ada","system_id":"levelo_inurba_marseille","lat":43.28658,"lon":5.36346,"is_reserved":false,"is_disabled":false,"rental_uris":{"android":"levelo://app?vid=708f8f9e-18a1-4802-893a-04d77b904ada","ios":"levelo://app?vid=708f8f9e-18a1-4802-893a-04d77b904ada"},"vehicle_type_id":"4","last_reported":1738802743,"current_range_meters":38000,"station_id":"ce4bhah2rcd13ifvqej0","pricing_plan_id":"cebpf4jnsgd1na2vs0mg"},{"bike_id":"2f9a6647-bfb0-4c5f-b2d5-6b23d0794b76","system_id":"levelo_inurba_marseille","lat":43.25572,"lon":5.38249,"is_reserved":false,"is_disabled":true,"rental_uris":{"android":"levelo://app?vid=2f9a6647-bfb0-4c5f-b2d5-6b23d0794b76","ios":"levelo://app?vid=2f9a6647-bfb0-4c5f-b2d5-6b23d0794b76"},"vehicle_type_id":"4","last_reported":1738802743,"current_range_meters":36800,"station_id":"ce4bhih2rcd13ifvqfs0","pricing_plan_id":"cebpf4jnsgd1na2vs0mg"},{"bike_id":"d25a4504-17d4-4308-88f8-6085b6b06f28","system_id":"levelo_inurba_marseille","lat":43.28942,"lon":5.36397,"is_reserved":false,"is_disabled":false,"rental_uris":{"android":"levelo://app?vid=d25a4504-17d4-4308-88f8-6085b6b06f28","ios":"levelo://app?vid=d25a4504-17d4-4308-88f8-6085b6b06f28"},"vehicle_type_id":"4","last_reported":1738802743,"current_range_meters":19200,"station_id":"ce4bhc92rcd13ifvqetg","pricing_plan_id":"cebpf4jnsgd1na2vs0mg"},{"bike_id":"8da43562-4f8d-4611-9168-8a0327349c39","system_id":"levelo_inurba_marseille","lat":43.28149,"lon":5.42625,"is_reserved":false,"is_disabled":false,"rental_uris":{"android":"levelo://app?vid=8da43562-4f8d-4611-9168-8a0327349c39","ios":"levelo://app?vid=8da43562-4f8d-4611-9168-8a0327349c39"},"vehicle_type_id":"4","last_reported":1738802743,"current_range_meters":8800,"station_id":"ce4bhnh2rcd13ifvqgug","pricing_plan_id":"cebpf4jnsgd1na2vs0mg"},{"bike_id":"786af5a6-7181-4746-8e7c-5055a97f6274","system_id":"levelo_inurba_marseille","lat":43.28154,"lon":5.42631,"is_reserved":false,"is_disabled":true,"rental_uris":{"android":"levelo://app?vid=786af5a6-7181-4746-8e7c-5055a97f6274","ios":"levelo://app?vid=786af5a6-7181-4746-8e7c-5055a97f6274"},"vehicle_type_id":"4","last_reported":1738802743,"current_range_meters":30400,"station_id":"ce4bhnh2rcd13ifvqgug","pricing_plan_id":"cebpf4jnsgd1na2vs0mg"},{"bike_id":"81f0c490-0f0d-416d-91c0-4701a6d91680","system_id":"levelo_inurba_marseille","lat":43.27943,"lon":5.41047,"is_reserved":false,"is_disabled":false,"rental_uris":{"android":"levelo://app?vid=81f0c490-0f0d-416d-91c0-4701a6d91680","ios":"levelo://app?vid=81f0c490-0f0d-416d-91c0-4701a6d91680"},"vehicle_type_id":"4","last_reported":1738802743,"current_range_meters":36400,"station_id":"ce4bhnp2rcd13ifvqh0g","pricing_plan_id":"cebpf4jnsgd1na2vs0mg"},{"bike_id":"5deceb83-8a19-44fe-ac2e-ff40510b92f3","system_id":"levelo_inurba_marseille","lat":43.28361,"lon":5.38645,"is_reserved":false,"is_disabled":false,"rental_uris":{"android":"levelo://app?vid=5deceb83-8a19-44fe-ac2e-ff40510b92f3","ios":"levelo://app?vid=5deceb83-8a19-44fe-ac2e-ff40510b92f3"},"vehicle_type_id":"4","last_reported":1738802743,"current_range_meters":38000,"station_id":"ce4bh492rcd13ifvqdvg","pricing_plan_id":"cebpf4jnsgd1na2vs0mg"},{"bike_id":"50b15991-9296-4df6-b1a6-725aba7e366c","system_id":"levelo_inurba_marseille","lat":43.25855,"lon":5.39905,"is_reserved":false,"is_disabled":false,"rental_uris":{"android":"levelo://app?vid=50b15991-9296-4df6-b1a6-725aba7e366c","ios":"levelo://app?vid=50b15991-9296-4df6-b1a6-725aba7e366c"},"vehicle_type_id":"4","last_reported":1738802743,"current_range_meters":38400,"station_id":"ce4bhl92rcd13ifvqghg","pricing_plan_id":"cebpf4jnsgd1na2vs0mg"},{"bike_id":"27369cc2-c9d2-4eb9-ab3c-2529d56df565","system_id":"levelo_inurba_marseille","lat":43.29881,"lon":5.38908,"is_reserved":false,"is_disabled":false,"rental_uris":{"android":"levelo://app?vid=27369cc2-c9d2-4eb9-ab3c-2529d56df565","ios":"levelo://app?vid=27369cc2-c9d2-4eb9-ab3c-2529d56df565"},"vehicle_type_id":"4","last_reported":1738802743,"current_range_meters":8000,"station_id":"ce4bh392rcd13ifvqdl0","pricing_plan_id":"cebpf4jnsgd1na2vs0mg"},{"bike_id":"5cc5475e-2ea7-44b9-af80-c173cc086fba","system_id":"levelo_inurba_marseille","lat":43.29198,"lon":5.35801,"is_reserved":false,"is_disabled":false,"rental_uris":{"android":"levelo://app?vid=5cc5475e-2ea7-44b9-af80-c173cc086fba","ios":"levelo://app?vid=5cc5475e-2ea7-44b9-af80-c173cc086fba"},"vehicle_type_id":"4","last_reported":1738802743,"current_range_meters":36000,"station_id":"ce4bhb12rcd13ifvqel0","pricing_plan_id":"cebpf4jnsgd1na2vs0mg"},{"bike_id":"43dbcacd-347c-4beb-a600-5c3d96b4b244","system_id":"levelo_inurba_marseille","lat":43.23192,"lon":5.39976,"is_reserved":false,"is_disabled":false,"rental_uris":{"android":"levelo://app?vid=43dbcacd-347c-4beb-a600-5c3d96b4b244","ios":"levelo://app?vid=43dbcacd-347c-4beb-a600-5c3d96b4b244"},"vehicle_type_id":"4","last_reported":1738802743,"current_range_meters":39200,"station_id":"ce4bhn12rcd13ifvqgqg","pricing_plan_id":"cebpf4jnsgd1na2vs0mg"},{"bike_id":"f5fe99b2-e419-4e02-93e0-0d8550db63d7","system_id":"levelo_inurba_marseille","lat":43.28028,"lon":5.36946,"is_reserved":false,"is_disabled":false,"rental_uris":{"android":"levelo://app?vid=f5fe99b2-e419-4e02-93e0-0d8550db63d7","ios":"levelo://app?vid=f5fe99b2-e419-4e02-93e0-0d8550db63d7"},"vehicle_type_id":"4","last_reported":1738802743,"current_range_meters":38800,"station_id":"ce4bha12rcd13ifvqef0","pricing_plan_id":"cebpf4jnsgd1na2vs0mg"},{"bike_id":"9b7355dc-7165-40f0-8cd2-81f22484ab5d","system_id":"levelo_inurba_marseille","lat":43.23966,"lon":5.36606,"is_reserved":false,"is_disabled":false,"rental_uris":{"android":"levelo://app?vid=9b7355dc-7165-40f0-8cd2-81f22484ab5d","ios":"levelo://app?vid=9b7355dc-7165-40f0-8cd2-81f22484ab5d"},"vehicle_type_id":"4","last_reported":1738802743,"current_range_meters":34800,"station_id":"ce4bhi12rcd13ifvqfp0","pricing_plan_id":"cebpf4jnsgd1na2vs0mg"},{"bike_id":"54c388f1-da5e-41c0-a224-46f29db2acb3","system_id":"levelo_inurba_marseille","lat":43.28922,"lon":5.36405,"is_reserved":false,"is_disabled":false,"rental_uris":{"android":"levelo://app?vid=54c388f1-da5e-41c0-a224-46f29db2acb3","ios":"levelo://app?vid=54c388f1-da5e-41c0-a224-46f29db2acb3"},"vehicle_type_id":"4","last_reported":1738802743,"current_range_meters":38800,"station_id":"ce4bhc92rcd13ifvqetg","pricing_plan_id":"cebpf4jnsgd1na2vs0mg"},{"bike_id":"169729ec-c023-4e6e-942f-0ac64a9d4017","system_id":"levelo_inurba_marseille","lat":43.26532,"lon":5.39067,"is_reserved":false,"is_disabled":false,"rental_uris":{"android":"levelo://app?vid=169729ec-c023-4e6e-942f-0ac64a9d4017","ios":"levelo://app?vid=169729ec-c023-4e6e-942f-0ac64a9d4017"},"vehicle_type_id":"4","last_reported":1738802743,"current_range_meters":27200,"station_id":"ce4bhe12rcd13ifvqf30","pricing_plan_id":"cebpf4jnsgd1na2vs0mg"},{"bike_id":"67661f07-352c-4583-baef-f494f9de33b1","system_id":"levelo_inurba_marseille","lat":43.28262,"lon":5.35087,"is_reserved":false,"is_disabled":false,"rental_uris":{"android":"levelo://app?vid=67661f07-352c-4583-baef-f494f9de33b1","ios":"levelo://app?vid=67661f07-352c-4583-baef-f494f9de33b1"},"vehicle_type_id":"4","last_reported":1738802743,"current_range_meters":33600,"station_id":"ce4bhbp2rcd13ifvqerg","pricing_plan_id":"cebpf4jnsgd1na2vs0mg"},{"bike_id":"931c3b97-cce1-4ebe-a291-6c50a6f2810e","system_id":"levelo_inurba_marseille","lat":43.31788,"lon":5.37446,"is_reserved":false,"is_disabled":false,"rental_uris":{"android":"levelo://app?vid=931c3b97-cce1-4ebe-a291-6c50a6f2810e","ios":"levelo://app?vid=931c3b97-cce1-4ebe-a291-6c50a6f2810e"},"vehicle_type_id":"4","last_reported":1738802743,"current_range_meters":4000,"station_id":"","pricing_plan_id":"cebpf4jnsgd1na2vs0mg"},{"bike_id":"b9452b32-8f5d-4c98-bc11-fee58cf523e3","system_id":"levelo_inurba_marseille","lat":43.29913,"lon":5.4362,"is_reserved":false,"is_disabled":false,"rental_uris":{"android":"levelo://app?vid=b9452b32-8f5d-4c98-bc11-fee58cf523e3","ios":"levelo://app?vid=b9452b32-8f5d-4c98-bc11-fee58cf523e3"},"vehicle_type_id":"4","last_reported":1738802743,"current_range_meters":22800,"station_id":"ce4bhpp2rcd13ifvqhfg","pricing_plan_id":"cebpf4jnsgd1na2vs0mg"},{"bike_id":"d1d51ec2-e1ab-4b92-9a4b-f935b04ef436","system_id":"levelo_inurba_marseille","lat":43.25008,"lon":5.38941,"is_reserved":false,"is_disabled":false,"rental_uris":{"android":"levelo://app?vid=d1d51ec2-e1ab-4b92-9a4b-f935b04ef436","ios":"levelo://app?vid=d1d51ec2-e1ab-4b92-9a4b-f935b04ef436"},"vehicle_type_id":"4","last_reported":1738802743,"current_range_meters":22000,"station_id":"ce4bhgp2rcd13ifvqfd0","pricing_plan_id":"cebpf4jnsgd1na2vs0mg"},{"bike_id":"13b3b6a1-f920-47ec-ad77-f4e3fb2eb0d2","system_id":"levelo_inurba_marseille","lat":43.25815,"lon":5.39432,"is_reserved":false,"is_disabled":false,"rental_uris":{"android":"levelo://app?vid=13b3b6a1-f920-47ec-ad77-f4e3fb2eb0d2","ios":"levelo://app?vid=13b3b6a1-f920-47ec-ad77-f4e3fb2eb0d2"},"vehicle_type_id":"4","last_reported":1738802743,"current_range_meters":39200,"station_id":"ce4bhip2rcd13ifvqft0","pricing_plan_id":"cebpf4jnsgd1na2vs0mg"},{"bike_id":"af14dc48-28a4-4089-b8c3-97137c485b38","system_id":"levelo_inurba_marseille","lat":43.27831,"lon":5.39201,"is_reserved":false,"is_disabled":false,"rental_uris":{"android":"levelo://app?vid=af14dc48-28a4-4089-b8c3-97137c485b38","ios":"levelo://app?vid=af14dc48-28a4-4089-b8c3-97137c485b38"},"vehicle_type_id":"4","last_reported":1738802743,"current_range_meters":35600,"station_id":"ce4bhjp2rcd13ifvqga0","pricing_plan_id":"cebpf4jnsgd1na2vs0mg"},{"bike_id":"b25191ba-4da1-4faf-a289-dddfe883f883","system_id":"levelo_inurba_marseille","lat":43.30542,"lon":5.38436,"is_reserved":false,"is_disabled":false,"rental_uris":{"android":"levelo://app?vid=b25191ba-4da1-4faf-a289-dddfe883f883","ios":"levelo://app?vid=b25191ba-4da1-4faf-a289-dddfe883f883"},"vehicle_type_id":"4","last_reported":1738802743,"current_range_meters":22000,"station_id":"ce4bgg92rcd13ifvqb30","pricing_plan_id":"cebpf4jnsgd1na2vs0mg"},{"bike_id":"4b8ebb57-383a-4534-9d9b-e4cc6cd9fa82","system_id":"levelo_inurba_marseille","lat":43.29042,"lon":5.39928,"is_reserved":false,"is_disabled":false,"rental_uris":{"android":"levelo://app?vid=4b8ebb57-383a-4534-9d9b-e4cc6cd9fa82","ios":"levelo://app?vid=4b8ebb57-383a-4534-9d9b-e4cc6cd9fa82"},"vehicle_type_id":"4","last_reported":1738802743,"current_range_meters":37600,"station_id":"ce4bh392rcd13ifvqdm0","pricing_plan_id":"cebpf4jnsgd1na2vs0mg"},{"bike_id":"6100990f-c4b7-4419-ab12-3d9c2a9f7c81","system_id":"levelo_inurba_marseille","lat":43.28276,"lon":5.35078,"is_reserved":false,"is_disabled":false,"rental_uris":{"android":"levelo://app?vid=6100990f-c4b7-4419-ab12-3d9c2a9f7c81","ios":"levelo://app?vid=6100990f-c4b7-4419-ab12-3d9c2a9f7c81"},"vehicle_type_id":"4","last_reported":1738802743,"current_range_meters":36800,"station_id":"ce4bhbp2rcd13ifvqerg","pricing_plan_id":"cebpf4jnsgd1na2vs0mg"},{"bike_id":"d812acb3-8bc1-471a-a24b-c9be9ba671b3","system_id":"levelo_inurba_marseille","lat":43.2988,"lon":5.38906,"is_reserved":false,"is_disabled":false,"rental_uris":{"android":"levelo://app?vid=d812acb3-8bc1-471a-a24b-c9be9ba671b3","ios":"levelo://app?vid=d812acb3-8bc1-471a-a24b-c9be9ba671b3"},"vehicle_type_id":"4","last_reported":1738802743,"current_range_meters":38800,"station_id":"ce4bh392rcd13ifvqdl0","pricing_plan_id":"cebpf4jnsgd1na2vs0mg"},{"bike_id":"b4dd11d9-f5c3-4a76-8fd4-886358e2197a","system_id":"levelo_inurba_marseille","lat":43.28449,"lon":5.39192,"is_reserved":false,"is_disabled":false,"rental_uris":{"android":"levelo://app?vid=b4dd11d9-f5c3-4a76-8fd4-886358e2197a","ios":"levelo://app?vid=b4dd11d9-f5c3-4a76-8fd4-886358e2197a"},"vehicle_type_id":"4","last_reported":1738802743,"current_range_meters":38400,"station_id":"ce4bhoh2rcd13ifvqh5g","pricing_plan_id":"cebpf4jnsgd1na2vs0mg"},{"bike_id":"4632f171-cf04-4c40-bf57-85014fbe394d","system_id":"levelo_inurba_marseille","lat":43.288472,"lon":5.393189,"is_reserved":false,"is_disabled":false,"rental_uris":{"android":"levelo://app?vid=4632f171-cf04-4c40-bf57-85014fbe394d","ios":"levelo://app?vid=4632f171-cf04-4c40-bf57-85014fbe394d"},"vehicle_type_id":"4","last_reported":1738802743,"current_range_meters":30800,"station_id":"ce4bh2p2rcd13ifvqdi0","pricing_plan_id":"cebpf4jnsgd1na2vs0mg"},{"bike_id":"e1965185-8b7d-462c-abfb-9c1110c12af4","system_id":"levelo_inurba_marseille","lat":43.291846,"lon":5.393076,"is_reserved":false,"is_disabled":false,"rental_uris":{"android":"levelo://app?vid=e1965185-8b7d-462c-abfb-9c1110c12af4","ios":"levelo://app?vid=e1965185-8b7d-462c-abfb-9c1110c12af4"},"vehicle_type_id":"4","last_reported":1738802743,"current_range_meters":38400,"station_id":"ce4bh192rcd13ifvqdd0","pricing_plan_id":"cebpf4jnsgd1na2vs0mg"},{"bike_id":"9e7ed56e-6161-417b-903e-3c3d0dd4efa8","system_id":"levelo_inurba_marseille","lat":43.27898,"lon":5.37996,"is_reserved":false,"is_disabled":false,"rental_uris":{"android":"levelo://app?vid=9e7ed56e-6161-417b-903e-3c3d0dd4efa8","ios":"levelo://app?vid=9e7ed56e-6161-417b-903e-3c3d0dd4efa8"},"vehicle_type_id":"4","last_reported":1738802743,"current_range_meters":39200,"station_id":"ce4bhf92rcd13ifvqf50","pricing_plan_id":"cebpf4jnsgd1na2vs0mg"},{"bike_id":"753baeb7-2e77-4b96-96f4-de8ace8429a8","system_id":"levelo_inurba_marseille","lat":43.24675,"lon":5.38164,"is_reserved":false,"is_disabled":false,"rental_uris":{"android":"levelo://app?vid=753baeb7-2e77-4b96-96f4-de8ace8429a8","ios":"levelo://app?vid=753baeb7-2e77-4b96-96f4-de8ace8429a8"},"vehicle_type_id":"4","last_reported":1738802743,"current_range_meters":38000,"station_id":"ce4bhih2rcd13ifvqfr0","pricing_plan_id":"cebpf4jnsgd1na2vs0mg"},{"bike_id":"996e7d18-949b-415c-b2eb-96663b1c0c3c","system_id":"levelo_inurba_marseille","lat":43.30817,"lon":5.38139,"is_reserved":false,"is_disabled":false,"rental_uris":{"android":"levelo://app?vid=996e7d18-949b-415c-b2eb-96663b1c0c3c","ios":"levelo://app?vid=996e7d18-949b-415c-b2eb-96663b1c0c3c"},"vehicle_type_id":"4","last_reported":1738802743,"current_range_meters":38800,"station_id":"ce4bgt12rcd13ifvqce0","pricing_plan_id":"cebpf4jnsgd1na2vs0mg"},{"bike_id":"3112f45f-0119-4c79-97f5-b10928fae186","system_id":"levelo_inurba_marseille","lat":43.28606,"lon":5.37047,"is_reserved":false,"is_disabled":false,"rental_uris":{"android":"levelo://app?vid=3112f45f-0119-4c79-97f5-b10928fae186","ios":"levelo://app?vid=3112f45f-0119-4c79-97f5-b10928fae186"},"vehicle_type_id":"4","last_reported":1738802743,"current_range_meters":27600,"station_id":"ce4bht12rcd13ifvqi60","pricing_plan_id":"cebpf4jnsgd1na2vs0mg"},{"bike_id":"f0905a6d-679c-4b82-9981-9a5a6f538c14","system_id":"levelo_inurba_marseille","lat":43.29875,"lon":5.39736,"is_reserved":false,"is_disabled":false,"rental_uris":{"android":"levelo://app?vid=f0905a6d-679c-4b82-9981-9a5a6f538c14","ios":"levelo://app?vid=f0905a6d-679c-4b82-9981-9a5a6f538c14"},"vehicle_type_id":"4","last_reported":1738802743,"current_range_meters":39200,"station_id":"ce4bh0h2rcd13ifvqd50","pricing_plan_id":"cebpf4jnsgd1na2vs0mg"},{"bike_id":"585fe3f6-a722-4f6f-b2a6-5f7617e3a74b","system_id":"levelo_inurba_marseille","lat":43.25116,"lon":5.40336,"is_reserved":false,"is_disabled":false,"rental_uris":{"android":"levelo://app?vid=585fe3f6-a722-4f6f-b2a6-5f7617e3a74b","ios":"levelo://app?vid=585fe3f6-a722-4f6f-b2a6-5f7617e3a74b"},"vehicle_type_id":"4","last_reported":1738802743,"current_range_meters":39200,"station_id":"ce4bhlh2rcd13ifvqgig","pricing_plan_id":"cebpf4jnsgd1na2vs0mg"},{"bike_id":"a313022c-f1b4-4a19-8eef-2284eb49bf2c","system_id":"levelo_inurba_marseille","lat":43.29277,"lon":5.40891,"is_reserved":false,"is_disabled":false,"rental_uris":{"android":"levelo://app?vid=a313022c-f1b4-4a19-8eef-2284eb49bf2c","ios":"levelo://app?vid=a313022c-f1b4-4a19-8eef-2284eb49bf2c"},"vehicle_type_id":"4","last_reported":1738802743,"current_range_meters":32400,"station_id":"ce4bh192rcd13ifvqdc0","pricing_plan_id":"cebpf4jnsgd1na2vs0mg"},{"bike_id":"bc4186b3-1073-492b-ab95-0326a7b12d0e","system_id":"levelo_inurba_marseille","lat":43.28412,"lon":5.34999,"is_reserved":false,"is_disabled":false,"rental_uris":{"android":"levelo://app?vid=bc4186b3-1073-492b-ab95-0326a7b12d0e","ios":"levelo://app?vid=bc4186b3-1073-492b-ab95-0326a7b12d0e"},"vehicle_type_id":"4","last_reported":1738802743,"current_range_meters":34000,"station_id":"ce4bhbh2rcd13ifvqepg","pricing_plan_id":"cebpf4jnsgd1na2vs0mg"},{"bike_id":"70fbe035-321d-404d-abb5-90c57c24fee3","system_id":"levelo_inurba_marseille","lat":43.29905,"lon":5.38107,"is_reserved":false,"is_disabled":true,"rental_uris":{"android":"levelo://app?vid=70fbe035-321d-404d-abb5-90c57c24fee3","ios":"levelo://app?vid=70fbe035-321d-404d-abb5-90c57c24fee3"},"vehicle_type_id":"4","last_reported":1738802743,"current_range_meters":1600,"station_id":"ce4bgj12rcd13ifvqbc0","pricing_plan_id":"cebpf4jnsgd1na2vs0mg"},{"bike_id":"715f9245-91da-4a7e-a344-95d8ba7af07c","system_id":"levelo_inurba_marseille","lat":43.29022,"lon":5.38654,"is_reserved":false,"is_disabled":true,"rental_uris":{"android":"levelo://app?vid=715f9245-91da-4a7e-a344-95d8ba7af07c","ios":"levelo://app?vid=715f9245-91da-4a7e-a344-95d8ba7af07c"},"vehicle_type_id":"4","last_reported":1738802743,"current_range_meters":19200,"station_id":"ce4bh4p2rcd13ifvqe0g","pricing_plan_id":"cebpf4jnsgd1na2vs0mg"},{"bike_id":"ca548841-038a-498c-a964-8af9b79f0f47","system_id":"levelo_inurba_marseille","lat":43.28025,"lon":5.3695,"is_reserved":false,"is_disabled":false,"rental_uris":{"android":"levelo://app?vid=ca548841-038a-498c-a964-8af9b79f0f47","ios":"levelo://app?vid=ca548841-038a-498c-a964-8af9b79f0f47"},"vehicle_type_id":"4","last_reported":1738802743,"current_range_meters":38800,"station_id":"ce4bha12rcd13ifvqef0","pricing_plan_id":"cebpf4jnsgd1na2vs0mg"},{"bike_id":"53a4de8b-fe36-426f-8884-7ac8d8b4da0e","system_id":"levelo_inurba_marseille","lat":43.26943,"lon":5.3892,"is_reserved":false,"is_disabled":false,"rental_uris":{"android":"levelo://app?vid=53a4de8b-fe36-426f-8884-7ac8d8b4da0e","ios":"levelo://app?vid=53a4de8b-fe36-426f-8884-7ac8d8b4da0e"},"vehicle_type_id":"4","last_reported":1738802743,"current_range_meters":30400,"station_id":"ce4bhhh2rcd13ifvqfl0","pricing_plan_id":"cebpf4jnsgd1na2vs0mg"},{"bike_id":"95823b3e-f00f-4f48-8ff1-d3edc43e838e","system_id":"levelo_inurba_marseille","lat":43.24828,"lon":5.3744,"is_reserved":false,"is_disabled":false,"rental_uris":{"android":"levelo://app?vid=95823b3e-f00f-4f48-8ff1-d3edc43e838e","ios":"levelo://app?vid=95823b3e-f00f-4f48-8ff1-d3edc43e838e"},"vehicle_type_id":"4","last_reported":1738802743,"current_range_meters":28800,"station_id":"ce4bhgh2rcd13ifvqfb0","pricing_plan_id":"cebpf4jnsgd1na2vs0mg"},{"bike_id":"d9fb1163-7c26-4de7-8fb7-a6aa0459ed13","system_id":"levelo_inurba_marseille","lat":43.28445,"lon":5.35885,"is_reserved":false,"is_disabled":false,"rental_uris":{"android":"levelo://app?vid=d9fb1163-7c26-4de7-8fb7-a6aa0459ed13","ios":"levelo://app?vid=d9fb1163-7c26-4de7-8fb7-a6aa0459ed13"},"vehicle_type_id":"4","last_reported":1738802743,"current_range_meters":36000,"station_id":"ce4bhah2rcd13ifvqei0","pricing_plan_id":"cebpf4jnsgd1na2vs0mg"},{"bike_id":"2b52254f-933d-4903-ac07-21eb27a1e798","system_id":"levelo_inurba_marseille","lat":43.27198,"lon":5.40987,"is_reserved":false,"is_disabled":false,"rental_uris":{"android":"levelo://app?vid=2b52254f-933d-4903-ac07-21eb27a1e798","ios":"levelo://app?vid=2b52254f-933d-4903-ac07-21eb27a1e798"},"vehicle_type_id":"4","last_reported":1738802743,"current_range_meters":38000,"station_id":"ce4bhl12rcd13ifvqgf0","pricing_plan_id":"cebpf4jnsgd1na2vs0mg"},{"bike_id":"de014929-e012-4fc2-baab-6ba4be581733","system_id":"levelo_inurba_marseille","lat":43.3042,"lon":5.41277,"is_reserved":false,"is_disabled":false,"rental_uris":{"android":"levelo://app?vid=de014929-e012-4fc2-baab-6ba4be581733","ios":"levelo://app?vid=de014929-e012-4fc2-baab-6ba4be581733"},"vehicle_type_id":"4","last_reported":1738802743,"current_range_meters":3200,"station_id":"ce4bhop2rcd13ifvqh8g","pricing_plan_id":"cebpf4jnsgd1na2vs0mg"},{"bike_id":"0bbb4e04-c71f-4c3c-a6b2-8a7e9b07e32b","system_id":"levelo_inurba_marseille","lat":43.28563,"lon":5.39494,"is_reserved":false,"is_disabled":false,"rental_uris":{"android":"levelo://app?vid=0bbb4e04-c71f-4c3c-a6b2-8a7e9b07e32b","ios":"levelo://app?vid=0bbb4e04-c71f-4c3c-a6b2-8a7e9b07e32b"},"vehicle_type_id":"4","last_reported":1738802743,"current_range_meters":28800,"station_id":"ce4bh292rcd13ifvqdg0","pricing_plan_id":"cebpf4jnsgd1na2vs0mg"},{"bike_id":"0bac15cc-6a2a-4ca7-9838-b4765dbc3f15","system_id":"levelo_inurba_marseille","lat":43.28711,"lon":5.39966,"is_reserved":false,"is_disabled":false,"rental_uris":{"android":"levelo://app?vid=0bac15cc-6a2a-4ca7-9838-b4765dbc3f15","ios":"levelo://app?vid=0bac15cc-6a2a-4ca7-9838-b4765dbc3f15"},"vehicle_type_id":"4","last_reported":1738802743,"current_range_meters":17200,"station_id":"ce4bho92rcd13ifvqh3g","pricing_plan_id":"cebpf4jnsgd1na2vs0mg"},{"bike_id":"52990ad3-a46b-4f6e-b6b0-37c9c50197a1","system_id":"levelo_inurba_marseille","lat":43.317579,"lon":5.390204,"is_reserved":false,"is_disabled":false,"rental_uris":{"android":"levelo://app?vid=52990ad3-a46b-4f6e-b6b0-37c9c50197a1","ios":"levelo://app?vid=52990ad3-a46b-4f6e-b6b0-37c9c50197a1"},"vehicle_type_id":"4","last_reported":1738802743,"current_range_meters":39200,"station_id":"ce4bhqp2rcd13ifvqhng","pricing_plan_id":"cebpf4jnsgd1na2vs0mg"},{"bike_id":"e7243432-da26-424a-a350-5dc6d22faec1","system_id":"levelo_inurba_marseille","lat":43.30135,"lon":5.39855,"is_reserved":false,"is_disabled":false,"rental_uris":{"android":"levelo://app?vid=e7243432-da26-424a-a350-5dc6d22faec1","ios":"levelo://app?vid=e7243432-da26-424a-a350-5dc6d22faec1"},"vehicle_type_id":"4","last_reported":1738802743,"current_range_meters":26800,"station_id":"ce4bh0h2rcd13ifvqd40","pricing_plan_id":"cebpf4jnsgd1na2vs0mg"},{"bike_id":"b0835b4d-5d4e-4b83-8d65-c34141a6bbbb","system_id":"levelo_inurba_marseille","lat":43.29043,"lon":5.35909,"is_reserved":false,"is_disabled":false,"rental_uris":{"android":"levelo://app?vid=b0835b4d-5d4e-4b83-8d65-c34141a6bbbb","ios":"levelo://app?vid=b0835b4d-5d4e-4b83-8d65-c34141a6bbbb"},"vehicle_type_id":"4","last_reported":1738802743,"current_range_meters":39200,"station_id":"ce4bha92rcd13ifvqeg0","pricing_plan_id":"cebpf4jnsgd1na2vs0mg"},{"bike_id":"17bc3afb-aa13-4bd1-bd66-4686c27bdaac","system_id":"levelo_inurba_marseille","lat":43.28018,"lon":5.36948,"is_reserved":false,"is_disabled":false,"rental_uris":{"android":"levelo://app?vid=17bc3afb-aa13-4bd1-bd66-4686c27bdaac","ios":"levelo://app?vid=17bc3afb-aa13-4bd1-bd66-4686c27bdaac"},"vehicle_type_id":"4","last_reported":1738802743,"current_range_meters":30800,"station_id":"ce4bha12rcd13ifvqef0","pricing_plan_id":"cebpf4jnsgd1na2vs0mg"},{"bike_id":"bc3a20aa-daf6-4c5e-ac1c-17a251997803","system_id":"levelo_inurba_marseille","lat":43.24546,"lon":5.39532,"is_reserved":false,"is_disabled":false,"rental_uris":{"android":"levelo://app?vid=bc3a20aa-daf6-4c5e-ac1c-17a251997803","ios":"levelo://app?vid=bc3a20aa-daf6-4c5e-ac1c-17a251997803"},"vehicle_type_id":"4","last_reported":1738802743,"current_range_meters":38400,"station_id":"ce4bhlp2rcd13ifvqgjg","pricing_plan_id":"cebpf4jnsgd1na2vs0mg"},{"bike_id":"b71a6766-e312-4101-9374-6428935a1975","system_id":"levelo_inurba_marseille","lat":43.28729,"lon":5.39974,"is_reserved":false,"is_disabled":false,"rental_uris":{"android":"levelo://app?vid=b71a6766-e312-4101-9374-6428935a1975","ios":"levelo://app?vid=b71a6766-e312-4101-9374-6428935a1975"},"vehicle_type_id":"4","last_reported":1738802743,"current_range_meters":26000,"station_id":"ce4bho92rcd13ifvqh3g","pricing_plan_id":"cebpf4jnsgd1na2vs0mg"},{"bike_id":"ee700b58-1831-45f5-9e03-082de2e2335d","system_id":"levelo_inurba_marseille","lat":43.30412,"lon":5.41294,"is_reserved":false,"is_disabled":false,"rental_uris":{"android":"levelo://app?vid=ee700b58-1831-45f5-9e03-082de2e2335d","ios":"levelo://app?vid=ee700b58-1831-45f5-9e03-082de2e2335d"},"vehicle_type_id":"4","last_reported":1738802743,"current_range_meters":32400,"station_id":"ce4bhop2rcd13ifvqh8g","pricing_plan_id":"cebpf4jnsgd1na2vs0mg"},{"bike_id":"9d014965-03fa-43ec-b7ec-0fa7a013040d","system_id":"levelo_inurba_marseille","lat":43.285645,"lon":5.394961,"is_reserved":false,"is_disabled":false,"rental_uris":{"android":"levelo://app?vid=9d014965-03fa-43ec-b7ec-0fa7a013040d","ios":"levelo://app?vid=9d014965-03fa-43ec-b7ec-0fa7a013040d"},"vehicle_type_id":"4","last_reported":1738802743,"current_range_meters":38800,"station_id":"ce4bh292rcd13ifvqdg0","pricing_plan_id":"cebpf4jnsgd1na2vs0mg"},{"bike_id":"b83e3630-eec5-49a3-bb87-e38b1697e344","system_id":"levelo_inurba_marseille","lat":43.2885,"lon":5.39308,"is_reserved":false,"is_disabled":false,"rental_uris":{"android":"levelo://app?vid=b83e3630-eec5-49a3-bb87-e38b1697e344","ios":"levelo://app?vid=b83e3630-eec5-49a3-bb87-e38b1697e344"},"vehicle_type_id":"4","last_reported":1738802743,"current_range_meters":31200,"station_id":"ce4bh2p2rcd13ifvqdi0","pricing_plan_id":"cebpf4jnsgd1na2vs0mg"},{"bike_id":"09963baf-f270-43fd-8845-1d0fc8b80973","system_id":"levelo_inurba_marseille","lat":43.2909,"lon":5.38156,"is_reserved":false,"is_disabled":true,"rental_uris":{"android":"levelo://app?vid=09963baf-f270-43fd-8845-1d0fc8b80973","ios":"levelo://app?vid=09963baf-f270-43fd-8845-1d0fc8b80973"},"vehicle_type_id":"4","last_reported":1738802743,"current_range_meters":1600,"station_id":"ce4bh512rcd13ifvqe2g","pricing_plan_id":"cebpf4jnsgd1na2vs0mg"},{"bike_id":"f43b8c84-0353-4e13-a527-2245aba3e91f","system_id":"levelo_inurba_marseille","lat":43.24543,"lon":5.39532,"is_reserved":false,"is_disabled":false,"rental_uris":{"android":"levelo://app?vid=f43b8c84-0353-4e13-a527-2245aba3e91f","ios":"levelo://app?vid=f43b8c84-0353-4e13-a527-2245aba3e91f"},"vehicle_type_id":"4","last_reported":1738802743,"current_range_meters":39200,"station_id":"ce4bhlp2rcd13ifvqgjg","pricing_plan_id":"cebpf4jnsgd1na2vs0mg"},{"bike_id":"02873ea7-5516-4849-b2e5-740de8383101","system_id":"levelo_inurba_marseille","lat":43.30812,"lon":5.38159,"is_reserved":false,"is_disabled":false,"rental_uris":{"android":"levelo://app?vid=02873ea7-5516-4849-b2e5-740de8383101","ios":"levelo://app?vid=02873ea7-5516-4849-b2e5-740de8383101"},"vehicle_type_id":"4","last_reported":1738802743,"current_range_meters":14400,"station_id":"ce4bgt12rcd13ifvqce0","pricing_plan_id":"cebpf4jnsgd1na2vs0mg"},{"bike_id":"c63f89fe-6e68-417d-b85b-f0e646548dc9","system_id":"levelo_inurba_marseille","lat":43.28004,"lon":5.40009,"is_reserved":false,"is_disabled":false,"rental_uris":{"android":"levelo://app?vid=c63f89fe-6e68-417d-b85b-f0e646548dc9","ios":"levelo://app?vid=c63f89fe-6e68-417d-b85b-f0e646548dc9"},"vehicle_type_id":"4","last_reported":1738802743,"current_range_meters":28800,"station_id":"ce4bho92rcd13ifvqh4g","pricing_plan_id":"cebpf4jnsgd1na2vs0mg"},{"bike_id":"e4166247-c0cb-44bd-86de-c16fa3f40ccd","system_id":"levelo_inurba_marseille","lat":43.31064,"lon":5.38345,"is_reserved":false,"is_disabled":false,"rental_uris":{"android":"levelo://app?vid=e4166247-c0cb-44bd-86de-c16fa3f40ccd","ios":"levelo://app?vid=e4166247-c0cb-44bd-86de-c16fa3f40ccd"},"vehicle_type_id":"4","last_reported":1738802743,"current_range_meters":38800,"station_id":"ce4bgv92rcd13ifvqcr0","pricing_plan_id":"cebpf4jnsgd1na2vs0mg"},{"bike_id":"a9ee38d0-21e8-4d99-8e3f-cc643e32473e","system_id":"levelo_inurba_marseille","lat":43.27842,"lon":5.40721,"is_reserved":false,"is_disabled":false,"rental_uris":{"android":"levelo://app?vid=a9ee38d0-21e8-4d99-8e3f-cc643e32473e","ios":"levelo://app?vid=a9ee38d0-21e8-4d99-8e3f-cc643e32473e"},"vehicle_type_id":"4","last_reported":1738802743,"current_range_meters":36800,"station_id":"ce4bhnh2rcd13ifvqgtg","pricing_plan_id":"cebpf4jnsgd1na2vs0mg"},{"bike_id":"16c08f4f-5078-4227-884d-a77ebbaaee0c","system_id":"levelo_inurba_marseille","lat":43.28174,"lon":5.42659,"is_reserved":false,"is_disabled":false,"rental_uris":{"android":"levelo://app?vid=16c08f4f-5078-4227-884d-a77ebbaaee0c","ios":"levelo://app?vid=16c08f4f-5078-4227-884d-a77ebbaaee0c"},"vehicle_type_id":"4","last_reported":1738802743,"current_range_meters":4400,"station_id":"ce4bhnh2rcd13ifvqgug","pricing_plan_id":"cebpf4jnsgd1na2vs0mg"},{"bike_id":"9c81c1b8-1b89-413e-855b-6a07871bc1e0","system_id":"levelo_inurba_marseille","lat":43.23909,"lon":5.36731,"is_reserved":false,"is_disabled":false,"rental_uris":{"android":"levelo://app?vid=9c81c1b8-1b89-413e-855b-6a07871bc1e0","ios":"levelo://app?vid=9c81c1b8-1b89-413e-855b-6a07871bc1e0"},"vehicle_type_id":"4","last_reported":1738802743,"current_range_meters":23200,"station_id":"ce4bhi12rcd13ifvqfp0","pricing_plan_id":"cebpf4jnsgd1na2vs0mg"},{"bike_id":"dd44b27e-5cdd-40ef-9581-50edd772f436","system_id":"levelo_inurba_marseille","lat":43.30884,"lon":5.39646,"is_reserved":false,"is_disabled":false,"rental_uris":{"android":"levelo://app?vid=dd44b27e-5cdd-40ef-9581-50edd772f436","ios":"levelo://app?vid=dd44b27e-5cdd-40ef-9581-50edd772f436"},"vehicle_type_id":"4","last_reported":1738802743,"current_range_meters":10800,"station_id":"ce4bh012rcd13ifvqcv0","pricing_plan_id":"cebpf4jnsgd1na2vs0mg"},{"bike_id":"66c91f0e-d404-4399-99c9-77276ceb134d","system_id":"levelo_inurba_marseille","lat":43.30547,"lon":5.36576,"is_reserved":false,"is_disabled":true,"rental_uris":{"android":"levelo://app?vid=66c91f0e-d404-4399-99c9-77276ceb134d","ios":"levelo://app?vid=66c91f0e-d404-4399-99c9-77276ceb134d"},"vehicle_type_id":"4","last_reported":1738802743,"current_range_meters":36800,"station_id":"ce4bgs12rcd13ifvqcag","pricing_plan_id":"cebpf4jnsgd1na2vs0mg"},{"bike_id":"3d1d38d7-e37e-41a9-9885-0f5e96cdb53e","system_id":"levelo_inurba_marseille","lat":43.2845,"lon":5.35892,"is_reserved":false,"is_disabled":false,"rental_uris":{"android":"levelo://app?vid=3d1d38d7-e37e-41a9-9885-0f5e96cdb53e","ios":"levelo://app?vid=3d1d38d7-e37e-41a9-9885-0f5e96cdb53e"},"vehicle_type_id":"4","last_reported":1738802743,"current_range_meters":14800,"station_id":"ce4bhah2rcd13ifvqei0","pricing_plan_id":"cebpf4jnsgd1na2vs0mg"},{"bike_id":"bab07d03-5352-4a1b-80e4-e1f9df8edacd","system_id":"levelo_inurba_marseille","lat":43.23189,"lon":5.35573,"is_reserved":false,"is_disabled":false,"rental_uris":{"android":"levelo://app?vid=bab07d03-5352-4a1b-80e4-e1f9df8edacd","ios":"levelo://app?vid=bab07d03-5352-4a1b-80e4-e1f9df8edacd"},"vehicle_type_id":"4","last_reported":1738802743,"current_range_meters":36400,"station_id":"ce4bhu92rcd13ifvqi70","pricing_plan_id":"cebpf4jnsgd1na2vs0mg"},{"bike_id":"d6b02ddb-972e-4e31-a154-3f284d3774cf","system_id":"levelo_inurba_marseille","lat":43.2871,"lon":5.39979,"is_reserved":false,"is_disabled":false,"rental_uris":{"android":"levelo://app?vid=d6b02ddb-972e-4e31-a154-3f284d3774cf","ios":"levelo://app?vid=d6b02ddb-972e-4e31-a154-3f284d3774cf"},"vehicle_type_id":"4","last_reported":1738802743,"current_range_meters":36400,"station_id":"ce4bho92rcd13ifvqh3g","pricing_plan_id":"cebpf4jnsgd1na2vs0mg"},{"bike_id":"24b00351-87f7-42c4-a914-e5f1a157a3c5","system_id":"levelo_inurba_marseille","lat":43.27896,"lon":5.38007,"is_reserved":false,"is_disabled":false,"rental_uris":{"android":"levelo://app?vid=24b00351-87f7-42c4-a914-e5f1a157a3c5","ios":"levelo://app?vid=24b00351-87f7-42c4-a914-e5f1a157a3c5"},"vehicle_type_id":"4","last_reported":1738802743,"current_range_meters":38800,"station_id":"ce4bhf92rcd13ifvqf50","pricing_plan_id":"cebpf4jnsgd1na2vs0mg"},{"bike_id":"9ebcbce8-964a-4689-9667-09d1b3c783c6","system_id":"levelo_inurba_marseille","lat":43.302621,"lon":5.400771,"is_reserved":false,"is_disabled":false,"rental_uris":{"android":"levelo://app?vid=9ebcbce8-964a-4689-9667-09d1b3c783c6","ios":"levelo://app?vid=9ebcbce8-964a-4689-9667-09d1b3c783c6"},"vehicle_type_id":"4","last_reported":1738802743,"current_range_meters":39200,"station_id":"ce4bgvh2rcd13ifvqcs0","pricing_plan_id":"cebpf4jnsgd1na2vs0mg"},{"bike_id":"7a403815-4564-4bf5-91d5-f589fdaa975e","system_id":"levelo_inurba_marseille","lat":43.28614,"lon":5.35119,"is_reserved":false,"is_disabled":false,"rental_uris":{"android":"levelo://app?vid=7a403815-4564-4bf5-91d5-f589fdaa975e","ios":"levelo://app?vid=7a403815-4564-4bf5-91d5-f589fdaa975e"},"vehicle_type_id":"4","last_reported":1738802743,"current_range_meters":13600,"station_id":"ce4bhch2rcd13ifvqeug","pricing_plan_id":"cebpf4jnsgd1na2vs0mg"},{"bike_id":"fe6af45d-16c8-46c2-8c40-0e7d876a3309","system_id":"levelo_inurba_marseille","lat":43.29043,"lon":5.39954,"is_reserved":false,"is_disabled":true,"rental_uris":{"android":"levelo://app?vid=fe6af45d-16c8-46c2-8c40-0e7d876a3309","ios":"levelo://app?vid=fe6af45d-16c8-46c2-8c40-0e7d876a3309"},"vehicle_type_id":"4","last_reported":1738802743,"current_range_meters":0,"station_id":"ce4bh392rcd13ifvqdm0","pricing_plan_id":"cebpf4jnsgd1na2vs0mg"},{"bike_id":"56915f38-ec53-48db-9554-671348a1f6cb","system_id":"levelo_inurba_marseille","lat":43.3301,"lon":5.39036,"is_reserved":false,"is_disabled":false,"rental_uris":{"android":"levelo://app?vid=56915f38-ec53-48db-9554-671348a1f6cb","ios":"levelo://app?vid=56915f38-ec53-48db-9554-671348a1f6cb"},"vehicle_type_id":"4","last_reported":1738802743,"current_range_meters":36800,"station_id":"ce4bhr92rcd13ifvqhrg","pricing_plan_id":"cebpf4jnsgd1na2vs0mg"},{"bike_id":"8452be1d-f1e6-4a63-8fa5-cfe4371f93e3","system_id":"levelo_inurba_marseille","lat":43.28843,"lon":5.3932,"is_reserved":false,"is_disabled":false,"rental_uris":{"android":"levelo://app?vid=8452be1d-f1e6-4a63-8fa5-cfe4371f93e3","ios":"levelo://app?vid=8452be1d-f1e6-4a63-8fa5-cfe4371f93e3"},"vehicle_type_id":"4","last_reported":1738802743,"current_range_meters":20800,"station_id":"ce4bho92rcd13ifvqh3g","pricing_plan_id":"cebpf4jnsgd1na2vs0mg"},{"bike_id":"ddb48a2e-0e7a-4db9-bb08-d15c6b7ecf4a","system_id":"levelo_inurba_marseille","lat":43.27626,"lon":5.36122,"is_reserved":false,"is_disabled":false,"rental_uris":{"android":"levelo://app?vid=ddb48a2e-0e7a-4db9-bb08-d15c6b7ecf4a","ios":"levelo://app?vid=ddb48a2e-0e7a-4db9-bb08-d15c6b7ecf4a"},"vehicle_type_id":"4","last_reported":1738802743,"current_range_meters":38000,"station_id":"ce4bgj92rcd13ifvqbe0","pricing_plan_id":"cebpf4jnsgd1na2vs0mg"},{"bike_id":"039d6344-780f-4135-a3ba-fc6df29ecbb3","system_id":"levelo_inurba_marseille","lat":43.27373,"lon":5.36261,"is_reserved":false,"is_disabled":false,"rental_uris":{"android":"levelo://app?vid=039d6344-780f-4135-a3ba-fc6df29ecbb3","ios":"levelo://app?vid=039d6344-780f-4135-a3ba-fc6df29ecbb3"},"vehicle_type_id":"4","last_reported":1738802743,"current_range_meters":38800,"station_id":"ce4bhbh2rcd13ifvqeo0","pricing_plan_id":"cebpf4jnsgd1na2vs0mg"},{"bike_id":"e7d31327-323a-443c-bb67-39186722e63f","system_id":"levelo_inurba_marseille","lat":43.33767,"lon":5.37406,"is_reserved":false,"is_disabled":false,"rental_uris":{"android":"levelo://app?vid=e7d31327-323a-443c-bb67-39186722e63f","ios":"levelo://app?vid=e7d31327-323a-443c-bb67-39186722e63f"},"vehicle_type_id":"4","last_reported":1738802743,"current_range_meters":8000,"station_id":"","pricing_plan_id":"cebpf4jnsgd1na2vs0mg"},{"bike_id":"d085b05d-b505-47fb-9800-e6d53657b65d","system_id":"levelo_inurba_marseille","lat":43.30424,"lon":5.38896,"is_reserved":false,"is_disabled":false,"rental_uris":{"android":"levelo://app?vid=d085b05d-b505-47fb-9800-e6d53657b65d","ios":"levelo://app?vid=d085b05d-b505-47fb-9800-e6d53657b65d"},"vehicle_type_id":"4","last_reported":1738802743,"current_range_meters":28800,"station_id":"ce4bgk12rcd13ifvqbi0","pricing_plan_id":"cebpf4jnsgd1na2vs0mg"},{"bike_id":"2572fdac-e7f3-4485-9667-c97086ae89fa","system_id":"levelo_inurba_marseille","lat":43.28728,"lon":5.36074,"is_reserved":false,"is_disabled":false,"rental_uris":{"android":"levelo://app?vid=2572fdac-e7f3-4485-9667-c97086ae89fa","ios":"levelo://app?vid=2572fdac-e7f3-4485-9667-c97086ae89fa"},"vehicle_type_id":"4","last_reported":1738802743,"current_range_meters":26800,"station_id":"cki0cbj6b192h4jlfktg","pricing_plan_id":"cebpf4jnsgd1na2vs0mg"},{"bike_id":"ea7a8bb1-94dd-46c6-b544-7e1ff1a7bb1f","system_id":"levelo_inurba_marseille","lat":43.31703,"lon":5.377515,"is_reserved":false,"is_disabled":false,"rental_uris":{"android":"levelo://app?vid=ea7a8bb1-94dd-46c6-b544-7e1ff1a7bb1f","ios":"levelo://app?vid=ea7a8bb1-94dd-46c6-b544-7e1ff1a7bb1f"},"vehicle_type_id":"4","last_reported":1738802743,"current_range_meters":39200,"station_id":"ce4bgth2rcd13ifvqch0","pricing_plan_id":"cebpf4jnsgd1na2vs0mg"},{"bike_id":"3cfb7099-62ec-4f80-a90a-a4428295d8b8","system_id":"levelo_inurba_marseille","lat":43.28078,"lon":5.39668,"is_reserved":false,"is_disabled":false,"rental_uris":{"android":"levelo://app?vid=3cfb7099-62ec-4f80-a90a-a4428295d8b8","ios":"levelo://app?vid=3cfb7099-62ec-4f80-a90a-a4428295d8b8"},"vehicle_type_id":"4","last_reported":1738802743,"current_range_meters":36000,"station_id":"ce4bho12rcd13ifvqh2g","pricing_plan_id":"cebpf4jnsgd1na2vs0mg"},{"bike_id":"f22c00d6-3566-4ae5-aa94-b50316485663","system_id":"levelo_inurba_marseille","lat":43.279458,"lon":5.410426,"is_reserved":false,"is_disabled":false,"rental_uris":{"android":"levelo://app?vid=f22c00d6-3566-4ae5-aa94-b50316485663","ios":"levelo://app?vid=f22c00d6-3566-4ae5-aa94-b50316485663"},"vehicle_type_id":"4","last_reported":1738802743,"current_range_meters":6800,"station_id":"ce4bhnp2rcd13ifvqh0g","pricing_plan_id":"cebpf4jnsgd1na2vs0mg"},{"bike_id":"6522239a-3688-4f94-bb02-adaf4a055ea5","system_id":"levelo_inurba_marseille","lat":43.23191,"lon":5.35564,"is_reserved":false,"is_disabled":false,"rental_uris":{"android":"levelo://app?vid=6522239a-3688-4f94-bb02-adaf4a055ea5","ios":"levelo://app?vid=6522239a-3688-4f94-bb02-adaf4a055ea5"},"vehicle_type_id":"4","last_reported":1738802743,"current_range_meters":38800,"station_id":"ce4bhu92rcd13ifvqi70","pricing_plan_id":"cebpf4jnsgd1na2vs0mg"},{"bike_id":"aee3719b-ff75-435e-aa1c-24b4bddf333e","system_id":"levelo_inurba_marseille","lat":43.24087,"lon":5.37746,"is_reserved":false,"is_disabled":false,"rental_uris":{"android":"levelo://app?vid=aee3719b-ff75-435e-aa1c-24b4bddf333e","ios":"levelo://app?vid=aee3719b-ff75-435e-aa1c-24b4bddf333e"},"vehicle_type_id":"4","last_reported":1738802743,"current_range_meters":20800,"station_id":"ce4bhnp2rcd13ifvqgvg","pricing_plan_id":"cebpf4jnsgd1na2vs0mg"},{"bike_id":"218c6780-4913-4816-a406-0f459333ae5d","system_id":"levelo_inurba_marseille","lat":43.28429,"lon":5.35905,"is_reserved":false,"is_disabled":false,"rental_uris":{"android":"levelo://app?vid=218c6780-4913-4816-a406-0f459333ae5d","ios":"levelo://app?vid=218c6780-4913-4816-a406-0f459333ae5d"},"vehicle_type_id":"4","last_reported":1738802743,"current_range_meters":29600,"station_id":"ce4bhah2rcd13ifvqei0","pricing_plan_id":"cebpf4jnsgd1na2vs0mg"},{"bike_id":"d97d59e1-9580-48c7-9ee3-34b0cdc67193","system_id":"levelo_inurba_marseille","lat":43.28109,"lon":5.37839,"is_reserved":false,"is_disabled":false,"rental_uris":{"android":"levelo://app?vid=d97d59e1-9580-48c7-9ee3-34b0cdc67193","ios":"levelo://app?vid=d97d59e1-9580-48c7-9ee3-34b0cdc67193"},"vehicle_type_id":"4","last_reported":1738802743,"current_range_meters":38800,"station_id":"ce4bha12rcd13ifvqee0","pricing_plan_id":"cebpf4jnsgd1na2vs0mg"},{"bike_id":"61857cc0-1da3-4716-a1df-4b82d2ea552c","system_id":"levelo_inurba_marseille","lat":43.2511,"lon":5.403237,"is_reserved":false,"is_disabled":false,"rental_uris":{"android":"levelo://app?vid=61857cc0-1da3-4716-a1df-4b82d2ea552c","ios":"levelo://app?vid=61857cc0-1da3-4716-a1df-4b82d2ea552c"},"vehicle_type_id":"4","last_reported":1738802743,"current_range_meters":39200,"station_id":"ce4bhlh2rcd13ifvqgig","pricing_plan_id":"cebpf4jnsgd1na2vs0mg"},{"bike_id":"cd07e062-2af1-406e-bcb9-5f1ec4730937","system_id":"levelo_inurba_marseille","lat":43.23082,"lon":5.35472,"is_reserved":false,"is_disabled":false,"rental_uris":{"android":"levelo://app?vid=cd07e062-2af1-406e-bcb9-5f1ec4730937","ios":"levelo://app?vid=cd07e062-2af1-406e-bcb9-5f1ec4730937"},"vehicle_type_id":"4","last_reported":1738802743,"current_range_meters":37600,"station_id":"cpo3342slgdg3j2ifvpg","pricing_plan_id":"cebpf4jnsgd1na2vs0mg"},{"bike_id":"c3644d12-8427-4602-9945-9ef42c46feca","system_id":"levelo_inurba_marseille","lat":43.24167,"lon":5.36393,"is_reserved":false,"is_disabled":false,"rental_uris":{"android":"levelo://app?vid=c3644d12-8427-4602-9945-9ef42c46feca","ios":"levelo://app?vid=c3644d12-8427-4602-9945-9ef42c46feca"},"vehicle_type_id":"4","last_reported":1738802743,"current_range_meters":37600,"station_id":"cpo36qri1sfpv3e86is0","pricing_plan_id":"cebpf4jnsgd1na2vs0mg"},{"bike_id":"6b38d43d-337c-4149-9167-ccfdd61c33a4","system_id":"levelo_inurba_marseille","lat":43.29226,"lon":5.36075,"is_reserved":false,"is_disabled":false,"rental_uris":{"android":"levelo://app?vid=6b38d43d-337c-4149-9167-ccfdd61c33a4","ios":"levelo://app?vid=6b38d43d-337c-4149-9167-ccfdd61c33a4"},"vehicle_type_id":"4","last_reported":1738802743,"current_range_meters":34000,"station_id":"ce4bhbh2rcd13ifvqeqg","pricing_plan_id":"cebpf4jnsgd1na2vs0mg"},{"bike_id":"274186d6-fcd1-4040-98ea-21465f7f35af","system_id":"levelo_inurba_marseille","lat":43.24993,"lon":5.38938,"is_reserved":false,"is_disabled":false,"rental_uris":{"android":"levelo://app?vid=274186d6-fcd1-4040-98ea-21465f7f35af","ios":"levelo://app?vid=274186d6-fcd1-4040-98ea-21465f7f35af"},"vehicle_type_id":"4","last_reported":1738802743,"current_range_meters":38800,"station_id":"ce4bhgp2rcd13ifvqfd0","pricing_plan_id":"cebpf4jnsgd1na2vs0mg"},{"bike_id":"1e7bde43-ab8f-4755-b59a-acd0a53ae759","system_id":"levelo_inurba_marseille","lat":43.317181,"lon":5.424034,"is_reserved":false,"is_disabled":true,"rental_uris":{"android":"levelo://app?vid=1e7bde43-ab8f-4755-b59a-acd0a53ae759","ios":"levelo://app?vid=1e7bde43-ab8f-4755-b59a-acd0a53ae759"},"vehicle_type_id":"4","last_reported":1738802743,"current_range_meters":0,"station_id":"ce4bhp92rcd13ifvqhbg","pricing_plan_id":"cebpf4jnsgd1na2vs0mg"},{"bike_id":"59b73468-fd33-4932-88a3-798abaf357eb","system_id":"levelo_inurba_marseille","lat":43.336121,"lon":5.410284,"is_reserved":false,"is_disabled":false,"rental_uris":{"android":"levelo://app?vid=59b73468-fd33-4932-88a3-798abaf357eb","ios":"levelo://app?vid=59b73468-fd33-4932-88a3-798abaf357eb"},"vehicle_type_id":"4","last_reported":1738802743,"current_range_meters":37600,"station_id":"ce4bhqh2rcd13ifvqhmg","pricing_plan_id":"cebpf4jnsgd1na2vs0mg"},{"bike_id":"2b5bb722-8b5c-41b5-9116-270f2b5ff6fa","system_id":"levelo_inurba_marseille","lat":43.28691,"lon":5.38657,"is_reserved":false,"is_disabled":false,"rental_uris":{"android":"levelo://app?vid=2b5bb722-8b5c-41b5-9116-270f2b5ff6fa","ios":"levelo://app?vid=2b5bb722-8b5c-41b5-9116-270f2b5ff6fa"},"vehicle_type_id":"4","last_reported":1738802743,"current_range_meters":39200,"station_id":"ce4bh492rcd13ifvqdug","pricing_plan_id":"cebpf4jnsgd1na2vs0mg"},{"bike_id":"bd944b22-bdc4-45a8-9a31-0c38734abd7e","system_id":"levelo_inurba_marseille","lat":43.28962,"lon":5.36381,"is_reserved":false,"is_disabled":true,"rental_uris":{"android":"levelo://app?vid=bd944b22-bdc4-45a8-9a31-0c38734abd7e","ios":"levelo://app?vid=bd944b22-bdc4-45a8-9a31-0c38734abd7e"},"vehicle_type_id":"4","last_reported":1738802743,"current_range_meters":3200,"station_id":"ce4bhc92rcd13ifvqetg","pricing_plan_id":"cebpf4jnsgd1na2vs0mg"},{"bike_id":"dea8f2dd-d434-48f4-9202-71ab3e361aaa","system_id":"levelo_inurba_marseille","lat":43.28848,"lon":5.3584,"is_reserved":false,"is_disabled":false,"rental_uris":{"android":"levelo://app?vid=dea8f2dd-d434-48f4-9202-71ab3e361aaa","ios":"levelo://app?vid=dea8f2dd-d434-48f4-9202-71ab3e361aaa"},"vehicle_type_id":"4","last_reported":1738802743,"current_range_meters":38800,"station_id":"ce4bhb12rcd13ifvqem0","pricing_plan_id":"cebpf4jnsgd1na2vs0mg"},{"bike_id":"78a4c83f-4d73-437d-9527-15d2cb2bd443","system_id":"levelo_inurba_marseille","lat":43.28151,"lon":5.42633,"is_reserved":false,"is_disabled":false,"rental_uris":{"android":"levelo://app?vid=78a4c83f-4d73-437d-9527-15d2cb2bd443","ios":"levelo://app?vid=78a4c83f-4d73-437d-9527-15d2cb2bd443"},"vehicle_type_id":"4","last_reported":1738802743,"current_range_meters":39200,"station_id":"ce4bhnh2rcd13ifvqgug","pricing_plan_id":"cebpf4jnsgd1na2vs0mg"},{"bike_id":"9b65bab4-c48c-4080-b355-dc458d2b62bb","system_id":"levelo_inurba_marseille","lat":43.30928,"lon":5.40133,"is_reserved":false,"is_disabled":false,"rental_uris":{"android":"levelo://app?vid=9b65bab4-c48c-4080-b355-dc458d2b62bb","ios":"levelo://app?vid=9b65bab4-c48c-4080-b355-dc458d2b62bb"},"vehicle_type_id":"4","last_reported":1738802743,"current_range_meters":39200,"station_id":"ce4bgvp2rcd13ifvqct0","pricing_plan_id":"cebpf4jnsgd1na2vs0mg"},{"bike_id":"45a7daa2-2a2e-4454-90c3-1009aaecc5bd","system_id":"levelo_inurba_marseille","lat":43.23192,"lon":5.35556,"is_reserved":false,"is_disabled":false,"rental_uris":{"android":"levelo://app?vid=45a7daa2-2a2e-4454-90c3-1009aaecc5bd","ios":"levelo://app?vid=45a7daa2-2a2e-4454-90c3-1009aaecc5bd"},"vehicle_type_id":"4","last_reported":1738802743,"current_range_meters":38800,"station_id":"ce4bhu92rcd13ifvqi70","pricing_plan_id":"cebpf4jnsgd1na2vs0mg"},{"bike_id":"ee005bae-497c-4312-9b03-99403b18d5fb","system_id":"levelo_inurba_marseille","lat":43.26029,"lon":5.37559,"is_reserved":false,"is_disabled":false,"rental_uris":{"android":"levelo://app?vid=ee005bae-497c-4312-9b03-99403b18d5fb","ios":"levelo://app?vid=ee005bae-497c-4312-9b03-99403b18d5fb"},"vehicle_type_id":"4","last_reported":1738802743,"current_range_meters":13600,"station_id":"ce4bhgh2rcd13ifvqfa0","pricing_plan_id":"cebpf4jnsgd1na2vs0mg"},{"bike_id":"aece1634-918f-4f68-8bc7-9a7b7abafc1f","system_id":"levelo_inurba_marseille","lat":43.28149,"lon":5.42654,"is_reserved":false,"is_disabled":true,"rental_uris":{"android":"levelo://app?vid=aece1634-918f-4f68-8bc7-9a7b7abafc1f","ios":"levelo://app?vid=aece1634-918f-4f68-8bc7-9a7b7abafc1f"},"vehicle_type_id":"4","last_reported":1738802743,"current_range_meters":28000,"station_id":"ce4bhnh2rcd13ifvqgug","pricing_plan_id":"cebpf4jnsgd1na2vs0mg"},{"bike_id":"72e458a9-2a04-4d7d-a6ed-4033588f5b60","system_id":"levelo_inurba_marseille","lat":43.32342,"lon":5.38883,"is_reserved":false,"is_disabled":false,"rental_uris":{"android":"levelo://app?vid=72e458a9-2a04-4d7d-a6ed-4033588f5b60","ios":"levelo://app?vid=72e458a9-2a04-4d7d-a6ed-4033588f5b60"},"vehicle_type_id":"4","last_reported":1738802743,"current_range_meters":23200,"station_id":"ce4bhqp2rcd13ifvqhog","pricing_plan_id":"cebpf4jnsgd1na2vs0mg"},{"bike_id":"e4fbacd2-2c44-4b78-b9fc-d346dc2a77d1","system_id":"levelo_inurba_marseille","lat":43.32364,"lon":5.38887,"is_reserved":false,"is_disabled":false,"rental_uris":{"android":"levelo://app?vid=e4fbacd2-2c44-4b78-b9fc-d346dc2a77d1","ios":"levelo://app?vid=e4fbacd2-2c44-4b78-b9fc-d346dc2a77d1"},"vehicle_type_id":"4","last_reported":1738802743,"current_range_meters":36400,"station_id":"ce4bhqp2rcd13ifvqhog","pricing_plan_id":"cebpf4jnsgd1na2vs0mg"},{"bike_id":"3b1d5f28-8e2f-4cd2-84ee-32e60c8bc1d4","system_id":"levelo_inurba_marseille","lat":43.27945,"lon":5.38669,"is_reserved":false,"is_disabled":false,"rental_uris":{"android":"levelo://app?vid=3b1d5f28-8e2f-4cd2-84ee-32e60c8bc1d4","ios":"levelo://app?vid=3b1d5f28-8e2f-4cd2-84ee-32e60c8bc1d4"},"vehicle_type_id":"4","last_reported":1738802743,"current_range_meters":38800,"station_id":"","pricing_plan_id":"cebpf4jnsgd1na2vs0mg"},{"bike_id":"dd71d97f-8b4b-4a1b-a8d7-a09a3041be67","system_id":"levelo_inurba_marseille","lat":43.28162,"lon":5.42642,"is_reserved":false,"is_disabled":false,"rental_uris":{"android":"levelo://app?vid=dd71d97f-8b4b-4a1b-a8d7-a09a3041be67","ios":"levelo://app?vid=dd71d97f-8b4b-4a1b-a8d7-a09a3041be67"},"vehicle_type_id":"4","last_reported":1738802743,"current_range_meters":38800,"station_id":"ce4bhnh2rcd13ifvqgug","pricing_plan_id":"cebpf4jnsgd1na2vs0mg"},