{"last_updated":1712423225,"ttl":30,"version":"2.2","data":{"bikes":[{"bike_id":"2339eec0-52b4-4607-a881-2665fc504a4a","system_id":"levelo_inurba_marseille","lat":43.312239,"lon":5.368562,"is_reserved":false,"is_disabled":false,"rental_uris":{"android":"levelo://app?vid=2339eec0-52b4-4607-a881-2665fc504a4a","ios":"levelo://app?vid=2339eec0-52b4-4607-a881-2665fc504a4a"},"vehicle_type_id":"4","last_reported":1712423225,"current_range_meters":14000,"station_id":"ce4bgl92rcd13ifvqbq0","pricing_plan_id":"cebpf4jnsgd1na2vs0mg"},{"bike_id":"1b5698ac-89dd-4b1f-ae01-550782a39766","system_id":"levelo_inurba_marseille","lat":43.31328,"lon":5.370415,"is_reserved":false,"is_disabled":false,"rental_uris":{"android":"levelo://app?vid=1b5698ac-89dd-4b1f-ae01-550782a39766","ios":"levelo://app?vid=1b5698ac-89dd-4b1f-ae01-550782a39766"},"vehicle_type_id":"4","last_reported":1712423225,"current_range_meters":0,"station_id":"","pricing_plan_id":"cebpf4jnsgd1na2vs0mg"},{"bike_id":"e2464938-723d-413d-ae12-ba6ee147a13c","system_id":"levelo_inurba_marseille","lat":43.314811,"lon":5.373103,"is_reserved":false,"is_disabled":false,"rental_uris":{"android":"levelo://app?vid=e2464938-723d-413d-ae12-ba6ee147a13c","ios":"levelo://app?vid=e2464938-723d-413d-ae12-ba6ee147a13c"},"vehicle_type_id":"4","last_reported":1712423225,"current_range_meters":0,"station_id":"ce4bgt12rcd13ifvqcd0","pricing_plan_id":"cebpf4jnsgd1na2vs0mg"},{"bike_id":"82f61a2d-a666-410a-948c-7bde69ec2ec0","system_id":"levelo_inurba_marseille","lat":43.314811,"lon":5.373103,"is_reserved":false,"is_disabled":false,"rental_uris":{"android":"levelo://app?vid=82f61a2d-a666-410a-948c-7bde69ec2ec0","ios":"levelo://app?vid=82f61a2d-a666-410a-948c-7bde69ec2ec0"},"vehicle_type_id":"4","last_reported":1712423225,"current_range_meters":22400,"station_id":"ce4bgt12rcd13ifvqcd0","pricing_plan_id":"cebpf4jnsgd1na2vs0mg"},{"bike_id":"e944654c-a2c3-45a0-98c6-8c89c51647bc","system_id":"levelo_inurba_marseille","lat":43.314811,"lon":5.373103,"is_reserved":false,"is_disabled":false,"rental_uris":{"android":"levelo://app?vid=e944654c-a2c3-45a0-98c6-8c89c51647bc","ios":"levelo://app?vid=e944654c-a2c3-45a0-98c6-8c89c51647bc"},"vehicle_type_id":"4","last_reported":1712423225,"current_range_meters":4800,"station_id":"ce4bgt12rcd13ifvqcd0","pricing_plan_id":"cebpf4jnsgd1na2vs0mg"},{"bike_id":"31af8b20-e555-4b40-b9ce-6eb2c39d0e07","system_id":"levelo_inurba_marseille","lat":43.314811,"lon":5.373103,"is_reserved":false,"is_disabled":false,"rental_uris":{"android":"levelo://app?vid=31af8b20-e555-4b40-b9ce-6eb2c39d0e07","ios":"levelo://app?vid=31af8b20-e555-4b40-b9ce-6eb2c39d0e07"},"vehicle_type_id":"4","last_reported":1712423225,"current_range_meters":3600,"station_id":"ce4bgt12rcd13ifvqcd0","pricing_plan_id":"cebpf4jnsgd1na2vs0mg"},{"bike_id":"41047cfe-c9f7-4bd1-9b0c-13d656af446e","system_id":"levelo_inurba_marseille","lat":43.314811,"lon":5.373103,"is_reserved":false,"is_disabled":false,"rental_uris":{"android":"levelo://app?vid=41047cfe-c9f7-4bd1-9b0c-13d656af446e","ios":"levelo://app?vid=41047cfe-c9f7-4bd1-9b0c-13d656af446e"},"vehicle_type_id":"4","last_reported":1712423225,"current_range_meters":18400,"station_id":"ce4bgt12rcd13ifvqcd0","pricing_plan_id":"cebpf4jnsgd1na2vs0mg"},{"bike_id":"fc99cc95-ff72-42a6-9ed5-5212aeb3b2a0","system_id":"levelo_inurba_marseille","lat":43.314811,"lon":5.373103,"is_reserved":false,"is_disabled":false,"rental_uris":{"android":"levelo://app?vid=fc99cc95-ff72-42a6-9ed5-5212aeb3b2a0","ios":"levelo://app?vid=fc99cc95-ff72-42a6-9ed5-5212aeb3b2a0"},"vehicle_type_id":"4","last_reported":1712423225,"current_range_meters":21600,"station_id":"ce4bgt12rcd13ifvqcd0","pricing_plan_id":"cebpf4jnsgd1na2vs0mg"},{"bike_id":"ea695db1-6336-4767-a489-7a082501e9be","system_id":"levelo_inurba_marseille","lat":43.314811,"lon":5.373103,"is_reserved":false,"is_disabled":false,"rental_uris":{"android":"levelo://app?vid=ea695db1-6336-4767-a489-7a082501e9be","ios":"levelo://app?vid=ea695db1-6336-4767-a489-7a082501e9be"},"vehicle_type_id":"4","last_reported":1712423225,"current_range_meters":16000,"station_id":"ce4bgt12rcd13ifvqcd0","pricing_plan_id":"cebpf4jnsgd1na2vs0mg"},{"bike_id":"5d1371da-df1a-4827-bb95-c850579ba0be","system_id":"levelo_inurba_marseille","lat":43.314811,"lon":5.373104,"is_reserved":false,"is_disabled":false,"rental_uris":{"android":"levelo://app?vid=5d1371da-df1a-4827-bb95-c850579ba0be","ios":"levelo://app?vid=5d1371da-df1a-4827-bb95-c850579ba0be"},"vehicle_type_id":"4","last_reported":1712423225,"current_range_meters":5600,"station_id":"ce4bgt12rcd13ifvqcd0","pricing_plan_id":"cebpf4jnsgd1na2vs0mg"},{"bike_id":"3293f49b-30ef-490a-9323-af3c40fcd58a","system_id":"levelo_inurba_marseille","lat":43.31496,"lon":5.37305,"is_reserved":false,"is_disabled":false,"rental_uris":{"android":"levelo://app?vid=3293f49b-30ef-490a-9323-af3c40fcd58a","ios":"levelo://app?vid=3293f49b-30ef-490a-9323-af3c40fcd58a"},"vehicle_type_id":"4","last_reported":1712423225,"current_range_meters":0,"station_id":"ce4bgt12rcd13ifvqcd0","pricing_plan_id":"cebpf4jnsgd1na2vs0mg"},{"bike_id":"655683f4-64c2-410b-9600-0f856c88a402","system_id":"levelo_inurba_marseille","lat":43.314811,"lon":5.373103,"is_reserved":false,"is_disabled":false,"rental_uris":{"android":"levelo://app?vid=655683f4-64c2-410b-9600-0f856c88a402","ios":"levelo://app?vid=655683f4-64c2-410b-9600-0f856c88a402"},"vehicle_type_id":"4","last_reported":1712423225,"current_range_meters":15200,"station_id":"ce4bgt12rcd13ifvqcd0","pricing_plan_id":"cebpf4jnsgd1na2vs0mg"},{"bike_id":"19e2ca14-7a64-4b47-a24a-c3169e50a6af","system_id":"levelo_inurba_marseille","lat":43.30537,"lon":5.367345,"is_reserved":false,"is_disabled":false,"rental_uris":{"android":"levelo://app?vid=19e2ca14-7a64-4b47-a24a-c3169e50a6af","ios":"levelo://app?vid=19e2ca14-7a64-4b47-a24a-c3169e50a6af"},"vehicle_type_id":"4","last_reported":1712423225,"current_range_meters":0,"station_id":"ce4bgrp2rcd13ifvqc9g","pricing_plan_id":"cebpf4jnsgd1na2vs0mg"},{"bike_id":"485cc860-2cc4-42a3-b85c-7cfe39d62b5f","system_id":"levelo_inurba_marseille","lat":43.30537,"lon":5.367345,"is_reserved":false,"is_disabled":false,"rental_uris":{"android":"levelo://app?vid=485cc860-2cc4-42a3-b85c-7cfe39d62b5f","ios":"levelo://app?vid=485cc860-2cc4-42a3-b85c-7cfe39d62b5f"},"vehicle_type_id":"4","last_reported":1712423225,"current_range_meters":1200,"station_id":"ce4bgrp2rcd13ifvqc9g","pricing_plan_id":"cebpf4jnsgd1na2vs0mg"},{"bike_id":"fdfc7a10-717f-4ad7-a4cf-84920a6c229a","system_id":"levelo_inurba_marseille","lat":43.305368,"lon":5.367343,"is_reserved":false,"is_disabled":false,"rental_uris":{"android":"levelo://app?vid=fdfc7a10-717f-4ad7-a4cf-84920a6c229a","ios":"levelo://app?vid=fdfc7a10-717f-4ad7-a4cf-84920a6c229a"},"vehicle_type_id":"4","last_reported":1712423225,"current_range_meters":14400,"station_id":"ce4bgrp2rcd13ifvqc9g","pricing_plan_id":"cebpf4jnsgd1na2vs0mg"},{"bike_id":"f01d6dab-8661-4ec7-807f-a35ed31be88e","system_id":"levelo_inurba_marseille","lat":43.30537,"lon":5.367345,"is_reserved":false,"is_disabled":false,"rental_uris":{"android":"levelo://app?vid=f01d6dab-8661-4ec7-807f-a35ed31be88e","ios":"levelo://app?vid=f01d6dab-8661-4ec7-807f-a35ed31be88e"},"vehicle_type_id":"4","last_reported":1712423225,"current_range_meters":400,"station_id":"ce4bgrp2rcd13ifvqc9g","pricing_plan_id":"cebpf4jnsgd1na2vs0mg"},{"bike_id":"31dbe485-8c6c-42fc-874a-03bfc3836f1c","system_id":"levelo_inurba_marseille","lat":43.305706,"lon":5.365654,"is_reserved":false,"is_disabled":false,"rental_uris":{"android":"levelo://app?vid=31dbe485-8c6c-42fc-874a-03bfc3836f1c","ios":"levelo://app?vid=31dbe485-8c6c-42fc-874a-03bfc3836f1c"},"vehicle_type_id":"4","last_reported":1712423225,"current_range_meters":1600,"station_id":"ce4bgs12rcd13ifvqcag","pricing_plan_id":"cebpf4jnsgd1na2vs0mg"},{"bike_id":"7980f469-8dd1-4edb-a125-a7a10d711b0c","system_id":"levelo_inurba_marseille","lat":43.305204,"lon":5.367064,"is_reserved":false,"is_disabled":false,"rental_uris":{"android":"levelo://app?vid=7980f469-8dd1-4edb-a125-a7a10d711b0c","ios":"levelo://app?vid=7980f469-8dd1-4edb-a125-a7a10d711b0c"},"vehicle_type_id":"4","last_reported":1712423225,"current_range_meters":0,"station_id":"","pricing_plan_id":"cebpf4jnsgd1na2vs0mg"},{"bike_id":"d0a49ad7-34d8-4c6d-beaf-50441dfeba2b","system_id":"levelo_inurba_marseille","lat":43.305989,"lon":5.37225,"is_reserved":false,"is_disabled":false,"rental_uris":{"android":"levelo://app?vid=d0a49ad7-34d8-4c6d-beaf-50441dfeba2b","ios":"levelo://app?vid=d0a49ad7-34d8-4c6d-beaf-50441dfeba2b"},"vehicle_type_id":"4","last_reported":1712423225,"current_range_meters":0,"station_id":"ce4bgqh2rcd13ifvqc4g","pricing_plan_id":"cebpf4jnsgd1na2vs0mg"},{"bike_id":"c1ab337f-5549-4e2e-955b-5b86e8d57485","system_id":"levelo_inurba_marseille","lat":43.305989,"lon":5.37225,"is_reserved":false,"is_disabled":false,"rental_uris":{"android":"levelo://app?vid=c1ab337f-5549-4e2e-955b-5b86e8d57485","ios":"levelo://app?vid=c1ab337f-5549-4e2e-955b-5b86e8d57485"},"vehicle_type_id":"4","last_reported":1712423225,"current_range_meters":0,"station_id":"ce4bgqh2rcd13ifvqc4g","pricing_plan_id":"cebpf4jnsgd1na2vs0mg"},{"bike_id":"f8d65d7e-fdef-4ced-ba15-577a001ce12f","system_id":"levelo_inurba_marseille","lat":43.317075,"lon":5.377367,"is_reserved":false,"is_disabled":false,"rental_uris":{"android":"levelo://app?vid=f8d65d7e-fdef-4ced-ba15-577a001ce12f","ios":"levelo://app?vid=f8d65d7e-fdef-4ced-ba15-577a001ce12f"},"vehicle_type_id":"4","last_reported":1712423225,"current_range_meters":6000,"station_id":"ce4bgth2rcd13ifvqch0","pricing_plan_id":"cebpf4jnsgd1na2vs0mg"},{"bike_id":"d5dcc172-a833-4126-845e-f8e6f881375d","system_id":"levelo_inurba_marseille","lat":43.311131,"lon":5.377651,"is_reserved":false,"is_disabled":false,"rental_uris":{"android":"levelo://app?vid=d5dcc172-a833-4126-845e-f8e6f881375d","ios":"levelo://app?vid=d5dcc172-a833-4126-845e-f8e6f881375d"},"vehicle_type_id":"4","last_reported":1712423225,"current_range_meters":5200,"station_id":"ce4bgt92rcd13ifvqcg0","pricing_plan_id":"cebpf4jnsgd1na2vs0mg"},{"bike_id":"3cab3d56-9bb4-4d64-b8f4-fa041e25b7dd","system_id":"levelo_inurba_marseille","lat":43.311131,"lon":5.377651,"is_reserved":false,"is_disabled":false,"rental_uris":{"android":"levelo://app?vid=3cab3d56-9bb4-4d64-b8f4-fa041e25b7dd","ios":"levelo://app?vid=3cab3d56-9bb4-4d64-b8f4-fa041e25b7dd"},"vehicle_type_id":"4","last_reported":1712423225,"current_range_meters":0,"station_id":"ce4bgt92rcd13ifvqcg0","pricing_plan_id":"cebpf4jnsgd1na2vs0mg"},{"bike_id":"8cba5ea2-81bc-4632-a446-663e1b245327","system_id":"levelo_inurba_marseille","lat":43.311125,"lon":5.377624,"is_reserved":false,"is_disabled":false,"rental_uris":{"android":"levelo://app?vid=8cba5ea2-81bc-4632-a446-663e1b245327","ios":"levelo://app?vid=8cba5ea2-81bc-4632-a446-663e1b245327"},"vehicle_type_id":"4","last_reported":1712423225,"current_range_meters":1600,"station_id":"ce4bgt92rcd13ifvqcg0","pricing_plan_id":"cebpf4jnsgd1na2vs0mg"},{"bike_id":"0d3b9b66-b9f9-4f91-9c94-fa6212480ace","system_id":"levelo_inurba_marseille","lat":43.307945,"lon":5.376487,"is_reserved":false,"is_disabled":false,"rental_uris":{"android":"levelo://app?vid=0d3b9b66-b9f9-4f91-9c94-fa6212480ace","ios":"levelo://app?vid=0d3b9b66-b9f9-4f91-9c94-fa6212480ace"},"vehicle_type_id":"4","last_reported":1712423225,"current_range_meters":1600,"station_id":"ce4bgv92rcd13ifvqcq0","pricing_plan_id":"cebpf4jnsgd1na2vs0mg"},{"bike_id":"bbfed310-f5ca-41c8-bf3a-f83cd6959697","system_id":"levelo_inurba_marseille","lat":43.313254,"lon":5.37881,"is_reserved":false,"is_disabled":false,"rental_uris":{"android":"levelo://app?vid=bbfed310-f5ca-41c8-bf3a-f83cd6959697","ios":"levelo://app?vid=bbfed310-f5ca-41c8-bf3a-f83cd6959697"},"vehicle_type_id":"4","last_reported":1712423225,"current_range_meters":800,"station_id":"","pricing_plan_id":"cebpf4jnsgd1na2vs0mg"},{"bike_id":"d809e1f9-8ad3-4a18-b2bb-e4e518a3a07c","system_id":"levelo_inurba_marseille","lat":43.31744,"lon":5.3776,"is_reserved":false,"is_disabled":false,"rental_uris":{"android":"levelo://app?vid=d809e1f9-8ad3-4a18-b2bb-e4e518a3a07c","ios":"levelo://app?vid=d809e1f9-8ad3-4a18-b2bb-e4e518a3a07c"},"vehicle_type_id":"4","last_reported":1712423225,"current_range_meters":23600,"station_id":"ce4bgth2rcd13ifvqch0","pricing_plan_id":"cebpf4jnsgd1na2vs0mg"},{"bike_id":"e71aacd9-e7d8-4dd4-9f0a-d2e603452e14","system_id":"levelo_inurba_marseille","lat":43.30932,"lon":5.37911,"is_reserved":false,"is_disabled":false,"rental_uris":{"android":"levelo://app?vid=e71aacd9-e7d8-4dd4-9f0a-d2e603452e14","ios":"levelo://app?vid=e71aacd9-e7d8-4dd4-9f0a-d2e603452e14"},"vehicle_type_id":"4","last_reported":1712423225,"current_range_meters":26400,"station_id":"","pricing_plan_id":"cebpf4jnsgd1na2vs0mg"},{"bike_id":"cd8cf953-5545-43a9-b37f-b46ee59e6bac","system_id":"levelo_inurba_marseille","lat":43.30304,"lon":5.368987,"is_reserved":false,"is_disabled":false,"rental_uris":{"android":"levelo://app?vid=cd8cf953-5545-43a9-b37f-b46ee59e6bac","ios":"levelo://app?vid=cd8cf953-5545-43a9-b37f-b46ee59e6bac"},"vehicle_type_id":"4","last_reported":1712423225,"current_range_meters":6000,"station_id":"ce4bgqh2rcd13ifvqc5g","pricing_plan_id":"cebpf4jnsgd1na2vs0mg"},{"bike_id":"856b6686-27cd-4dd5-8174-069c7a5e61ae","system_id":"levelo_inurba_marseille","lat":43.315289,"lon":5.380349,"is_reserved":false,"is_disabled":false,"rental_uris":{"android":"levelo://app?vid=856b6686-27cd-4dd5-8174-069c7a5e61ae","ios":"levelo://app?vid=856b6686-27cd-4dd5-8174-069c7a5e61ae"},"vehicle_type_id":"4","last_reported":1712423225,"current_range_meters":13600,"station_id":"ce4bhsp2rcd13ifvqi50","pricing_plan_id":"cebpf4jnsgd1na2vs0mg"},{"bike_id":"5912f5d9-4f0e-43c2-b10f-e9897e9f940d","system_id":"levelo_inurba_marseille","lat":43.31533,"lon":5.38039,"is_reserved":false,"is_disabled":false,"rental_uris":{"android":"levelo://app?vid=5912f5d9-4f0e-43c2-b10f-e9897e9f940d","ios":"levelo://app?vid=5912f5d9-4f0e-43c2-b10f-e9897e9f940d"},"vehicle_type_id":"4","last_reported":1712423225,"current_range_meters":1600,"station_id":"ce4bhsp2rcd13ifvqi50","pricing_plan_id":"cebpf4jnsgd1na2vs0mg"},{"bike_id":"002a97ff-5dc3-4438-b654-0bbfd0a70b9c","system_id":"levelo_inurba_marseille","lat":43.301939,"lon":5.366286,"is_reserved":false,"is_disabled":false,"rental_uris":{"android":"levelo://app?vid=002a97ff-5dc3-4438-b654-0bbfd0a70b9c","ios":"levelo://app?vid=002a97ff-5dc3-4438-b654-0bbfd0a70b9c"},"vehicle_type_id":"4","last_reported":1712423225,"current_range_meters":1200,"station_id":"ce4bgrh2rcd13ifvqc8g","pricing_plan_id":"cebpf4jnsgd1na2vs0mg"},{"bike_id":"a8a31377-d580-4b6d-9322-441b6bc9f693","system_id":"levelo_inurba_marseille","lat":43.301939,"lon":5.366286,"is_reserved":false,"is_disabled":false,"rental_uris":{"android":"levelo://app?vid=a8a31377-d580-4b6d-9322-441b6bc9f693","ios":"levelo://app?vid=a8a31377-d580-4b6d-9322-441b6bc9f693"},"vehicle_type_id":"4","last_reported":1712423225,"current_range_meters":15600,"station_id":"ce4bgrh2rcd13ifvqc8g","pricing_plan_id":"cebpf4jnsgd1na2vs0mg"},{"bike_id":"98add8b0-e8e8-4d21-810d-b214bb3f9779","system_id":"levelo_inurba_marseille","lat":43.308012,"lon":5.381511,"is_reserved":false,"is_disabled":false,"rental_uris":{"android":"levelo://app?vid=98add8b0-e8e8-4d21-810d-b214bb3f9779","ios":"levelo://app?vid=98add8b0-e8e8-4d21-810d-b214bb3f9779"},"vehicle_type_id":"4","last_reported":1712423225,"current_range_meters":0,"station_id":"ce4bgt12rcd13ifvqce0","pricing_plan_id":"cebpf4jnsgd1na2vs0mg"},{"bike_id":"cc5d4966-320c-404d-a2fb-15859e2c2ae1","system_id":"levelo_inurba_marseille","lat":43.30466,"lon":5.37902,"is_reserved":false,"is_disabled":false,"rental_uris":{"android":"levelo://app?vid=cc5d4966-320c-404d-a2fb-15859e2c2ae1","ios":"levelo://app?vid=cc5d4966-320c-404d-a2fb-15859e2c2ae1"},"vehicle_type_id":"4","last_reported":1712423225,"current_range_meters":400,"station_id":"ce4bgup2rcd13ifvqcn0","pricing_plan_id":"cebpf4jnsgd1na2vs0mg"},{"bike_id":"32b7a2d7-d304-4b5c-b97b-d6f9fda4565f","system_id":"levelo_inurba_marseille","lat":43.324771,"lon":5.36557,"is_reserved":false,"is_disabled":false,"rental_uris":{"android":"levelo://app?vid=32b7a2d7-d304-4b5c-b97b-d6f9fda4565f","ios":"levelo://app?vid=32b7a2d7-d304-4b5c-b97b-d6f9fda4565f"},"vehicle_type_id":"4","last_reported":1712423225,"current_range_meters":1200,"station_id":"ce4bhs12rcd13ifvqhvg","pricing_plan_id":"cebpf4jnsgd1na2vs0mg"},{"bike_id":"58368bc2-10fd-4305-b0ed-cd480db19672","system_id":"levelo_inurba_marseille","lat":43.31063,"lon":5.38341,"is_reserved":false,"is_disabled":false,"rental_uris":{"android":"levelo://app?vid=58368bc2-10fd-4305-b0ed-cd480db19672","ios":"levelo://app?vid=58368bc2-10fd-4305-b0ed-cd480db19672"},"vehicle_type_id":"4","last_reported":1712423225,"current_range_meters":0,"station_id":"ce4bgv92rcd13ifvqcr0","pricing_plan_id":"cebpf4jnsgd1na2vs0mg"},{"bike_id":"6f2a81fc-36a0-4b71-be7e-774872b5fa96","system_id":"levelo_inurba_marseille","lat":43.31073,"lon":5.38349,"is_reserved":false,"is_disabled":false,"rental_uris":{"android":"levelo://app?vid=6f2a81fc-36a0-4b71-be7e-774872b5fa96","ios":"levelo://app?vid=6f2a81fc-36a0-4b71-be7e-774872b5fa96"},"vehicle_type_id":"4","last_reported":1712423225,"current_range_meters":5600,"station_id":"ce4bgt92rcd13ifvqcg0","pricing_plan_id":"cebpf4jnsgd1na2vs0mg"},{"bike_id":"b0d9202f-6fe4-4a50-8807-80d0bd5ab6bf","system_id":"levelo_inurba_marseille","lat":43.310804,"lon":5.38359,"is_reserved":false,"is_disabled":false,"rental_uris":{"android":"levelo://app?vid=b0d9202f-6fe4-4a50-8807-80d0bd5ab6bf","ios":"levelo://app?vid=b0d9202f-6fe4-4a50-8807-80d0bd5ab6bf"},"vehicle_type_id":"4","last_reported":1712423225,"current_range_meters":8400,"station_id":"ce4bgv92rcd13ifvqcr0","pricing_plan_id":"cebpf4jnsgd1na2vs0mg"},{"bike_id":"4102d405-9845-4786-9126-521bce97864b","system_id":"levelo_inurba_marseille","lat":43.310804,"lon":5.38359,"is_reserved":false,"is_disabled":false,"rental_uris":{"android":"levelo://app?vid=4102d405-9845-4786-9126-521bce97864b","ios":"levelo://app?vid=4102d405-9845-4786-9126-521bce97864b"},"vehicle_type_id":"4","last_reported":1712423225,"current_range_meters":27200,"station_id":"ce4bgv92rcd13ifvqcr0","pricing_plan_id":"cebpf4jnsgd1na2vs0mg"},{"bike_id":"32b71b3c-f184-4bf7-a913-5268ec8b4f2d","system_id":"levelo_inurba_marseille","lat":43.301429,"lon":5.37413,"is_reserved":false,"is_disabled":false,"rental_uris":{"android":"levelo://app?vid=32b71b3c-f184-4bf7-a913-5268ec8b4f2d","ios":"levelo://app?vid=32b71b3c-f184-4bf7-a913-5268ec8b4f2d"},"vehicle_type_id":"4","last_reported":1712423225,"current_range_meters":10400,"station_id":"ce4bgs92rcd13ifvqcc0","pricing_plan_id":"cebpf4jnsgd1na2vs0mg"},{"bike_id":"ab414b76-195f-4ffc-a457-3e40b91b345b","system_id":"levelo_inurba_marseille","lat":43.319954,"lon":5.381507,"is_reserved":false,"is_disabled":false,"rental_uris":{"android":"levelo://app?vid=ab414b76-195f-4ffc-a457-3e40b91b345b","ios":"levelo://app?vid=ab414b76-195f-4ffc-a457-3e40b91b345b"},"vehicle_type_id":"4","last_reported":1712423225,"current_range_meters":3600,"station_id":"ce4bhr12rcd13ifvqhpg","pricing_plan_id":"cebpf4jnsgd1na2vs0mg"},{"bike_id":"d3b8de65-85f8-46e2-a1fb-106263156db0","system_id":"levelo_inurba_marseille","lat":43.319935,"lon":5.381699,"is_reserved":false,"is_disabled":false,"rental_uris":{"android":"levelo://app?vid=d3b8de65-85f8-46e2-a1fb-106263156db0","ios":"levelo://app?vid=d3b8de65-85f8-46e2-a1fb-106263156db0"},"vehicle_type_id":"4","last_reported":1712423225,"current_range_meters":29600,"station_id":"ce4bhr12rcd13ifvqhpg","pricing_plan_id":"cebpf4jnsgd1na2vs0mg"},{"bike_id":"476a11f3-566c-49e6-b2d6-7e1f1ea7a36b","system_id":"levelo_inurba_marseille","lat":43.319935,"lon":5.381699,"is_reserved":false,"is_disabled":false,"rental_uris":{"android":"levelo://app?vid=476a11f3-566c-49e6-b2d6-7e1f1ea7a36b","ios":"levelo://app?vid=476a11f3-566c-49e6-b2d6-7e1f1ea7a36b"},"vehicle_type_id":"4","last_reported":1712423225,"current_range_meters":16000,"station_id":"ce4bhr12rcd13ifvqhpg","pricing_plan_id":"cebpf4jnsgd1na2vs0mg"},{"bike_id":"5ff4b4ab-6dc6-40a9-9cf0-7407b5fecceb","system_id":"levelo_inurba_marseille","lat":43.299222,"lon":5.365554,"is_reserved":false,"is_disabled":false,"rental_uris":{"android":"levelo://app?vid=5ff4b4ab-6dc6-40a9-9cf0-7407b5fecceb","ios":"levelo://app?vid=5ff4b4ab-6dc6-40a9-9cf0-7407b5fecceb"},"vehicle_type_id":"4","last_reported":1712423225,"current_range_meters":0,"station_id":"ce4bgm92rcd13ifvqbr0","pricing_plan_id":"cebpf4jnsgd1na2vs0mg"},{"bike_id":"e3c59ae4-c50c-4dd9-adf2-c1061e068435","system_id":"levelo_inurba_marseille","lat":43.299724,"lon":5.371829,"is_reserved":false,"is_disabled":false,"rental_uris":{"android":"levelo://app?vid=e3c59ae4-c50c-4dd9-adf2-c1061e068435","ios":"levelo://app?vid=e3c59ae4-c50c-4dd9-adf2-c1061e068435"},"vehicle_type_id":"4","last_reported":1712423225,"current_range_meters":13600,"station_id":"ce4bgr92rcd13ifvqc7g","pricing_plan_id":"cebpf4jnsgd1na2vs0mg"},{"bike_id":"42509129-1c2f-4c61-99ae-d25a493f13e1","system_id":"levelo_inurba_marseille","lat":43.29852,"lon":5.36286,"is_reserved":false,"is_disabled":false,"rental_uris":{"android":"levelo://app?vid=42509129-1c2f-4c61-99ae-d25a493f13e1","ios":"levelo://app?vid=42509129-1c2f-4c61-99ae-d25a493f13e1"},"vehicle_type_id":"4","last_reported":1712423225,"current_range_meters":0,"station_id":"ce4bgpp2rcd13ifvqc3g","pricing_plan_id":"cebpf4jnsgd1na2vs0mg"},{"bike_id":"f3ac9a40-e178-49a0-b689-1c001b879b2c","system_id":"levelo_inurba_marseille","lat":43.299295,"lon":5.37452,"is_reserved":false,"is_disabled":false,"rental_uris":{"android":"levelo://app?vid=f3ac9a40-e178-49a0-b689-1c001b879b2c","ios":"levelo://app?vid=f3ac9a40-e178-49a0-b689-1c001b879b2c"},"vehicle_type_id":"4","last_reported":1712423225,"current_range_meters":0,"station_id":"ce4bgjh2rcd13ifvqbg0","pricing_plan_id":"cebpf4jnsgd1na2vs0mg"},{"bike_id":"7826578d-cbc1-48e6-ae04-26da6749812e","system_id":"levelo_inurba_marseille","lat":43.298433,"lon":5.362774,"is_reserved":false,"is_disabled":false,"rental_uris":{"android":"levelo://app?vid=7826578d-cbc1-48e6-ae04-26da6749812e","ios":"levelo://app?vid=7826578d-cbc1-48e6-ae04-26da6749812e"},"vehicle_type_id":"4","last_reported":1712423225,"current_range_meters":800,"station_id":"ce4bgpp2rcd13ifvqc3g","pricing_plan_id":"cebpf4jnsgd1na2vs0mg"},{"bike_id":"4c6f0a7e-ea90-4b6f-affe-4bebe83033cd","system_id":"levelo_inurba_marseille","lat":43.311722,"lon":5.387247,"is_reserved":false,"is_disabled":false,"rental_uris":{"android":"levelo://app?vid=4c6f0a7e-ea90-4b6f-affe-4bebe83033cd","ios":"levelo://app?vid=4c6f0a7e-ea90-4b6f-affe-4bebe83033cd"},"vehicle_type_id":"4","last_reported":1712423225,"current_range_meters":2000,"station_id":"ce4bgv12rcd13ifvqcp0","pricing_plan_id":"cebpf4jnsgd1na2vs0mg"},{"bike_id":"ee8473c0-9889-435a-ae9c-420df1b25bef","system_id":"levelo_inurba_marseille","lat":43.311722,"lon":5.387247,"is_reserved":false,"is_disabled":false,"rental_uris":{"android":"levelo://app?vid=ee8473c0-9889-435a-ae9c-420df1b25bef","ios":"levelo://app?vid=ee8473c0-9889-435a-ae9c-420df1b25bef"},"vehicle_type_id":"4","last_reported":1712423225,"current_range_meters":6400,"station_id":"ce4bgv12rcd13ifvqcp0","pricing_plan_id":"cebpf4jnsgd1na2vs0mg"},{"bike_id":"82f048a2-f59f-45c8-870d-a0b3030a2b5f","system_id":"levelo_inurba_marseille","lat":43.311722,"lon":5.387247,"is_reserved":false,"is_disabled":false,"rental_uris":{"android":"levelo://app?vid=82f048a2-f59f-45c8-870d-a0b3030a2b5f","ios":"levelo://app?vid=82f048a2-f59f-45c8-870d-a0b3030a2b5f"},"vehicle_type_id":"4","last_reported":1712423225,"current_range_meters":1600,"station_id":"ce4bgv12rcd13ifvqcp0","pricing_plan_id":"cebpf4jnsgd1na2vs0mg"},{"bike_id":"d81d2c2f-5cdd-4f70-bf21-177512760abc","system_id":"levelo_inurba_marseille","lat":43.299243,"lon":5.37481,"is_reserved":false,"is_disabled":false,"rental_uris":{"android":"levelo://app?vid=d81d2c2f-5cdd-4f70-bf21-177512760abc","ios":"levelo://app?vid=d81d2c2f-5cdd-4f70-bf21-177512760abc"},"vehicle_type_id":"4","last_reported":1712423225,"current_range_meters":6400,"station_id":"ce4bgjh2rcd13ifvqbg0","pricing_plan_id":"cebpf4jnsgd1na2vs0mg"},{"bike_id":"e9af7f7e-61ac-4c2a-b2be-859df192b192","system_id":"levelo_inurba_marseille","lat":43.29778,"lon":5.37108,"is_reserved":false,"is_disabled":false,"rental_uris":{"android":"levelo://app?vid=e9af7f7e-61ac-4c2a-b2be-859df192b192","ios":"levelo://app?vid=e9af7f7e-61ac-4c2a-b2be-859df192b192"},"vehicle_type_id":"4","last_reported":1712423225,"current_range_meters":0,"station_id":"ce4bgop2rcd13ifvqc1g","pricing_plan_id":"cebpf4jnsgd1na2vs0mg"},{"bike_id":"6941bd2f-2cc3-4b77-8d42-e35dbf20caee","system_id":"levelo_inurba_marseille","lat":43.32292,"lon":5.38257,"is_reserved":false,"is_disabled":false,"rental_uris":{"android":"levelo://app?vid=6941bd2f-2cc3-4b77-8d42-e35dbf20caee","ios":"levelo://app?vid=6941bd2f-2cc3-4b77-8d42-e35dbf20caee"},"vehicle_type_id":"4","last_reported":1712423225,"current_range_meters":6800,"station_id":"ce4bhr12rcd13ifvqhqg","pricing_plan_id":"cebpf4jnsgd1na2vs0mg"},{"bike_id":"bb405e14-2785-4e3e-806f-7482dc39e2e0","system_id":"levelo_inurba_marseille","lat":43.322872,"lon":5.382756,"is_reserved":false,"is_disabled":false,"rental_uris":{"android":"levelo://app?vid=bb405e14-2785-4e3e-806f-7482dc39e2e0","ios":"levelo://app?vid=bb405e14-2785-4e3e-806f-7482dc39e2e0"},"vehicle_type_id":"4","last_reported":1712423225,"current_range_meters":26800,"station_id":"ce4bhr12rcd13ifvqhqg","pricing_plan_id":"cebpf4jnsgd1na2vs0mg"},{"bike_id":"8a79ea18-017d-4ca6-aa64-850fe1797991","system_id":"levelo_inurba_marseille","lat":43.322872,"lon":5.382756,"is_reserved":false,"is_disabled":false,"rental_uris":{"android":"levelo://app?vid=8a79ea18-017d-4ca6-aa64-850fe1797991","ios":"levelo://app?vid=8a79ea18-017d-4ca6-aa64-850fe1797991"},"vehicle_type_id":"4","last_reported":1712423225,"current_range_meters":15600,"station_id":"ce4bhr12rcd13ifvqhqg","pricing_plan_id":"cebpf4jnsgd1na2vs0mg"},{"bike_id":"18651e73-a960-43da-bdae-371146c35a92","system_id":"levelo_inurba_marseille","lat":43.322872,"lon":5.382756,"is_reserved":false,"is_disabled":false,"rental_uris":{"android":"levelo://app?vid=18651e73-a960-43da-bdae-371146c35a92","ios":"levelo://app?vid=18651e73-a960-43da-bdae-371146c35a92"},"vehicle_type_id":"4","last_reported":1712423225,"current_range_meters":31600,"station_id":"ce4bhr12rcd13ifvqhqg","pricing_plan_id":"cebpf4jnsgd1na2vs0mg"},{"bike_id":"79a09dc1-a136-4553-b035-ca9b20a658e5","system_id":"levelo_inurba_marseille","lat":43.30181,"lon":5.3818,"is_reserved":false,"is_disabled":false,"rental_uris":{"android":"levelo://app?vid=79a09dc1-a136-4553-b035-ca9b20a658e5","ios":"levelo://app?vid=79a09dc1-a136-4553-b035-ca9b20a658e5"},"vehicle_type_id":"4","last_reported":1712423225,"current_range_meters":12000,"station_id":"","pricing_plan_id":"cebpf4jnsgd1na2vs0mg"},{"bike_id":"fecd0a9f-bc3f-45c9-87fc-d9696b1b7759","system_id":"levelo_inurba_marseille","lat":43.297163,"lon":5.365866,"is_reserved":false,"is_disabled":false,"rental_uris":{"android":"levelo://app?vid=fecd0a9f-bc3f-45c9-87fc-d9696b1b7759","ios":"levelo://app?vid=fecd0a9f-bc3f-45c9-87fc-d9696b1b7759"},"vehicle_type_id":"4","last_reported":1712423225,"current_range_meters":7600,"station_id":"ce4bgn12rcd13ifvqbt0","pricing_plan_id":"cebpf4jnsgd1na2vs0mg"},{"bike_id":"c77a0eba-a2a9-44a4-8b95-997778cc3849","system_id":"levelo_inurba_marseille","lat":43.292642,"lon":5.384254,"is_reserved":false,"is_disabled":false,"rental_uris":{"android":"levelo://app?vid=c77a0eba-a2a9-44a4-8b95-997778cc3849","ios":"levelo://app?vid=c77a0eba-a2a9-44a4-8b95-997778cc3849"},"vehicle_type_id":"4","last_reported":1712423225,"current_range_meters":12400,"station_id":"ce4bh692rcd13ifvqea0","pricing_plan_id":"cebpf4jnsgd1na2vs0mg"},{"bike_id":"f2a1563b-03b6-4878-8ee5-784da5b02aca","system_id":"levelo_inurba_marseille","lat":43.297163,"lon":5.365866,"is_reserved":false,"is_disabled":false,"rental_uris":{"android":"levelo://app?vid=f2a1563b-03b6-4878-8ee5-784da5b02aca","ios":"levelo://app?vid=f2a1563b-03b6-4878-8ee5-784da5b02aca"},"vehicle_type_id":"4","last_reported":1712423225,"current_range_meters":3600,"station_id":"ce4bgn12rcd13ifvqbt0","pricing_plan_id":"cebpf4jnsgd1na2vs0mg"},{"bike_id":"2a79649b-afe9-498a-b001-77e2fc653a5f","system_id":"levelo_inurba_marseille","lat":43.29573,"lon":5.367355,"is_reserved":false,"is_disabled":false,"rental_uris":{"android":"levelo://app?vid=2a79649b-afe9-498a-b001-77e2fc653a5f","ios":"levelo://app?vid=2a79649b-afe9-498a-b001-77e2fc653a5f"},"vehicle_type_id":"4","last_reported":1712423225,"current_range_meters":0,"station_id":"ce4bgph2rcd13ifvqc2g","pricing_plan_id":"cebpf4jnsgd1na2vs0mg"},{"bike_id":"6d522c9c-6e63-480d-89c3-ef59e435ebcd","system_id":"levelo_inurba_marseille","lat":43.309589,"lon":5.390258,"is_reserved":false,"is_disabled":false,"rental_uris":{"android":"levelo://app?vid=6d522c9c-6e63-480d-89c3-ef59e435ebcd","ios":"levelo://app?vid=6d522c9c-6e63-480d-89c3-ef59e435ebcd"},"vehicle_type_id":"4","last_reported":1712423225,"current_range_meters":13600,"station_id":"ce4bgup2rcd13ifvqco0","pricing_plan_id":"cebpf4jnsgd1na2vs0mg"},{"bike_id":"880a89f3-8ed3-40e2-8b75-953d8efd32c1","system_id":"levelo_inurba_marseille","lat":43.27996,"lon":5.416624,"is_reserved":false,"is_disabled":false,"rental_uris":{"android":"levelo://app?vid=880a89f3-8ed3-40e2-8b75-953d8efd32c1","ios":"levelo://app?vid=880a89f3-8ed3-40e2-8b75-953d8efd32c1"},"vehicle_type_id":"4","last_reported":1712423225,"current_range_meters":4800,"station_id":"ce4bho12rcd13ifvqh1g","pricing_plan_id":"cebpf4jnsgd1na2vs0mg"},{"bike_id":"cc5e4afc-618b-40b5-b5b4-f117e1bd0b2a","system_id":"levelo_inurba_marseille","lat":43.317557,"lon":5.390173,"is_reserved":false,"is_disabled":false,"rental_uris":{"android":"levelo://app?vid=cc5e4afc-618b-40b5-b5b4-f117e1bd0b2a","ios":"levelo://app?vid=cc5e4afc-618b-40b5-b5b4-f117e1bd0b2a"},"vehicle_type_id":"4","last_reported":1712423225,"current_range_meters":23600,"station_id":"ce4bhqp2rcd13ifvqhng","pricing_plan_id":"cebpf4jnsgd1na2vs0mg"},{"bike_id":"38e4f866-8a58-44d9-9047-9e9d08eee609","system_id":"levelo_inurba_marseille","lat":43.298037,"lon":5.381066,"is_reserved":false,"is_disabled":false,"rental_uris":{"android":"levelo://app?vid=38e4f866-8a58-44d9-9047-9e9d08eee609","ios":"levelo://app?vid=38e4f866-8a58-44d9-9047-9e9d08eee609"},"vehicle_type_id":"4","last_reported":1712423225,"current_range_meters":16400,"station_id":"ce4bgip2rcd13ifvqbb0","pricing_plan_id":"cebpf4jnsgd1na2vs0mg"},{"bike_id":"41e92f47-5b86-4029-9d30-3f37f2d1442a","system_id":"levelo_inurba_marseille","lat":43.311722,"lon":5.387247,"is_reserved":false,"is_disabled":false,"rental_uris":{"android":"levelo://app?vid=41e92f47-5b86-4029-9d30-3f37f2d1442a","ios":"levelo://app?vid=41e92f47-5b86-4029-9d30-3f37f2d1442a"},"vehicle_type_id":"4","last_reported":1712423225,"current_range_meters":6400,"station_id":"ce4bgv12rcd13ifvqcp0","pricing_plan_id":"cebpf4jnsgd1na2vs0mg"},{"bike_id":"cd872232-86c3-44b7-b588-e67ff8a2a63b","system_id":"levelo_inurba_marseille","lat":43.298037,"lon":5.381066,"is_reserved":false,"is_disabled":false,"rental_uris":{"android":"levelo://app?vid=cd872232-86c3-44b7-b588-e67ff8a2a63b","ios":"levelo://app?vid=cd872232-86c3-44b7-b588-e67ff8a2a63b"},"vehicle_type_id":"4","last_reported":1712423225,"current_range_meters":4400,"station_id":"ce4bgip2rcd13ifvqbb0","pricing_plan_id":"cebpf4jnsgd1na2vs0mg"},{"bike_id":"30843375-0a86-4f8c-9b2d-6cfc68ab81cc","system_id":"levelo_inurba_marseille","lat":43.298037,"lon":5.381066,"is_reserved":false,"is_disabled":false,"rental_uris":{"android":"levelo://app?vid=30843375-0a86-4f8c-9b2d-6cfc68ab81cc","ios":"levelo://app?vid=30843375-0a86-4f8c-9b2d-6cfc68ab81cc"},"vehicle_type_id":"4","last_reported":1712423225,"current_range_meters":7200,"station_id":"ce4bgip2rcd13ifvqbb0","pricing_plan_id":"cebpf4jnsgd1na2vs0mg"},{"bike_id":"f4a13f4e-3081-4ce1-a70a-bc91e3f99608","system_id":"levelo_inurba_marseille","lat":43.298037,"lon":5.381066,"is_reserved":false,"is_disabled":false,"rental_uris":{"android":"levelo://app?vid=f4a13f4e-3081-4ce1-a70a-bc91e3f99608","ios":"levelo://app?vid=f4a13f4e-3081-4ce1-a70a-bc91e3f99608"},"vehicle_type_id":"4","last_reported":1712423225,"current_range_meters":800,"station_id":"ce4bgip2rcd13ifvqbb0","pricing_plan_id":"cebpf4jnsgd1na2vs0mg"},{"bike_id":"2eb2cfaa-b4eb-4e58-81eb-990aa4acbb12","system_id":"levelo_inurba_marseille","lat":43.298037,"lon":5.381066,"is_reserved":false,"is_disabled":false,"rental_uris":{"android":"levelo://app?vid=2eb2cfaa-b4eb-4e58-81eb-990aa4acbb12","ios":"levelo://app?vid=2eb2cfaa-b4eb-4e58-81eb-990aa4acbb12"},"vehicle_type_id":"4","last_reported":1712423225,"current_range_meters":0,"station_id":"ce4bgip2rcd13ifvqbb0","pricing_plan_id":"cebpf4jnsgd1na2vs0mg"},{"bike_id":"b9afccff-001b-4f74-b66d-cbc42aca7090","system_id":"levelo_inurba_marseille","lat":43.304274,"lon":5.388873,"is_reserved":false,"is_disabled":false,"rental_uris":{"android":"levelo://app?vid=b9afccff-001b-4f74-b66d-cbc42aca7090","ios":"levelo://app?vid=b9afccff-001b-4f74-b66d-cbc42aca7090"},"vehicle_type_id":"4","last_reported":1712423225,"current_range_meters":0,"station_id":"ce4bgk12rcd13ifvqbi0","pricing_plan_id":"cebpf4jnsgd1na2vs0mg"},{"bike_id":"7fdcc443-e350-4f92-9c0b-e5c75a094970","system_id":"levelo_inurba_marseille","lat":43.304274,"lon":5.388873,"is_reserved":false,"is_disabled":false,"rental_uris":{"android":"levelo://app?vid=7fdcc443-e350-4f92-9c0b-e5c75a094970","ios":"levelo://app?vid=7fdcc443-e350-4f92-9c0b-e5c75a094970"},"vehicle_type_id":"4","last_reported":1712423225,"current_range_meters":18400,"station_id":"ce4bgk12rcd13ifvqbi0","pricing_plan_id":"cebpf4jnsgd1na2vs0mg"},{"bike_id":"58c47841-faf2-4778-9e35-e955985c6cc4","system_id":"levelo_inurba_marseille","lat":43.30437,"lon":5.38889,"is_reserved":false,"is_disabled":false,"rental_uris":{"android":"levelo://app?vid=58c47841-faf2-4778-9e35-e955985c6cc4","ios":"levelo://app?vid=58c47841-faf2-4778-9e35-e955985c6cc4"},"vehicle_type_id":"4","last_reported":1712423225,"current_range_meters":4000,"station_id":"ce4bgk12rcd13ifvqbi0","pricing_plan_id":"cebpf4jnsgd1na2vs0mg"},{"bike_id":"1106c69b-9f04-4655-b7b0-ece36df74fd5","system_id":"levelo_inurba_marseille","lat":43.304274,"lon":5.388873,"is_reserved":false,"is_disabled":false,"rental_uris":{"android":"levelo://app?vid=1106c69b-9f04-4655-b7b0-ece36df74fd5","ios":"levelo://app?vid=1106c69b-9f04-4655-b7b0-ece36df74fd5"},"vehicle_type_id":"4","last_reported":1712423225,"current_range_meters":16800,"station_id":"ce4bgk12rcd13ifvqbi0","pricing_plan_id":"cebpf4jnsgd1na2vs0mg"},{"bike_id":"5cd25022-be81-44b2-84af-ed091f13d8ca","system_id":"levelo_inurba_marseille","lat":43.295748,"lon":5.37522,"is_reserved":false,"is_disabled":false,"rental_uris":{"android":"levelo://app?vid=5cd25022-be81-44b2-84af-ed091f13d8ca","ios":"levelo://app?vid=5cd25022-be81-44b2-84af-ed091f13d8ca"},"vehicle_type_id":"4","last_reported":1712423225,"current_range_meters":26000,"station_id":"ce4bgh92rcd13ifvqb50","pricing_plan_id":"cebpf4jnsgd1na2vs0mg"},{"bike_id":"a2fda31b-08d6-43b1-b4e3-7aaab1f696c6","system_id":"levelo_inurba_marseille","lat":43.304274,"lon":5.388873,"is_reserved":false,"is_disabled":false,"rental_uris":{"android":"levelo://app?vid=a2fda31b-08d6-43b1-b4e3-7aaab1f696c6","ios":"levelo://app?vid=a2fda31b-08d6-43b1-b4e3-7aaab1f696c6"},"vehicle_type_id":"4","last_reported":1712423225,"current_range_meters":14800,"station_id":"ce4bgk12rcd13ifvqbi0","pricing_plan_id":"cebpf4jnsgd1na2vs0mg"},{"bike_id":"e1745618-c11d-414c-a0e7-f99b17039214","system_id":"levelo_inurba_marseille","lat":43.30428,"lon":5.38889,"is_reserved":false,"is_disabled":false,"rental_uris":{"android":"levelo://app?vid=e1745618-c11d-414c-a0e7-f99b17039214","ios":"levelo://app?vid=e1745618-c11d-414c-a0e7-f99b17039214"},"vehicle_type_id":"4","last_reported":1712423225,"current_range_meters":3600,"station_id":"ce4bgk12rcd13ifvqbi0","pricing_plan_id":"cebpf4jnsgd1na2vs0mg"},{"bike_id":"2a3cd860-9416-4538-a21e-17b6b5895f49","system_id":"levelo_inurba_marseille","lat":43.30425,"lon":5.38887,"is_reserved":false,"is_disabled":false,"rental_uris":{"android":"levelo://app?vid=2a3cd860-9416-4538-a21e-17b6b5895f49","ios":"levelo://app?vid=2a3cd860-9416-4538-a21e-17b6b5895f49"},"vehicle_type_id":"4","last_reported":1712423225,"current_range_meters":5200,"station_id":"ce4bgk12rcd13ifvqbi0","pricing_plan_id":"cebpf4jnsgd1na2vs0mg"},{"bike_id":"b87a74a7-a437-4ea6-8310-99f8453e6da2","system_id":"levelo_inurba_marseille","lat":43.298037,"lon":5.381066,"is_reserved":false,"is_disabled":false,"rental_uris":{"android":"levelo://app?vid=b87a74a7-a437-4ea6-8310-99f8453e6da2","ios":"levelo://app?vid=b87a74a7-a437-4ea6-8310-99f8453e6da2"},"vehicle_type_id":"4","last_reported":1712423225,"current_range_meters":7200,"station_id":"ce4bgip2rcd13ifvqbb0","pricing_plan_id":"cebpf4jnsgd1na2vs0mg"},{"bike_id":"d60befbc-bb5d-448d-b3ff-fc290213eafe","system_id":"levelo_inurba_marseille","lat":43.295748,"lon":5.37522,"is_reserved":false,"is_disabled":false,"rental_uris":{"android":"levelo://app?vid=d60befbc-bb5d-448d-b3ff-fc290213eafe","ios":"levelo://app?vid=d60befbc-bb5d-448d-b3ff-fc290213eafe"},"vehicle_type_id":"4","last_reported":1712423225,"current_range_meters":31600,"station_id":"ce4bgh92rcd13ifvqb50","pricing_plan_id":"cebpf4jnsgd1na2vs0mg"},{"bike_id":"0c8487e3-a0a7-45b7-b8a4-3f999e53dce3","system_id":"levelo_inurba_marseille","lat":43.295748,"lon":5.37522,"is_reserved":false,"is_disabled":false,"rental_uris":{"android":"levelo://app?vid=0c8487e3-a0a7-45b7-b8a4-3f999e53dce3","ios":"levelo://app?vid=0c8487e3-a0a7-45b7-b8a4-3f999e53dce3"},"vehicle_type_id":"4","last_reported":1712423225,"current_range_meters":19600,"station_id":"ce4bgh92rcd13ifvqb50","pricing_plan_id":"cebpf4jnsgd1na2vs0mg"},{"bike_id":"9fa1bbe9-fd90-46f0-b05f-86bdf7aeb6d7","system_id":"levelo_inurba_marseille","lat":43.304274,"lon":5.388873,"is_reserved":false,"is_disabled":false,"rental_uris":{"android":"levelo://app?vid=9fa1bbe9-fd90-46f0-b05f-86bdf7aeb6d7","ios":"levelo://app?vid=9fa1bbe9-fd90-46f0-b05f-86bdf7aeb6d7"},"vehicle_type_id":"4","last_reported":1712423225,"current_range_meters":10800,"station_id":"ce4bgk12rcd13ifvqbi0","pricing_plan_id":"cebpf4jnsgd1na2vs0mg"},{"bike_id":"89336b7c-355d-4813-be04-d773b0ec712e","system_id":"levelo_inurba_marseille","lat":43.29621,"lon":5.37727,"is_reserved":false,"is_disabled":false,"rental_uris":{"android":"levelo://app?vid=89336b7c-355d-4813-be04-d773b0ec712e","ios":"levelo://app?vid=89336b7c-355d-4813-be04-d773b0ec712e"},"vehicle_type_id":"4","last_reported":1712423225,"current_range_meters":0,"station_id":"ce4bgi92rcd13ifvqb90","pricing_plan_id":"cebpf4jnsgd1na2vs0mg"},{"bike_id":"65f8b248-204c-483b-81fa-3e47bdb78e8f","system_id":"levelo_inurba_marseille","lat":43.30422,"lon":5.389,"is_reserved":false,"is_disabled":false,"rental_uris":{"android":"levelo://app?vid=65f8b248-204c-483b-81fa-3e47bdb78e8f","ios":"levelo://app?vid=65f8b248-204c-483b-81fa-3e47bdb78e8f"},"vehicle_type_id":"4","last_reported":1712423225,"current_range_meters":9200,"station_id":"ce4bgk12rcd13ifvqbi0","pricing_plan_id":"cebpf4jnsgd1na2vs0mg"},{"bike_id":"99b9ee86-88f7-4194-a9e9-900f9aa096af","system_id":"levelo_inurba_marseille","lat":43.2961,"lon":5.37719,"is_reserved":false,"is_disabled":false,"rental_uris":{"android":"levelo://app?vid=99b9ee86-88f7-4194-a9e9-900f9aa096af","ios":"levelo://app?vid=99b9ee86-88f7-4194-a9e9-900f9aa096af"},"vehicle_type_id":"4","last_reported":1712423225,"current_range_meters":0,"station_id":"ce4bgi92rcd13ifvqb90","pricing_plan_id":"cebpf4jnsgd1na2vs0mg"},{"bike_id":"5478c78c-a5d2-491e-b741-12df9c28a6cc","system_id":"levelo_inurba_marseille","lat":43.292642,"lon":5.384254,"is_reserved":false,"is_disabled":false,"rental_uris":{"android":"levelo://app?vid=5478c78c-a5d2-491e-b741-12df9c28a6cc","ios":"levelo://app?vid=5478c78c-a5d2-491e-b741-12df9c28a6cc"},"vehicle_type_id":"4","last_reported":1712423225,"current_range_meters":0,"station_id":"ce4bh692rcd13ifvqea0","pricing_plan_id":"cebpf4jnsgd1na2vs0mg"},{"bike_id":"5d4ac01a-7ccd-4712-bc42-82922403c002","system_id":"levelo_inurba_marseille","lat":43.295279,"lon":5.375048,"is_reserved":false,"is_disabled":false,"rental_uris":{"android":"levelo://app?vid=5d4ac01a-7ccd-4712-bc42-82922403c002","ios":"levelo://app?vid=5d4ac01a-7ccd-4712-bc42-82922403c002"},"vehicle_type_id":"4","last_reported":1712423225,"current_range_meters":0,"station_id":"ce4bgkp2rcd13ifvqbmg","pricing_plan_id":"cebpf4jnsgd1na2vs0mg"},{"bike_id":"1cfc0f7f-507c-46ad-a3ed-af63ff86440c","system_id":"levelo_inurba_marseille","lat":43.299707,"lon":5.384859,"is_reserved":false,"is_disabled":false,"rental_uris":{"android":"levelo://app?vid=1cfc0f7f-507c-46ad-a3ed-af63ff86440c","ios":"levelo://app?vid=1cfc0f7f-507c-46ad-a3ed-af63ff86440c"},"vehicle_type_id":"4","last_reported":1712423225,"current_range_meters":28400,"station_id":"ce4bgj92rcd13ifvqbd0","pricing_plan_id":"cebpf4jnsgd1na2vs0mg"},{"bike_id":"1d3f3445-d0f0-4989-8fea-017512e5b76d","system_id":"levelo_inurba_marseille","lat":43.299707,"lon":5.384859,"is_reserved":false,"is_disabled":false,"rental_uris":{"android":"levelo://app?vid=1d3f3445-d0f0-4989-8fea-017512e5b76d","ios":"levelo://app?vid=1d3f3445-d0f0-4989-8fea-017512e5b76d"},"vehicle_type_id":"4","last_reported":1712423225,"current_range_meters":6000,"station_id":"ce4bgj92rcd13ifvqbd0","pricing_plan_id":"cebpf4jnsgd1na2vs0mg"},{"bike_id":"8aea3855-5367-4320-aa08-cb2612c8d0f8","system_id":"levelo_inurba_marseille","lat":43.29968,"lon":5.38494,"is_reserved":false,"is_disabled":false,"rental_uris":{"android":"levelo://app?vid=8aea3855-5367-4320-aa08-cb2612c8d0f8","ios":"levelo://app?vid=8aea3855-5367-4320-aa08-cb2612c8d0f8"},"vehicle_type_id":"4","last_reported":1712423225,"current_range_meters":1600,"station_id":"ce4bgj92rcd13ifvqbd0","pricing_plan_id":"cebpf4jnsgd1na2vs0mg"},{"bike_id":"e7b4ca4b-e904-42b3-9b27-70a7ee9a344c","system_id":"levelo_inurba_marseille","lat":43.296263,"lon":5.377094,"is_reserved":false,"is_disabled":false,"rental_uris":{"android":"levelo://app?vid=e7b4ca4b-e904-42b3-9b27-70a7ee9a344c","ios":"levelo://app?vid=e7b4ca4b-e904-42b3-9b27-70a7ee9a344c"},"vehicle_type_id":"4","last_reported":1712423225,"current_range_meters":20000,"station_id":"ce4bgi92rcd13ifvqb90","pricing_plan_id":"cebpf4jnsgd1na2vs0mg"},{"bike_id":"c27d3df8-f5a8-4a11-851f-c1445bcc6222","system_id":"levelo_inurba_marseille","lat":43.29963,"lon":5.38499,"is_reserved":false,"is_disabled":false,"rental_uris":{"android":"levelo://app?vid=c27d3df8-f5a8-4a11-851f-c1445bcc6222","ios":"levelo://app?vid=c27d3df8-f5a8-4a11-851f-c1445bcc6222"},"vehicle_type_id":"4","last_reported":1712423225,"current_range_meters":8800,"station_id":"ce4bgj92rcd13ifvqbd0","pricing_plan_id":"cebpf4jnsgd1na2vs0mg"},{"bike_id":"db974b92-5f1d-4016-8959-ec39d249d189","system_id":"levelo_inurba_marseille","lat":43.299603,"lon":5.384968,"is_reserved":false,"is_disabled":false,"rental_uris":{"android":"levelo://app?vid=db974b92-5f1d-4016-8959-ec39d249d189","ios":"levelo://app?vid=db974b92-5f1d-4016-8959-ec39d249d189"},"vehicle_type_id":"4","last_reported":1712423225,"current_range_meters":0,"station_id":"ce4bgj92rcd13ifvqbd0","pricing_plan_id":"cebpf4jnsgd1na2vs0mg"},{"bike_id":"b50b04ae-f64f-4bac-977b-90724e078daa","system_id":"levelo_inurba_marseille","lat":43.29959,"lon":5.38499,"is_reserved":false,"is_disabled":false,"rental_uris":{"android":"levelo://app?vid=b50b04ae-f64f-4bac-977b-90724e078daa","ios":"levelo://app?vid=b50b04ae-f64f-4bac-977b-90724e078daa"},"vehicle_type_id":"4","last_reported":1712423225,"current_range_meters":0,"station_id":"ce4bgj92rcd13ifvqbd0","pricing_plan_id":"cebpf4jnsgd1na2vs0mg"},{"bike_id":"bb0d0103-4728-4fb1-9125-0dd9fe9cc5e8","system_id":"levelo_inurba_marseille","lat":43.32367,"lon":5.388836,"is_reserved":false,"is_disabled":false,"rental_uris":{"android":"levelo://app?vid=bb0d0103-4728-4fb1-9125-0dd9fe9cc5e8","ios":"levelo://app?vid=bb0d0103-4728-4fb1-9125-0dd9fe9cc5e8"},"vehicle_type_id":"4","last_reported":1712423225,"current_range_meters":22000,"station_id":"ce4bhqp2rcd13ifvqhog","pricing_plan_id":"cebpf4jnsgd1na2vs0mg"},{"bike_id":"c77da255-075a-47d5-87f0-f66f1abf3603","system_id":"levelo_inurba_marseille","lat":43.29598,"lon":5.38093,"is_reserved":false,"is_disabled":false,"rental_uris":{"android":"levelo://app?vid=c77da255-075a-47d5-87f0-f66f1abf3603","ios":"levelo://app?vid=c77da255-075a-47d5-87f0-f66f1abf3603"},"vehicle_type_id":"4","last_reported":1712423225,"current_range_meters":0,"station_id":"ce4bgl12rcd13ifvqbo0","pricing_plan_id":"cebpf4jnsgd1na2vs0mg"},{"bike_id":"2b4b1da5-2931-4529-b8b0-5c11aadea8db","system_id":"levelo_inurba_marseille","lat":43.29601,"lon":5.381084,"is_reserved":false,"is_disabled":false,"rental_uris":{"android":"levelo://app?vid=2b4b1da5-2931-4529-b8b0-5c11aadea8db","ios":"levelo://app?vid=2b4b1da5-2931-4529-b8b0-5c11aadea8db"},"vehicle_type_id":"4","last_reported":1712423225,"current_range_meters":4000,"station_id":"ce4bgl12rcd13ifvqbo0","pricing_plan_id":"cebpf4jnsgd1na2vs0mg"},{"bike_id":"6a1ec133-c49a-4a7c-931d-0e17c7e35b43","system_id":"levelo_inurba_marseille","lat":43.294418,"lon":5.37696,"is_reserved":false,"is_disabled":false,"rental_uris":{"android":"levelo://app?vid=6a1ec133-c49a-4a7c-931d-0e17c7e35b43","ios":"levelo://app?vid=6a1ec133-c49a-4a7c-931d-0e17c7e35b43"},"vehicle_type_id":"4","last_reported":1712423225,"current_range_meters":9600,"station_id":"","pricing_plan_id":"cebpf4jnsgd1na2vs0mg"},{"bike_id":"d469bc23-e9b5-4e05-b769-24761e1521f3","system_id":"levelo_inurba_marseille","lat":43.29318,"lon":5.370951,"is_reserved":false,"is_disabled":false,"rental_uris":{"android":"levelo://app?vid=d469bc23-e9b5-4e05-b769-24761e1521f3","ios":"levelo://app?vid=d469bc23-e9b5-4e05-b769-24761e1521f3"},"vehicle_type_id":"4","last_reported":1712423225,"current_range_meters":24000,"station_id":"ce4bgh92rcd13ifvqb40","pricing_plan_id":"cebpf4jnsgd1na2vs0mg"},{"bike_id":"5368e5d2-495e-42ac-9572-52a3e29e8622","system_id":"levelo_inurba_marseille","lat":43.293249,"lon":5.371578,"is_reserved":false,"is_disabled":false,"rental_uris":{"android":"levelo://app?vid=5368e5d2-495e-42ac-9572-52a3e29e8622","ios":"levelo://app?vid=5368e5d2-495e-42ac-9572-52a3e29e8622"},"vehicle_type_id":"4","last_reported":1712423225,"current_range_meters":0,"station_id":"ce4bgh92rcd13ifvqb40","pricing_plan_id":"cebpf4jnsgd1na2vs0mg"},{"bike_id":"a8216aa8-c140-4dc2-b3e5-2e8879633005","system_id":"levelo_inurba_marseille","lat":43.2928,"lon":5.36844,"is_reserved":false,"is_disabled":false,"rental_uris":{"android":"levelo://app?vid=a8216aa8-c140-4dc2-b3e5-2e8879633005","ios":"levelo://app?vid=a8216aa8-c140-4dc2-b3e5-2e8879633005"},"vehicle_type_id":"4","last_reported":1712423225,"current_range_meters":12800,"station_id":"ce4bhbp2rcd13ifvqesg","pricing_plan_id":"cebpf4jnsgd1na2vs0mg"},{"bike_id":"155a4614-cb04-4122-ba30-e3c454d53634","system_id":"levelo_inurba_marseille","lat":43.292749,"lon":5.368402,"is_reserved":false,"is_disabled":false,"rental_uris":{"android":"levelo://app?vid=155a4614-cb04-4122-ba30-e3c454d53634","ios":"levelo://app?vid=155a4614-cb04-4122-ba30-e3c454d53634"},"vehicle_type_id":"4","last_reported":1712423225,"current_range_meters":0,"station_id":"ce4bhbp2rcd13ifvqesg","pricing_plan_id":"cebpf4jnsgd1na2vs0mg"},{"bike_id":"c003b3dc-173f-4d18-9118-841fa76149a4","system_id":"levelo_inurba_marseille","lat":43.293009,"lon":5.374584,"is_reserved":false,"is_disabled":false,"rental_uris":{"android":"levelo://app?vid=c003b3dc-173f-4d18-9118-841fa76149a4","ios":"levelo://app?vid=c003b3dc-173f-4d18-9118-841fa76149a4"},"vehicle_type_id":"4","last_reported":1712423225,"current_range_meters":800,"station_id":"ce4bgi12rcd13ifvqb70","pricing_plan_id":"cebpf4jnsgd1na2vs0mg"},{"bike_id":"63649954-d20c-46a1-82d2-821550e13d59","system_id":"levelo_inurba_marseille","lat":43.29303,"lon":5.37176,"is_reserved":false,"is_disabled":false,"rental_uris":{"android":"levelo://app?vid=63649954-d20c-46a1-82d2-821550e13d59","ios":"levelo://app?vid=63649954-d20c-46a1-82d2-821550e13d59"},"vehicle_type_id":"4","last_reported":1712423225,"current_range_meters":0,"station_id":"ce4bgh92rcd13ifvqb40","pricing_plan_id":"cebpf4jnsgd1na2vs0mg"},{"bike_id":"8e3881db-ede9-4b2a-9ffe-4c90a2601a39","system_id":"levelo_inurba_marseille","lat":43.29274,"lon":5.36839,"is_reserved":false,"is_disabled":false,"rental_uris":{"android":"levelo://app?vid=8e3881db-ede9-4b2a-9ffe-4c90a2601a39","ios":"levelo://app?vid=8e3881db-ede9-4b2a-9ffe-4c90a2601a39"},"vehicle_type_id":"4","last_reported":1712423225,"current_range_meters":26800,"station_id":"ce4bhbp2rcd13ifvqesg","pricing_plan_id":"cebpf4jnsgd1na2vs0mg"},{"bike_id":"a8949a44-3527-4a19-9fe6-95abebf4cd5a","system_id":"levelo_inurba_marseille","lat":43.292749,"lon":5.368398,"is_reserved":false,"is_disabled":false,"rental_uris":{"android":"levelo://app?vid=a8949a44-3527-4a19-9fe6-95abebf4cd5a","ios":"levelo://app?vid=a8949a44-3527-4a19-9fe6-95abebf4cd5a"},"vehicle_type_id":"4","last_reported":1712423225,"current_range_meters":8400,"station_id":"ce4bhbp2rcd13ifvqesg","pricing_plan_id":"cebpf4jnsgd1na2vs0mg"},{"bike_id":"3568c087-96b1-4398-ad3e-66c094e97ff8","system_id":"levelo_inurba_marseille","lat":43.292749,"lon":5.368398,"is_reserved":false,"is_disabled":false,"rental_uris":{"android":"levelo://app?vid=3568c087-96b1-4398-ad3e-66c094e97ff8","ios":"levelo://app?vid=3568c087-96b1-4398-ad3e-66c094e97ff8"},"vehicle_type_id":"4","last_reported":1712423225,"current_range_meters":18400,"station_id":"ce4bhbp2rcd13ifvqesg","pricing_plan_id":"cebpf4jnsgd1na2vs0mg"},{"bike_id":"415a139c-17ff-463b-a649-7f9135e09042","system_id":"levelo_inurba_marseille","lat":43.29272,"lon":5.36836,"is_reserved":false,"is_disabled":false,"rental_uris":{"android":"levelo://app?vid=415a139c-17ff-463b-a649-7f9135e09042","ios":"levelo://app?vid=415a139c-17ff-463b-a649-7f9135e09042"},"vehicle_type_id":"4","last_reported":1712423225,"current_range_meters":0,"station_id":"ce4bhbp2rcd13ifvqesg","pricing_plan_id":"cebpf4jnsgd1na2vs0mg"},{"bike_id":"70de3761-447d-41c9-84fd-23a32e0281e4","system_id":"levelo_inurba_marseille","lat":43.292749,"lon":5.368398,"is_reserved":false,"is_disabled":false,"rental_uris":{"android":"levelo://app?vid=70de3761-447d-41c9-84fd-23a32e0281e4","ios":"levelo://app?vid=70de3761-447d-41c9-84fd-23a32e0281e4"},"vehicle_type_id":"4","last_reported":1712423225,"current_range_meters":0,"station_id":"ce4bhbp2rcd13ifvqesg","pricing_plan_id":"cebpf4jnsgd1na2vs0mg"},{"bike_id":"afafd4c2-e30b-4f2a-b658-9202f0e79de6","system_id":"levelo_inurba_marseille","lat":43.29299,"lon":5.37188,"is_reserved":false,"is_disabled":false,"rental_uris":{"android":"levelo://app?vid=afafd4c2-e30b-4f2a-b658-9202f0e79de6","ios":"levelo://app?vid=afafd4c2-e30b-4f2a-b658-9202f0e79de6"},"vehicle_type_id":"4","last_reported":1712423225,"current_range_meters":0,"station_id":"ce4bgh92rcd13ifvqb40","pricing_plan_id":"cebpf4jnsgd1na2vs0mg"},{"bike_id":"920c4f3c-a3ea-4e97-b8d4-83d8f8d236d7","system_id":"levelo_inurba_marseille","lat":43.300008,"lon":5.388677,"is_reserved":false,"is_disabled":false,"rental_uris":{"android":"levelo://app?vid=920c4f3c-a3ea-4e97-b8d4-83d8f8d236d7","ios":"levelo://app?vid=920c4f3c-a3ea-4e97-b8d4-83d8f8d236d7"},"vehicle_type_id":"4","last_reported":1712423225,"current_range_meters":21200,"station_id":"","pricing_plan_id":"cebpf4jnsgd1na2vs0mg"},{"bike_id":"7991b26f-08e1-4179-a718-ba0c52332cf8","system_id":"levelo_inurba_marseille","lat":43.292369,"lon":5.368419,"is_reserved":false,"is_disabled":false,"rental_uris":{"android":"levelo://app?vid=7991b26f-08e1-4179-a718-ba0c52332cf8","ios":"levelo://app?vid=7991b26f-08e1-4179-a718-ba0c52332cf8"},"vehicle_type_id":"4","last_reported":1712423225,"current_range_meters":6400,"station_id":"ce4bhbp2rcd13ifvqesg","pricing_plan_id":"cebpf4jnsgd1na2vs0mg"},{"bike_id":"bee15e33-e165-4539-b0e4-0b5b1ddb9b6e","system_id":"levelo_inurba_marseille","lat":43.305994,"lon":5.393687,"is_reserved":false,"is_disabled":false,"rental_uris":{"android":"levelo://app?vid=bee15e33-e165-4539-b0e4-0b5b1ddb9b6e","ios":"levelo://app?vid=bee15e33-e165-4539-b0e4-0b5b1ddb9b6e"},"vehicle_type_id":"4","last_reported":1712423225,"current_range_meters":4000,"station_id":"ce4bh0p2rcd13ifvqd80","pricing_plan_id":"cebpf4jnsgd1na2vs0mg"},{"bike_id":"42f29feb-b9f1-4e8c-b9f2-07fc581a5b47","system_id":"levelo_inurba_marseille","lat":43.293009,"lon":5.374584,"is_reserved":false,"is_disabled":false,"rental_uris":{"android":"levelo://app?vid=42f29feb-b9f1-4e8c-b9f2-07fc581a5b47","ios":"levelo://app?vid=42f29feb-b9f1-4e8c-b9f2-07fc581a5b47"},"vehicle_type_id":"4","last_reported":1712423225,"current_range_meters":1600,"station_id":"ce4bgi12rcd13ifvqb70","pricing_plan_id":"cebpf4jnsgd1na2vs0mg"},{"bike_id":"f7b72e3c-e478-443b-9108-3db96948862b","system_id":"levelo_inurba_marseille","lat":43.293009,"lon":5.374584,"is_reserved":false,"is_disabled":false,"rental_uris":{"android":"levelo://app?vid=f7b72e3c-e478-443b-9108-3db96948862b","ios":"levelo://app?vid=f7b72e3c-e478-443b-9108-3db96948862b"},"vehicle_type_id":"4","last_reported":1712423225,"current_range_meters":0,"station_id":"ce4bgi12rcd13ifvqb70","pricing_plan_id":"cebpf4jnsgd1na2vs0mg"},{"bike_id":"9a57c783-a36b-471f-bb2f-073b6cfd3f3e","system_id":"levelo_inurba_marseille","lat":43.293009,"lon":5.374584,"is_reserved":false,"is_disabled":false,"rental_uris":{"android":"levelo://app?vid=9a57c783-a36b-471f-bb2f-073b6cfd3f3e","ios":"levelo://app?vid=9a57c783-a36b-471f-bb2f-073b6cfd3f3e"},"vehicle_type_id":"4","last_reported":1712423225,"current_range_meters":0,"station_id":"ce4bgi12rcd13ifvqb70","pricing_plan_id":"cebpf4jnsgd1na2vs0mg"},{"bike_id":"310b8e6d-62fd-4b0d-b6e7-9c9f70e4f44e","system_id":"levelo_inurba_marseille","lat":43.302759,"lon":5.400793,"is_reserved":false,"is_disabled":false,"rental_uris":{"android":"levelo://app?vid=310b8e6d-62fd-4b0d-b6e7-9c9f70e4f44e","ios":"levelo://app?vid=310b8e6d-62fd-4b0d-b6e7-9c9f70e4f44e"},"vehicle_type_id":"4","last_reported":1712423225,"current_range_meters":0,"station_id":"ce4bgvh2rcd13ifvqcs0","pricing_plan_id":"cebpf4jnsgd1na2vs0mg"},{"bike_id":"02d65ddf-b1f9-4ed4-8fd0-adf402d5f999","system_id":"levelo_inurba_marseille","lat":43.303002,"lon":5.392142,"is_reserved":false,"is_disabled":false,"rental_uris":{"android":"levelo://app?vid=02d65ddf-b1f9-4ed4-8fd0-adf402d5f999","ios":"levelo://app?vid=02d65ddf-b1f9-4ed4-8fd0-adf402d5f999"},"vehicle_type_id":"4","last_reported":1712423225,"current_range_meters":0,"station_id":"ce4bgkh2rcd13ifvqbk0","pricing_plan_id":"cebpf4jnsgd1na2vs0mg"},{"bike_id":"ac443d5a-d861-4f84-a6a4-857aeb915739","system_id":"levelo_inurba_marseille","lat":43.30306,"lon":5.39205,"is_reserved":false,"is_disabled":false,"rental_uris":{"android":"levelo://app?vid=ac443d5a-d861-4f84-a6a4-857aeb915739","ios":"levelo://app?vid=ac443d5a-d861-4f84-a6a4-857aeb915739"},"vehicle_type_id":"4","last_reported":1712423225,"current_range_meters":0,"station_id":"","pricing_plan_id":"cebpf4jnsgd1na2vs0mg"},{"bike_id":"7f8f29c4-2702-40f6-abc4-b0a3c58ad19b","system_id":"levelo_inurba_marseille","lat":43.303,"lon":5.39213,"is_reserved":false,"is_disabled":false,"rental_uris":{"android":"levelo://app?vid=7f8f29c4-2702-40f6-abc4-b0a3c58ad19b","ios":"levelo://app?vid=7f8f29c4-2702-40f6-abc4-b0a3c58ad19b"},"vehicle_type_id":"4","last_reported":1712423225,"current_range_meters":800,"station_id":"ce4bgkh2rcd13ifvqbk0","pricing_plan_id":"cebpf4jnsgd1na2vs0mg"},{"bike_id":"7e18fccd-e10f-406c-861f-9e3a77849fa2","system_id":"levelo_inurba_marseille","lat":43.30299,"lon":5.39217,"is_reserved":false,"is_disabled":false,"rental_uris":{"android":"levelo://app?vid=7e18fccd-e10f-406c-861f-9e3a77849fa2","ios":"levelo://app?vid=7e18fccd-e10f-406c-861f-9e3a77849fa2"},"vehicle_type_id":"4","last_reported":1712423225,"current_range_meters":0,"station_id":"ce4bgkh2rcd13ifvqbk0","pricing_plan_id":"cebpf4jnsgd1na2vs0mg"},{"bike_id":"de8089e7-88ba-4e8d-bea0-f816029a1db3","system_id":"levelo_inurba_marseille","lat":43.293606,"lon":5.378288,"is_reserved":false,"is_disabled":false,"rental_uris":{"android":"levelo://app?vid=de8089e7-88ba-4e8d-bea0-f816029a1db3","ios":"levelo://app?vid=de8089e7-88ba-4e8d-bea0-f816029a1db3"},"vehicle_type_id":"4","last_reported":1712423225,"current_range_meters":0,"station_id":"ce4bgjh2rcd13ifvqbf0","pricing_plan_id":"cebpf4jnsgd1na2vs0mg"},{"bike_id":"477c4481-ed27-4c3a-9f79-bf9cbb9d68b6","system_id":"levelo_inurba_marseille","lat":43.2936,"lon":5.37835,"is_reserved":false,"is_disabled":false,"rental_uris":{"android":"levelo://app?vid=477c4481-ed27-4c3a-9f79-bf9cbb9d68b6","ios":"levelo://app?vid=477c4481-ed27-4c3a-9f79-bf9cbb9d68b6"},"vehicle_type_id":"4","last_reported":1712423225,"current_range_meters":4800,"station_id":"ce4bgjh2rcd13ifvqbf0","pricing_plan_id":"cebpf4jnsgd1na2vs0mg"},{"bike_id":"d42223dd-da09-4633-a90e-a76715ac7e88","system_id":"levelo_inurba_marseille","lat":43.2936,"lon":5.37835,"is_reserved":false,"is_disabled":false,"rental_uris":{"android":"levelo://app?vid=d42223dd-da09-4633-a90e-a76715ac7e88","ios":"levelo://app?vid=d42223dd-da09-4633-a90e-a76715ac7e88"},"vehicle_type_id":"4","last_reported":1712423225,"current_range_meters":400,"station_id":"ce4bgjh2rcd13ifvqbf0","pricing_plan_id":"cebpf4jnsgd1na2vs0mg"},{"bike_id":"1bc9d51c-72ee-473c-b94c-a99cc118a0df","system_id":"levelo_inurba_marseille","lat":43.300852,"lon":5.390859,"is_reserved":false,"is_disabled":false,"rental_uris":{"android":"levelo://app?vid=1bc9d51c-72ee-473c-b94c-a99cc118a0df","ios":"levelo://app?vid=1bc9d51c-72ee-473c-b94c-a99cc118a0df"},"vehicle_type_id":"4","last_reported":1712423225,"current_range_meters":4800,"station_id":"ce4bh192rcd13ifvqdb0","pricing_plan_id":"cebpf4jnsgd1na2vs0mg"},{"bike_id":"bb89da9c-59b2-4f4e-aa06-1c47e26ac8b4","system_id":"levelo_inurba_marseille","lat":43.29229,"lon":5.360632,"is_reserved":false,"is_disabled":false,"rental_uris":{"android":"levelo://app?vid=bb89da9c-59b2-4f4e-aa06-1c47e26ac8b4","ios":"levelo://app?vid=bb89da9c-59b2-4f4e-aa06-1c47e26ac8b4"},"vehicle_type_id":"4","last_reported":1712423225,"current_range_meters":0,"station_id":"ce4bhbh2rcd13ifvqeqg","pricing_plan_id":"cebpf4jnsgd1na2vs0mg"},{"bike_id":"a1a6a377-d0dd-4a7c-8ec9-2914bc28949f","system_id":"levelo_inurba_marseille","lat":43.30085,"lon":5.390856,"is_reserved":false,"is_disabled":false,"rental_uris":{"android":"levelo://app?vid=a1a6a377-d0dd-4a7c-8ec9-2914bc28949f","ios":"levelo://app?vid=a1a6a377-d0dd-4a7c-8ec9-2914bc28949f"},"vehicle_type_id":"4","last_reported":1712423225,"current_range_meters":0,"station_id":"ce4bh192rcd13ifvqdb0","pricing_plan_id":"cebpf4jnsgd1na2vs0mg"},{"bike_id":"a1d3f0c6-4ebf-437d-a950-6e3f918f7839","system_id":"levelo_inurba_marseille","lat":43.29219,"lon":5.3605,"is_reserved":false,"is_disabled":false,"rental_uris":{"android":"levelo://app?vid=a1d3f0c6-4ebf-437d-a950-6e3f918f7839","ios":"levelo://app?vid=a1d3f0c6-4ebf-437d-a950-6e3f918f7839"},"vehicle_type_id":"4","last_reported":1712423225,"current_range_meters":0,"station_id":"ce4bhbh2rcd13ifvqeqg","pricing_plan_id":"cebpf4jnsgd1na2vs0mg"},{"bike_id":"5a0a8d1e-573a-4841-96f1-90c1838a1f8a","system_id":"levelo_inurba_marseille","lat":43.300852,"lon":5.390859,"is_reserved":false,"is_disabled":false,"rental_uris":{"android":"levelo://app?vid=5a0a8d1e-573a-4841-96f1-90c1838a1f8a","ios":"levelo://app?vid=5a0a8d1e-573a-4841-96f1-90c1838a1f8a"},"vehicle_type_id":"4","last_reported":1712423225,"current_range_meters":16400,"station_id":"ce4bh192rcd13ifvqdb0","pricing_plan_id":"cebpf4jnsgd1na2vs0mg"},{"bike_id":"b8510878-b096-42e7-a952-578c62eeb32d","system_id":"levelo_inurba_marseille","lat":43.298764,"lon":5.388973,"is_reserved":false,"is_disabled":false,"rental_uris":{"android":"levelo://app?vid=b8510878-b096-42e7-a952-578c62eeb32d","ios":"levelo://app?vid=b8510878-b096-42e7-a952-578c62eeb32d"},"vehicle_type_id":"4","last_reported":1712423225,"current_range_meters":0,"station_id":"ce4bh392rcd13ifvqdl0","pricing_plan_id":"cebpf4jnsgd1na2vs0mg"},{"bike_id":"8fe11d3f-8aa7-41cc-a36f-0738ea6e5bba","system_id":"levelo_inurba_marseille","lat":43.309038,"lon":5.396546,"is_reserved":false,"is_disabled":false,"rental_uris":{"android":"levelo://app?vid=8fe11d3f-8aa7-41cc-a36f-0738ea6e5bba","ios":"levelo://app?vid=8fe11d3f-8aa7-41cc-a36f-0738ea6e5bba"},"vehicle_type_id":"4","last_reported":1712423225,"current_range_meters":0,"station_id":"ce4bh012rcd13ifvqcv0","pricing_plan_id":"cebpf4jnsgd1na2vs0mg"},{"bike_id":"e7443cdb-07a6-4499-83cb-62f5e7d7e509","system_id":"levelo_inurba_marseille","lat":43.309038,"lon":5.396546,"is_reserved":false,"is_disabled":false,"rental_uris":{"android":"levelo://app?vid=e7443cdb-07a6-4499-83cb-62f5e7d7e509","ios":"levelo://app?vid=e7443cdb-07a6-4499-83cb-62f5e7d7e509"},"vehicle_type_id":"4","last_reported":1712423225,"current_range_meters":0,"station_id":"ce4bh012rcd13ifvqcv0","pricing_plan_id":"cebpf4jnsgd1na2vs0mg"},{"bike_id":"6b3d2531-bcd9-4862-b0a2-846c0c39c2bb","system_id":"levelo_inurba_marseille","lat":43.31332,"lon":5.3969,"is_reserved":false,"is_disabled":false,"rental_uris":{"android":"levelo://app?vid=6b3d2531-bcd9-4862-b0a2-846c0c39c2bb","ios":"levelo://app?vid=6b3d2531-bcd9-4862-b0a2-846c0c39c2bb"},"vehicle_type_id":"4","last_reported":1712423225,"current_range_meters":0,"station_id":"ce4bgvp2rcd13ifvqcu0","pricing_plan_id":"cebpf4jnsgd1na2vs0mg"},{"bike_id":"48be94fd-0aa9-40ed-8200-a46fe72795a0","system_id":"levelo_inurba_marseille","lat":43.313291,"lon":5.396838,"is_reserved":false,"is_disabled":false,"rental_uris":{"android":"levelo://app?vid=48be94fd-0aa9-40ed-8200-a46fe72795a0","ios":"levelo://app?vid=48be94fd-0aa9-40ed-8200-a46fe72795a0"},"vehicle_type_id":"4","last_reported":1712423225,"current_range_meters":24400,"station_id":"ce4bgvp2rcd13ifvqcu0","pricing_plan_id":"cebpf4jnsgd1na2vs0mg"},{"bike_id":"45f7d617-bdf3-40eb-88c1-875139b6da12","system_id":"levelo_inurba_marseille","lat":43.309038,"lon":5.396546,"is_reserved":false,"is_disabled":false,"rental_uris":{"android":"levelo://app?vid=45f7d617-bdf3-40eb-88c1-875139b6da12","ios":"levelo://app?vid=45f7d617-bdf3-40eb-88c1-875139b6da12"},"vehicle_type_id":"4","last_reported":1712423225,"current_range_meters":13600,"station_id":"ce4bh012rcd13ifvqcv0","pricing_plan_id":"cebpf4jnsgd1na2vs0mg"},{"bike_id":"10f14042-02bc-4aa1-81a6-0fad28d4e109","system_id":"levelo_inurba_marseille","lat":43.313291,"lon":5.396838,"is_reserved":false,"is_disabled":false,"rental_uris":{"android":"levelo://app?vid=10f14042-02bc-4aa1-81a6-0fad28d4e109","ios":"levelo://app?vid=10f14042-02bc-4aa1-81a6-0fad28d4e109"},"vehicle_type_id":"4","last_reported":1712423225,"current_range_meters":9600,"station_id":"ce4bgvp2rcd13ifvqcu0","pricing_plan_id":"cebpf4jnsgd1na2vs0mg"},{"bike_id":"7faa289a-26e2-4387-a8db-e46337982647","system_id":"levelo_inurba_marseille","lat":43.29188,"lon":5.35797,"is_reserved":false,"is_disabled":false,"rental_uris":{"android":"levelo://app?vid=7faa289a-26e2-4387-a8db-e46337982647","ios":"levelo://app?vid=7faa289a-26e2-4387-a8db-e46337982647"},"vehicle_type_id":"4","last_reported":1712423225,"current_range_meters":0,"station_id":"ce4bhb12rcd13ifvqel0","pricing_plan_id":"cebpf4jnsgd1na2vs0mg"},{"bike_id":"a2888a2a-d4c3-49f7-b55d-639ff1a34d68","system_id":"levelo_inurba_marseille","lat":43.313291,"lon":5.396838,"is_reserved":false,"is_disabled":false,"rental_uris":{"android":"levelo://app?vid=a2888a2a-d4c3-49f7-b55d-639ff1a34d68","ios":"levelo://app?vid=a2888a2a-d4c3-49f7-b55d-639ff1a34d68"},"vehicle_type_id":"4","last_reported":1712423225,"current_range_meters":4400,"station_id":"ce4bgvp2rcd13ifvqcu0","pricing_plan_id":"cebpf4jnsgd1na2vs0mg"},{"bike_id":"ca01e377-1db9-4cb4-b000-59b60b7cd638","system_id":"levelo_inurba_marseille","lat":43.313291,"lon":5.396838,"is_reserved":false,"is_disabled":false,"rental_uris":{"android":"levelo://app?vid=ca01e377-1db9-4cb4-b000-59b60b7cd638","ios":"levelo://app?vid=ca01e377-1db9-4cb4-b000-59b60b7cd638"},"vehicle_type_id":"4","last_reported":1712423225,"current_range_meters":5600,"station_id":"ce4bgvp2rcd13ifvqcu0","pricing_plan_id":"cebpf4jnsgd1na2vs0mg"},{"bike_id":"df974e15-ffb3-41b7-9980-9b026a709b08","system_id":"levelo_inurba_marseille","lat":43.309038,"lon":5.396546,"is_reserved":false,"is_disabled":false,"rental_uris":{"android":"levelo://app?vid=df974e15-ffb3-41b7-9980-9b026a709b08","ios":"levelo://app?vid=df974e15-ffb3-41b7-9980-9b026a709b08"},"vehicle_type_id":"4","last_reported":1712423225,"current_range_meters":13600,"station_id":"ce4bh012rcd13ifvqcv0","pricing_plan_id":"cebpf4jnsgd1na2vs0mg"},{"bike_id":"548cc011-661e-4dae-b457-98393ea1e33f","system_id":"levelo_inurba_marseille","lat":43.30872,"lon":5.39656,"is_reserved":false,"is_disabled":false,"rental_uris":{"android":"levelo://app?vid=548cc011-661e-4dae-b457-98393ea1e33f","ios":"levelo://app?vid=548cc011-661e-4dae-b457-98393ea1e33f"},"vehicle_type_id":"4","last_reported":1712423225,"current_range_meters":0,"station_id":"ce4bh012rcd13ifvqcv0","pricing_plan_id":"cebpf4jnsgd1na2vs0mg"},{"bike_id":"2f062713-2c43-42be-8ec8-57c3c4c1d534","system_id":"levelo_inurba_marseille","lat":43.29535,"lon":5.38536,"is_reserved":false,"is_disabled":false,"rental_uris":{"android":"levelo://app?vid=2f062713-2c43-42be-8ec8-57c3c4c1d534","ios":"levelo://app?vid=2f062713-2c43-42be-8ec8-57c3c4c1d534"},"vehicle_type_id":"4","last_reported":1712423225,"current_range_meters":0,"station_id":"ce4bgih2rcd13ifvqba0","pricing_plan_id":"cebpf4jnsgd1na2vs0mg"},{"bike_id":"554b3585-43b0-4ba2-8009-8bcb1c7acaec","system_id":"levelo_inurba_marseille","lat":43.29529,"lon":5.385581,"is_reserved":false,"is_disabled":false,"rental_uris":{"android":"levelo://app?vid=554b3585-43b0-4ba2-8009-8bcb1c7acaec","ios":"levelo://app?vid=554b3585-43b0-4ba2-8009-8bcb1c7acaec"},"vehicle_type_id":"4","last_reported":1712423225,"current_range_meters":2800,"station_id":"ce4bgih2rcd13ifvqba0","pricing_plan_id":"cebpf4jnsgd1na2vs0mg"},{"bike_id":"55176b5b-5852-442a-946d-6cdae5565adf","system_id":"levelo_inurba_marseille","lat":43.295313,"lon":5.38546,"is_reserved":false,"is_disabled":false,"rental_uris":{"android":"levelo://app?vid=55176b5b-5852-442a-946d-6cdae5565adf","ios":"levelo://app?vid=55176b5b-5852-442a-946d-6cdae5565adf"},"vehicle_type_id":"4","last_reported":1712423225,"current_range_meters":0,"station_id":"ce4bgih2rcd13ifvqba0","pricing_plan_id":"cebpf4jnsgd1na2vs0mg"},{"bike_id":"b3ca5a6b-c352-4db0-beed-2f2d91600c75","system_id":"levelo_inurba_marseille","lat":43.29529,"lon":5.385581,"is_reserved":false,"is_disabled":false,"rental_uris":{"android":"levelo://app?vid=b3ca5a6b-c352-4db0-beed-2f2d91600c75","ios":"levelo://app?vid=b3ca5a6b-c352-4db0-beed-2f2d91600c75"},"vehicle_type_id":"4","last_reported":1712423225,"current_range_meters":0,"station_id":"ce4bgih2rcd13ifvqba0","pricing_plan_id":"cebpf4jnsgd1na2vs0mg"},{"bike_id":"b5989246-c9f8-4f3a-8faf-4ae46b498836","system_id":"levelo_inurba_marseille","lat":43.286591,"lon":5.363346,"is_reserved":false,"is_disabled":false,"rental_uris":{"android":"levelo://app?vid=b5989246-c9f8-4f3a-8faf-4ae46b498836","ios":"levelo://app?vid=b5989246-c9f8-4f3a-8faf-4ae46b498836"},"vehicle_type_id":"4","last_reported":1712423225,"current_range_meters":14000,"station_id":"ce4bhah2rcd13ifvqej0","pricing_plan_id":"cebpf4jnsgd1na2vs0mg"},{"bike_id":"64d65a3f-7fe9-4b8c-9b42-15992429155a","system_id":"levelo_inurba_marseille","lat":43.302008,"lon":5.394694,"is_reserved":false,"is_disabled":false,"rental_uris":{"android":"levelo://app?vid=64d65a3f-7fe9-4b8c-9b42-15992429155a","ios":"levelo://app?vid=64d65a3f-7fe9-4b8c-9b42-15992429155a"},"vehicle_type_id":"4","last_reported":1712423225,"current_range_meters":9600,"station_id":"ce4bh0p2rcd13ifvqd70","pricing_plan_id":"cebpf4jnsgd1na2vs0mg"},{"bike_id":"bb18751d-9804-4ef4-8e66-0ccc64c622c1","system_id":"levelo_inurba_marseille","lat":43.302008,"lon":5.394694,"is_reserved":false,"is_disabled":false,"rental_uris":{"android":"levelo://app?vid=bb18751d-9804-4ef4-8e66-0ccc64c622c1","ios":"levelo://app?vid=bb18751d-9804-4ef4-8e66-0ccc64c622c1"},"vehicle_type_id":"4","last_reported":1712423225,"current_range_meters":17200,"station_id":"ce4bh0p2rcd13ifvqd70","pricing_plan_id":"cebpf4jnsgd1na2vs0mg"},{"bike_id":"d9e1d70c-8867-4818-b6cc-929322cee5a2","system_id":"levelo_inurba_marseille","lat":43.302008,"lon":5.394694,"is_reserved":false,"is_disabled":false,"rental_uris":{"android":"levelo://app?vid=d9e1d70c-8867-4818-b6cc-929322cee5a2","ios":"levelo://app?vid=d9e1d70c-8867-4818-b6cc-929322cee5a2"},"vehicle_type_id":"4","last_reported":1712423225,"current_range_meters":3600,"station_id":"ce4bh0p2rcd13ifvqd70","pricing_plan_id":"cebpf4jnsgd1na2vs0mg"},{"bike_id":"0fee7212-1917-4f13-a0d2-727818e19fc3","system_id":"levelo_inurba_marseille","lat":43.302008,"lon":5.394694,"is_reserved":false,"is_disabled":false,"rental_uris":{"android":"levelo://app?vid=0fee7212-1917-4f13-a0d2-727818e19fc3","ios":"levelo://app?vid=0fee7212-1917-4f13-a0d2-727818e19fc3"},"vehicle_type_id":"4","last_reported":1712423225,"current_range_meters":12400,"station_id":"ce4bh0p2rcd13ifvqd70","pricing_plan_id":"cebpf4jnsgd1na2vs0mg"},{"bike_id":"e477e237-9d54-431c-bf0c-b5cfb72ce204","system_id":"levelo_inurba_marseille","lat":43.30202,"lon":5.39464,"is_reserved":false,"is_disabled":false,"rental_uris":{"android":"levelo://app?vid=e477e237-9d54-431c-bf0c-b5cfb72ce204","ios":"levelo://app?vid=e477e237-9d54-431c-bf0c-b5cfb72ce204"},"vehicle_type_id":"4","last_reported":1712423225,"current_range_meters":0,"station_id":"ce4bh0p2rcd13ifvqd70","pricing_plan_id":"cebpf4jnsgd1na2vs0mg"},{"bike_id":"f6c919c9-4fa4-4783-bac6-72e9a8435d3b","system_id":"levelo_inurba_marseille","lat":43.302008,"lon":5.394694,"is_reserved":false,"is_disabled":false,"rental_uris":{"android":"levelo://app?vid=f6c919c9-4fa4-4783-bac6-72e9a8435d3b","ios":"levelo://app?vid=f6c919c9-4fa4-4783-bac6-72e9a8435d3b"},"vehicle_type_id":"4","last_reported":1712423225,"current_range_meters":13600,"station_id":"ce4bh0p2rcd13ifvqd70","pricing_plan_id":"cebpf4jnsgd1na2vs0mg"},{"bike_id":"d79ba9e0-c3e8-4c8a-b564-e252019903b5","system_id":"levelo_inurba_marseille","lat":43.290563,"lon":5.359047,"is_reserved":false,"is_disabled":false,"rental_uris":{"android":"levelo://app?vid=d79ba9e0-c3e8-4c8a-b564-e252019903b5","ios":"levelo://app?vid=d79ba9e0-c3e8-4c8a-b564-e252019903b5"},"vehicle_type_id":"4","last_reported":1712423225,"current_range_meters":0,"station_id":"ce4bha92rcd13ifvqeg0","pricing_plan_id":"cebpf4jnsgd1na2vs0mg"},{"bike_id":"4951c3ad-1635-47ee-bd51-a0d996ced711","system_id":"levelo_inurba_marseille","lat":43.299717,"lon":5.384845,"is_reserved":false,"is_disabled":false,"rental_uris":{"android":"levelo://app?vid=4951c3ad-1635-47ee-bd51-a0d996ced711","ios":"levelo://app?vid=4951c3ad-1635-47ee-bd51-a0d996ced711"},"vehicle_type_id":"4","last_reported":1712423225,"current_range_meters":6000,"station_id":"ce4bgj92rcd13ifvqbd0","pricing_plan_id":"cebpf4jnsgd1na2vs0mg"},{"bike_id":"24432528-bcd8-447f-9303-e5288c931ee4","system_id":"levelo_inurba_marseille","lat":43.294162,"lon":5.386292,"is_reserved":false,"is_disabled":false,"rental_uris":{"android":"levelo://app?vid=24432528-bcd8-447f-9303-e5288c931ee4","ios":"levelo://app?vid=24432528-bcd8-447f-9303-e5288c931ee4"},"vehicle_type_id":"4","last_reported":1712423225,"current_range_meters":0,"station_id":"ce4bh2h2rcd13ifvqdh0","pricing_plan_id":"cebpf4jnsgd1na2vs0mg"},{"bike_id":"ddf81fdd-8722-409d-a6c5-09e14fe058bc","system_id":"levelo_inurba_marseille","lat":43.290327,"lon":5.375711,"is_reserved":false,"is_disabled":false,"rental_uris":{"android":"levelo://app?vid=ddf81fdd-8722-409d-a6c5-09e14fe058bc","ios":"levelo://app?vid=ddf81fdd-8722-409d-a6c5-09e14fe058bc"},"vehicle_type_id":"4","last_reported":1712423225,"current_range_meters":3200,"station_id":"ce4bh692rcd13ifvqe90","pricing_plan_id":"cebpf4jnsgd1na2vs0mg"},{"bike_id":"14195be5-1dd9-4cfc-b775-72f03b0bd8d6","system_id":"levelo_inurba_marseille","lat":43.289423,"lon":5.366325,"is_reserved":false,"is_disabled":false,"rental_uris":{"android":"levelo://app?vid=14195be5-1dd9-4cfc-b775-72f03b0bd8d6","ios":"levelo://app?vid=14195be5-1dd9-4cfc-b775-72f03b0bd8d6"},"vehicle_type_id":"4","last_reported":1712423225,"current_range_meters":0,"station_id":"ce4bhap2rcd13ifvqek0","pricing_plan_id":"cebpf4jnsgd1na2vs0mg"},{"bike_id":"e236908f-d568-467d-a179-2a1662e731bf","system_id":"levelo_inurba_marseille","lat":43.289184,"lon":5.366408,"is_reserved":false,"is_disabled":false,"rental_uris":{"android":"levelo://app?vid=e236908f-d568-467d-a179-2a1662e731bf","ios":"levelo://app?vid=e236908f-d568-467d-a179-2a1662e731bf"},"vehicle_type_id":"4","last_reported":1712423225,"current_range_meters":0,"station_id":"ce4bhap2rcd13ifvqek0","pricing_plan_id":"cebpf4jnsgd1na2vs0mg"},{"bike_id":"2ec807bf-8f1b-4ef9-870b-33b583fc3747","system_id":"levelo_inurba_marseille","lat":43.289341,"lon":5.366463,"is_reserved":false,"is_disabled":false,"rental_uris":{"android":"levelo://app?vid=2ec807bf-8f1b-4ef9-870b-33b583fc3747","ios":"levelo://app?vid=2ec807bf-8f1b-4ef9-870b-33b583fc3747"},"vehicle_type_id":"4","last_reported":1712423225,"current_range_meters":3600,"station_id":"ce4bgh92rcd13ifvqb40","pricing_plan_id":"cebpf4jnsgd1na2vs0mg"},{"bike_id":"aedd0aca-8153-46ef-8bb6-d0508990e96c","system_id":"levelo_inurba_marseille","lat":43.2927,"lon":5.38431,"is_reserved":false,"is_disabled":false,"rental_uris":{"android":"levelo://app?vid=aedd0aca-8153-46ef-8bb6-d0508990e96c","ios":"levelo://app?vid=aedd0aca-8153-46ef-8bb6-d0508990e96c"},"vehicle_type_id":"4","last_reported":1712423225,"current_range_meters":10000,"station_id":"ce4bh692rcd13ifvqea0","pricing_plan_id":"cebpf4jnsgd1na2vs0mg"},{"bike_id":"31743806-4b56-4367-a4b1-933cb991f3d9","system_id":"levelo_inurba_marseille","lat":43.292489,"lon":5.383878,"is_reserved":false,"is_disabled":false,"rental_uris":{"android":"levelo://app?vid=31743806-4b56-4367-a4b1-933cb991f3d9","ios":"levelo://app?vid=31743806-4b56-4367-a4b1-933cb991f3d9"},"vehicle_type_id":"4","last_reported":1712423225,"current_range_meters":16000,"station_id":"ce4bh692rcd13ifvqea0","pricing_plan_id":"cebpf4jnsgd1na2vs0mg"},{"bike_id":"bd10bbce-b42b-4472-a3ac-0c9e91264421","system_id":"levelo_inurba_marseille","lat":43.292642,"lon":5.384254,"is_reserved":false,"is_disabled":false,"rental_uris":{"android":"levelo://app?vid=bd10bbce-b42b-4472-a3ac-0c9e91264421","ios":"levelo://app?vid=bd10bbce-b42b-4472-a3ac-0c9e91264421"},"vehicle_type_id":"4","last_reported":1712423225,"current_range_meters":21600,"station_id":"ce4bh692rcd13ifvqea0","pricing_plan_id":"cebpf4jnsgd1na2vs0mg"},{"bike_id":"399eb158-aabd-4277-8501-f0edfae2013f","system_id":"levelo_inurba_marseille","lat":43.292642,"lon":5.384254,"is_reserved":false,"is_disabled":false,"rental_uris":{"android":"levelo://app?vid=399eb158-aabd-4277-8501-f0edfae2013f","ios":"levelo://app?vid=399eb158-aabd-4277-8501-f0edfae2013f"},"vehicle_type_id":"4","last_reported":1712423225,"current_range_meters":1200,"station_id":"ce4bh692rcd13ifvqea0","pricing_plan_id":"cebpf4jnsgd1na2vs0mg"},{"bike_id":"ac934a63-7f44-477c-9a64-34426e7c60ce","system_id":"levelo_inurba_marseille","lat":43.292642,"lon":5.384254,"is_reserved":false,"is_disabled":false,"rental_uris":{"android":"levelo://app?vid=ac934a63-7f44-477c-9a64-34426e7c60ce","ios":"levelo://app?vid=ac934a63-7f44-477c-9a64-34426e7c60ce"},"vehicle_type_id":"4","last_reported":1712423225,"current_range_meters":10800,"station_id":"ce4bh692rcd13ifvqea0","pricing_plan_id":"cebpf4jnsgd1na2vs0mg"},{"bike_id":"b7eaa0c6-fb91-4e2a-b382-c15f235211f8","system_id":"levelo_inurba_marseille","lat":43.292617,"lon":5.384347,"is_reserved":false,"is_disabled":false,"rental_uris":{"android":"levelo://app?vid=b7eaa0c6-fb91-4e2a-b382-c15f235211f8","ios":"levelo://app?vid=b7eaa0c6-fb91-4e2a-b382-c15f235211f8"},"vehicle_type_id":"4","last_reported":1712423225,"current_range_meters":7600,"station_id":"ce4bh692rcd13ifvqea0","pricing_plan_id":"cebpf4jnsgd1na2vs0mg"},{"bike_id":"c29a479a-dea5-44bf-bda4-7bb6f015e03a","system_id":"levelo_inurba_marseille","lat":43.292644,"lon":5.384257,"is_reserved":false,"is_disabled":false,"rental_uris":{"android":"levelo://app?vid=c29a479a-dea5-44bf-bda4-7bb6f015e03a","ios":"levelo://app?vid=c29a479a-dea5-44bf-bda4-7bb6f015e03a"},"vehicle_type_id":"4","last_reported":1712423225,"current_range_meters":6800,"station_id":"ce4bh692rcd13ifvqea0","pricing_plan_id":"cebpf4jnsgd1na2vs0mg"},{"bike_id":"715aafa1-e5a0-4057-bd84-b09fe4b9410b","system_id":"levelo_inurba_marseille","lat":43.29264,"lon":5.38447,"is_reserved":false,"is_disabled":false,"rental_uris":{"android":"levelo://app?vid=715aafa1-e5a0-4057-bd84-b09fe4b9410b","ios":"levelo://app?vid=715aafa1-e5a0-4057-bd84-b09fe4b9410b"},"vehicle_type_id":"4","last_reported":1712423225,"current_range_meters":0,"station_id":"ce4bh692rcd13ifvqea0","pricing_plan_id":"cebpf4jnsgd1na2vs0mg"},{"bike_id":"8a578344-c41b-4b1a-b6ed-86e0ad0fc1b9","system_id":"levelo_inurba_marseille","lat":43.29266,"lon":5.38453,"is_reserved":false,"is_disabled":false,"rental_uris":{"android":"levelo://app?vid=8a578344-c41b-4b1a-b6ed-86e0ad0fc1b9","ios":"levelo://app?vid=8a578344-c41b-4b1a-b6ed-86e0ad0fc1b9"},"vehicle_type_id":"4","last_reported":1712423225,"current_range_meters":15600,"station_id":"ce4bh692rcd13ifvqea0","pricing_plan_id":"cebpf4jnsgd1na2vs0mg"},{"bike_id":"43820f93-0db3-4dad-a2d8-7b6358bfa51a","system_id":"levelo_inurba_marseille","lat":43.292642,"lon":5.384254,"is_reserved":false,"is_disabled":false,"rental_uris":{"android":"levelo://app?vid=43820f93-0db3-4dad-a2d8-7b6358bfa51a","ios":"levelo://app?vid=43820f93-0db3-4dad-a2d8-7b6358bfa51a"},"vehicle_type_id":"4","last_reported":1712423225,"current_range_meters":0,"station_id":"ce4bh692rcd13ifvqea0","pricing_plan_id":"cebpf4jnsgd1na2vs0mg"},{"bike_id":"83977581-7044-4084-872c-59a53d00628f","system_id":"levelo_inurba_marseille","lat":43.292642,"lon":5.384254,"is_reserved":false,"is_disabled":false,"rental_uris":{"android":"levelo://app?vid=83977581-7044-4084-872c-59a53d00628f","ios":"levelo://app?vid=83977581-7044-4084-872c-59a53d00628f"},"vehicle_type_id":"4","last_reported":1712423225,"current_range_meters":2800,"station_id":"ce4bh692rcd13ifvqea0","pricing_plan_id":"cebpf4jnsgd1na2vs0mg"},{"bike_id":"82b54214-9a16-403a-94a4-9950a33e4e48","system_id":"levelo_inurba_marseille","lat":43.292642,"lon":5.384254,"is_reserved":false,"is_disabled":false,"rental_uris":{"android":"levelo://app?vid=82b54214-9a16-403a-94a4-9950a33e4e48","ios":"levelo://app?vid=82b54214-9a16-403a-94a4-9950a33e4e48"},"vehicle_type_id":"4","last_reported":1712423225,"current_range_meters":21200,"station_id":"ce4bh692rcd13ifvqea0","pricing_plan_id":"cebpf4jnsgd1na2vs0mg"},{"bike_id":"e253603d-1486-45dd-9db7-365be62d4e3c","system_id":"levelo_inurba_marseille","lat":43.313291,"lon":5.396838,"is_reserved":false,"is_disabled":false,"rental_uris":{"android":"levelo://app?vid=e253603d-1486-45dd-9db7-365be62d4e3c","ios":"levelo://app?vid=e253603d-1486-45dd-9db7-365be62d4e3c"},"vehicle_type_id":"4","last_reported":1712423225,"current_range_meters":0,"station_id":"ce4bgvp2rcd13ifvqcu0","pricing_plan_id":"cebpf4jnsgd1na2vs0mg"},{"bike_id":"9a6dda5f-aa16-4da3-b4db-1dd33d73f687","system_id":"levelo_inurba_marseille","lat":43.29256,"lon":5.384445,"is_reserved":false,"is_disabled":false,"rental_uris":{"android":"levelo://app?vid=9a6dda5f-aa16-4da3-b4db-1dd33d73f687","ios":"levelo://app?vid=9a6dda5f-aa16-4da3-b4db-1dd33d73f687"},"vehicle_type_id":"4","last_reported":1712423225,"current_range_meters":0,"station_id":"ce4bh692rcd13ifvqea0","pricing_plan_id":"cebpf4jnsgd1na2vs0mg"},{"bike_id":"50fcbce1-2f44-47fd-8780-45824b0e2232","system_id":"levelo_inurba_marseille","lat":43.290101,"lon":5.356224,"is_reserved":false,"is_disabled":false,"rental_uris":{"android":"levelo://app?vid=50fcbce1-2f44-47fd-8780-45824b0e2232","ios":"levelo://app?vid=50fcbce1-2f44-47fd-8780-45824b0e2232"},"vehicle_type_id":"4","last_reported":1712423225,"current_range_meters":0,"station_id":"ce4bhb92rcd13ifvqen0","pricing_plan_id":"cebpf4jnsgd1na2vs0mg"},{"bike_id":"257e769f-d4c0-4a9f-9971-c1a9f6853ca0","system_id":"levelo_inurba_marseille","lat":43.290103,"lon":5.356114,"is_reserved":false,"is_disabled":false,"rental_uris":{"android":"levelo://app?vid=257e769f-d4c0-4a9f-9971-c1a9f6853ca0","ios":"levelo://app?vid=257e769f-d4c0-4a9f-9971-c1a9f6853ca0"},"vehicle_type_id":"4","last_reported":1712423225,"current_range_meters":17200,"station_id":"ce4bhb92rcd13ifvqen0","pricing_plan_id":"cebpf4jnsgd1na2vs0mg"},{"bike_id":"5049ed79-f09f-456a-b418-7ae9725caa6c","system_id":"levelo_inurba_marseille","lat":43.290103,"lon":5.356114,"is_reserved":false,"is_disabled":false,"rental_uris":{"android":"levelo://app?vid=5049ed79-f09f-456a-b418-7ae9725caa6c","ios":"levelo://app?vid=5049ed79-f09f-456a-b418-7ae9725caa6c"},"vehicle_type_id":"4","last_reported":1712423225,"current_range_meters":0,"station_id":"ce4bhb92rcd13ifvqen0","pricing_plan_id":"cebpf4jnsgd1na2vs0mg"},{"bike_id":"db3e6989-2f89-470f-aba4-120c28bf30f6","system_id":"levelo_inurba_marseille","lat":43.290995,"lon":5.381361,"is_reserved":false,"is_disabled":false,"rental_uris":{"android":"levelo://app?vid=db3e6989-2f89-470f-aba4-120c28bf30f6","ios":"levelo://app?vid=db3e6989-2f89-470f-aba4-120c28bf30f6"},"vehicle_type_id":"4","last_reported":1712423225,"current_range_meters":17200,"station_id":"ce4bh512rcd13ifvqe2g","pricing_plan_id":"cebpf4jnsgd1na2vs0mg"},{"bike_id":"b70ae40f-4fe4-409f-b2a1-ac1f40e4ae93","system_id":"levelo_inurba_marseille","lat":43.290995,"lon":5.381361,"is_reserved":false,"is_disabled":false,"rental_uris":{"android":"levelo://app?vid=b70ae40f-4fe4-409f-b2a1-ac1f40e4ae93","ios":"levelo://app?vid=b70ae40f-4fe4-409f-b2a1-ac1f40e4ae93"},"vehicle_type_id":"4","last_reported":1712423225,"current_range_meters":1600,"station_id":"ce4bh512rcd13ifvqe2g","pricing_plan_id":"cebpf4jnsgd1na2vs0mg"},{"bike_id":"045c0181-7adc-45c8-9415-8c7dff2e0c36","system_id":"levelo_inurba_marseille","lat":43.290995,"lon":5.381361,"is_reserved":false,"is_disabled":false,"rental_uris":{"android":"levelo://app?vid=045c0181-7adc-45c8-9415-8c7dff2e0c36","ios":"levelo://app?vid=045c0181-7adc-45c8-9415-8c7dff2e0c36"},"vehicle_type_id":"4","last_reported":1712423225,"current_range_meters":5600,"station_id":"ce4bh512rcd13ifvqe2g","pricing_plan_id":"cebpf4jnsgd1na2vs0mg"},{"bike_id":"0996e638-4980-40fc-87ce-e6d23d48c84e","system_id":"levelo_inurba_marseille","lat":43.290995,"lon":5.381361,"is_reserved":false,"is_disabled":false,"rental_uris":{"android":"levelo://app?vid=0996e638-4980-40fc-87ce-e6d23d48c84e","ios":"levelo://app?vid=0996e638-4980-40fc-87ce-e6d23d48c84e"},"vehicle_type_id":"4","last_reported":1712423225,"current_range_meters":10000,"station_id":"ce4bh512rcd13ifvqe2g","pricing_plan_id":"cebpf4jnsgd1na2vs0mg"},{"bike_id":"fd401f5d-40da-4875-8e0a-e3d5e46baaec","system_id":"levelo_inurba_marseille","lat":43.29793,"lon":5.39355,"is_reserved":false,"is_disabled":false,"rental_uris":{"android":"levelo://app?vid=fd401f5d-40da-4875-8e0a-e3d5e46baaec","ios":"levelo://app?vid=fd401f5d-40da-4875-8e0a-e3d5e46baaec"},"vehicle_type_id":"4","last_reported":1712423225,"current_range_meters":16000,"station_id":"chh1huq6cuj3fo74tm60","pricing_plan_id":"cebpf4jnsgd1na2vs0mg"},{"bike_id":"6bb0424e-ccc2-4c7c-b0e5-e470219edb5f","system_id":"levelo_inurba_marseille","lat":43.330442,"lon":5.389148,"is_reserved":false,"is_disabled":false,"rental_uris":{"android":"levelo://app?vid=6bb0424e-ccc2-4c7c-b0e5-e470219edb5f","ios":"levelo://app?vid=6bb0424e-ccc2-4c7c-b0e5-e470219edb5f"},"vehicle_type_id":"4","last_reported":1712423225,"current_range_meters":400,"station_id":"ce4bhr92rcd13ifvqhrg","pricing_plan_id":"cebpf4jnsgd1na2vs0mg"},{"bike_id":"03420a97-229e-48e8-9a95-3ffc9a63ae9f","system_id":"levelo_inurba_marseille","lat":43.330442,"lon":5.389148,"is_reserved":false,"is_disabled":false,"rental_uris":{"android":"levelo://app?vid=03420a97-229e-48e8-9a95-3ffc9a63ae9f","ios":"levelo://app?vid=03420a97-229e-48e8-9a95-3ffc9a63ae9f"},"vehicle_type_id":"4","last_reported":1712423225,"current_range_meters":0,"station_id":"ce4bhr92rcd13ifvqhrg","pricing_plan_id":"cebpf4jnsgd1na2vs0mg"},{"bike_id":"f92a96fc-006b-4798-8265-4bc7b6405bcc","system_id":"levelo_inurba_marseille","lat":43.330442,"lon":5.389148,"is_reserved":false,"is_disabled":false,"rental_uris":{"android":"levelo://app?vid=f92a96fc-006b-4798-8265-4bc7b6405bcc","ios":"levelo://app?vid=f92a96fc-006b-4798-8265-4bc7b6405bcc"},"vehicle_type_id":"4","last_reported":1712423225,"current_range_meters":15200,"station_id":"ce4bhr92rcd13ifvqhrg","pricing_plan_id":"cebpf4jnsgd1na2vs0mg"},{"bike_id":"7fab4732-15f7-40b0-8d65-f6ee183c6fc2","system_id":"levelo_inurba_marseille","lat":43.330442,"lon":5.389148,"is_reserved":false,"is_disabled":false,"rental_uris":{"android":"levelo://app?vid=7fab4732-15f7-40b0-8d65-f6ee183c6fc2","ios":"levelo://app?vid=7fab4732-15f7-40b0-8d65-f6ee183c6fc2"},"vehicle_type_id":"4","last_reported":1712423225,"current_range_meters":3200,"station_id":"ce4bhr92rcd13ifvqhrg","pricing_plan_id":"cebpf4jnsgd1na2vs0mg"},{"bike_id":"3835d810-c731-4c9d-893f-b10350b4f622","system_id":"levelo_inurba_marseille","lat":43.330442,"lon":5.389148,"is_reserved":false,"is_disabled":false,"rental_uris":{"android":"levelo://app?vid=3835d810-c731-4c9d-893f-b10350b4f622","ios":"levelo://app?vid=3835d810-c731-4c9d-893f-b10350b4f622"},"vehicle_type_id":"4","last_reported":1712423225,"current_range_meters":19200,"station_id":"ce4bhr92rcd13ifvqhrg","pricing_plan_id":"cebpf4jnsgd1na2vs0mg"},{"bike_id":"06cf1197-6cc0-4637-bb8c-911f0a48f08a","system_id":"levelo_inurba_marseille","lat":43.29123,"lon":5.38298,"is_reserved":false,"is_disabled":false,"rental_uris":{"android":"levelo://app?vid=06cf1197-6cc0-4637-bb8c-911f0a48f08a","ios":"levelo://app?vid=06cf1197-6cc0-4637-bb8c-911f0a48f08a"},"vehicle_type_id":"4","last_reported":1712423225,"current_range_meters":0,"station_id":"","pricing_plan_id":"cebpf4jnsgd1na2vs0mg"},{"bike_id":"1dce9aa1-5232-4b74-8ce2-5f74a5bbde23","system_id":"levelo_inurba_marseille","lat":43.33113,"lon":5.38923,"is_reserved":false,"is_disabled":false,"rental_uris":{"android":"levelo://app?vid=1dce9aa1-5232-4b74-8ce2-5f74a5bbde23","ios":"levelo://app?vid=1dce9aa1-5232-4b74-8ce2-5f74a5bbde23"},"vehicle_type_id":"4","last_reported":1712423225,"current_range_meters":16400,"station_id":"","pricing_plan_id":"cebpf4jnsgd1na2vs0mg"},{"bike_id":"29a0d463-0b5a-4dee-856d-01c0581c56b4","system_id":"levelo_inurba_marseille","lat":43.33023,"lon":5.39056,"is_reserved":false,"is_disabled":false,"rental_uris":{"android":"levelo://app?vid=29a0d463-0b5a-4dee-856d-01c0581c56b4","ios":"levelo://app?vid=29a0d463-0b5a-4dee-856d-01c0581c56b4"},"vehicle_type_id":"4","last_reported":1712423225,"current_range_meters":2000,"station_id":"ce4bhr92rcd13ifvqhrg","pricing_plan_id":"cebpf4jnsgd1na2vs0mg"},{"bike_id":"0cc64b91-4a15-4b7e-b278-335f6dbc1766","system_id":"levelo_inurba_marseille","lat":43.2901,"lon":5.381269,"is_reserved":false,"is_disabled":false,"rental_uris":{"android":"levelo://app?vid=0cc64b91-4a15-4b7e-b278-335f6dbc1766","ios":"levelo://app?vid=0cc64b91-4a15-4b7e-b278-335f6dbc1766"},"vehicle_type_id":"4","last_reported":1712423225,"current_range_meters":1600,"station_id":"ce4bh4p2rcd13ifvqe1g","pricing_plan_id":"cebpf4jnsgd1na2vs0mg"},{"bike_id":"64c9dc88-88a8-4c11-9e23-3da0bc3fabe3","system_id":"levelo_inurba_marseille","lat":43.28856,"lon":5.358371,"is_reserved":false,"is_disabled":false,"rental_uris":{"android":"levelo://app?vid=64c9dc88-88a8-4c11-9e23-3da0bc3fabe3","ios":"levelo://app?vid=64c9dc88-88a8-4c11-9e23-3da0bc3fabe3"},"vehicle_type_id":"4","last_reported":1712423225,"current_range_meters":2000,"station_id":"ce4bhb12rcd13ifvqem0","pricing_plan_id":"cebpf4jnsgd1na2vs0mg"},{"bike_id":"d37dea2d-29db-4954-9bb7-c87cc4f2e4ee","system_id":"levelo_inurba_marseille","lat":43.284217,"lon":5.349697,"is_reserved":false,"is_disabled":false,"rental_uris":{"android":"levelo://app?vid=d37dea2d-29db-4954-9bb7-c87cc4f2e4ee","ios":"levelo://app?vid=d37dea2d-29db-4954-9bb7-c87cc4f2e4ee"},"vehicle_type_id":"4","last_reported":1712423225,"current_range_meters":0,"station_id":"ce4bhbh2rcd13ifvqepg","pricing_plan_id":"cebpf4jnsgd1na2vs0mg"},{"bike_id":"0047d519-2825-40e3-a779-9c5f6225b005","system_id":"levelo_inurba_marseille","lat":43.28856,"lon":5.358371,"is_reserved":false,"is_disabled":false,"rental_uris":{"android":"levelo://app?vid=0047d519-2825-40e3-a779-9c5f6225b005","ios":"levelo://app?vid=0047d519-2825-40e3-a779-9c5f6225b005"},"vehicle_type_id":"4","last_reported":1712423225,"current_range_meters":15200,"station_id":"ce4bhb12rcd13ifvqem0","pricing_plan_id":"cebpf4jnsgd1na2vs0mg"},{"bike_id":"b4f88db1-79bb-49a1-ba05-3dd0b113662b","system_id":"levelo_inurba_marseille","lat":43.312609,"lon":5.401662,"is_reserved":false,"is_disabled":false,"rental_uris":{"android":"levelo://app?vid=b4f88db1-79bb-49a1-ba05-3dd0b113662b","ios":"levelo://app?vid=b4f88db1-79bb-49a1-ba05-3dd0b113662b"},"vehicle_type_id":"4","last_reported":1712423225,"current_range_meters":8400,"station_id":"ce4bh092rcd13ifvqd30","pricing_plan_id":"cebpf4jnsgd1na2vs0mg"},{"bike_id":"66877725-1c1d-46fa-95f4-c96e28bf38a8","system_id":"levelo_inurba_marseille","lat":43.30932,"lon":5.40147,"is_reserved":false,"is_disabled":false,"rental_uris":{"android":"levelo://app?vid=66877725-1c1d-46fa-95f4-c96e28bf38a8","ios":"levelo://app?vid=66877725-1c1d-46fa-95f4-c96e28bf38a8"},"vehicle_type_id":"4","last_reported":1712423225,"current_range_meters":0,"station_id":"ce4bgvp2rcd13ifvqct0","pricing_plan_id":"cebpf4jnsgd1na2vs0mg"},{"bike_id":"979ae432-9ff5-4588-908b-a7c2ac444746","system_id":"levelo_inurba_marseille","lat":43.3375,"lon":5.37452,"is_reserved":false,"is_disabled":false,"rental_uris":{"android":"levelo://app?vid=979ae432-9ff5-4588-908b-a7c2ac444746","ios":"levelo://app?vid=979ae432-9ff5-4588-908b-a7c2ac444746"},"vehicle_type_id":"4","last_reported":1712423225,"current_range_meters":30400,"station_id":"","pricing_plan_id":"cebpf4jnsgd1na2vs0mg"},{"bike_id":"fbafd2c7-6402-4430-b402-d23299c09e35","system_id":"levelo_inurba_marseille","lat":43.30647,"lon":5.40091,"is_reserved":false,"is_disabled":false,"rental_uris":{"android":"levelo://app?vid=fbafd2c7-6402-4430-b402-d23299c09e35","ios":"levelo://app?vid=fbafd2c7-6402-4430-b402-d23299c09e35"},"vehicle_type_id":"4","last_reported":1712423225,"current_range_meters":2000,"station_id":"ce4bh112rcd13ifvqda0","pricing_plan_id":"cebpf4jnsgd1na2vs0mg"},{"bike_id":"abb53c0b-554a-4116-88fe-d7d4a9138411","system_id":"levelo_inurba_marseille","lat":43.306412,"lon":5.401035,"is_reserved":false,"is_disabled":false,"rental_uris":{"android":"levelo://app?vid=abb53c0b-554a-4116-88fe-d7d4a9138411","ios":"levelo://app?vid=abb53c0b-554a-4116-88fe-d7d4a9138411"},"vehicle_type_id":"4","last_reported":1712423225,"current_range_meters":800,"station_id":"ce4bh112rcd13ifvqda0","pricing_plan_id":"cebpf4jnsgd1na2vs0mg"},{"bike_id":"7e587849-3144-4b30-a719-27ad235cd136","system_id":"levelo_inurba_marseille","lat":43.294162,"lon":5.386292,"is_reserved":false,"is_disabled":false,"rental_uris":{"android":"levelo://app?vid=7e587849-3144-4b30-a719-27ad235cd136","ios":"levelo://app?vid=7e587849-3144-4b30-a719-27ad235cd136"},"vehicle_type_id":"4","last_reported":1712423225,"current_range_meters":10000,"station_id":"ce4bh2h2rcd13ifvqdh0","pricing_plan_id":"cebpf4jnsgd1na2vs0mg"},{"bike_id":"a4d6f316-437a-43af-87df-f64cd414bd64","system_id":"levelo_inurba_marseille","lat":43.30138,"lon":5.39849,"is_reserved":false,"is_disabled":false,"rental_uris":{"android":"levelo://app?vid=a4d6f316-437a-43af-87df-f64cd414bd64","ios":"levelo://app?vid=a4d6f316-437a-43af-87df-f64cd414bd64"},"vehicle_type_id":"4","last_reported":1712423225,"current_range_meters":6800,"station_id":"ce4bh0h2rcd13ifvqd40","pricing_plan_id":"cebpf4jnsgd1na2vs0mg"},{"bike_id":"896db571-8004-4b84-a2dd-d94188722b74","system_id":"levelo_inurba_marseille","lat":43.301117,"lon":5.398795,"is_reserved":false,"is_disabled":false,"rental_uris":{"android":"levelo://app?vid=896db571-8004-4b84-a2dd-d94188722b74","ios":"levelo://app?vid=896db571-8004-4b84-a2dd-d94188722b74"},"vehicle_type_id":"4","last_reported":1712423225,"current_range_meters":800,"station_id":"ce4bh0h2rcd13ifvqd40","pricing_plan_id":"cebpf4jnsgd1na2vs0mg"},{"bike_id":"4e4a2695-630c-46b8-80ed-d98dc467228b","system_id":"levelo_inurba_marseille","lat":43.302759,"lon":5.400793,"is_reserved":false,"is_disabled":false,"rental_uris":{"android":"levelo://app?vid=4e4a2695-630c-46b8-80ed-d98dc467228b","ios":"levelo://app?vid=4e4a2695-630c-46b8-80ed-d98dc467228b"},"vehicle_type_id":"4","last_reported":1712423225,"current_range_meters":0,"station_id":"ce4bgvh2rcd13ifvqcs0","pricing_plan_id":"cebpf4jnsgd1na2vs0mg"},{"bike_id":"6660d366-bb9b-41b2-84b6-ee4c480e2c87","system_id":"levelo_inurba_marseille","lat":43.30133,"lon":5.39854,"is_reserved":false,"is_disabled":false,"rental_uris":{"android":"levelo://app?vid=6660d366-bb9b-41b2-84b6-ee4c480e2c87","ios":"levelo://app?vid=6660d366-bb9b-41b2-84b6-ee4c480e2c87"},"vehicle_type_id":"4","last_reported":1712423225,"current_range_meters":3600,"station_id":"ce4bh0h2rcd13ifvqd40","pricing_plan_id":"cebpf4jnsgd1na2vs0mg"},{"bike_id":"824923e6-e381-462a-8ab3-2e6552686272","system_id":"levelo_inurba_marseille","lat":43.301117,"lon":5.398795,"is_reserved":false,"is_disabled":false,"rental_uris":{"android":"levelo://app?vid=824923e6-e381-462a-8ab3-2e6552686272","ios":"levelo://app?vid=824923e6-e381-462a-8ab3-2e6552686272"},"vehicle_type_id":"4","last_reported":1712423225,"current_range_meters":0,"station_id":"ce4bh0h2rcd13ifvqd40","pricing_plan_id":"cebpf4jnsgd1na2vs0mg"},{"bike_id":"12d3427d-8609-4011-be6d-478bad4167d6","system_id":"levelo_inurba_marseille","lat":43.301387,"lon":5.398727,"is_reserved":false,"is_disabled":false,"rental_uris":{"android":"levelo://app?vid=12d3427d-8609-4011-be6d-478bad4167d6","ios":"levelo://app?vid=12d3427d-8609-4011-be6d-478bad4167d6"},"vehicle_type_id":"4","last_reported":1712423225,"current_range_meters":0,"station_id":"ce4bh0h2rcd13ifvqd40","pricing_plan_id":"cebpf4jnsgd1na2vs0mg"},{"bike_id":"b189400e-1a56-4022-b7b3-ebc0c74d9d5e","system_id":"levelo_inurba_marseille","lat":43.28727,"lon":5.36078,"is_reserved":false,"is_disabled":false,"rental_uris":{"android":"levelo://app?vid=b189400e-1a56-4022-b7b3-ebc0c74d9d5e","ios":"levelo://app?vid=b189400e-1a56-4022-b7b3-ebc0c74d9d5e"},"vehicle_type_id":"4","last_reported":1712423225,"current_range_meters":1600,"station_id":"cki0cbj6b192h4jlfktg","pricing_plan_id":"cebpf4jnsgd1na2vs0mg"},{"bike_id":"0fd9c4a2-1144-4061-9430-a85f90e59f85","system_id":"levelo_inurba_marseille","lat":43.298681,"lon":5.397225,"is_reserved":false,"is_disabled":false,"rental_uris":{"android":"levelo://app?vid=0fd9c4a2-1144-4061-9430-a85f90e59f85","ios":"levelo://app?vid=0fd9c4a2-1144-4061-9430-a85f90e59f85"},"vehicle_type_id":"4","last_reported":1712423225,"current_range_meters":11600,"station_id":"ce4bh0h2rcd13ifvqd50","pricing_plan_id":"cebpf4jnsgd1na2vs0mg"},{"bike_id":"37510816-32ef-428f-80a7-4276b6a79da9","system_id":"levelo_inurba_marseille","lat":43.29889,"lon":5.39734,"is_reserved":false,"is_disabled":false,"rental_uris":{"android":"levelo://app?vid=37510816-32ef-428f-80a7-4276b6a79da9","ios":"levelo://app?vid=37510816-32ef-428f-80a7-4276b6a79da9"},"vehicle_type_id":"4","last_reported":1712423225,"current_range_meters":24800,"station_id":"ce4bh492rcd13ifvqdug","pricing_plan_id":"cebpf4jnsgd1na2vs0mg"},{"bike_id":"fcbb3897-aae9-4630-b2b1-6c96fd8228a7","system_id":"levelo_inurba_marseille","lat":43.295194,"lon":5.39397,"is_reserved":false,"is_disabled":false,"rental_uris":{"android":"levelo://app?vid=fcbb3897-aae9-4630-b2b1-6c96fd8228a7","ios":"levelo://app?vid=fcbb3897-aae9-4630-b2b1-6c96fd8228a7"},"vehicle_type_id":"4","last_reported":1712423225,"current_range_meters":3600,"station_id":"ce4bh292rcd13ifvqdf0","pricing_plan_id":"cebpf4jnsgd1na2vs0mg"},{"bike_id":"67eede38-b73a-494f-acbd-26a277003745","system_id":"levelo_inurba_marseille","lat":43.302759,"lon":5.400793,"is_reserved":false,"is_disabled":false,"rental_uris":{"android":"levelo://app?vid=67eede38-b73a-494f-acbd-26a277003745","ios":"levelo://app?vid=67eede38-b73a-494f-acbd-26a277003745"},"vehicle_type_id":"4","last_reported":1712423225,"current_range_meters":11600,"station_id":"ce4bgvh2rcd13ifvqcs0","pricing_plan_id":"cebpf4jnsgd1na2vs0mg"},{"bike_id":"a12dea97-aaff-4a0d-8e8e-670b717aa688","system_id":"levelo_inurba_marseille","lat":43.298681,"lon":5.397225,"is_reserved":false,"is_disabled":false,"rental_uris":{"android":"levelo://app?vid=a12dea97-aaff-4a0d-8e8e-670b717aa688","ios":"levelo://app?vid=a12dea97-aaff-4a0d-8e8e-670b717aa688"},"vehicle_type_id":"4","last_reported":1712423225,"current_range_meters":0,"station_id":"ce4bh0h2rcd13ifvqd50","pricing_plan_id":"cebpf4jnsgd1na2vs0mg"},{"bike_id":"3c96367c-8953-4dc0-b5b4-7cd10beea10a","system_id":"levelo_inurba_marseille","lat":43.286591,"lon":5.363346,"is_reserved":false,"is_disabled":false,"rental_uris":{"android":"levelo://app?vid=3c96367c-8953-4dc0-b5b4-7cd10beea10a","ios":"levelo://app?vid=3c96367c-8953-4dc0-b5b4-7cd10beea10a"},"vehicle_type_id":"4","last_reported":1712423225,"current_range_meters":6000,"station_id":"ce4bhah2rcd13ifvqej0","pricing_plan_id":"cebpf4jnsgd1na2vs0mg"},{"bike_id":"c75dfbf1-0bf3-4662-9dcd-4b31fc5a2f53","system_id":"levelo_inurba_marseille","lat":43.295194,"lon":5.39397,"is_reserved":false,"is_disabled":false,"rental_uris":{"android":"levelo://app?vid=c75dfbf1-0bf3-4662-9dcd-4b31fc5a2f53","ios":"levelo://app?vid=c75dfbf1-0bf3-4662-9dcd-4b31fc5a2f53"},"vehicle_type_id":"4","last_reported":1712423225,"current_range_meters":0,"station_id":"ce4bh292rcd13ifvqdf0","pricing_plan_id":"cebpf4jnsgd1na2vs0mg"},{"bike_id":"3ba25625-1994-418b-b479-18158532a1ef","system_id":"levelo_inurba_marseille","lat":43.286593,"lon":5.363346,"is_reserved":false,"is_disabled":false,"rental_uris":{"android":"levelo://app?vid=3ba25625-1994-418b-b479-18158532a1ef","ios":"levelo://app?vid=3ba25625-1994-418b-b479-18158532a1ef"},"vehicle_type_id":"4","last_reported":1712423225,"current_range_meters":5600,"station_id":"ce4bhah2rcd13ifvqej0","pricing_plan_id":"cebpf4jnsgd1na2vs0mg"},{"bike_id":"f4d76809-13c6-48a6-b217-7cdabd3698d1","system_id":"levelo_inurba_marseille","lat":43.295196,"lon":5.39397,"is_reserved":false,"is_disabled":false,"rental_uris":{"android":"levelo://app?vid=f4d76809-13c6-48a6-b217-7cdabd3698d1","ios":"levelo://app?vid=f4d76809-13c6-48a6-b217-7cdabd3698d1"},"vehicle_type_id":"4","last_reported":1712423225,"current_range_meters":0,"station_id":"ce4bh292rcd13ifvqdf0","pricing_plan_id":"cebpf4jnsgd1na2vs0mg"},{"bike_id":"c9105367-3165-4c2d-b1fe-009fe4269851","system_id":"levelo_inurba_marseille","lat":43.286961,"lon":5.373785,"is_reserved":false,"is_disabled":false,"rental_uris":{"android":"levelo://app?vid=c9105367-3165-4c2d-b1fe-009fe4269851","ios":"levelo://app?vid=c9105367-3165-4c2d-b1fe-009fe4269851"},"vehicle_type_id":"4","last_reported":1712423225,"current_range_meters":8000,"station_id":"ce4bh3p2rcd13ifvqdq0","pricing_plan_id":"cebpf4jnsgd1na2vs0mg"},{"bike_id":"afb53823-f8ef-4ba7-a642-4c1919a1ee14","system_id":"levelo_inurba_marseille","lat":43.29028,"lon":5.38638,"is_reserved":false,"is_disabled":false,"rental_uris":{"android":"levelo://app?vid=afb53823-f8ef-4ba7-a642-4c1919a1ee14","ios":"levelo://app?vid=afb53823-f8ef-4ba7-a642-4c1919a1ee14"},"vehicle_type_id":"4","last_reported":1712423225,"current_range_meters":400,"station_id":"ce4bh4p2rcd13ifvqe0g","pricing_plan_id":"cebpf4jnsgd1na2vs0mg"},