{"last_updated":1747107364,"ttl":60,"version":"2.2","data":{"bikes":[{"bike_id":"32f607e3-86f4-4b83-a00e-3860ca594338","system_id":"levelo_inurba_marseille","lat":43.3172,"lon":5.42394,"is_reserved":false,"is_disabled":false,"rental_uris":{"android":"levelo://app?vid=32f607e3-86f4-4b83-a00e-3860ca594338","ios":"levelo://app?vid=32f607e3-86f4-4b83-a00e-3860ca594338"},"vehicle_type_id":"4","last_reported":1747107364,"current_range_meters":2800,"station_id":"ce4bhp92rcd13ifvqhbg","pricing_plan_id":"cebpf4jnsgd1na2vs0mg"},{"bike_id":"2d789099-a508-4f13-9b86-cbba56b0c5b7","system_id":"levelo_inurba_marseille","lat":43.26558,"lon":5.390136,"is_reserved":false,"is_disabled":false,"rental_uris":{"android":"levelo://app?vid=2d789099-a508-4f13-9b86-cbba56b0c5b7","ios":"levelo://app?vid=2d789099-a508-4f13-9b86-cbba56b0c5b7"},"vehicle_type_id":"4","last_reported":1747107364,"current_range_meters":2800,"station_id":"ce4bhe12rcd13ifvqf30","pricing_plan_id":"cebpf4jnsgd1na2vs0mg"},{"bike_id":"fc2577e7-1497-425b-9d4f-ab8d7dc843c6","system_id":"levelo_inurba_marseille","lat":43.33771,"lon":5.37485,"is_reserved":false,"is_disabled":false,"rental_uris":{"android":"levelo://app?vid=fc2577e7-1497-425b-9d4f-ab8d7dc843c6","ios":"levelo://app?vid=fc2577e7-1497-425b-9d4f-ab8d7dc843c6"},"vehicle_type_id":"4","last_reported":1747107364,"current_range_meters":3200,"station_id":"","pricing_plan_id":"cebpf4jnsgd1na2vs0mg"},{"bike_id":"8d3f0072-11c5-4a63-8a10-ef44205facce","system_id":"levelo_inurba_marseille","lat":43.265612,"lon":5.389964,"is_reserved":false,"is_disabled":false,"rental_uris":{"android":"levelo://app?vid=8d3f0072-11c5-4a63-8a10-ef44205facce","ios":"levelo://app?vid=8d3f0072-11c5-4a63-8a10-ef44205facce"},"vehicle_type_id":"4","last_reported":1747107364,"current_range_meters":3200,"station_id":"ce4bhe12rcd13ifvqf30","pricing_plan_id":"cebpf4jnsgd1na2vs0mg"},{"bike_id":"3ae1cd74-71fb-47ba-ac9b-3b9bc8cd8449","system_id":"levelo_inurba_marseille","lat":43.217419,"lon":5.346065,"is_reserved":false,"is_disabled":false,"rental_uris":{"android":"levelo://app?vid=3ae1cd74-71fb-47ba-ac9b-3b9bc8cd8449","ios":"levelo://app?vid=3ae1cd74-71fb-47ba-ac9b-3b9bc8cd8449"},"vehicle_type_id":"4","last_reported":1747107364,"current_range_meters":3200,"station_id":"st_cvj6r9ubvosntc0bgbag","pricing_plan_id":"cebpf4jnsgd1na2vs0mg"},{"bike_id":"79f130ae-f4ea-447d-bb2a-06a48b48f8a1","system_id":"levelo_inurba_marseille","lat":43.24179,"lon":5.3973,"is_reserved":false,"is_disabled":false,"rental_uris":{"android":"levelo://app?vid=79f130ae-f4ea-447d-bb2a-06a48b48f8a1","ios":"levelo://app?vid=79f130ae-f4ea-447d-bb2a-06a48b48f8a1"},"vehicle_type_id":"4","last_reported":1747107364,"current_range_meters":3200,"station_id":"ce4bhn12rcd13ifvqgpg","pricing_plan_id":"cebpf4jnsgd1na2vs0mg"},{"bike_id":"b1b8c807-8597-4a9c-bbcd-a2746fd63865","system_id":"levelo_inurba_marseille","lat":43.25277,"lon":5.39935,"is_reserved":false,"is_disabled":false,"rental_uris":{"android":"levelo://app?vid=b1b8c807-8597-4a9c-bbcd-a2746fd63865","ios":"levelo://app?vid=b1b8c807-8597-4a9c-bbcd-a2746fd63865"},"vehicle_type_id":"4","last_reported":1747107364,"current_range_meters":3200,"station_id":"","pricing_plan_id":"cebpf4jnsgd1na2vs0mg"},{"bike_id":"0fedde00-40eb-40d2-8fc2-e61ecce46b7b","system_id":"levelo_inurba_marseille","lat":43.2831,"lon":5.43217,"is_reserved":false,"is_disabled":false,"rental_uris":{"android":"levelo://app?vid=0fedde00-40eb-40d2-8fc2-e61ecce46b7b","ios":"levelo://app?vid=0fedde00-40eb-40d2-8fc2-e61ecce46b7b"},"vehicle_type_id":"4","last_reported":1747107364,"current_range_meters":3200,"station_id":"","pricing_plan_id":"cebpf4jnsgd1na2vs0mg"},{"bike_id":"129c03ab-3dcf-46d9-96ab-a3c8ac304f4a","system_id":"levelo_inurba_marseille","lat":43.265549,"lon":5.390204,"is_reserved":false,"is_disabled":true,"rental_uris":{"android":"levelo://app?vid=129c03ab-3dcf-46d9-96ab-a3c8ac304f4a","ios":"levelo://app?vid=129c03ab-3dcf-46d9-96ab-a3c8ac304f4a"},"vehicle_type_id":"4","last_reported":1747107364,"current_range_meters":3200,"station_id":"ce4bhe12rcd13ifvqf30","pricing_plan_id":"cebpf4jnsgd1na2vs0mg"},{"bike_id":"aba16c61-ea08-4da4-9b4a-99504f3e1a5f","system_id":"levelo_inurba_marseille","lat":43.24576,"lon":5.38258,"is_reserved":false,"is_disabled":false,"rental_uris":{"android":"levelo://app?vid=aba16c61-ea08-4da4-9b4a-99504f3e1a5f","ios":"levelo://app?vid=aba16c61-ea08-4da4-9b4a-99504f3e1a5f"},"vehicle_type_id":"4","last_reported":1747107364,"current_range_meters":3600,"station_id":"ce4bhih2rcd13ifvqfr0","pricing_plan_id":"cebpf4jnsgd1na2vs0mg"},{"bike_id":"c7551d8c-8c75-47d4-9f17-6b1a17125acb","system_id":"levelo_inurba_marseille","lat":43.265622,"lon":5.390067,"is_reserved":false,"is_disabled":false,"rental_uris":{"android":"levelo://app?vid=c7551d8c-8c75-47d4-9f17-6b1a17125acb","ios":"levelo://app?vid=c7551d8c-8c75-47d4-9f17-6b1a17125acb"},"vehicle_type_id":"4","last_reported":1747107364,"current_range_meters":3600,"station_id":"ce4bhe12rcd13ifvqf30","pricing_plan_id":"cebpf4jnsgd1na2vs0mg"},{"bike_id":"1838afde-afc3-4eda-8678-62b4dcd0e305","system_id":"levelo_inurba_marseille","lat":43.24066,"lon":5.377605,"is_reserved":false,"is_disabled":false,"rental_uris":{"android":"levelo://app?vid=1838afde-afc3-4eda-8678-62b4dcd0e305","ios":"levelo://app?vid=1838afde-afc3-4eda-8678-62b4dcd0e305"},"vehicle_type_id":"4","last_reported":1747107364,"current_range_meters":3600,"station_id":"ce4bhnp2rcd13ifvqgvg","pricing_plan_id":"cebpf4jnsgd1na2vs0mg"},{"bike_id":"83a81ffb-3d1c-4122-a406-60b114a380fc","system_id":"levelo_inurba_marseille","lat":43.211969,"lon":5.35075,"is_reserved":false,"is_disabled":false,"rental_uris":{"android":"levelo://app?vid=83a81ffb-3d1c-4122-a406-60b114a380fc","ios":"levelo://app?vid=83a81ffb-3d1c-4122-a406-60b114a380fc"},"vehicle_type_id":"4","last_reported":1747107364,"current_range_meters":3600,"station_id":"st_cvj6sg6p6f1abm77japg","pricing_plan_id":"cebpf4jnsgd1na2vs0mg"},{"bike_id":"26b881ef-12d8-47af-ac43-de776a100663","system_id":"levelo_inurba_marseille","lat":43.30779,"lon":5.37661,"is_reserved":false,"is_disabled":false,"rental_uris":{"android":"levelo://app?vid=26b881ef-12d8-47af-ac43-de776a100663","ios":"levelo://app?vid=26b881ef-12d8-47af-ac43-de776a100663"},"vehicle_type_id":"4","last_reported":1747107364,"current_range_meters":4000,"station_id":"ce4bgv92rcd13ifvqcq0","pricing_plan_id":"cebpf4jnsgd1na2vs0mg"},{"bike_id":"842512c1-c47a-4299-8023-743fe242896b","system_id":"levelo_inurba_marseille","lat":43.24641,"lon":5.38909,"is_reserved":false,"is_disabled":false,"rental_uris":{"android":"levelo://app?vid=842512c1-c47a-4299-8023-743fe242896b","ios":"levelo://app?vid=842512c1-c47a-4299-8023-743fe242896b"},"vehicle_type_id":"4","last_reported":1747107364,"current_range_meters":4400,"station_id":"ce4bhg12rcd13ifvqf60","pricing_plan_id":"cebpf4jnsgd1na2vs0mg"},{"bike_id":"37de1aed-1149-4673-8960-0c1e46b86a56","system_id":"levelo_inurba_marseille","lat":43.31996,"lon":5.3815,"is_reserved":false,"is_disabled":false,"rental_uris":{"android":"levelo://app?vid=37de1aed-1149-4673-8960-0c1e46b86a56","ios":"levelo://app?vid=37de1aed-1149-4673-8960-0c1e46b86a56"},"vehicle_type_id":"4","last_reported":1747107364,"current_range_meters":4800,"station_id":"ce4bhr12rcd13ifvqhpg","pricing_plan_id":"cebpf4jnsgd1na2vs0mg"},{"bike_id":"5f9b62df-1db7-4452-8caf-5538e3287ca8","system_id":"levelo_inurba_marseille","lat":43.29366,"lon":5.4282,"is_reserved":false,"is_disabled":false,"rental_uris":{"android":"levelo://app?vid=5f9b62df-1db7-4452-8caf-5538e3287ca8","ios":"levelo://app?vid=5f9b62df-1db7-4452-8caf-5538e3287ca8"},"vehicle_type_id":"4","last_reported":1747107364,"current_range_meters":4800,"station_id":"","pricing_plan_id":"cebpf4jnsgd1na2vs0mg"},{"bike_id":"b4227e99-ced2-43eb-bed2-644b65614810","system_id":"levelo_inurba_marseille","lat":43.30896,"lon":5.39635,"is_reserved":false,"is_disabled":false,"rental_uris":{"android":"levelo://app?vid=b4227e99-ced2-43eb-bed2-644b65614810","ios":"levelo://app?vid=b4227e99-ced2-43eb-bed2-644b65614810"},"vehicle_type_id":"4","last_reported":1747107364,"current_range_meters":5600,"station_id":"ce4bh012rcd13ifvqcv0","pricing_plan_id":"cebpf4jnsgd1na2vs0mg"},{"bike_id":"79f767b1-523b-4188-996e-cfe61a261e86","system_id":"levelo_inurba_marseille","lat":43.241816,"lon":5.397291,"is_reserved":false,"is_disabled":false,"rental_uris":{"android":"levelo://app?vid=79f767b1-523b-4188-996e-cfe61a261e86","ios":"levelo://app?vid=79f767b1-523b-4188-996e-cfe61a261e86"},"vehicle_type_id":"4","last_reported":1747107364,"current_range_meters":5600,"station_id":"ce4bhn12rcd13ifvqgpg","pricing_plan_id":"cebpf4jnsgd1na2vs0mg"},{"bike_id":"2deb1013-2a4e-4281-83f4-5de1b133ca70","system_id":"levelo_inurba_marseille","lat":43.298951,"lon":5.436583,"is_reserved":false,"is_disabled":false,"rental_uris":{"android":"levelo://app?vid=2deb1013-2a4e-4281-83f4-5de1b133ca70","ios":"levelo://app?vid=2deb1013-2a4e-4281-83f4-5de1b133ca70"},"vehicle_type_id":"4","last_reported":1747107364,"current_range_meters":5600,"station_id":"ce4bhpp2rcd13ifvqhfg","pricing_plan_id":"cebpf4jnsgd1na2vs0mg"},{"bike_id":"39df0212-4968-49dd-84c6-727f1f96b5e0","system_id":"levelo_inurba_marseille","lat":43.26492,"lon":5.3954,"is_reserved":false,"is_disabled":false,"rental_uris":{"android":"levelo://app?vid=39df0212-4968-49dd-84c6-727f1f96b5e0","ios":"levelo://app?vid=39df0212-4968-49dd-84c6-727f1f96b5e0"},"vehicle_type_id":"4","last_reported":1747107364,"current_range_meters":5600,"station_id":"ce4bhi12rcd13ifvqfq0","pricing_plan_id":"cebpf4jnsgd1na2vs0mg"},{"bike_id":"c166edd6-904a-4bc0-bde0-4462b8738864","system_id":"levelo_inurba_marseille","lat":43.2416,"lon":5.36399,"is_reserved":false,"is_disabled":false,"rental_uris":{"android":"levelo://app?vid=c166edd6-904a-4bc0-bde0-4462b8738864","ios":"levelo://app?vid=c166edd6-904a-4bc0-bde0-4462b8738864"},"vehicle_type_id":"4","last_reported":1747107364,"current_range_meters":6000,"station_id":"cpo36qri1sfpv3e86is0","pricing_plan_id":"cebpf4jnsgd1na2vs0mg"},{"bike_id":"864ce70f-1098-4973-90a9-d5c9b927170c","system_id":"levelo_inurba_marseille","lat":43.30407,"lon":5.42488,"is_reserved":false,"is_disabled":false,"rental_uris":{"android":"levelo://app?vid=864ce70f-1098-4973-90a9-d5c9b927170c","ios":"levelo://app?vid=864ce70f-1098-4973-90a9-d5c9b927170c"},"vehicle_type_id":"4","last_reported":1747107364,"current_range_meters":6400,"station_id":"ce4bghh2rcd13ifvqb60","pricing_plan_id":"cebpf4jnsgd1na2vs0mg"},{"bike_id":"daf4e063-31f2-4b88-aa14-a8b6f4bed22c","system_id":"levelo_inurba_marseille","lat":43.304181,"lon":5.397519,"is_reserved":false,"is_disabled":true,"rental_uris":{"android":"levelo://app?vid=daf4e063-31f2-4b88-aa14-a8b6f4bed22c","ios":"levelo://app?vid=daf4e063-31f2-4b88-aa14-a8b6f4bed22c"},"vehicle_type_id":"4","last_reported":1747107364,"current_range_meters":6400,"station_id":"ce4bh092rcd13ifvqd20","pricing_plan_id":"cebpf4jnsgd1na2vs0mg"},{"bike_id":"1efd5ed7-ddfe-407c-bfe9-7df51383e995","system_id":"levelo_inurba_marseille","lat":43.284119,"lon":5.34987,"is_reserved":false,"is_disabled":false,"rental_uris":{"android":"levelo://app?vid=1efd5ed7-ddfe-407c-bfe9-7df51383e995","ios":"levelo://app?vid=1efd5ed7-ddfe-407c-bfe9-7df51383e995"},"vehicle_type_id":"4","last_reported":1747107364,"current_range_meters":6400,"station_id":"ce4bhbh2rcd13ifvqepg","pricing_plan_id":"cebpf4jnsgd1na2vs0mg"},{"bike_id":"6e5c91eb-f4c3-4748-8248-e56e7fa8d9e4","system_id":"levelo_inurba_marseille","lat":43.3235,"lon":5.38892,"is_reserved":false,"is_disabled":false,"rental_uris":{"android":"levelo://app?vid=6e5c91eb-f4c3-4748-8248-e56e7fa8d9e4","ios":"levelo://app?vid=6e5c91eb-f4c3-4748-8248-e56e7fa8d9e4"},"vehicle_type_id":"4","last_reported":1747107364,"current_range_meters":6400,"station_id":"ce4bhqp2rcd13ifvqhog","pricing_plan_id":"cebpf4jnsgd1na2vs0mg"},{"bike_id":"63e9444f-c14c-435d-9c33-22d8afa9b431","system_id":"levelo_inurba_marseille","lat":43.28556,"lon":5.39492,"is_reserved":false,"is_disabled":true,"rental_uris":{"android":"levelo://app?vid=63e9444f-c14c-435d-9c33-22d8afa9b431","ios":"levelo://app?vid=63e9444f-c14c-435d-9c33-22d8afa9b431"},"vehicle_type_id":"4","last_reported":1747107364,"current_range_meters":6400,"station_id":"ce4bh292rcd13ifvqdg0","pricing_plan_id":"cebpf4jnsgd1na2vs0mg"},{"bike_id":"389142b5-a1fc-4e34-a8d1-acc1232abe75","system_id":"levelo_inurba_marseille","lat":43.29566,"lon":5.37523,"is_reserved":false,"is_disabled":false,"rental_uris":{"android":"levelo://app?vid=389142b5-a1fc-4e34-a8d1-acc1232abe75","ios":"levelo://app?vid=389142b5-a1fc-4e34-a8d1-acc1232abe75"},"vehicle_type_id":"4","last_reported":1747107364,"current_range_meters":6400,"station_id":"ce4bgh92rcd13ifvqb50","pricing_plan_id":"cebpf4jnsgd1na2vs0mg"},{"bike_id":"f39bbe5a-4dad-40ae-9813-fc9649277bd5","system_id":"levelo_inurba_marseille","lat":43.231925,"lon":5.355487,"is_reserved":false,"is_disabled":false,"rental_uris":{"android":"levelo://app?vid=f39bbe5a-4dad-40ae-9813-fc9649277bd5","ios":"levelo://app?vid=f39bbe5a-4dad-40ae-9813-fc9649277bd5"},"vehicle_type_id":"4","last_reported":1747107364,"current_range_meters":6800,"station_id":"ce4bhu92rcd13ifvqi70","pricing_plan_id":"cebpf4jnsgd1na2vs0mg"},{"bike_id":"b0ac8040-90e0-41ee-a2e3-e5462910fefc","system_id":"levelo_inurba_marseille","lat":43.275414,"lon":5.412855,"is_reserved":false,"is_disabled":false,"rental_uris":{"android":"levelo://app?vid=b0ac8040-90e0-41ee-a2e3-e5462910fefc","ios":"levelo://app?vid=b0ac8040-90e0-41ee-a2e3-e5462910fefc"},"vehicle_type_id":"4","last_reported":1747107364,"current_range_meters":6800,"station_id":"","pricing_plan_id":"cebpf4jnsgd1na2vs0mg"},{"bike_id":"c47d6331-3490-479f-8407-edd7635a0103","system_id":"levelo_inurba_marseille","lat":43.281525,"lon":5.426408,"is_reserved":false,"is_disabled":false,"rental_uris":{"android":"levelo://app?vid=c47d6331-3490-479f-8407-edd7635a0103","ios":"levelo://app?vid=c47d6331-3490-479f-8407-edd7635a0103"},"vehicle_type_id":"4","last_reported":1747107364,"current_range_meters":6800,"station_id":"ce4bhnh2rcd13ifvqgug","pricing_plan_id":"cebpf4jnsgd1na2vs0mg"},{"bike_id":"8cad80b9-40f1-4238-b3c2-e7e97d51aeba","system_id":"levelo_inurba_marseille","lat":43.323629,"lon":5.38887,"is_reserved":false,"is_disabled":false,"rental_uris":{"android":"levelo://app?vid=8cad80b9-40f1-4238-b3c2-e7e97d51aeba","ios":"levelo://app?vid=8cad80b9-40f1-4238-b3c2-e7e97d51aeba"},"vehicle_type_id":"4","last_reported":1747107364,"current_range_meters":6800,"station_id":"ce4bhqp2rcd13ifvqhog","pricing_plan_id":"cebpf4jnsgd1na2vs0mg"},{"bike_id":"599c1595-85dd-4171-a26a-bd61368993a5","system_id":"levelo_inurba_marseille","lat":43.28455,"lon":5.35887,"is_reserved":false,"is_disabled":false,"rental_uris":{"android":"levelo://app?vid=599c1595-85dd-4171-a26a-bd61368993a5","ios":"levelo://app?vid=599c1595-85dd-4171-a26a-bd61368993a5"},"vehicle_type_id":"4","last_reported":1747107364,"current_range_meters":7200,"station_id":"ce4bhah2rcd13ifvqei0","pricing_plan_id":"cebpf4jnsgd1na2vs0mg"},{"bike_id":"671f1f53-8d82-4ed4-ade1-f1720e0973b5","system_id":"levelo_inurba_marseille","lat":43.28153,"lon":5.42636,"is_reserved":false,"is_disabled":false,"rental_uris":{"android":"levelo://app?vid=671f1f53-8d82-4ed4-ade1-f1720e0973b5","ios":"levelo://app?vid=671f1f53-8d82-4ed4-ade1-f1720e0973b5"},"vehicle_type_id":"4","last_reported":1747107364,"current_range_meters":7200,"station_id":"ce4bhnh2rcd13ifvqgug","pricing_plan_id":"cebpf4jnsgd1na2vs0mg"},{"bike_id":"b2e8f874-de9c-484f-9976-af989bbdd976","system_id":"levelo_inurba_marseille","lat":43.306379,"lon":5.40073,"is_reserved":false,"is_disabled":false,"rental_uris":{"android":"levelo://app?vid=b2e8f874-de9c-484f-9976-af989bbdd976","ios":"levelo://app?vid=b2e8f874-de9c-484f-9976-af989bbdd976"},"vehicle_type_id":"4","last_reported":1747107364,"current_range_meters":7200,"station_id":"ce4bh112rcd13ifvqda0","pricing_plan_id":"cebpf4jnsgd1na2vs0mg"},{"bike_id":"0a7e584e-880e-41a6-aef5-ff83f35e27d8","system_id":"levelo_inurba_marseille","lat":43.30603,"lon":5.40463,"is_reserved":false,"is_disabled":false,"rental_uris":{"android":"levelo://app?vid=0a7e584e-880e-41a6-aef5-ff83f35e27d8","ios":"levelo://app?vid=0a7e584e-880e-41a6-aef5-ff83f35e27d8"},"vehicle_type_id":"4","last_reported":1747107364,"current_range_meters":7200,"station_id":"","pricing_plan_id":"cebpf4jnsgd1na2vs0mg"},{"bike_id":"220b77d1-efd2-4d3e-9ffa-e663e1f17d00","system_id":"levelo_inurba_marseille","lat":43.31342,"lon":5.39685,"is_reserved":false,"is_disabled":false,"rental_uris":{"android":"levelo://app?vid=220b77d1-efd2-4d3e-9ffa-e663e1f17d00","ios":"levelo://app?vid=220b77d1-efd2-4d3e-9ffa-e663e1f17d00"},"vehicle_type_id":"4","last_reported":1747107364,"current_range_meters":7200,"station_id":"ce4bgvp2rcd13ifvqcu0","pricing_plan_id":"cebpf4jnsgd1na2vs0mg"},{"bike_id":"ea43783d-8b54-48fc-b7dc-9031385273ca","system_id":"levelo_inurba_marseille","lat":43.260695,"lon":5.393933,"is_reserved":false,"is_disabled":true,"rental_uris":{"android":"levelo://app?vid=ea43783d-8b54-48fc-b7dc-9031385273ca","ios":"levelo://app?vid=ea43783d-8b54-48fc-b7dc-9031385273ca"},"vehicle_type_id":"4","last_reported":1747107364,"current_range_meters":7200,"station_id":"ce4bhh92rcd13ifvqfj0","pricing_plan_id":"cebpf4jnsgd1na2vs0mg"},{"bike_id":"de4a530f-3b17-41b9-bd98-d22e64d46bdc","system_id":"levelo_inurba_marseille","lat":43.32086,"lon":5.36775,"is_reserved":false,"is_disabled":false,"rental_uris":{"android":"levelo://app?vid=de4a530f-3b17-41b9-bd98-d22e64d46bdc","ios":"levelo://app?vid=de4a530f-3b17-41b9-bd98-d22e64d46bdc"},"vehicle_type_id":"4","last_reported":1747107364,"current_range_meters":7200,"station_id":"ce4bhrh2rcd13ifvqhug","pricing_plan_id":"cebpf4jnsgd1na2vs0mg"},{"bike_id":"d47be2cb-5174-453e-8394-152709458289","system_id":"levelo_inurba_marseille","lat":43.29279,"lon":5.37611,"is_reserved":false,"is_disabled":false,"rental_uris":{"android":"levelo://app?vid=d47be2cb-5174-453e-8394-152709458289","ios":"levelo://app?vid=d47be2cb-5174-453e-8394-152709458289"},"vehicle_type_id":"4","last_reported":1747107364,"current_range_meters":8000,"station_id":"ce4bgi12rcd13ifvqb80","pricing_plan_id":"cebpf4jnsgd1na2vs0mg"},{"bike_id":"8713ea68-2d18-4f02-b58b-17c62786319e","system_id":"levelo_inurba_marseille","lat":43.32352,"lon":5.40622,"is_reserved":false,"is_disabled":false,"rental_uris":{"android":"levelo://app?vid=8713ea68-2d18-4f02-b58b-17c62786319e","ios":"levelo://app?vid=8713ea68-2d18-4f02-b58b-17c62786319e"},"vehicle_type_id":"4","last_reported":1747107364,"current_range_meters":8000,"station_id":"ce4bhq92rcd13ifvqhjg","pricing_plan_id":"cebpf4jnsgd1na2vs0mg"},{"bike_id":"c5eb53b8-783c-4568-bc58-af7e2dd00aa0","system_id":"levelo_inurba_marseille","lat":43.32306,"lon":5.36648,"is_reserved":false,"is_disabled":false,"rental_uris":{"android":"levelo://app?vid=c5eb53b8-783c-4568-bc58-af7e2dd00aa0","ios":"levelo://app?vid=c5eb53b8-783c-4568-bc58-af7e2dd00aa0"},"vehicle_type_id":"4","last_reported":1747107364,"current_range_meters":8000,"station_id":"ce4bhsh2rcd13ifvqi2g","pricing_plan_id":"cebpf4jnsgd1na2vs0mg"},{"bike_id":"d6defe93-e44a-481d-a104-e0a4d7584d2f","system_id":"levelo_inurba_marseille","lat":43.313196,"lon":5.397329,"is_reserved":false,"is_disabled":false,"rental_uris":{"android":"levelo://app?vid=d6defe93-e44a-481d-a104-e0a4d7584d2f","ios":"levelo://app?vid=d6defe93-e44a-481d-a104-e0a4d7584d2f"},"vehicle_type_id":"4","last_reported":1747107364,"current_range_meters":8000,"station_id":"ce4bgvp2rcd13ifvqcu0","pricing_plan_id":"cebpf4jnsgd1na2vs0mg"},{"bike_id":"817ae355-323f-4b59-ad3f-7cabef227558","system_id":"levelo_inurba_marseille","lat":43.314833,"lon":5.373074,"is_reserved":false,"is_disabled":false,"rental_uris":{"android":"levelo://app?vid=817ae355-323f-4b59-ad3f-7cabef227558","ios":"levelo://app?vid=817ae355-323f-4b59-ad3f-7cabef227558"},"vehicle_type_id":"4","last_reported":1747107364,"current_range_meters":8000,"station_id":"ce4bgt12rcd13ifvqcd0","pricing_plan_id":"cebpf4jnsgd1na2vs0mg"},{"bike_id":"a6f76d4d-3bf3-4601-9711-d2be4511763e","system_id":"levelo_inurba_marseille","lat":43.30649,"lon":5.40083,"is_reserved":false,"is_disabled":false,"rental_uris":{"android":"levelo://app?vid=a6f76d4d-3bf3-4601-9711-d2be4511763e","ios":"levelo://app?vid=a6f76d4d-3bf3-4601-9711-d2be4511763e"},"vehicle_type_id":"4","last_reported":1747107364,"current_range_meters":8000,"station_id":"ce4bh112rcd13ifvqda0","pricing_plan_id":"cebpf4jnsgd1na2vs0mg"},{"bike_id":"8b3eac21-bb1f-4170-9c40-95292bcf13c4","system_id":"levelo_inurba_marseille","lat":43.316962,"lon":5.404496,"is_reserved":false,"is_disabled":false,"rental_uris":{"android":"levelo://app?vid=8b3eac21-bb1f-4170-9c40-95292bcf13c4","ios":"levelo://app?vid=8b3eac21-bb1f-4170-9c40-95292bcf13c4"},"vehicle_type_id":"4","last_reported":1747107364,"current_range_meters":8000,"station_id":"ce4bh012rcd13ifvqd00","pricing_plan_id":"cebpf4jnsgd1na2vs0mg"},{"bike_id":"810f35a6-3e2a-45d4-885d-7ce79d7dde52","system_id":"levelo_inurba_marseille","lat":43.29033,"lon":5.39959,"is_reserved":false,"is_disabled":false,"rental_uris":{"android":"levelo://app?vid=810f35a6-3e2a-45d4-885d-7ce79d7dde52","ios":"levelo://app?vid=810f35a6-3e2a-45d4-885d-7ce79d7dde52"},"vehicle_type_id":"4","last_reported":1747107364,"current_range_meters":8000,"station_id":"ce4bh392rcd13ifvqdm0","pricing_plan_id":"cebpf4jnsgd1na2vs0mg"},{"bike_id":"7b0310c2-4dd8-4d0d-9eaf-d38f3b6639d2","system_id":"levelo_inurba_marseille","lat":43.27309,"lon":5.39094,"is_reserved":false,"is_disabled":true,"rental_uris":{"android":"levelo://app?vid=7b0310c2-4dd8-4d0d-9eaf-d38f3b6639d2","ios":"levelo://app?vid=7b0310c2-4dd8-4d0d-9eaf-d38f3b6639d2"},"vehicle_type_id":"4","last_reported":1747107364,"current_range_meters":8400,"station_id":"ce4bhgp2rcd13ifvqfe0","pricing_plan_id":"cebpf4jnsgd1na2vs0mg"},{"bike_id":"decd7b5f-cddf-4dc2-a45b-9dd01f4b7747","system_id":"levelo_inurba_marseille","lat":43.2419,"lon":5.39718,"is_reserved":false,"is_disabled":false,"rental_uris":{"android":"levelo://app?vid=decd7b5f-cddf-4dc2-a45b-9dd01f4b7747","ios":"levelo://app?vid=decd7b5f-cddf-4dc2-a45b-9dd01f4b7747"},"vehicle_type_id":"4","last_reported":1747107364,"current_range_meters":8400,"station_id":"ce4bhn12rcd13ifvqgpg","pricing_plan_id":"cebpf4jnsgd1na2vs0mg"},{"bike_id":"96e57902-a51d-4ff0-abf7-329ea18a5e12","system_id":"levelo_inurba_marseille","lat":43.280304,"lon":5.36942,"is_reserved":false,"is_disabled":false,"rental_uris":{"android":"levelo://app?vid=96e57902-a51d-4ff0-abf7-329ea18a5e12","ios":"levelo://app?vid=96e57902-a51d-4ff0-abf7-329ea18a5e12"},"vehicle_type_id":"4","last_reported":1747107364,"current_range_meters":8400,"station_id":"ce4bha12rcd13ifvqef0","pricing_plan_id":"cebpf4jnsgd1na2vs0mg"},{"bike_id":"b3d7a4d3-78a5-43a0-9843-e302414df266","system_id":"levelo_inurba_marseille","lat":43.27919,"lon":5.39557,"is_reserved":false,"is_disabled":false,"rental_uris":{"android":"levelo://app?vid=b3d7a4d3-78a5-43a0-9843-e302414df266","ios":"levelo://app?vid=b3d7a4d3-78a5-43a0-9843-e302414df266"},"vehicle_type_id":"4","last_reported":1747107364,"current_range_meters":8400,"station_id":"ce4bhf92rcd13ifvqf40","pricing_plan_id":"cebpf4jnsgd1na2vs0mg"},{"bike_id":"cf119389-8c06-4449-a205-2b18fbb577ee","system_id":"levelo_inurba_marseille","lat":43.316996,"lon":5.404569,"is_reserved":false,"is_disabled":false,"rental_uris":{"android":"levelo://app?vid=cf119389-8c06-4449-a205-2b18fbb577ee","ios":"levelo://app?vid=cf119389-8c06-4449-a205-2b18fbb577ee"},"vehicle_type_id":"4","last_reported":1747107364,"current_range_meters":8400,"station_id":"ce4bh012rcd13ifvqd00","pricing_plan_id":"cebpf4jnsgd1na2vs0mg"},{"bike_id":"e0b16578-b75c-49a0-be9b-59a4685629b7","system_id":"levelo_inurba_marseille","lat":43.28172,"lon":5.4264,"is_reserved":false,"is_disabled":false,"rental_uris":{"android":"levelo://app?vid=e0b16578-b75c-49a0-be9b-59a4685629b7","ios":"levelo://app?vid=e0b16578-b75c-49a0-be9b-59a4685629b7"},"vehicle_type_id":"4","last_reported":1747107364,"current_range_meters":8400,"station_id":"ce4bhnh2rcd13ifvqgug","pricing_plan_id":"cebpf4jnsgd1na2vs0mg"},{"bike_id":"3c281eff-7dc7-407f-8e9d-0238a4fa94bd","system_id":"levelo_inurba_marseille","lat":43.31329,"lon":5.39697,"is_reserved":false,"is_disabled":false,"rental_uris":{"android":"levelo://app?vid=3c281eff-7dc7-407f-8e9d-0238a4fa94bd","ios":"levelo://app?vid=3c281eff-7dc7-407f-8e9d-0238a4fa94bd"},"vehicle_type_id":"4","last_reported":1747107364,"current_range_meters":8800,"station_id":"ce4bgvp2rcd13ifvqcu0","pricing_plan_id":"cebpf4jnsgd1na2vs0mg"},{"bike_id":"b72a4969-059b-4185-8447-533da62c3c19","system_id":"levelo_inurba_marseille","lat":43.24687,"lon":5.3812,"is_reserved":false,"is_disabled":false,"rental_uris":{"android":"levelo://app?vid=b72a4969-059b-4185-8447-533da62c3c19","ios":"levelo://app?vid=b72a4969-059b-4185-8447-533da62c3c19"},"vehicle_type_id":"4","last_reported":1747107364,"current_range_meters":8800,"station_id":"ce4bhih2rcd13ifvqfr0","pricing_plan_id":"cebpf4jnsgd1na2vs0mg"},{"bike_id":"0a8bb0eb-e18a-4601-8b9c-10cedd4593aa","system_id":"levelo_inurba_marseille","lat":43.25114,"lon":5.40322,"is_reserved":false,"is_disabled":false,"rental_uris":{"android":"levelo://app?vid=0a8bb0eb-e18a-4601-8b9c-10cedd4593aa","ios":"levelo://app?vid=0a8bb0eb-e18a-4601-8b9c-10cedd4593aa"},"vehicle_type_id":"4","last_reported":1747107364,"current_range_meters":8800,"station_id":"ce4bhlh2rcd13ifvqgig","pricing_plan_id":"cebpf4jnsgd1na2vs0mg"},{"bike_id":"2ee4d910-0ee1-4bc5-86c8-c77afad12b4f","system_id":"levelo_inurba_marseille","lat":43.32123,"lon":5.36767,"is_reserved":false,"is_disabled":false,"rental_uris":{"android":"levelo://app?vid=2ee4d910-0ee1-4bc5-86c8-c77afad12b4f","ios":"levelo://app?vid=2ee4d910-0ee1-4bc5-86c8-c77afad12b4f"},"vehicle_type_id":"4","last_reported":1747107364,"current_range_meters":8800,"station_id":"ce4bhrh2rcd13ifvqhug","pricing_plan_id":"cebpf4jnsgd1na2vs0mg"},{"bike_id":"acca8498-5f9b-48da-a0fd-34e73dfe9abc","system_id":"levelo_inurba_marseille","lat":43.284161,"lon":5.375187,"is_reserved":false,"is_disabled":false,"rental_uris":{"android":"levelo://app?vid=acca8498-5f9b-48da-a0fd-34e73dfe9abc","ios":"levelo://app?vid=acca8498-5f9b-48da-a0fd-34e73dfe9abc"},"vehicle_type_id":"4","last_reported":1747107364,"current_range_meters":9200,"station_id":"ce4bh412rcd13ifvqds0","pricing_plan_id":"cebpf4jnsgd1na2vs0mg"},{"bike_id":"716e0f00-1566-4a7e-a8b9-e05eb17ac39c","system_id":"levelo_inurba_marseille","lat":43.31173,"lon":5.38715,"is_reserved":false,"is_disabled":false,"rental_uris":{"android":"levelo://app?vid=716e0f00-1566-4a7e-a8b9-e05eb17ac39c","ios":"levelo://app?vid=716e0f00-1566-4a7e-a8b9-e05eb17ac39c"},"vehicle_type_id":"4","last_reported":1747107364,"current_range_meters":9200,"station_id":"ce4bgv12rcd13ifvqcp0","pricing_plan_id":"cebpf4jnsgd1na2vs0mg"},{"bike_id":"cbc7eed1-f7c6-43f2-b64f-3b59b18e7401","system_id":"levelo_inurba_marseille","lat":43.22489,"lon":5.34774,"is_reserved":false,"is_disabled":true,"rental_uris":{"android":"levelo://app?vid=cbc7eed1-f7c6-43f2-b64f-3b59b18e7401","ios":"levelo://app?vid=cbc7eed1-f7c6-43f2-b64f-3b59b18e7401"},"vehicle_type_id":"4","last_reported":1747107364,"current_range_meters":9200,"station_id":"st_cvj5dfep6f1abm77gieg","pricing_plan_id":"cebpf4jnsgd1na2vs0mg"},{"bike_id":"b49c1e48-4bbf-4fd1-bf90-fe88ef997d43","system_id":"levelo_inurba_marseille","lat":43.30942,"lon":5.40127,"is_reserved":false,"is_disabled":false,"rental_uris":{"android":"levelo://app?vid=b49c1e48-4bbf-4fd1-bf90-fe88ef997d43","ios":"levelo://app?vid=b49c1e48-4bbf-4fd1-bf90-fe88ef997d43"},"vehicle_type_id":"4","last_reported":1747107364,"current_range_meters":9600,"station_id":"ce4bgvp2rcd13ifvqct0","pricing_plan_id":"cebpf4jnsgd1na2vs0mg"},{"bike_id":"7263ec53-2f0d-4a95-a3f3-91e07271074c","system_id":"levelo_inurba_marseille","lat":43.28485,"lon":5.38422,"is_reserved":false,"is_disabled":false,"rental_uris":{"android":"levelo://app?vid=7263ec53-2f0d-4a95-a3f3-91e07271074c","ios":"levelo://app?vid=7263ec53-2f0d-4a95-a3f3-91e07271074c"},"vehicle_type_id":"4","last_reported":1747107364,"current_range_meters":9600,"station_id":"ce4bh512rcd13ifvqe3g","pricing_plan_id":"cebpf4jnsgd1na2vs0mg"},{"bike_id":"8f22a717-4ce8-42f7-9922-ecd69d0f4e5e","system_id":"levelo_inurba_marseille","lat":43.292502,"lon":5.409181,"is_reserved":false,"is_disabled":false,"rental_uris":{"android":"levelo://app?vid=8f22a717-4ce8-42f7-9922-ecd69d0f4e5e","ios":"levelo://app?vid=8f22a717-4ce8-42f7-9922-ecd69d0f4e5e"},"vehicle_type_id":"4","last_reported":1747107364,"current_range_meters":9600,"station_id":"ce4bh192rcd13ifvqdc0","pricing_plan_id":"cebpf4jnsgd1na2vs0mg"},{"bike_id":"baeef835-4e47-4672-b203-2698dc634c6b","system_id":"levelo_inurba_marseille","lat":43.30173,"lon":5.3662,"is_reserved":false,"is_disabled":false,"rental_uris":{"android":"levelo://app?vid=baeef835-4e47-4672-b203-2698dc634c6b","ios":"levelo://app?vid=baeef835-4e47-4672-b203-2698dc634c6b"},"vehicle_type_id":"4","last_reported":1747107364,"current_range_meters":9600,"station_id":"ce4bgrh2rcd13ifvqc8g","pricing_plan_id":"cebpf4jnsgd1na2vs0mg"},{"bike_id":"09667552-604c-472f-b05c-2be0e1fd2bf4","system_id":"levelo_inurba_marseille","lat":43.280306,"lon":5.369348,"is_reserved":false,"is_disabled":false,"rental_uris":{"android":"levelo://app?vid=09667552-604c-472f-b05c-2be0e1fd2bf4","ios":"levelo://app?vid=09667552-604c-472f-b05c-2be0e1fd2bf4"},"vehicle_type_id":"4","last_reported":1747107364,"current_range_meters":9600,"station_id":"ce4bha12rcd13ifvqef0","pricing_plan_id":"cebpf4jnsgd1na2vs0mg"},{"bike_id":"84daf3e2-01ed-48ee-8b76-11525731e098","system_id":"levelo_inurba_marseille","lat":43.31321,"lon":5.39708,"is_reserved":false,"is_disabled":false,"rental_uris":{"android":"levelo://app?vid=84daf3e2-01ed-48ee-8b76-11525731e098","ios":"levelo://app?vid=84daf3e2-01ed-48ee-8b76-11525731e098"},"vehicle_type_id":"4","last_reported":1747107364,"current_range_meters":10000,"station_id":"ce4bgvp2rcd13ifvqcu0","pricing_plan_id":"cebpf4jnsgd1na2vs0mg"},{"bike_id":"05617d14-03fb-41f1-810f-0dc29b93dde8","system_id":"levelo_inurba_marseille","lat":43.279478,"lon":5.386949,"is_reserved":false,"is_disabled":false,"rental_uris":{"android":"levelo://app?vid=05617d14-03fb-41f1-810f-0dc29b93dde8","ios":"levelo://app?vid=05617d14-03fb-41f1-810f-0dc29b93dde8"},"vehicle_type_id":"4","last_reported":1747107364,"current_range_meters":10000,"station_id":"ce4bhg12rcd13ifvqf80","pricing_plan_id":"cebpf4jnsgd1na2vs0mg"},{"bike_id":"f93d7148-cc3e-4f2f-a6f4-5ba6d803042d","system_id":"levelo_inurba_marseille","lat":43.279506,"lon":5.387353,"is_reserved":false,"is_disabled":false,"rental_uris":{"android":"levelo://app?vid=f93d7148-cc3e-4f2f-a6f4-5ba6d803042d","ios":"levelo://app?vid=f93d7148-cc3e-4f2f-a6f4-5ba6d803042d"},"vehicle_type_id":"4","last_reported":1747107364,"current_range_meters":10000,"station_id":"ce4bhg12rcd13ifvqf80","pricing_plan_id":"cebpf4jnsgd1na2vs0mg"},{"bike_id":"1c6eb6d7-18a7-475f-bf1d-bf448cfe2c5d","system_id":"levelo_inurba_marseille","lat":43.279166,"lon":5.395806,"is_reserved":false,"is_disabled":false,"rental_uris":{"android":"levelo://app?vid=1c6eb6d7-18a7-475f-bf1d-bf448cfe2c5d","ios":"levelo://app?vid=1c6eb6d7-18a7-475f-bf1d-bf448cfe2c5d"},"vehicle_type_id":"4","last_reported":1747107364,"current_range_meters":10000,"station_id":"ce4bhf92rcd13ifvqf40","pricing_plan_id":"cebpf4jnsgd1na2vs0mg"},{"bike_id":"480977bd-d894-40ad-9026-4ea290dc9528","system_id":"levelo_inurba_marseille","lat":43.241738,"lon":5.363996,"is_reserved":false,"is_disabled":false,"rental_uris":{"android":"levelo://app?vid=480977bd-d894-40ad-9026-4ea290dc9528","ios":"levelo://app?vid=480977bd-d894-40ad-9026-4ea290dc9528"},"vehicle_type_id":"4","last_reported":1747107364,"current_range_meters":10800,"station_id":"cpo36qri1sfpv3e86is0","pricing_plan_id":"cebpf4jnsgd1na2vs0mg"},{"bike_id":"c87ad494-e1b6-4f9f-b251-de412ee48149","system_id":"levelo_inurba_marseille","lat":43.28156,"lon":5.426426,"is_reserved":false,"is_disabled":false,"rental_uris":{"android":"levelo://app?vid=c87ad494-e1b6-4f9f-b251-de412ee48149","ios":"levelo://app?vid=c87ad494-e1b6-4f9f-b251-de412ee48149"},"vehicle_type_id":"4","last_reported":1747107364,"current_range_meters":10800,"station_id":"ce4bhnh2rcd13ifvqgug","pricing_plan_id":"cebpf4jnsgd1na2vs0mg"},{"bike_id":"3d8eff64-3568-4b32-b8e0-e6710e6b904b","system_id":"levelo_inurba_marseille","lat":43.330744,"lon":5.40824,"is_reserved":false,"is_disabled":false,"rental_uris":{"android":"levelo://app?vid=3d8eff64-3568-4b32-b8e0-e6710e6b904b","ios":"levelo://app?vid=3d8eff64-3568-4b32-b8e0-e6710e6b904b"},"vehicle_type_id":"4","last_reported":1747107364,"current_range_meters":10800,"station_id":"","pricing_plan_id":"cebpf4jnsgd1na2vs0mg"},{"bike_id":"65842b62-6dfe-4b9d-b0b7-9c58aa824100","system_id":"levelo_inurba_marseille","lat":43.275615,"lon":5.384235,"is_reserved":false,"is_disabled":false,"rental_uris":{"android":"levelo://app?vid=65842b62-6dfe-4b9d-b0b7-9c58aa824100","ios":"levelo://app?vid=65842b62-6dfe-4b9d-b0b7-9c58aa824100"},"vehicle_type_id":"4","last_reported":1747107364,"current_range_meters":10800,"station_id":"ce4bhh92rcd13ifvqfi0","pricing_plan_id":"cebpf4jnsgd1na2vs0mg"},{"bike_id":"37947ea2-4144-498b-9773-6d6e7497365c","system_id":"levelo_inurba_marseille","lat":43.31521,"lon":5.37313,"is_reserved":false,"is_disabled":false,"rental_uris":{"android":"levelo://app?vid=37947ea2-4144-498b-9773-6d6e7497365c","ios":"levelo://app?vid=37947ea2-4144-498b-9773-6d6e7497365c"},"vehicle_type_id":"4","last_reported":1747107364,"current_range_meters":10800,"station_id":"ce4bgt12rcd13ifvqcd0","pricing_plan_id":"cebpf4jnsgd1na2vs0mg"},{"bike_id":"514b5930-0fdf-4acd-bbcd-af58d719758f","system_id":"levelo_inurba_marseille","lat":43.34144,"lon":5.40929,"is_reserved":false,"is_disabled":true,"rental_uris":{"android":"levelo://app?vid=514b5930-0fdf-4acd-bbcd-af58d719758f","ios":"levelo://app?vid=514b5930-0fdf-4acd-bbcd-af58d719758f"},"vehicle_type_id":"4","last_reported":1747107364,"current_range_meters":10800,"station_id":"ce4bhqh2rcd13ifvqhlg","pricing_plan_id":"cebpf4jnsgd1na2vs0mg"},{"bike_id":"de2e4e22-ea1a-40b8-addf-31f6ff1ae52a","system_id":"levelo_inurba_marseille","lat":43.316929,"lon":5.404719,"is_reserved":false,"is_disabled":false,"rental_uris":{"android":"levelo://app?vid=de2e4e22-ea1a-40b8-addf-31f6ff1ae52a","ios":"levelo://app?vid=de2e4e22-ea1a-40b8-addf-31f6ff1ae52a"},"vehicle_type_id":"4","last_reported":1747107364,"current_range_meters":10800,"station_id":"ce4bh012rcd13ifvqd00","pricing_plan_id":"cebpf4jnsgd1na2vs0mg"},{"bike_id":"e1c208dc-7760-4d8d-9fd5-b750855aff8a","system_id":"levelo_inurba_marseille","lat":43.309143,"lon":5.401809,"is_reserved":false,"is_disabled":false,"rental_uris":{"android":"levelo://app?vid=e1c208dc-7760-4d8d-9fd5-b750855aff8a","ios":"levelo://app?vid=e1c208dc-7760-4d8d-9fd5-b750855aff8a"},"vehicle_type_id":"4","last_reported":1747107364,"current_range_meters":10800,"station_id":"ce4bgvp2rcd13ifvqct0","pricing_plan_id":"cebpf4jnsgd1na2vs0mg"},{"bike_id":"779f5c3b-06ef-48f1-897e-15c00ef24199","system_id":"levelo_inurba_marseille","lat":43.280768,"lon":5.396465,"is_reserved":false,"is_disabled":false,"rental_uris":{"android":"levelo://app?vid=779f5c3b-06ef-48f1-897e-15c00ef24199","ios":"levelo://app?vid=779f5c3b-06ef-48f1-897e-15c00ef24199"},"vehicle_type_id":"4","last_reported":1747107364,"current_range_meters":10800,"station_id":"ce4bho12rcd13ifvqh2g","pricing_plan_id":"cebpf4jnsgd1na2vs0mg"},{"bike_id":"fc999ab0-b49c-4d10-b437-1459349ff8c0","system_id":"levelo_inurba_marseille","lat":43.28501,"lon":5.38549,"is_reserved":false,"is_disabled":false,"rental_uris":{"android":"levelo://app?vid=fc999ab0-b49c-4d10-b437-1459349ff8c0","ios":"levelo://app?vid=fc999ab0-b49c-4d10-b437-1459349ff8c0"},"vehicle_type_id":"4","last_reported":1747107364,"current_range_meters":10800,"station_id":"ce4bh8p2rcd13ifvqeb0","pricing_plan_id":"cebpf4jnsgd1na2vs0mg"},{"bike_id":"855e05e9-a0e5-426c-b2ce-3b3fc636f06b","system_id":"levelo_inurba_marseille","lat":43.25145,"lon":5.40285,"is_reserved":false,"is_disabled":false,"rental_uris":{"android":"levelo://app?vid=855e05e9-a0e5-426c-b2ce-3b3fc636f06b","ios":"levelo://app?vid=855e05e9-a0e5-426c-b2ce-3b3fc636f06b"},"vehicle_type_id":"4","last_reported":1747107364,"current_range_meters":11200,"station_id":"ce4bhlh2rcd13ifvqgig","pricing_plan_id":"cebpf4jnsgd1na2vs0mg"},{"bike_id":"0e89a721-196d-4572-b905-e39e1dafff7a","system_id":"levelo_inurba_marseille","lat":43.32136,"lon":5.36805,"is_reserved":false,"is_disabled":false,"rental_uris":{"android":"levelo://app?vid=0e89a721-196d-4572-b905-e39e1dafff7a","ios":"levelo://app?vid=0e89a721-196d-4572-b905-e39e1dafff7a"},"vehicle_type_id":"4","last_reported":1747107364,"current_range_meters":11200,"station_id":"ce4bhrh2rcd13ifvqhug","pricing_plan_id":"cebpf4jnsgd1na2vs0mg"},{"bike_id":"c45660a4-2a75-4fe5-babc-ce5f32b31b47","system_id":"levelo_inurba_marseille","lat":43.30951,"lon":5.40142,"is_reserved":false,"is_disabled":false,"rental_uris":{"android":"levelo://app?vid=c45660a4-2a75-4fe5-babc-ce5f32b31b47","ios":"levelo://app?vid=c45660a4-2a75-4fe5-babc-ce5f32b31b47"},"vehicle_type_id":"4","last_reported":1747107364,"current_range_meters":11200,"station_id":"ce4bgvp2rcd13ifvqct0","pricing_plan_id":"cebpf4jnsgd1na2vs0mg"},{"bike_id":"5de1e8df-cec1-47cf-b554-41f6e726d337","system_id":"levelo_inurba_marseille","lat":43.274143,"lon":5.406099,"is_reserved":false,"is_disabled":false,"rental_uris":{"android":"levelo://app?vid=5de1e8df-cec1-47cf-b554-41f6e726d337","ios":"levelo://app?vid=5de1e8df-cec1-47cf-b554-41f6e726d337"},"vehicle_type_id":"4","last_reported":1747107364,"current_range_meters":11200,"station_id":"","pricing_plan_id":"cebpf4jnsgd1na2vs0mg"},{"bike_id":"b95a3da1-d84f-4349-bc15-21030c7174b6","system_id":"levelo_inurba_marseille","lat":43.292749,"lon":5.401294,"is_reserved":false,"is_disabled":false,"rental_uris":{"android":"levelo://app?vid=b95a3da1-d84f-4349-bc15-21030c7174b6","ios":"levelo://app?vid=b95a3da1-d84f-4349-bc15-21030c7174b6"},"vehicle_type_id":"4","last_reported":1747107364,"current_range_meters":11600,"station_id":"ce4bh312rcd13ifvqdk0","pricing_plan_id":"cebpf4jnsgd1na2vs0mg"},{"bike_id":"ac3030fa-1740-4828-ad83-daded8929ecc","system_id":"levelo_inurba_marseille","lat":43.25534,"lon":5.401,"is_reserved":false,"is_disabled":false,"rental_uris":{"android":"levelo://app?vid=ac3030fa-1740-4828-ad83-daded8929ecc","ios":"levelo://app?vid=ac3030fa-1740-4828-ad83-daded8929ecc"},"vehicle_type_id":"4","last_reported":1747107364,"current_range_meters":11600,"station_id":"","pricing_plan_id":"cebpf4jnsgd1na2vs0mg"},{"bike_id":"9b58c434-4f3b-4687-a714-9c8986208408","system_id":"levelo_inurba_marseille","lat":43.27895,"lon":5.3961,"is_reserved":false,"is_disabled":false,"rental_uris":{"android":"levelo://app?vid=9b58c434-4f3b-4687-a714-9c8986208408","ios":"levelo://app?vid=9b58c434-4f3b-4687-a714-9c8986208408"},"vehicle_type_id":"4","last_reported":1747107364,"current_range_meters":11600,"station_id":"ce4bhf92rcd13ifvqf40","pricing_plan_id":"cebpf4jnsgd1na2vs0mg"},{"bike_id":"315c9aa5-cd9f-4a60-8ba2-a8f8830c3824","system_id":"levelo_inurba_marseille","lat":43.32335,"lon":5.40616,"is_reserved":false,"is_disabled":false,"rental_uris":{"android":"levelo://app?vid=315c9aa5-cd9f-4a60-8ba2-a8f8830c3824","ios":"levelo://app?vid=315c9aa5-cd9f-4a60-8ba2-a8f8830c3824"},"vehicle_type_id":"4","last_reported":1747107364,"current_range_meters":11600,"station_id":"ce4bhq92rcd13ifvqhjg","pricing_plan_id":"cebpf4jnsgd1na2vs0mg"},{"bike_id":"4acebf5d-90de-4f34-bd54-e2958ed913ff","system_id":"levelo_inurba_marseille","lat":43.292822,"lon":5.401289,"is_reserved":false,"is_disabled":false,"rental_uris":{"android":"levelo://app?vid=4acebf5d-90de-4f34-bd54-e2958ed913ff","ios":"levelo://app?vid=4acebf5d-90de-4f34-bd54-e2958ed913ff"},"vehicle_type_id":"4","last_reported":1747107364,"current_range_meters":11600,"station_id":"ce4bh312rcd13ifvqdk0","pricing_plan_id":"cebpf4jnsgd1na2vs0mg"},{"bike_id":"38736e28-58a3-4539-8235-c6c4c8d72acb","system_id":"levelo_inurba_marseille","lat":43.27211,"lon":5.39184,"is_reserved":false,"is_disabled":false,"rental_uris":{"android":"levelo://app?vid=38736e28-58a3-4539-8235-c6c4c8d72acb","ios":"levelo://app?vid=38736e28-58a3-4539-8235-c6c4c8d72acb"},"vehicle_type_id":"4","last_reported":1747107364,"current_range_meters":11600,"station_id":"ce4bhhp2rcd13ifvqfm0","pricing_plan_id":"cebpf4jnsgd1na2vs0mg"},{"bike_id":"a07af238-1d5a-492e-88df-35771675e17b","system_id":"levelo_inurba_marseille","lat":43.28694,"lon":5.37388,"is_reserved":false,"is_disabled":false,"rental_uris":{"android":"levelo://app?vid=a07af238-1d5a-492e-88df-35771675e17b","ios":"levelo://app?vid=a07af238-1d5a-492e-88df-35771675e17b"},"vehicle_type_id":"4","last_reported":1747107364,"current_range_meters":12000,"station_id":"ce4bh3p2rcd13ifvqdq0","pricing_plan_id":"cebpf4jnsgd1na2vs0mg"},{"bike_id":"41da10f9-c4df-4a4d-81d7-007f46c00b73","system_id":"levelo_inurba_marseille","lat":43.231861,"lon":5.399823,"is_reserved":false,"is_disabled":false,"rental_uris":{"android":"levelo://app?vid=41da10f9-c4df-4a4d-81d7-007f46c00b73","ios":"levelo://app?vid=41da10f9-c4df-4a4d-81d7-007f46c00b73"},"vehicle_type_id":"4","last_reported":1747107364,"current_range_meters":12000,"station_id":"ce4bhn12rcd13ifvqgqg","pricing_plan_id":"cebpf4jnsgd1na2vs0mg"},{"bike_id":"198d6fcd-54b0-4522-a846-5bc9669dd62a","system_id":"levelo_inurba_marseille","lat":43.31343,"lon":5.385,"is_reserved":false,"is_disabled":false,"rental_uris":{"android":"levelo://app?vid=198d6fcd-54b0-4522-a846-5bc9669dd62a","ios":"levelo://app?vid=198d6fcd-54b0-4522-a846-5bc9669dd62a"},"vehicle_type_id":"4","last_reported":1747107364,"current_range_meters":12400,"station_id":"ce4bgt92rcd13ifvqcf0","pricing_plan_id":"cebpf4jnsgd1na2vs0mg"},{"bike_id":"4d55bf7d-239f-41dc-917f-ddce35592326","system_id":"levelo_inurba_marseille","lat":43.30581,"lon":5.393576,"is_reserved":false,"is_disabled":false,"rental_uris":{"android":"levelo://app?vid=4d55bf7d-239f-41dc-917f-ddce35592326","ios":"levelo://app?vid=4d55bf7d-239f-41dc-917f-ddce35592326"},"vehicle_type_id":"4","last_reported":1747107364,"current_range_meters":12400,"station_id":"","pricing_plan_id":"cebpf4jnsgd1na2vs0mg"},{"bike_id":"bb092f13-3c25-4c75-9364-d848fa2cf322","system_id":"levelo_inurba_marseille","lat":43.310708,"lon":5.383504,"is_reserved":false,"is_disabled":false,"rental_uris":{"android":"levelo://app?vid=bb092f13-3c25-4c75-9364-d848fa2cf322","ios":"levelo://app?vid=bb092f13-3c25-4c75-9364-d848fa2cf322"},"vehicle_type_id":"4","last_reported":1747107364,"current_range_meters":12400,"station_id":"ce4bgv92rcd13ifvqcr0","pricing_plan_id":"cebpf4jnsgd1na2vs0mg"},{"bike_id":"354f0639-e2ee-49bc-b649-f0d89cf9efb0","system_id":"levelo_inurba_marseille","lat":43.32448,"lon":5.3661,"is_reserved":false,"is_disabled":true,"rental_uris":{"android":"levelo://app?vid=354f0639-e2ee-49bc-b649-f0d89cf9efb0","ios":"levelo://app?vid=354f0639-e2ee-49bc-b649-f0d89cf9efb0"},"vehicle_type_id":"4","last_reported":1747107364,"current_range_meters":12400,"station_id":"ce4bhs12rcd13ifvqhvg","pricing_plan_id":"cebpf4jnsgd1na2vs0mg"},{"bike_id":"c860cf20-2d6d-4124-bd93-cf59a1e3f8b8","system_id":"levelo_inurba_marseille","lat":43.26557,"lon":5.37375,"is_reserved":false,"is_disabled":false,"rental_uris":{"android":"levelo://app?vid=c860cf20-2d6d-4124-bd93-cf59a1e3f8b8","ios":"levelo://app?vid=c860cf20-2d6d-4124-bd93-cf59a1e3f8b8"},"vehicle_type_id":"4","last_reported":1747107364,"current_range_meters":12800,"station_id":"ce4bhg12rcd13ifvqf70","pricing_plan_id":"cebpf4jnsgd1na2vs0mg"},{"bike_id":"32972ee3-c0c1-46d9-be86-9fe1b5e515c9","system_id":"levelo_inurba_marseille","lat":43.27908,"lon":5.37997,"is_reserved":false,"is_disabled":false,"rental_uris":{"android":"levelo://app?vid=32972ee3-c0c1-46d9-be86-9fe1b5e515c9","ios":"levelo://app?vid=32972ee3-c0c1-46d9-be86-9fe1b5e515c9"},"vehicle_type_id":"4","last_reported":1747107364,"current_range_meters":13600,"station_id":"ce4bhf92rcd13ifvqf50","pricing_plan_id":"cebpf4jnsgd1na2vs0mg"},{"bike_id":"de95d53c-a8d8-42e2-bf5c-cb50d31548c5","system_id":"levelo_inurba_marseille","lat":43.28097,"lon":5.37838,"is_reserved":false,"is_disabled":false,"rental_uris":{"android":"levelo://app?vid=de95d53c-a8d8-42e2-bf5c-cb50d31548c5","ios":"levelo://app?vid=de95d53c-a8d8-42e2-bf5c-cb50d31548c5"},"vehicle_type_id":"4","last_reported":1747107364,"current_range_meters":13600,"station_id":"ce4bha12rcd13ifvqee0","pricing_plan_id":"cebpf4jnsgd1na2vs0mg"},{"bike_id":"82a2983a-aad6-4341-9119-63bff39dd4f7","system_id":"levelo_inurba_marseille","lat":43.23178,"lon":5.39989,"is_reserved":false,"is_disabled":false,"rental_uris":{"android":"levelo://app?vid=82a2983a-aad6-4341-9119-63bff39dd4f7","ios":"levelo://app?vid=82a2983a-aad6-4341-9119-63bff39dd4f7"},"vehicle_type_id":"4","last_reported":1747107364,"current_range_meters":13600,"station_id":"ce4bhn12rcd13ifvqgqg","pricing_plan_id":"cebpf4jnsgd1na2vs0mg"},{"bike_id":"ed82de67-f99c-423e-a19e-5a8396700ec6","system_id":"levelo_inurba_marseille","lat":43.30658,"lon":5.40083,"is_reserved":false,"is_disabled":false,"rental_uris":{"android":"levelo://app?vid=ed82de67-f99c-423e-a19e-5a8396700ec6","ios":"levelo://app?vid=ed82de67-f99c-423e-a19e-5a8396700ec6"},"vehicle_type_id":"4","last_reported":1747107364,"current_range_meters":13600,"station_id":"ce4bh112rcd13ifvqda0","pricing_plan_id":"cebpf4jnsgd1na2vs0mg"},{"bike_id":"dc8472a8-1e0e-48c9-8d42-8e60b4ffb2cb","system_id":"levelo_inurba_marseille","lat":43.28673,"lon":5.36369,"is_reserved":false,"is_disabled":false,"rental_uris":{"android":"levelo://app?vid=dc8472a8-1e0e-48c9-8d42-8e60b4ffb2cb","ios":"levelo://app?vid=dc8472a8-1e0e-48c9-8d42-8e60b4ffb2cb"},"vehicle_type_id":"4","last_reported":1747107364,"current_range_meters":13600,"station_id":"ce4bhah2rcd13ifvqej0","pricing_plan_id":"cebpf4jnsgd1na2vs0mg"},{"bike_id":"e6ad97f1-b73e-46fd-a80f-360ecb6587de","system_id":"levelo_inurba_marseille","lat":43.280007,"lon":5.400104,"is_reserved":false,"is_disabled":false,"rental_uris":{"android":"levelo://app?vid=e6ad97f1-b73e-46fd-a80f-360ecb6587de","ios":"levelo://app?vid=e6ad97f1-b73e-46fd-a80f-360ecb6587de"},"vehicle_type_id":"4","last_reported":1747107364,"current_range_meters":13600,"station_id":"ce4bho92rcd13ifvqh4g","pricing_plan_id":"cebpf4jnsgd1na2vs0mg"},{"bike_id":"ac001682-4a7a-4388-94d8-65693d64511f","system_id":"levelo_inurba_marseille","lat":43.316955,"lon":5.40469,"is_reserved":false,"is_disabled":false,"rental_uris":{"android":"levelo://app?vid=ac001682-4a7a-4388-94d8-65693d64511f","ios":"levelo://app?vid=ac001682-4a7a-4388-94d8-65693d64511f"},"vehicle_type_id":"4","last_reported":1747107364,"current_range_meters":14000,"station_id":"ce4bh012rcd13ifvqd00","pricing_plan_id":"cebpf4jnsgd1na2vs0mg"},{"bike_id":"f702f1f1-baff-4710-b092-d4b131f8acb6","system_id":"levelo_inurba_marseille","lat":43.30381,"lon":5.42488,"is_reserved":false,"is_disabled":false,"rental_uris":{"android":"levelo://app?vid=f702f1f1-baff-4710-b092-d4b131f8acb6","ios":"levelo://app?vid=f702f1f1-baff-4710-b092-d4b131f8acb6"},"vehicle_type_id":"4","last_reported":1747107364,"current_range_meters":14000,"station_id":"ce4bhoh2rcd13ifvqh6g","pricing_plan_id":"cebpf4jnsgd1na2vs0mg"},{"bike_id":"e8df05ea-9d41-44ac-8a3f-146c6d975e87","system_id":"levelo_inurba_marseille","lat":43.279161,"lon":5.395726,"is_reserved":false,"is_disabled":false,"rental_uris":{"android":"levelo://app?vid=e8df05ea-9d41-44ac-8a3f-146c6d975e87","ios":"levelo://app?vid=e8df05ea-9d41-44ac-8a3f-146c6d975e87"},"vehicle_type_id":"4","last_reported":1747107364,"current_range_meters":14400,"station_id":"ce4bhf92rcd13ifvqf40","pricing_plan_id":"cebpf4jnsgd1na2vs0mg"},{"bike_id":"556e7d69-5d47-4a34-9e72-f2f8167566e6","system_id":"levelo_inurba_marseille","lat":43.3012,"lon":5.38782,"is_reserved":false,"is_disabled":true,"rental_uris":{"android":"levelo://app?vid=556e7d69-5d47-4a34-9e72-f2f8167566e6","ios":"levelo://app?vid=556e7d69-5d47-4a34-9e72-f2f8167566e6"},"vehicle_type_id":"4","last_reported":1747107364,"current_range_meters":14400,"station_id":"ce4bghh2rcd13ifvqb60","pricing_plan_id":"cebpf4jnsgd1na2vs0mg"},{"bike_id":"50d41a93-a4d0-45e4-a910-408ae21130bd","system_id":"levelo_inurba_marseille","lat":43.295175,"lon":5.394181,"is_reserved":false,"is_disabled":false,"rental_uris":{"android":"levelo://app?vid=50d41a93-a4d0-45e4-a910-408ae21130bd","ios":"levelo://app?vid=50d41a93-a4d0-45e4-a910-408ae21130bd"},"vehicle_type_id":"4","last_reported":1747107364,"current_range_meters":14800,"station_id":"ce4bh292rcd13ifvqdf0","pricing_plan_id":"cebpf4jnsgd1na2vs0mg"},{"bike_id":"42557dae-bbe0-42c6-8015-b1021735213b","system_id":"levelo_inurba_marseille","lat":43.284554,"lon":5.358947,"is_reserved":false,"is_disabled":true,"rental_uris":{"android":"levelo://app?vid=42557dae-bbe0-42c6-8015-b1021735213b","ios":"levelo://app?vid=42557dae-bbe0-42c6-8015-b1021735213b"},"vehicle_type_id":"4","last_reported":1747107364,"current_range_meters":14800,"station_id":"ce4bhah2rcd13ifvqei0","pricing_plan_id":"cebpf4jnsgd1na2vs0mg"},{"bike_id":"2fdc8039-2a91-416c-8148-d1e7c0df93ae","system_id":"levelo_inurba_marseille","lat":43.22929,"lon":5.35383,"is_reserved":false,"is_disabled":true,"rental_uris":{"android":"levelo://app?vid=2fdc8039-2a91-416c-8148-d1e7c0df93ae","ios":"levelo://app?vid=2fdc8039-2a91-416c-8148-d1e7c0df93ae"},"vehicle_type_id":"4","last_reported":1747107364,"current_range_meters":14800,"station_id":"cpo3532slgdg3j2ikp40","pricing_plan_id":"cebpf4jnsgd1na2vs0mg"},{"bike_id":"60cfea43-65dd-49c5-be74-cbe13c14c76d","system_id":"levelo_inurba_marseille","lat":43.28451,"lon":5.35891,"is_reserved":false,"is_disabled":false,"rental_uris":{"android":"levelo://app?vid=60cfea43-65dd-49c5-be74-cbe13c14c76d","ios":"levelo://app?vid=60cfea43-65dd-49c5-be74-cbe13c14c76d"},"vehicle_type_id":"4","last_reported":1747107364,"current_range_meters":14800,"station_id":"ce4bhah2rcd13ifvqei0","pricing_plan_id":"cebpf4jnsgd1na2vs0mg"},{"bike_id":"a8d98450-92cc-44d0-b272-436af46aa0f9","system_id":"levelo_inurba_marseille","lat":43.29414,"lon":5.38612,"is_reserved":false,"is_disabled":true,"rental_uris":{"android":"levelo://app?vid=a8d98450-92cc-44d0-b272-436af46aa0f9","ios":"levelo://app?vid=a8d98450-92cc-44d0-b272-436af46aa0f9"},"vehicle_type_id":"4","last_reported":1747107364,"current_range_meters":15200,"station_id":"ce4bh2h2rcd13ifvqdh0","pricing_plan_id":"cebpf4jnsgd1na2vs0mg"},{"bike_id":"d91707b8-7a71-4f5b-ad0d-d1a6247b4ed5","system_id":"levelo_inurba_marseille","lat":43.292203,"lon":5.360722,"is_reserved":false,"is_disabled":false,"rental_uris":{"android":"levelo://app?vid=d91707b8-7a71-4f5b-ad0d-d1a6247b4ed5","ios":"levelo://app?vid=d91707b8-7a71-4f5b-ad0d-d1a6247b4ed5"},"vehicle_type_id":"4","last_reported":1747107364,"current_range_meters":15200,"station_id":"ce4bhbh2rcd13ifvqeqg","pricing_plan_id":"cebpf4jnsgd1na2vs0mg"},{"bike_id":"56804647-9200-40e3-b22d-163739b0e936","system_id":"levelo_inurba_marseille","lat":43.306404,"lon":5.400695,"is_reserved":false,"is_disabled":false,"rental_uris":{"android":"levelo://app?vid=56804647-9200-40e3-b22d-163739b0e936","ios":"levelo://app?vid=56804647-9200-40e3-b22d-163739b0e936"},"vehicle_type_id":"4","last_reported":1747107364,"current_range_meters":16000,"station_id":"ce4bh112rcd13ifvqda0","pricing_plan_id":"cebpf4jnsgd1na2vs0mg"},{"bike_id":"aaf1bb4b-f3d6-45cc-8e77-e5d0c945415a","system_id":"levelo_inurba_marseille","lat":43.26201,"lon":5.40455,"is_reserved":false,"is_disabled":false,"rental_uris":{"android":"levelo://app?vid=aaf1bb4b-f3d6-45cc-8e77-e5d0c945415a","ios":"levelo://app?vid=aaf1bb4b-f3d6-45cc-8e77-e5d0c945415a"},"vehicle_type_id":"4","last_reported":1747107364,"current_range_meters":16000,"station_id":"ce4bhmh2rcd13ifvqgmg","pricing_plan_id":"cebpf4jnsgd1na2vs0mg"},{"bike_id":"817270a4-9a01-4414-b690-0ea4101d3373","system_id":"levelo_inurba_marseille","lat":43.303781,"lon":5.424879,"is_reserved":false,"is_disabled":false,"rental_uris":{"android":"levelo://app?vid=817270a4-9a01-4414-b690-0ea4101d3373","ios":"levelo://app?vid=817270a4-9a01-4414-b690-0ea4101d3373"},"vehicle_type_id":"4","last_reported":1747107364,"current_range_meters":16000,"station_id":"ce4bhoh2rcd13ifvqh6g","pricing_plan_id":"cebpf4jnsgd1na2vs0mg"},{"bike_id":"d8627b0b-c071-458d-b087-deed91cba0d3","system_id":"levelo_inurba_marseille","lat":43.30934,"lon":5.40148,"is_reserved":false,"is_disabled":false,"rental_uris":{"android":"levelo://app?vid=d8627b0b-c071-458d-b087-deed91cba0d3","ios":"levelo://app?vid=d8627b0b-c071-458d-b087-deed91cba0d3"},"vehicle_type_id":"4","last_reported":1747107364,"current_range_meters":16000,"station_id":"ce4bgvp2rcd13ifvqct0","pricing_plan_id":"cebpf4jnsgd1na2vs0mg"},{"bike_id":"386d5dbf-2a14-4801-8ee7-a8f50e4a87d8","system_id":"levelo_inurba_marseille","lat":43.21747,"lon":5.346011,"is_reserved":false,"is_disabled":false,"rental_uris":{"android":"levelo://app?vid=386d5dbf-2a14-4801-8ee7-a8f50e4a87d8","ios":"levelo://app?vid=386d5dbf-2a14-4801-8ee7-a8f50e4a87d8"},"vehicle_type_id":"4","last_reported":1747107364,"current_range_meters":16000,"station_id":"st_cvj6r9ubvosntc0bgbag","pricing_plan_id":"cebpf4jnsgd1na2vs0mg"},{"bike_id":"49a975d3-8be0-49f2-b26a-3bee576a3c73","system_id":"levelo_inurba_marseille","lat":43.24683,"lon":5.3813,"is_reserved":false,"is_disabled":false,"rental_uris":{"android":"levelo://app?vid=49a975d3-8be0-49f2-b26a-3bee576a3c73","ios":"levelo://app?vid=49a975d3-8be0-49f2-b26a-3bee576a3c73"},"vehicle_type_id":"4","last_reported":1747107364,"current_range_meters":16000,"station_id":"ce4bhih2rcd13ifvqfr0","pricing_plan_id":"cebpf4jnsgd1na2vs0mg"},{"bike_id":"39dbaf81-bc49-42f6-96c5-50b162f92bd5","system_id":"levelo_inurba_marseille","lat":43.284544,"lon":5.358933,"is_reserved":false,"is_disabled":false,"rental_uris":{"android":"levelo://app?vid=39dbaf81-bc49-42f6-96c5-50b162f92bd5","ios":"levelo://app?vid=39dbaf81-bc49-42f6-96c5-50b162f92bd5"},"vehicle_type_id":"4","last_reported":1747107364,"current_range_meters":16000,"station_id":"ce4bhah2rcd13ifvqei0","pricing_plan_id":"cebpf4jnsgd1na2vs0mg"},{"bike_id":"df710665-948d-460f-9cb6-529d24517f44","system_id":"levelo_inurba_marseille","lat":43.299314,"lon":5.365296,"is_reserved":false,"is_disabled":false,"rental_uris":{"android":"levelo://app?vid=df710665-948d-460f-9cb6-529d24517f44","ios":"levelo://app?vid=df710665-948d-460f-9cb6-529d24517f44"},"vehicle_type_id":"4","last_reported":1747107364,"current_range_meters":16000,"station_id":"ce4bgm92rcd13ifvqbr0","pricing_plan_id":"cebpf4jnsgd1na2vs0mg"},{"bike_id":"ef0f891e-d6e3-4198-aa9f-2547ee9950fb","system_id":"levelo_inurba_marseille","lat":43.2815,"lon":5.426373,"is_reserved":false,"is_disabled":false,"rental_uris":{"android":"levelo://app?vid=ef0f891e-d6e3-4198-aa9f-2547ee9950fb","ios":"levelo://app?vid=ef0f891e-d6e3-4198-aa9f-2547ee9950fb"},"vehicle_type_id":"4","last_reported":1747107364,"current_range_meters":16000,"station_id":"ce4bhnh2rcd13ifvqgug","pricing_plan_id":"cebpf4jnsgd1na2vs0mg"},{"bike_id":"7151ad20-2272-4422-ab03-9362e0c96575","system_id":"levelo_inurba_marseille","lat":43.28452,"lon":5.35889,"is_reserved":false,"is_disabled":false,"rental_uris":{"android":"levelo://app?vid=7151ad20-2272-4422-ab03-9362e0c96575","ios":"levelo://app?vid=7151ad20-2272-4422-ab03-9362e0c96575"},"vehicle_type_id":"4","last_reported":1747107364,"current_range_meters":16400,"station_id":"ce4bhah2rcd13ifvqei0","pricing_plan_id":"cebpf4jnsgd1na2vs0mg"},{"bike_id":"ef12a5ea-c05f-466b-b152-54518f397510","system_id":"levelo_inurba_marseille","lat":43.34155,"lon":5.40917,"is_reserved":false,"is_disabled":false,"rental_uris":{"android":"levelo://app?vid=ef12a5ea-c05f-466b-b152-54518f397510","ios":"levelo://app?vid=ef12a5ea-c05f-466b-b152-54518f397510"},"vehicle_type_id":"4","last_reported":1747107364,"current_range_meters":16400,"station_id":"ce4bhqh2rcd13ifvqhlg","pricing_plan_id":"cebpf4jnsgd1na2vs0mg"},{"bike_id":"5ed6891a-4747-4680-a606-698f44b742e8","system_id":"levelo_inurba_marseille","lat":43.30671,"lon":5.40062,"is_reserved":false,"is_disabled":false,"rental_uris":{"android":"levelo://app?vid=5ed6891a-4747-4680-a606-698f44b742e8","ios":"levelo://app?vid=5ed6891a-4747-4680-a606-698f44b742e8"},"vehicle_type_id":"4","last_reported":1747107364,"current_range_meters":16400,"station_id":"ce4bh112rcd13ifvqda0","pricing_plan_id":"cebpf4jnsgd1na2vs0mg"},{"bike_id":"0e123c4d-e8d0-4826-91b5-bc1bd261f062","system_id":"levelo_inurba_marseille","lat":43.292493,"lon":5.401405,"is_reserved":false,"is_disabled":true,"rental_uris":{"android":"levelo://app?vid=0e123c4d-e8d0-4826-91b5-bc1bd261f062","ios":"levelo://app?vid=0e123c4d-e8d0-4826-91b5-bc1bd261f062"},"vehicle_type_id":"4","last_reported":1747107364,"current_range_meters":16400,"station_id":"ce4bh312rcd13ifvqdk0","pricing_plan_id":"cebpf4jnsgd1na2vs0mg"},{"bike_id":"520f07fc-e2a5-442e-bcdc-caa8376efe3e","system_id":"levelo_inurba_marseille","lat":43.31698,"lon":5.40481,"is_reserved":false,"is_disabled":false,"rental_uris":{"android":"levelo://app?vid=520f07fc-e2a5-442e-bcdc-caa8376efe3e","ios":"levelo://app?vid=520f07fc-e2a5-442e-bcdc-caa8376efe3e"},"vehicle_type_id":"4","last_reported":1747107364,"current_range_meters":16400,"station_id":"ce4bh012rcd13ifvqd00","pricing_plan_id":"cebpf4jnsgd1na2vs0mg"},{"bike_id":"d9a784dc-2620-459d-afd5-260a793dcba9","system_id":"levelo_inurba_marseille","lat":43.308843,"lon":5.396403,"is_reserved":false,"is_disabled":false,"rental_uris":{"android":"levelo://app?vid=d9a784dc-2620-459d-afd5-260a793dcba9","ios":"levelo://app?vid=d9a784dc-2620-459d-afd5-260a793dcba9"},"vehicle_type_id":"4","last_reported":1747107364,"current_range_meters":16800,"station_id":"ce4bh012rcd13ifvqcv0","pricing_plan_id":"cebpf4jnsgd1na2vs0mg"},{"bike_id":"2006b892-9b4b-4ad3-b6e0-5f7c07aa8055","system_id":"levelo_inurba_marseille","lat":43.313297,"lon":5.397031,"is_reserved":false,"is_disabled":false,"rental_uris":{"android":"levelo://app?vid=2006b892-9b4b-4ad3-b6e0-5f7c07aa8055","ios":"levelo://app?vid=2006b892-9b4b-4ad3-b6e0-5f7c07aa8055"},"vehicle_type_id":"4","last_reported":1747107364,"current_range_meters":16800,"station_id":"ce4bgvp2rcd13ifvqcu0","pricing_plan_id":"cebpf4jnsgd1na2vs0mg"},{"bike_id":"f6974a9d-f445-4f9d-802d-62b54dcd3467","system_id":"levelo_inurba_marseille","lat":43.27919,"lon":5.39583,"is_reserved":false,"is_disabled":false,"rental_uris":{"android":"levelo://app?vid=f6974a9d-f445-4f9d-802d-62b54dcd3467","ios":"levelo://app?vid=f6974a9d-f445-4f9d-802d-62b54dcd3467"},"vehicle_type_id":"4","last_reported":1747107364,"current_range_meters":16800,"station_id":"ce4bhf92rcd13ifvqf40","pricing_plan_id":"cebpf4jnsgd1na2vs0mg"},{"bike_id":"2064d8ad-c121-472c-a67d-5dfda4a122da","system_id":"levelo_inurba_marseille","lat":43.29581,"lon":5.37502,"is_reserved":false,"is_disabled":true,"rental_uris":{"android":"levelo://app?vid=2064d8ad-c121-472c-a67d-5dfda4a122da","ios":"levelo://app?vid=2064d8ad-c121-472c-a67d-5dfda4a122da"},"vehicle_type_id":"4","last_reported":1747107364,"current_range_meters":16800,"station_id":"ce4bgh92rcd13ifvqb50","pricing_plan_id":"cebpf4jnsgd1na2vs0mg"},{"bike_id":"849551c5-240b-48cd-88b2-3e23f9d3b406","system_id":"levelo_inurba_marseille","lat":43.28412,"lon":5.375167,"is_reserved":false,"is_disabled":false,"rental_uris":{"android":"levelo://app?vid=849551c5-240b-48cd-88b2-3e23f9d3b406","ios":"levelo://app?vid=849551c5-240b-48cd-88b2-3e23f9d3b406"},"vehicle_type_id":"4","last_reported":1747107364,"current_range_meters":17200,"station_id":"ce4bh412rcd13ifvqds0","pricing_plan_id":"cebpf4jnsgd1na2vs0mg"},{"bike_id":"9d352004-7b2c-43e3-9328-20e4f737c9c4","system_id":"levelo_inurba_marseille","lat":43.262294,"lon":5.404539,"is_reserved":false,"is_disabled":true,"rental_uris":{"android":"levelo://app?vid=9d352004-7b2c-43e3-9328-20e4f737c9c4","ios":"levelo://app?vid=9d352004-7b2c-43e3-9328-20e4f737c9c4"},"vehicle_type_id":"4","last_reported":1747107364,"current_range_meters":17200,"station_id":"","pricing_plan_id":"cebpf4jnsgd1na2vs0mg"},{"bike_id":"3f241b5b-2106-4780-a5ac-9c4c044fa6b7","system_id":"levelo_inurba_marseille","lat":43.29281,"lon":5.40135,"is_reserved":false,"is_disabled":false,"rental_uris":{"android":"levelo://app?vid=3f241b5b-2106-4780-a5ac-9c4c044fa6b7","ios":"levelo://app?vid=3f241b5b-2106-4780-a5ac-9c4c044fa6b7"},"vehicle_type_id":"4","last_reported":1747107364,"current_range_meters":17200,"station_id":"ce4bh312rcd13ifvqdk0","pricing_plan_id":"cebpf4jnsgd1na2vs0mg"},{"bike_id":"ae2670a2-585e-4081-a3e0-8ca36e005485","system_id":"levelo_inurba_marseille","lat":43.2408,"lon":5.37692,"is_reserved":false,"is_disabled":false,"rental_uris":{"android":"levelo://app?vid=ae2670a2-585e-4081-a3e0-8ca36e005485","ios":"levelo://app?vid=ae2670a2-585e-4081-a3e0-8ca36e005485"},"vehicle_type_id":"4","last_reported":1747107364,"current_range_meters":17200,"station_id":"ce4bhnp2rcd13ifvqgvg","pricing_plan_id":"cebpf4jnsgd1na2vs0mg"},{"bike_id":"2b02467a-5ffd-42c5-bd01-79712910f637","system_id":"levelo_inurba_marseille","lat":43.281514,"lon":5.426413,"is_reserved":false,"is_disabled":false,"rental_uris":{"android":"levelo://app?vid=2b02467a-5ffd-42c5-bd01-79712910f637","ios":"levelo://app?vid=2b02467a-5ffd-42c5-bd01-79712910f637"},"vehicle_type_id":"4","last_reported":1747107364,"current_range_meters":17200,"station_id":"ce4bhnh2rcd13ifvqgug","pricing_plan_id":"cebpf4jnsgd1na2vs0mg"},{"bike_id":"79bb0198-c0e7-4a4d-971f-338c22111321","system_id":"levelo_inurba_marseille","lat":43.30655,"lon":5.40067,"is_reserved":false,"is_disabled":false,"rental_uris":{"android":"levelo://app?vid=79bb0198-c0e7-4a4d-971f-338c22111321","ios":"levelo://app?vid=79bb0198-c0e7-4a4d-971f-338c22111321"},"vehicle_type_id":"4","last_reported":1747107364,"current_range_meters":17600,"station_id":"ce4bh112rcd13ifvqda0","pricing_plan_id":"cebpf4jnsgd1na2vs0mg"},{"bike_id":"e2b7593a-dbbc-4a30-b5c1-ee286ff2c1a1","system_id":"levelo_inurba_marseille","lat":43.24674,"lon":5.3816,"is_reserved":false,"is_disabled":false,"rental_uris":{"android":"levelo://app?vid=e2b7593a-dbbc-4a30-b5c1-ee286ff2c1a1","ios":"levelo://app?vid=e2b7593a-dbbc-4a30-b5c1-ee286ff2c1a1"},"vehicle_type_id":"4","last_reported":1747107364,"current_range_meters":17600,"station_id":"ce4bhih2rcd13ifvqfr0","pricing_plan_id":"cebpf4jnsgd1na2vs0mg"},{"bike_id":"6612848c-309d-4d62-ac1d-f61c33129268","system_id":"levelo_inurba_marseille","lat":43.306453,"lon":5.400695,"is_reserved":false,"is_disabled":false,"rental_uris":{"android":"levelo://app?vid=6612848c-309d-4d62-ac1d-f61c33129268","ios":"levelo://app?vid=6612848c-309d-4d62-ac1d-f61c33129268"},"vehicle_type_id":"4","last_reported":1747107364,"current_range_meters":17600,"station_id":"ce4bh112rcd13ifvqda0","pricing_plan_id":"cebpf4jnsgd1na2vs0mg"},{"bike_id":"93ddefd7-b17e-4643-9c51-9ff2311d7114","system_id":"levelo_inurba_marseille","lat":43.309302,"lon":5.40146,"is_reserved":false,"is_disabled":false,"rental_uris":{"android":"levelo://app?vid=93ddefd7-b17e-4643-9c51-9ff2311d7114","ios":"levelo://app?vid=93ddefd7-b17e-4643-9c51-9ff2311d7114"},"vehicle_type_id":"4","last_reported":1747107364,"current_range_meters":17600,"station_id":"ce4bgvp2rcd13ifvqct0","pricing_plan_id":"cebpf4jnsgd1na2vs0mg"},{"bike_id":"1095b252-790e-4155-ab4e-86136a24d6fc","system_id":"levelo_inurba_marseille","lat":43.28468,"lon":5.35886,"is_reserved":false,"is_disabled":false,"rental_uris":{"android":"levelo://app?vid=1095b252-790e-4155-ab4e-86136a24d6fc","ios":"levelo://app?vid=1095b252-790e-4155-ab4e-86136a24d6fc"},"vehicle_type_id":"4","last_reported":1747107364,"current_range_meters":17600,"station_id":"ce4bhah2rcd13ifvqei0","pricing_plan_id":"cebpf4jnsgd1na2vs0mg"},{"bike_id":"c898206a-f917-4a97-a896-23d0ca1417ca","system_id":"levelo_inurba_marseille","lat":43.317155,"lon":5.436993,"is_reserved":false,"is_disabled":false,"rental_uris":{"android":"levelo://app?vid=c898206a-f917-4a97-a896-23d0ca1417ca","ios":"levelo://app?vid=c898206a-f917-4a97-a896-23d0ca1417ca"},"vehicle_type_id":"4","last_reported":1747107364,"current_range_meters":18000,"station_id":"ce4bhp92rcd13ifvqhcg","pricing_plan_id":"cebpf4jnsgd1na2vs0mg"},{"bike_id":"39a6bd1f-7072-469f-8856-342cea40130d","system_id":"levelo_inurba_marseille","lat":43.24647,"lon":5.38895,"is_reserved":false,"is_disabled":false,"rental_uris":{"android":"levelo://app?vid=39a6bd1f-7072-469f-8856-342cea40130d","ios":"levelo://app?vid=39a6bd1f-7072-469f-8856-342cea40130d"},"vehicle_type_id":"4","last_reported":1747107364,"current_range_meters":18000,"station_id":"ce4bhg12rcd13ifvqf60","pricing_plan_id":"cebpf4jnsgd1na2vs0mg"},{"bike_id":"302b8f99-619b-481d-a346-4fb377ba7c79","system_id":"levelo_inurba_marseille","lat":43.319962,"lon":5.38153,"is_reserved":false,"is_disabled":false,"rental_uris":{"android":"levelo://app?vid=302b8f99-619b-481d-a346-4fb377ba7c79","ios":"levelo://app?vid=302b8f99-619b-481d-a346-4fb377ba7c79"},"vehicle_type_id":"4","last_reported":1747107364,"current_range_meters":18000,"station_id":"ce4bhr12rcd13ifvqhpg","pricing_plan_id":"cebpf4jnsgd1na2vs0mg"},{"bike_id":"e0809dbb-caf4-4db3-afc9-1a31c8833d65","system_id":"levelo_inurba_marseille","lat":43.27914,"lon":5.39593,"is_reserved":false,"is_disabled":false,"rental_uris":{"android":"levelo://app?vid=e0809dbb-caf4-4db3-afc9-1a31c8833d65","ios":"levelo://app?vid=e0809dbb-caf4-4db3-afc9-1a31c8833d65"},"vehicle_type_id":"4","last_reported":1747107364,"current_range_meters":18000,"station_id":"ce4bhf92rcd13ifvqf40","pricing_plan_id":"cebpf4jnsgd1na2vs0mg"},{"bike_id":"63fb28b9-258e-4580-8e31-1efaa0aeb238","system_id":"levelo_inurba_marseille","lat":43.280781,"lon":5.396508,"is_reserved":false,"is_disabled":false,"rental_uris":{"android":"levelo://app?vid=63fb28b9-258e-4580-8e31-1efaa0aeb238","ios":"levelo://app?vid=63fb28b9-258e-4580-8e31-1efaa0aeb238"},"vehicle_type_id":"4","last_reported":1747107364,"current_range_meters":18000,"station_id":"ce4bho12rcd13ifvqh2g","pricing_plan_id":"cebpf4jnsgd1na2vs0mg"},{"bike_id":"241a000d-cef4-427c-b5ef-e2f8e2d74bbb","system_id":"levelo_inurba_marseille","lat":43.286966,"lon":5.373944,"is_reserved":false,"is_disabled":false,"rental_uris":{"android":"levelo://app?vid=241a000d-cef4-427c-b5ef-e2f8e2d74bbb","ios":"levelo://app?vid=241a000d-cef4-427c-b5ef-e2f8e2d74bbb"},"vehicle_type_id":"4","last_reported":1747107364,"current_range_meters":18000,"station_id":"ce4bh3p2rcd13ifvqdq0","pricing_plan_id":"cebpf4jnsgd1na2vs0mg"},{"bike_id":"6eb0004f-6ee3-4804-97a0-f050ea148c7b","system_id":"levelo_inurba_marseille","lat":43.29786,"lon":5.39379,"is_reserved":false,"is_disabled":false,"rental_uris":{"android":"levelo://app?vid=6eb0004f-6ee3-4804-97a0-f050ea148c7b","ios":"levelo://app?vid=6eb0004f-6ee3-4804-97a0-f050ea148c7b"},"vehicle_type_id":"4","last_reported":1747107364,"current_range_meters":18800,"station_id":"chh1huq6cuj3fo74tm60","pricing_plan_id":"cebpf4jnsgd1na2vs0mg"},{"bike_id":"c1234833-9229-4e89-b9fe-8e9717a034dd","system_id":"levelo_inurba_marseille","lat":43.3236,"lon":5.38882,"is_reserved":false,"is_disabled":false,"rental_uris":{"android":"levelo://app?vid=c1234833-9229-4e89-b9fe-8e9717a034dd","ios":"levelo://app?vid=c1234833-9229-4e89-b9fe-8e9717a034dd"},"vehicle_type_id":"4","last_reported":1747107364,"current_range_meters":18800,"station_id":"ce4bhqp2rcd13ifvqhog","pricing_plan_id":"cebpf4jnsgd1na2vs0mg"},{"bike_id":"9d76660f-c284-49a2-8765-48337aa51471","system_id":"levelo_inurba_marseille","lat":43.32097,"lon":5.36787,"is_reserved":false,"is_disabled":false,"rental_uris":{"android":"levelo://app?vid=9d76660f-c284-49a2-8765-48337aa51471","ios":"levelo://app?vid=9d76660f-c284-49a2-8765-48337aa51471"},"vehicle_type_id":"4","last_reported":1747107364,"current_range_meters":18800,"station_id":"ce4bhrh2rcd13ifvqhug","pricing_plan_id":"cebpf4jnsgd1na2vs0mg"},{"bike_id":"900bcc98-1b12-4e7a-a6a9-9f59b8fbf69b","system_id":"levelo_inurba_marseille","lat":43.314936,"lon":5.372996,"is_reserved":false,"is_disabled":false,"rental_uris":{"android":"levelo://app?vid=900bcc98-1b12-4e7a-a6a9-9f59b8fbf69b","ios":"levelo://app?vid=900bcc98-1b12-4e7a-a6a9-9f59b8fbf69b"},"vehicle_type_id":"4","last_reported":1747107364,"current_range_meters":18800,"station_id":"ce4bgt12rcd13ifvqcd0","pricing_plan_id":"cebpf4jnsgd1na2vs0mg"},{"bike_id":"039e0c3d-3862-4849-8b36-59dbcbfdd09f","system_id":"levelo_inurba_marseille","lat":43.3033,"lon":5.40448,"is_reserved":false,"is_disabled":false,"rental_uris":{"android":"levelo://app?vid=039e0c3d-3862-4849-8b36-59dbcbfdd09f","ios":"levelo://app?vid=039e0c3d-3862-4849-8b36-59dbcbfdd09f"},"vehicle_type_id":"4","last_reported":1747107364,"current_range_meters":18800,"station_id":"ce4bh012rcd13ifvqd10","pricing_plan_id":"cebpf4jnsgd1na2vs0mg"},{"bike_id":"acc5833a-6427-49df-a603-fbea78aca361","system_id":"levelo_inurba_marseille","lat":43.309324,"lon":5.401666,"is_reserved":false,"is_disabled":false,"rental_uris":{"android":"levelo://app?vid=acc5833a-6427-49df-a603-fbea78aca361","ios":"levelo://app?vid=acc5833a-6427-49df-a603-fbea78aca361"},"vehicle_type_id":"4","last_reported":1747107364,"current_range_meters":18800,"station_id":"ce4bgvp2rcd13ifvqct0","pricing_plan_id":"cebpf4jnsgd1na2vs0mg"},{"bike_id":"d32141a3-bc2d-4773-a44e-5bf9a3ff868b","system_id":"levelo_inurba_marseille","lat":43.25752,"lon":5.41053,"is_reserved":false,"is_disabled":false,"rental_uris":{"android":"levelo://app?vid=d32141a3-bc2d-4773-a44e-5bf9a3ff868b","ios":"levelo://app?vid=d32141a3-bc2d-4773-a44e-5bf9a3ff868b"},"vehicle_type_id":"4","last_reported":1747107364,"current_range_meters":19200,"station_id":"","pricing_plan_id":"cebpf4jnsgd1na2vs0mg"},{"bike_id":"e81304a7-b84e-45bb-ac30-343bf46aa7a7","system_id":"levelo_inurba_marseille","lat":43.27907,"lon":5.39589,"is_reserved":false,"is_disabled":false,"rental_uris":{"android":"levelo://app?vid=e81304a7-b84e-45bb-ac30-343bf46aa7a7","ios":"levelo://app?vid=e81304a7-b84e-45bb-ac30-343bf46aa7a7"},"vehicle_type_id":"4","last_reported":1747107364,"current_range_meters":19200,"station_id":"ce4bhf92rcd13ifvqf40","pricing_plan_id":"cebpf4jnsgd1na2vs0mg"},{"bike_id":"0c893fb7-8626-4706-85bf-f404b871dea5","system_id":"levelo_inurba_marseille","lat":43.281249,"lon":5.445913,"is_reserved":false,"is_disabled":false,"rental_uris":{"android":"levelo://app?vid=0c893fb7-8626-4706-85bf-f404b871dea5","ios":"levelo://app?vid=0c893fb7-8626-4706-85bf-f404b871dea5"},"vehicle_type_id":"4","last_reported":1747107364,"current_range_meters":19200,"station_id":"","pricing_plan_id":"cebpf4jnsgd1na2vs0mg"},{"bike_id":"59bd68ff-a61f-444d-9496-d2f88e27ccd4","system_id":"levelo_inurba_marseille","lat":43.286969,"lon":5.399872,"is_reserved":false,"is_disabled":false,"rental_uris":{"android":"levelo://app?vid=59bd68ff-a61f-444d-9496-d2f88e27ccd4","ios":"levelo://app?vid=59bd68ff-a61f-444d-9496-d2f88e27ccd4"},"vehicle_type_id":"4","last_reported":1747107364,"current_range_meters":19200,"station_id":"ce4bho92rcd13ifvqh3g","pricing_plan_id":"cebpf4jnsgd1na2vs0mg"},{"bike_id":"fd146880-44e0-4bd0-8aa8-d0a4e1e1a964","system_id":"levelo_inurba_marseille","lat":43.30739,"lon":5.42434,"is_reserved":false,"is_disabled":false,"rental_uris":{"android":"levelo://app?vid=fd146880-44e0-4bd0-8aa8-d0a4e1e1a964","ios":"levelo://app?vid=fd146880-44e0-4bd0-8aa8-d0a4e1e1a964"},"vehicle_type_id":"4","last_reported":1747107364,"current_range_meters":19200,"station_id":"st_cvj6ca6bvosntc0bfgr0","pricing_plan_id":"cebpf4jnsgd1na2vs0mg"},{"bike_id":"85bb6071-e792-4f67-a718-8548b40eced6","system_id":"levelo_inurba_marseille","lat":43.286689,"lon":5.386673,"is_reserved":false,"is_disabled":true,"rental_uris":{"android":"levelo://app?vid=85bb6071-e792-4f67-a718-8548b40eced6","ios":"levelo://app?vid=85bb6071-e792-4f67-a718-8548b40eced6"},"vehicle_type_id":"4","last_reported":1747107364,"current_range_meters":19200,"station_id":"ce4bh492rcd13ifvqdug","pricing_plan_id":"cebpf4jnsgd1na2vs0mg"},{"bike_id":"50838afa-4db6-4810-a427-67691cd7c935","system_id":"levelo_inurba_marseille","lat":43.27917,"lon":5.39616,"is_reserved":false,"is_disabled":false,"rental_uris":{"android":"levelo://app?vid=50838afa-4db6-4810-a427-67691cd7c935","ios":"levelo://app?vid=50838afa-4db6-4810-a427-67691cd7c935"},"vehicle_type_id":"4","last_reported":1747107364,"current_range_meters":19200,"station_id":"ce4bhf92rcd13ifvqf40","pricing_plan_id":"cebpf4jnsgd1na2vs0mg"},{"bike_id":"eeb882a8-fe36-4d5c-a964-fc0d0f965523","system_id":"levelo_inurba_marseille","lat":43.30704,"lon":5.36643,"is_reserved":false,"is_disabled":false,"rental_uris":{"android":"levelo://app?vid=eeb882a8-fe36-4d5c-a964-fc0d0f965523","ios":"levelo://app?vid=eeb882a8-fe36-4d5c-a964-fc0d0f965523"},"vehicle_type_id":"4","last_reported":1747107364,"current_range_meters":19200,"station_id":"","pricing_plan_id":"cebpf4jnsgd1na2vs0mg"},{"bike_id":"e2ecfea9-bf1c-4ff7-90aa-38a775d0a076","system_id":"levelo_inurba_marseille","lat":43.29531,"lon":5.39406,"is_reserved":false,"is_disabled":false,"rental_uris":{"android":"levelo://app?vid=e2ecfea9-bf1c-4ff7-90aa-38a775d0a076","ios":"levelo://app?vid=e2ecfea9-bf1c-4ff7-90aa-38a775d0a076"},"vehicle_type_id":"4","last_reported":1747107364,"current_range_meters":19200,"station_id":"ce4bh292rcd13ifvqdf0","pricing_plan_id":"cebpf4jnsgd1na2vs0mg"},{"bike_id":"1e297e0e-a907-489c-9a22-1dfb89bfb64f","system_id":"levelo_inurba_marseille","lat":43.2922,"lon":5.36439,"is_reserved":false,"is_disabled":true,"rental_uris":{"android":"levelo://app?vid=1e297e0e-a907-489c-9a22-1dfb89bfb64f","ios":"levelo://app?vid=1e297e0e-a907-489c-9a22-1dfb89bfb64f"},"vehicle_type_id":"4","last_reported":1747107364,"current_range_meters":19600,"station_id":"","pricing_plan_id":"cebpf4jnsgd1na2vs0mg"},{"bike_id":"e83dcaca-181c-4b02-bf44-8d4da8809b5b","system_id":"levelo_inurba_marseille","lat":43.317162,"lon":5.437054,"is_reserved":false,"is_disabled":false,"rental_uris":{"android":"levelo://app?vid=e83dcaca-181c-4b02-bf44-8d4da8809b5b","ios":"levelo://app?vid=e83dcaca-181c-4b02-bf44-8d4da8809b5b"},"vehicle_type_id":"4","last_reported":1747107364,"current_range_meters":19600,"station_id":"ce4bhp92rcd13ifvqhcg","pricing_plan_id":"cebpf4jnsgd1na2vs0mg"},{"bike_id":"b67742bf-3e86-4b2b-9c02-75c56b43889b","system_id":"levelo_inurba_marseille","lat":43.313283,"lon":5.397028,"is_reserved":false,"is_disabled":false,"rental_uris":{"android":"levelo://app?vid=b67742bf-3e86-4b2b-9c02-75c56b43889b","ios":"levelo://app?vid=b67742bf-3e86-4b2b-9c02-75c56b43889b"},"vehicle_type_id":"4","last_reported":1747107364,"current_range_meters":19600,"station_id":"ce4bgvp2rcd13ifvqcu0","pricing_plan_id":"cebpf4jnsgd1na2vs0mg"},{"bike_id":"d3c2bed7-f8f0-4d22-9f75-d31726480bc4","system_id":"levelo_inurba_marseille","lat":43.31328,"lon":5.3969,"is_reserved":false,"is_disabled":false,"rental_uris":{"android":"levelo://app?vid=d3c2bed7-f8f0-4d22-9f75-d31726480bc4","ios":"levelo://app?vid=d3c2bed7-f8f0-4d22-9f75-d31726480bc4"},"vehicle_type_id":"4","last_reported":1747107364,"current_range_meters":19600,"station_id":"ce4bgvp2rcd13ifvqcu0","pricing_plan_id":"cebpf4jnsgd1na2vs0mg"},{"bike_id":"01fd7024-c5dd-4846-aa4d-1c0e2b80f49d","system_id":"levelo_inurba_marseille","lat":43.30157,"lon":5.38092,"is_reserved":false,"is_disabled":false,"rental_uris":{"android":"levelo://app?vid=01fd7024-c5dd-4846-aa4d-1c0e2b80f49d","ios":"levelo://app?vid=01fd7024-c5dd-4846-aa4d-1c0e2b80f49d"},"vehicle_type_id":"4","last_reported":1747107364,"current_range_meters":19600,"station_id":"ce4bgjp2rcd13ifvqbh0","pricing_plan_id":"cebpf4jnsgd1na2vs0mg"},{"bike_id":"581a76c6-406f-436c-80cf-424046378536","system_id":"levelo_inurba_marseille","lat":43.23138,"lon":5.43718,"is_reserved":false,"is_disabled":false,"rental_uris":{"android":"levelo://app?vid=581a76c6-406f-436c-80cf-424046378536","ios":"levelo://app?vid=581a76c6-406f-436c-80cf-424046378536"},"vehicle_type_id":"4","last_reported":1747107364,"current_range_meters":19600,"station_id":"ce4bhmp2rcd13ifvqgog","pricing_plan_id":"cebpf4jnsgd1na2vs0mg"},{"bike_id":"0cd08830-fc84-4017-9483-59e593e66c02","system_id":"levelo_inurba_marseille","lat":43.24394,"lon":5.37074,"is_reserved":false,"is_disabled":true,"rental_uris":{"android":"levelo://app?vid=0cd08830-fc84-4017-9483-59e593e66c02","ios":"levelo://app?vid=0cd08830-fc84-4017-9483-59e593e66c02"},"vehicle_type_id":"4","last_reported":1747107364,"current_range_meters":20000,"station_id":"ce4bhhh2rcd13ifvqfk0","pricing_plan_id":"cebpf4jnsgd1na2vs0mg"},{"bike_id":"3161144a-408c-4586-b7ff-23edd431593d","system_id":"levelo_inurba_marseille","lat":43.28599,"lon":5.35107,"is_reserved":false,"is_disabled":true,"rental_uris":{"android":"levelo://app?vid=3161144a-408c-4586-b7ff-23edd431593d","ios":"levelo://app?vid=3161144a-408c-4586-b7ff-23edd431593d"},"vehicle_type_id":"4","last_reported":1747107364,"current_range_meters":20000,"station_id":"ce4bhch2rcd13ifvqeug","pricing_plan_id":"cebpf4jnsgd1na2vs0mg"},{"bike_id":"25c7fd20-a32b-4a5c-b3c2-a6332984f86b","system_id":"levelo_inurba_marseille","lat":43.24075,"lon":5.37753,"is_reserved":false,"is_disabled":false,"rental_uris":{"android":"levelo://app?vid=25c7fd20-a32b-4a5c-b3c2-a6332984f86b","ios":"levelo://app?vid=25c7fd20-a32b-4a5c-b3c2-a6332984f86b"},"vehicle_type_id":"4","last_reported":1747107364,"current_range_meters":20000,"station_id":"ce4bhnp2rcd13ifvqgvg","pricing_plan_id":"cebpf4jnsgd1na2vs0mg"},{"bike_id":"9e7ebd91-af82-4549-976b-c088b359c00b","system_id":"levelo_inurba_marseille","lat":43.32142,"lon":5.36739,"is_reserved":false,"is_disabled":false,"rental_uris":{"android":"levelo://app?vid=9e7ebd91-af82-4549-976b-c088b359c00b","ios":"levelo://app?vid=9e7ebd91-af82-4549-976b-c088b359c00b"},"vehicle_type_id":"4","last_reported":1747107364,"current_range_meters":20000,"station_id":"","pricing_plan_id":"cebpf4jnsgd1na2vs0mg"},{"bike_id":"8f82ac87-198d-4032-b637-99ee1ef357f0","system_id":"levelo_inurba_marseille","lat":43.245456,"lon":5.395359,"is_reserved":false,"is_disabled":false,"rental_uris":{"android":"levelo://app?vid=8f82ac87-198d-4032-b637-99ee1ef357f0","ios":"levelo://app?vid=8f82ac87-198d-4032-b637-99ee1ef357f0"},"vehicle_type_id":"4","last_reported":1747107364,"current_range_meters":20400,"station_id":"ce4bhlp2rcd13ifvqgjg","pricing_plan_id":"cebpf4jnsgd1na2vs0mg"},{"bike_id":"41a4bf39-49b2-4db9-8370-a61b5011ecbd","system_id":"levelo_inurba_marseille","lat":43.289742,"lon":5.378335,"is_reserved":false,"is_disabled":true,"rental_uris":{"android":"levelo://app?vid=41a4bf39-49b2-4db9-8370-a61b5011ecbd","ios":"levelo://app?vid=41a4bf39-49b2-4db9-8370-a61b5011ecbd"},"vehicle_type_id":"4","last_reported":1747107364,"current_range_meters":20400,"station_id":"ce4bh9p2rcd13ifvqed0","pricing_plan_id":"cebpf4jnsgd1na2vs0mg"},{"bike_id":"bb1746d7-068d-4837-bf23-ca3e2bd391fb","system_id":"levelo_inurba_marseille","lat":43.26195,"lon":5.37469,"is_reserved":false,"is_disabled":true,"rental_uris":{"android":"levelo://app?vid=bb1746d7-068d-4837-bf23-ca3e2bd391fb","ios":"levelo://app?vid=bb1746d7-068d-4837-bf23-ca3e2bd391fb"},"vehicle_type_id":"4","last_reported":1747107364,"current_range_meters":20400,"station_id":"ce4bhgp2rcd13ifvqfc0","pricing_plan_id":"cebpf4jnsgd1na2vs0mg"},{"bike_id":"9af92dc4-bf0c-4511-97d1-d2749625ccab","system_id":"levelo_inurba_marseille","lat":43.27805,"lon":5.40732,"is_reserved":false,"is_disabled":false,"rental_uris":{"android":"levelo://app?vid=9af92dc4-bf0c-4511-97d1-d2749625ccab","ios":"levelo://app?vid=9af92dc4-bf0c-4511-97d1-d2749625ccab"},"vehicle_type_id":"4","last_reported":1747107364,"current_range_meters":20400,"station_id":"ce4bhnh2rcd13ifvqgtg","pricing_plan_id":"cebpf4jnsgd1na2vs0mg"},{"bike_id":"06f6b666-3272-4904-9ae6-6342da211359","system_id":"levelo_inurba_marseille","lat":43.275705,"lon":5.38408,"is_reserved":false,"is_disabled":false,"rental_uris":{"android":"levelo://app?vid=06f6b666-3272-4904-9ae6-6342da211359","ios":"levelo://app?vid=06f6b666-3272-4904-9ae6-6342da211359"},"vehicle_type_id":"4","last_reported":1747107364,"current_range_meters":20400,"station_id":"ce4bhh92rcd13ifvqfi0","pricing_plan_id":"cebpf4jnsgd1na2vs0mg"},{"bike_id":"0344e0e8-f261-4332-b969-30800ba38c53","system_id":"levelo_inurba_marseille","lat":43.27998,"lon":5.40004,"is_reserved":false,"is_disabled":false,"rental_uris":{"android":"levelo://app?vid=0344e0e8-f261-4332-b969-30800ba38c53","ios":"levelo://app?vid=0344e0e8-f261-4332-b969-30800ba38c53"},"vehicle_type_id":"4","last_reported":1747107364,"current_range_meters":20800,"station_id":"ce4bho92rcd13ifvqh4g","pricing_plan_id":"cebpf4jnsgd1na2vs0mg"},{"bike_id":"88f527f5-cdac-4033-a7f7-7523d71e8d2b","system_id":"levelo_inurba_marseille","lat":43.313203,"lon":5.397121,"is_reserved":false,"is_disabled":false,"rental_uris":{"android":"levelo://app?vid=88f527f5-cdac-4033-a7f7-7523d71e8d2b","ios":"levelo://app?vid=88f527f5-cdac-4033-a7f7-7523d71e8d2b"},"vehicle_type_id":"4","last_reported":1747107364,"current_range_meters":21600,"station_id":"ce4bgvp2rcd13ifvqcu0","pricing_plan_id":"cebpf4jnsgd1na2vs0mg"},{"bike_id":"746d6870-f129-46ea-9cce-9733ae5747f5","system_id":"levelo_inurba_marseille","lat":43.24185,"lon":5.39721,"is_reserved":false,"is_disabled":false,"rental_uris":{"android":"levelo://app?vid=746d6870-f129-46ea-9cce-9733ae5747f5","ios":"levelo://app?vid=746d6870-f129-46ea-9cce-9733ae5747f5"},"vehicle_type_id":"4","last_reported":1747107364,"current_range_meters":21600,"station_id":"ce4bhn12rcd13ifvqgpg","pricing_plan_id":"cebpf4jnsgd1na2vs0mg"},{"bike_id":"f1651654-a33f-4e9c-8950-8a1aea49abac","system_id":"levelo_inurba_marseille","lat":43.2865,"lon":5.36146,"is_reserved":false,"is_disabled":false,"rental_uris":{"android":"levelo://app?vid=f1651654-a33f-4e9c-8950-8a1aea49abac","ios":"levelo://app?vid=f1651654-a33f-4e9c-8950-8a1aea49abac"},"vehicle_type_id":"4","last_reported":1747107364,"current_range_meters":21600,"station_id":"","pricing_plan_id":"cebpf4jnsgd1na2vs0mg"},{"bike_id":"b65fd085-9b65-46d6-ad1e-68d0a7c6954c","system_id":"levelo_inurba_marseille","lat":43.27798,"lon":5.40737,"is_reserved":false,"is_disabled":false,"rental_uris":{"android":"levelo://app?vid=b65fd085-9b65-46d6-ad1e-68d0a7c6954c","ios":"levelo://app?vid=b65fd085-9b65-46d6-ad1e-68d0a7c6954c"},"vehicle_type_id":"4","last_reported":1747107364,"current_range_meters":21600,"station_id":"ce4bhnh2rcd13ifvqgtg","pricing_plan_id":"cebpf4jnsgd1na2vs0mg"},{"bike_id":"2a8d6c84-f97c-47ac-97e8-b5252d886c6b","system_id":"levelo_inurba_marseille","lat":43.3064,"lon":5.40096,"is_reserved":false,"is_disabled":false,"rental_uris":{"android":"levelo://app?vid=2a8d6c84-f97c-47ac-97e8-b5252d886c6b","ios":"levelo://app?vid=2a8d6c84-f97c-47ac-97e8-b5252d886c6b"},"vehicle_type_id":"4","last_reported":1747107364,"current_range_meters":21600,"station_id":"ce4bh112rcd13ifvqda0","pricing_plan_id":"cebpf4jnsgd1na2vs0mg"},{"bike_id":"84951397-69e9-4cc4-a9b3-8bac0d4c150d","system_id":"levelo_inurba_marseille","lat":43.303742,"lon":5.424848,"is_reserved":false,"is_disabled":false,"rental_uris":{"android":"levelo://app?vid=84951397-69e9-4cc4-a9b3-8bac0d4c150d","ios":"levelo://app?vid=84951397-69e9-4cc4-a9b3-8bac0d4c150d"},"vehicle_type_id":"4","last_reported":1747107364,"current_range_meters":21600,"station_id":"ce4bhoh2rcd13ifvqh6g","pricing_plan_id":"cebpf4jnsgd1na2vs0mg"},{"bike_id":"0c636178-8025-443a-881d-ec35507d7129","system_id":"levelo_inurba_marseille","lat":43.24548,"lon":5.39521,"is_reserved":false,"is_disabled":false,"rental_uris":{"android":"levelo://app?vid=0c636178-8025-443a-881d-ec35507d7129","ios":"levelo://app?vid=0c636178-8025-443a-881d-ec35507d7129"},"vehicle_type_id":"4","last_reported":1747107364,"current_range_meters":21600,"station_id":"ce4bhlp2rcd13ifvqgjg","pricing_plan_id":"cebpf4jnsgd1na2vs0mg"},{"bike_id":"a6613d3f-10bf-4275-a3fe-2d2c08b0abd0","system_id":"levelo_inurba_marseille","lat":43.246485,"lon":5.388947,"is_reserved":false,"is_disabled":false,"rental_uris":{"android":"levelo://app?vid=a6613d3f-10bf-4275-a3fe-2d2c08b0abd0","ios":"levelo://app?vid=a6613d3f-10bf-4275-a3fe-2d2c08b0abd0"},"vehicle_type_id":"4","last_reported":1747107364,"current_range_meters":22000,"station_id":"ce4bhg12rcd13ifvqf60","pricing_plan_id":"cebpf4jnsgd1na2vs0mg"},{"bike_id":"fcb765b0-dea1-4e21-b961-dd2c77e80121","system_id":"levelo_inurba_marseille","lat":43.30125,"lon":5.380847,"is_reserved":false,"is_disabled":false,"rental_uris":{"android":"levelo://app?vid=fcb765b0-dea1-4e21-b961-dd2c77e80121","ios":"levelo://app?vid=fcb765b0-dea1-4e21-b961-dd2c77e80121"},"vehicle_type_id":"4","last_reported":1747107364,"current_range_meters":22000,"station_id":"ce4bgjp2rcd13ifvqbh0","pricing_plan_id":"cebpf4jnsgd1na2vs0mg"},{"bike_id":"7edae4e3-02d9-44f7-8013-99c1fec4bf3b","system_id":"levelo_inurba_marseille","lat":43.31709,"lon":5.4044,"is_reserved":false,"is_disabled":false,"rental_uris":{"android":"levelo://app?vid=7edae4e3-02d9-44f7-8013-99c1fec4bf3b","ios":"levelo://app?vid=7edae4e3-02d9-44f7-8013-99c1fec4bf3b"},"vehicle_type_id":"4","last_reported":1747107364,"current_range_meters":22000,"station_id":"ce4bh012rcd13ifvqd00","pricing_plan_id":"cebpf4jnsgd1na2vs0mg"},{"bike_id":"0a12ae31-9f3b-467f-bf3b-3e289283c812","system_id":"levelo_inurba_marseille","lat":43.307757,"lon":5.370806,"is_reserved":false,"is_disabled":true,"rental_uris":{"android":"levelo://app?vid=0a12ae31-9f3b-467f-bf3b-3e289283c812","ios":"levelo://app?vid=0a12ae31-9f3b-467f-bf3b-3e289283c812"},"vehicle_type_id":"4","last_reported":1747107364,"current_range_meters":22000,"station_id":"","pricing_plan_id":"cebpf4jnsgd1na2vs0mg"},{"bike_id":"a1811688-68e4-477a-bc8b-271e96fe4451","system_id":"levelo_inurba_marseille","lat":43.29032,"lon":5.38595,"is_reserved":false,"is_disabled":true,"rental_uris":{"android":"levelo://app?vid=a1811688-68e4-477a-bc8b-271e96fe4451","ios":"levelo://app?vid=a1811688-68e4-477a-bc8b-271e96fe4451"},"vehicle_type_id":"4","last_reported":1747107364,"current_range_meters":22400,"station_id":"ce4bh4p2rcd13ifvqe0g","pricing_plan_id":"cebpf4jnsgd1na2vs0mg"},{"bike_id":"2e9a1bb6-b9ff-4e0b-be40-2437411ffe1f","system_id":"levelo_inurba_marseille","lat":43.30653,"lon":5.40084,"is_reserved":false,"is_disabled":false,"rental_uris":{"android":"levelo://app?vid=2e9a1bb6-b9ff-4e0b-be40-2437411ffe1f","ios":"levelo://app?vid=2e9a1bb6-b9ff-4e0b-be40-2437411ffe1f"},"vehicle_type_id":"4","last_reported":1747107364,"current_range_meters":22400,"station_id":"ce4bh112rcd13ifvqda0","pricing_plan_id":"cebpf4jnsgd1na2vs0mg"},{"bike_id":"48a8b53a-5cd4-449c-b6b6-ea36e619d6c5","system_id":"levelo_inurba_marseille","lat":43.313314,"lon":5.397028,"is_reserved":false,"is_disabled":false,"rental_uris":{"android":"levelo://app?vid=48a8b53a-5cd4-449c-b6b6-ea36e619d6c5","ios":"levelo://app?vid=48a8b53a-5cd4-449c-b6b6-ea36e619d6c5"},"vehicle_type_id":"4","last_reported":1747107364,"current_range_meters":22400,"station_id":"ce4bgvp2rcd13ifvqcu0","pricing_plan_id":"cebpf4jnsgd1na2vs0mg"},{"bike_id":"74dda79f-dee3-4dd9-b119-1c599b4adee2","system_id":"levelo_inurba_marseille","lat":43.26954,"lon":5.38646,"is_reserved":false,"is_disabled":false,"rental_uris":{"android":"levelo://app?vid=74dda79f-dee3-4dd9-b119-1c599b4adee2","ios":"levelo://app?vid=74dda79f-dee3-4dd9-b119-1c599b4adee2"},"vehicle_type_id":"4","last_reported":1747107364,"current_range_meters":22800,"station_id":"ce4bhh92rcd13ifvqfh0","pricing_plan_id":"cebpf4jnsgd1na2vs0mg"},{"bike_id":"8e75da86-6032-4e55-9cbb-6493ed73b892","system_id":"levelo_inurba_marseille","lat":43.30147,"lon":5.38084,"is_reserved":false,"is_disabled":false,"rental_uris":{"android":"levelo://app?vid=8e75da86-6032-4e55-9cbb-6493ed73b892","ios":"levelo://app?vid=8e75da86-6032-4e55-9cbb-6493ed73b892"},"vehicle_type_id":"4","last_reported":1747107364,"current_range_meters":22800,"station_id":"ce4bgjp2rcd13ifvqbh0","pricing_plan_id":"cebpf4jnsgd1na2vs0mg"},{"bike_id":"826bf119-1c58-48f4-beaa-beb27f28239d","system_id":"levelo_inurba_marseille","lat":43.30151,"lon":5.3808,"is_reserved":false,"is_disabled":false,"rental_uris":{"android":"levelo://app?vid=826bf119-1c58-48f4-beaa-beb27f28239d","ios":"levelo://app?vid=826bf119-1c58-48f4-beaa-beb27f28239d"},"vehicle_type_id":"4","last_reported":1747107364,"current_range_meters":22800,"station_id":"ce4bgjp2rcd13ifvqbh0","pricing_plan_id":"cebpf4jnsgd1na2vs0mg"},{"bike_id":"13f23f22-878f-4513-a985-79b027048394","system_id":"levelo_inurba_marseille","lat":43.28436,"lon":5.35916,"is_reserved":false,"is_disabled":false,"rental_uris":{"android":"levelo://app?vid=13f23f22-878f-4513-a985-79b027048394","ios":"levelo://app?vid=13f23f22-878f-4513-a985-79b027048394"},"vehicle_type_id":"4","last_reported":1747107364,"current_range_meters":23200,"station_id":"ce4bhah2rcd13ifvqei0","pricing_plan_id":"cebpf4jnsgd1na2vs0mg"},{"bike_id":"53c2c5b1-547e-454a-9252-c33846187b27","system_id":"levelo_inurba_marseille","lat":43.32351,"lon":5.40605,"is_reserved":false,"is_disabled":false,"rental_uris":{"android":"levelo://app?vid=53c2c5b1-547e-454a-9252-c33846187b27","ios":"levelo://app?vid=53c2c5b1-547e-454a-9252-c33846187b27"},"vehicle_type_id":"4","last_reported":1747107364,"current_range_meters":23200,"station_id":"ce4bhq92rcd13ifvqhjg","pricing_plan_id":"cebpf4jnsgd1na2vs0mg"},{"bike_id":"42a87d09-2752-4ffe-952d-d97641d46755","system_id":"levelo_inurba_marseille","lat":43.30649,"lon":5.40095,"is_reserved":false,"is_disabled":false,"rental_uris":{"android":"levelo://app?vid=42a87d09-2752-4ffe-952d-d97641d46755","ios":"levelo://app?vid=42a87d09-2752-4ffe-952d-d97641d46755"},"vehicle_type_id":"4","last_reported":1747107364,"current_range_meters":23200,"station_id":"ce4bh112rcd13ifvqda0","pricing_plan_id":"cebpf4jnsgd1na2vs0mg"},{"bike_id":"d6827c15-a9b9-471d-a8db-15e4478d7960","system_id":"levelo_inurba_marseille","lat":43.28692,"lon":5.37384,"is_reserved":false,"is_disabled":false,"rental_uris":{"android":"levelo://app?vid=d6827c15-a9b9-471d-a8db-15e4478d7960","ios":"levelo://app?vid=d6827c15-a9b9-471d-a8db-15e4478d7960"},"vehicle_type_id":"4","last_reported":1747107364,"current_range_meters":23200,"station_id":"ce4bh3p2rcd13ifvqdq0","pricing_plan_id":"cebpf4jnsgd1na2vs0mg"},{"bike_id":"398d8bf1-3fb0-4d52-b3f7-ca477dcd5f3e","system_id":"levelo_inurba_marseille","lat":43.29519,"lon":5.39402,"is_reserved":false,"is_disabled":false,"rental_uris":{"android":"levelo://app?vid=398d8bf1-3fb0-4d52-b3f7-ca477dcd5f3e","ios":"levelo://app?vid=398d8bf1-3fb0-4d52-b3f7-ca477dcd5f3e"},"vehicle_type_id":"4","last_reported":1747107364,"current_range_meters":23200,"station_id":"ce4bh292rcd13ifvqdf0","pricing_plan_id":"cebpf4jnsgd1na2vs0mg"},{"bike_id":"b963eb7d-609a-45f1-bafd-6ea623ae7fbf","system_id":"levelo_inurba_marseille","lat":43.28124,"lon":5.42671,"is_reserved":false,"is_disabled":false,"rental_uris":{"android":"levelo://app?vid=b963eb7d-609a-45f1-bafd-6ea623ae7fbf","ios":"levelo://app?vid=b963eb7d-609a-45f1-bafd-6ea623ae7fbf"},"vehicle_type_id":"4","last_reported":1747107364,"current_range_meters":23200,"station_id":"ce4bhnh2rcd13ifvqgug","pricing_plan_id":"cebpf4jnsgd1na2vs0mg"},{"bike_id":"5647a91f-31a6-41fb-82bb-83893a94fc73","system_id":"levelo_inurba_marseille","lat":43.21184,"lon":5.35088,"is_reserved":false,"is_disabled":false,"rental_uris":{"android":"levelo://app?vid=5647a91f-31a6-41fb-82bb-83893a94fc73","ios":"levelo://app?vid=5647a91f-31a6-41fb-82bb-83893a94fc73"},"vehicle_type_id":"4","last_reported":1747107364,"current_range_meters":24000,"station_id":"st_cvj6sg6p6f1abm77japg","pricing_plan_id":"cebpf4jnsgd1na2vs0mg"},{"bike_id":"a55a8e89-7507-44c1-8a58-75c7621a3117","system_id":"levelo_inurba_marseille","lat":43.24063,"lon":5.37787,"is_reserved":false,"is_disabled":false,"rental_uris":{"android":"levelo://app?vid=a55a8e89-7507-44c1-8a58-75c7621a3117","ios":"levelo://app?vid=a55a8e89-7507-44c1-8a58-75c7621a3117"},"vehicle_type_id":"4","last_reported":1747107364,"current_range_meters":24000,"station_id":"ce4bhnp2rcd13ifvqgvg","pricing_plan_id":"cebpf4jnsgd1na2vs0mg"},{"bike_id":"312cf0fa-89c7-41e2-ab6c-83d3c271172c","system_id":"levelo_inurba_marseille","lat":43.316948,"lon":5.404561,"is_reserved":false,"is_disabled":false,"rental_uris":{"android":"levelo://app?vid=312cf0fa-89c7-41e2-ab6c-83d3c271172c","ios":"levelo://app?vid=312cf0fa-89c7-41e2-ab6c-83d3c271172c"},"vehicle_type_id":"4","last_reported":1747107364,"current_range_meters":24000,"station_id":"ce4bh012rcd13ifvqd00","pricing_plan_id":"cebpf4jnsgd1na2vs0mg"},{"bike_id":"0b4e5f96-d776-4db8-8a8a-9cb155766ad1","system_id":"levelo_inurba_marseille","lat":43.291989,"lon":5.393135,"is_reserved":false,"is_disabled":false,"rental_uris":{"android":"levelo://app?vid=0b4e5f96-d776-4db8-8a8a-9cb155766ad1","ios":"levelo://app?vid=0b4e5f96-d776-4db8-8a8a-9cb155766ad1"},"vehicle_type_id":"4","last_reported":1747107364,"current_range_meters":24000,"station_id":"ce4bh192rcd13ifvqdd0","pricing_plan_id":"cebpf4jnsgd1na2vs0mg"},{"bike_id":"122d19df-7ece-499b-be36-5b90e232caeb","system_id":"levelo_inurba_marseille","lat":43.30953,"lon":5.40139,"is_reserved":false,"is_disabled":false,"rental_uris":{"android":"levelo://app?vid=122d19df-7ece-499b-be36-5b90e232caeb","ios":"levelo://app?vid=122d19df-7ece-499b-be36-5b90e232caeb"},"vehicle_type_id":"4","last_reported":1747107364,"current_range_meters":24000,"station_id":"ce4bgvp2rcd13ifvqct0","pricing_plan_id":"cebpf4jnsgd1na2vs0mg"},{"bike_id":"3ea93f15-db04-4894-a901-ee3874ff2ab2","system_id":"levelo_inurba_marseille","lat":43.28335,"lon":5.38113,"is_reserved":false,"is_disabled":false,"rental_uris":{"android":"levelo://app?vid=3ea93f15-db04-4894-a901-ee3874ff2ab2","ios":"levelo://app?vid=3ea93f15-db04-4894-a901-ee3874ff2ab2"},"vehicle_type_id":"4","last_reported":1747107364,"current_range_meters":24000,"station_id":"ce4bh412rcd13ifvqdr0","pricing_plan_id":"cebpf4jnsgd1na2vs0mg"},{"bike_id":"77b5d70d-51ce-4b88-9584-9cc538b94021","system_id":"levelo_inurba_marseille","lat":43.31062,"lon":5.38346,"is_reserved":false,"is_disabled":false,"rental_uris":{"android":"levelo://app?vid=77b5d70d-51ce-4b88-9584-9cc538b94021","ios":"levelo://app?vid=77b5d70d-51ce-4b88-9584-9cc538b94021"},"vehicle_type_id":"4","last_reported":1747107364,"current_range_meters":24000,"station_id":"ce4bgv92rcd13ifvqcr0","pricing_plan_id":"cebpf4jnsgd1na2vs0mg"},{"bike_id":"899fa6ca-8fac-4775-a022-ab48a2f4e3c5","system_id":"levelo_inurba_marseille","lat":43.24678,"lon":5.38137,"is_reserved":false,"is_disabled":false,"rental_uris":{"android":"levelo://app?vid=899fa6ca-8fac-4775-a022-ab48a2f4e3c5","ios":"levelo://app?vid=899fa6ca-8fac-4775-a022-ab48a2f4e3c5"},"vehicle_type_id":"4","last_reported":1747107364,"current_range_meters":24000,"station_id":"ce4bhih2rcd13ifvqfr0","pricing_plan_id":"cebpf4jnsgd1na2vs0mg"},{"bike_id":"0a8ca5c2-40f2-4245-9b84-8e8cc11c2ffd","system_id":"levelo_inurba_marseille","lat":43.26088,"lon":5.39357,"is_reserved":false,"is_disabled":true,"rental_uris":{"android":"levelo://app?vid=0a8ca5c2-40f2-4245-9b84-8e8cc11c2ffd","ios":"levelo://app?vid=0a8ca5c2-40f2-4245-9b84-8e8cc11c2ffd"},"vehicle_type_id":"4","last_reported":1747107364,"current_range_meters":24000,"station_id":"ce4bhh92rcd13ifvqfj0","pricing_plan_id":"cebpf4jnsgd1na2vs0mg"},{"bike_id":"00f5910a-85fe-4277-94b8-7c8bc5f3d78f","system_id":"levelo_inurba_marseille","lat":43.29574,"lon":5.42264,"is_reserved":false,"is_disabled":false,"rental_uris":{"android":"levelo://app?vid=00f5910a-85fe-4277-94b8-7c8bc5f3d78f","ios":"levelo://app?vid=00f5910a-85fe-4277-94b8-7c8bc5f3d78f"},"vehicle_type_id":"4","last_reported":1747107364,"current_range_meters":24400,"station_id":"ce4bhph2rcd13ifvqhdg","pricing_plan_id":"cebpf4jnsgd1na2vs0mg"},{"bike_id":"8deafdb0-b72e-42a8-9144-f28ecef9389d","system_id":"levelo_inurba_marseille","lat":43.321083,"lon":5.367366,"is_reserved":false,"is_disabled":false,"rental_uris":{"android":"levelo://app?vid=8deafdb0-b72e-42a8-9144-f28ecef9389d","ios":"levelo://app?vid=8deafdb0-b72e-42a8-9144-f28ecef9389d"},"vehicle_type_id":"4","last_reported":1747107364,"current_range_meters":24400,"station_id":"ce4bhrh2rcd13ifvqhug","pricing_plan_id":"cebpf4jnsgd1na2vs0mg"},{"bike_id":"93362b3f-2597-4629-a6d9-baa2de57db56","system_id":"levelo_inurba_marseille","lat":43.295096,"lon":5.39402,"is_reserved":false,"is_disabled":true,"rental_uris":{"android":"levelo://app?vid=93362b3f-2597-4629-a6d9-baa2de57db56","ios":"levelo://app?vid=93362b3f-2597-4629-a6d9-baa2de57db56"},"vehicle_type_id":"4","last_reported":1747107364,"current_range_meters":24400,"station_id":"ce4bh292rcd13ifvqdf0","pricing_plan_id":"cebpf4jnsgd1na2vs0mg"},{"bike_id":"6a823f1a-6318-4c59-8ef1-0310574389dd","system_id":"levelo_inurba_marseille","lat":43.29569,"lon":5.39978,"is_reserved":false,"is_disabled":false,"rental_uris":{"android":"levelo://app?vid=6a823f1a-6318-4c59-8ef1-0310574389dd","ios":"levelo://app?vid=6a823f1a-6318-4c59-8ef1-0310574389dd"},"vehicle_type_id":"4","last_reported":1747107364,"current_range_meters":24400,"station_id":"ce4bh312rcd13ifvqdj0","pricing_plan_id":"cebpf4jnsgd1na2vs0mg"},{"bike_id":"4b4f43df-c7db-40bd-9557-85ea4cf25b78","system_id":"levelo_inurba_marseille","lat":43.32056,"lon":5.41544,"is_reserved":false,"is_disabled":false,"rental_uris":{"android":"levelo://app?vid=4b4f43df-c7db-40bd-9557-85ea4cf25b78","ios":"levelo://app?vid=4b4f43df-c7db-40bd-9557-85ea4cf25b78"},"vehicle_type_id":"4","last_reported":1747107364,"current_range_meters":24000,"station_id":"ce4bhq92rcd13ifvqhkg","pricing_plan_id":"cebpf4jnsgd1na2vs0mg"},{"bike_id":"856edd1c-41fa-4163-ac94-3c5b1ee3b929","system_id":"levelo_inurba_marseille","lat":43.27384,"lon":5.36248,"is_reserved":false,"is_disabled":true,"rental_uris":{"android":"levelo://app?vid=856edd1c-41fa-4163-ac94-3c5b1ee3b929","ios":"levelo://app?vid=856edd1c-41fa-4163-ac94-3c5b1ee3b929"},"vehicle_type_id":"4","last_reported":1747107364,"current_range_meters":24400,"station_id":"ce4bhbh2rcd13ifvqeo0","pricing_plan_id":"cebpf4jnsgd1na2vs0mg"},{"bike_id":"aa9a901d-2a7e-41ed-97e8-9ff553b5fe0f","system_id":"levelo_inurba_marseille","lat":43.306445,"lon":5.400599,"is_reserved":false,"is_disabled":false,"rental_uris":{"android":"levelo://app?vid=aa9a901d-2a7e-41ed-97e8-9ff553b5fe0f","ios":"levelo://app?vid=aa9a901d-2a7e-41ed-97e8-9ff553b5fe0f"},"vehicle_type_id":"4","last_reported":1747107364,"current_range_meters":24400,"station_id":"ce4bh112rcd13ifvqda0","pricing_plan_id":"cebpf4jnsgd1na2vs0mg"},{"bike_id":"1473dded-ea4a-40d1-94d9-615cf1e91983","system_id":"levelo_inurba_marseille","lat":43.285663,"lon":5.395071,"is_reserved":false,"is_disabled":false,"rental_uris":{"android":"levelo://app?vid=1473dded-ea4a-40d1-94d9-615cf1e91983","ios":"levelo://app?vid=1473dded-ea4a-40d1-94d9-615cf1e91983"},"vehicle_type_id":"4","last_reported":1747107364,"current_range_meters":24400,"station_id":"ce4bh292rcd13ifvqdg0","pricing_plan_id":"cebpf4jnsgd1na2vs0mg"},{"bike_id":"fbe1a290-f52f-439e-b97c-04f5045931d7","system_id":"levelo_inurba_marseille","lat":43.281514,"lon":5.426566,"is_reserved":false,"is_disabled":false,"rental_uris":{"android":"levelo://app?vid=fbe1a290-f52f-439e-b97c-04f5045931d7","ios":"levelo://app?vid=fbe1a290-f52f-439e-b97c-04f5045931d7"},"vehicle_type_id":"4","last_reported":1747107364,"current_range_meters":24400,"station_id":"ce4bhnh2rcd13ifvqgug","pricing_plan_id":"cebpf4jnsgd1na2vs0mg"},{"bike_id":"18556955-6e5e-44de-8de6-34b971734618","system_id":"levelo_inurba_marseille","lat":43.321096,"lon":5.367875,"is_reserved":false,"is_disabled":false,"rental_uris":{"android":"levelo://app?vid=18556955-6e5e-44de-8de6-34b971734618","ios":"levelo://app?vid=18556955-6e5e-44de-8de6-34b971734618"},"vehicle_type_id":"4","last_reported":1747107364,"current_range_meters":24800,"station_id":"ce4bhrh2rcd13ifvqhug","pricing_plan_id":"cebpf4jnsgd1na2vs0mg"},