{"last_updated":1740190059,"ttl":60,"version":"2.2","data":{"bikes":[{"bike_id":"0678fc45-2e8f-4d6c-b5ef-9bf98b101231","system_id":"levelo_inurba_marseille","lat":43.30156,"lon":5.38088,"is_reserved":false,"is_disabled":false,"rental_uris":{"android":"levelo://app?vid=0678fc45-2e8f-4d6c-b5ef-9bf98b101231","ios":"levelo://app?vid=0678fc45-2e8f-4d6c-b5ef-9bf98b101231"},"vehicle_type_id":"4","last_reported":1740190060,"current_range_meters":2800,"station_id":"ce4bgjp2rcd13ifvqbh0","pricing_plan_id":"cebpf4jnsgd1na2vs0mg"},{"bike_id":"6f4e1524-4b8c-4c11-8ada-c33a2e79163c","system_id":"levelo_inurba_marseille","lat":43.27959,"lon":5.41047,"is_reserved":false,"is_disabled":true,"rental_uris":{"android":"levelo://app?vid=6f4e1524-4b8c-4c11-8ada-c33a2e79163c","ios":"levelo://app?vid=6f4e1524-4b8c-4c11-8ada-c33a2e79163c"},"vehicle_type_id":"4","last_reported":1740190060,"current_range_meters":2800,"station_id":"ce4bhnp2rcd13ifvqh0g","pricing_plan_id":"cebpf4jnsgd1na2vs0mg"},{"bike_id":"285ccd4c-0130-46f9-a183-57b828c16330","system_id":"levelo_inurba_marseille","lat":43.32333,"lon":5.40616,"is_reserved":false,"is_disabled":false,"rental_uris":{"android":"levelo://app?vid=285ccd4c-0130-46f9-a183-57b828c16330","ios":"levelo://app?vid=285ccd4c-0130-46f9-a183-57b828c16330"},"vehicle_type_id":"4","last_reported":1740190060,"current_range_meters":3600,"station_id":"ce4bhq92rcd13ifvqhjg","pricing_plan_id":"cebpf4jnsgd1na2vs0mg"},{"bike_id":"a6b34bca-534f-409f-a289-1906c68eca80","system_id":"levelo_inurba_marseille","lat":43.29964,"lon":5.38505,"is_reserved":false,"is_disabled":true,"rental_uris":{"android":"levelo://app?vid=a6b34bca-534f-409f-a289-1906c68eca80","ios":"levelo://app?vid=a6b34bca-534f-409f-a289-1906c68eca80"},"vehicle_type_id":"4","last_reported":1740190060,"current_range_meters":4000,"station_id":"ce4bgj92rcd13ifvqbd0","pricing_plan_id":"cebpf4jnsgd1na2vs0mg"},{"bike_id":"b293aac4-ec1d-45dd-b36e-053066281b9a","system_id":"levelo_inurba_marseille","lat":43.28459,"lon":5.35884,"is_reserved":false,"is_disabled":false,"rental_uris":{"android":"levelo://app?vid=b293aac4-ec1d-45dd-b36e-053066281b9a","ios":"levelo://app?vid=b293aac4-ec1d-45dd-b36e-053066281b9a"},"vehicle_type_id":"4","last_reported":1740190060,"current_range_meters":4400,"station_id":"ce4bhah2rcd13ifvqei0","pricing_plan_id":"cebpf4jnsgd1na2vs0mg"},{"bike_id":"f6d43353-41fa-4935-a540-5cd66db2ebd3","system_id":"levelo_inurba_marseille","lat":43.31176,"lon":5.38713,"is_reserved":false,"is_disabled":false,"rental_uris":{"android":"levelo://app?vid=f6d43353-41fa-4935-a540-5cd66db2ebd3","ios":"levelo://app?vid=f6d43353-41fa-4935-a540-5cd66db2ebd3"},"vehicle_type_id":"4","last_reported":1740190060,"current_range_meters":4400,"station_id":"ce4bgv12rcd13ifvqcp0","pricing_plan_id":"cebpf4jnsgd1na2vs0mg"},{"bike_id":"39480ab9-a45b-4567-a971-62d05e2d199b","system_id":"levelo_inurba_marseille","lat":43.30212,"lon":5.39463,"is_reserved":false,"is_disabled":false,"rental_uris":{"android":"levelo://app?vid=39480ab9-a45b-4567-a971-62d05e2d199b","ios":"levelo://app?vid=39480ab9-a45b-4567-a971-62d05e2d199b"},"vehicle_type_id":"4","last_reported":1740190060,"current_range_meters":4400,"station_id":"ce4bh0p2rcd13ifvqd70","pricing_plan_id":"cebpf4jnsgd1na2vs0mg"},{"bike_id":"419b4ccf-9337-4dc9-9409-111b92134d45","system_id":"levelo_inurba_marseille","lat":43.26207,"lon":5.37443,"is_reserved":false,"is_disabled":true,"rental_uris":{"android":"levelo://app?vid=419b4ccf-9337-4dc9-9409-111b92134d45","ios":"levelo://app?vid=419b4ccf-9337-4dc9-9409-111b92134d45"},"vehicle_type_id":"4","last_reported":1740190060,"current_range_meters":4800,"station_id":"ce4bhgp2rcd13ifvqfc0","pricing_plan_id":"cebpf4jnsgd1na2vs0mg"},{"bike_id":"b64524a7-6713-4015-aea3-fadffa897151","system_id":"levelo_inurba_marseille","lat":43.29629,"lon":5.406,"is_reserved":false,"is_disabled":false,"rental_uris":{"android":"levelo://app?vid=b64524a7-6713-4015-aea3-fadffa897151","ios":"levelo://app?vid=b64524a7-6713-4015-aea3-fadffa897151"},"vehicle_type_id":"4","last_reported":1740190060,"current_range_meters":4800,"station_id":"ce4bh0h2rcd13ifvqd60","pricing_plan_id":"cebpf4jnsgd1na2vs0mg"},{"bike_id":"9d5b8fa3-06e6-4d69-a5c4-74d042560aab","system_id":"levelo_inurba_marseille","lat":43.30888,"lon":5.37193,"is_reserved":false,"is_disabled":false,"rental_uris":{"android":"levelo://app?vid=9d5b8fa3-06e6-4d69-a5c4-74d042560aab","ios":"levelo://app?vid=9d5b8fa3-06e6-4d69-a5c4-74d042560aab"},"vehicle_type_id":"4","last_reported":1740190060,"current_range_meters":5600,"station_id":"ce4bguh2rcd13ifvqckg","pricing_plan_id":"cebpf4jnsgd1na2vs0mg"},{"bike_id":"2b79b3a7-5b74-49f4-bb58-5d5397f748f9","system_id":"levelo_inurba_marseille","lat":43.25009,"lon":5.38917,"is_reserved":false,"is_disabled":true,"rental_uris":{"android":"levelo://app?vid=2b79b3a7-5b74-49f4-bb58-5d5397f748f9","ios":"levelo://app?vid=2b79b3a7-5b74-49f4-bb58-5d5397f748f9"},"vehicle_type_id":"4","last_reported":1740190060,"current_range_meters":5600,"station_id":"ce4bhgp2rcd13ifvqfd0","pricing_plan_id":"cebpf4jnsgd1na2vs0mg"},{"bike_id":"ebac7552-a313-46d9-8ed6-57d579dcb369","system_id":"levelo_inurba_marseille","lat":43.28384,"lon":5.37484,"is_reserved":false,"is_disabled":false,"rental_uris":{"android":"levelo://app?vid=ebac7552-a313-46d9-8ed6-57d579dcb369","ios":"levelo://app?vid=ebac7552-a313-46d9-8ed6-57d579dcb369"},"vehicle_type_id":"4","last_reported":1740190060,"current_range_meters":5600,"station_id":"ce4bh412rcd13ifvqds0","pricing_plan_id":"cebpf4jnsgd1na2vs0mg"},{"bike_id":"4c87352b-e4ee-4aa9-b24f-9d6ccdea13e6","system_id":"levelo_inurba_marseille","lat":43.25088,"lon":5.39493,"is_reserved":false,"is_disabled":false,"rental_uris":{"android":"levelo://app?vid=4c87352b-e4ee-4aa9-b24f-9d6ccdea13e6","ios":"levelo://app?vid=4c87352b-e4ee-4aa9-b24f-9d6ccdea13e6"},"vehicle_type_id":"4","last_reported":1740190060,"current_range_meters":6000,"station_id":"ce4bhm12rcd13ifvqgkg","pricing_plan_id":"cebpf4jnsgd1na2vs0mg"},{"bike_id":"350202bf-5272-4b25-8012-1b5e3cc2c139","system_id":"levelo_inurba_marseille","lat":43.31222,"lon":5.3727,"is_reserved":false,"is_disabled":false,"rental_uris":{"android":"levelo://app?vid=350202bf-5272-4b25-8012-1b5e3cc2c139","ios":"levelo://app?vid=350202bf-5272-4b25-8012-1b5e3cc2c139"},"vehicle_type_id":"4","last_reported":1740190060,"current_range_meters":6000,"station_id":"","pricing_plan_id":"cebpf4jnsgd1na2vs0mg"},{"bike_id":"0b34320f-1530-4fcc-86f4-70d2a5ac39d6","system_id":"levelo_inurba_marseille","lat":43.27065,"lon":5.40234,"is_reserved":false,"is_disabled":false,"rental_uris":{"android":"levelo://app?vid=0b34320f-1530-4fcc-86f4-70d2a5ac39d6","ios":"levelo://app?vid=0b34320f-1530-4fcc-86f4-70d2a5ac39d6"},"vehicle_type_id":"4","last_reported":1740190060,"current_range_meters":6000,"station_id":"ce4bhk92rcd13ifvqgc0","pricing_plan_id":"cebpf4jnsgd1na2vs0mg"},{"bike_id":"6b6e1059-5264-45b9-9cb9-d24cf5205f2a","system_id":"levelo_inurba_marseille","lat":43.23971,"lon":5.36647,"is_reserved":false,"is_disabled":true,"rental_uris":{"android":"levelo://app?vid=6b6e1059-5264-45b9-9cb9-d24cf5205f2a","ios":"levelo://app?vid=6b6e1059-5264-45b9-9cb9-d24cf5205f2a"},"vehicle_type_id":"4","last_reported":1740190060,"current_range_meters":6400,"station_id":"","pricing_plan_id":"cebpf4jnsgd1na2vs0mg"},{"bike_id":"285f776a-6c37-4c62-8123-b9120720ec65","system_id":"levelo_inurba_marseille","lat":43.24774,"lon":5.39043,"is_reserved":false,"is_disabled":false,"rental_uris":{"android":"levelo://app?vid=285f776a-6c37-4c62-8123-b9120720ec65","ios":"levelo://app?vid=285f776a-6c37-4c62-8123-b9120720ec65"},"vehicle_type_id":"4","last_reported":1740190060,"current_range_meters":6400,"station_id":"","pricing_plan_id":"cebpf4jnsgd1na2vs0mg"},{"bike_id":"c932c621-5078-4e75-8542-c261dbfc18f7","system_id":"levelo_inurba_marseille","lat":43.27933,"lon":5.4106,"is_reserved":false,"is_disabled":false,"rental_uris":{"android":"levelo://app?vid=c932c621-5078-4e75-8542-c261dbfc18f7","ios":"levelo://app?vid=c932c621-5078-4e75-8542-c261dbfc18f7"},"vehicle_type_id":"4","last_reported":1740190060,"current_range_meters":6400,"station_id":"ce4bhnp2rcd13ifvqh0g","pricing_plan_id":"cebpf4jnsgd1na2vs0mg"},{"bike_id":"c91b3ee2-44d4-427e-ba0b-de9b5f47f5ea","system_id":"levelo_inurba_marseille","lat":43.30881,"lon":5.37191,"is_reserved":false,"is_disabled":false,"rental_uris":{"android":"levelo://app?vid=c91b3ee2-44d4-427e-ba0b-de9b5f47f5ea","ios":"levelo://app?vid=c91b3ee2-44d4-427e-ba0b-de9b5f47f5ea"},"vehicle_type_id":"4","last_reported":1740190060,"current_range_meters":6800,"station_id":"ce4bguh2rcd13ifvqckg","pricing_plan_id":"cebpf4jnsgd1na2vs0mg"},{"bike_id":"4bead99d-197d-4ba0-a20e-7f5fe83ce021","system_id":"levelo_inurba_marseille","lat":43.25103,"lon":5.40327,"is_reserved":false,"is_disabled":false,"rental_uris":{"android":"levelo://app?vid=4bead99d-197d-4ba0-a20e-7f5fe83ce021","ios":"levelo://app?vid=4bead99d-197d-4ba0-a20e-7f5fe83ce021"},"vehicle_type_id":"4","last_reported":1740190060,"current_range_meters":6800,"station_id":"ce4bhlh2rcd13ifvqgig","pricing_plan_id":"cebpf4jnsgd1na2vs0mg"},{"bike_id":"9b657097-6d50-493a-a91f-1e2b4f0d3321","system_id":"levelo_inurba_marseille","lat":43.27911,"lon":5.39582,"is_reserved":false,"is_disabled":false,"rental_uris":{"android":"levelo://app?vid=9b657097-6d50-493a-a91f-1e2b4f0d3321","ios":"levelo://app?vid=9b657097-6d50-493a-a91f-1e2b4f0d3321"},"vehicle_type_id":"4","last_reported":1740190060,"current_range_meters":6800,"station_id":"ce4bhf92rcd13ifvqf40","pricing_plan_id":"cebpf4jnsgd1na2vs0mg"},{"bike_id":"2c01f343-3f49-4b0e-a699-a10894e0de7d","system_id":"levelo_inurba_marseille","lat":43.28146,"lon":5.42642,"is_reserved":false,"is_disabled":false,"rental_uris":{"android":"levelo://app?vid=2c01f343-3f49-4b0e-a699-a10894e0de7d","ios":"levelo://app?vid=2c01f343-3f49-4b0e-a699-a10894e0de7d"},"vehicle_type_id":"4","last_reported":1740190060,"current_range_meters":6800,"station_id":"ce4bhnh2rcd13ifvqgug","pricing_plan_id":"cebpf4jnsgd1na2vs0mg"},{"bike_id":"2e8521de-4b17-4165-9acc-0225ff96fcdb","system_id":"levelo_inurba_marseille","lat":43.28419,"lon":5.37513,"is_reserved":false,"is_disabled":false,"rental_uris":{"android":"levelo://app?vid=2e8521de-4b17-4165-9acc-0225ff96fcdb","ios":"levelo://app?vid=2e8521de-4b17-4165-9acc-0225ff96fcdb"},"vehicle_type_id":"4","last_reported":1740190060,"current_range_meters":6800,"station_id":"ce4bh412rcd13ifvqds0","pricing_plan_id":"cebpf4jnsgd1na2vs0mg"},{"bike_id":"65c71757-2db4-4c2c-8376-cdad3ad25014","system_id":"levelo_inurba_marseille","lat":43.30149,"lon":5.39892,"is_reserved":false,"is_disabled":false,"rental_uris":{"android":"levelo://app?vid=65c71757-2db4-4c2c-8376-cdad3ad25014","ios":"levelo://app?vid=65c71757-2db4-4c2c-8376-cdad3ad25014"},"vehicle_type_id":"4","last_reported":1740190060,"current_range_meters":6800,"station_id":"ce4bh0h2rcd13ifvqd40","pricing_plan_id":"cebpf4jnsgd1na2vs0mg"},{"bike_id":"d2cb6fb4-70b5-4bb1-8fdb-58651e619996","system_id":"levelo_inurba_marseille","lat":43.28407,"lon":5.37507,"is_reserved":false,"is_disabled":false,"rental_uris":{"android":"levelo://app?vid=d2cb6fb4-70b5-4bb1-8fdb-58651e619996","ios":"levelo://app?vid=d2cb6fb4-70b5-4bb1-8fdb-58651e619996"},"vehicle_type_id":"4","last_reported":1740190060,"current_range_meters":6800,"station_id":"ce4bh412rcd13ifvqds0","pricing_plan_id":"cebpf4jnsgd1na2vs0mg"},{"bike_id":"b45ab281-2ffb-4786-bbfb-31f4db8658f9","system_id":"levelo_inurba_marseille","lat":43.26579,"lon":5.3905,"is_reserved":false,"is_disabled":false,"rental_uris":{"android":"levelo://app?vid=b45ab281-2ffb-4786-bbfb-31f4db8658f9","ios":"levelo://app?vid=b45ab281-2ffb-4786-bbfb-31f4db8658f9"},"vehicle_type_id":"4","last_reported":1740190060,"current_range_meters":7200,"station_id":"ce4bhe12rcd13ifvqf30","pricing_plan_id":"cebpf4jnsgd1na2vs0mg"},{"bike_id":"0584e728-54f2-4eca-887e-fe95607e016b","system_id":"levelo_inurba_marseille","lat":43.28268,"lon":5.3508,"is_reserved":false,"is_disabled":false,"rental_uris":{"android":"levelo://app?vid=0584e728-54f2-4eca-887e-fe95607e016b","ios":"levelo://app?vid=0584e728-54f2-4eca-887e-fe95607e016b"},"vehicle_type_id":"4","last_reported":1740190060,"current_range_meters":7200,"station_id":"ce4bhbp2rcd13ifvqerg","pricing_plan_id":"cebpf4jnsgd1na2vs0mg"},{"bike_id":"e6b3adbc-9d3e-4a9a-aaef-5b9015925024","system_id":"levelo_inurba_marseille","lat":43.31123,"lon":5.3776,"is_reserved":false,"is_disabled":false,"rental_uris":{"android":"levelo://app?vid=e6b3adbc-9d3e-4a9a-aaef-5b9015925024","ios":"levelo://app?vid=e6b3adbc-9d3e-4a9a-aaef-5b9015925024"},"vehicle_type_id":"4","last_reported":1740190060,"current_range_meters":7200,"station_id":"ce4bgt92rcd13ifvqcg0","pricing_plan_id":"cebpf4jnsgd1na2vs0mg"},{"bike_id":"7c5289cb-0b42-4bee-9961-0cc3ccb86bfe","system_id":"levelo_inurba_marseille","lat":43.240702,"lon":5.377567,"is_reserved":false,"is_disabled":false,"rental_uris":{"android":"levelo://app?vid=7c5289cb-0b42-4bee-9961-0cc3ccb86bfe","ios":"levelo://app?vid=7c5289cb-0b42-4bee-9961-0cc3ccb86bfe"},"vehicle_type_id":"4","last_reported":1740190060,"current_range_meters":7200,"station_id":"ce4bhnp2rcd13ifvqgvg","pricing_plan_id":"cebpf4jnsgd1na2vs0mg"},{"bike_id":"6b639a7f-946c-46db-bdc1-891ca7b3edb2","system_id":"levelo_inurba_marseille","lat":43.28459,"lon":5.358873,"is_reserved":false,"is_disabled":false,"rental_uris":{"android":"levelo://app?vid=6b639a7f-946c-46db-bdc1-891ca7b3edb2","ios":"levelo://app?vid=6b639a7f-946c-46db-bdc1-891ca7b3edb2"},"vehicle_type_id":"4","last_reported":1740190060,"current_range_meters":8000,"station_id":"ce4bhah2rcd13ifvqei0","pricing_plan_id":"cebpf4jnsgd1na2vs0mg"},{"bike_id":"e2124d37-d1a5-4d4d-8c06-fda2ba0b4397","system_id":"levelo_inurba_marseille","lat":43.29245,"lon":5.42624,"is_reserved":false,"is_disabled":false,"rental_uris":{"android":"levelo://app?vid=e2124d37-d1a5-4d4d-8c06-fda2ba0b4397","ios":"levelo://app?vid=e2124d37-d1a5-4d4d-8c06-fda2ba0b4397"},"vehicle_type_id":"4","last_reported":1740190060,"current_range_meters":8000,"station_id":"","pricing_plan_id":"cebpf4jnsgd1na2vs0mg"},{"bike_id":"a7e57524-7096-4476-8d9d-8e8806b1c3d0","system_id":"levelo_inurba_marseille","lat":43.23165,"lon":5.43708,"is_reserved":false,"is_disabled":true,"rental_uris":{"android":"levelo://app?vid=a7e57524-7096-4476-8d9d-8e8806b1c3d0","ios":"levelo://app?vid=a7e57524-7096-4476-8d9d-8e8806b1c3d0"},"vehicle_type_id":"4","last_reported":1740190060,"current_range_meters":8000,"station_id":"ce4bhmp2rcd13ifvqgog","pricing_plan_id":"cebpf4jnsgd1na2vs0mg"},{"bike_id":"b438415b-313a-4e01-82f1-42498464bbf8","system_id":"levelo_inurba_marseille","lat":43.31716,"lon":5.37741,"is_reserved":false,"is_disabled":false,"rental_uris":{"android":"levelo://app?vid=b438415b-313a-4e01-82f1-42498464bbf8","ios":"levelo://app?vid=b438415b-313a-4e01-82f1-42498464bbf8"},"vehicle_type_id":"4","last_reported":1740190060,"current_range_meters":8000,"station_id":"ce4bgth2rcd13ifvqch0","pricing_plan_id":"cebpf4jnsgd1na2vs0mg"},{"bike_id":"6726115d-85f2-46c3-9205-adcc69db6251","system_id":"levelo_inurba_marseille","lat":43.28567,"lon":5.39495,"is_reserved":false,"is_disabled":false,"rental_uris":{"android":"levelo://app?vid=6726115d-85f2-46c3-9205-adcc69db6251","ios":"levelo://app?vid=6726115d-85f2-46c3-9205-adcc69db6251"},"vehicle_type_id":"4","last_reported":1740190060,"current_range_meters":8400,"station_id":"ce4bh292rcd13ifvqdg0","pricing_plan_id":"cebpf4jnsgd1na2vs0mg"},{"bike_id":"c08354d8-2d7f-4528-b12d-bc2942eb1a51","system_id":"levelo_inurba_marseille","lat":43.29246,"lon":5.4092,"is_reserved":false,"is_disabled":false,"rental_uris":{"android":"levelo://app?vid=c08354d8-2d7f-4528-b12d-bc2942eb1a51","ios":"levelo://app?vid=c08354d8-2d7f-4528-b12d-bc2942eb1a51"},"vehicle_type_id":"4","last_reported":1740190060,"current_range_meters":8400,"station_id":"ce4bh192rcd13ifvqdc0","pricing_plan_id":"cebpf4jnsgd1na2vs0mg"},{"bike_id":"2074b46a-4462-434a-b913-d175d76b0c97","system_id":"levelo_inurba_marseille","lat":43.23966,"lon":5.36631,"is_reserved":false,"is_disabled":false,"rental_uris":{"android":"levelo://app?vid=2074b46a-4462-434a-b913-d175d76b0c97","ios":"levelo://app?vid=2074b46a-4462-434a-b913-d175d76b0c97"},"vehicle_type_id":"4","last_reported":1740190060,"current_range_meters":8400,"station_id":"ce4bhi12rcd13ifvqfp0","pricing_plan_id":"cebpf4jnsgd1na2vs0mg"},{"bike_id":"d0109f8e-c695-44b8-83b5-050518c2c6c9","system_id":"levelo_inurba_marseille","lat":43.23067,"lon":5.35487,"is_reserved":false,"is_disabled":false,"rental_uris":{"android":"levelo://app?vid=d0109f8e-c695-44b8-83b5-050518c2c6c9","ios":"levelo://app?vid=d0109f8e-c695-44b8-83b5-050518c2c6c9"},"vehicle_type_id":"4","last_reported":1740190060,"current_range_meters":8400,"station_id":"cpo3342slgdg3j2ifvpg","pricing_plan_id":"cebpf4jnsgd1na2vs0mg"},{"bike_id":"7b9eaf6e-4489-4224-b436-ef6be4484e51","system_id":"levelo_inurba_marseille","lat":43.2481,"lon":5.37452,"is_reserved":false,"is_disabled":false,"rental_uris":{"android":"levelo://app?vid=7b9eaf6e-4489-4224-b436-ef6be4484e51","ios":"levelo://app?vid=7b9eaf6e-4489-4224-b436-ef6be4484e51"},"vehicle_type_id":"4","last_reported":1740190060,"current_range_meters":8400,"station_id":"ce4bhgh2rcd13ifvqfb0","pricing_plan_id":"cebpf4jnsgd1na2vs0mg"},{"bike_id":"5be13e94-4bb9-4486-8730-92f86cf12a84","system_id":"levelo_inurba_marseille","lat":43.28723,"lon":5.37934,"is_reserved":false,"is_disabled":false,"rental_uris":{"android":"levelo://app?vid=5be13e94-4bb9-4486-8730-92f86cf12a84","ios":"levelo://app?vid=5be13e94-4bb9-4486-8730-92f86cf12a84"},"vehicle_type_id":"4","last_reported":1740190060,"current_range_meters":8400,"station_id":"ce4bh9p2rcd13ifvqec0","pricing_plan_id":"cebpf4jnsgd1na2vs0mg"},{"bike_id":"e2605be6-729f-4263-a772-380592b3879d","system_id":"levelo_inurba_marseille","lat":43.3049,"lon":5.38097,"is_reserved":false,"is_disabled":false,"rental_uris":{"android":"levelo://app?vid=e2605be6-729f-4263-a772-380592b3879d","ios":"levelo://app?vid=e2605be6-729f-4263-a772-380592b3879d"},"vehicle_type_id":"4","last_reported":1740190060,"current_range_meters":8400,"station_id":"","pricing_plan_id":"cebpf4jnsgd1na2vs0mg"},{"bike_id":"e080c45a-a05d-4297-8995-86678422b056","system_id":"levelo_inurba_marseille","lat":43.34423,"lon":5.38099,"is_reserved":false,"is_disabled":false,"rental_uris":{"android":"levelo://app?vid=e080c45a-a05d-4297-8995-86678422b056","ios":"levelo://app?vid=e080c45a-a05d-4297-8995-86678422b056"},"vehicle_type_id":"4","last_reported":1740190060,"current_range_meters":8400,"station_id":"","pricing_plan_id":"cebpf4jnsgd1na2vs0mg"},{"bike_id":"646b5cae-2afa-416c-8287-2abe42f0a681","system_id":"levelo_inurba_marseille","lat":43.3041,"lon":5.41285,"is_reserved":false,"is_disabled":false,"rental_uris":{"android":"levelo://app?vid=646b5cae-2afa-416c-8287-2abe42f0a681","ios":"levelo://app?vid=646b5cae-2afa-416c-8287-2abe42f0a681"},"vehicle_type_id":"4","last_reported":1740190060,"current_range_meters":8800,"station_id":"ce4bhop2rcd13ifvqh8g","pricing_plan_id":"cebpf4jnsgd1na2vs0mg"},{"bike_id":"cae36dad-0073-479c-b08d-8d5d9bfd7657","system_id":"levelo_inurba_marseille","lat":43.28703,"lon":5.3999,"is_reserved":false,"is_disabled":false,"rental_uris":{"android":"levelo://app?vid=cae36dad-0073-479c-b08d-8d5d9bfd7657","ios":"levelo://app?vid=cae36dad-0073-479c-b08d-8d5d9bfd7657"},"vehicle_type_id":"4","last_reported":1740190060,"current_range_meters":8800,"station_id":"ce4bho92rcd13ifvqh3g","pricing_plan_id":"cebpf4jnsgd1na2vs0mg"},{"bike_id":"e7b615e3-db9b-4723-ab59-0385b732a269","system_id":"levelo_inurba_marseille","lat":43.29674,"lon":5.38163,"is_reserved":false,"is_disabled":false,"rental_uris":{"android":"levelo://app?vid=e7b615e3-db9b-4723-ab59-0385b732a269","ios":"levelo://app?vid=e7b615e3-db9b-4723-ab59-0385b732a269"},"vehicle_type_id":"4","last_reported":1740190060,"current_range_meters":8800,"station_id":"","pricing_plan_id":"cebpf4jnsgd1na2vs0mg"},{"bike_id":"c0d6c131-aacf-4529-aad8-041fd8310aae","system_id":"levelo_inurba_marseille","lat":43.2913,"lon":5.37566,"is_reserved":false,"is_disabled":false,"rental_uris":{"android":"levelo://app?vid=c0d6c131-aacf-4529-aad8-041fd8310aae","ios":"levelo://app?vid=c0d6c131-aacf-4529-aad8-041fd8310aae"},"vehicle_type_id":"4","last_reported":1740190060,"current_range_meters":8800,"station_id":"","pricing_plan_id":"cebpf4jnsgd1na2vs0mg"},{"bike_id":"81fe468e-1e6f-4a0d-a5f8-4691cb3e0427","system_id":"levelo_inurba_marseille","lat":43.27418,"lon":5.39419,"is_reserved":false,"is_disabled":false,"rental_uris":{"android":"levelo://app?vid=81fe468e-1e6f-4a0d-a5f8-4691cb3e0427","ios":"levelo://app?vid=81fe468e-1e6f-4a0d-a5f8-4691cb3e0427"},"vehicle_type_id":"4","last_reported":1740190060,"current_range_meters":9200,"station_id":"ce4bhdp2rcd13ifvqf20","pricing_plan_id":"cebpf4jnsgd1na2vs0mg"},{"bike_id":"b5d0b986-3383-4aac-b847-d4b44d8302d6","system_id":"levelo_inurba_marseille","lat":43.28702,"lon":5.39978,"is_reserved":false,"is_disabled":false,"rental_uris":{"android":"levelo://app?vid=b5d0b986-3383-4aac-b847-d4b44d8302d6","ios":"levelo://app?vid=b5d0b986-3383-4aac-b847-d4b44d8302d6"},"vehicle_type_id":"4","last_reported":1740190060,"current_range_meters":9200,"station_id":"ce4bho92rcd13ifvqh3g","pricing_plan_id":"cebpf4jnsgd1na2vs0mg"},{"bike_id":"ff72b3d6-f08b-4cec-82b6-3f5bf8bd662b","system_id":"levelo_inurba_marseille","lat":43.281513,"lon":5.426408,"is_reserved":false,"is_disabled":false,"rental_uris":{"android":"levelo://app?vid=ff72b3d6-f08b-4cec-82b6-3f5bf8bd662b","ios":"levelo://app?vid=ff72b3d6-f08b-4cec-82b6-3f5bf8bd662b"},"vehicle_type_id":"4","last_reported":1740190060,"current_range_meters":9200,"station_id":"ce4bhnh2rcd13ifvqgug","pricing_plan_id":"cebpf4jnsgd1na2vs0mg"},{"bike_id":"47ad7c30-34cc-434c-9d7d-27d0d397ecd8","system_id":"levelo_inurba_marseille","lat":43.27811,"lon":5.4071,"is_reserved":false,"is_disabled":false,"rental_uris":{"android":"levelo://app?vid=47ad7c30-34cc-434c-9d7d-27d0d397ecd8","ios":"levelo://app?vid=47ad7c30-34cc-434c-9d7d-27d0d397ecd8"},"vehicle_type_id":"4","last_reported":1740190060,"current_range_meters":9200,"station_id":"ce4bhnh2rcd13ifvqgtg","pricing_plan_id":"cebpf4jnsgd1na2vs0mg"},{"bike_id":"2b8d73ad-5137-4320-bf7a-9fcaea6cd84f","system_id":"levelo_inurba_marseille","lat":43.27989,"lon":5.40015,"is_reserved":false,"is_disabled":false,"rental_uris":{"android":"levelo://app?vid=2b8d73ad-5137-4320-bf7a-9fcaea6cd84f","ios":"levelo://app?vid=2b8d73ad-5137-4320-bf7a-9fcaea6cd84f"},"vehicle_type_id":"4","last_reported":1740190060,"current_range_meters":9200,"station_id":"ce4bho92rcd13ifvqh4g","pricing_plan_id":"cebpf4jnsgd1na2vs0mg"},{"bike_id":"ae247aba-916f-4b0f-b2cd-cd9e14ebf058","system_id":"levelo_inurba_marseille","lat":43.3027,"lon":5.40115,"is_reserved":false,"is_disabled":false,"rental_uris":{"android":"levelo://app?vid=ae247aba-916f-4b0f-b2cd-cd9e14ebf058","ios":"levelo://app?vid=ae247aba-916f-4b0f-b2cd-cd9e14ebf058"},"vehicle_type_id":"4","last_reported":1740190060,"current_range_meters":9200,"station_id":"ce4bgvh2rcd13ifvqcs0","pricing_plan_id":"cebpf4jnsgd1na2vs0mg"},{"bike_id":"d414c500-f227-4efb-aabd-f7246cca81bc","system_id":"levelo_inurba_marseille","lat":43.23048,"lon":5.35526,"is_reserved":false,"is_disabled":false,"rental_uris":{"android":"levelo://app?vid=d414c500-f227-4efb-aabd-f7246cca81bc","ios":"levelo://app?vid=d414c500-f227-4efb-aabd-f7246cca81bc"},"vehicle_type_id":"4","last_reported":1740190060,"current_range_meters":9200,"station_id":"cpo3342slgdg3j2ifvpg","pricing_plan_id":"cebpf4jnsgd1na2vs0mg"},{"bike_id":"f3feea2e-5bf7-41f6-a6d2-c494ec11d6a2","system_id":"levelo_inurba_marseille","lat":43.230658,"lon":5.354909,"is_reserved":false,"is_disabled":false,"rental_uris":{"android":"levelo://app?vid=f3feea2e-5bf7-41f6-a6d2-c494ec11d6a2","ios":"levelo://app?vid=f3feea2e-5bf7-41f6-a6d2-c494ec11d6a2"},"vehicle_type_id":"4","last_reported":1740190060,"current_range_meters":9200,"station_id":"cpo3342slgdg3j2ifvpg","pricing_plan_id":"cebpf4jnsgd1na2vs0mg"},{"bike_id":"2afb22c7-7048-4615-a3b7-71b0be04e579","system_id":"levelo_inurba_marseille","lat":43.2319,"lon":5.35554,"is_reserved":false,"is_disabled":false,"rental_uris":{"android":"levelo://app?vid=2afb22c7-7048-4615-a3b7-71b0be04e579","ios":"levelo://app?vid=2afb22c7-7048-4615-a3b7-71b0be04e579"},"vehicle_type_id":"4","last_reported":1740190060,"current_range_meters":9600,"station_id":"","pricing_plan_id":"cebpf4jnsgd1na2vs0mg"},{"bike_id":"069e9c22-0e7f-470e-88fe-218121d5200b","system_id":"levelo_inurba_marseille","lat":43.30888,"lon":5.37203,"is_reserved":false,"is_disabled":false,"rental_uris":{"android":"levelo://app?vid=069e9c22-0e7f-470e-88fe-218121d5200b","ios":"levelo://app?vid=069e9c22-0e7f-470e-88fe-218121d5200b"},"vehicle_type_id":"4","last_reported":1740190060,"current_range_meters":9600,"station_id":"ce4bguh2rcd13ifvqckg","pricing_plan_id":"cebpf4jnsgd1na2vs0mg"},{"bike_id":"868b4211-dc44-47bc-9d88-7aa450ba2e04","system_id":"levelo_inurba_marseille","lat":43.28849,"lon":5.39328,"is_reserved":false,"is_disabled":false,"rental_uris":{"android":"levelo://app?vid=868b4211-dc44-47bc-9d88-7aa450ba2e04","ios":"levelo://app?vid=868b4211-dc44-47bc-9d88-7aa450ba2e04"},"vehicle_type_id":"4","last_reported":1740190060,"current_range_meters":9600,"station_id":"ce4bh2p2rcd13ifvqdi0","pricing_plan_id":"cebpf4jnsgd1na2vs0mg"},{"bike_id":"58add483-de11-4a5f-8149-5204d8ff6d75","system_id":"levelo_inurba_marseille","lat":43.29201,"lon":5.39331,"is_reserved":false,"is_disabled":false,"rental_uris":{"android":"levelo://app?vid=58add483-de11-4a5f-8149-5204d8ff6d75","ios":"levelo://app?vid=58add483-de11-4a5f-8149-5204d8ff6d75"},"vehicle_type_id":"4","last_reported":1740190060,"current_range_meters":9600,"station_id":"","pricing_plan_id":"cebpf4jnsgd1na2vs0mg"},{"bike_id":"943382b3-3ac2-40b7-baae-7ca1aec3b930","system_id":"levelo_inurba_marseille","lat":43.28156,"lon":5.42654,"is_reserved":false,"is_disabled":false,"rental_uris":{"android":"levelo://app?vid=943382b3-3ac2-40b7-baae-7ca1aec3b930","ios":"levelo://app?vid=943382b3-3ac2-40b7-baae-7ca1aec3b930"},"vehicle_type_id":"4","last_reported":1740190060,"current_range_meters":9600,"station_id":"ce4bhnh2rcd13ifvqgug","pricing_plan_id":"cebpf4jnsgd1na2vs0mg"},{"bike_id":"32cb548e-3f9c-45c3-8ca4-71e2dff11160","system_id":"levelo_inurba_marseille","lat":43.26561,"lon":5.39034,"is_reserved":false,"is_disabled":false,"rental_uris":{"android":"levelo://app?vid=32cb548e-3f9c-45c3-8ca4-71e2dff11160","ios":"levelo://app?vid=32cb548e-3f9c-45c3-8ca4-71e2dff11160"},"vehicle_type_id":"4","last_reported":1740190060,"current_range_meters":9600,"station_id":"ce4bhe12rcd13ifvqf30","pricing_plan_id":"cebpf4jnsgd1na2vs0mg"},{"bike_id":"f299adf8-3643-42b2-9b69-c8ed0ae5fa5d","system_id":"levelo_inurba_marseille","lat":43.29036,"lon":5.35891,"is_reserved":false,"is_disabled":false,"rental_uris":{"android":"levelo://app?vid=f299adf8-3643-42b2-9b69-c8ed0ae5fa5d","ios":"levelo://app?vid=f299adf8-3643-42b2-9b69-c8ed0ae5fa5d"},"vehicle_type_id":"4","last_reported":1740190060,"current_range_meters":9600,"station_id":"ce4bha92rcd13ifvqeg0","pricing_plan_id":"cebpf4jnsgd1na2vs0mg"},{"bike_id":"d27d48ff-9dbf-4f1d-be11-933dfc7fe146","system_id":"levelo_inurba_marseille","lat":43.28413,"lon":5.37512,"is_reserved":false,"is_disabled":false,"rental_uris":{"android":"levelo://app?vid=d27d48ff-9dbf-4f1d-be11-933dfc7fe146","ios":"levelo://app?vid=d27d48ff-9dbf-4f1d-be11-933dfc7fe146"},"vehicle_type_id":"4","last_reported":1740190060,"current_range_meters":9600,"station_id":"ce4bh412rcd13ifvqds0","pricing_plan_id":"cebpf4jnsgd1na2vs0mg"},{"bike_id":"fdb03b40-bd01-481d-b60b-5908806de718","system_id":"levelo_inurba_marseille","lat":43.27971,"lon":5.38728,"is_reserved":false,"is_disabled":false,"rental_uris":{"android":"levelo://app?vid=fdb03b40-bd01-481d-b60b-5908806de718","ios":"levelo://app?vid=fdb03b40-bd01-481d-b60b-5908806de718"},"vehicle_type_id":"4","last_reported":1740190060,"current_range_meters":9600,"station_id":"ce4bhg12rcd13ifvqf80","pricing_plan_id":"cebpf4jnsgd1na2vs0mg"},{"bike_id":"f1e696b2-5805-430b-830c-9d9cc0c3b15b","system_id":"levelo_inurba_marseille","lat":43.284562,"lon":5.35889,"is_reserved":false,"is_disabled":false,"rental_uris":{"android":"levelo://app?vid=f1e696b2-5805-430b-830c-9d9cc0c3b15b","ios":"levelo://app?vid=f1e696b2-5805-430b-830c-9d9cc0c3b15b"},"vehicle_type_id":"4","last_reported":1740190060,"current_range_meters":9600,"station_id":"ce4bhah2rcd13ifvqei0","pricing_plan_id":"cebpf4jnsgd1na2vs0mg"},{"bike_id":"742bc5a2-3444-4e4e-844a-5248e8280f90","system_id":"levelo_inurba_marseille","lat":43.25087,"lon":5.39516,"is_reserved":false,"is_disabled":false,"rental_uris":{"android":"levelo://app?vid=742bc5a2-3444-4e4e-844a-5248e8280f90","ios":"levelo://app?vid=742bc5a2-3444-4e4e-844a-5248e8280f90"},"vehicle_type_id":"4","last_reported":1740190060,"current_range_meters":9600,"station_id":"ce4bhm12rcd13ifvqgkg","pricing_plan_id":"cebpf4jnsgd1na2vs0mg"},{"bike_id":"7a811fd9-b132-4914-a795-bbd931482c71","system_id":"levelo_inurba_marseille","lat":43.29544,"lon":5.38566,"is_reserved":false,"is_disabled":true,"rental_uris":{"android":"levelo://app?vid=7a811fd9-b132-4914-a795-bbd931482c71","ios":"levelo://app?vid=7a811fd9-b132-4914-a795-bbd931482c71"},"vehicle_type_id":"4","last_reported":1740190060,"current_range_meters":10000,"station_id":"ce4bgih2rcd13ifvqba0","pricing_plan_id":"cebpf4jnsgd1na2vs0mg"},{"bike_id":"417001bc-e8ee-4b24-9108-f07a293bf8c3","system_id":"levelo_inurba_marseille","lat":43.29722,"lon":5.37692,"is_reserved":false,"is_disabled":true,"rental_uris":{"android":"levelo://app?vid=417001bc-e8ee-4b24-9108-f07a293bf8c3","ios":"levelo://app?vid=417001bc-e8ee-4b24-9108-f07a293bf8c3"},"vehicle_type_id":"4","last_reported":1740190060,"current_range_meters":10000,"station_id":"ce4bgkh2rcd13ifvqbl0","pricing_plan_id":"cebpf4jnsgd1na2vs0mg"},{"bike_id":"5a096033-b948-48e8-87c2-085932a1e9f3","system_id":"levelo_inurba_marseille","lat":43.2583,"lon":5.39431,"is_reserved":false,"is_disabled":false,"rental_uris":{"android":"levelo://app?vid=5a096033-b948-48e8-87c2-085932a1e9f3","ios":"levelo://app?vid=5a096033-b948-48e8-87c2-085932a1e9f3"},"vehicle_type_id":"4","last_reported":1740190060,"current_range_meters":10000,"station_id":"ce4bhip2rcd13ifvqft0","pricing_plan_id":"cebpf4jnsgd1na2vs0mg"},{"bike_id":"104a1cff-9a75-4e8f-8e84-837fbddf2646","system_id":"levelo_inurba_marseille","lat":43.28722,"lon":5.36095,"is_reserved":false,"is_disabled":false,"rental_uris":{"android":"levelo://app?vid=104a1cff-9a75-4e8f-8e84-837fbddf2646","ios":"levelo://app?vid=104a1cff-9a75-4e8f-8e84-837fbddf2646"},"vehicle_type_id":"4","last_reported":1740190060,"current_range_meters":10000,"station_id":"cki0cbj6b192h4jlfktg","pricing_plan_id":"cebpf4jnsgd1na2vs0mg"},{"bike_id":"c04b81b6-1d78-49d2-a77e-38338694652c","system_id":"levelo_inurba_marseille","lat":43.23622,"lon":5.40988,"is_reserved":false,"is_disabled":false,"rental_uris":{"android":"levelo://app?vid=c04b81b6-1d78-49d2-a77e-38338694652c","ios":"levelo://app?vid=c04b81b6-1d78-49d2-a77e-38338694652c"},"vehicle_type_id":"4","last_reported":1740190060,"current_range_meters":10000,"station_id":"","pricing_plan_id":"cebpf4jnsgd1na2vs0mg"},{"bike_id":"fbdb5bd4-d8df-4cf1-88b9-88590ac3fee1","system_id":"levelo_inurba_marseille","lat":43.24826,"lon":5.37432,"is_reserved":false,"is_disabled":false,"rental_uris":{"android":"levelo://app?vid=fbdb5bd4-d8df-4cf1-88b9-88590ac3fee1","ios":"levelo://app?vid=fbdb5bd4-d8df-4cf1-88b9-88590ac3fee1"},"vehicle_type_id":"4","last_reported":1740190060,"current_range_meters":10000,"station_id":"ce4bhgh2rcd13ifvqfb0","pricing_plan_id":"cebpf4jnsgd1na2vs0mg"},{"bike_id":"5348d5dc-5dca-4978-b167-cd7e8ce45433","system_id":"levelo_inurba_marseille","lat":43.30554,"lon":5.36546,"is_reserved":false,"is_disabled":true,"rental_uris":{"android":"levelo://app?vid=5348d5dc-5dca-4978-b167-cd7e8ce45433","ios":"levelo://app?vid=5348d5dc-5dca-4978-b167-cd7e8ce45433"},"vehicle_type_id":"4","last_reported":1740190060,"current_range_meters":10000,"station_id":"ce4bgs12rcd13ifvqcag","pricing_plan_id":"cebpf4jnsgd1na2vs0mg"},{"bike_id":"ab46b189-6bae-4129-a7fd-10b3ccd5a48e","system_id":"levelo_inurba_marseille","lat":43.27202,"lon":5.40015,"is_reserved":false,"is_disabled":false,"rental_uris":{"android":"levelo://app?vid=ab46b189-6bae-4129-a7fd-10b3ccd5a48e","ios":"levelo://app?vid=ab46b189-6bae-4129-a7fd-10b3ccd5a48e"},"vehicle_type_id":"4","last_reported":1740190060,"current_range_meters":10000,"station_id":"","pricing_plan_id":"cebpf4jnsgd1na2vs0mg"},{"bike_id":"a3326559-58fb-4d90-aa69-5172a95c25d1","system_id":"levelo_inurba_marseille","lat":43.25821,"lon":5.394368,"is_reserved":false,"is_disabled":false,"rental_uris":{"android":"levelo://app?vid=a3326559-58fb-4d90-aa69-5172a95c25d1","ios":"levelo://app?vid=a3326559-58fb-4d90-aa69-5172a95c25d1"},"vehicle_type_id":"4","last_reported":1740190060,"current_range_meters":10000,"station_id":"ce4bhip2rcd13ifvqft0","pricing_plan_id":"cebpf4jnsgd1na2vs0mg"},{"bike_id":"7a70627c-d6ce-44b8-ac37-c3aa96fdadd7","system_id":"levelo_inurba_marseille","lat":43.32565,"lon":5.36633,"is_reserved":false,"is_disabled":false,"rental_uris":{"android":"levelo://app?vid=7a70627c-d6ce-44b8-ac37-c3aa96fdadd7","ios":"levelo://app?vid=7a70627c-d6ce-44b8-ac37-c3aa96fdadd7"},"vehicle_type_id":"4","last_reported":1740190060,"current_range_meters":10000,"station_id":"","pricing_plan_id":"cebpf4jnsgd1na2vs0mg"},{"bike_id":"7f9e9df1-c29e-4c3f-9fdd-91bf84917fa0","system_id":"levelo_inurba_marseille","lat":43.30821,"lon":5.38183,"is_reserved":false,"is_disabled":false,"rental_uris":{"android":"levelo://app?vid=7f9e9df1-c29e-4c3f-9fdd-91bf84917fa0","ios":"levelo://app?vid=7f9e9df1-c29e-4c3f-9fdd-91bf84917fa0"},"vehicle_type_id":"4","last_reported":1740190060,"current_range_meters":10000,"station_id":"ce4bgt12rcd13ifvqce0","pricing_plan_id":"cebpf4jnsgd1na2vs0mg"},{"bike_id":"e97efaa9-b314-4720-9721-dfb8af683efe","system_id":"levelo_inurba_marseille","lat":43.31082,"lon":5.42426,"is_reserved":false,"is_disabled":false,"rental_uris":{"android":"levelo://app?vid=e97efaa9-b314-4720-9721-dfb8af683efe","ios":"levelo://app?vid=e97efaa9-b314-4720-9721-dfb8af683efe"},"vehicle_type_id":"4","last_reported":1740190060,"current_range_meters":10000,"station_id":"ce4bhp92rcd13ifvqhag","pricing_plan_id":"cebpf4jnsgd1na2vs0mg"},{"bike_id":"9323b8a3-2703-45b9-8db8-7cdca8df81ac","system_id":"levelo_inurba_marseille","lat":43.28734,"lon":5.36084,"is_reserved":false,"is_disabled":false,"rental_uris":{"android":"levelo://app?vid=9323b8a3-2703-45b9-8db8-7cdca8df81ac","ios":"levelo://app?vid=9323b8a3-2703-45b9-8db8-7cdca8df81ac"},"vehicle_type_id":"4","last_reported":1740190060,"current_range_meters":10000,"station_id":"cki0cbj6b192h4jlfktg","pricing_plan_id":"cebpf4jnsgd1na2vs0mg"},{"bike_id":"3c8aac07-80ad-4986-a150-17fd9f678e45","system_id":"levelo_inurba_marseille","lat":43.2418,"lon":5.39745,"is_reserved":false,"is_disabled":false,"rental_uris":{"android":"levelo://app?vid=3c8aac07-80ad-4986-a150-17fd9f678e45","ios":"levelo://app?vid=3c8aac07-80ad-4986-a150-17fd9f678e45"},"vehicle_type_id":"4","last_reported":1740190060,"current_range_meters":10000,"station_id":"ce4bhn12rcd13ifvqgpg","pricing_plan_id":"cebpf4jnsgd1na2vs0mg"},{"bike_id":"e501be99-a171-4e91-9e5b-ac547e4c06f2","system_id":"levelo_inurba_marseille","lat":43.23189,"lon":5.35548,"is_reserved":false,"is_disabled":false,"rental_uris":{"android":"levelo://app?vid=e501be99-a171-4e91-9e5b-ac547e4c06f2","ios":"levelo://app?vid=e501be99-a171-4e91-9e5b-ac547e4c06f2"},"vehicle_type_id":"4","last_reported":1740190060,"current_range_meters":10000,"station_id":"ce4bhu92rcd13ifvqi70","pricing_plan_id":"cebpf4jnsgd1na2vs0mg"},{"bike_id":"104cc81f-2dc0-4a55-8242-f461230322d5","system_id":"levelo_inurba_marseille","lat":43.28573,"lon":5.39511,"is_reserved":false,"is_disabled":false,"rental_uris":{"android":"levelo://app?vid=104cc81f-2dc0-4a55-8242-f461230322d5","ios":"levelo://app?vid=104cc81f-2dc0-4a55-8242-f461230322d5"},"vehicle_type_id":"4","last_reported":1740190060,"current_range_meters":10800,"station_id":"ce4bh292rcd13ifvqdg0","pricing_plan_id":"cebpf4jnsgd1na2vs0mg"},{"bike_id":"92b87f91-a221-42d6-851b-adc1a494e425","system_id":"levelo_inurba_marseille","lat":43.28565,"lon":5.39504,"is_reserved":false,"is_disabled":false,"rental_uris":{"android":"levelo://app?vid=92b87f91-a221-42d6-851b-adc1a494e425","ios":"levelo://app?vid=92b87f91-a221-42d6-851b-adc1a494e425"},"vehicle_type_id":"4","last_reported":1740190060,"current_range_meters":10800,"station_id":"ce4bh292rcd13ifvqdg0","pricing_plan_id":"cebpf4jnsgd1na2vs0mg"},{"bike_id":"6b04f75f-fb5c-42fe-a63b-5e82daec1ece","system_id":"levelo_inurba_marseille","lat":43.25583,"lon":5.38256,"is_reserved":false,"is_disabled":false,"rental_uris":{"android":"levelo://app?vid=6b04f75f-fb5c-42fe-a63b-5e82daec1ece","ios":"levelo://app?vid=6b04f75f-fb5c-42fe-a63b-5e82daec1ece"},"vehicle_type_id":"4","last_reported":1740190060,"current_range_meters":10800,"station_id":"ce4bhih2rcd13ifvqfs0","pricing_plan_id":"cebpf4jnsgd1na2vs0mg"},{"bike_id":"e7b1408e-9c9e-44b8-b15f-494283f2cdfe","system_id":"levelo_inurba_marseille","lat":43.28714,"lon":5.37386,"is_reserved":false,"is_disabled":false,"rental_uris":{"android":"levelo://app?vid=e7b1408e-9c9e-44b8-b15f-494283f2cdfe","ios":"levelo://app?vid=e7b1408e-9c9e-44b8-b15f-494283f2cdfe"},"vehicle_type_id":"4","last_reported":1740190060,"current_range_meters":10800,"station_id":"ce4bh3p2rcd13ifvqdq0","pricing_plan_id":"cebpf4jnsgd1na2vs0mg"},{"bike_id":"78b97302-9c59-42d1-a13f-5e8c85841d45","system_id":"levelo_inurba_marseille","lat":43.2656,"lon":5.39028,"is_reserved":false,"is_disabled":false,"rental_uris":{"android":"levelo://app?vid=78b97302-9c59-42d1-a13f-5e8c85841d45","ios":"levelo://app?vid=78b97302-9c59-42d1-a13f-5e8c85841d45"},"vehicle_type_id":"4","last_reported":1740190060,"current_range_meters":10800,"station_id":"ce4bhe12rcd13ifvqf30","pricing_plan_id":"cebpf4jnsgd1na2vs0mg"},{"bike_id":"a5861d8a-322b-4fa8-9cf5-48f1ed0493f0","system_id":"levelo_inurba_marseille","lat":43.26938,"lon":5.38638,"is_reserved":false,"is_disabled":true,"rental_uris":{"android":"levelo://app?vid=a5861d8a-322b-4fa8-9cf5-48f1ed0493f0","ios":"levelo://app?vid=a5861d8a-322b-4fa8-9cf5-48f1ed0493f0"},"vehicle_type_id":"4","last_reported":1740190060,"current_range_meters":11200,"station_id":"ce4bhh92rcd13ifvqfh0","pricing_plan_id":"cebpf4jnsgd1na2vs0mg"},{"bike_id":"aa6b079d-ac76-4c64-aa3c-29b3f6dad2e1","system_id":"levelo_inurba_marseille","lat":43.28162,"lon":5.42635,"is_reserved":false,"is_disabled":false,"rental_uris":{"android":"levelo://app?vid=aa6b079d-ac76-4c64-aa3c-29b3f6dad2e1","ios":"levelo://app?vid=aa6b079d-ac76-4c64-aa3c-29b3f6dad2e1"},"vehicle_type_id":"4","last_reported":1740190060,"current_range_meters":11200,"station_id":"ce4bhnh2rcd13ifvqgug","pricing_plan_id":"cebpf4jnsgd1na2vs0mg"},{"bike_id":"08b85738-489c-4fdf-abcb-17da0e494013","system_id":"levelo_inurba_marseille","lat":43.27903,"lon":5.39575,"is_reserved":false,"is_disabled":false,"rental_uris":{"android":"levelo://app?vid=08b85738-489c-4fdf-abcb-17da0e494013","ios":"levelo://app?vid=08b85738-489c-4fdf-abcb-17da0e494013"},"vehicle_type_id":"4","last_reported":1740190060,"current_range_meters":11200,"station_id":"ce4bhf92rcd13ifvqf40","pricing_plan_id":"cebpf4jnsgd1na2vs0mg"},{"bike_id":"4d854f35-50d2-4e85-b0c2-e17dd9a63bbf","system_id":"levelo_inurba_marseille","lat":43.30806,"lon":5.37648,"is_reserved":false,"is_disabled":false,"rental_uris":{"android":"levelo://app?vid=4d854f35-50d2-4e85-b0c2-e17dd9a63bbf","ios":"levelo://app?vid=4d854f35-50d2-4e85-b0c2-e17dd9a63bbf"},"vehicle_type_id":"4","last_reported":1740190060,"current_range_meters":11200,"station_id":"ce4bgv92rcd13ifvqcq0","pricing_plan_id":"cebpf4jnsgd1na2vs0mg"},{"bike_id":"a404738f-d592-4923-bb7f-8cad6bf8fec4","system_id":"levelo_inurba_marseille","lat":43.2796,"lon":5.38486,"is_reserved":false,"is_disabled":false,"rental_uris":{"android":"levelo://app?vid=a404738f-d592-4923-bb7f-8cad6bf8fec4","ios":"levelo://app?vid=a404738f-d592-4923-bb7f-8cad6bf8fec4"},"vehicle_type_id":"4","last_reported":1740190060,"current_range_meters":11200,"station_id":"","pricing_plan_id":"cebpf4jnsgd1na2vs0mg"},{"bike_id":"af1107fa-d68e-4f88-b9a9-b5e22ec9744f","system_id":"levelo_inurba_marseille","lat":43.23035,"lon":5.35572,"is_reserved":false,"is_disabled":false,"rental_uris":{"android":"levelo://app?vid=af1107fa-d68e-4f88-b9a9-b5e22ec9744f","ios":"levelo://app?vid=af1107fa-d68e-4f88-b9a9-b5e22ec9744f"},"vehicle_type_id":"4","last_reported":1740190060,"current_range_meters":11200,"station_id":"cpo3342slgdg3j2ifvpg","pricing_plan_id":"cebpf4jnsgd1na2vs0mg"},{"bike_id":"718c3a69-842c-4223-8226-083bef674d23","system_id":"levelo_inurba_marseille","lat":43.25577,"lon":5.3824,"is_reserved":false,"is_disabled":false,"rental_uris":{"android":"levelo://app?vid=718c3a69-842c-4223-8226-083bef674d23","ios":"levelo://app?vid=718c3a69-842c-4223-8226-083bef674d23"},"vehicle_type_id":"4","last_reported":1740190060,"current_range_meters":11200,"station_id":"ce4bhih2rcd13ifvqfs0","pricing_plan_id":"cebpf4jnsgd1na2vs0mg"},{"bike_id":"275c6989-ff86-4e1f-8d47-af3f92e61b74","system_id":"levelo_inurba_marseille","lat":43.27913,"lon":5.39587,"is_reserved":false,"is_disabled":false,"rental_uris":{"android":"levelo://app?vid=275c6989-ff86-4e1f-8d47-af3f92e61b74","ios":"levelo://app?vid=275c6989-ff86-4e1f-8d47-af3f92e61b74"},"vehicle_type_id":"4","last_reported":1740190060,"current_range_meters":11200,"station_id":"ce4bhf92rcd13ifvqf40","pricing_plan_id":"cebpf4jnsgd1na2vs0mg"},{"bike_id":"db862aa0-6d5c-4557-b8a1-8d27f720ed6e","system_id":"levelo_inurba_marseille","lat":43.27994,"lon":5.40031,"is_reserved":false,"is_disabled":false,"rental_uris":{"android":"levelo://app?vid=db862aa0-6d5c-4557-b8a1-8d27f720ed6e","ios":"levelo://app?vid=db862aa0-6d5c-4557-b8a1-8d27f720ed6e"},"vehicle_type_id":"4","last_reported":1740190060,"current_range_meters":11600,"station_id":"ce4bho92rcd13ifvqh4g","pricing_plan_id":"cebpf4jnsgd1na2vs0mg"},{"bike_id":"78ccc1b5-e05d-4c30-bc5b-473f9d97e2cd","system_id":"levelo_inurba_marseille","lat":43.3012,"lon":5.37811,"is_reserved":false,"is_disabled":false,"rental_uris":{"android":"levelo://app?vid=78ccc1b5-e05d-4c30-bc5b-473f9d97e2cd","ios":"levelo://app?vid=78ccc1b5-e05d-4c30-bc5b-473f9d97e2cd"},"vehicle_type_id":"4","last_reported":1740190060,"current_range_meters":11600,"station_id":"","pricing_plan_id":"cebpf4jnsgd1na2vs0mg"},{"bike_id":"d93b56e8-81a2-4df1-b772-ccfe1aba8adb","system_id":"levelo_inurba_marseille","lat":43.29455,"lon":5.39071,"is_reserved":false,"is_disabled":false,"rental_uris":{"android":"levelo://app?vid=d93b56e8-81a2-4df1-b772-ccfe1aba8adb","ios":"levelo://app?vid=d93b56e8-81a2-4df1-b772-ccfe1aba8adb"},"vehicle_type_id":"4","last_reported":1740190060,"current_range_meters":11600,"station_id":"","pricing_plan_id":"cebpf4jnsgd1na2vs0mg"},{"bike_id":"cd649daa-a920-4499-8521-7751453f25e5","system_id":"levelo_inurba_marseille","lat":43.290329,"lon":5.39998,"is_reserved":false,"is_disabled":false,"rental_uris":{"android":"levelo://app?vid=cd649daa-a920-4499-8521-7751453f25e5","ios":"levelo://app?vid=cd649daa-a920-4499-8521-7751453f25e5"},"vehicle_type_id":"4","last_reported":1740190060,"current_range_meters":11600,"station_id":"ce4bhg92rcd13ifvqf90","pricing_plan_id":"cebpf4jnsgd1na2vs0mg"},{"bike_id":"0a9f8546-f45f-4edc-83af-820c22992043","system_id":"levelo_inurba_marseille","lat":43.308854,"lon":5.371993,"is_reserved":false,"is_disabled":false,"rental_uris":{"android":"levelo://app?vid=0a9f8546-f45f-4edc-83af-820c22992043","ios":"levelo://app?vid=0a9f8546-f45f-4edc-83af-820c22992043"},"vehicle_type_id":"4","last_reported":1740190060,"current_range_meters":11600,"station_id":"ce4bguh2rcd13ifvqckg","pricing_plan_id":"cebpf4jnsgd1na2vs0mg"},{"bike_id":"b985ad1f-1942-453b-b5eb-7462cafd1e31","system_id":"levelo_inurba_marseille","lat":43.23184,"lon":5.35576,"is_reserved":false,"is_disabled":false,"rental_uris":{"android":"levelo://app?vid=b985ad1f-1942-453b-b5eb-7462cafd1e31","ios":"levelo://app?vid=b985ad1f-1942-453b-b5eb-7462cafd1e31"},"vehicle_type_id":"4","last_reported":1740190060,"current_range_meters":11600,"station_id":"ce4bhu92rcd13ifvqi70","pricing_plan_id":"cebpf4jnsgd1na2vs0mg"},{"bike_id":"586f3ef2-2296-44e6-831b-9eb29a8380c1","system_id":"levelo_inurba_marseille","lat":43.30323,"lon":5.36898,"is_reserved":false,"is_disabled":false,"rental_uris":{"android":"levelo://app?vid=586f3ef2-2296-44e6-831b-9eb29a8380c1","ios":"levelo://app?vid=586f3ef2-2296-44e6-831b-9eb29a8380c1"},"vehicle_type_id":"4","last_reported":1740190060,"current_range_meters":12000,"station_id":"ce4bgqh2rcd13ifvqc5g","pricing_plan_id":"cebpf4jnsgd1na2vs0mg"},{"bike_id":"3372843d-d9b8-48e7-a75e-62d9bb27ba4f","system_id":"levelo_inurba_marseille","lat":43.27895,"lon":5.39606,"is_reserved":false,"is_disabled":false,"rental_uris":{"android":"levelo://app?vid=3372843d-d9b8-48e7-a75e-62d9bb27ba4f","ios":"levelo://app?vid=3372843d-d9b8-48e7-a75e-62d9bb27ba4f"},"vehicle_type_id":"4","last_reported":1740190060,"current_range_meters":12000,"station_id":"ce4bhf92rcd13ifvqf40","pricing_plan_id":"cebpf4jnsgd1na2vs0mg"},{"bike_id":"4a4239fd-3515-4dbf-a368-54413f687b1f","system_id":"levelo_inurba_marseille","lat":43.28414,"lon":5.37512,"is_reserved":false,"is_disabled":false,"rental_uris":{"android":"levelo://app?vid=4a4239fd-3515-4dbf-a368-54413f687b1f","ios":"levelo://app?vid=4a4239fd-3515-4dbf-a368-54413f687b1f"},"vehicle_type_id":"4","last_reported":1740190060,"current_range_meters":12000,"station_id":"ce4bh412rcd13ifvqds0","pricing_plan_id":"cebpf4jnsgd1na2vs0mg"},{"bike_id":"54b45f3b-f685-44dd-8b79-1a758bf759d2","system_id":"levelo_inurba_marseille","lat":43.337444,"lon":5.374475,"is_reserved":false,"is_disabled":true,"rental_uris":{"android":"levelo://app?vid=54b45f3b-f685-44dd-8b79-1a758bf759d2","ios":"levelo://app?vid=54b45f3b-f685-44dd-8b79-1a758bf759d2"},"vehicle_type_id":"4","last_reported":1740190060,"current_range_meters":12000,"station_id":"","pricing_plan_id":"cebpf4jnsgd1na2vs0mg"},{"bike_id":"1bb7db80-3871-413c-ab2d-3515cfae14be","system_id":"levelo_inurba_marseille","lat":43.30261,"lon":5.40056,"is_reserved":false,"is_disabled":false,"rental_uris":{"android":"levelo://app?vid=1bb7db80-3871-413c-ab2d-3515cfae14be","ios":"levelo://app?vid=1bb7db80-3871-413c-ab2d-3515cfae14be"},"vehicle_type_id":"4","last_reported":1740190060,"current_range_meters":12400,"station_id":"ce4bgvh2rcd13ifvqcs0","pricing_plan_id":"cebpf4jnsgd1na2vs0mg"},{"bike_id":"089b421a-1c36-49ca-a690-f002c1cadcb6","system_id":"levelo_inurba_marseille","lat":43.24166,"lon":5.36406,"is_reserved":false,"is_disabled":false,"rental_uris":{"android":"levelo://app?vid=089b421a-1c36-49ca-a690-f002c1cadcb6","ios":"levelo://app?vid=089b421a-1c36-49ca-a690-f002c1cadcb6"},"vehicle_type_id":"4","last_reported":1740190060,"current_range_meters":12400,"station_id":"cpo36qri1sfpv3e86is0","pricing_plan_id":"cebpf4jnsgd1na2vs0mg"},{"bike_id":"c672939c-40af-4d90-b6d7-b952ca12c9e7","system_id":"levelo_inurba_marseille","lat":43.243832,"lon":5.370714,"is_reserved":false,"is_disabled":false,"rental_uris":{"android":"levelo://app?vid=c672939c-40af-4d90-b6d7-b952ca12c9e7","ios":"levelo://app?vid=c672939c-40af-4d90-b6d7-b952ca12c9e7"},"vehicle_type_id":"4","last_reported":1740190060,"current_range_meters":12400,"station_id":"ce4bhhh2rcd13ifvqfk0","pricing_plan_id":"cebpf4jnsgd1na2vs0mg"},{"bike_id":"6c2ab6e6-2d04-4225-b04d-1f709ec68055","system_id":"levelo_inurba_marseille","lat":43.229398,"lon":5.353799,"is_reserved":false,"is_disabled":false,"rental_uris":{"android":"levelo://app?vid=6c2ab6e6-2d04-4225-b04d-1f709ec68055","ios":"levelo://app?vid=6c2ab6e6-2d04-4225-b04d-1f709ec68055"},"vehicle_type_id":"4","last_reported":1740190060,"current_range_meters":12400,"station_id":"cpo3532slgdg3j2ikp40","pricing_plan_id":"cebpf4jnsgd1na2vs0mg"},{"bike_id":"a843b7bf-825f-466d-b5d5-1b9b4d73dcf9","system_id":"levelo_inurba_marseille","lat":43.29386,"lon":5.38804,"is_reserved":false,"is_disabled":false,"rental_uris":{"android":"levelo://app?vid=a843b7bf-825f-466d-b5d5-1b9b4d73dcf9","ios":"levelo://app?vid=a843b7bf-825f-466d-b5d5-1b9b4d73dcf9"},"vehicle_type_id":"4","last_reported":1740190060,"current_range_meters":12400,"station_id":"","pricing_plan_id":"cebpf4jnsgd1na2vs0mg"},{"bike_id":"35331f57-b06c-41f1-8224-4eb3668702eb","system_id":"levelo_inurba_marseille","lat":43.23046,"lon":5.35501,"is_reserved":false,"is_disabled":false,"rental_uris":{"android":"levelo://app?vid=35331f57-b06c-41f1-8224-4eb3668702eb","ios":"levelo://app?vid=35331f57-b06c-41f1-8224-4eb3668702eb"},"vehicle_type_id":"4","last_reported":1740190060,"current_range_meters":12400,"station_id":"cpo3342slgdg3j2ifvpg","pricing_plan_id":"cebpf4jnsgd1na2vs0mg"},{"bike_id":"2e8b1b89-b249-4468-85cb-15bdcc0e862d","system_id":"levelo_inurba_marseille","lat":43.28447,"lon":5.35882,"is_reserved":false,"is_disabled":false,"rental_uris":{"android":"levelo://app?vid=2e8b1b89-b249-4468-85cb-15bdcc0e862d","ios":"levelo://app?vid=2e8b1b89-b249-4468-85cb-15bdcc0e862d"},"vehicle_type_id":"4","last_reported":1740190060,"current_range_meters":12400,"station_id":"ce4bhah2rcd13ifvqei0","pricing_plan_id":"cebpf4jnsgd1na2vs0mg"},{"bike_id":"d312ce1d-aae9-4c62-a1e8-38c15d95735a","system_id":"levelo_inurba_marseille","lat":43.22948,"lon":5.35403,"is_reserved":false,"is_disabled":false,"rental_uris":{"android":"levelo://app?vid=d312ce1d-aae9-4c62-a1e8-38c15d95735a","ios":"levelo://app?vid=d312ce1d-aae9-4c62-a1e8-38c15d95735a"},"vehicle_type_id":"4","last_reported":1740190060,"current_range_meters":12800,"station_id":"cpo3532slgdg3j2ikp40","pricing_plan_id":"cebpf4jnsgd1na2vs0mg"},{"bike_id":"c0dec5ae-41bd-43b8-b71c-9140150dda3b","system_id":"levelo_inurba_marseille","lat":43.24849,"lon":5.37463,"is_reserved":false,"is_disabled":false,"rental_uris":{"android":"levelo://app?vid=c0dec5ae-41bd-43b8-b71c-9140150dda3b","ios":"levelo://app?vid=c0dec5ae-41bd-43b8-b71c-9140150dda3b"},"vehicle_type_id":"4","last_reported":1740190060,"current_range_meters":12800,"station_id":"","pricing_plan_id":"cebpf4jnsgd1na2vs0mg"},{"bike_id":"7c8f3d05-5401-4545-847e-9fcee9ea83d5","system_id":"levelo_inurba_marseille","lat":43.26572,"lon":5.39869,"is_reserved":false,"is_disabled":false,"rental_uris":{"android":"levelo://app?vid=7c8f3d05-5401-4545-847e-9fcee9ea83d5","ios":"levelo://app?vid=7c8f3d05-5401-4545-847e-9fcee9ea83d5"},"vehicle_type_id":"4","last_reported":1740190060,"current_range_meters":12800,"station_id":"","pricing_plan_id":"cebpf4jnsgd1na2vs0mg"},{"bike_id":"997a74cc-c838-40aa-8d2b-9cf7867b18c7","system_id":"levelo_inurba_marseille","lat":43.25826,"lon":5.39437,"is_reserved":false,"is_disabled":false,"rental_uris":{"android":"levelo://app?vid=997a74cc-c838-40aa-8d2b-9cf7867b18c7","ios":"levelo://app?vid=997a74cc-c838-40aa-8d2b-9cf7867b18c7"},"vehicle_type_id":"4","last_reported":1740190060,"current_range_meters":12800,"station_id":"ce4bhip2rcd13ifvqft0","pricing_plan_id":"cebpf4jnsgd1na2vs0mg"},{"bike_id":"265e0085-dbb2-442c-82c5-057359849f03","system_id":"levelo_inurba_marseille","lat":43.265503,"lon":5.390128,"is_reserved":false,"is_disabled":false,"rental_uris":{"android":"levelo://app?vid=265e0085-dbb2-442c-82c5-057359849f03","ios":"levelo://app?vid=265e0085-dbb2-442c-82c5-057359849f03"},"vehicle_type_id":"4","last_reported":1740190060,"current_range_meters":12800,"station_id":"ce4bhe12rcd13ifvqf30","pricing_plan_id":"cebpf4jnsgd1na2vs0mg"},{"bike_id":"dff557ff-126c-48c2-9538-9412d8f07010","system_id":"levelo_inurba_marseille","lat":43.27918,"lon":5.39587,"is_reserved":false,"is_disabled":false,"rental_uris":{"android":"levelo://app?vid=dff557ff-126c-48c2-9538-9412d8f07010","ios":"levelo://app?vid=dff557ff-126c-48c2-9538-9412d8f07010"},"vehicle_type_id":"4","last_reported":1740190060,"current_range_meters":12800,"station_id":"ce4bhf92rcd13ifvqf40","pricing_plan_id":"cebpf4jnsgd1na2vs0mg"},{"bike_id":"996a076a-47a9-409e-b132-b3e0f9f2a75b","system_id":"levelo_inurba_marseille","lat":43.24669,"lon":5.38159,"is_reserved":false,"is_disabled":false,"rental_uris":{"android":"levelo://app?vid=996a076a-47a9-409e-b132-b3e0f9f2a75b","ios":"levelo://app?vid=996a076a-47a9-409e-b132-b3e0f9f2a75b"},"vehicle_type_id":"4","last_reported":1740190060,"current_range_meters":12800,"station_id":"ce4bhih2rcd13ifvqfr0","pricing_plan_id":"cebpf4jnsgd1na2vs0mg"},{"bike_id":"fd1bd7a7-5aaa-49a8-ade0-9f3ab3adc337","system_id":"levelo_inurba_marseille","lat":43.31208,"lon":5.38664,"is_reserved":false,"is_disabled":false,"rental_uris":{"android":"levelo://app?vid=fd1bd7a7-5aaa-49a8-ade0-9f3ab3adc337","ios":"levelo://app?vid=fd1bd7a7-5aaa-49a8-ade0-9f3ab3adc337"},"vehicle_type_id":"4","last_reported":1740190060,"current_range_meters":13600,"station_id":"","pricing_plan_id":"cebpf4jnsgd1na2vs0mg"},{"bike_id":"daebfd60-67e2-4d10-8a42-90733f08394f","system_id":"levelo_inurba_marseille","lat":43.282288,"lon":5.402837,"is_reserved":false,"is_disabled":false,"rental_uris":{"android":"levelo://app?vid=daebfd60-67e2-4d10-8a42-90733f08394f","ios":"levelo://app?vid=daebfd60-67e2-4d10-8a42-90733f08394f"},"vehicle_type_id":"4","last_reported":1740190060,"current_range_meters":13600,"station_id":"","pricing_plan_id":"cebpf4jnsgd1na2vs0mg"},{"bike_id":"2cc51be8-3d37-4d75-afde-af294fd2823e","system_id":"levelo_inurba_marseille","lat":43.29845,"lon":5.3627,"is_reserved":false,"is_disabled":false,"rental_uris":{"android":"levelo://app?vid=2cc51be8-3d37-4d75-afde-af294fd2823e","ios":"levelo://app?vid=2cc51be8-3d37-4d75-afde-af294fd2823e"},"vehicle_type_id":"4","last_reported":1740190060,"current_range_meters":13600,"station_id":"ce4bgpp2rcd13ifvqc3g","pricing_plan_id":"cebpf4jnsgd1na2vs0mg"},{"bike_id":"3c232bab-88ac-4592-9031-c21395fd8a78","system_id":"levelo_inurba_marseille","lat":43.32363,"lon":5.3676,"is_reserved":false,"is_disabled":false,"rental_uris":{"android":"levelo://app?vid=3c232bab-88ac-4592-9031-c21395fd8a78","ios":"levelo://app?vid=3c232bab-88ac-4592-9031-c21395fd8a78"},"vehicle_type_id":"4","last_reported":1740190060,"current_range_meters":14000,"station_id":"ce4bhsh2rcd13ifvqi2g","pricing_plan_id":"cebpf4jnsgd1na2vs0mg"},{"bike_id":"c2a249cc-1213-47e6-83c0-90a96fbf7048","system_id":"levelo_inurba_marseille","lat":43.27862,"lon":5.40705,"is_reserved":false,"is_disabled":true,"rental_uris":{"android":"levelo://app?vid=c2a249cc-1213-47e6-83c0-90a96fbf7048","ios":"levelo://app?vid=c2a249cc-1213-47e6-83c0-90a96fbf7048"},"vehicle_type_id":"4","last_reported":1740190060,"current_range_meters":14000,"station_id":"","pricing_plan_id":"cebpf4jnsgd1na2vs0mg"},{"bike_id":"38c2196f-60da-4a86-be5c-c989272553dd","system_id":"levelo_inurba_marseille","lat":43.28477,"lon":5.38427,"is_reserved":false,"is_disabled":false,"rental_uris":{"android":"levelo://app?vid=38c2196f-60da-4a86-be5c-c989272553dd","ios":"levelo://app?vid=38c2196f-60da-4a86-be5c-c989272553dd"},"vehicle_type_id":"4","last_reported":1740190060,"current_range_meters":14000,"station_id":"ce4bh512rcd13ifvqe3g","pricing_plan_id":"cebpf4jnsgd1na2vs0mg"},{"bike_id":"1951b280-e8ac-4fa5-a3ef-806580107c2a","system_id":"levelo_inurba_marseille","lat":43.28156,"lon":5.4265,"is_reserved":false,"is_disabled":false,"rental_uris":{"android":"levelo://app?vid=1951b280-e8ac-4fa5-a3ef-806580107c2a","ios":"levelo://app?vid=1951b280-e8ac-4fa5-a3ef-806580107c2a"},"vehicle_type_id":"4","last_reported":1740190060,"current_range_meters":14800,"station_id":"ce4bhnh2rcd13ifvqgug","pricing_plan_id":"cebpf4jnsgd1na2vs0mg"},{"bike_id":"0b35ef10-1d1d-4e8a-949e-c3122c5e3874","system_id":"levelo_inurba_marseille","lat":43.23956,"lon":5.36635,"is_reserved":false,"is_disabled":false,"rental_uris":{"android":"levelo://app?vid=0b35ef10-1d1d-4e8a-949e-c3122c5e3874","ios":"levelo://app?vid=0b35ef10-1d1d-4e8a-949e-c3122c5e3874"},"vehicle_type_id":"4","last_reported":1740190060,"current_range_meters":14800,"station_id":"ce4bhi12rcd13ifvqfp0","pricing_plan_id":"cebpf4jnsgd1na2vs0mg"},{"bike_id":"8ab72027-be6f-4216-bb6a-609d441593f8","system_id":"levelo_inurba_marseille","lat":43.291048,"lon":5.387826,"is_reserved":false,"is_disabled":false,"rental_uris":{"android":"levelo://app?vid=8ab72027-be6f-4216-bb6a-609d441593f8","ios":"levelo://app?vid=8ab72027-be6f-4216-bb6a-609d441593f8"},"vehicle_type_id":"4","last_reported":1740190060,"current_range_meters":14800,"station_id":"","pricing_plan_id":"cebpf4jnsgd1na2vs0mg"},{"bike_id":"6e274d9f-89d8-4a25-a4f3-c30449f9d08e","system_id":"levelo_inurba_marseille","lat":43.25725,"lon":5.41101,"is_reserved":false,"is_disabled":false,"rental_uris":{"android":"levelo://app?vid=6e274d9f-89d8-4a25-a4f3-c30449f9d08e","ios":"levelo://app?vid=6e274d9f-89d8-4a25-a4f3-c30449f9d08e"},"vehicle_type_id":"4","last_reported":1740190060,"current_range_meters":14800,"station_id":"ce4bhkp2rcd13ifvqgd0","pricing_plan_id":"cebpf4jnsgd1na2vs0mg"},{"bike_id":"a89d4714-5021-4706-9c1a-f8f3afcc8d1e","system_id":"levelo_inurba_marseille","lat":43.28854,"lon":5.35851,"is_reserved":false,"is_disabled":false,"rental_uris":{"android":"levelo://app?vid=a89d4714-5021-4706-9c1a-f8f3afcc8d1e","ios":"levelo://app?vid=a89d4714-5021-4706-9c1a-f8f3afcc8d1e"},"vehicle_type_id":"4","last_reported":1740190060,"current_range_meters":14800,"station_id":"ce4bhb12rcd13ifvqem0","pricing_plan_id":"cebpf4jnsgd1na2vs0mg"},{"bike_id":"c56820ec-afc4-49d0-bdf5-efc4a2017ff0","system_id":"levelo_inurba_marseille","lat":43.28476,"lon":5.35875,"is_reserved":false,"is_disabled":false,"rental_uris":{"android":"levelo://app?vid=c56820ec-afc4-49d0-bdf5-efc4a2017ff0","ios":"levelo://app?vid=c56820ec-afc4-49d0-bdf5-efc4a2017ff0"},"vehicle_type_id":"4","last_reported":1740190060,"current_range_meters":15200,"station_id":"ce4bhah2rcd13ifvqei0","pricing_plan_id":"cebpf4jnsgd1na2vs0mg"},{"bike_id":"1c2ebff0-e1b3-47cd-b132-f19902c4ebb4","system_id":"levelo_inurba_marseille","lat":43.28687,"lon":5.37405,"is_reserved":false,"is_disabled":false,"rental_uris":{"android":"levelo://app?vid=1c2ebff0-e1b3-47cd-b132-f19902c4ebb4","ios":"levelo://app?vid=1c2ebff0-e1b3-47cd-b132-f19902c4ebb4"},"vehicle_type_id":"4","last_reported":1740190060,"current_range_meters":15200,"station_id":"ce4bh3p2rcd13ifvqdq0","pricing_plan_id":"cebpf4jnsgd1na2vs0mg"},{"bike_id":"f92a1a2b-ec8c-483d-b8b0-a89f1a73b7cd","system_id":"levelo_inurba_marseille","lat":43.28939,"lon":5.36404,"is_reserved":false,"is_disabled":false,"rental_uris":{"android":"levelo://app?vid=f92a1a2b-ec8c-483d-b8b0-a89f1a73b7cd","ios":"levelo://app?vid=f92a1a2b-ec8c-483d-b8b0-a89f1a73b7cd"},"vehicle_type_id":"4","last_reported":1740190060,"current_range_meters":15200,"station_id":"ce4bhc92rcd13ifvqetg","pricing_plan_id":"cebpf4jnsgd1na2vs0mg"},{"bike_id":"0c383ce5-56f4-475d-a51d-5eb362fcd4f5","system_id":"levelo_inurba_marseille","lat":43.28703,"lon":5.40005,"is_reserved":false,"is_disabled":false,"rental_uris":{"android":"levelo://app?vid=0c383ce5-56f4-475d-a51d-5eb362fcd4f5","ios":"levelo://app?vid=0c383ce5-56f4-475d-a51d-5eb362fcd4f5"},"vehicle_type_id":"4","last_reported":1740190060,"current_range_meters":15200,"station_id":"ce4bho92rcd13ifvqh3g","pricing_plan_id":"cebpf4jnsgd1na2vs0mg"},{"bike_id":"f2583835-6391-492f-adcd-0276b5ac89b1","system_id":"levelo_inurba_marseille","lat":43.25725,"lon":5.41107,"is_reserved":false,"is_disabled":false,"rental_uris":{"android":"levelo://app?vid=f2583835-6391-492f-adcd-0276b5ac89b1","ios":"levelo://app?vid=f2583835-6391-492f-adcd-0276b5ac89b1"},"vehicle_type_id":"4","last_reported":1740190060,"current_range_meters":15200,"station_id":"ce4bhkp2rcd13ifvqgd0","pricing_plan_id":"cebpf4jnsgd1na2vs0mg"},{"bike_id":"31a35964-9be5-4b4d-b7a9-8c74b1f4260d","system_id":"levelo_inurba_marseille","lat":43.28024,"lon":5.40573,"is_reserved":false,"is_disabled":false,"rental_uris":{"android":"levelo://app?vid=31a35964-9be5-4b4d-b7a9-8c74b1f4260d","ios":"levelo://app?vid=31a35964-9be5-4b4d-b7a9-8c74b1f4260d"},"vehicle_type_id":"4","last_reported":1740190060,"current_range_meters":15200,"station_id":"","pricing_plan_id":"cebpf4jnsgd1na2vs0mg"},{"bike_id":"519c0d90-c598-4074-9c80-d5e1565ff705","system_id":"levelo_inurba_marseille","lat":43.23068,"lon":5.35499,"is_reserved":false,"is_disabled":false,"rental_uris":{"android":"levelo://app?vid=519c0d90-c598-4074-9c80-d5e1565ff705","ios":"levelo://app?vid=519c0d90-c598-4074-9c80-d5e1565ff705"},"vehicle_type_id":"4","last_reported":1740190060,"current_range_meters":16000,"station_id":"cpo3342slgdg3j2ifvpg","pricing_plan_id":"cebpf4jnsgd1na2vs0mg"},{"bike_id":"c9bf55b1-046a-4232-af85-cc58efdf849d","system_id":"levelo_inurba_marseille","lat":43.30155,"lon":5.37387,"is_reserved":false,"is_disabled":false,"rental_uris":{"android":"levelo://app?vid=c9bf55b1-046a-4232-af85-cc58efdf849d","ios":"levelo://app?vid=c9bf55b1-046a-4232-af85-cc58efdf849d"},"vehicle_type_id":"4","last_reported":1740190060,"current_range_meters":16000,"station_id":"ce4bgs92rcd13ifvqcc0","pricing_plan_id":"cebpf4jnsgd1na2vs0mg"},{"bike_id":"06b5b92e-20c2-4581-8ccf-06307578ea44","system_id":"levelo_inurba_marseille","lat":43.27189,"lon":5.40961,"is_reserved":false,"is_disabled":false,"rental_uris":{"android":"levelo://app?vid=06b5b92e-20c2-4581-8ccf-06307578ea44","ios":"levelo://app?vid=06b5b92e-20c2-4581-8ccf-06307578ea44"},"vehicle_type_id":"4","last_reported":1740190060,"current_range_meters":16000,"station_id":"ce4bhl12rcd13ifvqgf0","pricing_plan_id":"cebpf4jnsgd1na2vs0mg"},{"bike_id":"e1806998-26ad-4692-ae75-0a4efe3d228f","system_id":"levelo_inurba_marseille","lat":43.28422,"lon":5.39191,"is_reserved":false,"is_disabled":false,"rental_uris":{"android":"levelo://app?vid=e1806998-26ad-4692-ae75-0a4efe3d228f","ios":"levelo://app?vid=e1806998-26ad-4692-ae75-0a4efe3d228f"},"vehicle_type_id":"4","last_reported":1740190060,"current_range_meters":16000,"station_id":"ce4bhoh2rcd13ifvqh5g","pricing_plan_id":"cebpf4jnsgd1na2vs0mg"},{"bike_id":"a886f04d-aa54-47df-a2e5-7151eceb320f","system_id":"levelo_inurba_marseille","lat":43.31363,"lon":5.38493,"is_reserved":false,"is_disabled":false,"rental_uris":{"android":"levelo://app?vid=a886f04d-aa54-47df-a2e5-7151eceb320f","ios":"levelo://app?vid=a886f04d-aa54-47df-a2e5-7151eceb320f"},"vehicle_type_id":"4","last_reported":1740190060,"current_range_meters":16000,"station_id":"ce4bgt92rcd13ifvqcf0","pricing_plan_id":"cebpf4jnsgd1na2vs0mg"},{"bike_id":"c4a3f5dd-b8d8-4d73-8a8f-ea8b0e26e290","system_id":"levelo_inurba_marseille","lat":43.29965,"lon":5.4132,"is_reserved":false,"is_disabled":false,"rental_uris":{"android":"levelo://app?vid=c4a3f5dd-b8d8-4d73-8a8f-ea8b0e26e290","ios":"levelo://app?vid=c4a3f5dd-b8d8-4d73-8a8f-ea8b0e26e290"},"vehicle_type_id":"4","last_reported":1740190060,"current_range_meters":16000,"station_id":"ce4bhp12rcd13ifvqh9g","pricing_plan_id":"cebpf4jnsgd1na2vs0mg"},{"bike_id":"1b0d6542-f74d-4dd5-b78b-1cd1115ff80b","system_id":"levelo_inurba_marseille","lat":43.30639,"lon":5.37364,"is_reserved":false,"is_disabled":false,"rental_uris":{"android":"levelo://app?vid=1b0d6542-f74d-4dd5-b78b-1cd1115ff80b","ios":"levelo://app?vid=1b0d6542-f74d-4dd5-b78b-1cd1115ff80b"},"vehicle_type_id":"4","last_reported":1740190060,"current_range_meters":16400,"station_id":"","pricing_plan_id":"cebpf4jnsgd1na2vs0mg"},{"bike_id":"ecb792ba-e590-4d62-97cc-1e9b429064df","system_id":"levelo_inurba_marseille","lat":43.25018,"lon":5.38902,"is_reserved":false,"is_disabled":false,"rental_uris":{"android":"levelo://app?vid=ecb792ba-e590-4d62-97cc-1e9b429064df","ios":"levelo://app?vid=ecb792ba-e590-4d62-97cc-1e9b429064df"},"vehicle_type_id":"4","last_reported":1740190060,"current_range_meters":16400,"station_id":"ce4bhgp2rcd13ifvqfd0","pricing_plan_id":"cebpf4jnsgd1na2vs0mg"},{"bike_id":"1b5b87c8-f96f-4740-8b60-bcc62c6e3f59","system_id":"levelo_inurba_marseille","lat":43.31396,"lon":5.38447,"is_reserved":false,"is_disabled":false,"rental_uris":{"android":"levelo://app?vid=1b5b87c8-f96f-4740-8b60-bcc62c6e3f59","ios":"levelo://app?vid=1b5b87c8-f96f-4740-8b60-bcc62c6e3f59"},"vehicle_type_id":"4","last_reported":1740190060,"current_range_meters":16400,"station_id":"","pricing_plan_id":"cebpf4jnsgd1na2vs0mg"},{"bike_id":"0ad83138-d1d7-4879-92bc-353bd8753b66","system_id":"levelo_inurba_marseille","lat":43.3013,"lon":5.3878,"is_reserved":false,"is_disabled":false,"rental_uris":{"android":"levelo://app?vid=0ad83138-d1d7-4879-92bc-353bd8753b66","ios":"levelo://app?vid=0ad83138-d1d7-4879-92bc-353bd8753b66"},"vehicle_type_id":"4","last_reported":1740190060,"current_range_meters":16400,"station_id":"ce4bghh2rcd13ifvqb60","pricing_plan_id":"cebpf4jnsgd1na2vs0mg"},{"bike_id":"dc1fce77-a765-4398-991f-f895da3f81f0","system_id":"levelo_inurba_marseille","lat":43.31131,"lon":5.37759,"is_reserved":false,"is_disabled":true,"rental_uris":{"android":"levelo://app?vid=dc1fce77-a765-4398-991f-f895da3f81f0","ios":"levelo://app?vid=dc1fce77-a765-4398-991f-f895da3f81f0"},"vehicle_type_id":"4","last_reported":1740190060,"current_range_meters":16800,"station_id":"ce4bgt92rcd13ifvqcg0","pricing_plan_id":"cebpf4jnsgd1na2vs0mg"},{"bike_id":"28498ee2-b4bb-4960-b2b4-76a6ca099e78","system_id":"levelo_inurba_marseille","lat":43.28419,"lon":5.37513,"is_reserved":false,"is_disabled":false,"rental_uris":{"android":"levelo://app?vid=28498ee2-b4bb-4960-b2b4-76a6ca099e78","ios":"levelo://app?vid=28498ee2-b4bb-4960-b2b4-76a6ca099e78"},"vehicle_type_id":"4","last_reported":1740190060,"current_range_meters":16800,"station_id":"ce4bh412rcd13ifvqds0","pricing_plan_id":"cebpf4jnsgd1na2vs0mg"},{"bike_id":"467a0ac7-872c-4bb6-8ee3-3c6f458a51d9","system_id":"levelo_inurba_marseille","lat":43.2791,"lon":5.41243,"is_reserved":false,"is_disabled":false,"rental_uris":{"android":"levelo://app?vid=467a0ac7-872c-4bb6-8ee3-3c6f458a51d9","ios":"levelo://app?vid=467a0ac7-872c-4bb6-8ee3-3c6f458a51d9"},"vehicle_type_id":"4","last_reported":1740190060,"current_range_meters":16800,"station_id":"","pricing_plan_id":"cebpf4jnsgd1na2vs0mg"},{"bike_id":"b0f3d5e7-fca5-4750-ab55-35d0e88657ee","system_id":"levelo_inurba_marseille","lat":43.31369,"lon":5.38512,"is_reserved":false,"is_disabled":false,"rental_uris":{"android":"levelo://app?vid=b0f3d5e7-fca5-4750-ab55-35d0e88657ee","ios":"levelo://app?vid=b0f3d5e7-fca5-4750-ab55-35d0e88657ee"},"vehicle_type_id":"4","last_reported":1740190060,"current_range_meters":16800,"station_id":"ce4bgt92rcd13ifvqcf0","pricing_plan_id":"cebpf4jnsgd1na2vs0mg"},{"bike_id":"8b52c24a-60e9-4f95-8f6d-a404db75239c","system_id":"levelo_inurba_marseille","lat":43.27381,"lon":5.3625,"is_reserved":false,"is_disabled":false,"rental_uris":{"android":"levelo://app?vid=8b52c24a-60e9-4f95-8f6d-a404db75239c","ios":"levelo://app?vid=8b52c24a-60e9-4f95-8f6d-a404db75239c"},"vehicle_type_id":"4","last_reported":1740190060,"current_range_meters":16800,"station_id":"ce4bhbh2rcd13ifvqeo0","pricing_plan_id":"cebpf4jnsgd1na2vs0mg"},{"bike_id":"d5566d2e-78e8-488f-b3e7-c9c338cd491f","system_id":"levelo_inurba_marseille","lat":43.27494,"lon":5.42467,"is_reserved":false,"is_disabled":false,"rental_uris":{"android":"levelo://app?vid=d5566d2e-78e8-488f-b3e7-c9c338cd491f","ios":"levelo://app?vid=d5566d2e-78e8-488f-b3e7-c9c338cd491f"},"vehicle_type_id":"4","last_reported":1740190060,"current_range_meters":16800,"station_id":"ce4bhn92rcd13ifvqgrg","pricing_plan_id":"cebpf4jnsgd1na2vs0mg"},{"bike_id":"fbb2bad0-99e6-4736-9de6-ac42bd2be903","system_id":"levelo_inurba_marseille","lat":43.29197,"lon":5.39339,"is_reserved":false,"is_disabled":false,"rental_uris":{"android":"levelo://app?vid=fbb2bad0-99e6-4736-9de6-ac42bd2be903","ios":"levelo://app?vid=fbb2bad0-99e6-4736-9de6-ac42bd2be903"},"vehicle_type_id":"4","last_reported":1740190060,"current_range_meters":16800,"station_id":"ce4bh192rcd13ifvqdd0","pricing_plan_id":"cebpf4jnsgd1na2vs0mg"},{"bike_id":"12ffda0a-87e5-4f79-b284-3416cf7a96d4","system_id":"levelo_inurba_marseille","lat":43.25866,"lon":5.39902,"is_reserved":false,"is_disabled":false,"rental_uris":{"android":"levelo://app?vid=12ffda0a-87e5-4f79-b284-3416cf7a96d4","ios":"levelo://app?vid=12ffda0a-87e5-4f79-b284-3416cf7a96d4"},"vehicle_type_id":"4","last_reported":1740190060,"current_range_meters":16800,"station_id":"ce4bhl92rcd13ifvqghg","pricing_plan_id":"cebpf4jnsgd1na2vs0mg"},{"bike_id":"a6076d25-d844-412a-85fb-dcdd847e5197","system_id":"levelo_inurba_marseille","lat":43.2925,"lon":5.40915,"is_reserved":false,"is_disabled":false,"rental_uris":{"android":"levelo://app?vid=a6076d25-d844-412a-85fb-dcdd847e5197","ios":"levelo://app?vid=a6076d25-d844-412a-85fb-dcdd847e5197"},"vehicle_type_id":"4","last_reported":1740190060,"current_range_meters":16800,"station_id":"ce4bh192rcd13ifvqdc0","pricing_plan_id":"cebpf4jnsgd1na2vs0mg"},{"bike_id":"0eb5ae42-d668-42ca-9e02-80ce6843c8ee","system_id":"levelo_inurba_marseille","lat":43.29264,"lon":5.40126,"is_reserved":false,"is_disabled":false,"rental_uris":{"android":"levelo://app?vid=0eb5ae42-d668-42ca-9e02-80ce6843c8ee","ios":"levelo://app?vid=0eb5ae42-d668-42ca-9e02-80ce6843c8ee"},"vehicle_type_id":"4","last_reported":1740190060,"current_range_meters":16800,"station_id":"ce4bh312rcd13ifvqdk0","pricing_plan_id":"cebpf4jnsgd1na2vs0mg"},{"bike_id":"005e5eb8-39b1-40fe-bf10-36f6bd3cba88","system_id":"levelo_inurba_marseille","lat":43.28371,"lon":5.38638,"is_reserved":false,"is_disabled":false,"rental_uris":{"android":"levelo://app?vid=005e5eb8-39b1-40fe-bf10-36f6bd3cba88","ios":"levelo://app?vid=005e5eb8-39b1-40fe-bf10-36f6bd3cba88"},"vehicle_type_id":"4","last_reported":1740190060,"current_range_meters":16800,"station_id":"ce4bh492rcd13ifvqdvg","pricing_plan_id":"cebpf4jnsgd1na2vs0mg"},{"bike_id":"dab960d9-1ede-46dd-ade3-a5360c9021cf","system_id":"levelo_inurba_marseille","lat":43.23194,"lon":5.35551,"is_reserved":false,"is_disabled":false,"rental_uris":{"android":"levelo://app?vid=dab960d9-1ede-46dd-ade3-a5360c9021cf","ios":"levelo://app?vid=dab960d9-1ede-46dd-ade3-a5360c9021cf"},"vehicle_type_id":"4","last_reported":1740190060,"current_range_meters":16800,"station_id":"ce4bhu92rcd13ifvqi70","pricing_plan_id":"cebpf4jnsgd1na2vs0mg"},{"bike_id":"cfaad917-6703-4f3b-8105-3de57a1c412d","system_id":"levelo_inurba_marseille","lat":43.29172,"lon":5.386,"is_reserved":false,"is_disabled":false,"rental_uris":{"android":"levelo://app?vid=cfaad917-6703-4f3b-8105-3de57a1c412d","ios":"levelo://app?vid=cfaad917-6703-4f3b-8105-3de57a1c412d"},"vehicle_type_id":"4","last_reported":1740190060,"current_range_meters":16800,"station_id":"","pricing_plan_id":"cebpf4jnsgd1na2vs0mg"},{"bike_id":"7b3cabe1-5c29-42e3-875a-0ef9e45b503e","system_id":"levelo_inurba_marseille","lat":43.2926,"lon":5.40905,"is_reserved":false,"is_disabled":false,"rental_uris":{"android":"levelo://app?vid=7b3cabe1-5c29-42e3-875a-0ef9e45b503e","ios":"levelo://app?vid=7b3cabe1-5c29-42e3-875a-0ef9e45b503e"},"vehicle_type_id":"4","last_reported":1740190060,"current_range_meters":16800,"station_id":"ce4bh192rcd13ifvqdc0","pricing_plan_id":"cebpf4jnsgd1na2vs0mg"},{"bike_id":"c47f3d98-2abe-4c97-9c9c-e2ee8dd37b49","system_id":"levelo_inurba_marseille","lat":43.2558,"lon":5.38229,"is_reserved":false,"is_disabled":false,"rental_uris":{"android":"levelo://app?vid=c47f3d98-2abe-4c97-9c9c-e2ee8dd37b49","ios":"levelo://app?vid=c47f3d98-2abe-4c97-9c9c-e2ee8dd37b49"},"vehicle_type_id":"4","last_reported":1740190060,"current_range_meters":16800,"station_id":"ce4bhih2rcd13ifvqfs0","pricing_plan_id":"cebpf4jnsgd1na2vs0mg"},{"bike_id":"eb354cf3-daf0-4f07-9e6f-1eb2682396af","system_id":"levelo_inurba_marseille","lat":43.27975,"lon":5.40027,"is_reserved":false,"is_disabled":false,"rental_uris":{"android":"levelo://app?vid=eb354cf3-daf0-4f07-9e6f-1eb2682396af","ios":"levelo://app?vid=eb354cf3-daf0-4f07-9e6f-1eb2682396af"},"vehicle_type_id":"4","last_reported":1740190060,"current_range_meters":16800,"station_id":"ce4bho92rcd13ifvqh4g","pricing_plan_id":"cebpf4jnsgd1na2vs0mg"},{"bike_id":"96b9f7c0-cd3c-40d1-bc41-8a82bed04cc8","system_id":"levelo_inurba_marseille","lat":43.292717,"lon":5.368432,"is_reserved":false,"is_disabled":true,"rental_uris":{"android":"levelo://app?vid=96b9f7c0-cd3c-40d1-bc41-8a82bed04cc8","ios":"levelo://app?vid=96b9f7c0-cd3c-40d1-bc41-8a82bed04cc8"},"vehicle_type_id":"4","last_reported":1740190060,"current_range_meters":16800,"station_id":"ce4bhbp2rcd13ifvqesg","pricing_plan_id":"cebpf4jnsgd1na2vs0mg"},{"bike_id":"e70c3035-a65b-448a-acf2-b607ac1201f3","system_id":"levelo_inurba_marseille","lat":43.30106,"lon":5.39063,"is_reserved":false,"is_disabled":false,"rental_uris":{"android":"levelo://app?vid=e70c3035-a65b-448a-acf2-b607ac1201f3","ios":"levelo://app?vid=e70c3035-a65b-448a-acf2-b607ac1201f3"},"vehicle_type_id":"4","last_reported":1740190060,"current_range_meters":17200,"station_id":"ce4bh192rcd13ifvqdb0","pricing_plan_id":"cebpf4jnsgd1na2vs0mg"},{"bike_id":"1f7411cd-9379-4bab-a8bc-411b928d8602","system_id":"levelo_inurba_marseille","lat":43.27478,"lon":5.42454,"is_reserved":false,"is_disabled":false,"rental_uris":{"android":"levelo://app?vid=1f7411cd-9379-4bab-a8bc-411b928d8602","ios":"levelo://app?vid=1f7411cd-9379-4bab-a8bc-411b928d8602"},"vehicle_type_id":"4","last_reported":1740190060,"current_range_meters":17200,"station_id":"ce4bhn92rcd13ifvqgrg","pricing_plan_id":"cebpf4jnsgd1na2vs0mg"},{"bike_id":"6897935d-90c4-4aaa-81bd-a334d1112cb3","system_id":"levelo_inurba_marseille","lat":43.24678,"lon":5.38154,"is_reserved":false,"is_disabled":false,"rental_uris":{"android":"levelo://app?vid=6897935d-90c4-4aaa-81bd-a334d1112cb3","ios":"levelo://app?vid=6897935d-90c4-4aaa-81bd-a334d1112cb3"},"vehicle_type_id":"4","last_reported":1740190060,"current_range_meters":17200,"station_id":"ce4bhih2rcd13ifvqfr0","pricing_plan_id":"cebpf4jnsgd1na2vs0mg"},{"bike_id":"ab8e4fa1-a748-4b68-9f46-2fdc2afb052f","system_id":"levelo_inurba_marseille","lat":43.25818,"lon":5.39425,"is_reserved":false,"is_disabled":false,"rental_uris":{"android":"levelo://app?vid=ab8e4fa1-a748-4b68-9f46-2fdc2afb052f","ios":"levelo://app?vid=ab8e4fa1-a748-4b68-9f46-2fdc2afb052f"},"vehicle_type_id":"4","last_reported":1740190060,"current_range_meters":17200,"station_id":"ce4bhip2rcd13ifvqft0","pricing_plan_id":"cebpf4jnsgd1na2vs0mg"},{"bike_id":"643a7c3e-869b-4899-b02d-6dd3d6907b38","system_id":"levelo_inurba_marseille","lat":43.25117,"lon":5.40315,"is_reserved":false,"is_disabled":false,"rental_uris":{"android":"levelo://app?vid=643a7c3e-869b-4899-b02d-6dd3d6907b38","ios":"levelo://app?vid=643a7c3e-869b-4899-b02d-6dd3d6907b38"},"vehicle_type_id":"4","last_reported":1740190060,"current_range_meters":17200,"station_id":"ce4bhlh2rcd13ifvqgig","pricing_plan_id":"cebpf4jnsgd1na2vs0mg"},{"bike_id":"f75b7c43-b1e9-419b-9e88-97af31d30220","system_id":"levelo_inurba_marseille","lat":43.23954,"lon":5.3665,"is_reserved":false,"is_disabled":false,"rental_uris":{"android":"levelo://app?vid=f75b7c43-b1e9-419b-9e88-97af31d30220","ios":"levelo://app?vid=f75b7c43-b1e9-419b-9e88-97af31d30220"},"vehicle_type_id":"4","last_reported":1740190060,"current_range_meters":17200,"station_id":"ce4bhi12rcd13ifvqfp0","pricing_plan_id":"cebpf4jnsgd1na2vs0mg"},{"bike_id":"a6b3d48d-4c62-470f-acf0-9e792886753f","system_id":"levelo_inurba_marseille","lat":43.28155,"lon":5.42642,"is_reserved":false,"is_disabled":false,"rental_uris":{"android":"levelo://app?vid=a6b3d48d-4c62-470f-acf0-9e792886753f","ios":"levelo://app?vid=a6b3d48d-4c62-470f-acf0-9e792886753f"},"vehicle_type_id":"4","last_reported":1740190060,"current_range_meters":17200,"station_id":"ce4bhnh2rcd13ifvqgug","pricing_plan_id":"cebpf4jnsgd1na2vs0mg"},{"bike_id":"38f9bc40-639e-4f64-87e9-15092cc7344e","system_id":"levelo_inurba_marseille","lat":43.34415,"lon":5.38166,"is_reserved":false,"is_disabled":false,"rental_uris":{"android":"levelo://app?vid=38f9bc40-639e-4f64-87e9-15092cc7344e","ios":"levelo://app?vid=38f9bc40-639e-4f64-87e9-15092cc7344e"},"vehicle_type_id":"4","last_reported":1740190060,"current_range_meters":17200,"station_id":"","pricing_plan_id":"cebpf4jnsgd1na2vs0mg"},{"bike_id":"e985c6df-42dc-42f6-9942-2accd57dfefa","system_id":"levelo_inurba_marseille","lat":43.27046,"lon":5.40262,"is_reserved":false,"is_disabled":false,"rental_uris":{"android":"levelo://app?vid=e985c6df-42dc-42f6-9942-2accd57dfefa","ios":"levelo://app?vid=e985c6df-42dc-42f6-9942-2accd57dfefa"},"vehicle_type_id":"4","last_reported":1740190060,"current_range_meters":17200,"station_id":"ce4bhk92rcd13ifvqgc0","pricing_plan_id":"cebpf4jnsgd1na2vs0mg"},{"bike_id":"f5298310-14cd-4aed-bc3f-841e7d37dcf5","system_id":"levelo_inurba_marseille","lat":43.32648,"lon":5.40973,"is_reserved":false,"is_disabled":true,"rental_uris":{"android":"levelo://app?vid=f5298310-14cd-4aed-bc3f-841e7d37dcf5","ios":"levelo://app?vid=f5298310-14cd-4aed-bc3f-841e7d37dcf5"},"vehicle_type_id":"4","last_reported":1740190060,"current_range_meters":17200,"station_id":"ce4bhpp2rcd13ifvqhgg","pricing_plan_id":"cebpf4jnsgd1na2vs0mg"},{"bike_id":"d4a3441d-abba-469c-87fd-d7b3887c4dfd","system_id":"levelo_inurba_marseille","lat":43.27957,"lon":5.41042,"is_reserved":false,"is_disabled":false,"rental_uris":{"android":"levelo://app?vid=d4a3441d-abba-469c-87fd-d7b3887c4dfd","ios":"levelo://app?vid=d4a3441d-abba-469c-87fd-d7b3887c4dfd"},"vehicle_type_id":"4","last_reported":1740190060,"current_range_meters":17600,"station_id":"ce4bhnp2rcd13ifvqh0g","pricing_plan_id":"cebpf4jnsgd1na2vs0mg"},{"bike_id":"3971b9ad-8b33-41a5-8799-31b103f45972","system_id":"levelo_inurba_marseille","lat":43.31703,"lon":5.40455,"is_reserved":false,"is_disabled":false,"rental_uris":{"android":"levelo://app?vid=3971b9ad-8b33-41a5-8799-31b103f45972","ios":"levelo://app?vid=3971b9ad-8b33-41a5-8799-31b103f45972"},"vehicle_type_id":"4","last_reported":1740190060,"current_range_meters":17600,"station_id":"ce4bh012rcd13ifvqd00","pricing_plan_id":"cebpf4jnsgd1na2vs0mg"},{"bike_id":"6171c7fc-2f00-4981-afb4-d8d6db9c37a7","system_id":"levelo_inurba_marseille","lat":43.30811,"lon":5.38126,"is_reserved":false,"is_disabled":true,"rental_uris":{"android":"levelo://app?vid=6171c7fc-2f00-4981-afb4-d8d6db9c37a7","ios":"levelo://app?vid=6171c7fc-2f00-4981-afb4-d8d6db9c37a7"},"vehicle_type_id":"4","last_reported":1740190060,"current_range_meters":17600,"station_id":"ce4bgt12rcd13ifvqce0","pricing_plan_id":"cebpf4jnsgd1na2vs0mg"},{"bike_id":"f842c117-2ace-4f66-8be6-dabd412a0582","system_id":"levelo_inurba_marseille","lat":43.31269,"lon":5.40165,"is_reserved":false,"is_disabled":false,"rental_uris":{"android":"levelo://app?vid=f842c117-2ace-4f66-8be6-dabd412a0582","ios":"levelo://app?vid=f842c117-2ace-4f66-8be6-dabd412a0582"},"vehicle_type_id":"4","last_reported":1740190060,"current_range_meters":17600,"station_id":"ce4bh092rcd13ifvqd30","pricing_plan_id":"cebpf4jnsgd1na2vs0mg"},{"bike_id":"ddbecc57-4884-47cb-94ad-beb9a36d8a7c","system_id":"levelo_inurba_marseille","lat":43.28864,"lon":5.39308,"is_reserved":false,"is_disabled":false,"rental_uris":{"android":"levelo://app?vid=ddbecc57-4884-47cb-94ad-beb9a36d8a7c","ios":"levelo://app?vid=ddbecc57-4884-47cb-94ad-beb9a36d8a7c"},"vehicle_type_id":"4","last_reported":1740190060,"current_range_meters":17600,"station_id":"ce4bh2p2rcd13ifvqdi0","pricing_plan_id":"cebpf4jnsgd1na2vs0mg"},{"bike_id":"bc558735-2479-4391-a735-df6e67205a24","system_id":"levelo_inurba_marseille","lat":43.25109,"lon":5.40319,"is_reserved":false,"is_disabled":false,"rental_uris":{"android":"levelo://app?vid=bc558735-2479-4391-a735-df6e67205a24","ios":"levelo://app?vid=bc558735-2479-4391-a735-df6e67205a24"},"vehicle_type_id":"4","last_reported":1740190060,"current_range_meters":17600,"station_id":"ce4bhlh2rcd13ifvqgig","pricing_plan_id":"cebpf4jnsgd1na2vs0mg"},{"bike_id":"ccc99b68-1545-4295-94f4-acf63eafef20","system_id":"levelo_inurba_marseille","lat":43.28348,"lon":5.3811,"is_reserved":false,"is_disabled":false,"rental_uris":{"android":"levelo://app?vid=ccc99b68-1545-4295-94f4-acf63eafef20","ios":"levelo://app?vid=ccc99b68-1545-4295-94f4-acf63eafef20"},"vehicle_type_id":"4","last_reported":1740190060,"current_range_meters":17600,"station_id":"ce4bh412rcd13ifvqdr0","pricing_plan_id":"cebpf4jnsgd1na2vs0mg"},{"bike_id":"8e403f8a-b998-4fb1-bb90-54bf70e024a5","system_id":"levelo_inurba_marseille","lat":43.26935,"lon":5.389166,"is_reserved":false,"is_disabled":false,"rental_uris":{"android":"levelo://app?vid=8e403f8a-b998-4fb1-bb90-54bf70e024a5","ios":"levelo://app?vid=8e403f8a-b998-4fb1-bb90-54bf70e024a5"},"vehicle_type_id":"4","last_reported":1740190060,"current_range_meters":17600,"station_id":"ce4bhhh2rcd13ifvqfl0","pricing_plan_id":"cebpf4jnsgd1na2vs0mg"},{"bike_id":"e396f565-544f-4dea-a1de-828f6b41343c","system_id":"levelo_inurba_marseille","lat":43.28148,"lon":5.42646,"is_reserved":false,"is_disabled":false,"rental_uris":{"android":"levelo://app?vid=e396f565-544f-4dea-a1de-828f6b41343c","ios":"levelo://app?vid=e396f565-544f-4dea-a1de-828f6b41343c"},"vehicle_type_id":"4","last_reported":1740190060,"current_range_meters":17600,"station_id":"ce4bhnh2rcd13ifvqgug","pricing_plan_id":"cebpf4jnsgd1na2vs0mg"},{"bike_id":"ace0e9b9-22e6-4869-a827-925cac49dd8d","system_id":"levelo_inurba_marseille","lat":43.27996,"lon":5.41623,"is_reserved":false,"is_disabled":false,"rental_uris":{"android":"levelo://app?vid=ace0e9b9-22e6-4869-a827-925cac49dd8d","ios":"levelo://app?vid=ace0e9b9-22e6-4869-a827-925cac49dd8d"},"vehicle_type_id":"4","last_reported":1740190060,"current_range_meters":17600,"station_id":"ce4bho12rcd13ifvqh1g","pricing_plan_id":"cebpf4jnsgd1na2vs0mg"},{"bike_id":"78aa47e2-a7fa-44ca-94a7-c65c375b91d7","system_id":"levelo_inurba_marseille","lat":43.24787,"lon":5.37462,"is_reserved":false,"is_disabled":false,"rental_uris":{"android":"levelo://app?vid=78aa47e2-a7fa-44ca-94a7-c65c375b91d7","ios":"levelo://app?vid=78aa47e2-a7fa-44ca-94a7-c65c375b91d7"},"vehicle_type_id":"4","last_reported":1740190060,"current_range_meters":18000,"station_id":"ce4bhgh2rcd13ifvqfb0","pricing_plan_id":"cebpf4jnsgd1na2vs0mg"},{"bike_id":"725861b6-aaa7-4c06-b816-d197237ddf32","system_id":"levelo_inurba_marseille","lat":43.287126,"lon":5.379411,"is_reserved":false,"is_disabled":false,"rental_uris":{"android":"levelo://app?vid=725861b6-aaa7-4c06-b816-d197237ddf32","ios":"levelo://app?vid=725861b6-aaa7-4c06-b816-d197237ddf32"},"vehicle_type_id":"4","last_reported":1740190060,"current_range_meters":18000,"station_id":"ce4bh9p2rcd13ifvqec0","pricing_plan_id":"cebpf4jnsgd1na2vs0mg"},{"bike_id":"9c4d843e-98fd-444f-ab88-a2f0b1180ee6","system_id":"levelo_inurba_marseille","lat":43.28155,"lon":5.42647,"is_reserved":false,"is_disabled":false,"rental_uris":{"android":"levelo://app?vid=9c4d843e-98fd-444f-ab88-a2f0b1180ee6","ios":"levelo://app?vid=9c4d843e-98fd-444f-ab88-a2f0b1180ee6"},"vehicle_type_id":"4","last_reported":1740190060,"current_range_meters":18000,"station_id":"ce4bhnh2rcd13ifvqgug","pricing_plan_id":"cebpf4jnsgd1na2vs0mg"},{"bike_id":"268accaf-ae39-4a71-b480-74b0cc5c9356","system_id":"levelo_inurba_marseille","lat":43.283661,"lon":5.386353,"is_reserved":false,"is_disabled":false,"rental_uris":{"android":"levelo://app?vid=268accaf-ae39-4a71-b480-74b0cc5c9356","ios":"levelo://app?vid=268accaf-ae39-4a71-b480-74b0cc5c9356"},"vehicle_type_id":"4","last_reported":1740190060,"current_range_meters":18000,"station_id":"ce4bh492rcd13ifvqdvg","pricing_plan_id":"cebpf4jnsgd1na2vs0mg"},{"bike_id":"bf2a9407-badc-490a-bd4c-11540c267052","system_id":"levelo_inurba_marseille","lat":43.29256,"lon":5.40901,"is_reserved":false,"is_disabled":false,"rental_uris":{"android":"levelo://app?vid=bf2a9407-badc-490a-bd4c-11540c267052","ios":"levelo://app?vid=bf2a9407-badc-490a-bd4c-11540c267052"},"vehicle_type_id":"4","last_reported":1740190060,"current_range_meters":18000,"station_id":"ce4bh192rcd13ifvqdc0","pricing_plan_id":"cebpf4jnsgd1na2vs0mg"},{"bike_id":"0c33f1f1-9de2-4635-88dd-5b3b6f2bb3a3","system_id":"levelo_inurba_marseille","lat":43.30149,"lon":5.38102,"is_reserved":false,"is_disabled":false,"rental_uris":{"android":"levelo://app?vid=0c33f1f1-9de2-4635-88dd-5b3b6f2bb3a3","ios":"levelo://app?vid=0c33f1f1-9de2-4635-88dd-5b3b6f2bb3a3"},"vehicle_type_id":"4","last_reported":1740190060,"current_range_meters":18000,"station_id":"ce4bgjp2rcd13ifvqbh0","pricing_plan_id":"cebpf4jnsgd1na2vs0mg"},{"bike_id":"255e786b-2ebd-409e-8a12-689a91c60eaf","system_id":"levelo_inurba_marseille","lat":43.2872,"lon":5.37929,"is_reserved":false,"is_disabled":false,"rental_uris":{"android":"levelo://app?vid=255e786b-2ebd-409e-8a12-689a91c60eaf","ios":"levelo://app?vid=255e786b-2ebd-409e-8a12-689a91c60eaf"},"vehicle_type_id":"4","last_reported":1740190060,"current_range_meters":18000,"station_id":"ce4bh9p2rcd13ifvqec0","pricing_plan_id":"cebpf4jnsgd1na2vs0mg"},{"bike_id":"af8ec3bf-b592-453d-8f00-5bd20e58c96e","system_id":"levelo_inurba_marseille","lat":43.29453,"lon":5.39743,"is_reserved":false,"is_disabled":false,"rental_uris":{"android":"levelo://app?vid=af8ec3bf-b592-453d-8f00-5bd20e58c96e","ios":"levelo://app?vid=af8ec3bf-b592-453d-8f00-5bd20e58c96e"},"vehicle_type_id":"4","last_reported":1740190060,"current_range_meters":18800,"station_id":"ce4bh3h2rcd13ifvqdo0","pricing_plan_id":"cebpf4jnsgd1na2vs0mg"},{"bike_id":"acc99c3d-8988-4213-85e7-762cbe3c231d","system_id":"levelo_inurba_marseille","lat":43.24179,"lon":5.39735,"is_reserved":false,"is_disabled":false,"rental_uris":{"android":"levelo://app?vid=acc99c3d-8988-4213-85e7-762cbe3c231d","ios":"levelo://app?vid=acc99c3d-8988-4213-85e7-762cbe3c231d"},"vehicle_type_id":"4","last_reported":1740190060,"current_range_meters":18800,"station_id":"ce4bhn12rcd13ifvqgpg","pricing_plan_id":"cebpf4jnsgd1na2vs0mg"},{"bike_id":"b46e2cd9-9583-48ce-9fd8-e84487554328","system_id":"levelo_inurba_marseille","lat":43.25112,"lon":5.40326,"is_reserved":false,"is_disabled":false,"rental_uris":{"android":"levelo://app?vid=b46e2cd9-9583-48ce-9fd8-e84487554328","ios":"levelo://app?vid=b46e2cd9-9583-48ce-9fd8-e84487554328"},"vehicle_type_id":"4","last_reported":1740190060,"current_range_meters":18800,"station_id":"ce4bhlh2rcd13ifvqgig","pricing_plan_id":"cebpf4jnsgd1na2vs0mg"},{"bike_id":"105ea8ad-0d16-4875-9fde-e085311250f4","system_id":"levelo_inurba_marseille","lat":43.23195,"lon":5.3555,"is_reserved":false,"is_disabled":false,"rental_uris":{"android":"levelo://app?vid=105ea8ad-0d16-4875-9fde-e085311250f4","ios":"levelo://app?vid=105ea8ad-0d16-4875-9fde-e085311250f4"},"vehicle_type_id":"4","last_reported":1740190060,"current_range_meters":18800,"station_id":"ce4bhu92rcd13ifvqi70","pricing_plan_id":"cebpf4jnsgd1na2vs0mg"},{"bike_id":"3fd2a98c-7939-498c-8625-9658300a849b","system_id":"levelo_inurba_marseille","lat":43.25929,"lon":5.40879,"is_reserved":false,"is_disabled":false,"rental_uris":{"android":"levelo://app?vid=3fd2a98c-7939-498c-8625-9658300a849b","ios":"levelo://app?vid=3fd2a98c-7939-498c-8625-9658300a849b"},"vehicle_type_id":"4","last_reported":1740190060,"current_range_meters":18800,"station_id":"ce4bhm92rcd13ifvqglg","pricing_plan_id":"cebpf4jnsgd1na2vs0mg"},{"bike_id":"fcb4de08-c373-4c5d-a0d2-88032e74db12","system_id":"levelo_inurba_marseille","lat":43.2586,"lon":5.39908,"is_reserved":false,"is_disabled":false,"rental_uris":{"android":"levelo://app?vid=fcb4de08-c373-4c5d-a0d2-88032e74db12","ios":"levelo://app?vid=fcb4de08-c373-4c5d-a0d2-88032e74db12"},"vehicle_type_id":"4","last_reported":1740190060,"current_range_meters":18800,"station_id":"ce4bhl92rcd13ifvqghg","pricing_plan_id":"cebpf4jnsgd1na2vs0mg"},{"bike_id":"6bafa852-1f3a-493f-8842-1c0a87e6341d","system_id":"levelo_inurba_marseille","lat":43.2961,"lon":5.37711,"is_reserved":false,"is_disabled":true,"rental_uris":{"android":"levelo://app?vid=6bafa852-1f3a-493f-8842-1c0a87e6341d","ios":"levelo://app?vid=6bafa852-1f3a-493f-8842-1c0a87e6341d"},"vehicle_type_id":"4","last_reported":1740190060,"current_range_meters":18800,"station_id":"ce4bgi92rcd13ifvqb90","pricing_plan_id":"cebpf4jnsgd1na2vs0mg"},{"bike_id":"637ae276-67c3-4464-85ff-51e3c814f053","system_id":"levelo_inurba_marseille","lat":43.29569,"lon":5.3997,"is_reserved":false,"is_disabled":false,"rental_uris":{"android":"levelo://app?vid=637ae276-67c3-4464-85ff-51e3c814f053","ios":"levelo://app?vid=637ae276-67c3-4464-85ff-51e3c814f053"},"vehicle_type_id":"4","last_reported":1740190060,"current_range_meters":18800,"station_id":"ce4bh312rcd13ifvqdj0","pricing_plan_id":"cebpf4jnsgd1na2vs0mg"},{"bike_id":"91d90af7-9678-4662-961c-cf80ac9c5443","system_id":"levelo_inurba_marseille","lat":43.3234,"lon":5.40622,"is_reserved":false,"is_disabled":false,"rental_uris":{"android":"levelo://app?vid=91d90af7-9678-4662-961c-cf80ac9c5443","ios":"levelo://app?vid=91d90af7-9678-4662-961c-cf80ac9c5443"},"vehicle_type_id":"4","last_reported":1740190060,"current_range_meters":18800,"station_id":"ce4bhq92rcd13ifvqhjg","pricing_plan_id":"cebpf4jnsgd1na2vs0mg"},{"bike_id":"e86e9def-85c3-4d1b-8c66-4511177d388c","system_id":"levelo_inurba_marseille","lat":43.28567,"lon":5.39502,"is_reserved":false,"is_disabled":false,"rental_uris":{"android":"levelo://app?vid=e86e9def-85c3-4d1b-8c66-4511177d388c","ios":"levelo://app?vid=e86e9def-85c3-4d1b-8c66-4511177d388c"},"vehicle_type_id":"4","last_reported":1740190060,"current_range_meters":18800,"station_id":"ce4bh292rcd13ifvqdg0","pricing_plan_id":"cebpf4jnsgd1na2vs0mg"},{"bike_id":"7318a6e8-6a9c-49ed-81c8-462cfc1992d9","system_id":"levelo_inurba_marseille","lat":43.28489,"lon":5.3842,"is_reserved":false,"is_disabled":false,"rental_uris":{"android":"levelo://app?vid=7318a6e8-6a9c-49ed-81c8-462cfc1992d9","ios":"levelo://app?vid=7318a6e8-6a9c-49ed-81c8-462cfc1992d9"},"vehicle_type_id":"4","last_reported":1740190060,"current_range_meters":18800,"station_id":"ce4bh512rcd13ifvqe3g","pricing_plan_id":"cebpf4jnsgd1na2vs0mg"},{"bike_id":"ada87957-d2e0-4de4-ba54-94947bec273e","system_id":"levelo_inurba_marseille","lat":43.29546,"lon":5.39396,"is_reserved":false,"is_disabled":false,"rental_uris":{"android":"levelo://app?vid=ada87957-d2e0-4de4-ba54-94947bec273e","ios":"levelo://app?vid=ada87957-d2e0-4de4-ba54-94947bec273e"},"vehicle_type_id":"4","last_reported":1740190060,"current_range_meters":19200,"station_id":"ce4bh292rcd13ifvqdf0","pricing_plan_id":"cebpf4jnsgd1na2vs0mg"},{"bike_id":"dfaf66eb-1c97-44c2-84a1-9c0e07a70fa8","system_id":"levelo_inurba_marseille","lat":43.29805,"lon":5.40396,"is_reserved":false,"is_disabled":false,"rental_uris":{"android":"levelo://app?vid=dfaf66eb-1c97-44c2-84a1-9c0e07a70fa8","ios":"levelo://app?vid=dfaf66eb-1c97-44c2-84a1-9c0e07a70fa8"},"vehicle_type_id":"4","last_reported":1740190060,"current_range_meters":19200,"station_id":"ce4bh112rcd13ifvqd90","pricing_plan_id":"cebpf4jnsgd1na2vs0mg"},{"bike_id":"94e68a7e-17f4-40cf-a07e-ddb52f6b74be","system_id":"levelo_inurba_marseille","lat":43.31324,"lon":5.39694,"is_reserved":false,"is_disabled":false,"rental_uris":{"android":"levelo://app?vid=94e68a7e-17f4-40cf-a07e-ddb52f6b74be","ios":"levelo://app?vid=94e68a7e-17f4-40cf-a07e-ddb52f6b74be"},"vehicle_type_id":"4","last_reported":1740190060,"current_range_meters":19200,"station_id":"ce4bgvp2rcd13ifvqcu0","pricing_plan_id":"cebpf4jnsgd1na2vs0mg"},{"bike_id":"2f1b3736-6a0a-4e7f-9ca6-6c7a4672dc43","system_id":"levelo_inurba_marseille","lat":43.27834,"lon":5.39215,"is_reserved":false,"is_disabled":false,"rental_uris":{"android":"levelo://app?vid=2f1b3736-6a0a-4e7f-9ca6-6c7a4672dc43","ios":"levelo://app?vid=2f1b3736-6a0a-4e7f-9ca6-6c7a4672dc43"},"vehicle_type_id":"4","last_reported":1740190060,"current_range_meters":19200,"station_id":"ce4bhjp2rcd13ifvqga0","pricing_plan_id":"cebpf4jnsgd1na2vs0mg"},{"bike_id":"21d4bf47-e0a5-42e6-9763-f7581c5c0683","system_id":"levelo_inurba_marseille","lat":43.279939,"lon":5.400059,"is_reserved":false,"is_disabled":true,"rental_uris":{"android":"levelo://app?vid=21d4bf47-e0a5-42e6-9763-f7581c5c0683","ios":"levelo://app?vid=21d4bf47-e0a5-42e6-9763-f7581c5c0683"},"vehicle_type_id":"4","last_reported":1740190060,"current_range_meters":19200,"station_id":"","pricing_plan_id":"cebpf4jnsgd1na2vs0mg"},{"bike_id":"fa3aa5a5-4e00-466e-8b65-149b2e48f46f","system_id":"levelo_inurba_marseille","lat":43.30245,"lon":5.40015,"is_reserved":false,"is_disabled":false,"rental_uris":{"android":"levelo://app?vid=fa3aa5a5-4e00-466e-8b65-149b2e48f46f","ios":"levelo://app?vid=fa3aa5a5-4e00-466e-8b65-149b2e48f46f"},"vehicle_type_id":"4","last_reported":1740190060,"current_range_meters":19200,"station_id":"","pricing_plan_id":"cebpf4jnsgd1na2vs0mg"},{"bike_id":"a112c2db-0609-453e-b947-5b5f60ea7f1d","system_id":"levelo_inurba_marseille","lat":43.28413,"lon":5.37519,"is_reserved":false,"is_disabled":false,"rental_uris":{"android":"levelo://app?vid=a112c2db-0609-453e-b947-5b5f60ea7f1d","ios":"levelo://app?vid=a112c2db-0609-453e-b947-5b5f60ea7f1d"},"vehicle_type_id":"4","last_reported":1740190060,"current_range_meters":19200,"station_id":"ce4bh412rcd13ifvqds0","pricing_plan_id":"cebpf4jnsgd1na2vs0mg"},{"bike_id":"7b961df5-02b9-46f2-8b82-2d839f71e419","system_id":"levelo_inurba_marseille","lat":43.25867,"lon":5.39905,"is_reserved":false,"is_disabled":false,"rental_uris":{"android":"levelo://app?vid=7b961df5-02b9-46f2-8b82-2d839f71e419","ios":"levelo://app?vid=7b961df5-02b9-46f2-8b82-2d839f71e419"},"vehicle_type_id":"4","last_reported":1740190060,"current_range_meters":19200,"station_id":"ce4bhl92rcd13ifvqghg","pricing_plan_id":"cebpf4jnsgd1na2vs0mg"},{"bike_id":"e8b83138-4311-4c0c-9cee-8cd1f24e10f0","system_id":"levelo_inurba_marseille","lat":43.26475,"lon":5.39561,"is_reserved":false,"is_disabled":false,"rental_uris":{"android":"levelo://app?vid=e8b83138-4311-4c0c-9cee-8cd1f24e10f0","ios":"levelo://app?vid=e8b83138-4311-4c0c-9cee-8cd1f24e10f0"},"vehicle_type_id":"4","last_reported":1740190060,"current_range_meters":19200,"station_id":"ce4bhi12rcd13ifvqfq0","pricing_plan_id":"cebpf4jnsgd1na2vs0mg"},{"bike_id":"7f26cc64-aa96-4094-b33d-6ca3a07421b3","system_id":"levelo_inurba_marseille","lat":43.28259,"lon":5.35087,"is_reserved":false,"is_disabled":false,"rental_uris":{"android":"levelo://app?vid=7f26cc64-aa96-4094-b33d-6ca3a07421b3","ios":"levelo://app?vid=7f26cc64-aa96-4094-b33d-6ca3a07421b3"},"vehicle_type_id":"4","last_reported":1740190060,"current_range_meters":19200,"station_id":"ce4bhbp2rcd13ifvqerg","pricing_plan_id":"cebpf4jnsgd1na2vs0mg"},{"bike_id":"955f0554-f1a7-425e-adb6-8b24dc2896c4","system_id":"levelo_inurba_marseille","lat":43.28455,"lon":5.35888,"is_reserved":false,"is_disabled":false,"rental_uris":{"android":"levelo://app?vid=955f0554-f1a7-425e-adb6-8b24dc2896c4","ios":"levelo://app?vid=955f0554-f1a7-425e-adb6-8b24dc2896c4"},"vehicle_type_id":"4","last_reported":1740190060,"current_range_meters":19200,"station_id":"ce4bhah2rcd13ifvqei0","pricing_plan_id":"cebpf4jnsgd1na2vs0mg"},{"bike_id":"103f77c9-589f-480a-9173-ecd3e24a0282","system_id":"levelo_inurba_marseille","lat":43.26947,"lon":5.38627,"is_reserved":false,"is_disabled":false,"rental_uris":{"android":"levelo://app?vid=103f77c9-589f-480a-9173-ecd3e24a0282","ios":"levelo://app?vid=103f77c9-589f-480a-9173-ecd3e24a0282"},"vehicle_type_id":"4","last_reported":1740190060,"current_range_meters":19600,"station_id":"ce4bhh92rcd13ifvqfh0","pricing_plan_id":"cebpf4jnsgd1na2vs0mg"},{"bike_id":"f8a18861-8554-4a52-b781-284c58c309b5","system_id":"levelo_inurba_marseille","lat":43.28845,"lon":5.39305,"is_reserved":false,"is_disabled":false,"rental_uris":{"android":"levelo://app?vid=f8a18861-8554-4a52-b781-284c58c309b5","ios":"levelo://app?vid=f8a18861-8554-4a52-b781-284c58c309b5"},"vehicle_type_id":"4","last_reported":1740190060,"current_range_meters":19600,"station_id":"ce4bh2p2rcd13ifvqdi0","pricing_plan_id":"cebpf4jnsgd1na2vs0mg"},{"bike_id":"d7a8ccad-412e-45ee-a34b-c87bdc449d3b","system_id":"levelo_inurba_marseille","lat":43.26948,"lon":5.38633,"is_reserved":false,"is_disabled":false,"rental_uris":{"android":"levelo://app?vid=d7a8ccad-412e-45ee-a34b-c87bdc449d3b","ios":"levelo://app?vid=d7a8ccad-412e-45ee-a34b-c87bdc449d3b"},"vehicle_type_id":"4","last_reported":1740190060,"current_range_meters":19600,"station_id":"ce4bhh92rcd13ifvqfh0","pricing_plan_id":"cebpf4jnsgd1na2vs0mg"},{"bike_id":"6f9d5acf-e563-4556-95e9-1630513c78a1","system_id":"levelo_inurba_marseille","lat":43.28632,"lon":5.35082,"is_reserved":false,"is_disabled":false,"rental_uris":{"android":"levelo://app?vid=6f9d5acf-e563-4556-95e9-1630513c78a1","ios":"levelo://app?vid=6f9d5acf-e563-4556-95e9-1630513c78a1"},"vehicle_type_id":"4","last_reported":1740190060,"current_range_meters":19600,"station_id":"ce4bhch2rcd13ifvqeug","pricing_plan_id":"cebpf4jnsgd1na2vs0mg"},{"bike_id":"3a95ba21-f083-417c-b056-66ab0874b2a2","system_id":"levelo_inurba_marseille","lat":43.30886,"lon":5.3964,"is_reserved":false,"is_disabled":false,"rental_uris":{"android":"levelo://app?vid=3a95ba21-f083-417c-b056-66ab0874b2a2","ios":"levelo://app?vid=3a95ba21-f083-417c-b056-66ab0874b2a2"},"vehicle_type_id":"4","last_reported":1740190060,"current_range_meters":19600,"station_id":"ce4bh012rcd13ifvqcv0","pricing_plan_id":"cebpf4jnsgd1na2vs0mg"},{"bike_id":"a0edf93a-4860-4f88-948b-32eb1c069e5f","system_id":"levelo_inurba_marseille","lat":43.26323,"lon":5.37384,"is_reserved":false,"is_disabled":false,"rental_uris":{"android":"levelo://app?vid=a0edf93a-4860-4f88-948b-32eb1c069e5f","ios":"levelo://app?vid=a0edf93a-4860-4f88-948b-32eb1c069e5f"},"vehicle_type_id":"4","last_reported":1740190060,"current_range_meters":19600,"station_id":"","pricing_plan_id":"cebpf4jnsgd1na2vs0mg"},{"bike_id":"44eaca6c-ce76-4da2-aa90-bc5b963c9d3d","system_id":"levelo_inurba_marseille","lat":43.28844,"lon":5.39325,"is_reserved":false,"is_disabled":false,"rental_uris":{"android":"levelo://app?vid=44eaca6c-ce76-4da2-aa90-bc5b963c9d3d","ios":"levelo://app?vid=44eaca6c-ce76-4da2-aa90-bc5b963c9d3d"},"vehicle_type_id":"4","last_reported":1740190060,"current_range_meters":19600,"station_id":"ce4bh2p2rcd13ifvqdi0","pricing_plan_id":"cebpf4jnsgd1na2vs0mg"},{"bike_id":"d30f173e-15ce-40a1-a9d4-7a374dbf48e8","system_id":"levelo_inurba_marseille","lat":43.27988,"lon":5.40031,"is_reserved":false,"is_disabled":false,"rental_uris":{"android":"levelo://app?vid=d30f173e-15ce-40a1-a9d4-7a374dbf48e8","ios":"levelo://app?vid=d30f173e-15ce-40a1-a9d4-7a374dbf48e8"},"vehicle_type_id":"4","last_reported":1740190060,"current_range_meters":19600,"station_id":"ce4bho92rcd13ifvqh4g","pricing_plan_id":"cebpf4jnsgd1na2vs0mg"},{"bike_id":"4525ffa6-697b-4a1a-b07d-4ec9b5e45512","system_id":"levelo_inurba_marseille","lat":43.30296,"lon":5.37711,"is_reserved":false,"is_disabled":false,"rental_uris":{"android":"levelo://app?vid=4525ffa6-697b-4a1a-b07d-4ec9b5e45512","ios":"levelo://app?vid=4525ffa6-697b-4a1a-b07d-4ec9b5e45512"},"vehicle_type_id":"4","last_reported":1740190060,"current_range_meters":20000,"station_id":"ce4bguh2rcd13ifvqcj0","pricing_plan_id":"cebpf4jnsgd1na2vs0mg"},{"bike_id":"e636832d-d31d-492b-9bcd-b899a106503d","system_id":"levelo_inurba_marseille","lat":43.2417,"lon":5.3639,"is_reserved":false,"is_disabled":false,"rental_uris":{"android":"levelo://app?vid=e636832d-d31d-492b-9bcd-b899a106503d","ios":"levelo://app?vid=e636832d-d31d-492b-9bcd-b899a106503d"},"vehicle_type_id":"4","last_reported":1740190060,"current_range_meters":20000,"station_id":"cpo36qri1sfpv3e86is0","pricing_plan_id":"cebpf4jnsgd1na2vs0mg"},{"bike_id":"37e671bf-fadb-4585-97cb-af5b4c6ec248","system_id":"levelo_inurba_marseille","lat":43.28841,"lon":5.35858,"is_reserved":false,"is_disabled":false,"rental_uris":{"android":"levelo://app?vid=37e671bf-fadb-4585-97cb-af5b4c6ec248","ios":"levelo://app?vid=37e671bf-fadb-4585-97cb-af5b4c6ec248"},"vehicle_type_id":"4","last_reported":1740190060,"current_range_meters":20000,"station_id":"ce4bhb12rcd13ifvqem0","pricing_plan_id":"cebpf4jnsgd1na2vs0mg"},