{"last_updated":1739912917,"ttl":60,"version":"2.2","data":{"bikes":[{"bike_id":"0d929241-b2b2-4962-bff1-647bc8bd5cec","system_id":"levelo_inurba_marseille","lat":43.3149,"lon":5.37297,"is_reserved":false,"is_disabled":false,"rental_uris":{"android":"levelo://app?vid=0d929241-b2b2-4962-bff1-647bc8bd5cec","ios":"levelo://app?vid=0d929241-b2b2-4962-bff1-647bc8bd5cec"},"vehicle_type_id":"4","last_reported":1739912917,"current_range_meters":2800,"station_id":"ce4bgt12rcd13ifvqcd0","pricing_plan_id":"cebpf4jnsgd1na2vs0mg"},{"bike_id":"9fdf5f4f-b13c-425b-ad6c-cd7921610f92","system_id":"levelo_inurba_marseille","lat":43.28101,"lon":5.37845,"is_reserved":false,"is_disabled":false,"rental_uris":{"android":"levelo://app?vid=9fdf5f4f-b13c-425b-ad6c-cd7921610f92","ios":"levelo://app?vid=9fdf5f4f-b13c-425b-ad6c-cd7921610f92"},"vehicle_type_id":"4","last_reported":1739912917,"current_range_meters":3200,"station_id":"","pricing_plan_id":"cebpf4jnsgd1na2vs0mg"},{"bike_id":"246b4b48-c74f-4090-8d6b-9e6c369c8c1c","system_id":"levelo_inurba_marseille","lat":43.30882,"lon":5.37194,"is_reserved":false,"is_disabled":false,"rental_uris":{"android":"levelo://app?vid=246b4b48-c74f-4090-8d6b-9e6c369c8c1c","ios":"levelo://app?vid=246b4b48-c74f-4090-8d6b-9e6c369c8c1c"},"vehicle_type_id":"4","last_reported":1739912917,"current_range_meters":3600,"station_id":"ce4bguh2rcd13ifvqckg","pricing_plan_id":"cebpf4jnsgd1na2vs0mg"},{"bike_id":"fa88b9d6-f787-4a52-81f2-29c2789df3a7","system_id":"levelo_inurba_marseille","lat":43.29535,"lon":5.38543,"is_reserved":false,"is_disabled":false,"rental_uris":{"android":"levelo://app?vid=fa88b9d6-f787-4a52-81f2-29c2789df3a7","ios":"levelo://app?vid=fa88b9d6-f787-4a52-81f2-29c2789df3a7"},"vehicle_type_id":"4","last_reported":1739912917,"current_range_meters":3600,"station_id":"","pricing_plan_id":"cebpf4jnsgd1na2vs0mg"},{"bike_id":"168ed846-8f7d-46da-8f69-7c1b5e1789c2","system_id":"levelo_inurba_marseille","lat":43.29038,"lon":5.37565,"is_reserved":false,"is_disabled":false,"rental_uris":{"android":"levelo://app?vid=168ed846-8f7d-46da-8f69-7c1b5e1789c2","ios":"levelo://app?vid=168ed846-8f7d-46da-8f69-7c1b5e1789c2"},"vehicle_type_id":"4","last_reported":1739912917,"current_range_meters":4000,"station_id":"ce4bh692rcd13ifvqe90","pricing_plan_id":"cebpf4jnsgd1na2vs0mg"},{"bike_id":"635050f9-a2c9-4910-8267-ff5a32e2982d","system_id":"levelo_inurba_marseille","lat":43.24815,"lon":5.37451,"is_reserved":false,"is_disabled":false,"rental_uris":{"android":"levelo://app?vid=635050f9-a2c9-4910-8267-ff5a32e2982d","ios":"levelo://app?vid=635050f9-a2c9-4910-8267-ff5a32e2982d"},"vehicle_type_id":"4","last_reported":1739912917,"current_range_meters":4400,"station_id":"","pricing_plan_id":"cebpf4jnsgd1na2vs0mg"},{"bike_id":"e4fad91b-9704-4e45-8eba-4df42dae1e8f","system_id":"levelo_inurba_marseille","lat":43.30313,"lon":5.36887,"is_reserved":false,"is_disabled":false,"rental_uris":{"android":"levelo://app?vid=e4fad91b-9704-4e45-8eba-4df42dae1e8f","ios":"levelo://app?vid=e4fad91b-9704-4e45-8eba-4df42dae1e8f"},"vehicle_type_id":"4","last_reported":1739912917,"current_range_meters":4800,"station_id":"ce4bgqh2rcd13ifvqc5g","pricing_plan_id":"cebpf4jnsgd1na2vs0mg"},{"bike_id":"a7f8b479-efb5-454d-8262-c96495774865","system_id":"levelo_inurba_marseille","lat":43.30472,"lon":5.37885,"is_reserved":false,"is_disabled":false,"rental_uris":{"android":"levelo://app?vid=a7f8b479-efb5-454d-8262-c96495774865","ios":"levelo://app?vid=a7f8b479-efb5-454d-8262-c96495774865"},"vehicle_type_id":"4","last_reported":1739912917,"current_range_meters":4800,"station_id":"ce4bgup2rcd13ifvqcn0","pricing_plan_id":"cebpf4jnsgd1na2vs0mg"},{"bike_id":"2e5e89c3-0e0e-4cca-b25a-7707cb6d7c5d","system_id":"levelo_inurba_marseille","lat":43.27624,"lon":5.40851,"is_reserved":false,"is_disabled":false,"rental_uris":{"android":"levelo://app?vid=2e5e89c3-0e0e-4cca-b25a-7707cb6d7c5d","ios":"levelo://app?vid=2e5e89c3-0e0e-4cca-b25a-7707cb6d7c5d"},"vehicle_type_id":"4","last_reported":1739912917,"current_range_meters":4800,"station_id":"","pricing_plan_id":"cebpf4jnsgd1na2vs0mg"},{"bike_id":"828f024f-3fa3-492e-b4f4-7bfb9d5e214d","system_id":"levelo_inurba_marseille","lat":43.27077,"lon":5.42245,"is_reserved":false,"is_disabled":true,"rental_uris":{"android":"levelo://app?vid=828f024f-3fa3-492e-b4f4-7bfb9d5e214d","ios":"levelo://app?vid=828f024f-3fa3-492e-b4f4-7bfb9d5e214d"},"vehicle_type_id":"4","last_reported":1739912917,"current_range_meters":4800,"station_id":"ce4bhk92rcd13ifvqgb0","pricing_plan_id":"cebpf4jnsgd1na2vs0mg"},{"bike_id":"2f0577ef-7c2e-4e1a-ac0b-291a39b625c3","system_id":"levelo_inurba_marseille","lat":43.30529,"lon":5.36714,"is_reserved":false,"is_disabled":false,"rental_uris":{"android":"levelo://app?vid=2f0577ef-7c2e-4e1a-ac0b-291a39b625c3","ios":"levelo://app?vid=2f0577ef-7c2e-4e1a-ac0b-291a39b625c3"},"vehicle_type_id":"4","last_reported":1739912917,"current_range_meters":4400,"station_id":"ce4bgrp2rcd13ifvqc9g","pricing_plan_id":"cebpf4jnsgd1na2vs0mg"},{"bike_id":"7b85ab77-b4da-49c0-828e-288db2e9b9ca","system_id":"levelo_inurba_marseille","lat":43.27823,"lon":5.39212,"is_reserved":false,"is_disabled":false,"rental_uris":{"android":"levelo://app?vid=7b85ab77-b4da-49c0-828e-288db2e9b9ca","ios":"levelo://app?vid=7b85ab77-b4da-49c0-828e-288db2e9b9ca"},"vehicle_type_id":"4","last_reported":1739912917,"current_range_meters":5600,"station_id":"ce4bhjp2rcd13ifvqga0","pricing_plan_id":"cebpf4jnsgd1na2vs0mg"},{"bike_id":"f01003c3-ccaf-4174-9e78-e2a89367cac1","system_id":"levelo_inurba_marseille","lat":43.23191,"lon":5.39976,"is_reserved":false,"is_disabled":false,"rental_uris":{"android":"levelo://app?vid=f01003c3-ccaf-4174-9e78-e2a89367cac1","ios":"levelo://app?vid=f01003c3-ccaf-4174-9e78-e2a89367cac1"},"vehicle_type_id":"4","last_reported":1739912917,"current_range_meters":6000,"station_id":"ce4bhn12rcd13ifvqgqg","pricing_plan_id":"cebpf4jnsgd1na2vs0mg"},{"bike_id":"98dafedc-f25b-409d-b3e2-803b47ffb900","system_id":"levelo_inurba_marseille","lat":43.245,"lon":5.372373,"is_reserved":false,"is_disabled":false,"rental_uris":{"android":"levelo://app?vid=98dafedc-f25b-409d-b3e2-803b47ffb900","ios":"levelo://app?vid=98dafedc-f25b-409d-b3e2-803b47ffb900"},"vehicle_type_id":"4","last_reported":1739912917,"current_range_meters":6000,"station_id":"","pricing_plan_id":"cebpf4jnsgd1na2vs0mg"},{"bike_id":"2fc51c18-93da-4c7a-ae54-30bc1bf5f64d","system_id":"levelo_inurba_marseille","lat":43.2951,"lon":5.38198,"is_reserved":false,"is_disabled":true,"rental_uris":{"android":"levelo://app?vid=2fc51c18-93da-4c7a-ae54-30bc1bf5f64d","ios":"levelo://app?vid=2fc51c18-93da-4c7a-ae54-30bc1bf5f64d"},"vehicle_type_id":"4","last_reported":1739912917,"current_range_meters":6000,"station_id":"","pricing_plan_id":"cebpf4jnsgd1na2vs0mg"},{"bike_id":"25dcf690-db42-4694-9c97-37e209bee538","system_id":"levelo_inurba_marseille","lat":43.2464,"lon":5.38979,"is_reserved":false,"is_disabled":false,"rental_uris":{"android":"levelo://app?vid=25dcf690-db42-4694-9c97-37e209bee538","ios":"levelo://app?vid=25dcf690-db42-4694-9c97-37e209bee538"},"vehicle_type_id":"4","last_reported":1739912917,"current_range_meters":6400,"station_id":"ce4bhg12rcd13ifvqf60","pricing_plan_id":"cebpf4jnsgd1na2vs0mg"},{"bike_id":"811901b7-6a39-4b98-9209-f363e05c2482","system_id":"levelo_inurba_marseille","lat":43.28183,"lon":5.42652,"is_reserved":false,"is_disabled":false,"rental_uris":{"android":"levelo://app?vid=811901b7-6a39-4b98-9209-f363e05c2482","ios":"levelo://app?vid=811901b7-6a39-4b98-9209-f363e05c2482"},"vehicle_type_id":"4","last_reported":1739912917,"current_range_meters":6400,"station_id":"ce4bhnh2rcd13ifvqgug","pricing_plan_id":"cebpf4jnsgd1na2vs0mg"},{"bike_id":"94899bd9-4372-4df5-a78d-e9278e077a1c","system_id":"levelo_inurba_marseille","lat":43.29423,"lon":5.38628,"is_reserved":false,"is_disabled":false,"rental_uris":{"android":"levelo://app?vid=94899bd9-4372-4df5-a78d-e9278e077a1c","ios":"levelo://app?vid=94899bd9-4372-4df5-a78d-e9278e077a1c"},"vehicle_type_id":"4","last_reported":1739912917,"current_range_meters":6400,"station_id":"","pricing_plan_id":"cebpf4jnsgd1na2vs0mg"},{"bike_id":"709b8cf4-02bd-4f26-84b4-fef6bbbba5d3","system_id":"levelo_inurba_marseille","lat":43.2396,"lon":5.36645,"is_reserved":false,"is_disabled":false,"rental_uris":{"android":"levelo://app?vid=709b8cf4-02bd-4f26-84b4-fef6bbbba5d3","ios":"levelo://app?vid=709b8cf4-02bd-4f26-84b4-fef6bbbba5d3"},"vehicle_type_id":"4","last_reported":1739912917,"current_range_meters":6400,"station_id":"ce4bhi12rcd13ifvqfp0","pricing_plan_id":"cebpf4jnsgd1na2vs0mg"},{"bike_id":"fa33d188-41f8-44d9-8f64-83f548130356","system_id":"levelo_inurba_marseille","lat":43.27942,"lon":5.410508,"is_reserved":false,"is_disabled":false,"rental_uris":{"android":"levelo://app?vid=fa33d188-41f8-44d9-8f64-83f548130356","ios":"levelo://app?vid=fa33d188-41f8-44d9-8f64-83f548130356"},"vehicle_type_id":"4","last_reported":1739912917,"current_range_meters":6400,"station_id":"ce4bhnp2rcd13ifvqh0g","pricing_plan_id":"cebpf4jnsgd1na2vs0mg"},{"bike_id":"f301f0ca-9a74-4b1b-95f5-7641143983d6","system_id":"levelo_inurba_marseille","lat":43.25083,"lon":5.39517,"is_reserved":false,"is_disabled":false,"rental_uris":{"android":"levelo://app?vid=f301f0ca-9a74-4b1b-95f5-7641143983d6","ios":"levelo://app?vid=f301f0ca-9a74-4b1b-95f5-7641143983d6"},"vehicle_type_id":"4","last_reported":1739912917,"current_range_meters":6400,"station_id":"ce4bhm12rcd13ifvqgkg","pricing_plan_id":"cebpf4jnsgd1na2vs0mg"},{"bike_id":"8ae3426c-4614-413d-abc6-3ab80eedaea5","system_id":"levelo_inurba_marseille","lat":43.3079,"lon":5.38141,"is_reserved":false,"is_disabled":false,"rental_uris":{"android":"levelo://app?vid=8ae3426c-4614-413d-abc6-3ab80eedaea5","ios":"levelo://app?vid=8ae3426c-4614-413d-abc6-3ab80eedaea5"},"vehicle_type_id":"4","last_reported":1739912917,"current_range_meters":9200,"station_id":"ce4bgt12rcd13ifvqce0","pricing_plan_id":"cebpf4jnsgd1na2vs0mg"},{"bike_id":"f8d119ac-78e5-4208-9e87-7041b1483860","system_id":"levelo_inurba_marseille","lat":43.26224,"lon":5.37471,"is_reserved":false,"is_disabled":false,"rental_uris":{"android":"levelo://app?vid=f8d119ac-78e5-4208-9e87-7041b1483860","ios":"levelo://app?vid=f8d119ac-78e5-4208-9e87-7041b1483860"},"vehicle_type_id":"4","last_reported":1739912917,"current_range_meters":6800,"station_id":"ce4bhgp2rcd13ifvqfc0","pricing_plan_id":"cebpf4jnsgd1na2vs0mg"},{"bike_id":"6528e792-6c2b-41ab-b102-37d30001a0e7","system_id":"levelo_inurba_marseille","lat":43.27248,"lon":5.4009,"is_reserved":false,"is_disabled":false,"rental_uris":{"android":"levelo://app?vid=6528e792-6c2b-41ab-b102-37d30001a0e7","ios":"levelo://app?vid=6528e792-6c2b-41ab-b102-37d30001a0e7"},"vehicle_type_id":"4","last_reported":1739912917,"current_range_meters":7200,"station_id":"","pricing_plan_id":"cebpf4jnsgd1na2vs0mg"},{"bike_id":"79fca65f-7726-4d8c-b178-da207c385007","system_id":"levelo_inurba_marseille","lat":43.2791,"lon":5.39586,"is_reserved":false,"is_disabled":false,"rental_uris":{"android":"levelo://app?vid=79fca65f-7726-4d8c-b178-da207c385007","ios":"levelo://app?vid=79fca65f-7726-4d8c-b178-da207c385007"},"vehicle_type_id":"4","last_reported":1739912917,"current_range_meters":7200,"station_id":"ce4bhf92rcd13ifvqf40","pricing_plan_id":"cebpf4jnsgd1na2vs0mg"},{"bike_id":"0bd739e5-7607-4447-8b6d-dd71907e2096","system_id":"levelo_inurba_marseille","lat":43.28467,"lon":5.35896,"is_reserved":false,"is_disabled":false,"rental_uris":{"android":"levelo://app?vid=0bd739e5-7607-4447-8b6d-dd71907e2096","ios":"levelo://app?vid=0bd739e5-7607-4447-8b6d-dd71907e2096"},"vehicle_type_id":"4","last_reported":1739912917,"current_range_meters":7200,"station_id":"","pricing_plan_id":"cebpf4jnsgd1na2vs0mg"},{"bike_id":"020f9db3-6048-4a83-8c59-4acc533112c8","system_id":"levelo_inurba_marseille","lat":43.28152,"lon":5.42598,"is_reserved":false,"is_disabled":false,"rental_uris":{"android":"levelo://app?vid=020f9db3-6048-4a83-8c59-4acc533112c8","ios":"levelo://app?vid=020f9db3-6048-4a83-8c59-4acc533112c8"},"vehicle_type_id":"4","last_reported":1739912917,"current_range_meters":7200,"station_id":"ce4bhnh2rcd13ifvqgug","pricing_plan_id":"cebpf4jnsgd1na2vs0mg"},{"bike_id":"2baf6e72-99f5-4664-8669-a144f4ae9a0f","system_id":"levelo_inurba_marseille","lat":43.312,"lon":5.38713,"is_reserved":false,"is_disabled":false,"rental_uris":{"android":"levelo://app?vid=2baf6e72-99f5-4664-8669-a144f4ae9a0f","ios":"levelo://app?vid=2baf6e72-99f5-4664-8669-a144f4ae9a0f"},"vehicle_type_id":"4","last_reported":1739912917,"current_range_meters":7200,"station_id":"ce4bgv12rcd13ifvqcp0","pricing_plan_id":"cebpf4jnsgd1na2vs0mg"},{"bike_id":"dc2583c0-b500-4494-85fd-da6fc368e56b","system_id":"levelo_inurba_marseille","lat":43.27862,"lon":5.39181,"is_reserved":false,"is_disabled":false,"rental_uris":{"android":"levelo://app?vid=dc2583c0-b500-4494-85fd-da6fc368e56b","ios":"levelo://app?vid=dc2583c0-b500-4494-85fd-da6fc368e56b"},"vehicle_type_id":"4","last_reported":1739912917,"current_range_meters":8000,"station_id":"ce4bhjp2rcd13ifvqga0","pricing_plan_id":"cebpf4jnsgd1na2vs0mg"},{"bike_id":"66bdaba1-8ea6-4d2c-ad9c-6d213bc14ad8","system_id":"levelo_inurba_marseille","lat":43.26219,"lon":5.37934,"is_reserved":false,"is_disabled":false,"rental_uris":{"android":"levelo://app?vid=66bdaba1-8ea6-4d2c-ad9c-6d213bc14ad8","ios":"levelo://app?vid=66bdaba1-8ea6-4d2c-ad9c-6d213bc14ad8"},"vehicle_type_id":"4","last_reported":1739912917,"current_range_meters":8000,"station_id":"ce4bhjp2rcd13ifvqg90","pricing_plan_id":"cebpf4jnsgd1na2vs0mg"},{"bike_id":"e34dc701-144c-4e9a-8f13-ba13983b3a86","system_id":"levelo_inurba_marseille","lat":43.2872,"lon":5.36087,"is_reserved":false,"is_disabled":false,"rental_uris":{"android":"levelo://app?vid=e34dc701-144c-4e9a-8f13-ba13983b3a86","ios":"levelo://app?vid=e34dc701-144c-4e9a-8f13-ba13983b3a86"},"vehicle_type_id":"4","last_reported":1739912917,"current_range_meters":8000,"station_id":"cki0cbj6b192h4jlfktg","pricing_plan_id":"cebpf4jnsgd1na2vs0mg"},{"bike_id":"ad8bae08-a5cc-4bc6-a143-39f28604f9d5","system_id":"levelo_inurba_marseille","lat":43.26221,"lon":5.40398,"is_reserved":false,"is_disabled":false,"rental_uris":{"android":"levelo://app?vid=ad8bae08-a5cc-4bc6-a143-39f28604f9d5","ios":"levelo://app?vid=ad8bae08-a5cc-4bc6-a143-39f28604f9d5"},"vehicle_type_id":"4","last_reported":1739912917,"current_range_meters":8400,"station_id":"ce4bhmh2rcd13ifvqgmg","pricing_plan_id":"cebpf4jnsgd1na2vs0mg"},{"bike_id":"6377d38d-dedd-4f79-bffe-3af1bc0eb3b5","system_id":"levelo_inurba_marseille","lat":43.28104,"lon":5.37836,"is_reserved":false,"is_disabled":false,"rental_uris":{"android":"levelo://app?vid=6377d38d-dedd-4f79-bffe-3af1bc0eb3b5","ios":"levelo://app?vid=6377d38d-dedd-4f79-bffe-3af1bc0eb3b5"},"vehicle_type_id":"4","last_reported":1739912917,"current_range_meters":8400,"station_id":"","pricing_plan_id":"cebpf4jnsgd1na2vs0mg"},{"bike_id":"cd189a51-ee99-4048-9ef7-2fc5d8a8f9b2","system_id":"levelo_inurba_marseille","lat":43.32113,"lon":5.36769,"is_reserved":false,"is_disabled":false,"rental_uris":{"android":"levelo://app?vid=cd189a51-ee99-4048-9ef7-2fc5d8a8f9b2","ios":"levelo://app?vid=cd189a51-ee99-4048-9ef7-2fc5d8a8f9b2"},"vehicle_type_id":"4","last_reported":1739912917,"current_range_meters":8400,"station_id":"ce4bhrh2rcd13ifvqhug","pricing_plan_id":"cebpf4jnsgd1na2vs0mg"},{"bike_id":"a080841c-ddb8-4df5-9fe4-ad088a163fe8","system_id":"levelo_inurba_marseille","lat":43.23339,"lon":5.40292,"is_reserved":false,"is_disabled":false,"rental_uris":{"android":"levelo://app?vid=a080841c-ddb8-4df5-9fe4-ad088a163fe8","ios":"levelo://app?vid=a080841c-ddb8-4df5-9fe4-ad088a163fe8"},"vehicle_type_id":"4","last_reported":1739912917,"current_range_meters":8400,"station_id":"ce4bho92rcd13ifvqh4g","pricing_plan_id":"cebpf4jnsgd1na2vs0mg"},{"bike_id":"429e7dfe-27b9-49ef-9877-fa6eb5a22963","system_id":"levelo_inurba_marseille","lat":43.28441,"lon":5.39154,"is_reserved":false,"is_disabled":false,"rental_uris":{"android":"levelo://app?vid=429e7dfe-27b9-49ef-9877-fa6eb5a22963","ios":"levelo://app?vid=429e7dfe-27b9-49ef-9877-fa6eb5a22963"},"vehicle_type_id":"4","last_reported":1739912917,"current_range_meters":8400,"station_id":"ce4bhoh2rcd13ifvqh5g","pricing_plan_id":"cebpf4jnsgd1na2vs0mg"},{"bike_id":"03746526-254a-4087-980a-633e87b0db20","system_id":"levelo_inurba_marseille","lat":43.317,"lon":5.37804,"is_reserved":false,"is_disabled":false,"rental_uris":{"android":"levelo://app?vid=03746526-254a-4087-980a-633e87b0db20","ios":"levelo://app?vid=03746526-254a-4087-980a-633e87b0db20"},"vehicle_type_id":"4","last_reported":1739912917,"current_range_meters":8400,"station_id":"ce4bgth2rcd13ifvqch0","pricing_plan_id":"cebpf4jnsgd1na2vs0mg"},{"bike_id":"6bb7ac37-d16c-4a25-b6eb-1bf8ca1b78d5","system_id":"levelo_inurba_marseille","lat":43.32548,"lon":5.41497,"is_reserved":false,"is_disabled":false,"rental_uris":{"android":"levelo://app?vid=6bb7ac37-d16c-4a25-b6eb-1bf8ca1b78d5","ios":"levelo://app?vid=6bb7ac37-d16c-4a25-b6eb-1bf8ca1b78d5"},"vehicle_type_id":"4","last_reported":1739912917,"current_range_meters":8400,"station_id":"ce4bhq12rcd13ifvqhhg","pricing_plan_id":"cebpf4jnsgd1na2vs0mg"},{"bike_id":"12b33330-5dcb-4644-8a5c-3a95dc32ce98","system_id":"levelo_inurba_marseille","lat":43.28175,"lon":5.4264,"is_reserved":false,"is_disabled":false,"rental_uris":{"android":"levelo://app?vid=12b33330-5dcb-4644-8a5c-3a95dc32ce98","ios":"levelo://app?vid=12b33330-5dcb-4644-8a5c-3a95dc32ce98"},"vehicle_type_id":"4","last_reported":1739912917,"current_range_meters":8800,"station_id":"ce4bhnh2rcd13ifvqgug","pricing_plan_id":"cebpf4jnsgd1na2vs0mg"},{"bike_id":"00fa2c39-811a-4c11-a911-372e8a8aa832","system_id":"levelo_inurba_marseille","lat":43.29016,"lon":5.38123,"is_reserved":false,"is_disabled":false,"rental_uris":{"android":"levelo://app?vid=00fa2c39-811a-4c11-a911-372e8a8aa832","ios":"levelo://app?vid=00fa2c39-811a-4c11-a911-372e8a8aa832"},"vehicle_type_id":"4","last_reported":1739912917,"current_range_meters":8800,"station_id":"ce4bh4p2rcd13ifvqe1g","pricing_plan_id":"cebpf4jnsgd1na2vs0mg"},{"bike_id":"01182441-7724-4ecc-a723-6d865f5cf255","system_id":"levelo_inurba_marseille","lat":43.29915,"lon":5.38149,"is_reserved":false,"is_disabled":false,"rental_uris":{"android":"levelo://app?vid=01182441-7724-4ecc-a723-6d865f5cf255","ios":"levelo://app?vid=01182441-7724-4ecc-a723-6d865f5cf255"},"vehicle_type_id":"4","last_reported":1739912917,"current_range_meters":8800,"station_id":"ce4bgj12rcd13ifvqbc0","pricing_plan_id":"cebpf4jnsgd1na2vs0mg"},{"bike_id":"7498add2-6306-4086-af08-cf290b4c7a05","system_id":"levelo_inurba_marseille","lat":43.29242,"lon":5.38449,"is_reserved":false,"is_disabled":false,"rental_uris":{"android":"levelo://app?vid=7498add2-6306-4086-af08-cf290b4c7a05","ios":"levelo://app?vid=7498add2-6306-4086-af08-cf290b4c7a05"},"vehicle_type_id":"4","last_reported":1739912917,"current_range_meters":8800,"station_id":"ce4bh692rcd13ifvqea0","pricing_plan_id":"cebpf4jnsgd1na2vs0mg"},{"bike_id":"85609954-3544-4e67-b4ab-f540dcb150e2","system_id":"levelo_inurba_marseille","lat":43.27914,"lon":5.37998,"is_reserved":false,"is_disabled":false,"rental_uris":{"android":"levelo://app?vid=85609954-3544-4e67-b4ab-f540dcb150e2","ios":"levelo://app?vid=85609954-3544-4e67-b4ab-f540dcb150e2"},"vehicle_type_id":"4","last_reported":1739912917,"current_range_meters":8800,"station_id":"ce4bhf92rcd13ifvqf50","pricing_plan_id":"cebpf4jnsgd1na2vs0mg"},{"bike_id":"6436a366-7865-49ec-a9a2-d4b8e372d7c3","system_id":"levelo_inurba_marseille","lat":43.276245,"lon":5.361111,"is_reserved":false,"is_disabled":false,"rental_uris":{"android":"levelo://app?vid=6436a366-7865-49ec-a9a2-d4b8e372d7c3","ios":"levelo://app?vid=6436a366-7865-49ec-a9a2-d4b8e372d7c3"},"vehicle_type_id":"4","last_reported":1739912917,"current_range_meters":9200,"station_id":"ce4bha12rcd13ifvqef0","pricing_plan_id":"cebpf4jnsgd1na2vs0mg"},{"bike_id":"c9071df5-5664-4a5e-b1b2-1df958a7db03","system_id":"levelo_inurba_marseille","lat":43.239577,"lon":5.366675,"is_reserved":false,"is_disabled":false,"rental_uris":{"android":"levelo://app?vid=c9071df5-5664-4a5e-b1b2-1df958a7db03","ios":"levelo://app?vid=c9071df5-5664-4a5e-b1b2-1df958a7db03"},"vehicle_type_id":"4","last_reported":1739912917,"current_range_meters":9200,"station_id":"ce4bhi12rcd13ifvqfp0","pricing_plan_id":"cebpf4jnsgd1na2vs0mg"},{"bike_id":"4549780a-bd41-4776-b580-439be41aac05","system_id":"levelo_inurba_marseille","lat":43.29263,"lon":5.38446,"is_reserved":false,"is_disabled":false,"rental_uris":{"android":"levelo://app?vid=4549780a-bd41-4776-b580-439be41aac05","ios":"levelo://app?vid=4549780a-bd41-4776-b580-439be41aac05"},"vehicle_type_id":"4","last_reported":1739912917,"current_range_meters":9200,"station_id":"","pricing_plan_id":"cebpf4jnsgd1na2vs0mg"},{"bike_id":"603829f6-1bd6-420a-b866-4544fcbffbce","system_id":"levelo_inurba_marseille","lat":43.24829,"lon":5.37434,"is_reserved":false,"is_disabled":false,"rental_uris":{"android":"levelo://app?vid=603829f6-1bd6-420a-b866-4544fcbffbce","ios":"levelo://app?vid=603829f6-1bd6-420a-b866-4544fcbffbce"},"vehicle_type_id":"4","last_reported":1739912917,"current_range_meters":9200,"station_id":"ce4bhgh2rcd13ifvqfb0","pricing_plan_id":"cebpf4jnsgd1na2vs0mg"},{"bike_id":"fc9896ce-1f52-403c-86a7-1678079c9523","system_id":"levelo_inurba_marseille","lat":43.28364,"lon":5.44289,"is_reserved":false,"is_disabled":false,"rental_uris":{"android":"levelo://app?vid=fc9896ce-1f52-403c-86a7-1678079c9523","ios":"levelo://app?vid=fc9896ce-1f52-403c-86a7-1678079c9523"},"vehicle_type_id":"4","last_reported":1739912917,"current_range_meters":9200,"station_id":"","pricing_plan_id":"cebpf4jnsgd1na2vs0mg"},{"bike_id":"e286e38b-80ed-4e71-bcef-aebc3ca2982c","system_id":"levelo_inurba_marseille","lat":43.30428,"lon":5.38889,"is_reserved":false,"is_disabled":false,"rental_uris":{"android":"levelo://app?vid=e286e38b-80ed-4e71-bcef-aebc3ca2982c","ios":"levelo://app?vid=e286e38b-80ed-4e71-bcef-aebc3ca2982c"},"vehicle_type_id":"4","last_reported":1739912917,"current_range_meters":9200,"station_id":"ce4bgk12rcd13ifvqbi0","pricing_plan_id":"cebpf4jnsgd1na2vs0mg"},{"bike_id":"d71ecf17-2bec-4c37-8d09-9bbbcc8493f1","system_id":"levelo_inurba_marseille","lat":43.29274,"lon":5.38438,"is_reserved":false,"is_disabled":false,"rental_uris":{"android":"levelo://app?vid=d71ecf17-2bec-4c37-8d09-9bbbcc8493f1","ios":"levelo://app?vid=d71ecf17-2bec-4c37-8d09-9bbbcc8493f1"},"vehicle_type_id":"4","last_reported":1739912917,"current_range_meters":9200,"station_id":"","pricing_plan_id":"cebpf4jnsgd1na2vs0mg"},{"bike_id":"8072f034-69d4-48c5-b234-451357393f04","system_id":"levelo_inurba_marseille","lat":43.23964,"lon":5.3664,"is_reserved":false,"is_disabled":false,"rental_uris":{"android":"levelo://app?vid=8072f034-69d4-48c5-b234-451357393f04","ios":"levelo://app?vid=8072f034-69d4-48c5-b234-451357393f04"},"vehicle_type_id":"4","last_reported":1739912917,"current_range_meters":9600,"station_id":"ce4bhi12rcd13ifvqfp0","pricing_plan_id":"cebpf4jnsgd1na2vs0mg"},{"bike_id":"f5a7abcc-f6fb-4888-9484-dd0e57f220b4","system_id":"levelo_inurba_marseille","lat":43.29513,"lon":5.39411,"is_reserved":false,"is_disabled":false,"rental_uris":{"android":"levelo://app?vid=f5a7abcc-f6fb-4888-9484-dd0e57f220b4","ios":"levelo://app?vid=f5a7abcc-f6fb-4888-9484-dd0e57f220b4"},"vehicle_type_id":"4","last_reported":1739912917,"current_range_meters":9600,"station_id":"","pricing_plan_id":"cebpf4jnsgd1na2vs0mg"},{"bike_id":"0ddd8de4-1fa2-44a4-910e-01dbc6c0ee46","system_id":"levelo_inurba_marseille","lat":43.29612,"lon":5.37717,"is_reserved":false,"is_disabled":true,"rental_uris":{"android":"levelo://app?vid=0ddd8de4-1fa2-44a4-910e-01dbc6c0ee46","ios":"levelo://app?vid=0ddd8de4-1fa2-44a4-910e-01dbc6c0ee46"},"vehicle_type_id":"4","last_reported":1739912917,"current_range_meters":9600,"station_id":"","pricing_plan_id":"cebpf4jnsgd1na2vs0mg"},{"bike_id":"e605dea0-84a5-4395-b86a-134e39164b56","system_id":"levelo_inurba_marseille","lat":43.2864,"lon":5.35085,"is_reserved":false,"is_disabled":false,"rental_uris":{"android":"levelo://app?vid=e605dea0-84a5-4395-b86a-134e39164b56","ios":"levelo://app?vid=e605dea0-84a5-4395-b86a-134e39164b56"},"vehicle_type_id":"4","last_reported":1739912917,"current_range_meters":9600,"station_id":"ce4bhch2rcd13ifvqeug","pricing_plan_id":"cebpf4jnsgd1na2vs0mg"},{"bike_id":"6db1e38f-245d-4470-8fa6-8d004171678d","system_id":"levelo_inurba_marseille","lat":43.31165,"lon":5.38675,"is_reserved":false,"is_disabled":false,"rental_uris":{"android":"levelo://app?vid=6db1e38f-245d-4470-8fa6-8d004171678d","ios":"levelo://app?vid=6db1e38f-245d-4470-8fa6-8d004171678d"},"vehicle_type_id":"4","last_reported":1739912917,"current_range_meters":9600,"station_id":"","pricing_plan_id":"cebpf4jnsgd1na2vs0mg"},{"bike_id":"70dee217-670e-40d7-b959-7dcdfca9f445","system_id":"levelo_inurba_marseille","lat":43.24821,"lon":5.37457,"is_reserved":false,"is_disabled":false,"rental_uris":{"android":"levelo://app?vid=70dee217-670e-40d7-b959-7dcdfca9f445","ios":"levelo://app?vid=70dee217-670e-40d7-b959-7dcdfca9f445"},"vehicle_type_id":"4","last_reported":1739912917,"current_range_meters":9600,"station_id":"ce4bhgh2rcd13ifvqfb0","pricing_plan_id":"cebpf4jnsgd1na2vs0mg"},{"bike_id":"93259f11-cd2a-43ea-a42f-06334e0eee79","system_id":"levelo_inurba_marseille","lat":43.2583,"lon":5.3944,"is_reserved":false,"is_disabled":false,"rental_uris":{"android":"levelo://app?vid=93259f11-cd2a-43ea-a42f-06334e0eee79","ios":"levelo://app?vid=93259f11-cd2a-43ea-a42f-06334e0eee79"},"vehicle_type_id":"4","last_reported":1739912917,"current_range_meters":9600,"station_id":"","pricing_plan_id":"cebpf4jnsgd1na2vs0mg"},{"bike_id":"5ae0012d-6179-440f-a02a-a607c9208eb9","system_id":"levelo_inurba_marseille","lat":43.24658,"lon":5.3817,"is_reserved":false,"is_disabled":false,"rental_uris":{"android":"levelo://app?vid=5ae0012d-6179-440f-a02a-a607c9208eb9","ios":"levelo://app?vid=5ae0012d-6179-440f-a02a-a607c9208eb9"},"vehicle_type_id":"4","last_reported":1739912917,"current_range_meters":9600,"station_id":"ce4bhih2rcd13ifvqfr0","pricing_plan_id":"cebpf4jnsgd1na2vs0mg"},{"bike_id":"c21214b8-4e24-4e4f-a69f-672307e7c6ff","system_id":"levelo_inurba_marseille","lat":43.28148,"lon":5.42635,"is_reserved":false,"is_disabled":false,"rental_uris":{"android":"levelo://app?vid=c21214b8-4e24-4e4f-a69f-672307e7c6ff","ios":"levelo://app?vid=c21214b8-4e24-4e4f-a69f-672307e7c6ff"},"vehicle_type_id":"4","last_reported":1739912917,"current_range_meters":9600,"station_id":"","pricing_plan_id":"cebpf4jnsgd1na2vs0mg"},{"bike_id":"9fa5df0a-f830-43da-9451-c0d91bf9686b","system_id":"levelo_inurba_marseille","lat":43.2815,"lon":5.42609,"is_reserved":false,"is_disabled":false,"rental_uris":{"android":"levelo://app?vid=9fa5df0a-f830-43da-9451-c0d91bf9686b","ios":"levelo://app?vid=9fa5df0a-f830-43da-9451-c0d91bf9686b"},"vehicle_type_id":"4","last_reported":1739912917,"current_range_meters":9600,"station_id":"","pricing_plan_id":"cebpf4jnsgd1na2vs0mg"},{"bike_id":"3ab4ecca-a7d0-4e14-9e63-eca0d3b35304","system_id":"levelo_inurba_marseille","lat":43.30534,"lon":5.3829,"is_reserved":false,"is_disabled":false,"rental_uris":{"android":"levelo://app?vid=3ab4ecca-a7d0-4e14-9e63-eca0d3b35304","ios":"levelo://app?vid=3ab4ecca-a7d0-4e14-9e63-eca0d3b35304"},"vehicle_type_id":"4","last_reported":1739912917,"current_range_meters":9600,"station_id":"","pricing_plan_id":"cebpf4jnsgd1na2vs0mg"},{"bike_id":"150d470b-8649-4d00-b7ab-12e70df09d60","system_id":"levelo_inurba_marseille","lat":43.27937,"lon":5.4106,"is_reserved":false,"is_disabled":false,"rental_uris":{"android":"levelo://app?vid=150d470b-8649-4d00-b7ab-12e70df09d60","ios":"levelo://app?vid=150d470b-8649-4d00-b7ab-12e70df09d60"},"vehicle_type_id":"4","last_reported":1739912917,"current_range_meters":9600,"station_id":"ce4bhnp2rcd13ifvqh0g","pricing_plan_id":"cebpf4jnsgd1na2vs0mg"},{"bike_id":"ec4721f0-4b3b-4dda-9c1c-294a4af452cd","system_id":"levelo_inurba_marseille","lat":43.30093,"lon":5.39076,"is_reserved":false,"is_disabled":false,"rental_uris":{"android":"levelo://app?vid=ec4721f0-4b3b-4dda-9c1c-294a4af452cd","ios":"levelo://app?vid=ec4721f0-4b3b-4dda-9c1c-294a4af452cd"},"vehicle_type_id":"4","last_reported":1739912917,"current_range_meters":9600,"station_id":"ce4bhlh2rcd13ifvqgig","pricing_plan_id":"cebpf4jnsgd1na2vs0mg"},{"bike_id":"3c1a62ce-1ffc-4ed0-b0ea-52738f4d98e3","system_id":"levelo_inurba_marseille","lat":43.2925,"lon":5.38448,"is_reserved":false,"is_disabled":false,"rental_uris":{"android":"levelo://app?vid=3c1a62ce-1ffc-4ed0-b0ea-52738f4d98e3","ios":"levelo://app?vid=3c1a62ce-1ffc-4ed0-b0ea-52738f4d98e3"},"vehicle_type_id":"4","last_reported":1739912917,"current_range_meters":9600,"station_id":"","pricing_plan_id":"cebpf4jnsgd1na2vs0mg"},{"bike_id":"07460ddc-72b2-47b9-ae7a-e7f9041dd312","system_id":"levelo_inurba_marseille","lat":43.2396,"lon":5.36652,"is_reserved":false,"is_disabled":false,"rental_uris":{"android":"levelo://app?vid=07460ddc-72b2-47b9-ae7a-e7f9041dd312","ios":"levelo://app?vid=07460ddc-72b2-47b9-ae7a-e7f9041dd312"},"vehicle_type_id":"4","last_reported":1739912917,"current_range_meters":10000,"station_id":"","pricing_plan_id":"cebpf4jnsgd1na2vs0mg"},{"bike_id":"a85165fb-7fdb-4cc1-ae98-ce974cfd16ca","system_id":"levelo_inurba_marseille","lat":43.23175,"lon":5.3999,"is_reserved":false,"is_disabled":false,"rental_uris":{"android":"levelo://app?vid=a85165fb-7fdb-4cc1-ae98-ce974cfd16ca","ios":"levelo://app?vid=a85165fb-7fdb-4cc1-ae98-ce974cfd16ca"},"vehicle_type_id":"4","last_reported":1739912917,"current_range_meters":10000,"station_id":"ce4bhn12rcd13ifvqgqg","pricing_plan_id":"cebpf4jnsgd1na2vs0mg"},{"bike_id":"ef296548-6234-4d2a-a4ab-67c6b078c084","system_id":"levelo_inurba_marseille","lat":43.284013,"lon":5.375259,"is_reserved":false,"is_disabled":false,"rental_uris":{"android":"levelo://app?vid=ef296548-6234-4d2a-a4ab-67c6b078c084","ios":"levelo://app?vid=ef296548-6234-4d2a-a4ab-67c6b078c084"},"vehicle_type_id":"4","last_reported":1739912917,"current_range_meters":10000,"station_id":"ce4bh412rcd13ifvqds0","pricing_plan_id":"cebpf4jnsgd1na2vs0mg"},{"bike_id":"cb8372d6-bad2-4555-89ad-5b495afb0b59","system_id":"levelo_inurba_marseille","lat":43.24822,"lon":5.37459,"is_reserved":false,"is_disabled":false,"rental_uris":{"android":"levelo://app?vid=cb8372d6-bad2-4555-89ad-5b495afb0b59","ios":"levelo://app?vid=cb8372d6-bad2-4555-89ad-5b495afb0b59"},"vehicle_type_id":"4","last_reported":1739912917,"current_range_meters":10000,"station_id":"ce4bhgh2rcd13ifvqfb0","pricing_plan_id":"cebpf4jnsgd1na2vs0mg"},{"bike_id":"10f8da56-b982-4af7-a78a-0fa9c8b1a438","system_id":"levelo_inurba_marseille","lat":43.31895,"lon":5.40725,"is_reserved":false,"is_disabled":false,"rental_uris":{"android":"levelo://app?vid=10f8da56-b982-4af7-a78a-0fa9c8b1a438","ios":"levelo://app?vid=10f8da56-b982-4af7-a78a-0fa9c8b1a438"},"vehicle_type_id":"4","last_reported":1739912917,"current_range_meters":10000,"station_id":"ce4bhq12rcd13ifvqhig","pricing_plan_id":"cebpf4jnsgd1na2vs0mg"},{"bike_id":"0563389e-d2fb-4cf7-b867-f187226876ea","system_id":"levelo_inurba_marseille","lat":43.29049,"lon":5.38139,"is_reserved":false,"is_disabled":true,"rental_uris":{"android":"levelo://app?vid=0563389e-d2fb-4cf7-b867-f187226876ea","ios":"levelo://app?vid=0563389e-d2fb-4cf7-b867-f187226876ea"},"vehicle_type_id":"4","last_reported":1739912917,"current_range_meters":10000,"station_id":"ce4bh4p2rcd13ifvqe1g","pricing_plan_id":"cebpf4jnsgd1na2vs0mg"},{"bike_id":"f734e773-17df-48e9-9fba-b65495e7d8cf","system_id":"levelo_inurba_marseille","lat":43.28428,"lon":5.34998,"is_reserved":false,"is_disabled":true,"rental_uris":{"android":"levelo://app?vid=f734e773-17df-48e9-9fba-b65495e7d8cf","ios":"levelo://app?vid=f734e773-17df-48e9-9fba-b65495e7d8cf"},"vehicle_type_id":"4","last_reported":1739912917,"current_range_meters":10000,"station_id":"","pricing_plan_id":"cebpf4jnsgd1na2vs0mg"},{"bike_id":"80132946-9f3c-4640-a5d8-1922f9276721","system_id":"levelo_inurba_marseille","lat":43.27495,"lon":5.42458,"is_reserved":false,"is_disabled":false,"rental_uris":{"android":"levelo://app?vid=80132946-9f3c-4640-a5d8-1922f9276721","ios":"levelo://app?vid=80132946-9f3c-4640-a5d8-1922f9276721"},"vehicle_type_id":"4","last_reported":1739912917,"current_range_meters":10000,"station_id":"ce4bhn92rcd13ifvqgrg","pricing_plan_id":"cebpf4jnsgd1na2vs0mg"},{"bike_id":"7e676248-facc-4c24-84d3-894a14296153","system_id":"levelo_inurba_marseille","lat":43.30094,"lon":5.39101,"is_reserved":false,"is_disabled":false,"rental_uris":{"android":"levelo://app?vid=7e676248-facc-4c24-84d3-894a14296153","ios":"levelo://app?vid=7e676248-facc-4c24-84d3-894a14296153"},"vehicle_type_id":"4","last_reported":1739912917,"current_range_meters":10800,"station_id":"ce4bh192rcd13ifvqdb0","pricing_plan_id":"cebpf4jnsgd1na2vs0mg"},{"bike_id":"8820331a-ca9f-4cd4-8d8c-b4c7da8425ef","system_id":"levelo_inurba_marseille","lat":43.28051,"lon":5.36934,"is_reserved":false,"is_disabled":false,"rental_uris":{"android":"levelo://app?vid=8820331a-ca9f-4cd4-8d8c-b4c7da8425ef","ios":"levelo://app?vid=8820331a-ca9f-4cd4-8d8c-b4c7da8425ef"},"vehicle_type_id":"4","last_reported":1739912917,"current_range_meters":10800,"station_id":"ce4bha12rcd13ifvqef0","pricing_plan_id":"cebpf4jnsgd1na2vs0mg"},{"bike_id":"3f5c0cbe-76cb-46f9-8009-cb568b808f59","system_id":"levelo_inurba_marseille","lat":43.2917,"lon":5.40813,"is_reserved":false,"is_disabled":false,"rental_uris":{"android":"levelo://app?vid=3f5c0cbe-76cb-46f9-8009-cb568b808f59","ios":"levelo://app?vid=3f5c0cbe-76cb-46f9-8009-cb568b808f59"},"vehicle_type_id":"4","last_reported":1739912917,"current_range_meters":10800,"station_id":"","pricing_plan_id":"cebpf4jnsgd1na2vs0mg"},{"bike_id":"91bf3218-0a05-4226-acc9-b3131b7d5a8d","system_id":"levelo_inurba_marseille","lat":43.23962,"lon":5.36621,"is_reserved":false,"is_disabled":false,"rental_uris":{"android":"levelo://app?vid=91bf3218-0a05-4226-acc9-b3131b7d5a8d","ios":"levelo://app?vid=91bf3218-0a05-4226-acc9-b3131b7d5a8d"},"vehicle_type_id":"4","last_reported":1739912917,"current_range_meters":10800,"station_id":"ce4bhi12rcd13ifvqfp0","pricing_plan_id":"cebpf4jnsgd1na2vs0mg"},{"bike_id":"057c14d9-229a-4d0d-891f-80f53784a425","system_id":"levelo_inurba_marseille","lat":43.31164,"lon":5.38717,"is_reserved":false,"is_disabled":false,"rental_uris":{"android":"levelo://app?vid=057c14d9-229a-4d0d-891f-80f53784a425","ios":"levelo://app?vid=057c14d9-229a-4d0d-891f-80f53784a425"},"vehicle_type_id":"4","last_reported":1739912917,"current_range_meters":10800,"station_id":"","pricing_plan_id":"cebpf4jnsgd1na2vs0mg"},{"bike_id":"60374178-f118-4837-8b8d-369a4f7e98f3","system_id":"levelo_inurba_marseille","lat":43.2925,"lon":5.38444,"is_reserved":false,"is_disabled":false,"rental_uris":{"android":"levelo://app?vid=60374178-f118-4837-8b8d-369a4f7e98f3","ios":"levelo://app?vid=60374178-f118-4837-8b8d-369a4f7e98f3"},"vehicle_type_id":"4","last_reported":1739912917,"current_range_meters":10800,"station_id":"ce4bh692rcd13ifvqea0","pricing_plan_id":"cebpf4jnsgd1na2vs0mg"},{"bike_id":"18368891-0c3a-4202-aa26-0c46fc585663","system_id":"levelo_inurba_marseille","lat":43.23965,"lon":5.36637,"is_reserved":false,"is_disabled":false,"rental_uris":{"android":"levelo://app?vid=18368891-0c3a-4202-aa26-0c46fc585663","ios":"levelo://app?vid=18368891-0c3a-4202-aa26-0c46fc585663"},"vehicle_type_id":"4","last_reported":1739912917,"current_range_meters":10800,"station_id":"ce4bhi12rcd13ifvqfp0","pricing_plan_id":"cebpf4jnsgd1na2vs0mg"},{"bike_id":"60d314df-a667-495a-a59f-db49b86bae5a","system_id":"levelo_inurba_marseille","lat":43.30091,"lon":5.39087,"is_reserved":false,"is_disabled":false,"rental_uris":{"android":"levelo://app?vid=60d314df-a667-495a-a59f-db49b86bae5a","ios":"levelo://app?vid=60d314df-a667-495a-a59f-db49b86bae5a"},"vehicle_type_id":"4","last_reported":1739912917,"current_range_meters":10800,"station_id":"ce4bh192rcd13ifvqdb0","pricing_plan_id":"cebpf4jnsgd1na2vs0mg"},{"bike_id":"27d281e4-ae2c-4d0a-b5af-b1a6c9a261f7","system_id":"levelo_inurba_marseille","lat":43.31706,"lon":5.37721,"is_reserved":false,"is_disabled":true,"rental_uris":{"android":"levelo://app?vid=27d281e4-ae2c-4d0a-b5af-b1a6c9a261f7","ios":"levelo://app?vid=27d281e4-ae2c-4d0a-b5af-b1a6c9a261f7"},"vehicle_type_id":"4","last_reported":1739912917,"current_range_meters":10800,"station_id":"ce4bgth2rcd13ifvqch0","pricing_plan_id":"cebpf4jnsgd1na2vs0mg"},{"bike_id":"397ff998-faf8-4ad8-a28c-e859384b1eb2","system_id":"levelo_inurba_marseille","lat":43.28366,"lon":5.38638,"is_reserved":false,"is_disabled":false,"rental_uris":{"android":"levelo://app?vid=397ff998-faf8-4ad8-a28c-e859384b1eb2","ios":"levelo://app?vid=397ff998-faf8-4ad8-a28c-e859384b1eb2"},"vehicle_type_id":"4","last_reported":1739912917,"current_range_meters":10800,"station_id":"ce4bh492rcd13ifvqdvg","pricing_plan_id":"cebpf4jnsgd1na2vs0mg"},{"bike_id":"1c7cc57d-72b8-4e06-99e1-774b2b47b295","system_id":"levelo_inurba_marseille","lat":43.2872,"lon":5.36111,"is_reserved":false,"is_disabled":false,"rental_uris":{"android":"levelo://app?vid=1c7cc57d-72b8-4e06-99e1-774b2b47b295","ios":"levelo://app?vid=1c7cc57d-72b8-4e06-99e1-774b2b47b295"},"vehicle_type_id":"4","last_reported":1739912917,"current_range_meters":10800,"station_id":"cki0cbj6b192h4jlfktg","pricing_plan_id":"cebpf4jnsgd1na2vs0mg"},{"bike_id":"8b02b176-f4c7-4d69-bac0-b8d0c9191941","system_id":"levelo_inurba_marseille","lat":43.29419,"lon":5.38632,"is_reserved":false,"is_disabled":false,"rental_uris":{"android":"levelo://app?vid=8b02b176-f4c7-4d69-bac0-b8d0c9191941","ios":"levelo://app?vid=8b02b176-f4c7-4d69-bac0-b8d0c9191941"},"vehicle_type_id":"4","last_reported":1739912917,"current_range_meters":10800,"station_id":"ce4bh2h2rcd13ifvqdh0","pricing_plan_id":"cebpf4jnsgd1na2vs0mg"},{"bike_id":"7342bfbd-9082-4169-8159-57866036272e","system_id":"levelo_inurba_marseille","lat":43.28456,"lon":5.35887,"is_reserved":false,"is_disabled":false,"rental_uris":{"android":"levelo://app?vid=7342bfbd-9082-4169-8159-57866036272e","ios":"levelo://app?vid=7342bfbd-9082-4169-8159-57866036272e"},"vehicle_type_id":"4","last_reported":1739912917,"current_range_meters":10800,"station_id":"ce4bhah2rcd13ifvqei0","pricing_plan_id":"cebpf4jnsgd1na2vs0mg"},{"bike_id":"6c96a73f-ff01-463f-bd8c-14885ee904b6","system_id":"levelo_inurba_marseille","lat":43.29055,"lon":5.35732,"is_reserved":false,"is_disabled":false,"rental_uris":{"android":"levelo://app?vid=6c96a73f-ff01-463f-bd8c-14885ee904b6","ios":"levelo://app?vid=6c96a73f-ff01-463f-bd8c-14885ee904b6"},"vehicle_type_id":"4","last_reported":1739912917,"current_range_meters":10800,"station_id":"ce4bhb92rcd13ifvqen0","pricing_plan_id":"cebpf4jnsgd1na2vs0mg"},{"bike_id":"9582ddc0-b6af-49e9-b173-94c0a9b6801a","system_id":"levelo_inurba_marseille","lat":43.28348,"lon":5.3812,"is_reserved":false,"is_disabled":false,"rental_uris":{"android":"levelo://app?vid=9582ddc0-b6af-49e9-b173-94c0a9b6801a","ios":"levelo://app?vid=9582ddc0-b6af-49e9-b173-94c0a9b6801a"},"vehicle_type_id":"4","last_reported":1739912917,"current_range_meters":10800,"station_id":"","pricing_plan_id":"cebpf4jnsgd1na2vs0mg"},{"bike_id":"74325161-a559-4cd1-a6b3-dda514af1b79","system_id":"levelo_inurba_marseille","lat":43.29424,"lon":5.38608,"is_reserved":false,"is_disabled":false,"rental_uris":{"android":"levelo://app?vid=74325161-a559-4cd1-a6b3-dda514af1b79","ios":"levelo://app?vid=74325161-a559-4cd1-a6b3-dda514af1b79"},"vehicle_type_id":"4","last_reported":1739912917,"current_range_meters":10800,"station_id":"ce4bh2h2rcd13ifvqdh0","pricing_plan_id":"cebpf4jnsgd1na2vs0mg"},{"bike_id":"6d0ed146-7f65-4315-a2dd-72ce5b3441f4","system_id":"levelo_inurba_marseille","lat":43.28603,"lon":5.35128,"is_reserved":false,"is_disabled":false,"rental_uris":{"android":"levelo://app?vid=6d0ed146-7f65-4315-a2dd-72ce5b3441f4","ios":"levelo://app?vid=6d0ed146-7f65-4315-a2dd-72ce5b3441f4"},"vehicle_type_id":"4","last_reported":1739912917,"current_range_meters":11200,"station_id":"","pricing_plan_id":"cebpf4jnsgd1na2vs0mg"},{"bike_id":"10c134e7-7862-45ed-8103-0b6221fb4b66","system_id":"levelo_inurba_marseille","lat":43.25057,"lon":5.38976,"is_reserved":false,"is_disabled":false,"rental_uris":{"android":"levelo://app?vid=10c134e7-7862-45ed-8103-0b6221fb4b66","ios":"levelo://app?vid=10c134e7-7862-45ed-8103-0b6221fb4b66"},"vehicle_type_id":"4","last_reported":1739912917,"current_range_meters":11200,"station_id":"ce4bhgp2rcd13ifvqfd0","pricing_plan_id":"cebpf4jnsgd1na2vs0mg"},{"bike_id":"9b03b96d-2041-4d92-a949-290d7b50f943","system_id":"levelo_inurba_marseille","lat":43.2718,"lon":5.40988,"is_reserved":false,"is_disabled":false,"rental_uris":{"android":"levelo://app?vid=9b03b96d-2041-4d92-a949-290d7b50f943","ios":"levelo://app?vid=9b03b96d-2041-4d92-a949-290d7b50f943"},"vehicle_type_id":"4","last_reported":1739912917,"current_range_meters":11200,"station_id":"","pricing_plan_id":"cebpf4jnsgd1na2vs0mg"},{"bike_id":"898e9983-4cef-4085-9ff8-596fc7a039fe","system_id":"levelo_inurba_marseille","lat":43.28406,"lon":5.37517,"is_reserved":false,"is_disabled":false,"rental_uris":{"android":"levelo://app?vid=898e9983-4cef-4085-9ff8-596fc7a039fe","ios":"levelo://app?vid=898e9983-4cef-4085-9ff8-596fc7a039fe"},"vehicle_type_id":"4","last_reported":1739912917,"current_range_meters":11200,"station_id":"","pricing_plan_id":"cebpf4jnsgd1na2vs0mg"},{"bike_id":"08773a41-bf84-42c4-acee-09d363b12de3","system_id":"levelo_inurba_marseille","lat":43.29906,"lon":5.37462,"is_reserved":false,"is_disabled":false,"rental_uris":{"android":"levelo://app?vid=08773a41-bf84-42c4-acee-09d363b12de3","ios":"levelo://app?vid=08773a41-bf84-42c4-acee-09d363b12de3"},"vehicle_type_id":"4","last_reported":1739912917,"current_range_meters":11200,"station_id":"ce4bgjh2rcd13ifvqbg0","pricing_plan_id":"cebpf4jnsgd1na2vs0mg"},{"bike_id":"fefa9bf9-197f-4351-bf2f-96769b26532d","system_id":"levelo_inurba_marseille","lat":43.29266,"lon":5.38429,"is_reserved":false,"is_disabled":false,"rental_uris":{"android":"levelo://app?vid=fefa9bf9-197f-4351-bf2f-96769b26532d","ios":"levelo://app?vid=fefa9bf9-197f-4351-bf2f-96769b26532d"},"vehicle_type_id":"4","last_reported":1739912917,"current_range_meters":11600,"station_id":"ce4bh692rcd13ifvqea0","pricing_plan_id":"cebpf4jnsgd1na2vs0mg"},{"bike_id":"24ee2f85-f37f-4f25-9759-d7b74f75920a","system_id":"levelo_inurba_marseille","lat":43.29976,"lon":5.38488,"is_reserved":false,"is_disabled":false,"rental_uris":{"android":"levelo://app?vid=24ee2f85-f37f-4f25-9759-d7b74f75920a","ios":"levelo://app?vid=24ee2f85-f37f-4f25-9759-d7b74f75920a"},"vehicle_type_id":"4","last_reported":1739912917,"current_range_meters":11600,"station_id":"ce4bgj92rcd13ifvqbd0","pricing_plan_id":"cebpf4jnsgd1na2vs0mg"},{"bike_id":"d52987ea-c9d3-4085-a222-c7ab18f613e4","system_id":"levelo_inurba_marseille","lat":43.30137,"lon":5.38808,"is_reserved":false,"is_disabled":false,"rental_uris":{"android":"levelo://app?vid=d52987ea-c9d3-4085-a222-c7ab18f613e4","ios":"levelo://app?vid=d52987ea-c9d3-4085-a222-c7ab18f613e4"},"vehicle_type_id":"4","last_reported":1739912917,"current_range_meters":11200,"station_id":"ce4bhoh2rcd13ifvqh6g","pricing_plan_id":"cebpf4jnsgd1na2vs0mg"},{"bike_id":"8fd5fd08-3015-46c6-9402-b1d2e8097eff","system_id":"levelo_inurba_marseille","lat":43.30111,"lon":5.39873,"is_reserved":false,"is_disabled":false,"rental_uris":{"android":"levelo://app?vid=8fd5fd08-3015-46c6-9402-b1d2e8097eff","ios":"levelo://app?vid=8fd5fd08-3015-46c6-9402-b1d2e8097eff"},"vehicle_type_id":"4","last_reported":1739912917,"current_range_meters":12000,"station_id":"ce4bh0h2rcd13ifvqd40","pricing_plan_id":"cebpf4jnsgd1na2vs0mg"},{"bike_id":"4bf40669-9c35-43f4-8817-8a07f6463fda","system_id":"levelo_inurba_marseille","lat":43.308857,"lon":5.371928,"is_reserved":false,"is_disabled":false,"rental_uris":{"android":"levelo://app?vid=4bf40669-9c35-43f4-8817-8a07f6463fda","ios":"levelo://app?vid=4bf40669-9c35-43f4-8817-8a07f6463fda"},"vehicle_type_id":"4","last_reported":1739912917,"current_range_meters":12000,"station_id":"","pricing_plan_id":"cebpf4jnsgd1na2vs0mg"},{"bike_id":"0e43aaf2-5553-4ce4-8a5f-0e2f15c2357c","system_id":"levelo_inurba_marseille","lat":43.25008,"lon":5.38877,"is_reserved":false,"is_disabled":false,"rental_uris":{"android":"levelo://app?vid=0e43aaf2-5553-4ce4-8a5f-0e2f15c2357c","ios":"levelo://app?vid=0e43aaf2-5553-4ce4-8a5f-0e2f15c2357c"},"vehicle_type_id":"4","last_reported":1739912917,"current_range_meters":12000,"station_id":"ce4bhgp2rcd13ifvqfd0","pricing_plan_id":"cebpf4jnsgd1na2vs0mg"},{"bike_id":"e461d57a-97a5-4bd4-9daf-ca6f32b20d07","system_id":"levelo_inurba_marseille","lat":43.30083,"lon":5.39101,"is_reserved":false,"is_disabled":false,"rental_uris":{"android":"levelo://app?vid=e461d57a-97a5-4bd4-9daf-ca6f32b20d07","ios":"levelo://app?vid=e461d57a-97a5-4bd4-9daf-ca6f32b20d07"},"vehicle_type_id":"4","last_reported":1739912917,"current_range_meters":12000,"station_id":"ce4bh192rcd13ifvqdb0","pricing_plan_id":"cebpf4jnsgd1na2vs0mg"},{"bike_id":"ee24b87f-297d-417d-998d-e914f6e68dfc","system_id":"levelo_inurba_marseille","lat":43.29201,"lon":5.39333,"is_reserved":false,"is_disabled":false,"rental_uris":{"android":"levelo://app?vid=ee24b87f-297d-417d-998d-e914f6e68dfc","ios":"levelo://app?vid=ee24b87f-297d-417d-998d-e914f6e68dfc"},"vehicle_type_id":"4","last_reported":1739912917,"current_range_meters":12000,"station_id":"ce4bh192rcd13ifvqdd0","pricing_plan_id":"cebpf4jnsgd1na2vs0mg"},{"bike_id":"2b048f73-2b1a-4998-88d6-6df07d42c116","system_id":"levelo_inurba_marseille","lat":43.27814,"lon":5.40715,"is_reserved":false,"is_disabled":false,"rental_uris":{"android":"levelo://app?vid=2b048f73-2b1a-4998-88d6-6df07d42c116","ios":"levelo://app?vid=2b048f73-2b1a-4998-88d6-6df07d42c116"},"vehicle_type_id":"4","last_reported":1739912917,"current_range_meters":12400,"station_id":"ce4bhnh2rcd13ifvqgtg","pricing_plan_id":"cebpf4jnsgd1na2vs0mg"},{"bike_id":"66130ab3-09ba-4efc-991d-6fb29a7363a9","system_id":"levelo_inurba_marseille","lat":43.2656,"lon":5.39008,"is_reserved":false,"is_disabled":false,"rental_uris":{"android":"levelo://app?vid=66130ab3-09ba-4efc-991d-6fb29a7363a9","ios":"levelo://app?vid=66130ab3-09ba-4efc-991d-6fb29a7363a9"},"vehicle_type_id":"4","last_reported":1739912917,"current_range_meters":12400,"station_id":"ce4bhe12rcd13ifvqf30","pricing_plan_id":"cebpf4jnsgd1na2vs0mg"},{"bike_id":"7beb0637-fdc1-4315-9de7-143b2e5fe258","system_id":"levelo_inurba_marseille","lat":43.28464,"lon":5.35901,"is_reserved":false,"is_disabled":false,"rental_uris":{"android":"levelo://app?vid=7beb0637-fdc1-4315-9de7-143b2e5fe258","ios":"levelo://app?vid=7beb0637-fdc1-4315-9de7-143b2e5fe258"},"vehicle_type_id":"4","last_reported":1739912917,"current_range_meters":12400,"station_id":"ce4bhah2rcd13ifvqei0","pricing_plan_id":"cebpf4jnsgd1na2vs0mg"},{"bike_id":"ee5ed675-bb03-4728-ab31-548b0122803c","system_id":"levelo_inurba_marseille","lat":43.28712,"lon":5.37409,"is_reserved":false,"is_disabled":false,"rental_uris":{"android":"levelo://app?vid=ee5ed675-bb03-4728-ab31-548b0122803c","ios":"levelo://app?vid=ee5ed675-bb03-4728-ab31-548b0122803c"},"vehicle_type_id":"4","last_reported":1739912917,"current_range_meters":12400,"station_id":"ce4bh3p2rcd13ifvqdq0","pricing_plan_id":"cebpf4jnsgd1na2vs0mg"},{"bike_id":"cb1b90ac-0fb2-486a-baf6-22718592bb1b","system_id":"levelo_inurba_marseille","lat":43.26801,"lon":5.39521,"is_reserved":false,"is_disabled":false,"rental_uris":{"android":"levelo://app?vid=cb1b90ac-0fb2-486a-baf6-22718592bb1b","ios":"levelo://app?vid=cb1b90ac-0fb2-486a-baf6-22718592bb1b"},"vehicle_type_id":"4","last_reported":1739912917,"current_range_meters":12400,"station_id":"ce4bhh12rcd13ifvqfg0","pricing_plan_id":"cebpf4jnsgd1na2vs0mg"},{"bike_id":"85e87220-f6a3-46be-8172-f6efecf3643e","system_id":"levelo_inurba_marseille","lat":43.28174,"lon":5.42609,"is_reserved":false,"is_disabled":false,"rental_uris":{"android":"levelo://app?vid=85e87220-f6a3-46be-8172-f6efecf3643e","ios":"levelo://app?vid=85e87220-f6a3-46be-8172-f6efecf3643e"},"vehicle_type_id":"4","last_reported":1739912917,"current_range_meters":12400,"station_id":"","pricing_plan_id":"cebpf4jnsgd1na2vs0mg"},{"bike_id":"5ac779f2-1fb7-4568-b0fe-31c31466d82e","system_id":"levelo_inurba_marseille","lat":43.26561,"lon":5.39005,"is_reserved":false,"is_disabled":false,"rental_uris":{"android":"levelo://app?vid=5ac779f2-1fb7-4568-b0fe-31c31466d82e","ios":"levelo://app?vid=5ac779f2-1fb7-4568-b0fe-31c31466d82e"},"vehicle_type_id":"4","last_reported":1739912917,"current_range_meters":12800,"station_id":"ce4bhe12rcd13ifvqf30","pricing_plan_id":"cebpf4jnsgd1na2vs0mg"},{"bike_id":"25a87e91-9c0d-4903-b869-115b64990ac3","system_id":"levelo_inurba_marseille","lat":43.28151,"lon":5.42654,"is_reserved":false,"is_disabled":false,"rental_uris":{"android":"levelo://app?vid=25a87e91-9c0d-4903-b869-115b64990ac3","ios":"levelo://app?vid=25a87e91-9c0d-4903-b869-115b64990ac3"},"vehicle_type_id":"4","last_reported":1739912917,"current_range_meters":12800,"station_id":"ce4bhnh2rcd13ifvqgug","pricing_plan_id":"cebpf4jnsgd1na2vs0mg"},{"bike_id":"6b61a15f-d255-41a0-8166-7f2b93e7d846","system_id":"levelo_inurba_marseille","lat":43.23964,"lon":5.36645,"is_reserved":false,"is_disabled":false,"rental_uris":{"android":"levelo://app?vid=6b61a15f-d255-41a0-8166-7f2b93e7d846","ios":"levelo://app?vid=6b61a15f-d255-41a0-8166-7f2b93e7d846"},"vehicle_type_id":"4","last_reported":1739912917,"current_range_meters":12800,"station_id":"ce4bhi12rcd13ifvqfp0","pricing_plan_id":"cebpf4jnsgd1na2vs0mg"},{"bike_id":"1a0d5cf6-ba9a-43c8-b317-0f0ded27ec7c","system_id":"levelo_inurba_marseille","lat":43.29535,"lon":5.38551,"is_reserved":false,"is_disabled":false,"rental_uris":{"android":"levelo://app?vid=1a0d5cf6-ba9a-43c8-b317-0f0ded27ec7c","ios":"levelo://app?vid=1a0d5cf6-ba9a-43c8-b317-0f0ded27ec7c"},"vehicle_type_id":"4","last_reported":1739912917,"current_range_meters":13600,"station_id":"","pricing_plan_id":"cebpf4jnsgd1na2vs0mg"},{"bike_id":"f0f61fdf-e262-479f-a259-1997ef9b3f40","system_id":"levelo_inurba_marseille","lat":43.28163,"lon":5.42646,"is_reserved":false,"is_disabled":false,"rental_uris":{"android":"levelo://app?vid=f0f61fdf-e262-479f-a259-1997ef9b3f40","ios":"levelo://app?vid=f0f61fdf-e262-479f-a259-1997ef9b3f40"},"vehicle_type_id":"4","last_reported":1739912917,"current_range_meters":13600,"station_id":"","pricing_plan_id":"cebpf4jnsgd1na2vs0mg"},{"bike_id":"ff35d651-9af0-487c-894e-65d0e7833694","system_id":"levelo_inurba_marseille","lat":43.25516,"lon":5.37682,"is_reserved":false,"is_disabled":false,"rental_uris":{"android":"levelo://app?vid=ff35d651-9af0-487c-894e-65d0e7833694","ios":"levelo://app?vid=ff35d651-9af0-487c-894e-65d0e7833694"},"vehicle_type_id":"4","last_reported":1739912917,"current_range_meters":14000,"station_id":"","pricing_plan_id":"cebpf4jnsgd1na2vs0mg"},{"bike_id":"f027fe38-3f5d-42fa-b16a-68ca60104c09","system_id":"levelo_inurba_marseille","lat":43.24141,"lon":5.36345,"is_reserved":false,"is_disabled":false,"rental_uris":{"android":"levelo://app?vid=f027fe38-3f5d-42fa-b16a-68ca60104c09","ios":"levelo://app?vid=f027fe38-3f5d-42fa-b16a-68ca60104c09"},"vehicle_type_id":"4","last_reported":1739912917,"current_range_meters":14000,"station_id":"","pricing_plan_id":"cebpf4jnsgd1na2vs0mg"},{"bike_id":"f0325301-939c-4c0f-9ef9-10e746947f03","system_id":"levelo_inurba_marseille","lat":43.29431,"lon":5.39738,"is_reserved":false,"is_disabled":false,"rental_uris":{"android":"levelo://app?vid=f0325301-939c-4c0f-9ef9-10e746947f03","ios":"levelo://app?vid=f0325301-939c-4c0f-9ef9-10e746947f03"},"vehicle_type_id":"4","last_reported":1739912917,"current_range_meters":15200,"station_id":"ce4bh3h2rcd13ifvqdo0","pricing_plan_id":"cebpf4jnsgd1na2vs0mg"},{"bike_id":"7a57b4db-d415-4e5b-9310-d43b62cd8ac4","system_id":"levelo_inurba_marseille","lat":43.31332,"lon":5.39697,"is_reserved":false,"is_disabled":false,"rental_uris":{"android":"levelo://app?vid=7a57b4db-d415-4e5b-9310-d43b62cd8ac4","ios":"levelo://app?vid=7a57b4db-d415-4e5b-9310-d43b62cd8ac4"},"vehicle_type_id":"4","last_reported":1739912917,"current_range_meters":13600,"station_id":"ce4bgvp2rcd13ifvqcu0","pricing_plan_id":"cebpf4jnsgd1na2vs0mg"},{"bike_id":"d1dec037-ee4c-4db9-a655-1087d8ee1f4f","system_id":"levelo_inurba_marseille","lat":43.28444,"lon":5.39175,"is_reserved":false,"is_disabled":true,"rental_uris":{"android":"levelo://app?vid=d1dec037-ee4c-4db9-a655-1087d8ee1f4f","ios":"levelo://app?vid=d1dec037-ee4c-4db9-a655-1087d8ee1f4f"},"vehicle_type_id":"4","last_reported":1739912917,"current_range_meters":14400,"station_id":"","pricing_plan_id":"cebpf4jnsgd1na2vs0mg"},{"bike_id":"deffc07d-779d-4af3-96f4-fb8d57336c05","system_id":"levelo_inurba_marseille","lat":43.30131,"lon":5.39845,"is_reserved":false,"is_disabled":false,"rental_uris":{"android":"levelo://app?vid=deffc07d-779d-4af3-96f4-fb8d57336c05","ios":"levelo://app?vid=deffc07d-779d-4af3-96f4-fb8d57336c05"},"vehicle_type_id":"4","last_reported":1739912917,"current_range_meters":14400,"station_id":"ce4bh0h2rcd13ifvqd40","pricing_plan_id":"cebpf4jnsgd1na2vs0mg"},{"bike_id":"c6b4c1d4-7170-42e8-a495-57f7e8da8511","system_id":"levelo_inurba_marseille","lat":43.24634,"lon":5.38913,"is_reserved":false,"is_disabled":false,"rental_uris":{"android":"levelo://app?vid=c6b4c1d4-7170-42e8-a495-57f7e8da8511","ios":"levelo://app?vid=c6b4c1d4-7170-42e8-a495-57f7e8da8511"},"vehicle_type_id":"4","last_reported":1739912917,"current_range_meters":14400,"station_id":"ce4bhg12rcd13ifvqf60","pricing_plan_id":"cebpf4jnsgd1na2vs0mg"},{"bike_id":"60f1c90a-05cc-4a31-a2bc-aec1f860908d","system_id":"levelo_inurba_marseille","lat":43.2929,"lon":5.38432,"is_reserved":false,"is_disabled":false,"rental_uris":{"android":"levelo://app?vid=60f1c90a-05cc-4a31-a2bc-aec1f860908d","ios":"levelo://app?vid=60f1c90a-05cc-4a31-a2bc-aec1f860908d"},"vehicle_type_id":"4","last_reported":1739912917,"current_range_meters":14400,"station_id":"ce4bh692rcd13ifvqea0","pricing_plan_id":"cebpf4jnsgd1na2vs0mg"},{"bike_id":"bb81add2-2c90-482a-8c1d-9dc437949269","system_id":"levelo_inurba_marseille","lat":43.30135,"lon":5.38781,"is_reserved":false,"is_disabled":false,"rental_uris":{"android":"levelo://app?vid=bb81add2-2c90-482a-8c1d-9dc437949269","ios":"levelo://app?vid=bb81add2-2c90-482a-8c1d-9dc437949269"},"vehicle_type_id":"4","last_reported":1739912917,"current_range_meters":14400,"station_id":"ce4bghh2rcd13ifvqb60","pricing_plan_id":"cebpf4jnsgd1na2vs0mg"},{"bike_id":"3ba3aae7-8792-4d54-bd64-a0ea827a6cb8","system_id":"levelo_inurba_marseille","lat":43.29042,"lon":5.38616,"is_reserved":false,"is_disabled":false,"rental_uris":{"android":"levelo://app?vid=3ba3aae7-8792-4d54-bd64-a0ea827a6cb8","ios":"levelo://app?vid=3ba3aae7-8792-4d54-bd64-a0ea827a6cb8"},"vehicle_type_id":"4","last_reported":1739912917,"current_range_meters":14400,"station_id":"ce4bh4p2rcd13ifvqe0g","pricing_plan_id":"cebpf4jnsgd1na2vs0mg"},{"bike_id":"89b7354b-223a-4feb-969d-8fbb5a2161f1","system_id":"levelo_inurba_marseille","lat":43.28115,"lon":5.37839,"is_reserved":false,"is_disabled":false,"rental_uris":{"android":"levelo://app?vid=89b7354b-223a-4feb-969d-8fbb5a2161f1","ios":"levelo://app?vid=89b7354b-223a-4feb-969d-8fbb5a2161f1"},"vehicle_type_id":"4","last_reported":1739912917,"current_range_meters":14400,"station_id":"","pricing_plan_id":"cebpf4jnsgd1na2vs0mg"},{"bike_id":"5bf48597-a71c-452b-987b-7a4d53313741","system_id":"levelo_inurba_marseille","lat":43.28695,"lon":5.39981,"is_reserved":false,"is_disabled":false,"rental_uris":{"android":"levelo://app?vid=5bf48597-a71c-452b-987b-7a4d53313741","ios":"levelo://app?vid=5bf48597-a71c-452b-987b-7a4d53313741"},"vehicle_type_id":"4","last_reported":1739912917,"current_range_meters":14800,"station_id":"ce4bho92rcd13ifvqh3g","pricing_plan_id":"cebpf4jnsgd1na2vs0mg"},{"bike_id":"3757f5e5-8587-4bf0-b37b-79afcfb75099","system_id":"levelo_inurba_marseille","lat":43.29257,"lon":5.38437,"is_reserved":false,"is_disabled":false,"rental_uris":{"android":"levelo://app?vid=3757f5e5-8587-4bf0-b37b-79afcfb75099","ios":"levelo://app?vid=3757f5e5-8587-4bf0-b37b-79afcfb75099"},"vehicle_type_id":"4","last_reported":1739912917,"current_range_meters":14800,"station_id":"","pricing_plan_id":"cebpf4jnsgd1na2vs0mg"},{"bike_id":"98b1401a-7342-47bc-852f-3b0a705035c6","system_id":"levelo_inurba_marseille","lat":43.23962,"lon":5.36639,"is_reserved":false,"is_disabled":false,"rental_uris":{"android":"levelo://app?vid=98b1401a-7342-47bc-852f-3b0a705035c6","ios":"levelo://app?vid=98b1401a-7342-47bc-852f-3b0a705035c6"},"vehicle_type_id":"4","last_reported":1739912917,"current_range_meters":14800,"station_id":"ce4bhi12rcd13ifvqfp0","pricing_plan_id":"cebpf4jnsgd1na2vs0mg"},{"bike_id":"bfef4ce2-45d0-4602-b2e8-a89ae23df3d5","system_id":"levelo_inurba_marseille","lat":43.26953,"lon":5.38667,"is_reserved":false,"is_disabled":false,"rental_uris":{"android":"levelo://app?vid=bfef4ce2-45d0-4602-b2e8-a89ae23df3d5","ios":"levelo://app?vid=bfef4ce2-45d0-4602-b2e8-a89ae23df3d5"},"vehicle_type_id":"4","last_reported":1739912917,"current_range_meters":14800,"station_id":"ce4bhh92rcd13ifvqfh0","pricing_plan_id":"cebpf4jnsgd1na2vs0mg"},{"bike_id":"397b80cf-cbf3-4f7e-9d00-ad56509053a2","system_id":"levelo_inurba_marseille","lat":43.29192,"lon":5.39766,"is_reserved":false,"is_disabled":false,"rental_uris":{"android":"levelo://app?vid=397b80cf-cbf3-4f7e-9d00-ad56509053a2","ios":"levelo://app?vid=397b80cf-cbf3-4f7e-9d00-ad56509053a2"},"vehicle_type_id":"4","last_reported":1739912917,"current_range_meters":14800,"station_id":"","pricing_plan_id":"cebpf4jnsgd1na2vs0mg"},{"bike_id":"254c9dd3-4e70-41ac-9f82-cbc3c4f79a0c","system_id":"levelo_inurba_marseille","lat":43.30926,"lon":5.40153,"is_reserved":false,"is_disabled":false,"rental_uris":{"android":"levelo://app?vid=254c9dd3-4e70-41ac-9f82-cbc3c4f79a0c","ios":"levelo://app?vid=254c9dd3-4e70-41ac-9f82-cbc3c4f79a0c"},"vehicle_type_id":"4","last_reported":1739912917,"current_range_meters":14000,"station_id":"ce4bgvp2rcd13ifvqct0","pricing_plan_id":"cebpf4jnsgd1na2vs0mg"},{"bike_id":"29a80104-7c84-4882-96c6-67eb68777f92","system_id":"levelo_inurba_marseille","lat":43.24816,"lon":5.37451,"is_reserved":false,"is_disabled":false,"rental_uris":{"android":"levelo://app?vid=29a80104-7c84-4882-96c6-67eb68777f92","ios":"levelo://app?vid=29a80104-7c84-4882-96c6-67eb68777f92"},"vehicle_type_id":"4","last_reported":1739912917,"current_range_meters":14800,"station_id":"","pricing_plan_id":"cebpf4jnsgd1na2vs0mg"},{"bike_id":"6c335b3b-f93c-450a-8403-36cd529bb099","system_id":"levelo_inurba_marseille","lat":43.29605,"lon":5.38099,"is_reserved":false,"is_disabled":false,"rental_uris":{"android":"levelo://app?vid=6c335b3b-f93c-450a-8403-36cd529bb099","ios":"levelo://app?vid=6c335b3b-f93c-450a-8403-36cd529bb099"},"vehicle_type_id":"4","last_reported":1739912917,"current_range_meters":15200,"station_id":"","pricing_plan_id":"cebpf4jnsgd1na2vs0mg"},{"bike_id":"a688969c-6f2d-486a-a3c8-e6a8a29995b9","system_id":"levelo_inurba_marseille","lat":43.29958,"lon":5.3855,"is_reserved":false,"is_disabled":false,"rental_uris":{"android":"levelo://app?vid=a688969c-6f2d-486a-a3c8-e6a8a29995b9","ios":"levelo://app?vid=a688969c-6f2d-486a-a3c8-e6a8a29995b9"},"vehicle_type_id":"4","last_reported":1739912917,"current_range_meters":15200,"station_id":"ce4bgj92rcd13ifvqbd0","pricing_plan_id":"cebpf4jnsgd1na2vs0mg"},{"bike_id":"63c4cf47-dbff-4d5e-a88a-080b99df99de","system_id":"levelo_inurba_marseille","lat":43.29493,"lon":5.38941,"is_reserved":false,"is_disabled":true,"rental_uris":{"android":"levelo://app?vid=63c4cf47-dbff-4d5e-a88a-080b99df99de","ios":"levelo://app?vid=63c4cf47-dbff-4d5e-a88a-080b99df99de"},"vehicle_type_id":"4","last_reported":1739912917,"current_range_meters":15200,"station_id":"","pricing_plan_id":"cebpf4jnsgd1na2vs0mg"},{"bike_id":"1d63a175-89ef-49ff-9ead-dfe9ed6c22cf","system_id":"levelo_inurba_marseille","lat":43.24695,"lon":5.39418,"is_reserved":false,"is_disabled":false,"rental_uris":{"android":"levelo://app?vid=1d63a175-89ef-49ff-9ead-dfe9ed6c22cf","ios":"levelo://app?vid=1d63a175-89ef-49ff-9ead-dfe9ed6c22cf"},"vehicle_type_id":"4","last_reported":1739912917,"current_range_meters":15200,"station_id":"","pricing_plan_id":"cebpf4jnsgd1na2vs0mg"},{"bike_id":"153a8d93-cbe4-4143-a987-00f29e2e434a","system_id":"levelo_inurba_marseille","lat":43.29425,"lon":5.38615,"is_reserved":false,"is_disabled":false,"rental_uris":{"android":"levelo://app?vid=153a8d93-cbe4-4143-a987-00f29e2e434a","ios":"levelo://app?vid=153a8d93-cbe4-4143-a987-00f29e2e434a"},"vehicle_type_id":"4","last_reported":1739912917,"current_range_meters":15200,"station_id":"ce4bh2h2rcd13ifvqdh0","pricing_plan_id":"cebpf4jnsgd1na2vs0mg"},{"bike_id":"60561419-ea1b-43d0-87bf-6aa5404592c0","system_id":"levelo_inurba_marseille","lat":43.29423,"lon":5.38642,"is_reserved":false,"is_disabled":false,"rental_uris":{"android":"levelo://app?vid=60561419-ea1b-43d0-87bf-6aa5404592c0","ios":"levelo://app?vid=60561419-ea1b-43d0-87bf-6aa5404592c0"},"vehicle_type_id":"4","last_reported":1739912917,"current_range_meters":15200,"station_id":"ce4bh2h2rcd13ifvqdh0","pricing_plan_id":"cebpf4jnsgd1na2vs0mg"},{"bike_id":"c9e76473-9005-44c4-8436-f04e84d6b23c","system_id":"levelo_inurba_marseille","lat":43.30423,"lon":5.388872,"is_reserved":false,"is_disabled":false,"rental_uris":{"android":"levelo://app?vid=c9e76473-9005-44c4-8436-f04e84d6b23c","ios":"levelo://app?vid=c9e76473-9005-44c4-8436-f04e84d6b23c"},"vehicle_type_id":"4","last_reported":1739912917,"current_range_meters":16000,"station_id":"ce4bgk12rcd13ifvqbi0","pricing_plan_id":"cebpf4jnsgd1na2vs0mg"},{"bike_id":"f6724a5e-f33d-42fb-b878-607e8d9a241f","system_id":"levelo_inurba_marseille","lat":43.29247,"lon":5.38442,"is_reserved":false,"is_disabled":false,"rental_uris":{"android":"levelo://app?vid=f6724a5e-f33d-42fb-b878-607e8d9a241f","ios":"levelo://app?vid=f6724a5e-f33d-42fb-b878-607e8d9a241f"},"vehicle_type_id":"4","last_reported":1739912917,"current_range_meters":16000,"station_id":"ce4bh692rcd13ifvqea0","pricing_plan_id":"cebpf4jnsgd1na2vs0mg"},{"bike_id":"150693b5-e9e5-40db-94aa-ad3bd62b6aa6","system_id":"levelo_inurba_marseille","lat":43.28704,"lon":5.37409,"is_reserved":false,"is_disabled":false,"rental_uris":{"android":"levelo://app?vid=150693b5-e9e5-40db-94aa-ad3bd62b6aa6","ios":"levelo://app?vid=150693b5-e9e5-40db-94aa-ad3bd62b6aa6"},"vehicle_type_id":"4","last_reported":1739912917,"current_range_meters":16000,"station_id":"ce4bh3p2rcd13ifvqdq0","pricing_plan_id":"cebpf4jnsgd1na2vs0mg"},{"bike_id":"a00fb5cd-e0d2-4f96-befb-5275c0df0c87","system_id":"levelo_inurba_marseille","lat":43.27993,"lon":5.4166,"is_reserved":false,"is_disabled":false,"rental_uris":{"android":"levelo://app?vid=a00fb5cd-e0d2-4f96-befb-5275c0df0c87","ios":"levelo://app?vid=a00fb5cd-e0d2-4f96-befb-5275c0df0c87"},"vehicle_type_id":"4","last_reported":1739912917,"current_range_meters":16000,"station_id":"ce4bho12rcd13ifvqh1g","pricing_plan_id":"cebpf4jnsgd1na2vs0mg"},{"bike_id":"2496f28f-529d-4b86-a9ef-00d9565268b8","system_id":"levelo_inurba_marseille","lat":43.2955,"lon":5.38548,"is_reserved":false,"is_disabled":false,"rental_uris":{"android":"levelo://app?vid=2496f28f-529d-4b86-a9ef-00d9565268b8","ios":"levelo://app?vid=2496f28f-529d-4b86-a9ef-00d9565268b8"},"vehicle_type_id":"4","last_reported":1739912917,"current_range_meters":16000,"station_id":"","pricing_plan_id":"cebpf4jnsgd1na2vs0mg"},{"bike_id":"02e819f0-d6f3-424b-b698-1856211dbb1e","system_id":"levelo_inurba_marseille","lat":43.29256,"lon":5.38435,"is_reserved":false,"is_disabled":false,"rental_uris":{"android":"levelo://app?vid=02e819f0-d6f3-424b-b698-1856211dbb1e","ios":"levelo://app?vid=02e819f0-d6f3-424b-b698-1856211dbb1e"},"vehicle_type_id":"4","last_reported":1739912917,"current_range_meters":16000,"station_id":"","pricing_plan_id":"cebpf4jnsgd1na2vs0mg"},{"bike_id":"bd14d312-2e14-49ec-8eda-7f9faf5d358b","system_id":"levelo_inurba_marseille","lat":43.32113,"lon":5.36768,"is_reserved":false,"is_disabled":false,"rental_uris":{"android":"levelo://app?vid=bd14d312-2e14-49ec-8eda-7f9faf5d358b","ios":"levelo://app?vid=bd14d312-2e14-49ec-8eda-7f9faf5d358b"},"vehicle_type_id":"4","last_reported":1739912917,"current_range_meters":16000,"station_id":"ce4bhrh2rcd13ifvqhug","pricing_plan_id":"cebpf4jnsgd1na2vs0mg"},{"bike_id":"c3108c5e-fcab-4b75-a865-d65e6c97c194","system_id":"levelo_inurba_marseille","lat":43.26217,"lon":5.37429,"is_reserved":false,"is_disabled":false,"rental_uris":{"android":"levelo://app?vid=c3108c5e-fcab-4b75-a865-d65e6c97c194","ios":"levelo://app?vid=c3108c5e-fcab-4b75-a865-d65e6c97c194"},"vehicle_type_id":"4","last_reported":1739912917,"current_range_meters":16000,"station_id":"ce4bhgp2rcd13ifvqfc0","pricing_plan_id":"cebpf4jnsgd1na2vs0mg"},{"bike_id":"24c4c545-799a-4b21-9267-f999818b63e7","system_id":"levelo_inurba_marseille","lat":43.29035,"lon":5.39971,"is_reserved":false,"is_disabled":false,"rental_uris":{"android":"levelo://app?vid=24c4c545-799a-4b21-9267-f999818b63e7","ios":"levelo://app?vid=24c4c545-799a-4b21-9267-f999818b63e7"},"vehicle_type_id":"4","last_reported":1739912917,"current_range_meters":14000,"station_id":"ce4bh392rcd13ifvqdm0","pricing_plan_id":"cebpf4jnsgd1na2vs0mg"},{"bike_id":"d2bbc16b-17e1-4745-a415-b4cd89817190","system_id":"levelo_inurba_marseille","lat":43.24659,"lon":5.38918,"is_reserved":false,"is_disabled":false,"rental_uris":{"android":"levelo://app?vid=d2bbc16b-17e1-4745-a415-b4cd89817190","ios":"levelo://app?vid=d2bbc16b-17e1-4745-a415-b4cd89817190"},"vehicle_type_id":"4","last_reported":1739912917,"current_range_meters":16400,"station_id":"ce4bhg12rcd13ifvqf60","pricing_plan_id":"cebpf4jnsgd1na2vs0mg"},{"bike_id":"c3a50302-35be-4085-9dae-1b4ddb75bfa8","system_id":"levelo_inurba_marseille","lat":43.29511,"lon":5.39416,"is_reserved":false,"is_disabled":false,"rental_uris":{"android":"levelo://app?vid=c3a50302-35be-4085-9dae-1b4ddb75bfa8","ios":"levelo://app?vid=c3a50302-35be-4085-9dae-1b4ddb75bfa8"},"vehicle_type_id":"4","last_reported":1739912917,"current_range_meters":16400,"station_id":"ce4bh292rcd13ifvqdf0","pricing_plan_id":"cebpf4jnsgd1na2vs0mg"},{"bike_id":"80aa6cd4-0dd3-4884-b834-c43edd1568c3","system_id":"levelo_inurba_marseille","lat":43.28606,"lon":5.37072,"is_reserved":false,"is_disabled":false,"rental_uris":{"android":"levelo://app?vid=80aa6cd4-0dd3-4884-b834-c43edd1568c3","ios":"levelo://app?vid=80aa6cd4-0dd3-4884-b834-c43edd1568c3"},"vehicle_type_id":"4","last_reported":1739912917,"current_range_meters":16400,"station_id":"ce4bht12rcd13ifvqi60","pricing_plan_id":"cebpf4jnsgd1na2vs0mg"},{"bike_id":"1a7db4a3-be4a-48e9-a2b6-8f927532c24f","system_id":"levelo_inurba_marseille","lat":43.26058,"lon":5.3939,"is_reserved":false,"is_disabled":false,"rental_uris":{"android":"levelo://app?vid=1a7db4a3-be4a-48e9-a2b6-8f927532c24f","ios":"levelo://app?vid=1a7db4a3-be4a-48e9-a2b6-8f927532c24f"},"vehicle_type_id":"4","last_reported":1739912917,"current_range_meters":14400,"station_id":"ce4bhh92rcd13ifvqfj0","pricing_plan_id":"cebpf4jnsgd1na2vs0mg"},{"bike_id":"c67fb496-8441-458a-af2d-8f07c087bdd0","system_id":"levelo_inurba_marseille","lat":43.24172,"lon":5.36426,"is_reserved":false,"is_disabled":true,"rental_uris":{"android":"levelo://app?vid=c67fb496-8441-458a-af2d-8f07c087bdd0","ios":"levelo://app?vid=c67fb496-8441-458a-af2d-8f07c087bdd0"},"vehicle_type_id":"4","last_reported":1739912917,"current_range_meters":16400,"station_id":"","pricing_plan_id":"cebpf4jnsgd1na2vs0mg"},{"bike_id":"db7f2d58-492d-4297-aa78-ce0ad99a0a74","system_id":"levelo_inurba_marseille","lat":43.27456,"lon":5.41027,"is_reserved":false,"is_disabled":false,"rental_uris":{"android":"levelo://app?vid=db7f2d58-492d-4297-aa78-ce0ad99a0a74","ios":"levelo://app?vid=db7f2d58-492d-4297-aa78-ce0ad99a0a74"},"vehicle_type_id":"4","last_reported":1739912917,"current_range_meters":16400,"station_id":"ce4bhb92rcd13ifvqen0","pricing_plan_id":"cebpf4jnsgd1na2vs0mg"},{"bike_id":"59c06e16-2c1f-4444-a3f6-6a7b6c9c893e","system_id":"levelo_inurba_marseille","lat":43.30315,"lon":5.39202,"is_reserved":false,"is_disabled":true,"rental_uris":{"android":"levelo://app?vid=59c06e16-2c1f-4444-a3f6-6a7b6c9c893e","ios":"levelo://app?vid=59c06e16-2c1f-4444-a3f6-6a7b6c9c893e"},"vehicle_type_id":"4","last_reported":1739912917,"current_range_meters":16400,"station_id":"ce4bgkh2rcd13ifvqbk0","pricing_plan_id":"cebpf4jnsgd1na2vs0mg"},{"bike_id":"baf6d894-ad10-49a9-b91a-24f60ad956f7","system_id":"levelo_inurba_marseille","lat":43.28976,"lon":5.4268,"is_reserved":false,"is_disabled":false,"rental_uris":{"android":"levelo://app?vid=baf6d894-ad10-49a9-b91a-24f60ad956f7","ios":"levelo://app?vid=baf6d894-ad10-49a9-b91a-24f60ad956f7"},"vehicle_type_id":"4","last_reported":1739912917,"current_range_meters":16400,"station_id":"","pricing_plan_id":"cebpf4jnsgd1na2vs0mg"},{"bike_id":"fc971b16-bef3-4b6d-813c-ffc8ffa48842","system_id":"levelo_inurba_marseille","lat":43.2841,"lon":5.34986,"is_reserved":false,"is_disabled":true,"rental_uris":{"android":"levelo://app?vid=fc971b16-bef3-4b6d-813c-ffc8ffa48842","ios":"levelo://app?vid=fc971b16-bef3-4b6d-813c-ffc8ffa48842"},"vehicle_type_id":"4","last_reported":1739912917,"current_range_meters":16400,"station_id":"","pricing_plan_id":"cebpf4jnsgd1na2vs0mg"},{"bike_id":"6a29d64c-59b3-4670-ab67-0513acac8ceb","system_id":"levelo_inurba_marseille","lat":43.29424,"lon":5.38623,"is_reserved":false,"is_disabled":false,"rental_uris":{"android":"levelo://app?vid=6a29d64c-59b3-4670-ab67-0513acac8ceb","ios":"levelo://app?vid=6a29d64c-59b3-4670-ab67-0513acac8ceb"},"vehicle_type_id":"4","last_reported":1739912917,"current_range_meters":16400,"station_id":"ce4bh2h2rcd13ifvqdh0","pricing_plan_id":"cebpf4jnsgd1na2vs0mg"},{"bike_id":"95cf8953-b369-4e78-8916-48fb2fb5d3a9","system_id":"levelo_inurba_marseille","lat":43.30167,"lon":5.38778,"is_reserved":false,"is_disabled":false,"rental_uris":{"android":"levelo://app?vid=95cf8953-b369-4e78-8916-48fb2fb5d3a9","ios":"levelo://app?vid=95cf8953-b369-4e78-8916-48fb2fb5d3a9"},"vehicle_type_id":"4","last_reported":1739912917,"current_range_meters":16400,"station_id":"ce4bghh2rcd13ifvqb60","pricing_plan_id":"cebpf4jnsgd1na2vs0mg"},{"bike_id":"077acc1b-c1b2-4d14-8209-0cc02229d534","system_id":"levelo_inurba_marseille","lat":43.30142,"lon":5.398709,"is_reserved":false,"is_disabled":false,"rental_uris":{"android":"levelo://app?vid=077acc1b-c1b2-4d14-8209-0cc02229d534","ios":"levelo://app?vid=077acc1b-c1b2-4d14-8209-0cc02229d534"},"vehicle_type_id":"4","last_reported":1739912917,"current_range_meters":16400,"station_id":"ce4bh0h2rcd13ifvqd40","pricing_plan_id":"cebpf4jnsgd1na2vs0mg"},{"bike_id":"cd5efaf8-208d-4fcc-b822-6578198a6b6a","system_id":"levelo_inurba_marseille","lat":43.25,"lon":5.38927,"is_reserved":false,"is_disabled":false,"rental_uris":{"android":"levelo://app?vid=cd5efaf8-208d-4fcc-b822-6578198a6b6a","ios":"levelo://app?vid=cd5efaf8-208d-4fcc-b822-6578198a6b6a"},"vehicle_type_id":"4","last_reported":1739912917,"current_range_meters":16400,"station_id":"ce4bhgp2rcd13ifvqfd0","pricing_plan_id":"cebpf4jnsgd1na2vs0mg"},{"bike_id":"b64778c2-2434-4409-b125-e965a1fd469a","system_id":"levelo_inurba_marseille","lat":43.30297,"lon":5.36678,"is_reserved":false,"is_disabled":false,"rental_uris":{"android":"levelo://app?vid=b64778c2-2434-4409-b125-e965a1fd469a","ios":"levelo://app?vid=b64778c2-2434-4409-b125-e965a1fd469a"},"vehicle_type_id":"4","last_reported":1739912917,"current_range_meters":16400,"station_id":"ce4bgs12rcd13ifvqcag","pricing_plan_id":"cebpf4jnsgd1na2vs0mg"},{"bike_id":"1c43eb49-ea1b-41ce-946d-e5fe349433b9","system_id":"levelo_inurba_marseille","lat":43.27949,"lon":5.41034,"is_reserved":false,"is_disabled":false,"rental_uris":{"android":"levelo://app?vid=1c43eb49-ea1b-41ce-946d-e5fe349433b9","ios":"levelo://app?vid=1c43eb49-ea1b-41ce-946d-e5fe349433b9"},"vehicle_type_id":"4","last_reported":1739912917,"current_range_meters":16800,"station_id":"ce4bhnp2rcd13ifvqh0g","pricing_plan_id":"cebpf4jnsgd1na2vs0mg"},{"bike_id":"251e94b7-79f6-4aa4-ac6d-a0f2d6a05a18","system_id":"levelo_inurba_marseille","lat":43.29422,"lon":5.38638,"is_reserved":false,"is_disabled":false,"rental_uris":{"android":"levelo://app?vid=251e94b7-79f6-4aa4-ac6d-a0f2d6a05a18","ios":"levelo://app?vid=251e94b7-79f6-4aa4-ac6d-a0f2d6a05a18"},"vehicle_type_id":"4","last_reported":1739912917,"current_range_meters":16800,"station_id":"","pricing_plan_id":"cebpf4jnsgd1na2vs0mg"},{"bike_id":"090d254b-7e06-4322-b664-ffb12aca0039","system_id":"levelo_inurba_marseille","lat":43.28425,"lon":5.34985,"is_reserved":false,"is_disabled":false,"rental_uris":{"android":"levelo://app?vid=090d254b-7e06-4322-b664-ffb12aca0039","ios":"levelo://app?vid=090d254b-7e06-4322-b664-ffb12aca0039"},"vehicle_type_id":"4","last_reported":1739912917,"current_range_meters":16800,"station_id":"ce4bhbh2rcd13ifvqepg","pricing_plan_id":"cebpf4jnsgd1na2vs0mg"},{"bike_id":"53db4f29-0203-4c55-9f74-0749f0e91dc5","system_id":"levelo_inurba_marseille","lat":43.31118,"lon":5.3778,"is_reserved":false,"is_disabled":false,"rental_uris":{"android":"levelo://app?vid=53db4f29-0203-4c55-9f74-0749f0e91dc5","ios":"levelo://app?vid=53db4f29-0203-4c55-9f74-0749f0e91dc5"},"vehicle_type_id":"4","last_reported":1739912917,"current_range_meters":16400,"station_id":"ce4bgt92rcd13ifvqcg0","pricing_plan_id":"cebpf4jnsgd1na2vs0mg"},{"bike_id":"712b3527-737c-4555-bbb2-2952f0c5ba44","system_id":"levelo_inurba_marseille","lat":43.28034,"lon":5.36953,"is_reserved":false,"is_disabled":false,"rental_uris":{"android":"levelo://app?vid=712b3527-737c-4555-bbb2-2952f0c5ba44","ios":"levelo://app?vid=712b3527-737c-4555-bbb2-2952f0c5ba44"},"vehicle_type_id":"4","last_reported":1739912917,"current_range_meters":16800,"station_id":"ce4bha12rcd13ifvqef0","pricing_plan_id":"cebpf4jnsgd1na2vs0mg"},{"bike_id":"24dd12c1-4d8a-40c0-b521-a98d2d462c41","system_id":"levelo_inurba_marseille","lat":43.24152,"lon":5.36435,"is_reserved":false,"is_disabled":false,"rental_uris":{"android":"levelo://app?vid=24dd12c1-4d8a-40c0-b521-a98d2d462c41","ios":"levelo://app?vid=24dd12c1-4d8a-40c0-b521-a98d2d462c41"},"vehicle_type_id":"4","last_reported":1739912917,"current_range_meters":16800,"station_id":"","pricing_plan_id":"cebpf4jnsgd1na2vs0mg"},{"bike_id":"5a53eb6b-200f-4ac0-8efb-be28f6b20f01","system_id":"levelo_inurba_marseille","lat":43.23962,"lon":5.36643,"is_reserved":false,"is_disabled":false,"rental_uris":{"android":"levelo://app?vid=5a53eb6b-200f-4ac0-8efb-be28f6b20f01","ios":"levelo://app?vid=5a53eb6b-200f-4ac0-8efb-be28f6b20f01"},"vehicle_type_id":"4","last_reported":1739912917,"current_range_meters":16800,"station_id":"","pricing_plan_id":"cebpf4jnsgd1na2vs0mg"},{"bike_id":"93682908-43c6-4032-8e45-6984dd069700","system_id":"levelo_inurba_marseille","lat":43.24629,"lon":5.38955,"is_reserved":false,"is_disabled":false,"rental_uris":{"android":"levelo://app?vid=93682908-43c6-4032-8e45-6984dd069700","ios":"levelo://app?vid=93682908-43c6-4032-8e45-6984dd069700"},"vehicle_type_id":"4","last_reported":1739912917,"current_range_meters":16800,"station_id":"ce4bhg12rcd13ifvqf60","pricing_plan_id":"cebpf4jnsgd1na2vs0mg"},{"bike_id":"47f0921d-aa1d-4b4b-a868-e9e97a59a34c","system_id":"levelo_inurba_marseille","lat":43.29593,"lon":5.38105,"is_reserved":false,"is_disabled":true,"rental_uris":{"android":"levelo://app?vid=47f0921d-aa1d-4b4b-a868-e9e97a59a34c","ios":"levelo://app?vid=47f0921d-aa1d-4b4b-a868-e9e97a59a34c"},"vehicle_type_id":"4","last_reported":1739912917,"current_range_meters":16800,"station_id":"ce4bgl12rcd13ifvqbo0","pricing_plan_id":"cebpf4jnsgd1na2vs0mg"},{"bike_id":"5d5578c2-a2af-4336-8a20-d08d83d12092","system_id":"levelo_inurba_marseille","lat":43.27864,"lon":5.3921,"is_reserved":false,"is_disabled":false,"rental_uris":{"android":"levelo://app?vid=5d5578c2-a2af-4336-8a20-d08d83d12092","ios":"levelo://app?vid=5d5578c2-a2af-4336-8a20-d08d83d12092"},"vehicle_type_id":"4","last_reported":1739912917,"current_range_meters":16800,"station_id":"ce4bhjp2rcd13ifvqga0","pricing_plan_id":"cebpf4jnsgd1na2vs0mg"},{"bike_id":"a8c89a23-99a6-4794-9ee3-4e5c07f642a3","system_id":"levelo_inurba_marseille","lat":43.30218,"lon":5.39444,"is_reserved":false,"is_disabled":false,"rental_uris":{"android":"levelo://app?vid=a8c89a23-99a6-4794-9ee3-4e5c07f642a3","ios":"levelo://app?vid=a8c89a23-99a6-4794-9ee3-4e5c07f642a3"},"vehicle_type_id":"4","last_reported":1739912917,"current_range_meters":16800,"station_id":"","pricing_plan_id":"cebpf4jnsgd1na2vs0mg"},{"bike_id":"9935677e-0262-4894-974f-fec1281c49ef","system_id":"levelo_inurba_marseille","lat":43.29523,"lon":5.39393,"is_reserved":false,"is_disabled":false,"rental_uris":{"android":"levelo://app?vid=9935677e-0262-4894-974f-fec1281c49ef","ios":"levelo://app?vid=9935677e-0262-4894-974f-fec1281c49ef"},"vehicle_type_id":"4","last_reported":1739912917,"current_range_meters":16800,"station_id":"ce4bh292rcd13ifvqdf0","pricing_plan_id":"cebpf4jnsgd1na2vs0mg"},{"bike_id":"07da0bdc-8313-4de2-9058-fd8ecd01c88e","system_id":"levelo_inurba_marseille","lat":43.32665,"lon":5.40973,"is_reserved":false,"is_disabled":false,"rental_uris":{"android":"levelo://app?vid=07da0bdc-8313-4de2-9058-fd8ecd01c88e","ios":"levelo://app?vid=07da0bdc-8313-4de2-9058-fd8ecd01c88e"},"vehicle_type_id":"4","last_reported":1739912917,"current_range_meters":17200,"station_id":"ce4bhpp2rcd13ifvqhgg","pricing_plan_id":"cebpf4jnsgd1na2vs0mg"},{"bike_id":"6bd532d8-9347-4efa-b089-dc4a25db3a73","system_id":"levelo_inurba_marseille","lat":43.28618,"lon":5.37035,"is_reserved":false,"is_disabled":false,"rental_uris":{"android":"levelo://app?vid=6bd532d8-9347-4efa-b089-dc4a25db3a73","ios":"levelo://app?vid=6bd532d8-9347-4efa-b089-dc4a25db3a73"},"vehicle_type_id":"4","last_reported":1739912917,"current_range_meters":17200,"station_id":"ce4bht12rcd13ifvqi60","pricing_plan_id":"cebpf4jnsgd1na2vs0mg"},{"bike_id":"4c049e8c-dd47-4937-b343-0b8e81c04fa5","system_id":"levelo_inurba_marseille","lat":43.29536,"lon":5.38542,"is_reserved":false,"is_disabled":false,"rental_uris":{"android":"levelo://app?vid=4c049e8c-dd47-4937-b343-0b8e81c04fa5","ios":"levelo://app?vid=4c049e8c-dd47-4937-b343-0b8e81c04fa5"},"vehicle_type_id":"4","last_reported":1739912917,"current_range_meters":17200,"station_id":"ce4bgih2rcd13ifvqba0","pricing_plan_id":"cebpf4jnsgd1na2vs0mg"},{"bike_id":"9a20bf4a-2838-4260-9d28-debd745460c0","system_id":"levelo_inurba_marseille","lat":43.30858,"lon":5.37775,"is_reserved":false,"is_disabled":false,"rental_uris":{"android":"levelo://app?vid=9a20bf4a-2838-4260-9d28-debd745460c0","ios":"levelo://app?vid=9a20bf4a-2838-4260-9d28-debd745460c0"},"vehicle_type_id":"4","last_reported":1739912917,"current_range_meters":17200,"station_id":"ce4bgv92rcd13ifvqcq0","pricing_plan_id":"cebpf4jnsgd1na2vs0mg"},{"bike_id":"e3422978-e3d1-4168-a7a6-5ae7ec99e03f","system_id":"levelo_inurba_marseille","lat":43.27179,"lon":5.41003,"is_reserved":false,"is_disabled":false,"rental_uris":{"android":"levelo://app?vid=e3422978-e3d1-4168-a7a6-5ae7ec99e03f","ios":"levelo://app?vid=e3422978-e3d1-4168-a7a6-5ae7ec99e03f"},"vehicle_type_id":"4","last_reported":1739912917,"current_range_meters":17200,"station_id":"","pricing_plan_id":"cebpf4jnsgd1na2vs0mg"},{"bike_id":"a0d3dbb9-7a31-499e-b6fa-75722a74f076","system_id":"levelo_inurba_marseille","lat":43.2621,"lon":5.37448,"is_reserved":false,"is_disabled":false,"rental_uris":{"android":"levelo://app?vid=a0d3dbb9-7a31-499e-b6fa-75722a74f076","ios":"levelo://app?vid=a0d3dbb9-7a31-499e-b6fa-75722a74f076"},"vehicle_type_id":"4","last_reported":1739912917,"current_range_meters":17200,"station_id":"ce4bhgp2rcd13ifvqfc0","pricing_plan_id":"cebpf4jnsgd1na2vs0mg"},{"bike_id":"5b80abf9-df02-44a7-b61b-dd0a85631c27","system_id":"levelo_inurba_marseille","lat":43.23963,"lon":5.36647,"is_reserved":false,"is_disabled":false,"rental_uris":{"android":"levelo://app?vid=5b80abf9-df02-44a7-b61b-dd0a85631c27","ios":"levelo://app?vid=5b80abf9-df02-44a7-b61b-dd0a85631c27"},"vehicle_type_id":"4","last_reported":1739912917,"current_range_meters":17200,"station_id":"","pricing_plan_id":"cebpf4jnsgd1na2vs0mg"},{"bike_id":"cd230625-ef0c-4ff9-942d-7bf8299e6e70","system_id":"levelo_inurba_marseille","lat":43.28374,"lon":5.38634,"is_reserved":false,"is_disabled":false,"rental_uris":{"android":"levelo://app?vid=cd230625-ef0c-4ff9-942d-7bf8299e6e70","ios":"levelo://app?vid=cd230625-ef0c-4ff9-942d-7bf8299e6e70"},"vehicle_type_id":"4","last_reported":1739912917,"current_range_meters":16800,"station_id":"ce4bh492rcd13ifvqdvg","pricing_plan_id":"cebpf4jnsgd1na2vs0mg"},{"bike_id":"495b4304-c9b3-47f2-a172-35d2e3522097","system_id":"levelo_inurba_marseille","lat":43.28952,"lon":5.36636,"is_reserved":false,"is_disabled":false,"rental_uris":{"android":"levelo://app?vid=495b4304-c9b3-47f2-a172-35d2e3522097","ios":"levelo://app?vid=495b4304-c9b3-47f2-a172-35d2e3522097"},"vehicle_type_id":"4","last_reported":1739912917,"current_range_meters":17200,"station_id":"ce4bhap2rcd13ifvqek0","pricing_plan_id":"cebpf4jnsgd1na2vs0mg"},{"bike_id":"ec82ab7e-7bfd-4902-af32-9a8ef38275a8","system_id":"levelo_inurba_marseille","lat":43.29538,"lon":5.38533,"is_reserved":false,"is_disabled":false,"rental_uris":{"android":"levelo://app?vid=ec82ab7e-7bfd-4902-af32-9a8ef38275a8","ios":"levelo://app?vid=ec82ab7e-7bfd-4902-af32-9a8ef38275a8"},"vehicle_type_id":"4","last_reported":1739912917,"current_range_meters":17200,"station_id":"","pricing_plan_id":"cebpf4jnsgd1na2vs0mg"},{"bike_id":"5180f318-4948-4085-aaf1-5f3160b57dbe","system_id":"levelo_inurba_marseille","lat":43.27611,"lon":5.36105,"is_reserved":false,"is_disabled":true,"rental_uris":{"android":"levelo://app?vid=5180f318-4948-4085-aaf1-5f3160b57dbe","ios":"levelo://app?vid=5180f318-4948-4085-aaf1-5f3160b57dbe"},"vehicle_type_id":"4","last_reported":1739912917,"current_range_meters":17200,"station_id":"ce4bgj92rcd13ifvqbe0","pricing_plan_id":"cebpf4jnsgd1na2vs0mg"},{"bike_id":"16f8387c-1abb-4d3f-9ee6-f8bed8ab536c","system_id":"levelo_inurba_marseille","lat":43.29768,"lon":5.39355,"is_reserved":false,"is_disabled":false,"rental_uris":{"android":"levelo://app?vid=16f8387c-1abb-4d3f-9ee6-f8bed8ab536c","ios":"levelo://app?vid=16f8387c-1abb-4d3f-9ee6-f8bed8ab536c"},"vehicle_type_id":"4","last_reported":1739912917,"current_range_meters":17600,"station_id":"","pricing_plan_id":"cebpf4jnsgd1na2vs0mg"},{"bike_id":"2813db0d-ca93-488f-9d91-4732cc5de3db","system_id":"levelo_inurba_marseille","lat":43.250042,"lon":5.389163,"is_reserved":false,"is_disabled":false,"rental_uris":{"android":"levelo://app?vid=2813db0d-ca93-488f-9d91-4732cc5de3db","ios":"levelo://app?vid=2813db0d-ca93-488f-9d91-4732cc5de3db"},"vehicle_type_id":"4","last_reported":1739912917,"current_range_meters":17600,"station_id":"ce4bhlh2rcd13ifvqgig","pricing_plan_id":"cebpf4jnsgd1na2vs0mg"},{"bike_id":"e62addd4-0190-4b14-9c8f-637890bcd59e","system_id":"levelo_inurba_marseille","lat":43.29424,"lon":5.38634,"is_reserved":false,"is_disabled":false,"rental_uris":{"android":"levelo://app?vid=e62addd4-0190-4b14-9c8f-637890bcd59e","ios":"levelo://app?vid=e62addd4-0190-4b14-9c8f-637890bcd59e"},"vehicle_type_id":"4","last_reported":1739912917,"current_range_meters":17600,"station_id":"","pricing_plan_id":"cebpf4jnsgd1na2vs0mg"},{"bike_id":"6f96bb29-baaa-4bf9-831a-ae950a1de97c","system_id":"levelo_inurba_marseille","lat":43.28443,"lon":5.35892,"is_reserved":false,"is_disabled":false,"rental_uris":{"android":"levelo://app?vid=6f96bb29-baaa-4bf9-831a-ae950a1de97c","ios":"levelo://app?vid=6f96bb29-baaa-4bf9-831a-ae950a1de97c"},"vehicle_type_id":"4","last_reported":1739912917,"current_range_meters":17600,"station_id":"ce4bhah2rcd13ifvqei0","pricing_plan_id":"cebpf4jnsgd1na2vs0mg"},{"bike_id":"659813f7-fc3e-49b2-b743-3ceee2ae3dd9","system_id":"levelo_inurba_marseille","lat":43.2319,"lon":5.39988,"is_reserved":false,"is_disabled":false,"rental_uris":{"android":"levelo://app?vid=659813f7-fc3e-49b2-b743-3ceee2ae3dd9","ios":"levelo://app?vid=659813f7-fc3e-49b2-b743-3ceee2ae3dd9"},"vehicle_type_id":"4","last_reported":1739912917,"current_range_meters":17600,"station_id":"ce4bhn12rcd13ifvqgqg","pricing_plan_id":"cebpf4jnsgd1na2vs0mg"},{"bike_id":"9d288d24-1b78-4230-a338-5b91d80870f6","system_id":"levelo_inurba_marseille","lat":43.29372,"lon":5.37828,"is_reserved":false,"is_disabled":false,"rental_uris":{"android":"levelo://app?vid=9d288d24-1b78-4230-a338-5b91d80870f6","ios":"levelo://app?vid=9d288d24-1b78-4230-a338-5b91d80870f6"},"vehicle_type_id":"4","last_reported":1739912917,"current_range_meters":17600,"station_id":"ce4bgjh2rcd13ifvqbf0","pricing_plan_id":"cebpf4jnsgd1na2vs0mg"},{"bike_id":"32738602-b17f-4e62-a23a-a98ea191ef69","system_id":"levelo_inurba_marseille","lat":43.29534,"lon":5.38538,"is_reserved":false,"is_disabled":false,"rental_uris":{"android":"levelo://app?vid=32738602-b17f-4e62-a23a-a98ea191ef69","ios":"levelo://app?vid=32738602-b17f-4e62-a23a-a98ea191ef69"},"vehicle_type_id":"4","last_reported":1739912917,"current_range_meters":17600,"station_id":"","pricing_plan_id":"cebpf4jnsgd1na2vs0mg"},{"bike_id":"60963745-f5af-4c3d-b176-cade1efb377f","system_id":"levelo_inurba_marseille","lat":43.28343,"lon":5.38101,"is_reserved":false,"is_disabled":false,"rental_uris":{"android":"levelo://app?vid=60963745-f5af-4c3d-b176-cade1efb377f","ios":"levelo://app?vid=60963745-f5af-4c3d-b176-cade1efb377f"},"vehicle_type_id":"4","last_reported":1739912917,"current_range_meters":17600,"station_id":"ce4bh412rcd13ifvqdr0","pricing_plan_id":"cebpf4jnsgd1na2vs0mg"},{"bike_id":"ee318ccd-c697-43a6-bafd-c758274e6962","system_id":"levelo_inurba_marseille","lat":43.30316,"lon":5.40076,"is_reserved":false,"is_disabled":false,"rental_uris":{"android":"levelo://app?vid=ee318ccd-c697-43a6-bafd-c758274e6962","ios":"levelo://app?vid=ee318ccd-c697-43a6-bafd-c758274e6962"},"vehicle_type_id":"4","last_reported":1739912917,"current_range_meters":17600,"station_id":"","pricing_plan_id":"cebpf4jnsgd1na2vs0mg"},{"bike_id":"5f9ede52-c720-4107-a864-980fb2608395","system_id":"levelo_inurba_marseille","lat":43.24098,"lon":5.38678,"is_reserved":false,"is_disabled":false,"rental_uris":{"android":"levelo://app?vid=5f9ede52-c720-4107-a864-980fb2608395","ios":"levelo://app?vid=5f9ede52-c720-4107-a864-980fb2608395"},"vehicle_type_id":"4","last_reported":1739912917,"current_range_meters":18000,"station_id":"","pricing_plan_id":"cebpf4jnsgd1na2vs0mg"},{"bike_id":"5089bb88-a0cd-4434-a1a9-f3d5b67361c6","system_id":"levelo_inurba_marseille","lat":43.24375,"lon":5.38775,"is_reserved":false,"is_disabled":false,"rental_uris":{"android":"levelo://app?vid=5089bb88-a0cd-4434-a1a9-f3d5b67361c6","ios":"levelo://app?vid=5089bb88-a0cd-4434-a1a9-f3d5b67361c6"},"vehicle_type_id":"4","last_reported":1739912917,"current_range_meters":18000,"station_id":"","pricing_plan_id":"cebpf4jnsgd1na2vs0mg"},{"bike_id":"83210bee-a884-424c-97a2-b8879c7524a2","system_id":"levelo_inurba_marseille","lat":43.29095,"lon":5.38149,"is_reserved":false,"is_disabled":false,"rental_uris":{"android":"levelo://app?vid=83210bee-a884-424c-97a2-b8879c7524a2","ios":"levelo://app?vid=83210bee-a884-424c-97a2-b8879c7524a2"},"vehicle_type_id":"4","last_reported":1739912917,"current_range_meters":18000,"station_id":"ce4bh512rcd13ifvqe2g","pricing_plan_id":"cebpf4jnsgd1na2vs0mg"},{"bike_id":"e215a793-b581-4982-bdf8-ff0f3e26ede5","system_id":"levelo_inurba_marseille","lat":43.29273,"lon":5.38429,"is_reserved":false,"is_disabled":false,"rental_uris":{"android":"levelo://app?vid=e215a793-b581-4982-bdf8-ff0f3e26ede5","ios":"levelo://app?vid=e215a793-b581-4982-bdf8-ff0f3e26ede5"},"vehicle_type_id":"4","last_reported":1739912917,"current_range_meters":18000,"station_id":"ce4bh692rcd13ifvqea0","pricing_plan_id":"cebpf4jnsgd1na2vs0mg"},{"bike_id":"f319b6f8-8ad8-4867-bdda-29c48c9746ea","system_id":"levelo_inurba_marseille","lat":43.28665,"lon":5.36368,"is_reserved":false,"is_disabled":false,"rental_uris":{"android":"levelo://app?vid=f319b6f8-8ad8-4867-bdda-29c48c9746ea","ios":"levelo://app?vid=f319b6f8-8ad8-4867-bdda-29c48c9746ea"},"vehicle_type_id":"4","last_reported":1739912917,"current_range_meters":17600,"station_id":"ce4bhah2rcd13ifvqej0","pricing_plan_id":"cebpf4jnsgd1na2vs0mg"},{"bike_id":"33604822-0839-49e5-a64a-3e509bb43553","system_id":"levelo_inurba_marseille","lat":43.28153,"lon":5.42703,"is_reserved":false,"is_disabled":false,"rental_uris":{"android":"levelo://app?vid=33604822-0839-49e5-a64a-3e509bb43553","ios":"levelo://app?vid=33604822-0839-49e5-a64a-3e509bb43553"},"vehicle_type_id":"4","last_reported":1739912917,"current_range_meters":18000,"station_id":"ce4bhnh2rcd13ifvqgug","pricing_plan_id":"cebpf4jnsgd1na2vs0mg"},{"bike_id":"5ecd443d-db34-486a-b6f9-c8e67e540a70","system_id":"levelo_inurba_marseille","lat":43.28624,"lon":5.35085,"is_reserved":false,"is_disabled":false,"rental_uris":{"android":"levelo://app?vid=5ecd443d-db34-486a-b6f9-c8e67e540a70","ios":"levelo://app?vid=5ecd443d-db34-486a-b6f9-c8e67e540a70"},"vehicle_type_id":"4","last_reported":1739912917,"current_range_meters":18000,"station_id":"ce4bhch2rcd13ifvqeug","pricing_plan_id":"cebpf4jnsgd1na2vs0mg"},{"bike_id":"b9733126-3c3f-4c59-bad9-f580c8a42f02","system_id":"levelo_inurba_marseille","lat":43.23187,"lon":5.39984,"is_reserved":false,"is_disabled":false,"rental_uris":{"android":"levelo://app?vid=b9733126-3c3f-4c59-bad9-f580c8a42f02","ios":"levelo://app?vid=b9733126-3c3f-4c59-bad9-f580c8a42f02"},"vehicle_type_id":"4","last_reported":1739912917,"current_range_meters":18000,"station_id":"ce4bhn12rcd13ifvqgqg","pricing_plan_id":"cebpf4jnsgd1na2vs0mg"},{"bike_id":"66f46615-e165-41a2-afca-c41ccada620a","system_id":"levelo_inurba_marseille","lat":43.25008,"lon":5.38933,"is_reserved":false,"is_disabled":false,"rental_uris":{"android":"levelo://app?vid=66f46615-e165-41a2-afca-c41ccada620a","ios":"levelo://app?vid=66f46615-e165-41a2-afca-c41ccada620a"},"vehicle_type_id":"4","last_reported":1739912917,"current_range_meters":18000,"station_id":"ce4bhgp2rcd13ifvqfd0","pricing_plan_id":"cebpf4jnsgd1na2vs0mg"},{"bike_id":"f7db23b2-4c03-4c27-a486-c3e2483540b0","system_id":"levelo_inurba_marseille","lat":43.28724,"lon":5.36117,"is_reserved":false,"is_disabled":false,"rental_uris":{"android":"levelo://app?vid=f7db23b2-4c03-4c27-a486-c3e2483540b0","ios":"levelo://app?vid=f7db23b2-4c03-4c27-a486-c3e2483540b0"},"vehicle_type_id":"4","last_reported":1739912917,"current_range_meters":18000,"station_id":"cki0cbj6b192h4jlfktg","pricing_plan_id":"cebpf4jnsgd1na2vs0mg"},{"bike_id":"21c97aee-504c-480f-84c7-11258b97f58a","system_id":"levelo_inurba_marseille","lat":43.28917,"lon":5.38399,"is_reserved":false,"is_disabled":false,"rental_uris":{"android":"levelo://app?vid=21c97aee-504c-480f-84c7-11258b97f58a","ios":"levelo://app?vid=21c97aee-504c-480f-84c7-11258b97f58a"},"vehicle_type_id":"4","last_reported":1739912917,"current_range_meters":18000,"station_id":"ce4bh612rcd13ifvqe6g","pricing_plan_id":"cebpf4jnsgd1na2vs0mg"},{"bike_id":"cb2201f6-e022-40ab-adbc-f5866780251a","system_id":"levelo_inurba_marseille","lat":43.30153,"lon":5.39874,"is_reserved":false,"is_disabled":false,"rental_uris":{"android":"levelo://app?vid=cb2201f6-e022-40ab-adbc-f5866780251a","ios":"levelo://app?vid=cb2201f6-e022-40ab-adbc-f5866780251a"},"vehicle_type_id":"4","last_reported":1739912917,"current_range_meters":18000,"station_id":"ce4bh0h2rcd13ifvqd40","pricing_plan_id":"cebpf4jnsgd1na2vs0mg"},{"bike_id":"e48e81cc-9b6d-4465-952c-db9c27c26a21","system_id":"levelo_inurba_marseille","lat":43.32335,"lon":5.40623,"is_reserved":false,"is_disabled":false,"rental_uris":{"android":"levelo://app?vid=e48e81cc-9b6d-4465-952c-db9c27c26a21","ios":"levelo://app?vid=e48e81cc-9b6d-4465-952c-db9c27c26a21"},"vehicle_type_id":"4","last_reported":1739912917,"current_range_meters":18000,"station_id":"ce4bhq92rcd13ifvqhjg","pricing_plan_id":"cebpf4jnsgd1na2vs0mg"},{"bike_id":"b85644ed-f65a-4039-a397-da921e97276e","system_id":"levelo_inurba_marseille","lat":43.23958,"lon":5.36656,"is_reserved":false,"is_disabled":false,"rental_uris":{"android":"levelo://app?vid=b85644ed-f65a-4039-a397-da921e97276e","ios":"levelo://app?vid=b85644ed-f65a-4039-a397-da921e97276e"},"vehicle_type_id":"4","last_reported":1739912917,"current_range_meters":18800,"station_id":"ce4bhi12rcd13ifvqfp0","pricing_plan_id":"cebpf4jnsgd1na2vs0mg"},{"bike_id":"db1db9fe-b916-4fc9-aff5-4f8550736ac3","system_id":"levelo_inurba_marseille","lat":43.29797,"lon":5.38104,"is_reserved":false,"is_disabled":false,"rental_uris":{"android":"levelo://app?vid=db1db9fe-b916-4fc9-aff5-4f8550736ac3","ios":"levelo://app?vid=db1db9fe-b916-4fc9-aff5-4f8550736ac3"},"vehicle_type_id":"4","last_reported":1739912917,"current_range_meters":18800,"station_id":"","pricing_plan_id":"cebpf4jnsgd1na2vs0mg"},{"bike_id":"a0af3547-0f5a-4ee7-a39d-23ed992db956","system_id":"levelo_inurba_marseille","lat":43.23418,"lon":5.40452,"is_reserved":false,"is_disabled":false,"rental_uris":{"android":"levelo://app?vid=a0af3547-0f5a-4ee7-a39d-23ed992db956","ios":"levelo://app?vid=a0af3547-0f5a-4ee7-a39d-23ed992db956"},"vehicle_type_id":"4","last_reported":1739912917,"current_range_meters":18800,"station_id":"","pricing_plan_id":"cebpf4jnsgd1na2vs0mg"},{"bike_id":"92976659-85fd-47c2-b762-4263c63c96d3","system_id":"levelo_inurba_marseille","lat":43.30094,"lon":5.39091,"is_reserved":false,"is_disabled":false,"rental_uris":{"android":"levelo://app?vid=92976659-85fd-47c2-b762-4263c63c96d3","ios":"levelo://app?vid=92976659-85fd-47c2-b762-4263c63c96d3"},"vehicle_type_id":"4","last_reported":1739912917,"current_range_meters":18800,"station_id":"ce4bh192rcd13ifvqdb0","pricing_plan_id":"cebpf4jnsgd1na2vs0mg"},{"bike_id":"7e3809a0-01e4-4f37-9275-3c7b0fd64ef4","system_id":"levelo_inurba_marseille","lat":43.27912,"lon":5.39582,"is_reserved":false,"is_disabled":false,"rental_uris":{"android":"levelo://app?vid=7e3809a0-01e4-4f37-9275-3c7b0fd64ef4","ios":"levelo://app?vid=7e3809a0-01e4-4f37-9275-3c7b0fd64ef4"},"vehicle_type_id":"4","last_reported":1739912917,"current_range_meters":18800,"station_id":"ce4bhf92rcd13ifvqf40","pricing_plan_id":"cebpf4jnsgd1na2vs0mg"},{"bike_id":"ffa697b7-285b-4519-acbd-7c152b9e76d0","system_id":"levelo_inurba_marseille","lat":43.28725,"lon":5.36096,"is_reserved":false,"is_disabled":false,"rental_uris":{"android":"levelo://app?vid=ffa697b7-285b-4519-acbd-7c152b9e76d0","ios":"levelo://app?vid=ffa697b7-285b-4519-acbd-7c152b9e76d0"},"vehicle_type_id":"4","last_reported":1739912917,"current_range_meters":18800,"station_id":"cki0cbj6b192h4jlfktg","pricing_plan_id":"cebpf4jnsgd1na2vs0mg"},{"bike_id":"af246186-84c5-47ac-9840-acf8926725e0","system_id":"levelo_inurba_marseille","lat":43.23949,"lon":5.36648,"is_reserved":false,"is_disabled":false,"rental_uris":{"android":"levelo://app?vid=af246186-84c5-47ac-9840-acf8926725e0","ios":"levelo://app?vid=af246186-84c5-47ac-9840-acf8926725e0"},"vehicle_type_id":"4","last_reported":1739912917,"current_range_meters":18800,"station_id":"","pricing_plan_id":"cebpf4jnsgd1na2vs0mg"},{"bike_id":"8466c8f9-1ed1-4153-8eb5-132fc63ffaac","system_id":"levelo_inurba_marseille","lat":43.28152,"lon":5.42644,"is_reserved":false,"is_disabled":false,"rental_uris":{"android":"levelo://app?vid=8466c8f9-1ed1-4153-8eb5-132fc63ffaac","ios":"levelo://app?vid=8466c8f9-1ed1-4153-8eb5-132fc63ffaac"},"vehicle_type_id":"4","last_reported":1739912917,"current_range_meters":18800,"station_id":"ce4bhnh2rcd13ifvqgug","pricing_plan_id":"cebpf4jnsgd1na2vs0mg"},{"bike_id":"ec5814cc-8b7e-4d45-b2f0-e8a2b9b37adc","system_id":"levelo_inurba_marseille","lat":43.28188,"lon":5.42651,"is_reserved":false,"is_disabled":false,"rental_uris":{"android":"levelo://app?vid=ec5814cc-8b7e-4d45-b2f0-e8a2b9b37adc","ios":"levelo://app?vid=ec5814cc-8b7e-4d45-b2f0-e8a2b9b37adc"},"vehicle_type_id":"4","last_reported":1739912917,"current_range_meters":18800,"station_id":"ce4bhnh2rcd13ifvqgug","pricing_plan_id":"cebpf4jnsgd1na2vs0mg"},{"bike_id":"7a8f9ca6-11e0-4ff0-ae28-18de920f43ce","system_id":"levelo_inurba_marseille","lat":43.29538,"lon":5.38535,"is_reserved":false,"is_disabled":false,"rental_uris":{"android":"levelo://app?vid=7a8f9ca6-11e0-4ff0-ae28-18de920f43ce","ios":"levelo://app?vid=7a8f9ca6-11e0-4ff0-ae28-18de920f43ce"},"vehicle_type_id":"4","last_reported":1739912917,"current_range_meters":18800,"station_id":"","pricing_plan_id":"cebpf4jnsgd1na2vs0mg"},{"bike_id":"53cc3e09-8226-4f83-9e42-b5b81a54d618","system_id":"levelo_inurba_marseille","lat":43.28865,"lon":5.35835,"is_reserved":false,"is_disabled":false,"rental_uris":{"android":"levelo://app?vid=53cc3e09-8226-4f83-9e42-b5b81a54d618","ios":"levelo://app?vid=53cc3e09-8226-4f83-9e42-b5b81a54d618"},"vehicle_type_id":"4","last_reported":1739912917,"current_range_meters":18800,"station_id":"ce4bhdp2rcd13ifvqf20","pricing_plan_id":"cebpf4jnsgd1na2vs0mg"},{"bike_id":"ecbd6e29-5b86-41d0-a4bd-3518ee3bab53","system_id":"levelo_inurba_marseille","lat":43.24655,"lon":5.38944,"is_reserved":false,"is_disabled":false,"rental_uris":{"android":"levelo://app?vid=ecbd6e29-5b86-41d0-a4bd-3518ee3bab53","ios":"levelo://app?vid=ecbd6e29-5b86-41d0-a4bd-3518ee3bab53"},"vehicle_type_id":"4","last_reported":1739912917,"current_range_meters":19200,"station_id":"ce4bhg12rcd13ifvqf60","pricing_plan_id":"cebpf4jnsgd1na2vs0mg"},{"bike_id":"942572d4-f1f4-4d01-b81b-0524fbeb3e9d","system_id":"levelo_inurba_marseille","lat":43.24809,"lon":5.37454,"is_reserved":false,"is_disabled":false,"rental_uris":{"android":"levelo://app?vid=942572d4-f1f4-4d01-b81b-0524fbeb3e9d","ios":"levelo://app?vid=942572d4-f1f4-4d01-b81b-0524fbeb3e9d"},"vehicle_type_id":"4","last_reported":1739912917,"current_range_meters":19200,"station_id":"","pricing_plan_id":"cebpf4jnsgd1na2vs0mg"},{"bike_id":"e46c179c-969e-4fe6-8b83-52017debaf62","system_id":"levelo_inurba_marseille","lat":43.27924,"lon":5.39579,"is_reserved":false,"is_disabled":false,"rental_uris":{"android":"levelo://app?vid=e46c179c-969e-4fe6-8b83-52017debaf62","ios":"levelo://app?vid=e46c179c-969e-4fe6-8b83-52017debaf62"},"vehicle_type_id":"4","last_reported":1739912917,"current_range_meters":19200,"station_id":"ce4bhf92rcd13ifvqf40","pricing_plan_id":"cebpf4jnsgd1na2vs0mg"},{"bike_id":"abc8e205-0bfb-4337-9b72-b3c717752910","system_id":"levelo_inurba_marseille","lat":43.30931,"lon":5.40144,"is_reserved":false,"is_disabled":false,"rental_uris":{"android":"levelo://app?vid=abc8e205-0bfb-4337-9b72-b3c717752910","ios":"levelo://app?vid=abc8e205-0bfb-4337-9b72-b3c717752910"},"vehicle_type_id":"4","last_reported":1739912917,"current_range_meters":18800,"station_id":"ce4bgvp2rcd13ifvqct0","pricing_plan_id":"cebpf4jnsgd1na2vs0mg"},{"bike_id":"e52597f1-82f8-48fe-bbed-0ed0f6f2b106","system_id":"levelo_inurba_marseille","lat":43.29263,"lon":5.38446,"is_reserved":false,"is_disabled":false,"rental_uris":{"android":"levelo://app?vid=e52597f1-82f8-48fe-bbed-0ed0f6f2b106","ios":"levelo://app?vid=e52597f1-82f8-48fe-bbed-0ed0f6f2b106"},"vehicle_type_id":"4","last_reported":1739912917,"current_range_meters":19200,"station_id":"ce4bh692rcd13ifvqea0","pricing_plan_id":"cebpf4jnsgd1na2vs0mg"},{"bike_id":"35093df0-2efb-4826-8840-4b73ba83f7bd","system_id":"levelo_inurba_marseille","lat":43.29974,"lon":5.38488,"is_reserved":false,"is_disabled":false,"rental_uris":{"android":"levelo://app?vid=35093df0-2efb-4826-8840-4b73ba83f7bd","ios":"levelo://app?vid=35093df0-2efb-4826-8840-4b73ba83f7bd"},"vehicle_type_id":"4","last_reported":1739912917,"current_range_meters":19600,"station_id":"ce4bgj92rcd13ifvqbd0","pricing_plan_id":"cebpf4jnsgd1na2vs0mg"},{"bike_id":"bb3be691-f0be-4096-8eea-552dbe72c2b3","system_id":"levelo_inurba_marseille","lat":43.28625,"lon":5.35095,"is_reserved":false,"is_disabled":false,"rental_uris":{"android":"levelo://app?vid=bb3be691-f0be-4096-8eea-552dbe72c2b3","ios":"levelo://app?vid=bb3be691-f0be-4096-8eea-552dbe72c2b3"},