{"last_updated":1739977800,"ttl":60,"version":"2.2","data":{"bikes":[{"bike_id":"ecb0e703-d529-450d-88ba-83a280f29c74","system_id":"levelo_inurba_marseille","lat":43.28859,"lon":5.35855,"is_reserved":false,"is_disabled":false,"rental_uris":{"android":"levelo://app?vid=ecb0e703-d529-450d-88ba-83a280f29c74","ios":"levelo://app?vid=ecb0e703-d529-450d-88ba-83a280f29c74"},"vehicle_type_id":"4","last_reported":1739977800,"current_range_meters":2800,"station_id":"ce4bhb12rcd13ifvqem0","pricing_plan_id":"cebpf4jnsgd1na2vs0mg"},{"bike_id":"84220866-8333-479c-9094-5402fe7ae9d1","system_id":"levelo_inurba_marseille","lat":43.29535,"lon":5.3854,"is_reserved":false,"is_disabled":false,"rental_uris":{"android":"levelo://app?vid=84220866-8333-479c-9094-5402fe7ae9d1","ios":"levelo://app?vid=84220866-8333-479c-9094-5402fe7ae9d1"},"vehicle_type_id":"4","last_reported":1739977800,"current_range_meters":2800,"station_id":"ce4bgih2rcd13ifvqba0","pricing_plan_id":"cebpf4jnsgd1na2vs0mg"},{"bike_id":"2cf7f0b1-2fba-4a4b-9971-7257881b6f27","system_id":"levelo_inurba_marseille","lat":43.27303,"lon":5.39117,"is_reserved":false,"is_disabled":false,"rental_uris":{"android":"levelo://app?vid=2cf7f0b1-2fba-4a4b-9971-7257881b6f27","ios":"levelo://app?vid=2cf7f0b1-2fba-4a4b-9971-7257881b6f27"},"vehicle_type_id":"4","last_reported":1739977800,"current_range_meters":3200,"station_id":"ce4bhgp2rcd13ifvqfe0","pricing_plan_id":"cebpf4jnsgd1na2vs0mg"},{"bike_id":"779b5ae4-8b66-4c4e-aabc-2137adf9d975","system_id":"levelo_inurba_marseille","lat":43.2657,"lon":5.38991,"is_reserved":false,"is_disabled":false,"rental_uris":{"android":"levelo://app?vid=779b5ae4-8b66-4c4e-aabc-2137adf9d975","ios":"levelo://app?vid=779b5ae4-8b66-4c4e-aabc-2137adf9d975"},"vehicle_type_id":"4","last_reported":1739977800,"current_range_meters":3600,"station_id":"","pricing_plan_id":"cebpf4jnsgd1na2vs0mg"},{"bike_id":"d0b4714b-ea95-4941-814e-a822c5a52dff","system_id":"levelo_inurba_marseille","lat":43.28288,"lon":5.35053,"is_reserved":false,"is_disabled":false,"rental_uris":{"android":"levelo://app?vid=d0b4714b-ea95-4941-814e-a822c5a52dff","ios":"levelo://app?vid=d0b4714b-ea95-4941-814e-a822c5a52dff"},"vehicle_type_id":"4","last_reported":1739977800,"current_range_meters":3600,"station_id":"ce4bhbp2rcd13ifvqerg","pricing_plan_id":"cebpf4jnsgd1na2vs0mg"},{"bike_id":"cd94335d-60f0-4e38-9676-8b00eadc1e12","system_id":"levelo_inurba_marseille","lat":43.27226,"lon":5.39132,"is_reserved":false,"is_disabled":false,"rental_uris":{"android":"levelo://app?vid=cd94335d-60f0-4e38-9676-8b00eadc1e12","ios":"levelo://app?vid=cd94335d-60f0-4e38-9676-8b00eadc1e12"},"vehicle_type_id":"4","last_reported":1739977800,"current_range_meters":3600,"station_id":"","pricing_plan_id":"cebpf4jnsgd1na2vs0mg"},{"bike_id":"eab77793-24f6-4d3c-acca-3de9eca57502","system_id":"levelo_inurba_marseille","lat":43.25497,"lon":5.37657,"is_reserved":false,"is_disabled":false,"rental_uris":{"android":"levelo://app?vid=eab77793-24f6-4d3c-acca-3de9eca57502","ios":"levelo://app?vid=eab77793-24f6-4d3c-acca-3de9eca57502"},"vehicle_type_id":"4","last_reported":1739977800,"current_range_meters":3600,"station_id":"ce4bhh12rcd13ifvqff0","pricing_plan_id":"cebpf4jnsgd1na2vs0mg"},{"bike_id":"020f9db3-6048-4a83-8c59-4acc533112c8","system_id":"levelo_inurba_marseille","lat":43.28131,"lon":5.42685,"is_reserved":false,"is_disabled":false,"rental_uris":{"android":"levelo://app?vid=020f9db3-6048-4a83-8c59-4acc533112c8","ios":"levelo://app?vid=020f9db3-6048-4a83-8c59-4acc533112c8"},"vehicle_type_id":"4","last_reported":1739977800,"current_range_meters":3600,"station_id":"ce4bhnh2rcd13ifvqgug","pricing_plan_id":"cebpf4jnsgd1na2vs0mg"},{"bike_id":"202e4be1-1ba8-4505-8ad7-0135fcfc3b52","system_id":"levelo_inurba_marseille","lat":43.26053,"lon":5.39391,"is_reserved":false,"is_disabled":false,"rental_uris":{"android":"levelo://app?vid=202e4be1-1ba8-4505-8ad7-0135fcfc3b52","ios":"levelo://app?vid=202e4be1-1ba8-4505-8ad7-0135fcfc3b52"},"vehicle_type_id":"4","last_reported":1739977800,"current_range_meters":3600,"station_id":"","pricing_plan_id":"cebpf4jnsgd1na2vs0mg"},{"bike_id":"c2f25851-b60c-4307-a80b-69f83d166762","system_id":"levelo_inurba_marseille","lat":43.28717,"lon":5.37955,"is_reserved":false,"is_disabled":false,"rental_uris":{"android":"levelo://app?vid=c2f25851-b60c-4307-a80b-69f83d166762","ios":"levelo://app?vid=c2f25851-b60c-4307-a80b-69f83d166762"},"vehicle_type_id":"4","last_reported":1739977800,"current_range_meters":4000,"station_id":"ce4bh9p2rcd13ifvqec0","pricing_plan_id":"cebpf4jnsgd1na2vs0mg"},{"bike_id":"a0b5f349-8935-4115-ac10-9e645716c0a4","system_id":"levelo_inurba_marseille","lat":43.30259,"lon":5.40075,"is_reserved":false,"is_disabled":false,"rental_uris":{"android":"levelo://app?vid=a0b5f349-8935-4115-ac10-9e645716c0a4","ios":"levelo://app?vid=a0b5f349-8935-4115-ac10-9e645716c0a4"},"vehicle_type_id":"4","last_reported":1739977800,"current_range_meters":4000,"station_id":"ce4bgvh2rcd13ifvqcs0","pricing_plan_id":"cebpf4jnsgd1na2vs0mg"},{"bike_id":"1112cc74-0919-4211-b9e9-763cb0f674ac","system_id":"levelo_inurba_marseille","lat":43.29199,"lon":5.35799,"is_reserved":false,"is_disabled":false,"rental_uris":{"android":"levelo://app?vid=1112cc74-0919-4211-b9e9-763cb0f674ac","ios":"levelo://app?vid=1112cc74-0919-4211-b9e9-763cb0f674ac"},"vehicle_type_id":"4","last_reported":1739977800,"current_range_meters":4000,"station_id":"ce4bhb12rcd13ifvqel0","pricing_plan_id":"cebpf4jnsgd1na2vs0mg"},{"bike_id":"f6c8423b-b7db-4d54-b44e-911b78c70646","system_id":"levelo_inurba_marseille","lat":43.29372,"lon":5.37852,"is_reserved":false,"is_disabled":false,"rental_uris":{"android":"levelo://app?vid=f6c8423b-b7db-4d54-b44e-911b78c70646","ios":"levelo://app?vid=f6c8423b-b7db-4d54-b44e-911b78c70646"},"vehicle_type_id":"4","last_reported":1739977800,"current_range_meters":4000,"station_id":"ce4bgjh2rcd13ifvqbf0","pricing_plan_id":"cebpf4jnsgd1na2vs0mg"},{"bike_id":"10588449-5ffa-45fc-887c-8523965fc0a8","system_id":"levelo_inurba_marseille","lat":43.25504,"lon":5.37632,"is_reserved":false,"is_disabled":false,"rental_uris":{"android":"levelo://app?vid=10588449-5ffa-45fc-887c-8523965fc0a8","ios":"levelo://app?vid=10588449-5ffa-45fc-887c-8523965fc0a8"},"vehicle_type_id":"4","last_reported":1739977800,"current_range_meters":4400,"station_id":"ce4bhh12rcd13ifvqff0","pricing_plan_id":"cebpf4jnsgd1na2vs0mg"},{"bike_id":"811901b7-6a39-4b98-9209-f363e05c2482","system_id":"levelo_inurba_marseille","lat":43.2815,"lon":5.42642,"is_reserved":false,"is_disabled":false,"rental_uris":{"android":"levelo://app?vid=811901b7-6a39-4b98-9209-f363e05c2482","ios":"levelo://app?vid=811901b7-6a39-4b98-9209-f363e05c2482"},"vehicle_type_id":"4","last_reported":1739977800,"current_range_meters":4400,"station_id":"ce4bhnh2rcd13ifvqgug","pricing_plan_id":"cebpf4jnsgd1na2vs0mg"},{"bike_id":"a1e9d24f-edc8-4408-9ec5-d208bb59859e","system_id":"levelo_inurba_marseille","lat":43.29546,"lon":5.42242,"is_reserved":false,"is_disabled":false,"rental_uris":{"android":"levelo://app?vid=a1e9d24f-edc8-4408-9ec5-d208bb59859e","ios":"levelo://app?vid=a1e9d24f-edc8-4408-9ec5-d208bb59859e"},"vehicle_type_id":"4","last_reported":1739977800,"current_range_meters":4400,"station_id":"","pricing_plan_id":"cebpf4jnsgd1na2vs0mg"},{"bike_id":"938d824b-441f-4828-ba76-2fe0b7e24558","system_id":"levelo_inurba_marseille","lat":43.28276,"lon":5.35056,"is_reserved":false,"is_disabled":false,"rental_uris":{"android":"levelo://app?vid=938d824b-441f-4828-ba76-2fe0b7e24558","ios":"levelo://app?vid=938d824b-441f-4828-ba76-2fe0b7e24558"},"vehicle_type_id":"4","last_reported":1739977800,"current_range_meters":4400,"station_id":"ce4bhbp2rcd13ifvqerg","pricing_plan_id":"cebpf4jnsgd1na2vs0mg"},{"bike_id":"6528e792-6c2b-41ab-b102-37d30001a0e7","system_id":"levelo_inurba_marseille","lat":43.27214,"lon":5.40121,"is_reserved":false,"is_disabled":false,"rental_uris":{"android":"levelo://app?vid=6528e792-6c2b-41ab-b102-37d30001a0e7","ios":"levelo://app?vid=6528e792-6c2b-41ab-b102-37d30001a0e7"},"vehicle_type_id":"4","last_reported":1739977800,"current_range_meters":4800,"station_id":"","pricing_plan_id":"cebpf4jnsgd1na2vs0mg"},{"bike_id":"90538d34-f3b4-4167-bf5c-3133593f27b5","system_id":"levelo_inurba_marseille","lat":43.31249,"lon":5.36903,"is_reserved":false,"is_disabled":false,"rental_uris":{"android":"levelo://app?vid=90538d34-f3b4-4167-bf5c-3133593f27b5","ios":"levelo://app?vid=90538d34-f3b4-4167-bf5c-3133593f27b5"},"vehicle_type_id":"4","last_reported":1739977800,"current_range_meters":4800,"station_id":"ce4bgl92rcd13ifvqbq0","pricing_plan_id":"cebpf4jnsgd1na2vs0mg"},{"bike_id":"ca371e7e-bc2a-4653-970b-56cc3171110a","system_id":"levelo_inurba_marseille","lat":43.301466,"lon":5.374368,"is_reserved":false,"is_disabled":false,"rental_uris":{"android":"levelo://app?vid=ca371e7e-bc2a-4653-970b-56cc3171110a","ios":"levelo://app?vid=ca371e7e-bc2a-4653-970b-56cc3171110a"},"vehicle_type_id":"4","last_reported":1739977800,"current_range_meters":4800,"station_id":"ce4bgs92rcd13ifvqcc0","pricing_plan_id":"cebpf4jnsgd1na2vs0mg"},{"bike_id":"ecaa108f-1046-4474-a364-d4e4566db98d","system_id":"levelo_inurba_marseille","lat":43.28268,"lon":5.35064,"is_reserved":false,"is_disabled":false,"rental_uris":{"android":"levelo://app?vid=ecaa108f-1046-4474-a364-d4e4566db98d","ios":"levelo://app?vid=ecaa108f-1046-4474-a364-d4e4566db98d"},"vehicle_type_id":"4","last_reported":1739977800,"current_range_meters":4800,"station_id":"ce4bhbp2rcd13ifvqerg","pricing_plan_id":"cebpf4jnsgd1na2vs0mg"},{"bike_id":"c109a327-37a9-4436-a7bc-7706e6f9fcb3","system_id":"levelo_inurba_marseille","lat":43.2315,"lon":5.43711,"is_reserved":false,"is_disabled":false,"rental_uris":{"android":"levelo://app?vid=c109a327-37a9-4436-a7bc-7706e6f9fcb3","ios":"levelo://app?vid=c109a327-37a9-4436-a7bc-7706e6f9fcb3"},"vehicle_type_id":"4","last_reported":1739977800,"current_range_meters":5600,"station_id":"ce4bhmp2rcd13ifvqgog","pricing_plan_id":"cebpf4jnsgd1na2vs0mg"},{"bike_id":"7174b859-40d2-4d93-8784-578ab557e269","system_id":"levelo_inurba_marseille","lat":43.30933,"lon":5.39054,"is_reserved":false,"is_disabled":false,"rental_uris":{"android":"levelo://app?vid=7174b859-40d2-4d93-8784-578ab557e269","ios":"levelo://app?vid=7174b859-40d2-4d93-8784-578ab557e269"},"vehicle_type_id":"4","last_reported":1739977800,"current_range_meters":5600,"station_id":"ce4bgup2rcd13ifvqco0","pricing_plan_id":"cebpf4jnsgd1na2vs0mg"},{"bike_id":"54054037-b4de-4190-aa12-71b245fc1f85","system_id":"levelo_inurba_marseille","lat":43.33031,"lon":5.39022,"is_reserved":false,"is_disabled":false,"rental_uris":{"android":"levelo://app?vid=54054037-b4de-4190-aa12-71b245fc1f85","ios":"levelo://app?vid=54054037-b4de-4190-aa12-71b245fc1f85"},"vehicle_type_id":"4","last_reported":1739977800,"current_range_meters":5600,"station_id":"ce4bhr92rcd13ifvqhrg","pricing_plan_id":"cebpf4jnsgd1na2vs0mg"},{"bike_id":"35b9c0e2-9e9d-4ecc-8c19-7c3f1259afcc","system_id":"levelo_inurba_marseille","lat":43.30894,"lon":5.39659,"is_reserved":false,"is_disabled":false,"rental_uris":{"android":"levelo://app?vid=35b9c0e2-9e9d-4ecc-8c19-7c3f1259afcc","ios":"levelo://app?vid=35b9c0e2-9e9d-4ecc-8c19-7c3f1259afcc"},"vehicle_type_id":"4","last_reported":1739977800,"current_range_meters":6000,"station_id":"","pricing_plan_id":"cebpf4jnsgd1na2vs0mg"},{"bike_id":"c7dbb333-a060-40e0-9b74-326621c725a5","system_id":"levelo_inurba_marseille","lat":43.29867,"lon":5.36266,"is_reserved":false,"is_disabled":false,"rental_uris":{"android":"levelo://app?vid=c7dbb333-a060-40e0-9b74-326621c725a5","ios":"levelo://app?vid=c7dbb333-a060-40e0-9b74-326621c725a5"},"vehicle_type_id":"4","last_reported":1739977800,"current_range_meters":6400,"station_id":"","pricing_plan_id":"cebpf4jnsgd1na2vs0mg"},{"bike_id":"936e7346-f342-408f-9a02-9eb9d21910c0","system_id":"levelo_inurba_marseille","lat":43.2846,"lon":5.35889,"is_reserved":false,"is_disabled":false,"rental_uris":{"android":"levelo://app?vid=936e7346-f342-408f-9a02-9eb9d21910c0","ios":"levelo://app?vid=936e7346-f342-408f-9a02-9eb9d21910c0"},"vehicle_type_id":"4","last_reported":1739977800,"current_range_meters":6400,"station_id":"","pricing_plan_id":"cebpf4jnsgd1na2vs0mg"},{"bike_id":"fe6b6430-df98-42fd-abc4-a7ee1e18a73b","system_id":"levelo_inurba_marseille","lat":43.24649,"lon":5.38894,"is_reserved":false,"is_disabled":false,"rental_uris":{"android":"levelo://app?vid=fe6b6430-df98-42fd-abc4-a7ee1e18a73b","ios":"levelo://app?vid=fe6b6430-df98-42fd-abc4-a7ee1e18a73b"},"vehicle_type_id":"4","last_reported":1739977800,"current_range_meters":6400,"station_id":"ce4bhg12rcd13ifvqf60","pricing_plan_id":"cebpf4jnsgd1na2vs0mg"},{"bike_id":"67f7f0e0-b716-4bef-a815-f248deb44cf9","system_id":"levelo_inurba_marseille","lat":43.31397,"lon":5.38425,"is_reserved":false,"is_disabled":false,"rental_uris":{"android":"levelo://app?vid=67f7f0e0-b716-4bef-a815-f248deb44cf9","ios":"levelo://app?vid=67f7f0e0-b716-4bef-a815-f248deb44cf9"},"vehicle_type_id":"4","last_reported":1739977800,"current_range_meters":6400,"station_id":"","pricing_plan_id":"cebpf4jnsgd1na2vs0mg"},{"bike_id":"989a1c05-c74a-4632-af21-81b3f55f7909","system_id":"levelo_inurba_marseille","lat":43.29218,"lon":5.36041,"is_reserved":false,"is_disabled":true,"rental_uris":{"android":"levelo://app?vid=989a1c05-c74a-4632-af21-81b3f55f7909","ios":"levelo://app?vid=989a1c05-c74a-4632-af21-81b3f55f7909"},"vehicle_type_id":"4","last_reported":1739977800,"current_range_meters":6400,"station_id":"","pricing_plan_id":"cebpf4jnsgd1na2vs0mg"},{"bike_id":"8d83a7d1-3ac4-4eba-a3f4-2d261013d9bc","system_id":"levelo_inurba_marseille","lat":43.31245,"lon":5.36866,"is_reserved":false,"is_disabled":false,"rental_uris":{"android":"levelo://app?vid=8d83a7d1-3ac4-4eba-a3f4-2d261013d9bc","ios":"levelo://app?vid=8d83a7d1-3ac4-4eba-a3f4-2d261013d9bc"},"vehicle_type_id":"4","last_reported":1739977800,"current_range_meters":6400,"station_id":"ce4bgl92rcd13ifvqbq0","pricing_plan_id":"cebpf4jnsgd1na2vs0mg"},{"bike_id":"bc531c63-a595-4536-afa0-9ab29aadcbe7","system_id":"levelo_inurba_marseille","lat":43.28277,"lon":5.35067,"is_reserved":false,"is_disabled":false,"rental_uris":{"android":"levelo://app?vid=bc531c63-a595-4536-afa0-9ab29aadcbe7","ios":"levelo://app?vid=bc531c63-a595-4536-afa0-9ab29aadcbe7"},"vehicle_type_id":"4","last_reported":1739977800,"current_range_meters":6800,"station_id":"ce4bhbp2rcd13ifvqerg","pricing_plan_id":"cebpf4jnsgd1na2vs0mg"},{"bike_id":"fa286c73-093b-4853-acc4-ffdf976eab49","system_id":"levelo_inurba_marseille","lat":43.23149,"lon":5.43722,"is_reserved":false,"is_disabled":false,"rental_uris":{"android":"levelo://app?vid=fa286c73-093b-4853-acc4-ffdf976eab49","ios":"levelo://app?vid=fa286c73-093b-4853-acc4-ffdf976eab49"},"vehicle_type_id":"4","last_reported":1739977800,"current_range_meters":6800,"station_id":"","pricing_plan_id":"cebpf4jnsgd1na2vs0mg"},{"bike_id":"cc3a1883-f746-461e-9b7e-a68de480540b","system_id":"levelo_inurba_marseille","lat":43.28609,"lon":5.37062,"is_reserved":false,"is_disabled":false,"rental_uris":{"android":"levelo://app?vid=cc3a1883-f746-461e-9b7e-a68de480540b","ios":"levelo://app?vid=cc3a1883-f746-461e-9b7e-a68de480540b"},"vehicle_type_id":"4","last_reported":1739977800,"current_range_meters":6800,"station_id":"ce4bht12rcd13ifvqi60","pricing_plan_id":"cebpf4jnsgd1na2vs0mg"},{"bike_id":"4407be18-d439-4288-9b2d-a2eae824f889","system_id":"levelo_inurba_marseille","lat":43.2909,"lon":5.35726,"is_reserved":false,"is_disabled":false,"rental_uris":{"android":"levelo://app?vid=4407be18-d439-4288-9b2d-a2eae824f889","ios":"levelo://app?vid=4407be18-d439-4288-9b2d-a2eae824f889"},"vehicle_type_id":"4","last_reported":1739977800,"current_range_meters":6800,"station_id":"","pricing_plan_id":"cebpf4jnsgd1na2vs0mg"},{"bike_id":"3925c4be-299d-47be-bee2-9dbd83e63701","system_id":"levelo_inurba_marseille","lat":43.294513,"lon":5.39748,"is_reserved":false,"is_disabled":false,"rental_uris":{"android":"levelo://app?vid=3925c4be-299d-47be-bee2-9dbd83e63701","ios":"levelo://app?vid=3925c4be-299d-47be-bee2-9dbd83e63701"},"vehicle_type_id":"4","last_reported":1739977800,"current_range_meters":7200,"station_id":"ce4bgkh2rcd13ifvqbl0","pricing_plan_id":"cebpf4jnsgd1na2vs0mg"},{"bike_id":"89de27cb-c2d3-47d3-9174-b2a6c299435c","system_id":"levelo_inurba_marseille","lat":43.27354,"lon":5.36257,"is_reserved":false,"is_disabled":false,"rental_uris":{"android":"levelo://app?vid=89de27cb-c2d3-47d3-9174-b2a6c299435c","ios":"levelo://app?vid=89de27cb-c2d3-47d3-9174-b2a6c299435c"},"vehicle_type_id":"4","last_reported":1739977800,"current_range_meters":7200,"station_id":"ce4bhbh2rcd13ifvqeo0","pricing_plan_id":"cebpf4jnsgd1na2vs0mg"},{"bike_id":"32f35a91-00b5-4dfd-a2b0-533197060fe5","system_id":"levelo_inurba_marseille","lat":43.30437,"lon":5.38908,"is_reserved":false,"is_disabled":false,"rental_uris":{"android":"levelo://app?vid=32f35a91-00b5-4dfd-a2b0-533197060fe5","ios":"levelo://app?vid=32f35a91-00b5-4dfd-a2b0-533197060fe5"},"vehicle_type_id":"4","last_reported":1739977800,"current_range_meters":7200,"station_id":"","pricing_plan_id":"cebpf4jnsgd1na2vs0mg"},{"bike_id":"2cc9f54b-7207-42ee-99ce-2b5b427fccf3","system_id":"levelo_inurba_marseille","lat":43.29622,"lon":5.37715,"is_reserved":false,"is_disabled":false,"rental_uris":{"android":"levelo://app?vid=2cc9f54b-7207-42ee-99ce-2b5b427fccf3","ios":"levelo://app?vid=2cc9f54b-7207-42ee-99ce-2b5b427fccf3"},"vehicle_type_id":"4","last_reported":1739977800,"current_range_meters":12000,"station_id":"ce4bgi92rcd13ifvqb90","pricing_plan_id":"cebpf4jnsgd1na2vs0mg"},{"bike_id":"3e8ed605-1920-41ca-929d-ad457aba30aa","system_id":"levelo_inurba_marseille","lat":43.30299,"lon":5.3768,"is_reserved":false,"is_disabled":false,"rental_uris":{"android":"levelo://app?vid=3e8ed605-1920-41ca-929d-ad457aba30aa","ios":"levelo://app?vid=3e8ed605-1920-41ca-929d-ad457aba30aa"},"vehicle_type_id":"4","last_reported":1739977800,"current_range_meters":7200,"station_id":"ce4bguh2rcd13ifvqcj0","pricing_plan_id":"cebpf4jnsgd1na2vs0mg"},{"bike_id":"8539f70e-92fc-4acc-a954-4a6e47439735","system_id":"levelo_inurba_marseille","lat":43.30797,"lon":5.37355,"is_reserved":false,"is_disabled":false,"rental_uris":{"android":"levelo://app?vid=8539f70e-92fc-4acc-a954-4a6e47439735","ios":"levelo://app?vid=8539f70e-92fc-4acc-a954-4a6e47439735"},"vehicle_type_id":"4","last_reported":1739977800,"current_range_meters":8000,"station_id":"ce4bgt92rcd13ifvqcg0","pricing_plan_id":"cebpf4jnsgd1na2vs0mg"},{"bike_id":"56834599-2949-4368-8c7c-ea0cffd718b2","system_id":"levelo_inurba_marseille","lat":43.27067,"lon":5.42273,"is_reserved":false,"is_disabled":false,"rental_uris":{"android":"levelo://app?vid=56834599-2949-4368-8c7c-ea0cffd718b2","ios":"levelo://app?vid=56834599-2949-4368-8c7c-ea0cffd718b2"},"vehicle_type_id":"4","last_reported":1739977800,"current_range_meters":8000,"station_id":"ce4bhk92rcd13ifvqgb0","pricing_plan_id":"cebpf4jnsgd1na2vs0mg"},{"bike_id":"88d9ddc6-5e29-4162-be9f-7100a02ebaf2","system_id":"levelo_inurba_marseille","lat":43.28936,"lon":5.36411,"is_reserved":false,"is_disabled":false,"rental_uris":{"android":"levelo://app?vid=88d9ddc6-5e29-4162-be9f-7100a02ebaf2","ios":"levelo://app?vid=88d9ddc6-5e29-4162-be9f-7100a02ebaf2"},"vehicle_type_id":"4","last_reported":1739977800,"current_range_meters":8000,"station_id":"ce4bhc92rcd13ifvqetg","pricing_plan_id":"cebpf4jnsgd1na2vs0mg"},{"bike_id":"a6bd11e2-53ed-49d6-81df-0f14d03660dc","system_id":"levelo_inurba_marseille","lat":43.30533,"lon":5.36521,"is_reserved":false,"is_disabled":false,"rental_uris":{"android":"levelo://app?vid=a6bd11e2-53ed-49d6-81df-0f14d03660dc","ios":"levelo://app?vid=a6bd11e2-53ed-49d6-81df-0f14d03660dc"},"vehicle_type_id":"4","last_reported":1739977800,"current_range_meters":8000,"station_id":"ce4bgs12rcd13ifvqcag","pricing_plan_id":"cebpf4jnsgd1na2vs0mg"},{"bike_id":"bb3ce990-c9f8-4af4-ae6f-7aebb6866ce0","system_id":"levelo_inurba_marseille","lat":43.29875,"lon":5.39728,"is_reserved":false,"is_disabled":false,"rental_uris":{"android":"levelo://app?vid=bb3ce990-c9f8-4af4-ae6f-7aebb6866ce0","ios":"levelo://app?vid=bb3ce990-c9f8-4af4-ae6f-7aebb6866ce0"},"vehicle_type_id":"4","last_reported":1739977800,"current_range_meters":8000,"station_id":"ce4bh0h2rcd13ifvqd50","pricing_plan_id":"cebpf4jnsgd1na2vs0mg"},{"bike_id":"4089f1a0-cd12-42d3-a6c3-01d445970a86","system_id":"levelo_inurba_marseille","lat":43.31289,"lon":5.37422,"is_reserved":false,"is_disabled":false,"rental_uris":{"android":"levelo://app?vid=4089f1a0-cd12-42d3-a6c3-01d445970a86","ios":"levelo://app?vid=4089f1a0-cd12-42d3-a6c3-01d445970a86"},"vehicle_type_id":"4","last_reported":1739977800,"current_range_meters":8000,"station_id":"","pricing_plan_id":"cebpf4jnsgd1na2vs0mg"},{"bike_id":"bb852df7-dd74-43f4-8582-0650a376dfcb","system_id":"levelo_inurba_marseille","lat":43.27501,"lon":5.42465,"is_reserved":false,"is_disabled":false,"rental_uris":{"android":"levelo://app?vid=bb852df7-dd74-43f4-8582-0650a376dfcb","ios":"levelo://app?vid=bb852df7-dd74-43f4-8582-0650a376dfcb"},"vehicle_type_id":"4","last_reported":1739977800,"current_range_meters":8000,"station_id":"ce4bhn92rcd13ifvqgrg","pricing_plan_id":"cebpf4jnsgd1na2vs0mg"},{"bike_id":"89dbbe61-49f2-4aa8-9bd2-18927b6a4684","system_id":"levelo_inurba_marseille","lat":43.30957,"lon":5.3903,"is_reserved":false,"is_disabled":false,"rental_uris":{"android":"levelo://app?vid=89dbbe61-49f2-4aa8-9bd2-18927b6a4684","ios":"levelo://app?vid=89dbbe61-49f2-4aa8-9bd2-18927b6a4684"},"vehicle_type_id":"4","last_reported":1739977800,"current_range_meters":8000,"station_id":"ce4bgup2rcd13ifvqco0","pricing_plan_id":"cebpf4jnsgd1na2vs0mg"},{"bike_id":"4391ae73-d7ce-4930-bac4-306eca66be35","system_id":"levelo_inurba_marseille","lat":43.23963,"lon":5.36625,"is_reserved":false,"is_disabled":false,"rental_uris":{"android":"levelo://app?vid=4391ae73-d7ce-4930-bac4-306eca66be35","ios":"levelo://app?vid=4391ae73-d7ce-4930-bac4-306eca66be35"},"vehicle_type_id":"4","last_reported":1739977800,"current_range_meters":8000,"station_id":"ce4bhi12rcd13ifvqfp0","pricing_plan_id":"cebpf4jnsgd1na2vs0mg"},{"bike_id":"3f4434fb-908c-42f5-bf65-d81de3299319","system_id":"levelo_inurba_marseille","lat":43.25855,"lon":5.39431,"is_reserved":false,"is_disabled":false,"rental_uris":{"android":"levelo://app?vid=3f4434fb-908c-42f5-bf65-d81de3299319","ios":"levelo://app?vid=3f4434fb-908c-42f5-bf65-d81de3299319"},"vehicle_type_id":"4","last_reported":1739977800,"current_range_meters":8400,"station_id":"ce4bhip2rcd13ifvqft0","pricing_plan_id":"cebpf4jnsgd1na2vs0mg"},{"bike_id":"04f09532-5694-47a3-b55b-affddff2d262","system_id":"levelo_inurba_marseille","lat":43.28688,"lon":5.38657,"is_reserved":false,"is_disabled":false,"rental_uris":{"android":"levelo://app?vid=04f09532-5694-47a3-b55b-affddff2d262","ios":"levelo://app?vid=04f09532-5694-47a3-b55b-affddff2d262"},"vehicle_type_id":"4","last_reported":1739977800,"current_range_meters":8400,"station_id":"ce4bh492rcd13ifvqdug","pricing_plan_id":"cebpf4jnsgd1na2vs0mg"},{"bike_id":"af3d0f2d-08fa-41db-bc0f-f51de43a9c0e","system_id":"levelo_inurba_marseille","lat":43.25929,"lon":5.40895,"is_reserved":false,"is_disabled":false,"rental_uris":{"android":"levelo://app?vid=af3d0f2d-08fa-41db-bc0f-f51de43a9c0e","ios":"levelo://app?vid=af3d0f2d-08fa-41db-bc0f-f51de43a9c0e"},"vehicle_type_id":"4","last_reported":1739977800,"current_range_meters":8400,"station_id":"ce4bhm92rcd13ifvqglg","pricing_plan_id":"cebpf4jnsgd1na2vs0mg"},{"bike_id":"1ae843e9-d44c-4297-a0fa-6450a999f369","system_id":"levelo_inurba_marseille","lat":43.30301,"lon":5.37696,"is_reserved":false,"is_disabled":false,"rental_uris":{"android":"levelo://app?vid=1ae843e9-d44c-4297-a0fa-6450a999f369","ios":"levelo://app?vid=1ae843e9-d44c-4297-a0fa-6450a999f369"},"vehicle_type_id":"4","last_reported":1739977800,"current_range_meters":8400,"station_id":"ce4bguh2rcd13ifvqcj0","pricing_plan_id":"cebpf4jnsgd1na2vs0mg"},{"bike_id":"3ea0b1ad-f3ea-4211-8e3b-d3f0c9a0f631","system_id":"levelo_inurba_marseille","lat":43.30951,"lon":5.3904,"is_reserved":false,"is_disabled":false,"rental_uris":{"android":"levelo://app?vid=3ea0b1ad-f3ea-4211-8e3b-d3f0c9a0f631","ios":"levelo://app?vid=3ea0b1ad-f3ea-4211-8e3b-d3f0c9a0f631"},"vehicle_type_id":"4","last_reported":1739977800,"current_range_meters":8400,"station_id":"","pricing_plan_id":"cebpf4jnsgd1na2vs0mg"},{"bike_id":"c7265b9c-676a-4fe7-938c-9ef6c1b3347f","system_id":"levelo_inurba_marseille","lat":43.27994,"lon":5.41664,"is_reserved":false,"is_disabled":false,"rental_uris":{"android":"levelo://app?vid=c7265b9c-676a-4fe7-938c-9ef6c1b3347f","ios":"levelo://app?vid=c7265b9c-676a-4fe7-938c-9ef6c1b3347f"},"vehicle_type_id":"4","last_reported":1739977800,"current_range_meters":8400,"station_id":"","pricing_plan_id":"cebpf4jnsgd1na2vs0mg"},{"bike_id":"7ef2e019-141d-45ce-a885-e391710c5751","system_id":"levelo_inurba_marseille","lat":43.28477,"lon":5.38402,"is_reserved":false,"is_disabled":false,"rental_uris":{"android":"levelo://app?vid=7ef2e019-141d-45ce-a885-e391710c5751","ios":"levelo://app?vid=7ef2e019-141d-45ce-a885-e391710c5751"},"vehicle_type_id":"4","last_reported":1739977800,"current_range_meters":8400,"station_id":"ce4bh512rcd13ifvqe3g","pricing_plan_id":"cebpf4jnsgd1na2vs0mg"},{"bike_id":"f559b706-6a8e-43c3-8f34-54f69b4a22df","system_id":"levelo_inurba_marseille","lat":43.296672,"lon":5.371528,"is_reserved":false,"is_disabled":false,"rental_uris":{"android":"levelo://app?vid=f559b706-6a8e-43c3-8f34-54f69b4a22df","ios":"levelo://app?vid=f559b706-6a8e-43c3-8f34-54f69b4a22df"},"vehicle_type_id":"4","last_reported":1739977800,"current_range_meters":4400,"station_id":"","pricing_plan_id":"cebpf4jnsgd1na2vs0mg"},{"bike_id":"f48a38d8-a148-4593-aa7e-826cef02f310","system_id":"levelo_inurba_marseille","lat":43.2908,"lon":5.37178,"is_reserved":false,"is_disabled":false,"rental_uris":{"android":"levelo://app?vid=f48a38d8-a148-4593-aa7e-826cef02f310","ios":"levelo://app?vid=f48a38d8-a148-4593-aa7e-826cef02f310"},"vehicle_type_id":"4","last_reported":1739977800,"current_range_meters":8400,"station_id":"ce4bh5p2rcd13ifvqe4g","pricing_plan_id":"cebpf4jnsgd1na2vs0mg"},{"bike_id":"e168bfc9-fcff-4468-ad44-9068f63f1c0d","system_id":"levelo_inurba_marseille","lat":43.29376,"lon":5.37851,"is_reserved":false,"is_disabled":false,"rental_uris":{"android":"levelo://app?vid=e168bfc9-fcff-4468-ad44-9068f63f1c0d","ios":"levelo://app?vid=e168bfc9-fcff-4468-ad44-9068f63f1c0d"},"vehicle_type_id":"4","last_reported":1739977800,"current_range_meters":8000,"station_id":"ce4bgjh2rcd13ifvqbf0","pricing_plan_id":"cebpf4jnsgd1na2vs0mg"},{"bike_id":"c0fb9a7f-e2c8-49f5-af54-71bf39abdf26","system_id":"levelo_inurba_marseille","lat":43.284155,"lon":5.34992,"is_reserved":false,"is_disabled":false,"rental_uris":{"android":"levelo://app?vid=c0fb9a7f-e2c8-49f5-af54-71bf39abdf26","ios":"levelo://app?vid=c0fb9a7f-e2c8-49f5-af54-71bf39abdf26"},"vehicle_type_id":"4","last_reported":1739977800,"current_range_meters":8400,"station_id":"","pricing_plan_id":"cebpf4jnsgd1na2vs0mg"},{"bike_id":"e79d1c03-ea93-4ee5-8cb2-ecdeca48b0aa","system_id":"levelo_inurba_marseille","lat":43.23171,"lon":5.43688,"is_reserved":false,"is_disabled":true,"rental_uris":{"android":"levelo://app?vid=e79d1c03-ea93-4ee5-8cb2-ecdeca48b0aa","ios":"levelo://app?vid=e79d1c03-ea93-4ee5-8cb2-ecdeca48b0aa"},"vehicle_type_id":"4","last_reported":1739977800,"current_range_meters":8400,"station_id":"ce4bhmp2rcd13ifvqgog","pricing_plan_id":"cebpf4jnsgd1na2vs0mg"},{"bike_id":"10c134e7-7862-45ed-8103-0b6221fb4b66","system_id":"levelo_inurba_marseille","lat":43.25,"lon":5.3892,"is_reserved":false,"is_disabled":false,"rental_uris":{"android":"levelo://app?vid=10c134e7-7862-45ed-8103-0b6221fb4b66","ios":"levelo://app?vid=10c134e7-7862-45ed-8103-0b6221fb4b66"},"vehicle_type_id":"4","last_reported":1739977800,"current_range_meters":8800,"station_id":"","pricing_plan_id":"cebpf4jnsgd1na2vs0mg"},{"bike_id":"80197f3a-f27d-471f-9b6a-34a3e3a5d0c3","system_id":"levelo_inurba_marseille","lat":43.28641,"lon":5.36066,"is_reserved":false,"is_disabled":false,"rental_uris":{"android":"levelo://app?vid=80197f3a-f27d-471f-9b6a-34a3e3a5d0c3","ios":"levelo://app?vid=80197f3a-f27d-471f-9b6a-34a3e3a5d0c3"},"vehicle_type_id":"4","last_reported":1739977800,"current_range_meters":8800,"station_id":"","pricing_plan_id":"cebpf4jnsgd1na2vs0mg"},{"bike_id":"c8a9e1f5-523c-45d6-8a06-e0456c27afa7","system_id":"levelo_inurba_marseille","lat":43.28564,"lon":5.39495,"is_reserved":false,"is_disabled":false,"rental_uris":{"android":"levelo://app?vid=c8a9e1f5-523c-45d6-8a06-e0456c27afa7","ios":"levelo://app?vid=c8a9e1f5-523c-45d6-8a06-e0456c27afa7"},"vehicle_type_id":"4","last_reported":1739977800,"current_range_meters":8800,"station_id":"ce4bh292rcd13ifvqdg0","pricing_plan_id":"cebpf4jnsgd1na2vs0mg"},{"bike_id":"c6d02131-5bef-4da5-bc6a-c5ef09ef8c9c","system_id":"levelo_inurba_marseille","lat":43.30445,"lon":5.38901,"is_reserved":false,"is_disabled":false,"rental_uris":{"android":"levelo://app?vid=c6d02131-5bef-4da5-bc6a-c5ef09ef8c9c","ios":"levelo://app?vid=c6d02131-5bef-4da5-bc6a-c5ef09ef8c9c"},"vehicle_type_id":"4","last_reported":1739977800,"current_range_meters":8800,"station_id":"","pricing_plan_id":"cebpf4jnsgd1na2vs0mg"},{"bike_id":"9198c6ef-bd5b-45d9-bd7b-e058d791d44b","system_id":"levelo_inurba_marseille","lat":43.24813,"lon":5.37452,"is_reserved":false,"is_disabled":false,"rental_uris":{"android":"levelo://app?vid=9198c6ef-bd5b-45d9-bd7b-e058d791d44b","ios":"levelo://app?vid=9198c6ef-bd5b-45d9-bd7b-e058d791d44b"},"vehicle_type_id":"4","last_reported":1739977800,"current_range_meters":8800,"station_id":"ce4bhgh2rcd13ifvqfb0","pricing_plan_id":"cebpf4jnsgd1na2vs0mg"},{"bike_id":"f0f61fdf-e262-479f-a259-1997ef9b3f40","system_id":"levelo_inurba_marseille","lat":43.28159,"lon":5.42674,"is_reserved":false,"is_disabled":false,"rental_uris":{"android":"levelo://app?vid=f0f61fdf-e262-479f-a259-1997ef9b3f40","ios":"levelo://app?vid=f0f61fdf-e262-479f-a259-1997ef9b3f40"},"vehicle_type_id":"4","last_reported":1739977800,"current_range_meters":8800,"station_id":"","pricing_plan_id":"cebpf4jnsgd1na2vs0mg"},{"bike_id":"ee3516ff-8cef-4a0f-8113-6258d790eb3d","system_id":"levelo_inurba_marseille","lat":43.27973,"lon":5.38741,"is_reserved":false,"is_disabled":false,"rental_uris":{"android":"levelo://app?vid=ee3516ff-8cef-4a0f-8113-6258d790eb3d","ios":"levelo://app?vid=ee3516ff-8cef-4a0f-8113-6258d790eb3d"},"vehicle_type_id":"4","last_reported":1739977800,"current_range_meters":9200,"station_id":"ce4bhg12rcd13ifvqf80","pricing_plan_id":"cebpf4jnsgd1na2vs0mg"},{"bike_id":"db7f2d58-492d-4297-aa78-ce0ad99a0a74","system_id":"levelo_inurba_marseille","lat":43.2718,"lon":5.40987,"is_reserved":false,"is_disabled":false,"rental_uris":{"android":"levelo://app?vid=db7f2d58-492d-4297-aa78-ce0ad99a0a74","ios":"levelo://app?vid=db7f2d58-492d-4297-aa78-ce0ad99a0a74"},"vehicle_type_id":"4","last_reported":1739977800,"current_range_meters":9200,"station_id":"ce4bhb92rcd13ifvqen0","pricing_plan_id":"cebpf4jnsgd1na2vs0mg"},{"bike_id":"f884d1e7-4e51-4344-b28b-ae9aec3fdd7c","system_id":"levelo_inurba_marseille","lat":43.26938,"lon":5.40258,"is_reserved":false,"is_disabled":false,"rental_uris":{"android":"levelo://app?vid=f884d1e7-4e51-4344-b28b-ae9aec3fdd7c","ios":"levelo://app?vid=f884d1e7-4e51-4344-b28b-ae9aec3fdd7c"},"vehicle_type_id":"4","last_reported":1739977800,"current_range_meters":9200,"station_id":"cjm6bp8fraef2m0cb0m0","pricing_plan_id":"cebpf4jnsgd1na2vs0mg"},{"bike_id":"540e95ca-400c-4e26-9428-a0bfd1efc12c","system_id":"levelo_inurba_marseille","lat":43.3055,"lon":5.36523,"is_reserved":false,"is_disabled":false,"rental_uris":{"android":"levelo://app?vid=540e95ca-400c-4e26-9428-a0bfd1efc12c","ios":"levelo://app?vid=540e95ca-400c-4e26-9428-a0bfd1efc12c"},"vehicle_type_id":"4","last_reported":1739977800,"current_range_meters":9200,"station_id":"ce4bgs12rcd13ifvqcag","pricing_plan_id":"cebpf4jnsgd1na2vs0mg"},{"bike_id":"416227d1-6334-4fdb-9a67-1ea5fddf4fa5","system_id":"levelo_inurba_marseille","lat":43.28452,"lon":5.35895,"is_reserved":false,"is_disabled":false,"rental_uris":{"android":"levelo://app?vid=416227d1-6334-4fdb-9a67-1ea5fddf4fa5","ios":"levelo://app?vid=416227d1-6334-4fdb-9a67-1ea5fddf4fa5"},"vehicle_type_id":"4","last_reported":1739977800,"current_range_meters":9600,"station_id":"","pricing_plan_id":"cebpf4jnsgd1na2vs0mg"},{"bike_id":"f3d1d4d9-b142-40fe-8999-d57d79f2680f","system_id":"levelo_inurba_marseille","lat":43.29081,"lon":5.37167,"is_reserved":false,"is_disabled":false,"rental_uris":{"android":"levelo://app?vid=f3d1d4d9-b142-40fe-8999-d57d79f2680f","ios":"levelo://app?vid=f3d1d4d9-b142-40fe-8999-d57d79f2680f"},"vehicle_type_id":"4","last_reported":1739977800,"current_range_meters":9600,"station_id":"ce4bh5p2rcd13ifvqe4g","pricing_plan_id":"cebpf4jnsgd1na2vs0mg"},{"bike_id":"3d9cf6a6-a0d0-4bd0-8945-b8b397d04077","system_id":"levelo_inurba_marseille","lat":43.286102,"lon":5.351145,"is_reserved":false,"is_disabled":false,"rental_uris":{"android":"levelo://app?vid=3d9cf6a6-a0d0-4bd0-8945-b8b397d04077","ios":"levelo://app?vid=3d9cf6a6-a0d0-4bd0-8945-b8b397d04077"},"vehicle_type_id":"4","last_reported":1739977800,"current_range_meters":9600,"station_id":"ce4bhgp2rcd13ifvqfc0","pricing_plan_id":"cebpf4jnsgd1na2vs0mg"},{"bike_id":"c2896a85-bd03-44af-9ec9-88cf4b2c2bef","system_id":"levelo_inurba_marseille","lat":43.27376,"lon":5.36257,"is_reserved":false,"is_disabled":false,"rental_uris":{"android":"levelo://app?vid=c2896a85-bd03-44af-9ec9-88cf4b2c2bef","ios":"levelo://app?vid=c2896a85-bd03-44af-9ec9-88cf4b2c2bef"},"vehicle_type_id":"4","last_reported":1739977800,"current_range_meters":9600,"station_id":"","pricing_plan_id":"cebpf4jnsgd1na2vs0mg"},{"bike_id":"ea1519e7-b5fe-42ac-aa41-a04f66c121d4","system_id":"levelo_inurba_marseille","lat":43.24083,"lon":5.37726,"is_reserved":false,"is_disabled":false,"rental_uris":{"android":"levelo://app?vid=ea1519e7-b5fe-42ac-aa41-a04f66c121d4","ios":"levelo://app?vid=ea1519e7-b5fe-42ac-aa41-a04f66c121d4"},"vehicle_type_id":"4","last_reported":1739977800,"current_range_meters":9600,"station_id":"ce4bhnp2rcd13ifvqgvg","pricing_plan_id":"cebpf4jnsgd1na2vs0mg"},{"bike_id":"f21e4eab-4010-4ae5-a6f3-5e2bfdd054ad","system_id":"levelo_inurba_marseille","lat":43.243865,"lon":5.370629,"is_reserved":false,"is_disabled":false,"rental_uris":{"android":"levelo://app?vid=f21e4eab-4010-4ae5-a6f3-5e2bfdd054ad","ios":"levelo://app?vid=f21e4eab-4010-4ae5-a6f3-5e2bfdd054ad"},"vehicle_type_id":"4","last_reported":1739977800,"current_range_meters":10000,"station_id":"ce4bhhh2rcd13ifvqfk0","pricing_plan_id":"cebpf4jnsgd1na2vs0mg"},{"bike_id":"a1972808-5142-4d86-b6b8-9ee805c533b0","system_id":"levelo_inurba_marseille","lat":43.29437,"lon":5.386,"is_reserved":false,"is_disabled":false,"rental_uris":{"android":"levelo://app?vid=a1972808-5142-4d86-b6b8-9ee805c533b0","ios":"levelo://app?vid=a1972808-5142-4d86-b6b8-9ee805c533b0"},"vehicle_type_id":"4","last_reported":1739977800,"current_range_meters":9200,"station_id":"ce4bh2h2rcd13ifvqdh0","pricing_plan_id":"cebpf4jnsgd1na2vs0mg"},{"bike_id":"93f69201-be90-4e68-886b-e1efd3feecc4","system_id":"levelo_inurba_marseille","lat":43.27061,"lon":5.40257,"is_reserved":false,"is_disabled":false,"rental_uris":{"android":"levelo://app?vid=93f69201-be90-4e68-886b-e1efd3feecc4","ios":"levelo://app?vid=93f69201-be90-4e68-886b-e1efd3feecc4"},"vehicle_type_id":"4","last_reported":1739977800,"current_range_meters":10000,"station_id":"","pricing_plan_id":"cebpf4jnsgd1na2vs0mg"},{"bike_id":"e50cb73d-0fd3-4af0-8a6d-a76d1958d218","system_id":"levelo_inurba_marseille","lat":43.29042,"lon":5.37567,"is_reserved":false,"is_disabled":false,"rental_uris":{"android":"levelo://app?vid=e50cb73d-0fd3-4af0-8a6d-a76d1958d218","ios":"levelo://app?vid=e50cb73d-0fd3-4af0-8a6d-a76d1958d218"},"vehicle_type_id":"4","last_reported":1739977800,"current_range_meters":10000,"station_id":"ce4bh692rcd13ifvqe90","pricing_plan_id":"cebpf4jnsgd1na2vs0mg"},{"bike_id":"6defbe51-bc6f-4430-b5ab-60dc5cf67e7b","system_id":"levelo_inurba_marseille","lat":43.24172,"lon":5.39718,"is_reserved":false,"is_disabled":false,"rental_uris":{"android":"levelo://app?vid=6defbe51-bc6f-4430-b5ab-60dc5cf67e7b","ios":"levelo://app?vid=6defbe51-bc6f-4430-b5ab-60dc5cf67e7b"},"vehicle_type_id":"4","last_reported":1739977800,"current_range_meters":10000,"station_id":"ce4bhn12rcd13ifvqgpg","pricing_plan_id":"cebpf4jnsgd1na2vs0mg"},{"bike_id":"85119f68-8e15-482b-8115-a93531330552","system_id":"levelo_inurba_marseille","lat":43.28941,"lon":5.36407,"is_reserved":false,"is_disabled":false,"rental_uris":{"android":"levelo://app?vid=85119f68-8e15-482b-8115-a93531330552","ios":"levelo://app?vid=85119f68-8e15-482b-8115-a93531330552"},"vehicle_type_id":"4","last_reported":1739977800,"current_range_meters":10000,"station_id":"ce4bhc92rcd13ifvqetg","pricing_plan_id":"cebpf4jnsgd1na2vs0mg"},{"bike_id":"1b553d79-5643-47b5-9d7c-543b69175948","system_id":"levelo_inurba_marseille","lat":43.26231,"lon":5.4045,"is_reserved":false,"is_disabled":false,"rental_uris":{"android":"levelo://app?vid=1b553d79-5643-47b5-9d7c-543b69175948","ios":"levelo://app?vid=1b553d79-5643-47b5-9d7c-543b69175948"},"vehicle_type_id":"4","last_reported":1739977800,"current_range_meters":10800,"station_id":"ce4bhmh2rcd13ifvqgmg","pricing_plan_id":"cebpf4jnsgd1na2vs0mg"},{"bike_id":"b5da9552-24dd-491c-8268-c7e5d719ad6d","system_id":"levelo_inurba_marseille","lat":43.28936,"lon":5.36397,"is_reserved":false,"is_disabled":false,"rental_uris":{"android":"levelo://app?vid=b5da9552-24dd-491c-8268-c7e5d719ad6d","ios":"levelo://app?vid=b5da9552-24dd-491c-8268-c7e5d719ad6d"},"vehicle_type_id":"4","last_reported":1739977800,"current_range_meters":10800,"station_id":"ce4bhc92rcd13ifvqetg","pricing_plan_id":"cebpf4jnsgd1na2vs0mg"},{"bike_id":"9b03b96d-2041-4d92-a949-290d7b50f943","system_id":"levelo_inurba_marseille","lat":43.2719,"lon":5.4099,"is_reserved":false,"is_disabled":false,"rental_uris":{"android":"levelo://app?vid=9b03b96d-2041-4d92-a949-290d7b50f943","ios":"levelo://app?vid=9b03b96d-2041-4d92-a949-290d7b50f943"},"vehicle_type_id":"4","last_reported":1739977800,"current_range_meters":10000,"station_id":"ce4bhl12rcd13ifvqgf0","pricing_plan_id":"cebpf4jnsgd1na2vs0mg"},{"bike_id":"f027fe38-3f5d-42fa-b16a-68ca60104c09","system_id":"levelo_inurba_marseille","lat":43.2418,"lon":5.36386,"is_reserved":false,"is_disabled":false,"rental_uris":{"android":"levelo://app?vid=f027fe38-3f5d-42fa-b16a-68ca60104c09","ios":"levelo://app?vid=f027fe38-3f5d-42fa-b16a-68ca60104c09"},"vehicle_type_id":"4","last_reported":1739977800,"current_range_meters":10800,"station_id":"","pricing_plan_id":"cebpf4jnsgd1na2vs0mg"},{"bike_id":"51900993-e869-46ca-be0f-771d170b63cd","system_id":"levelo_inurba_marseille","lat":43.29804,"lon":5.38123,"is_reserved":false,"is_disabled":false,"rental_uris":{"android":"levelo://app?vid=51900993-e869-46ca-be0f-771d170b63cd","ios":"levelo://app?vid=51900993-e869-46ca-be0f-771d170b63cd"},"vehicle_type_id":"4","last_reported":1739977800,"current_range_meters":10000,"station_id":"ce4bgip2rcd13ifvqbb0","pricing_plan_id":"cebpf4jnsgd1na2vs0mg"},{"bike_id":"c186b769-21b0-4010-925d-7e3b55aba84a","system_id":"levelo_inurba_marseille","lat":43.30159,"lon":5.38078,"is_reserved":false,"is_disabled":false,"rental_uris":{"android":"levelo://app?vid=c186b769-21b0-4010-925d-7e3b55aba84a","ios":"levelo://app?vid=c186b769-21b0-4010-925d-7e3b55aba84a"},"vehicle_type_id":"4","last_reported":1739977800,"current_range_meters":11600,"station_id":"ce4bgjp2rcd13ifvqbh0","pricing_plan_id":"cebpf4jnsgd1na2vs0mg"},{"bike_id":"dc7ebc21-fe44-45f4-ba03-b6034b89ce1a","system_id":"levelo_inurba_marseille","lat":43.25865,"lon":5.39899,"is_reserved":false,"is_disabled":false,"rental_uris":{"android":"levelo://app?vid=dc7ebc21-fe44-45f4-ba03-b6034b89ce1a","ios":"levelo://app?vid=dc7ebc21-fe44-45f4-ba03-b6034b89ce1a"},"vehicle_type_id":"4","last_reported":1739977800,"current_range_meters":10800,"station_id":"ce4bhl92rcd13ifvqghg","pricing_plan_id":"cebpf4jnsgd1na2vs0mg"},{"bike_id":"63c4cf47-dbff-4d5e-a88a-080b99df99de","system_id":"levelo_inurba_marseille","lat":43.29534,"lon":5.3891,"is_reserved":false,"is_disabled":true,"rental_uris":{"android":"levelo://app?vid=63c4cf47-dbff-4d5e-a88a-080b99df99de","ios":"levelo://app?vid=63c4cf47-dbff-4d5e-a88a-080b99df99de"},"vehicle_type_id":"4","last_reported":1739977800,"current_range_meters":11200,"station_id":"","pricing_plan_id":"cebpf4jnsgd1na2vs0mg"},{"bike_id":"c1361488-a68f-4a15-8ea7-1da3a0d50559","system_id":"levelo_inurba_marseille","lat":43.27082,"lon":5.42279,"is_reserved":false,"is_disabled":false,"rental_uris":{"android":"levelo://app?vid=c1361488-a68f-4a15-8ea7-1da3a0d50559","ios":"levelo://app?vid=c1361488-a68f-4a15-8ea7-1da3a0d50559"},"vehicle_type_id":"4","last_reported":1739977800,"current_range_meters":11200,"station_id":"ce4bhk92rcd13ifvqgb0","pricing_plan_id":"cebpf4jnsgd1na2vs0mg"},{"bike_id":"1d63a175-89ef-49ff-9ead-dfe9ed6c22cf","system_id":"levelo_inurba_marseille","lat":43.24693,"lon":5.39437,"is_reserved":false,"is_disabled":false,"rental_uris":{"android":"levelo://app?vid=1d63a175-89ef-49ff-9ead-dfe9ed6c22cf","ios":"levelo://app?vid=1d63a175-89ef-49ff-9ead-dfe9ed6c22cf"},"vehicle_type_id":"4","last_reported":1739977800,"current_range_meters":11200,"station_id":"","pricing_plan_id":"cebpf4jnsgd1na2vs0mg"},{"bike_id":"87a627da-e4b0-4a18-8633-fd19bb219ca1","system_id":"levelo_inurba_marseille","lat":43.25003,"lon":5.38926,"is_reserved":false,"is_disabled":false,"rental_uris":{"android":"levelo://app?vid=87a627da-e4b0-4a18-8633-fd19bb219ca1","ios":"levelo://app?vid=87a627da-e4b0-4a18-8633-fd19bb219ca1"},"vehicle_type_id":"4","last_reported":1739977800,"current_range_meters":11200,"station_id":"ce4bhgp2rcd13ifvqfd0","pricing_plan_id":"cebpf4jnsgd1na2vs0mg"},{"bike_id":"3fb913b3-efdc-464b-b8eb-d89ca9552bfa","system_id":"levelo_inurba_marseille","lat":43.2868,"lon":5.38665,"is_reserved":false,"is_disabled":false,"rental_uris":{"android":"levelo://app?vid=3fb913b3-efdc-464b-b8eb-d89ca9552bfa","ios":"levelo://app?vid=3fb913b3-efdc-464b-b8eb-d89ca9552bfa"},"vehicle_type_id":"4","last_reported":1739977800,"current_range_meters":11200,"station_id":"ce4bh492rcd13ifvqdug","pricing_plan_id":"cebpf4jnsgd1na2vs0mg"},{"bike_id":"4e6bf4d9-fbf9-4f62-81f9-67f61b8ddaf1","system_id":"levelo_inurba_marseille","lat":43.29973,"lon":5.38497,"is_reserved":false,"is_disabled":false,"rental_uris":{"android":"levelo://app?vid=4e6bf4d9-fbf9-4f62-81f9-67f61b8ddaf1","ios":"levelo://app?vid=4e6bf4d9-fbf9-4f62-81f9-67f61b8ddaf1"},"vehicle_type_id":"4","last_reported":1739977800,"current_range_meters":11600,"station_id":"ce4bgj92rcd13ifvqbd0","pricing_plan_id":"cebpf4jnsgd1na2vs0mg"},{"bike_id":"ba0a4dbe-d370-492e-a789-44c6ef69c02b","system_id":"levelo_inurba_marseille","lat":43.28611,"lon":5.35107,"is_reserved":false,"is_disabled":true,"rental_uris":{"android":"levelo://app?vid=ba0a4dbe-d370-492e-a789-44c6ef69c02b","ios":"levelo://app?vid=ba0a4dbe-d370-492e-a789-44c6ef69c02b"},"vehicle_type_id":"4","last_reported":1739977800,"current_range_meters":11600,"station_id":"ce4bhch2rcd13ifvqeug","pricing_plan_id":"cebpf4jnsgd1na2vs0mg"},{"bike_id":"f1ef0f2b-aceb-4fe1-8e45-90f1104684ec","system_id":"levelo_inurba_marseille","lat":43.30954,"lon":5.39035,"is_reserved":false,"is_disabled":false,"rental_uris":{"android":"levelo://app?vid=f1ef0f2b-aceb-4fe1-8e45-90f1104684ec","ios":"levelo://app?vid=f1ef0f2b-aceb-4fe1-8e45-90f1104684ec"},"vehicle_type_id":"4","last_reported":1739977800,"current_range_meters":11600,"station_id":"ce4bgup2rcd13ifvqco0","pricing_plan_id":"cebpf4jnsgd1na2vs0mg"},{"bike_id":"3d35fa34-78c6-4b72-a32b-2748c7b94641","system_id":"levelo_inurba_marseille","lat":43.29259,"lon":5.38427,"is_reserved":false,"is_disabled":false,"rental_uris":{"android":"levelo://app?vid=3d35fa34-78c6-4b72-a32b-2748c7b94641","ios":"levelo://app?vid=3d35fa34-78c6-4b72-a32b-2748c7b94641"},"vehicle_type_id":"4","last_reported":1739977800,"current_range_meters":11600,"station_id":"ce4bh692rcd13ifvqea0","pricing_plan_id":"cebpf4jnsgd1na2vs0mg"},{"bike_id":"234ab225-fb15-44cb-af0d-63e6ab8ae78f","system_id":"levelo_inurba_marseille","lat":43.30893,"lon":5.39623,"is_reserved":false,"is_disabled":false,"rental_uris":{"android":"levelo://app?vid=234ab225-fb15-44cb-af0d-63e6ab8ae78f","ios":"levelo://app?vid=234ab225-fb15-44cb-af0d-63e6ab8ae78f"},"vehicle_type_id":"4","last_reported":1739977800,"current_range_meters":12000,"station_id":"ce4bh012rcd13ifvqcv0","pricing_plan_id":"cebpf4jnsgd1na2vs0mg"},{"bike_id":"a00fb5cd-e0d2-4f96-befb-5275c0df0c87","system_id":"levelo_inurba_marseille","lat":43.2799,"lon":5.41643,"is_reserved":false,"is_disabled":false,"rental_uris":{"android":"levelo://app?vid=a00fb5cd-e0d2-4f96-befb-5275c0df0c87","ios":"levelo://app?vid=a00fb5cd-e0d2-4f96-befb-5275c0df0c87"},"vehicle_type_id":"4","last_reported":1739977800,"current_range_meters":12000,"station_id":"ce4bho12rcd13ifvqh1g","pricing_plan_id":"cebpf4jnsgd1na2vs0mg"},{"bike_id":"c67fb496-8441-458a-af2d-8f07c087bdd0","system_id":"levelo_inurba_marseille","lat":43.24184,"lon":5.36387,"is_reserved":false,"is_disabled":true,"rental_uris":{"android":"levelo://app?vid=c67fb496-8441-458a-af2d-8f07c087bdd0","ios":"levelo://app?vid=c67fb496-8441-458a-af2d-8f07c087bdd0"},"vehicle_type_id":"4","last_reported":1739977800,"current_range_meters":12000,"station_id":"","pricing_plan_id":"cebpf4jnsgd1na2vs0mg"},{"bike_id":"24dd12c1-4d8a-40c0-b521-a98d2d462c41","system_id":"levelo_inurba_marseille","lat":43.24169,"lon":5.36402,"is_reserved":false,"is_disabled":false,"rental_uris":{"android":"levelo://app?vid=24dd12c1-4d8a-40c0-b521-a98d2d462c41","ios":"levelo://app?vid=24dd12c1-4d8a-40c0-b521-a98d2d462c41"},"vehicle_type_id":"4","last_reported":1739977800,"current_range_meters":12000,"station_id":"","pricing_plan_id":"cebpf4jnsgd1na2vs0mg"},{"bike_id":"9ac2671b-b398-418e-b292-3a883ee5c1ce","system_id":"levelo_inurba_marseille","lat":43.30912,"lon":5.36844,"is_reserved":false,"is_disabled":false,"rental_uris":{"android":"levelo://app?vid=9ac2671b-b398-418e-b292-3a883ee5c1ce","ios":"levelo://app?vid=9ac2671b-b398-418e-b292-3a883ee5c1ce"},"vehicle_type_id":"4","last_reported":1739977800,"current_range_meters":12000,"station_id":"ce4bgn92rcd13ifvqbvg","pricing_plan_id":"cebpf4jnsgd1na2vs0mg"},{"bike_id":"9605a097-6403-452f-af25-a8c4982f17d3","system_id":"levelo_inurba_marseille","lat":43.28942,"lon":5.37737,"is_reserved":false,"is_disabled":false,"rental_uris":{"android":"levelo://app?vid=9605a097-6403-452f-af25-a8c4982f17d3","ios":"levelo://app?vid=9605a097-6403-452f-af25-a8c4982f17d3"},"vehicle_type_id":"4","last_reported":1739977800,"current_range_meters":12400,"station_id":"ce4bh9p2rcd13ifvqed0","pricing_plan_id":"cebpf4jnsgd1na2vs0mg"},{"bike_id":"ee6dc19b-f79e-406f-978a-328bcf39b5f3","system_id":"levelo_inurba_marseille","lat":43.29265,"lon":5.38427,"is_reserved":false,"is_disabled":false,"rental_uris":{"android":"levelo://app?vid=ee6dc19b-f79e-406f-978a-328bcf39b5f3","ios":"levelo://app?vid=ee6dc19b-f79e-406f-978a-328bcf39b5f3"},"vehicle_type_id":"4","last_reported":1739977800,"current_range_meters":11600,"station_id":"ce4bh692rcd13ifvqea0","pricing_plan_id":"cebpf4jnsgd1na2vs0mg"},{"bike_id":"62613826-4aec-4f29-8a06-e60f5f637ded","system_id":"levelo_inurba_marseille","lat":43.30531,"lon":5.36518,"is_reserved":false,"is_disabled":false,"rental_uris":{"android":"levelo://app?vid=62613826-4aec-4f29-8a06-e60f5f637ded","ios":"levelo://app?vid=62613826-4aec-4f29-8a06-e60f5f637ded"},"vehicle_type_id":"4","last_reported":1739977800,"current_range_meters":12400,"station_id":"ce4bgs12rcd13ifvqcag","pricing_plan_id":"cebpf4jnsgd1na2vs0mg"},{"bike_id":"0c847f8b-cb24-4d9d-9905-a62f235d8bc3","system_id":"levelo_inurba_marseille","lat":43.25828,"lon":5.39437,"is_reserved":false,"is_disabled":false,"rental_uris":{"android":"levelo://app?vid=0c847f8b-cb24-4d9d-9905-a62f235d8bc3","ios":"levelo://app?vid=0c847f8b-cb24-4d9d-9905-a62f235d8bc3"},"vehicle_type_id":"4","last_reported":1739977800,"current_range_meters":12400,"station_id":"ce4bhip2rcd13ifvqft0","pricing_plan_id":"cebpf4jnsgd1na2vs0mg"},{"bike_id":"0b1a3b32-459a-4ff9-a388-d16482304482","system_id":"levelo_inurba_marseille","lat":43.27986,"lon":5.40019,"is_reserved":false,"is_disabled":false,"rental_uris":{"android":"levelo://app?vid=0b1a3b32-459a-4ff9-a388-d16482304482","ios":"levelo://app?vid=0b1a3b32-459a-4ff9-a388-d16482304482"},"vehicle_type_id":"4","last_reported":1739977800,"current_range_meters":12800,"station_id":"","pricing_plan_id":"cebpf4jnsgd1na2vs0mg"},{"bike_id":"34d14ec0-9a1d-4d07-8158-52ff5d0c0371","system_id":"levelo_inurba_marseille","lat":43.29421,"lon":5.38043,"is_reserved":false,"is_disabled":false,"rental_uris":{"android":"levelo://app?vid=34d14ec0-9a1d-4d07-8158-52ff5d0c0371","ios":"levelo://app?vid=34d14ec0-9a1d-4d07-8158-52ff5d0c0371"},"vehicle_type_id":"4","last_reported":1739977800,"current_range_meters":12800,"station_id":"","pricing_plan_id":"cebpf4jnsgd1na2vs0mg"},{"bike_id":"cc6216f9-de25-435e-b845-e53b2e1242fd","system_id":"levelo_inurba_marseille","lat":43.28157,"lon":5.42653,"is_reserved":false,"is_disabled":false,"rental_uris":{"android":"levelo://app?vid=cc6216f9-de25-435e-b845-e53b2e1242fd","ios":"levelo://app?vid=cc6216f9-de25-435e-b845-e53b2e1242fd"},"vehicle_type_id":"4","last_reported":1739977800,"current_range_meters":12800,"station_id":"ce4bhnh2rcd13ifvqgug","pricing_plan_id":"cebpf4jnsgd1na2vs0mg"},{"bike_id":"d931b3aa-1545-4d14-b119-8a54d7bb174d","system_id":"levelo_inurba_marseille","lat":43.23191,"lon":5.3554,"is_reserved":false,"is_disabled":false,"rental_uris":{"android":"levelo://app?vid=d931b3aa-1545-4d14-b119-8a54d7bb174d","ios":"levelo://app?vid=d931b3aa-1545-4d14-b119-8a54d7bb174d"},"vehicle_type_id":"4","last_reported":1739977800,"current_range_meters":12800,"station_id":"ce4bhu92rcd13ifvqi70","pricing_plan_id":"cebpf4jnsgd1na2vs0mg"},{"bike_id":"2d501f2b-876d-4ebc-927d-8c42a258944b","system_id":"levelo_inurba_marseille","lat":43.2718,"lon":5.40993,"is_reserved":false,"is_disabled":false,"rental_uris":{"android":"levelo://app?vid=2d501f2b-876d-4ebc-927d-8c42a258944b","ios":"levelo://app?vid=2d501f2b-876d-4ebc-927d-8c42a258944b"},"vehicle_type_id":"4","last_reported":1739977800,"current_range_meters":12800,"station_id":"ce4bhl12rcd13ifvqgf0","pricing_plan_id":"cebpf4jnsgd1na2vs0mg"},{"bike_id":"fc971b16-bef3-4b6d-813c-ffc8ffa48842","system_id":"levelo_inurba_marseille","lat":43.2841,"lon":5.34986,"is_reserved":false,"is_disabled":true,"rental_uris":{"android":"levelo://app?vid=fc971b16-bef3-4b6d-813c-ffc8ffa48842","ios":"levelo://app?vid=fc971b16-bef3-4b6d-813c-ffc8ffa48842"},"vehicle_type_id":"4","last_reported":1739977800,"current_range_meters":12800,"station_id":"","pricing_plan_id":"cebpf4jnsgd1na2vs0mg"},{"bike_id":"5180f318-4948-4085-aaf1-5f3160b57dbe","system_id":"levelo_inurba_marseille","lat":43.27625,"lon":5.36089,"is_reserved":false,"is_disabled":true,"rental_uris":{"android":"levelo://app?vid=5180f318-4948-4085-aaf1-5f3160b57dbe","ios":"levelo://app?vid=5180f318-4948-4085-aaf1-5f3160b57dbe"},"vehicle_type_id":"4","last_reported":1739977800,"current_range_meters":12800,"station_id":"","pricing_plan_id":"cebpf4jnsgd1na2vs0mg"},{"bike_id":"e2596add-e568-49b6-a063-b6868f5c61f8","system_id":"levelo_inurba_marseille","lat":43.24821,"lon":5.37464,"is_reserved":false,"is_disabled":false,"rental_uris":{"android":"levelo://app?vid=e2596add-e568-49b6-a063-b6868f5c61f8","ios":"levelo://app?vid=e2596add-e568-49b6-a063-b6868f5c61f8"},"vehicle_type_id":"4","last_reported":1739977800,"current_range_meters":13600,"station_id":"ce4bhgh2rcd13ifvqfb0","pricing_plan_id":"cebpf4jnsgd1na2vs0mg"},{"bike_id":"eb637cc8-edfe-43fb-ad27-bec24ab9743b","system_id":"levelo_inurba_marseille","lat":43.25094,"lon":5.39525,"is_reserved":false,"is_disabled":false,"rental_uris":{"android":"levelo://app?vid=eb637cc8-edfe-43fb-ad27-bec24ab9743b","ios":"levelo://app?vid=eb637cc8-edfe-43fb-ad27-bec24ab9743b"},"vehicle_type_id":"4","last_reported":1739977800,"current_range_meters":13600,"station_id":"ce4bhm12rcd13ifvqgkg","pricing_plan_id":"cebpf4jnsgd1na2vs0mg"},{"bike_id":"546c0212-55c6-476d-8224-641f51f7c4c5","system_id":"levelo_inurba_marseille","lat":43.28605,"lon":5.37067,"is_reserved":false,"is_disabled":false,"rental_uris":{"android":"levelo://app?vid=546c0212-55c6-476d-8224-641f51f7c4c5","ios":"levelo://app?vid=546c0212-55c6-476d-8224-641f51f7c4c5"},"vehicle_type_id":"4","last_reported":1739977800,"current_range_meters":13600,"station_id":"ce4bht12rcd13ifvqi60","pricing_plan_id":"cebpf4jnsgd1na2vs0mg"},{"bike_id":"9a20bf4a-2838-4260-9d28-debd745460c0","system_id":"levelo_inurba_marseille","lat":43.30874,"lon":5.37804,"is_reserved":false,"is_disabled":false,"rental_uris":{"android":"levelo://app?vid=9a20bf4a-2838-4260-9d28-debd745460c0","ios":"levelo://app?vid=9a20bf4a-2838-4260-9d28-debd745460c0"},"vehicle_type_id":"4","last_reported":1739977800,"current_range_meters":13600,"station_id":"ce4bgv92rcd13ifvqcq0","pricing_plan_id":"cebpf4jnsgd1na2vs0mg"},{"bike_id":"337723a1-fc7d-4214-8f16-7e5bb2e80a1f","system_id":"levelo_inurba_marseille","lat":43.30262,"lon":5.40078,"is_reserved":false,"is_disabled":false,"rental_uris":{"android":"levelo://app?vid=337723a1-fc7d-4214-8f16-7e5bb2e80a1f","ios":"levelo://app?vid=337723a1-fc7d-4214-8f16-7e5bb2e80a1f"},"vehicle_type_id":"4","last_reported":1739977800,"current_range_meters":9600,"station_id":"ce4bgvh2rcd13ifvqcs0","pricing_plan_id":"cebpf4jnsgd1na2vs0mg"},{"bike_id":"b64778c2-2434-4409-b125-e965a1fd469a","system_id":"levelo_inurba_marseille","lat":43.30304,"lon":5.36683,"is_reserved":false,"is_disabled":false,"rental_uris":{"android":"levelo://app?vid=b64778c2-2434-4409-b125-e965a1fd469a","ios":"levelo://app?vid=b64778c2-2434-4409-b125-e965a1fd469a"},"vehicle_type_id":"4","last_reported":1739977800,"current_range_meters":13600,"station_id":"ce4bgs12rcd13ifvqcag","pricing_plan_id":"cebpf4jnsgd1na2vs0mg"},{"bike_id":"5b18a53f-b722-4170-9e3b-c13b18996ed3","system_id":"levelo_inurba_marseille","lat":43.29546,"lon":5.38542,"is_reserved":false,"is_disabled":false,"rental_uris":{"android":"levelo://app?vid=5b18a53f-b722-4170-9e3b-c13b18996ed3","ios":"levelo://app?vid=5b18a53f-b722-4170-9e3b-c13b18996ed3"},"vehicle_type_id":"4","last_reported":1739977800,"current_range_meters":14000,"station_id":"ce4bgih2rcd13ifvqba0","pricing_plan_id":"cebpf4jnsgd1na2vs0mg"},{"bike_id":"5089bb88-a0cd-4434-a1a9-f3d5b67361c6","system_id":"levelo_inurba_marseille","lat":43.24369,"lon":5.38745,"is_reserved":false,"is_disabled":false,"rental_uris":{"android":"levelo://app?vid=5089bb88-a0cd-4434-a1a9-f3d5b67361c6","ios":"levelo://app?vid=5089bb88-a0cd-4434-a1a9-f3d5b67361c6"},"vehicle_type_id":"4","last_reported":1739977800,"current_range_meters":14000,"station_id":"","pricing_plan_id":"cebpf4jnsgd1na2vs0mg"},{"bike_id":"3c302585-8158-48ca-86f5-fedd2014530c","system_id":"levelo_inurba_marseille","lat":43.23968,"lon":5.36627,"is_reserved":false,"is_disabled":false,"rental_uris":{"android":"levelo://app?vid=3c302585-8158-48ca-86f5-fedd2014530c","ios":"levelo://app?vid=3c302585-8158-48ca-86f5-fedd2014530c"},"vehicle_type_id":"4","last_reported":1739977800,"current_range_meters":14000,"station_id":"ce4bhi12rcd13ifvqfp0","pricing_plan_id":"cebpf4jnsgd1na2vs0mg"},{"bike_id":"79a8de8e-6448-4651-a4fc-e7e896fb3b6a","system_id":"levelo_inurba_marseille","lat":43.25585,"lon":5.38214,"is_reserved":false,"is_disabled":false,"rental_uris":{"android":"levelo://app?vid=79a8de8e-6448-4651-a4fc-e7e896fb3b6a","ios":"levelo://app?vid=79a8de8e-6448-4651-a4fc-e7e896fb3b6a"},"vehicle_type_id":"4","last_reported":1739977800,"current_range_meters":14000,"station_id":"ce4bhih2rcd13ifvqfs0","pricing_plan_id":"cebpf4jnsgd1na2vs0mg"},{"bike_id":"6bd85484-04f7-4b63-8109-9ae70fd4eb10","system_id":"levelo_inurba_marseille","lat":43.28565,"lon":5.39497,"is_reserved":false,"is_disabled":false,"rental_uris":{"android":"levelo://app?vid=6bd85484-04f7-4b63-8109-9ae70fd4eb10","ios":"levelo://app?vid=6bd85484-04f7-4b63-8109-9ae70fd4eb10"},"vehicle_type_id":"4","last_reported":1739977800,"current_range_meters":14400,"station_id":"ce4bh292rcd13ifvqdg0","pricing_plan_id":"cebpf4jnsgd1na2vs0mg"},{"bike_id":"5f9ede52-c720-4107-a864-980fb2608395","system_id":"levelo_inurba_marseille","lat":43.24121,"lon":5.38701,"is_reserved":false,"is_disabled":false,"rental_uris":{"android":"levelo://app?vid=5f9ede52-c720-4107-a864-980fb2608395","ios":"levelo://app?vid=5f9ede52-c720-4107-a864-980fb2608395"},"vehicle_type_id":"4","last_reported":1739977800,"current_range_meters":14400,"station_id":"ce4bhb92rcd13ifvqen0","pricing_plan_id":"cebpf4jnsgd1na2vs0mg"},{"bike_id":"516bafe0-5ae1-4584-8a28-800d99267cec","system_id":"levelo_inurba_marseille","lat":43.27953,"lon":5.41041,"is_reserved":false,"is_disabled":false,"rental_uris":{"android":"levelo://app?vid=516bafe0-5ae1-4584-8a28-800d99267cec","ios":"levelo://app?vid=516bafe0-5ae1-4584-8a28-800d99267cec"},"vehicle_type_id":"4","last_reported":1739977800,"current_range_meters":14400,"station_id":"ce4bhnp2rcd13ifvqh0g","pricing_plan_id":"cebpf4jnsgd1na2vs0mg"},{"bike_id":"df8a1e95-38c7-4188-b33d-4eab014c69bb","system_id":"levelo_inurba_marseille","lat":43.30139,"lon":5.3987,"is_reserved":false,"is_disabled":false,"rental_uris":{"android":"levelo://app?vid=df8a1e95-38c7-4188-b33d-4eab014c69bb","ios":"levelo://app?vid=df8a1e95-38c7-4188-b33d-4eab014c69bb"},"vehicle_type_id":"4","last_reported":1739977800,"current_range_meters":14000,"station_id":"ce4bh0h2rcd13ifvqd40","pricing_plan_id":"cebpf4jnsgd1na2vs0mg"},{"bike_id":"ecb2c54f-7880-4516-8c75-dd7fce1c341e","system_id":"levelo_inurba_marseille","lat":43.28264,"lon":5.35054,"is_reserved":false,"is_disabled":false,"rental_uris":{"android":"levelo://app?vid=ecb2c54f-7880-4516-8c75-dd7fce1c341e","ios":"levelo://app?vid=ecb2c54f-7880-4516-8c75-dd7fce1c341e"},"vehicle_type_id":"4","last_reported":1739977800,"current_range_meters":14400,"station_id":"ce4bhbp2rcd13ifvqerg","pricing_plan_id":"cebpf4jnsgd1na2vs0mg"},{"bike_id":"379d8a84-6137-4d01-9dd2-65d51367615c","system_id":"levelo_inurba_marseille","lat":43.30293,"lon":5.37705,"is_reserved":false,"is_disabled":false,"rental_uris":{"android":"levelo://app?vid=379d8a84-6137-4d01-9dd2-65d51367615c","ios":"levelo://app?vid=379d8a84-6137-4d01-9dd2-65d51367615c"},"vehicle_type_id":"4","last_reported":1739977800,"current_range_meters":14400,"station_id":"ce4bguh2rcd13ifvqcj0","pricing_plan_id":"cebpf4jnsgd1na2vs0mg"},{"bike_id":"de814b09-dd0c-425d-87a0-3011b6d73f3f","system_id":"levelo_inurba_marseille","lat":43.2827,"lon":5.35075,"is_reserved":false,"is_disabled":false,"rental_uris":{"android":"levelo://app?vid=de814b09-dd0c-425d-87a0-3011b6d73f3f","ios":"levelo://app?vid=de814b09-dd0c-425d-87a0-3011b6d73f3f"},"vehicle_type_id":"4","last_reported":1739977800,"current_range_meters":14400,"station_id":"ce4bhbp2rcd13ifvqerg","pricing_plan_id":"cebpf4jnsgd1na2vs0mg"},{"bike_id":"9fc0862e-fdaa-4007-a370-56b09c93b5ad","system_id":"levelo_inurba_marseille","lat":43.28435,"lon":5.35003,"is_reserved":false,"is_disabled":false,"rental_uris":{"android":"levelo://app?vid=9fc0862e-fdaa-4007-a370-56b09c93b5ad","ios":"levelo://app?vid=9fc0862e-fdaa-4007-a370-56b09c93b5ad"},"vehicle_type_id":"4","last_reported":1739977800,"current_range_meters":14400,"station_id":"","pricing_plan_id":"cebpf4jnsgd1na2vs0mg"},{"bike_id":"a0af3547-0f5a-4ee7-a39d-23ed992db956","system_id":"levelo_inurba_marseille","lat":43.23418,"lon":5.40452,"is_reserved":false,"is_disabled":false,"rental_uris":{"android":"levelo://app?vid=a0af3547-0f5a-4ee7-a39d-23ed992db956","ios":"levelo://app?vid=a0af3547-0f5a-4ee7-a39d-23ed992db956"},"vehicle_type_id":"4","last_reported":1739977800,"current_range_meters":14800,"station_id":"","pricing_plan_id":"cebpf4jnsgd1na2vs0mg"},{"bike_id":"9cfc4cc3-b27b-4b5a-8200-8f933e7c4ef5","system_id":"levelo_inurba_marseille","lat":43.3236,"lon":5.3889,"is_reserved":false,"is_disabled":false,"rental_uris":{"android":"levelo://app?vid=9cfc4cc3-b27b-4b5a-8200-8f933e7c4ef5","ios":"levelo://app?vid=9cfc4cc3-b27b-4b5a-8200-8f933e7c4ef5"},"vehicle_type_id":"4","last_reported":1739977800,"current_range_meters":14800,"station_id":"ce4bhqp2rcd13ifvqhog","pricing_plan_id":"cebpf4jnsgd1na2vs0mg"},{"bike_id":"9996f1ae-b052-413c-b621-6eed4735fc62","system_id":"levelo_inurba_marseille","lat":43.26943,"lon":5.40251,"is_reserved":false,"is_disabled":false,"rental_uris":{"android":"levelo://app?vid=9996f1ae-b052-413c-b621-6eed4735fc62","ios":"levelo://app?vid=9996f1ae-b052-413c-b621-6eed4735fc62"},"vehicle_type_id":"4","last_reported":1739977800,"current_range_meters":14800,"station_id":"","pricing_plan_id":"cebpf4jnsgd1na2vs0mg"},{"bike_id":"731b377c-de6a-4eff-a9ce-ac3ffb76b784","system_id":"levelo_inurba_marseille","lat":43.24385,"lon":5.37056,"is_reserved":false,"is_disabled":false,"rental_uris":{"android":"levelo://app?vid=731b377c-de6a-4eff-a9ce-ac3ffb76b784","ios":"levelo://app?vid=731b377c-de6a-4eff-a9ce-ac3ffb76b784"},"vehicle_type_id":"4","last_reported":1739977800,"current_range_meters":14800,"station_id":"ce4bhhh2rcd13ifvqfk0","pricing_plan_id":"cebpf4jnsgd1na2vs0mg"},{"bike_id":"b85644ed-f65a-4039-a397-da921e97276e","system_id":"levelo_inurba_marseille","lat":43.23962,"lon":5.36646,"is_reserved":false,"is_disabled":false,"rental_uris":{"android":"levelo://app?vid=b85644ed-f65a-4039-a397-da921e97276e","ios":"levelo://app?vid=b85644ed-f65a-4039-a397-da921e97276e"},"vehicle_type_id":"4","last_reported":1739977800,"current_range_meters":15200,"station_id":"ce4bhi12rcd13ifvqfp0","pricing_plan_id":"cebpf4jnsgd1na2vs0mg"},{"bike_id":"259617e0-e7e9-4a4d-aee7-15927e833679","system_id":"levelo_inurba_marseille","lat":43.26564,"lon":5.39009,"is_reserved":false,"is_disabled":false,"rental_uris":{"android":"levelo://app?vid=259617e0-e7e9-4a4d-aee7-15927e833679","ios":"levelo://app?vid=259617e0-e7e9-4a4d-aee7-15927e833679"},"vehicle_type_id":"4","last_reported":1739977800,"current_range_meters":15200,"station_id":"","pricing_plan_id":"cebpf4jnsgd1na2vs0mg"},{"bike_id":"eb75e2ac-b61e-4c90-95cb-c16878504d94","system_id":"levelo_inurba_marseille","lat":43.26578,"lon":5.39021,"is_reserved":false,"is_disabled":false,"rental_uris":{"android":"levelo://app?vid=eb75e2ac-b61e-4c90-95cb-c16878504d94","ios":"levelo://app?vid=eb75e2ac-b61e-4c90-95cb-c16878504d94"},"vehicle_type_id":"4","last_reported":1739977800,"current_range_meters":15200,"station_id":"ce4bhe12rcd13ifvqf30","pricing_plan_id":"cebpf4jnsgd1na2vs0mg"},{"bike_id":"5428c4a6-2268-45c5-aff9-a5f8e308d92b","system_id":"levelo_inurba_marseille","lat":43.3094,"lon":5.37268,"is_reserved":false,"is_disabled":false,"rental_uris":{"android":"levelo://app?vid=5428c4a6-2268-45c5-aff9-a5f8e308d92b","ios":"levelo://app?vid=5428c4a6-2268-45c5-aff9-a5f8e308d92b"},"vehicle_type_id":"4","last_reported":1739977800,"current_range_meters":16000,"station_id":"ce4bguh2rcd13ifvqckg","pricing_plan_id":"cebpf4jnsgd1na2vs0mg"},{"bike_id":"55cd4fb2-5969-4326-8e30-5a90eb5e83d6","system_id":"levelo_inurba_marseille","lat":43.2846,"lon":5.35898,"is_reserved":false,"is_disabled":false,"rental_uris":{"android":"levelo://app?vid=55cd4fb2-5969-4326-8e30-5a90eb5e83d6","ios":"levelo://app?vid=55cd4fb2-5969-4326-8e30-5a90eb5e83d6"},"vehicle_type_id":"4","last_reported":1739977800,"current_range_meters":15200,"station_id":"ce4bhah2rcd13ifvqei0","pricing_plan_id":"cebpf4jnsgd1na2vs0mg"},{"bike_id":"1afdd6fa-21a0-46db-a330-88c2feb7de71","system_id":"levelo_inurba_marseille","lat":43.2621,"lon":5.37436,"is_reserved":false,"is_disabled":false,"rental_uris":{"android":"levelo://app?vid=1afdd6fa-21a0-46db-a330-88c2feb7de71","ios":"levelo://app?vid=1afdd6fa-21a0-46db-a330-88c2feb7de71"},"vehicle_type_id":"4","last_reported":1739977800,"current_range_meters":16000,"station_id":"ce4bhgp2rcd13ifvqfc0","pricing_plan_id":"cebpf4jnsgd1na2vs0mg"},{"bike_id":"b390b788-aa53-49e8-92de-c2b58aa681f2","system_id":"levelo_inurba_marseille","lat":43.29566,"lon":5.37498,"is_reserved":false,"is_disabled":false,"rental_uris":{"android":"levelo://app?vid=b390b788-aa53-49e8-92de-c2b58aa681f2","ios":"levelo://app?vid=b390b788-aa53-49e8-92de-c2b58aa681f2"},"vehicle_type_id":"4","last_reported":1739977800,"current_range_meters":16000,"station_id":"","pricing_plan_id":"cebpf4jnsgd1na2vs0mg"},{"bike_id":"e5e2ed65-0a50-46fd-af77-1264dac67336","system_id":"levelo_inurba_marseille","lat":43.2417,"lon":5.36393,"is_reserved":false,"is_disabled":false,"rental_uris":{"android":"levelo://app?vid=e5e2ed65-0a50-46fd-af77-1264dac67336","ios":"levelo://app?vid=e5e2ed65-0a50-46fd-af77-1264dac67336"},"vehicle_type_id":"4","last_reported":1739977800,"current_range_meters":16000,"station_id":"","pricing_plan_id":"cebpf4jnsgd1na2vs0mg"},{"bike_id":"b71742b5-b81b-43c4-ab46-e88543700a3d","system_id":"levelo_inurba_marseille","lat":43.29286,"lon":5.40113,"is_reserved":false,"is_disabled":false,"rental_uris":{"android":"levelo://app?vid=b71742b5-b81b-43c4-ab46-e88543700a3d","ios":"levelo://app?vid=b71742b5-b81b-43c4-ab46-e88543700a3d"},"vehicle_type_id":"4","last_reported":1739977800,"current_range_meters":16000,"station_id":"ce4bh312rcd13ifvqdk0","pricing_plan_id":"cebpf4jnsgd1na2vs0mg"},{"bike_id":"82de7fdf-fb6e-4296-bdd1-ecdfb5778c65","system_id":"levelo_inurba_marseille","lat":43.23171,"lon":5.43689,"is_reserved":false,"is_disabled":false,"rental_uris":{"android":"levelo://app?vid=82de7fdf-fb6e-4296-bdd1-ecdfb5778c65","ios":"levelo://app?vid=82de7fdf-fb6e-4296-bdd1-ecdfb5778c65"},"vehicle_type_id":"4","last_reported":1739977800,"current_range_meters":16000,"station_id":"ce4bhmp2rcd13ifvqgog","pricing_plan_id":"cebpf4jnsgd1na2vs0mg"},{"bike_id":"c445496b-1882-48af-8df4-1bf8a25b98fc","system_id":"levelo_inurba_marseille","lat":43.31332,"lon":5.39697,"is_reserved":false,"is_disabled":false,"rental_uris":{"android":"levelo://app?vid=c445496b-1882-48af-8df4-1bf8a25b98fc","ios":"levelo://app?vid=c445496b-1882-48af-8df4-1bf8a25b98fc"},"vehicle_type_id":"4","last_reported":1739977800,"current_range_meters":16000,"station_id":"ce4bgvp2rcd13ifvqcu0","pricing_plan_id":"cebpf4jnsgd1na2vs0mg"},{"bike_id":"ba379239-9216-4e46-a96c-a73988d910ff","system_id":"levelo_inurba_marseille","lat":43.26489,"lon":5.37146,"is_reserved":false,"is_disabled":false,"rental_uris":{"android":"levelo://app?vid=ba379239-9216-4e46-a96c-a73988d910ff","ios":"levelo://app?vid=ba379239-9216-4e46-a96c-a73988d910ff"},"vehicle_type_id":"4","last_reported":1739977800,"current_range_meters":16400,"station_id":"","pricing_plan_id":"cebpf4jnsgd1na2vs0mg"},{"bike_id":"94ce4c1f-b676-43e1-9e28-ed9f6f6c8e2b","system_id":"levelo_inurba_marseille","lat":43.23626,"lon":5.39147,"is_reserved":false,"is_disabled":false,"rental_uris":{"android":"levelo://app?vid=94ce4c1f-b676-43e1-9e28-ed9f6f6c8e2b","ios":"levelo://app?vid=94ce4c1f-b676-43e1-9e28-ed9f6f6c8e2b"},"vehicle_type_id":"4","last_reported":1739977800,"current_range_meters":16400,"station_id":"","pricing_plan_id":"cebpf4jnsgd1na2vs0mg"},{"bike_id":"6f2d037a-497e-4ce1-ad69-84316d52ca55","system_id":"levelo_inurba_marseille","lat":43.26946,"lon":5.40251,"is_reserved":false,"is_disabled":false,"rental_uris":{"android":"levelo://app?vid=6f2d037a-497e-4ce1-ad69-84316d52ca55","ios":"levelo://app?vid=6f2d037a-497e-4ce1-ad69-84316d52ca55"},"vehicle_type_id":"4","last_reported":1739977800,"current_range_meters":16400,"station_id":"cjm6bp8fraef2m0cb0m0","pricing_plan_id":"cebpf4jnsgd1na2vs0mg"},{"bike_id":"3cf409db-ea1f-40ef-9a60-ba2f1f323925","system_id":"levelo_inurba_marseille","lat":43.24178,"lon":5.39727,"is_reserved":false,"is_disabled":false,"rental_uris":{"android":"levelo://app?vid=3cf409db-ea1f-40ef-9a60-ba2f1f323925","ios":"levelo://app?vid=3cf409db-ea1f-40ef-9a60-ba2f1f323925"},"vehicle_type_id":"4","last_reported":1739977800,"current_range_meters":16400,"station_id":"ce4bhn12rcd13ifvqgpg","pricing_plan_id":"cebpf4jnsgd1na2vs0mg"},{"bike_id":"6c695163-13d1-4682-b513-311ea8d75027","system_id":"levelo_inurba_marseille","lat":43.31231,"lon":5.36877,"is_reserved":false,"is_disabled":false,"rental_uris":{"android":"levelo://app?vid=6c695163-13d1-4682-b513-311ea8d75027","ios":"levelo://app?vid=6c695163-13d1-4682-b513-311ea8d75027"},"vehicle_type_id":"4","last_reported":1739977800,"current_range_meters":16400,"station_id":"ce4bgl92rcd13ifvqbq0","pricing_plan_id":"cebpf4jnsgd1na2vs0mg"},{"bike_id":"07a36d76-1c58-4bbb-9e3b-5250573a05c3","system_id":"levelo_inurba_marseille","lat":43.29586,"lon":5.36741,"is_reserved":false,"is_disabled":false,"rental_uris":{"android":"levelo://app?vid=07a36d76-1c58-4bbb-9e3b-5250573a05c3","ios":"levelo://app?vid=07a36d76-1c58-4bbb-9e3b-5250573a05c3"},"vehicle_type_id":"4","last_reported":1739977800,"current_range_meters":16400,"station_id":"ce4bgph2rcd13ifvqc2g","pricing_plan_id":"cebpf4jnsgd1na2vs0mg"},{"bike_id":"bd354dd3-6006-4e9f-90f1-63f0410f8583","system_id":"levelo_inurba_marseille","lat":43.27385,"lon":5.36258,"is_reserved":false,"is_disabled":false,"rental_uris":{"android":"levelo://app?vid=bd354dd3-6006-4e9f-90f1-63f0410f8583","ios":"levelo://app?vid=bd354dd3-6006-4e9f-90f1-63f0410f8583"},"vehicle_type_id":"4","last_reported":1739977800,"current_range_meters":16400,"station_id":"ce4bhbh2rcd13ifvqeo0","pricing_plan_id":"cebpf4jnsgd1na2vs0mg"},{"bike_id":"8f4d3184-afa9-4a89-b927-bdefdd990afa","system_id":"levelo_inurba_marseille","lat":43.26211,"lon":5.40457,"is_reserved":false,"is_disabled":false,"rental_uris":{"android":"levelo://app?vid=8f4d3184-afa9-4a89-b927-bdefdd990afa","ios":"levelo://app?vid=8f4d3184-afa9-4a89-b927-bdefdd990afa"},"vehicle_type_id":"4","last_reported":1739977800,"current_range_meters":16400,"station_id":"ce4bhmh2rcd13ifvqgmg","pricing_plan_id":"cebpf4jnsgd1na2vs0mg"},{"bike_id":"bb1a4c2a-340a-4f5b-b8fd-fd20852a249e","system_id":"levelo_inurba_marseille","lat":43.2762,"lon":5.36109,"is_reserved":false,"is_disabled":false,"rental_uris":{"android":"levelo://app?vid=bb1a4c2a-340a-4f5b-b8fd-fd20852a249e","ios":"levelo://app?vid=bb1a4c2a-340a-4f5b-b8fd-fd20852a249e"},"vehicle_type_id":"4","last_reported":1739977800,"current_range_meters":16000,"station_id":"ce4bgj92rcd13ifvqbe0","pricing_plan_id":"cebpf4jnsgd1na2vs0mg"},{"bike_id":"521c07ee-8f56-418c-9167-93791e255dc4","system_id":"levelo_inurba_marseille","lat":43.28723,"lon":5.37938,"is_reserved":false,"is_disabled":false,"rental_uris":{"android":"levelo://app?vid=521c07ee-8f56-418c-9167-93791e255dc4","ios":"levelo://app?vid=521c07ee-8f56-418c-9167-93791e255dc4"},"vehicle_type_id":"4","last_reported":1739977800,"current_range_meters":16400,"station_id":"ce4bh9p2rcd13ifvqec0","pricing_plan_id":"cebpf4jnsgd1na2vs0mg"},{"bike_id":"1ff76743-7373-44c9-8a88-9ff69b66cd43","system_id":"levelo_inurba_marseille","lat":43.30964,"lon":5.39026,"is_reserved":false,"is_disabled":false,"rental_uris":{"android":"levelo://app?vid=1ff76743-7373-44c9-8a88-9ff69b66cd43","ios":"levelo://app?vid=1ff76743-7373-44c9-8a88-9ff69b66cd43"},"vehicle_type_id":"4","last_reported":1739977800,"current_range_meters":16400,"station_id":"","pricing_plan_id":"cebpf4jnsgd1na2vs0mg"},{"bike_id":"e645b05d-0c39-4cb8-bea8-ed8cefac4a7d","system_id":"levelo_inurba_marseille","lat":43.26564,"lon":5.39028,"is_reserved":false,"is_disabled":false,"rental_uris":{"android":"levelo://app?vid=e645b05d-0c39-4cb8-bea8-ed8cefac4a7d","ios":"levelo://app?vid=e645b05d-0c39-4cb8-bea8-ed8cefac4a7d"},"vehicle_type_id":"4","last_reported":1739977800,"current_range_meters":16400,"station_id":"ce4bhe12rcd13ifvqf30","pricing_plan_id":"cebpf4jnsgd1na2vs0mg"},{"bike_id":"d2611d09-e66a-4332-bb11-3e08c48537f7","system_id":"levelo_inurba_marseille","lat":43.23184,"lon":5.39991,"is_reserved":false,"is_disabled":false,"rental_uris":{"android":"levelo://app?vid=d2611d09-e66a-4332-bb11-3e08c48537f7","ios":"levelo://app?vid=d2611d09-e66a-4332-bb11-3e08c48537f7"},"vehicle_type_id":"4","last_reported":1739977800,"current_range_meters":15200,"station_id":"ce4bhn12rcd13ifvqgqg","pricing_plan_id":"cebpf4jnsgd1na2vs0mg"},{"bike_id":"f3344124-525f-4f03-8ffc-2baf0febeb97","system_id":"levelo_inurba_marseille","lat":43.30783,"lon":5.37658,"is_reserved":false,"is_disabled":false,"rental_uris":{"android":"levelo://app?vid=f3344124-525f-4f03-8ffc-2baf0febeb97","ios":"levelo://app?vid=f3344124-525f-4f03-8ffc-2baf0febeb97"},"vehicle_type_id":"4","last_reported":1739977800,"current_range_meters":16800,"station_id":"ce4bgv92rcd13ifvqcq0","pricing_plan_id":"cebpf4jnsgd1na2vs0mg"},{"bike_id":"f7298b9c-6b06-48b0-8b28-cf7ac59789e1","system_id":"levelo_inurba_marseille","lat":43.30909,"lon":5.3686,"is_reserved":false,"is_disabled":false,"rental_uris":{"android":"levelo://app?vid=f7298b9c-6b06-48b0-8b28-cf7ac59789e1","ios":"levelo://app?vid=f7298b9c-6b06-48b0-8b28-cf7ac59789e1"},"vehicle_type_id":"4","last_reported":1739977800,"current_range_meters":16800,"station_id":"ce4bgn92rcd13ifvqbvg","pricing_plan_id":"cebpf4jnsgd1na2vs0mg"},{"bike_id":"a6cd69ef-aa69-42ca-989b-065511c54650","system_id":"levelo_inurba_marseille","lat":43.29586,"lon":5.36741,"is_reserved":false,"is_disabled":false,"rental_uris":{"android":"levelo://app?vid=a6cd69ef-aa69-42ca-989b-065511c54650","ios":"levelo://app?vid=a6cd69ef-aa69-42ca-989b-065511c54650"},"vehicle_type_id":"4","last_reported":1739977800,"current_range_meters":16800,"station_id":"ce4bgph2rcd13ifvqc2g","pricing_plan_id":"cebpf4jnsgd1na2vs0mg"},{"bike_id":"b76bf30b-8b78-4be0-9668-2a20d616845e","system_id":"levelo_inurba_marseille","lat":43.26573,"lon":5.3901,"is_reserved":false,"is_disabled":false,"rental_uris":{"android":"levelo://app?vid=b76bf30b-8b78-4be0-9668-2a20d616845e","ios":"levelo://app?vid=b76bf30b-8b78-4be0-9668-2a20d616845e"},"vehicle_type_id":"4","last_reported":1739977800,"current_range_meters":16800,"station_id":"ce4bhe12rcd13ifvqf30","pricing_plan_id":"cebpf4jnsgd1na2vs0mg"},{"bike_id":"da2b722e-93db-446a-b1ae-ffe0a52e1de9","system_id":"levelo_inurba_marseille","lat":43.27692,"lon":5.38884,"is_reserved":false,"is_disabled":false,"rental_uris":{"android":"levelo://app?vid=da2b722e-93db-446a-b1ae-ffe0a52e1de9","ios":"levelo://app?vid=da2b722e-93db-446a-b1ae-ffe0a52e1de9"},"vehicle_type_id":"4","last_reported":1739977800,"current_range_meters":14800,"station_id":"ce4bhi12rcd13ifvqfo0","pricing_plan_id":"cebpf4jnsgd1na2vs0mg"},{"bike_id":"477ac2db-8f8c-4cbc-8427-0ab644b57a7a","system_id":"levelo_inurba_marseille","lat":43.25012,"lon":5.3891,"is_reserved":false,"is_disabled":false,"rental_uris":{"android":"levelo://app?vid=477ac2db-8f8c-4cbc-8427-0ab644b57a7a","ios":"levelo://app?vid=477ac2db-8f8c-4cbc-8427-0ab644b57a7a"},"vehicle_type_id":"4","last_reported":1739977800,"current_range_meters":16800,"station_id":"ce4bhgp2rcd13ifvqfd0","pricing_plan_id":"cebpf4jnsgd1na2vs0mg"},{"bike_id":"749511d9-4ffb-4693-b9cb-f6a866337302","system_id":"levelo_inurba_marseille","lat":43.30956,"lon":5.39076,"is_reserved":false,"is_disabled":false,"rental_uris":{"android":"levelo://app?vid=749511d9-4ffb-4693-b9cb-f6a866337302","ios":"levelo://app?vid=749511d9-4ffb-4693-b9cb-f6a866337302"},"vehicle_type_id":"4","last_reported":1739977800,"current_range_meters":16800,"station_id":"","pricing_plan_id":"cebpf4jnsgd1na2vs0mg"},{"bike_id":"78c3c67e-47e9-40e1-b436-a4e1e796b927","system_id":"levelo_inurba_marseille","lat":43.31205,"lon":5.37578,"is_reserved":false,"is_disabled":false,"rental_uris":{"android":"levelo://app?vid=78c3c67e-47e9-40e1-b436-a4e1e796b927","ios":"levelo://app?vid=78c3c67e-47e9-40e1-b436-a4e1e796b927"},"vehicle_type_id":"4","last_reported":1739977800,"current_range_meters":16800,"station_id":"ce4bguh2rcd13ifvqcj0","pricing_plan_id":"cebpf4jnsgd1na2vs0mg"},{"bike_id":"ded0db1a-8604-4a66-a55e-3d2e1afd59a3","system_id":"levelo_inurba_marseille","lat":43.28678,"lon":5.38656,"is_reserved":false,"is_disabled":false,"rental_uris":{"android":"levelo://app?vid=ded0db1a-8604-4a66-a55e-3d2e1afd59a3","ios":"levelo://app?vid=ded0db1a-8604-4a66-a55e-3d2e1afd59a3"},"vehicle_type_id":"4","last_reported":1739977800,"current_range_meters":16800,"station_id":"","pricing_plan_id":"cebpf4jnsgd1na2vs0mg"},{"bike_id":"d9102e21-6294-472e-8da2-16dfb746ec2b","system_id":"levelo_inurba_marseille","lat":43.28138,"lon":5.4457,"is_reserved":false,"is_disabled":false,"rental_uris":{"android":"levelo://app?vid=d9102e21-6294-472e-8da2-16dfb746ec2b","ios":"levelo://app?vid=d9102e21-6294-472e-8da2-16dfb746ec2b"},"vehicle_type_id":"4","last_reported":1739977800,"current_range_meters":16800,"station_id":"ce4bhnh2rcd13ifvqgtg","pricing_plan_id":"cebpf4jnsgd1na2vs0mg"},{"bike_id":"29ae1802-9d76-4286-a2d6-f211c81954fd","system_id":"levelo_inurba_marseille","lat":43.2315,"lon":5.43706,"is_reserved":false,"is_disabled":false,"rental_uris":{"android":"levelo://app?vid=29ae1802-9d76-4286-a2d6-f211c81954fd","ios":"levelo://app?vid=29ae1802-9d76-4286-a2d6-f211c81954fd"},"vehicle_type_id":"4","last_reported":1739977800,"current_range_meters":16800,"station_id":"ce4bhmp2rcd13ifvqgog","pricing_plan_id":"cebpf4jnsgd1na2vs0mg"},{"bike_id":"003c44c1-3cd5-48e6-afbd-3e395aa9e710","system_id":"levelo_inurba_marseille","lat":43.29913,"lon":5.43657,"is_reserved":false,"is_disabled":false,"rental_uris":{"android":"levelo://app?vid=003c44c1-3cd5-48e6-afbd-3e395aa9e710","ios":"levelo://app?vid=003c44c1-3cd5-48e6-afbd-3e395aa9e710"},"vehicle_type_id":"4","last_reported":1739977800,"current_range_meters":17200,"station_id":"ce4bhpp2rcd13ifvqhfg","pricing_plan_id":"cebpf4jnsgd1na2vs0mg"},{"bike_id":"bdc412a8-ab57-4942-907d-94e7ad50b3fa","system_id":"levelo_inurba_marseille","lat":43.25909,"lon":5.40891,"is_reserved":false,"is_disabled":false,"rental_uris":{"android":"levelo://app?vid=bdc412a8-ab57-4942-907d-94e7ad50b3fa","ios":"levelo://app?vid=bdc412a8-ab57-4942-907d-94e7ad50b3fa"},"vehicle_type_id":"4","last_reported":1739977800,"current_range_meters":17200,"station_id":"ce4bhm92rcd13ifvqglg","pricing_plan_id":"cebpf4jnsgd1na2vs0mg"},{"bike_id":"943618dd-7514-4f47-83fd-27b10f2d6c29","system_id":"levelo_inurba_marseille","lat":43.28445,"lon":5.35879,"is_reserved":false,"is_disabled":false,"rental_uris":{"android":"levelo://app?vid=943618dd-7514-4f47-83fd-27b10f2d6c29","ios":"levelo://app?vid=943618dd-7514-4f47-83fd-27b10f2d6c29"},"vehicle_type_id":"4","last_reported":1739977800,"current_range_meters":17200,"station_id":"ce4bhah2rcd13ifvqei0","pricing_plan_id":"cebpf4jnsgd1na2vs0mg"},{"bike_id":"014ffc93-64a2-48d7-9e39-bbf14956782c","system_id":"levelo_inurba_marseille","lat":43.27372,"lon":5.36249,"is_reserved":false,"is_disabled":false,"rental_uris":{"android":"levelo://app?vid=014ffc93-64a2-48d7-9e39-bbf14956782c","ios":"levelo://app?vid=014ffc93-64a2-48d7-9e39-bbf14956782c"},"vehicle_type_id":"4","last_reported":1739977800,"current_range_meters":17200,"station_id":"ce4bhbh2rcd13ifvqeo0","pricing_plan_id":"cebpf4jnsgd1na2vs0mg"},{"bike_id":"1ea494ee-95ad-4d1c-8562-6949f22e7cae","system_id":"levelo_inurba_marseille","lat":43.289856,"lon":5.359394,"is_reserved":false,"is_disabled":false,"rental_uris":{"android":"levelo://app?vid=1ea494ee-95ad-4d1c-8562-6949f22e7cae","ios":"levelo://app?vid=1ea494ee-95ad-4d1c-8562-6949f22e7cae"},"vehicle_type_id":"4","last_reported":1739977800,"current_range_meters":16000,"station_id":"ce4bha92rcd13ifvqeg0","pricing_plan_id":"cebpf4jnsgd1na2vs0mg"},{"bike_id":"d597df3d-c4fa-42c5-97f4-81e906a5ac12","system_id":"levelo_inurba_marseille","lat":43.30896,"lon":5.39659,"is_reserved":false,"is_disabled":false,"rental_uris":{"android":"levelo://app?vid=d597df3d-c4fa-42c5-97f4-81e906a5ac12","ios":"levelo://app?vid=d597df3d-c4fa-42c5-97f4-81e906a5ac12"},"vehicle_type_id":"4","last_reported":1739977800,"current_range_meters":17200,"station_id":"","pricing_plan_id":"cebpf4jnsgd1na2vs0mg"},{"bike_id":"e807669d-bdd9-4329-abc6-0f4472336465","system_id":"levelo_inurba_marseille","lat":43.29626,"lon":5.37728,"is_reserved":false,"is_disabled":false,"rental_uris":{"android":"levelo://app?vid=e807669d-bdd9-4329-abc6-0f4472336465","ios":"levelo://app?vid=e807669d-bdd9-4329-abc6-0f4472336465"},"vehicle_type_id":"4","last_reported":1739977800,"current_range_meters":14800,"station_id":"ce4bgi92rcd13ifvqb90","pricing_plan_id":"cebpf4jnsgd1na2vs0mg"},{"bike_id":"ad83c156-1bc9-4559-81c1-13cc14a8fb0b","system_id":"levelo_inurba_marseille","lat":43.27938,"lon":5.41047,"is_reserved":false,"is_disabled":false,"rental_uris":{"android":"levelo://app?vid=ad83c156-1bc9-4559-81c1-13cc14a8fb0b","ios":"levelo://app?vid=ad83c156-1bc9-4559-81c1-13cc14a8fb0b"},"vehicle_type_id":"4","last_reported":1739977800,"current_range_meters":17200,"station_id":"ce4bhnp2rcd13ifvqh0g","pricing_plan_id":"cebpf4jnsgd1na2vs0mg"},{"bike_id":"0ebe3bbe-3312-4854-8c5c-e41de3dd3614","system_id":"levelo_inurba_marseille","lat":43.27949,"lon":5.38705,"is_reserved":false,"is_disabled":false,"rental_uris":{"android":"levelo://app?vid=0ebe3bbe-3312-4854-8c5c-e41de3dd3614","ios":"levelo://app?vid=0ebe3bbe-3312-4854-8c5c-e41de3dd3614"},"vehicle_type_id":"4","last_reported":1739977800,"current_range_meters":17200,"station_id":"","pricing_plan_id":"cebpf4jnsgd1na2vs0mg"},{"bike_id":"6c9c8bd6-ad0f-4b8d-a2bc-9a73d0c24657","system_id":"levelo_inurba_marseille","lat":43.31338,"lon":5.36742,"is_reserved":false,"is_disabled":false,"rental_uris":{"android":"levelo://app?vid=6c9c8bd6-ad0f-4b8d-a2bc-9a73d0c24657","ios":"levelo://app?vid=6c9c8bd6-ad0f-4b8d-a2bc-9a73d0c24657"},"vehicle_type_id":"4","last_reported":1739977800,"current_range_meters":17200,"station_id":"ce4bgt92rcd13ifvqcf0","pricing_plan_id":"cebpf4jnsgd1na2vs0mg"},{"bike_id":"2fdc0de3-0b6f-443f-8905-d00ab28583fa","system_id":"levelo_inurba_marseille","lat":43.25901,"lon":5.40919,"is_reserved":false,"is_disabled":false,"rental_uris":{"android":"levelo://app?vid=2fdc0de3-0b6f-443f-8905-d00ab28583fa","ios":"levelo://app?vid=2fdc0de3-0b6f-443f-8905-d00ab28583fa"},"vehicle_type_id":"4","last_reported":1739977800,"current_range_meters":17200,"station_id":"ce4bhm92rcd13ifvqglg","pricing_plan_id":"cebpf4jnsgd1na2vs0mg"},{"bike_id":"efb58bf1-4403-4b9f-b67d-a8970e8c3a7f","system_id":"levelo_inurba_marseille","lat":43.25009,"lon":5.3891,"is_reserved":false,"is_disabled":false,"rental_uris":{"android":"levelo://app?vid=efb58bf1-4403-4b9f-b67d-a8970e8c3a7f","ios":"levelo://app?vid=efb58bf1-4403-4b9f-b67d-a8970e8c3a7f"},"vehicle_type_id":"4","last_reported":1739977800,"current_range_meters":17200,"station_id":"ce4bhgp2rcd13ifvqfd0","pricing_plan_id":"cebpf4jnsgd1na2vs0mg"},{"bike_id":"1a412dc3-d76d-4575-a0f0-bea5944d9b85","system_id":"levelo_inurba_marseille","lat":43.30545,"lon":5.36578,"is_reserved":false,"is_disabled":false,"rental_uris":{"android":"levelo://app?vid=1a412dc3-d76d-4575-a0f0-bea5944d9b85","ios":"levelo://app?vid=1a412dc3-d76d-4575-a0f0-bea5944d9b85"},"vehicle_type_id":"4","last_reported":1739977800,"current_range_meters":17200,"station_id":"","pricing_plan_id":"cebpf4jnsgd1na2vs0mg"},{"bike_id":"24422274-89fa-4a71-8136-2471e2d9789a","system_id":"levelo_inurba_marseille","lat":43.3049,"lon":5.37906,"is_reserved":false,"is_disabled":false,"rental_uris":{"android":"levelo://app?vid=24422274-89fa-4a71-8136-2471e2d9789a","ios":"levelo://app?vid=24422274-89fa-4a71-8136-2471e2d9789a"},"vehicle_type_id":"4","last_reported":1739977800,"current_range_meters":17200,"station_id":"ce4bgup2rcd13ifvqcn0","pricing_plan_id":"cebpf4jnsgd1na2vs0mg"},{"bike_id":"75355398-c356-4812-a08a-7e3beca8e074","system_id":"levelo_inurba_marseille","lat":43.30787,"lon":5.3765,"is_reserved":false,"is_disabled":false,"rental_uris":{"android":"levelo://app?vid=75355398-c356-4812-a08a-7e3beca8e074","ios":"levelo://app?vid=75355398-c356-4812-a08a-7e3beca8e074"},"vehicle_type_id":"4","last_reported":1739977800,"current_range_meters":17200,"station_id":"ce4bgv92rcd13ifvqcq0","pricing_plan_id":"cebpf4jnsgd1na2vs0mg"},{"bike_id":"8becd64c-893d-4a08-8876-b1598e031c70","system_id":"levelo_inurba_marseille","lat":43.27936,"lon":5.38723,"is_reserved":false,"is_disabled":true,"rental_uris":{"android":"levelo://app?vid=8becd64c-893d-4a08-8876-b1598e031c70","ios":"levelo://app?vid=8becd64c-893d-4a08-8876-b1598e031c70"},"vehicle_type_id":"4","last_reported":1739977800,"current_range_meters":17600,"station_id":"","pricing_plan_id":"cebpf4jnsgd1na2vs0mg"},{"bike_id":"608938a8-e205-4bb6-a2e3-9adacf4d851a","system_id":"levelo_inurba_marseille","lat":43.30433,"lon":5.38881,"is_reserved":false,"is_disabled":false,"rental_uris":{"android":"levelo://app?vid=608938a8-e205-4bb6-a2e3-9adacf4d851a","ios":"levelo://app?vid=608938a8-e205-4bb6-a2e3-9adacf4d851a"},"vehicle_type_id":"4","last_reported":1739977800,"current_range_meters":16800,"station_id":"ce4bgk12rcd13ifvqbi0","pricing_plan_id":"cebpf4jnsgd1na2vs0mg"},{"bike_id":"8efd2848-95c4-4edf-b2b0-33f8fb8f8c58","system_id":"levelo_inurba_marseille","lat":43.27495,"lon":5.4245,"is_reserved":false,"is_disabled":false,"rental_uris":{"android":"levelo://app?vid=8efd2848-95c4-4edf-b2b0-33f8fb8f8c58","ios":"levelo://app?vid=8efd2848-95c4-4edf-b2b0-33f8fb8f8c58"},"vehicle_type_id":"4","last_reported":1739977800,"current_range_meters":17200,"station_id":"ce4bhn92rcd13ifvqgrg","pricing_plan_id":"cebpf4jnsgd1na2vs0mg"},{"bike_id":"6dce2158-50fc-4310-a030-753414e65f3d","system_id":"levelo_inurba_marseille","lat":43.27993,"lon":5.41664,"is_reserved":false,"is_disabled":false,"rental_uris":{"android":"levelo://app?vid=6dce2158-50fc-4310-a030-753414e65f3d","ios":"levelo://app?vid=6dce2158-50fc-4310-a030-753414e65f3d"},"vehicle_type_id":"4","last_reported":1739977800,"current_range_meters":17600,"station_id":"","pricing_plan_id":"cebpf4jnsgd1na2vs0mg"},{"bike_id":"66b5a43e-2798-4c72-8acc-33d23152963b","system_id":"levelo_inurba_marseille","lat":43.27178,"lon":5.41002,"is_reserved":false,"is_disabled":false,"rental_uris":{"android":"levelo://app?vid=66b5a43e-2798-4c72-8acc-33d23152963b","ios":"levelo://app?vid=66b5a43e-2798-4c72-8acc-33d23152963b"},"vehicle_type_id":"4","last_reported":1739977800,"current_range_meters":17600,"station_id":"ce4bhl12rcd13ifvqgf0","pricing_plan_id":"cebpf4jnsgd1na2vs0mg"},{"bike_id":"5537d61a-762d-46ba-be8b-034c8c3973d8","system_id":"levelo_inurba_marseille","lat":43.29527,"lon":5.39043,"is_reserved":false,"is_disabled":false,"rental_uris":{"android":"levelo://app?vid=5537d61a-762d-46ba-be8b-034c8c3973d8","ios":"levelo://app?vid=5537d61a-762d-46ba-be8b-034c8c3973d8"},"vehicle_type_id":"4","last_reported":1739977800,"current_range_meters":17200,"station_id":"ce4bh3p2rcd13ifvqdp0","pricing_plan_id":"cebpf4jnsgd1na2vs0mg"},{"bike_id":"cd3b9b66-5eb0-4106-81a5-f22043aa80e8","system_id":"levelo_inurba_marseille","lat":43.30609,"lon":5.37223,"is_reserved":false,"is_disabled":false,"rental_uris":{"android":"levelo://app?vid=cd3b9b66-5eb0-4106-81a5-f22043aa80e8","ios":"levelo://app?vid=cd3b9b66-5eb0-4106-81a5-f22043aa80e8"},"vehicle_type_id":"4","last_reported":1739977800,"current_range_meters":17600,"station_id":"ce4bgqh2rcd13ifvqc4g","pricing_plan_id":"cebpf4jnsgd1na2vs0mg"},{"bike_id":"d0c84f92-a6e7-4733-95b6-c1a2f807f81a","system_id":"levelo_inurba_marseille","lat":43.259344,"lon":5.409127,"is_reserved":false,"is_disabled":false,"rental_uris":{"android":"levelo://app?vid=d0c84f92-a6e7-4733-95b6-c1a2f807f81a","ios":"levelo://app?vid=d0c84f92-a6e7-4733-95b6-c1a2f807f81a"},"vehicle_type_id":"4","last_reported":1739977800,"current_range_meters":17600,"station_id":"ce4bhip2rcd13ifvqft0","pricing_plan_id":"cebpf4jnsgd1na2vs0mg"},{"bike_id":"c89a8819-7c4b-485f-a47b-3d6d0c4fa1f8","system_id":"levelo_inurba_marseille","lat":43.30931,"lon":5.36901,"is_reserved":false,"is_disabled":false,"rental_uris":{"android":"levelo://app?vid=c89a8819-7c4b-485f-a47b-3d6d0c4fa1f8","ios":"levelo://app?vid=c89a8819-7c4b-485f-a47b-3d6d0c4fa1f8"},"vehicle_type_id":"4","last_reported":1739977800,"current_range_meters":18800,"station_id":"ce4bgl92rcd13ifvqbq0","pricing_plan_id":"cebpf4jnsgd1na2vs0mg"},{"bike_id":"c4a3edec-15c0-4661-9e72-60647949fbf3","system_id":"levelo_inurba_marseille","lat":43.30512,"lon":5.3647,"is_reserved":false,"is_disabled":false,"rental_uris":{"android":"levelo://app?vid=c4a3edec-15c0-4661-9e72-60647949fbf3","ios":"levelo://app?vid=c4a3edec-15c0-4661-9e72-60647949fbf3"},"vehicle_type_id":"4","last_reported":1739977800,"current_range_meters":18000,"station_id":"","pricing_plan_id":"cebpf4jnsgd1na2vs0mg"},{"bike_id":"75673006-1fda-46a1-a573-0e1cfeae28aa","system_id":"levelo_inurba_marseille","lat":43.29481,"lon":5.38282,"is_reserved":false,"is_disabled":false,"rental_uris":{"android":"levelo://app?vid=75673006-1fda-46a1-a573-0e1cfeae28aa","ios":"levelo://app?vid=75673006-1fda-46a1-a573-0e1cfeae28aa"},"vehicle_type_id":"4","last_reported":1739977800,"current_range_meters":18000,"station_id":"","pricing_plan_id":"cebpf4jnsgd1na2vs0mg"},{"bike_id":"b18f27df-7990-4f77-a03e-7ebc0e02f50a","system_id":"levelo_inurba_marseille","lat":43.30436,"lon":5.38882,"is_reserved":false,"is_disabled":false,"rental_uris":{"android":"levelo://app?vid=b18f27df-7990-4f77-a03e-7ebc0e02f50a","ios":"levelo://app?vid=b18f27df-7990-4f77-a03e-7ebc0e02f50a"},"vehicle_type_id":"4","last_reported":1739977800,"current_range_meters":18000,"station_id":"ce4bgk12rcd13ifvqbi0","pricing_plan_id":"cebpf4jnsgd1na2vs0mg"},{"bike_id":"7398b122-f9d0-4656-98df-fac72d8a2764","system_id":"levelo_inurba_marseille","lat":43.29226,"lon":5.36056,"is_reserved":false,"is_disabled":false,"rental_uris":{"android":"levelo://app?vid=7398b122-f9d0-4656-98df-fac72d8a2764","ios":"levelo://app?vid=7398b122-f9d0-4656-98df-fac72d8a2764"},"vehicle_type_id":"4","last_reported":1739977800,"current_range_meters":18000,"station_id":"","pricing_plan_id":"cebpf4jnsgd1na2vs0mg"},{"bike_id":"0f119bb9-42f5-484d-a273-90a601312646","system_id":"levelo_inurba_marseille","lat":43.27072,"lon":5.42302,"is_reserved":false,"is_disabled":false,"rental_uris":{"android":"levelo://app?vid=0f119bb9-42f5-484d-a273-90a601312646","ios":"levelo://app?vid=0f119bb9-42f5-484d-a273-90a601312646"},"vehicle_type_id":"4","last_reported":1739977800,"current_range_meters":18000,"station_id":"ce4bhk92rcd13ifvqgb0","pricing_plan_id":"cebpf4jnsgd1na2vs0mg"},{"bike_id":"3bad0b07-fa7a-4cc7-9650-b1214bfaef19","system_id":"levelo_inurba_marseille","lat":43.28152,"lon":5.4264,"is_reserved":false,"is_disabled":false,"rental_uris":{"android":"levelo://app?vid=3bad0b07-fa7a-4cc7-9650-b1214bfaef19","ios":"levelo://app?vid=3bad0b07-fa7a-4cc7-9650-b1214bfaef19"},"vehicle_type_id":"4","last_reported":1739977800,"current_range_meters":18800,"station_id":"","pricing_plan_id":"cebpf4jnsgd1na2vs0mg"},{"bike_id":"0e264fa6-28bd-4e4f-8cac-e65b56c3bac1","system_id":"levelo_inurba_marseille","lat":43.2992,"lon":5.38131,"is_reserved":false,"is_disabled":false,"rental_uris":{"android":"levelo://app?vid=0e264fa6-28bd-4e4f-8cac-e65b56c3bac1","ios":"levelo://app?vid=0e264fa6-28bd-4e4f-8cac-e65b56c3bac1"},"vehicle_type_id":"4","last_reported":1739977800,"current_range_meters":18800,"station_id":"","pricing_plan_id":"cebpf4jnsgd1na2vs0mg"},{"bike_id":"e67c5e17-68ee-4b02-8ece-0b8d6cccdbab","system_id":"levelo_inurba_marseille","lat":43.23183,"lon":5.39986,"is_reserved":false,"is_disabled":false,"rental_uris":{"android":"levelo://app?vid=e67c5e17-68ee-4b02-8ece-0b8d6cccdbab","ios":"levelo://app?vid=e67c5e17-68ee-4b02-8ece-0b8d6cccdbab"},"vehicle_type_id":"4","last_reported":1739977800,"current_range_meters":18000,"station_id":"ce4bhn12rcd13ifvqgqg","pricing_plan_id":"cebpf4jnsgd1na2vs0mg"},{"bike_id":"378a21a7-b1ec-4051-850d-b470f3510d96","system_id":"levelo_inurba_marseille","lat":43.2685,"lon":5.40188,"is_reserved":false,"is_disabled":true,"rental_uris":{"android":"levelo://app?vid=378a21a7-b1ec-4051-850d-b470f3510d96","ios":"levelo://app?vid=378a21a7-b1ec-4051-850d-b470f3510d96"},"vehicle_type_id":"4","last_reported":1739977800,"current_range_meters":18800,"station_id":"ce501612rcd8frsf0b60","pricing_plan_id":"cebpf4jnsgd1na2vs0mg"},{"bike_id":"867e49ca-1fcf-4c4a-b641-c20eee771353","system_id":"levelo_inurba_marseille","lat":43.28151,"lon":5.42633,"is_reserved":false,"is_disabled":false,"rental_uris":{"android":"levelo://app?vid=867e49ca-1fcf-4c4a-b641-c20eee771353","ios":"levelo://app?vid=867e49ca-1fcf-4c4a-b641-c20eee771353"},"vehicle_type_id":"4","last_reported":1739977800,"current_range_meters":18800,"station_id":"","pricing_plan_id":"cebpf4jnsgd1na2vs0mg"},{"bike_id":"4140501a-5eac-4b5b-98fa-2e9413d20fa1","system_id":"levelo_inurba_marseille","lat":43.31231,"lon":5.36861,"is_reserved":false,"is_disabled":false,"rental_uris":{"android":"levelo://app?vid=4140501a-5eac-4b5b-98fa-2e9413d20fa1","ios":"levelo://app?vid=4140501a-5eac-4b5b-98fa-2e9413d20fa1"},"vehicle_type_id":"4","last_reported":1739977800,"current_range_meters":18800,"station_id":"ce4bgl92rcd13ifvqbq0","pricing_plan_id":"cebpf4jnsgd1na2vs0mg"},{"bike_id":"3addd8d2-327f-4e60-8639-267e28d7c956","system_id":"levelo_inurba_marseille","lat":43.28692,"lon":5.38641,"is_reserved":false,"is_disabled":true,"rental_uris":{"android":"levelo://app?vid=3addd8d2-327f-4e60-8639-267e28d7c956","ios":"levelo://app?vid=3addd8d2-327f-4e60-8639-267e28d7c956"},"vehicle_type_id":"4","last_reported":1739977800,"current_range_meters":18800,"station_id":"","pricing_plan_id":"cebpf4jnsgd1na2vs0mg"},{"bike_id":"78aff22a-4f6d-4c8f-964b-4cb5625ca37c","system_id":"levelo_inurba_marseille","lat":43.29638,"lon":5.3716,"is_reserved":false,"is_disabled":false,"rental_uris":{"android":"levelo://app?vid=78aff22a-4f6d-4c8f-964b-4cb5625ca37c","ios":"levelo://app?vid=78aff22a-4f6d-4c8f-964b-4cb5625ca37c"},"vehicle_type_id":"4","last_reported":1739977800,"current_range_meters":18800,"station_id":"ce4bgnh2rcd13ifvqc0g","pricing_plan_id":"cebpf4jnsgd1na2vs0mg"},{"bike_id":"802fdee2-aef9-40f6-ac74-b731e2118112","system_id":"levelo_inurba_marseille","lat":43.29588,"lon":5.36746,"is_reserved":false,"is_disabled":false,"rental_uris":{"android":"levelo://app?vid=802fdee2-aef9-40f6-ac74-b731e2118112","ios":"levelo://app?vid=802fdee2-aef9-40f6-ac74-b731e2118112"},"vehicle_type_id":"4","last_reported":1739977800,"current_range_meters":18800,"station_id":"ce4bgph2rcd13ifvqc2g","pricing_plan_id":"cebpf4jnsgd1na2vs0mg"},{"bike_id":"278cf214-fcec-4f5f-a4e3-f4998d63c4c9","system_id":"levelo_inurba_marseille","lat":43.250413,"lon":5.37539,"is_reserved":false,"is_disabled":false,"rental_uris":{"android":"levelo://app?vid=278cf214-fcec-4f5f-a4e3-f4998d63c4c9","ios":"levelo://app?vid=278cf214-fcec-4f5f-a4e3-f4998d63c4c9"},"vehicle_type_id":"4","last_reported":1739977800,"current_range_meters":19200,"station_id":"ce4bhgh2rcd13ifvqfb0","pricing_plan_id":"cebpf4jnsgd1na2vs0mg"},{"bike_id":"24b034ae-81d8-4b0e-9d7b-9309f18a47ae","system_id":"levelo_inurba_marseille","lat":43.29153,"lon":5.37193,"is_reserved":false,"is_disabled":false,"rental_uris":{"android":"levelo://app?vid=24b034ae-81d8-4b0e-9d7b-9309f18a47ae","ios":"levelo://app?vid=24b034ae-81d8-4b0e-9d7b-9309f18a47ae"},"vehicle_type_id":"4","last_reported":1739977800,"current_range_meters":19200,"station_id":"","pricing_plan_id":"cebpf4jnsgd1na2vs0mg"},{"bike_id":"0a9e6fa4-2c93-4e05-a818-d194ccebc204","system_id":"levelo_inurba_marseille","lat":43.27165,"lon":5.42654,"is_reserved":false,"is_disabled":false,"rental_uris":{"android":"levelo://app?vid=0a9e6fa4-2c93-4e05-a818-d194ccebc204","ios":"levelo://app?vid=0a9e6fa4-2c93-4e05-a818-d194ccebc204"},"vehicle_type_id":"4","last_reported":1739977800,"current_range_meters":19200,"station_id":"ce4bhk92rcd13ifvqgb0","pricing_plan_id":"cebpf4jnsgd1na2vs0mg"},{"bike_id":"53324156-0b5f-4ee4-beb8-65d71f0308f4","system_id":"levelo_inurba_marseille","lat":43.26548,"lon":5.39073,"is_reserved":false,"is_disabled":true,"rental_uris":{"android":"levelo://app?vid=53324156-0b5f-4ee4-beb8-65d71f0308f4","ios":"levelo://app?vid=53324156-0b5f-4ee4-beb8-65d71f0308f4"},"vehicle_type_id":"4","last_reported":1739977800,"current_range_meters":19200,"station_id":"","pricing_plan_id":"cebpf4jnsgd1na2vs0mg"},{"bike_id":"38691670-cda3-41ac-97a5-fbb554dbc4a4","system_id":"levelo_inurba_marseille","lat":43.2693,"lon":5.40263,"is_reserved":false,"is_disabled":false,"rental_uris":{"android":"levelo://app?vid=38691670-cda3-41ac-97a5-fbb554dbc4a4","ios":"levelo://app?vid=38691670-cda3-41ac-97a5-fbb554dbc4a4"},"vehicle_type_id":"4","last_reported":1739977800,"current_range_meters":19200,"station_id":"cjm6bp8fraef2m0cb0m0","pricing_plan_id":"cebpf4jnsgd1na2vs0mg"},{"bike_id":"03bb80d2-2d58-477e-8d77-d8a9b94a8f21","system_id":"levelo_inurba_marseille","lat":43.2378,"lon":5.40345,"is_reserved":false,"is_disabled":false,"rental_uris":{"android":"levelo://app?vid=03bb80d2-2d58-477e-8d77-d8a9b94a8f21","ios":"levelo://app?vid=03bb80d2-2d58-477e-8d77-d8a9b94a8f21"},"vehicle_type_id":"4","last_reported":1739977800,"current_range_meters":19200,"station_id":"","pricing_plan_id":"cebpf4jnsgd1na2vs0mg"},{"bike_id":"cef0ea3d-3620-4613-8a98-512ceddb2769","system_id":"levelo_inurba_marseille","lat":43.27203,"lon":5.40971,"is_reserved":false,"is_disabled":false,"rental_uris":{"android":"levelo://app?vid=cef0ea3d-3620-4613-8a98-512ceddb2769","ios":"levelo://app?vid=cef0ea3d-3620-4613-8a98-512ceddb2769"},"vehicle_type_id":"4","last_reported":1739977800,"current_range_meters":19200,"station_id":"ce4bhl12rcd13ifvqgf0","pricing_plan_id":"cebpf4jnsgd1na2vs0mg"},{"bike_id":"751d2cf4-fa99-4a3f-9556-3ff54793f80a","system_id":"levelo_inurba_marseille","lat":43.25829,"lon":5.39414,"is_reserved":false,"is_disabled":false,"rental_uris":{"android":"levelo://app?vid=751d2cf4-fa99-4a3f-9556-3ff54793f80a","ios":"levelo://app?vid=751d2cf4-fa99-4a3f-9556-3ff54793f80a"},"vehicle_type_id":"4","last_reported":1739977800,"current_range_meters":19200,"station_id":"ce4bhip2rcd13ifvqft0","pricing_plan_id":"cebpf4jnsgd1na2vs0mg"},{"bike_id":"82d5e4f6-b640-433b-a216-fb7475df50d5","system_id":"levelo_inurba_marseille","lat":43.27564,"lon":5.38422,"is_reserved":false,"is_disabled":false,"rental_uris":{"android":"levelo://app?vid=82d5e4f6-b640-433b-a216-fb7475df50d5","ios":"levelo://app?vid=82d5e4f6-b640-433b-a216-fb7475df50d5"},"vehicle_type_id":"4","last_reported":1739977800,"current_range_meters":19200,"station_id":"ce4bhh92rcd13ifvqfi0","pricing_plan_id":"cebpf4jnsgd1na2vs0mg"},{"bike_id":"d51f5e3e-5f60-4df2-94ae-60b240d1edf3","system_id":"levelo_inurba_marseille","lat":43.23191,"lon":5.39975,"is_reserved":false,"is_disabled":false,"rental_uris":{"android":"levelo://app?vid=d51f5e3e-5f60-4df2-94ae-60b240d1edf3","ios":"levelo://app?vid=d51f5e3e-5f60-4df2-94ae-60b240d1edf3"},"vehicle_type_id":"4","last_reported":1739977800,"current_range_meters":19200,"station_id":"ce4bhn12rcd13ifvqgqg","pricing_plan_id":"cebpf4jnsgd1na2vs0mg"},{"bike_id":"c838ba4a-1945-4eb3-8244-8e0c99348d8c","system_id":"levelo_inurba_marseille","lat":43.31117,"lon":5.3777,"is_reserved":false,"is_disabled":false,"rental_uris":{"android":"levelo://app?vid=c838ba4a-1945-4eb3-8244-8e0c99348d8c","ios":"levelo://app?vid=c838ba4a-1945-4eb3-8244-8e0c99348d8c"},"vehicle_type_id":"4","last_reported":1739977800,"current_range_meters":19200,"station_id":"ce4bgt92rcd13ifvqcg0","pricing_plan_id":"cebpf4jnsgd1na2vs0mg"},{"bike_id":"63d3fd56-a06f-4866-837b-543be86ed15c","system_id":"levelo_inurba_marseille","lat":43.30795,"lon":5.36882,"is_reserved":false,"is_disabled":false,"rental_uris":{"android":"levelo://app?vid=63d3fd56-a06f-4866-837b-543be86ed15c","ios":"levelo://app?vid=63d3fd56-a06f-4866-837b-543be86ed15c"},"vehicle_type_id":"4","last_reported":1739977800,"current_range_meters":19600,"station_id":"ce4bgl92rcd13ifvqbq0","pricing_plan_id":"cebpf4jnsgd1na2vs0mg"},