{"last_updated":1741208909,"ttl":60,"version":"2.2","data":{"bikes":[{"bike_id":"301728fb-e011-4fc7-851f-5794c7956cca","system_id":"levelo_inurba_marseille","lat":43.28076,"lon":5.39662,"is_reserved":false,"is_disabled":false,"rental_uris":{"android":"levelo://app?vid=301728fb-e011-4fc7-851f-5794c7956cca","ios":"levelo://app?vid=301728fb-e011-4fc7-851f-5794c7956cca"},"vehicle_type_id":"4","last_reported":1741208909,"current_range_meters":2800,"station_id":"ce4bho12rcd13ifvqh2g","pricing_plan_id":"cebpf4jnsgd1na2vs0mg"},{"bike_id":"2cc97022-8700-486a-b376-4b1b5236a217","system_id":"levelo_inurba_marseille","lat":43.301741,"lon":5.37605,"is_reserved":false,"is_disabled":false,"rental_uris":{"android":"levelo://app?vid=2cc97022-8700-486a-b376-4b1b5236a217","ios":"levelo://app?vid=2cc97022-8700-486a-b376-4b1b5236a217"},"vehicle_type_id":"4","last_reported":1741208909,"current_range_meters":4400,"station_id":"ce4bgup2rcd13ifvqcn0","pricing_plan_id":"cebpf4jnsgd1na2vs0mg"},{"bike_id":"7d2f9b9c-63fb-4ece-94e6-f79a68447953","system_id":"levelo_inurba_marseille","lat":43.30802,"lon":5.38148,"is_reserved":false,"is_disabled":false,"rental_uris":{"android":"levelo://app?vid=7d2f9b9c-63fb-4ece-94e6-f79a68447953","ios":"levelo://app?vid=7d2f9b9c-63fb-4ece-94e6-f79a68447953"},"vehicle_type_id":"4","last_reported":1741208909,"current_range_meters":3200,"station_id":"ce4bgt12rcd13ifvqce0","pricing_plan_id":"cebpf4jnsgd1na2vs0mg"},{"bike_id":"a141523b-e80c-4451-b147-9fe54c90ca73","system_id":"levelo_inurba_marseille","lat":43.31285,"lon":5.40157,"is_reserved":false,"is_disabled":false,"rental_uris":{"android":"levelo://app?vid=a141523b-e80c-4451-b147-9fe54c90ca73","ios":"levelo://app?vid=a141523b-e80c-4451-b147-9fe54c90ca73"},"vehicle_type_id":"4","last_reported":1741208909,"current_range_meters":3200,"station_id":"ce4bh092rcd13ifvqd30","pricing_plan_id":"cebpf4jnsgd1na2vs0mg"},{"bike_id":"2b68ff7b-dd0e-4b2b-889b-2c2839126011","system_id":"levelo_inurba_marseille","lat":43.29533,"lon":5.3941,"is_reserved":false,"is_disabled":false,"rental_uris":{"android":"levelo://app?vid=2b68ff7b-dd0e-4b2b-889b-2c2839126011","ios":"levelo://app?vid=2b68ff7b-dd0e-4b2b-889b-2c2839126011"},"vehicle_type_id":"4","last_reported":1741208909,"current_range_meters":3200,"station_id":"ce4bh292rcd13ifvqdf0","pricing_plan_id":"cebpf4jnsgd1na2vs0mg"},{"bike_id":"48913d81-46e5-42c6-a6c4-495d804f7c10","system_id":"levelo_inurba_marseille","lat":43.27822,"lon":5.40708,"is_reserved":false,"is_disabled":false,"rental_uris":{"android":"levelo://app?vid=48913d81-46e5-42c6-a6c4-495d804f7c10","ios":"levelo://app?vid=48913d81-46e5-42c6-a6c4-495d804f7c10"},"vehicle_type_id":"4","last_reported":1741208909,"current_range_meters":3200,"station_id":"ce4bhnh2rcd13ifvqgtg","pricing_plan_id":"cebpf4jnsgd1na2vs0mg"},{"bike_id":"82acd4ac-b6f1-4b8a-a919-2b9088b6e367","system_id":"levelo_inurba_marseille","lat":43.31496,"lon":5.37311,"is_reserved":false,"is_disabled":false,"rental_uris":{"android":"levelo://app?vid=82acd4ac-b6f1-4b8a-a919-2b9088b6e367","ios":"levelo://app?vid=82acd4ac-b6f1-4b8a-a919-2b9088b6e367"},"vehicle_type_id":"4","last_reported":1741208909,"current_range_meters":3600,"station_id":"ce4bgt12rcd13ifvqcd0","pricing_plan_id":"cebpf4jnsgd1na2vs0mg"},{"bike_id":"7597b86b-b7b2-4403-87e2-4cb63bd21fad","system_id":"levelo_inurba_marseille","lat":43.3091,"lon":5.39656,"is_reserved":false,"is_disabled":false,"rental_uris":{"android":"levelo://app?vid=7597b86b-b7b2-4403-87e2-4cb63bd21fad","ios":"levelo://app?vid=7597b86b-b7b2-4403-87e2-4cb63bd21fad"},"vehicle_type_id":"4","last_reported":1741208909,"current_range_meters":3600,"station_id":"ce4bh012rcd13ifvqcv0","pricing_plan_id":"cebpf4jnsgd1na2vs0mg"},{"bike_id":"dc132630-b430-4d06-bd86-72bcb43762e5","system_id":"levelo_inurba_marseille","lat":43.28934,"lon":5.3664,"is_reserved":false,"is_disabled":false,"rental_uris":{"android":"levelo://app?vid=dc132630-b430-4d06-bd86-72bcb43762e5","ios":"levelo://app?vid=dc132630-b430-4d06-bd86-72bcb43762e5"},"vehicle_type_id":"4","last_reported":1741208909,"current_range_meters":4000,"station_id":"ce4bhap2rcd13ifvqek0","pricing_plan_id":"cebpf4jnsgd1na2vs0mg"},{"bike_id":"f7e44977-20e7-4738-914d-f434472e0b37","system_id":"levelo_inurba_marseille","lat":43.28003,"lon":5.40017,"is_reserved":false,"is_disabled":false,"rental_uris":{"android":"levelo://app?vid=f7e44977-20e7-4738-914d-f434472e0b37","ios":"levelo://app?vid=f7e44977-20e7-4738-914d-f434472e0b37"},"vehicle_type_id":"4","last_reported":1741208909,"current_range_meters":4400,"station_id":"ce4bho92rcd13ifvqh4g","pricing_plan_id":"cebpf4jnsgd1na2vs0mg"},{"bike_id":"695baad2-8431-4d55-806b-5b5603cc8371","system_id":"levelo_inurba_marseille","lat":43.30257,"lon":5.40053,"is_reserved":false,"is_disabled":false,"rental_uris":{"android":"levelo://app?vid=695baad2-8431-4d55-806b-5b5603cc8371","ios":"levelo://app?vid=695baad2-8431-4d55-806b-5b5603cc8371"},"vehicle_type_id":"4","last_reported":1741208909,"current_range_meters":4400,"station_id":"ce4bgvh2rcd13ifvqcs0","pricing_plan_id":"cebpf4jnsgd1na2vs0mg"},{"bike_id":"f41a4ff6-4818-4535-9355-d88523b5e726","system_id":"levelo_inurba_marseille","lat":43.29425,"lon":5.38627,"is_reserved":false,"is_disabled":false,"rental_uris":{"android":"levelo://app?vid=f41a4ff6-4818-4535-9355-d88523b5e726","ios":"levelo://app?vid=f41a4ff6-4818-4535-9355-d88523b5e726"},"vehicle_type_id":"4","last_reported":1741208909,"current_range_meters":4400,"station_id":"ce4bh2h2rcd13ifvqdh0","pricing_plan_id":"cebpf4jnsgd1na2vs0mg"},{"bike_id":"8fe93df6-2fe6-41ee-aeb3-48d22ff05290","system_id":"levelo_inurba_marseille","lat":43.29163,"lon":5.38602,"is_reserved":false,"is_disabled":false,"rental_uris":{"android":"levelo://app?vid=8fe93df6-2fe6-41ee-aeb3-48d22ff05290","ios":"levelo://app?vid=8fe93df6-2fe6-41ee-aeb3-48d22ff05290"},"vehicle_type_id":"4","last_reported":1741208909,"current_range_meters":4800,"station_id":"","pricing_plan_id":"cebpf4jnsgd1na2vs0mg"},{"bike_id":"96d49de8-edfd-4563-affb-b806978e8f18","system_id":"levelo_inurba_marseille","lat":43.29521,"lon":5.39405,"is_reserved":false,"is_disabled":false,"rental_uris":{"android":"levelo://app?vid=96d49de8-edfd-4563-affb-b806978e8f18","ios":"levelo://app?vid=96d49de8-edfd-4563-affb-b806978e8f18"},"vehicle_type_id":"4","last_reported":1741208909,"current_range_meters":4800,"station_id":"ce4bh292rcd13ifvqdf0","pricing_plan_id":"cebpf4jnsgd1na2vs0mg"},{"bike_id":"4d96a45d-8e1d-4f5c-846e-3a9ab83111fb","system_id":"levelo_inurba_marseille","lat":43.32371,"lon":5.36783,"is_reserved":false,"is_disabled":false,"rental_uris":{"android":"levelo://app?vid=4d96a45d-8e1d-4f5c-846e-3a9ab83111fb","ios":"levelo://app?vid=4d96a45d-8e1d-4f5c-846e-3a9ab83111fb"},"vehicle_type_id":"4","last_reported":1741208909,"current_range_meters":4800,"station_id":"ce4bhsh2rcd13ifvqi2g","pricing_plan_id":"cebpf4jnsgd1na2vs0mg"},{"bike_id":"50459365-78a9-4a1c-afb7-d3fdc90f127d","system_id":"levelo_inurba_marseille","lat":43.27819,"lon":5.40719,"is_reserved":false,"is_disabled":false,"rental_uris":{"android":"levelo://app?vid=50459365-78a9-4a1c-afb7-d3fdc90f127d","ios":"levelo://app?vid=50459365-78a9-4a1c-afb7-d3fdc90f127d"},"vehicle_type_id":"4","last_reported":1741208909,"current_range_meters":4800,"station_id":"ce4bhnh2rcd13ifvqgtg","pricing_plan_id":"cebpf4jnsgd1na2vs0mg"},{"bike_id":"ee1d2ad1-36ca-49dd-a328-f2a9a9994ecb","system_id":"levelo_inurba_marseille","lat":43.31067,"lon":5.38155,"is_reserved":false,"is_disabled":false,"rental_uris":{"android":"levelo://app?vid=ee1d2ad1-36ca-49dd-a328-f2a9a9994ecb","ios":"levelo://app?vid=ee1d2ad1-36ca-49dd-a328-f2a9a9994ecb"},"vehicle_type_id":"4","last_reported":1741208909,"current_range_meters":6000,"station_id":"","pricing_plan_id":"cebpf4jnsgd1na2vs0mg"},{"bike_id":"a253597c-dc9f-468f-a86d-6f7713faf907","system_id":"levelo_inurba_marseille","lat":43.29607,"lon":5.3811,"is_reserved":false,"is_disabled":false,"rental_uris":{"android":"levelo://app?vid=a253597c-dc9f-468f-a86d-6f7713faf907","ios":"levelo://app?vid=a253597c-dc9f-468f-a86d-6f7713faf907"},"vehicle_type_id":"4","last_reported":1741208909,"current_range_meters":6000,"station_id":"ce4bgl12rcd13ifvqbo0","pricing_plan_id":"cebpf4jnsgd1na2vs0mg"},{"bike_id":"cd9a4dea-bb7f-4ce9-a444-e9fd4bb57e2e","system_id":"levelo_inurba_marseille","lat":43.29705,"lon":5.366048,"is_reserved":false,"is_disabled":false,"rental_uris":{"android":"levelo://app?vid=cd9a4dea-bb7f-4ce9-a444-e9fd4bb57e2e","ios":"levelo://app?vid=cd9a4dea-bb7f-4ce9-a444-e9fd4bb57e2e"},"vehicle_type_id":"4","last_reported":1741208909,"current_range_meters":6000,"station_id":"ce4bgn12rcd13ifvqbt0","pricing_plan_id":"cebpf4jnsgd1na2vs0mg"},{"bike_id":"00b0bef8-f7ae-4a46-b443-14ff9983a638","system_id":"levelo_inurba_marseille","lat":43.28402,"lon":5.37491,"is_reserved":false,"is_disabled":false,"rental_uris":{"android":"levelo://app?vid=00b0bef8-f7ae-4a46-b443-14ff9983a638","ios":"levelo://app?vid=00b0bef8-f7ae-4a46-b443-14ff9983a638"},"vehicle_type_id":"4","last_reported":1741208909,"current_range_meters":6400,"station_id":"ce4bh412rcd13ifvqds0","pricing_plan_id":"cebpf4jnsgd1na2vs0mg"},{"bike_id":"aeae0725-18e5-45c0-930d-65fcf691c0ec","system_id":"levelo_inurba_marseille","lat":43.26226,"lon":5.4045,"is_reserved":false,"is_disabled":false,"rental_uris":{"android":"levelo://app?vid=aeae0725-18e5-45c0-930d-65fcf691c0ec","ios":"levelo://app?vid=aeae0725-18e5-45c0-930d-65fcf691c0ec"},"vehicle_type_id":"4","last_reported":1741208909,"current_range_meters":6000,"station_id":"ce4bhmh2rcd13ifvqgmg","pricing_plan_id":"cebpf4jnsgd1na2vs0mg"},{"bike_id":"19b98bf7-d816-4d11-a907-29b4557cffc0","system_id":"levelo_inurba_marseille","lat":43.27988,"lon":5.4004,"is_reserved":false,"is_disabled":false,"rental_uris":{"android":"levelo://app?vid=19b98bf7-d816-4d11-a907-29b4557cffc0","ios":"levelo://app?vid=19b98bf7-d816-4d11-a907-29b4557cffc0"},"vehicle_type_id":"4","last_reported":1741208909,"current_range_meters":6400,"station_id":"ce4bho92rcd13ifvqh4g","pricing_plan_id":"cebpf4jnsgd1na2vs0mg"},{"bike_id":"e841e8b7-2177-44fb-a4e5-0ff6bcb15ad7","system_id":"levelo_inurba_marseille","lat":43.28011,"lon":5.40017,"is_reserved":false,"is_disabled":false,"rental_uris":{"android":"levelo://app?vid=e841e8b7-2177-44fb-a4e5-0ff6bcb15ad7","ios":"levelo://app?vid=e841e8b7-2177-44fb-a4e5-0ff6bcb15ad7"},"vehicle_type_id":"4","last_reported":1741208909,"current_range_meters":6400,"station_id":"ce4bho92rcd13ifvqh4g","pricing_plan_id":"cebpf4jnsgd1na2vs0mg"},{"bike_id":"7d0376fc-3863-49a9-b6cd-b6d78ab7d7d0","system_id":"levelo_inurba_marseille","lat":43.293105,"lon":5.371729,"is_reserved":false,"is_disabled":false,"rental_uris":{"android":"levelo://app?vid=7d0376fc-3863-49a9-b6cd-b6d78ab7d7d0","ios":"levelo://app?vid=7d0376fc-3863-49a9-b6cd-b6d78ab7d7d0"},"vehicle_type_id":"4","last_reported":1741208909,"current_range_meters":6400,"station_id":"ce4bgh92rcd13ifvqb40","pricing_plan_id":"cebpf4jnsgd1na2vs0mg"},{"bike_id":"7ec960c7-64f8-41e4-9a37-1f5d9a307222","system_id":"levelo_inurba_marseille","lat":43.31704,"lon":5.40471,"is_reserved":false,"is_disabled":false,"rental_uris":{"android":"levelo://app?vid=7ec960c7-64f8-41e4-9a37-1f5d9a307222","ios":"levelo://app?vid=7ec960c7-64f8-41e4-9a37-1f5d9a307222"},"vehicle_type_id":"4","last_reported":1741208909,"current_range_meters":6400,"station_id":"ce4bh012rcd13ifvqd00","pricing_plan_id":"cebpf4jnsgd1na2vs0mg"},{"bike_id":"11346333-4700-46b6-8156-ac4a56bb5223","system_id":"levelo_inurba_marseille","lat":43.29018,"lon":5.38135,"is_reserved":false,"is_disabled":false,"rental_uris":{"android":"levelo://app?vid=11346333-4700-46b6-8156-ac4a56bb5223","ios":"levelo://app?vid=11346333-4700-46b6-8156-ac4a56bb5223"},"vehicle_type_id":"4","last_reported":1741208909,"current_range_meters":6400,"station_id":"ce4bh4p2rcd13ifvqe1g","pricing_plan_id":"cebpf4jnsgd1na2vs0mg"},{"bike_id":"54991513-f878-4116-a08f-541b88281cf9","system_id":"levelo_inurba_marseille","lat":43.27991,"lon":5.40012,"is_reserved":false,"is_disabled":true,"rental_uris":{"android":"levelo://app?vid=54991513-f878-4116-a08f-541b88281cf9","ios":"levelo://app?vid=54991513-f878-4116-a08f-541b88281cf9"},"vehicle_type_id":"4","last_reported":1741208909,"current_range_meters":6400,"station_id":"ce4bho92rcd13ifvqh4g","pricing_plan_id":"cebpf4jnsgd1na2vs0mg"},{"bike_id":"da06cee7-9c66-4de6-ae2d-a635f3494258","system_id":"levelo_inurba_marseille","lat":43.23184,"lon":5.39994,"is_reserved":false,"is_disabled":false,"rental_uris":{"android":"levelo://app?vid=da06cee7-9c66-4de6-ae2d-a635f3494258","ios":"levelo://app?vid=da06cee7-9c66-4de6-ae2d-a635f3494258"},"vehicle_type_id":"4","last_reported":1741208909,"current_range_meters":6400,"station_id":"ce4bhn12rcd13ifvqgqg","pricing_plan_id":"cebpf4jnsgd1na2vs0mg"},{"bike_id":"15d7ef62-3f30-470d-8f0a-e07b743cd63b","system_id":"levelo_inurba_marseille","lat":43.30248,"lon":5.40044,"is_reserved":false,"is_disabled":false,"rental_uris":{"android":"levelo://app?vid=15d7ef62-3f30-470d-8f0a-e07b743cd63b","ios":"levelo://app?vid=15d7ef62-3f30-470d-8f0a-e07b743cd63b"},"vehicle_type_id":"4","last_reported":1741208909,"current_range_meters":3600,"station_id":"ce4bgvh2rcd13ifvqcs0","pricing_plan_id":"cebpf4jnsgd1na2vs0mg"},{"bike_id":"f6662bde-1632-4b0f-a966-f86b33b7c3b9","system_id":"levelo_inurba_marseille","lat":43.33765,"lon":5.37489,"is_reserved":false,"is_disabled":false,"rental_uris":{"android":"levelo://app?vid=f6662bde-1632-4b0f-a966-f86b33b7c3b9","ios":"levelo://app?vid=f6662bde-1632-4b0f-a966-f86b33b7c3b9"},"vehicle_type_id":"4","last_reported":1741208909,"current_range_meters":6800,"station_id":"","pricing_plan_id":"cebpf4jnsgd1na2vs0mg"},{"bike_id":"a00e1ce6-254a-4bb1-a996-2f404856539a","system_id":"levelo_inurba_marseille","lat":43.28088,"lon":5.39645,"is_reserved":false,"is_disabled":false,"rental_uris":{"android":"levelo://app?vid=a00e1ce6-254a-4bb1-a996-2f404856539a","ios":"levelo://app?vid=a00e1ce6-254a-4bb1-a996-2f404856539a"},"vehicle_type_id":"4","last_reported":1741208909,"current_range_meters":6800,"station_id":"ce4bho12rcd13ifvqh2g","pricing_plan_id":"cebpf4jnsgd1na2vs0mg"},{"bike_id":"a25c58eb-7591-4ba7-ab27-4cc9bcb4612a","system_id":"levelo_inurba_marseille","lat":43.323777,"lon":5.367315,"is_reserved":false,"is_disabled":false,"rental_uris":{"android":"levelo://app?vid=a25c58eb-7591-4ba7-ab27-4cc9bcb4612a","ios":"levelo://app?vid=a25c58eb-7591-4ba7-ab27-4cc9bcb4612a"},"vehicle_type_id":"4","last_reported":1741208909,"current_range_meters":6800,"station_id":"ce4bhs12rcd13ifvqhvg","pricing_plan_id":"cebpf4jnsgd1na2vs0mg"},{"bike_id":"6835789b-88ca-45c2-96d3-6b91a0feab92","system_id":"levelo_inurba_marseille","lat":43.27992,"lon":5.40017,"is_reserved":false,"is_disabled":false,"rental_uris":{"android":"levelo://app?vid=6835789b-88ca-45c2-96d3-6b91a0feab92","ios":"levelo://app?vid=6835789b-88ca-45c2-96d3-6b91a0feab92"},"vehicle_type_id":"4","last_reported":1741208909,"current_range_meters":6800,"station_id":"ce4bho92rcd13ifvqh4g","pricing_plan_id":"cebpf4jnsgd1na2vs0mg"},{"bike_id":"c3e12cd0-5b55-4fa8-9b46-bb2eb8bd5487","system_id":"levelo_inurba_marseille","lat":43.30948,"lon":5.40133,"is_reserved":false,"is_disabled":true,"rental_uris":{"android":"levelo://app?vid=c3e12cd0-5b55-4fa8-9b46-bb2eb8bd5487","ios":"levelo://app?vid=c3e12cd0-5b55-4fa8-9b46-bb2eb8bd5487"},"vehicle_type_id":"4","last_reported":1741208909,"current_range_meters":6800,"station_id":"ce4bgvp2rcd13ifvqct0","pricing_plan_id":"cebpf4jnsgd1na2vs0mg"},{"bike_id":"37245f92-27b0-4d71-94ad-9f00978bde25","system_id":"levelo_inurba_marseille","lat":43.27995,"lon":5.400157,"is_reserved":false,"is_disabled":true,"rental_uris":{"android":"levelo://app?vid=37245f92-27b0-4d71-94ad-9f00978bde25","ios":"levelo://app?vid=37245f92-27b0-4d71-94ad-9f00978bde25"},"vehicle_type_id":"4","last_reported":1741208909,"current_range_meters":6800,"station_id":"ce4bho92rcd13ifvqh4g","pricing_plan_id":"cebpf4jnsgd1na2vs0mg"},{"bike_id":"87d723bd-ae48-42a4-bfca-c77dc5aff0f1","system_id":"levelo_inurba_marseille","lat":43.28001,"lon":5.40055,"is_reserved":false,"is_disabled":false,"rental_uris":{"android":"levelo://app?vid=87d723bd-ae48-42a4-bfca-c77dc5aff0f1","ios":"levelo://app?vid=87d723bd-ae48-42a4-bfca-c77dc5aff0f1"},"vehicle_type_id":"4","last_reported":1741208909,"current_range_meters":6800,"station_id":"ce4bho92rcd13ifvqh4g","pricing_plan_id":"cebpf4jnsgd1na2vs0mg"},{"bike_id":"47d43427-7f78-4be0-a72e-44710c1729ba","system_id":"levelo_inurba_marseille","lat":43.30243,"lon":5.40048,"is_reserved":false,"is_disabled":false,"rental_uris":{"android":"levelo://app?vid=47d43427-7f78-4be0-a72e-44710c1729ba","ios":"levelo://app?vid=47d43427-7f78-4be0-a72e-44710c1729ba"},"vehicle_type_id":"4","last_reported":1741208909,"current_range_meters":4400,"station_id":"ce4bgvh2rcd13ifvqcs0","pricing_plan_id":"cebpf4jnsgd1na2vs0mg"},{"bike_id":"c302fe7e-a063-44df-aec9-69f00e06e0ee","system_id":"levelo_inurba_marseille","lat":43.27912,"lon":5.39575,"is_reserved":false,"is_disabled":false,"rental_uris":{"android":"levelo://app?vid=c302fe7e-a063-44df-aec9-69f00e06e0ee","ios":"levelo://app?vid=c302fe7e-a063-44df-aec9-69f00e06e0ee"},"vehicle_type_id":"4","last_reported":1741208909,"current_range_meters":6800,"station_id":"ce4bhf92rcd13ifvqf40","pricing_plan_id":"cebpf4jnsgd1na2vs0mg"},{"bike_id":"44a7153b-0fd7-4509-836b-676bbf84fb06","system_id":"levelo_inurba_marseille","lat":43.23202,"lon":5.35527,"is_reserved":false,"is_disabled":false,"rental_uris":{"android":"levelo://app?vid=44a7153b-0fd7-4509-836b-676bbf84fb06","ios":"levelo://app?vid=44a7153b-0fd7-4509-836b-676bbf84fb06"},"vehicle_type_id":"4","last_reported":1741208909,"current_range_meters":6800,"station_id":"ce4bhu92rcd13ifvqi70","pricing_plan_id":"cebpf4jnsgd1na2vs0mg"},{"bike_id":"33a924fb-5892-4780-823a-77619f75fd1e","system_id":"levelo_inurba_marseille","lat":43.24078,"lon":5.37749,"is_reserved":false,"is_disabled":false,"rental_uris":{"android":"levelo://app?vid=33a924fb-5892-4780-823a-77619f75fd1e","ios":"levelo://app?vid=33a924fb-5892-4780-823a-77619f75fd1e"},"vehicle_type_id":"4","last_reported":1741208909,"current_range_meters":7200,"station_id":"ce4bhnp2rcd13ifvqgvg","pricing_plan_id":"cebpf4jnsgd1na2vs0mg"},{"bike_id":"541b7efd-860a-4d8b-831a-30746bc829c1","system_id":"levelo_inurba_marseille","lat":43.32353,"lon":5.38938,"is_reserved":false,"is_disabled":false,"rental_uris":{"android":"levelo://app?vid=541b7efd-860a-4d8b-831a-30746bc829c1","ios":"levelo://app?vid=541b7efd-860a-4d8b-831a-30746bc829c1"},"vehicle_type_id":"4","last_reported":1741208909,"current_range_meters":7200,"station_id":"ce4bhqp2rcd13ifvqhog","pricing_plan_id":"cebpf4jnsgd1na2vs0mg"},{"bike_id":"ed663efe-074b-4aba-b0e9-f846e4bd3747","system_id":"levelo_inurba_marseille","lat":43.29283,"lon":5.40935,"is_reserved":false,"is_disabled":false,"rental_uris":{"android":"levelo://app?vid=ed663efe-074b-4aba-b0e9-f846e4bd3747","ios":"levelo://app?vid=ed663efe-074b-4aba-b0e9-f846e4bd3747"},"vehicle_type_id":"4","last_reported":1741208909,"current_range_meters":7200,"station_id":"ce4bh192rcd13ifvqdc0","pricing_plan_id":"cebpf4jnsgd1na2vs0mg"},{"bike_id":"bef56aed-1d51-45b5-a9f2-d66eb144d5fd","system_id":"levelo_inurba_marseille","lat":43.29271,"lon":5.38441,"is_reserved":false,"is_disabled":false,"rental_uris":{"android":"levelo://app?vid=bef56aed-1d51-45b5-a9f2-d66eb144d5fd","ios":"levelo://app?vid=bef56aed-1d51-45b5-a9f2-d66eb144d5fd"},"vehicle_type_id":"4","last_reported":1741208909,"current_range_meters":7200,"station_id":"ce4bh692rcd13ifvqea0","pricing_plan_id":"cebpf4jnsgd1na2vs0mg"},{"bike_id":"5e877d71-7d09-418b-b587-e9fce9c2fd75","system_id":"levelo_inurba_marseille","lat":43.28414,"lon":5.37525,"is_reserved":false,"is_disabled":false,"rental_uris":{"android":"levelo://app?vid=5e877d71-7d09-418b-b587-e9fce9c2fd75","ios":"levelo://app?vid=5e877d71-7d09-418b-b587-e9fce9c2fd75"},"vehicle_type_id":"4","last_reported":1741208909,"current_range_meters":7200,"station_id":"ce4bh412rcd13ifvqds0","pricing_plan_id":"cebpf4jnsgd1na2vs0mg"},{"bike_id":"de44d09a-d4db-4ce3-a2dd-62f4dc2e96ab","system_id":"levelo_inurba_marseille","lat":43.28145,"lon":5.4281,"is_reserved":false,"is_disabled":false,"rental_uris":{"android":"levelo://app?vid=de44d09a-d4db-4ce3-a2dd-62f4dc2e96ab","ios":"levelo://app?vid=de44d09a-d4db-4ce3-a2dd-62f4dc2e96ab"},"vehicle_type_id":"4","last_reported":1741208909,"current_range_meters":7200,"station_id":"","pricing_plan_id":"cebpf4jnsgd1na2vs0mg"},{"bike_id":"347ea7ef-a30a-47a0-b1ce-f7ff06f7c04e","system_id":"levelo_inurba_marseille","lat":43.32057,"lon":5.41558,"is_reserved":false,"is_disabled":false,"rental_uris":{"android":"levelo://app?vid=347ea7ef-a30a-47a0-b1ce-f7ff06f7c04e","ios":"levelo://app?vid=347ea7ef-a30a-47a0-b1ce-f7ff06f7c04e"},"vehicle_type_id":"4","last_reported":1741208909,"current_range_meters":7200,"station_id":"ce4bhq92rcd13ifvqhkg","pricing_plan_id":"cebpf4jnsgd1na2vs0mg"},{"bike_id":"8698972e-96ac-456d-a00f-04447f94932f","system_id":"levelo_inurba_marseille","lat":43.2841,"lon":5.37512,"is_reserved":false,"is_disabled":false,"rental_uris":{"android":"levelo://app?vid=8698972e-96ac-456d-a00f-04447f94932f","ios":"levelo://app?vid=8698972e-96ac-456d-a00f-04447f94932f"},"vehicle_type_id":"4","last_reported":1741208909,"current_range_meters":7200,"station_id":"ce4bh412rcd13ifvqds0","pricing_plan_id":"cebpf4jnsgd1na2vs0mg"},{"bike_id":"9f8506d4-37c5-4281-9879-a142102a1d06","system_id":"levelo_inurba_marseille","lat":43.29253,"lon":5.38442,"is_reserved":false,"is_disabled":false,"rental_uris":{"android":"levelo://app?vid=9f8506d4-37c5-4281-9879-a142102a1d06","ios":"levelo://app?vid=9f8506d4-37c5-4281-9879-a142102a1d06"},"vehicle_type_id":"4","last_reported":1741208909,"current_range_meters":7200,"station_id":"ce4bh692rcd13ifvqea0","pricing_plan_id":"cebpf4jnsgd1na2vs0mg"},{"bike_id":"aff2b685-32f5-409a-ba69-e3a54cd3164e","system_id":"levelo_inurba_marseille","lat":43.30327,"lon":5.40434,"is_reserved":false,"is_disabled":false,"rental_uris":{"android":"levelo://app?vid=aff2b685-32f5-409a-ba69-e3a54cd3164e","ios":"levelo://app?vid=aff2b685-32f5-409a-ba69-e3a54cd3164e"},"vehicle_type_id":"4","last_reported":1741208909,"current_range_meters":7200,"station_id":"ce4bh012rcd13ifvqd10","pricing_plan_id":"cebpf4jnsgd1na2vs0mg"},{"bike_id":"8d9ccc4a-1011-4c35-8110-21069259a7d9","system_id":"levelo_inurba_marseille","lat":43.29111,"lon":5.38193,"is_reserved":false,"is_disabled":true,"rental_uris":{"android":"levelo://app?vid=8d9ccc4a-1011-4c35-8110-21069259a7d9","ios":"levelo://app?vid=8d9ccc4a-1011-4c35-8110-21069259a7d9"},"vehicle_type_id":"4","last_reported":1741208909,"current_range_meters":8000,"station_id":"ce4bh512rcd13ifvqe2g","pricing_plan_id":"cebpf4jnsgd1na2vs0mg"},{"bike_id":"3443eac2-7ae9-4091-a67b-242d2bc2f915","system_id":"levelo_inurba_marseille","lat":43.25096,"lon":5.39512,"is_reserved":false,"is_disabled":false,"rental_uris":{"android":"levelo://app?vid=3443eac2-7ae9-4091-a67b-242d2bc2f915","ios":"levelo://app?vid=3443eac2-7ae9-4091-a67b-242d2bc2f915"},"vehicle_type_id":"4","last_reported":1741208909,"current_range_meters":8000,"station_id":"ce4bhm12rcd13ifvqgkg","pricing_plan_id":"cebpf4jnsgd1na2vs0mg"},{"bike_id":"9506e6a0-a2d5-4881-a618-ef7e215e5225","system_id":"levelo_inurba_marseille","lat":43.30887,"lon":5.39649,"is_reserved":false,"is_disabled":false,"rental_uris":{"android":"levelo://app?vid=9506e6a0-a2d5-4881-a618-ef7e215e5225","ios":"levelo://app?vid=9506e6a0-a2d5-4881-a618-ef7e215e5225"},"vehicle_type_id":"4","last_reported":1741208909,"current_range_meters":8000,"station_id":"ce4bh012rcd13ifvqcv0","pricing_plan_id":"cebpf4jnsgd1na2vs0mg"},{"bike_id":"5d327b88-d8a2-4c59-9a43-4a7a4b07402a","system_id":"levelo_inurba_marseille","lat":43.29511,"lon":5.39033,"is_reserved":false,"is_disabled":true,"rental_uris":{"android":"levelo://app?vid=5d327b88-d8a2-4c59-9a43-4a7a4b07402a","ios":"levelo://app?vid=5d327b88-d8a2-4c59-9a43-4a7a4b07402a"},"vehicle_type_id":"4","last_reported":1741208909,"current_range_meters":8000,"station_id":"ce4bh3p2rcd13ifvqdp0","pricing_plan_id":"cebpf4jnsgd1na2vs0mg"},{"bike_id":"582e89f8-b531-4b42-8b1c-ac6d990b90ac","system_id":"levelo_inurba_marseille","lat":43.28506,"lon":5.38576,"is_reserved":false,"is_disabled":false,"rental_uris":{"android":"levelo://app?vid=582e89f8-b531-4b42-8b1c-ac6d990b90ac","ios":"levelo://app?vid=582e89f8-b531-4b42-8b1c-ac6d990b90ac"},"vehicle_type_id":"4","last_reported":1741208909,"current_range_meters":8000,"station_id":"ce4bh8p2rcd13ifvqeb0","pricing_plan_id":"cebpf4jnsgd1na2vs0mg"},{"bike_id":"4a1fdddc-d7ee-4739-bd1c-d24b475e8eaf","system_id":"levelo_inurba_marseille","lat":43.28718,"lon":5.36083,"is_reserved":false,"is_disabled":false,"rental_uris":{"android":"levelo://app?vid=4a1fdddc-d7ee-4739-bd1c-d24b475e8eaf","ios":"levelo://app?vid=4a1fdddc-d7ee-4739-bd1c-d24b475e8eaf"},"vehicle_type_id":"4","last_reported":1741208909,"current_range_meters":8000,"station_id":"cki0cbj6b192h4jlfktg","pricing_plan_id":"cebpf4jnsgd1na2vs0mg"},{"bike_id":"b0603f8c-190f-4853-a7e5-0d0ca367341f","system_id":"levelo_inurba_marseille","lat":43.28173,"lon":5.42707,"is_reserved":false,"is_disabled":false,"rental_uris":{"android":"levelo://app?vid=b0603f8c-190f-4853-a7e5-0d0ca367341f","ios":"levelo://app?vid=b0603f8c-190f-4853-a7e5-0d0ca367341f"},"vehicle_type_id":"4","last_reported":1741208909,"current_range_meters":8000,"station_id":"","pricing_plan_id":"cebpf4jnsgd1na2vs0mg"},{"bike_id":"6f9f418f-eed5-442f-9d63-d94181e20d2b","system_id":"levelo_inurba_marseille","lat":43.30892,"lon":5.39666,"is_reserved":false,"is_disabled":false,"rental_uris":{"android":"levelo://app?vid=6f9f418f-eed5-442f-9d63-d94181e20d2b","ios":"levelo://app?vid=6f9f418f-eed5-442f-9d63-d94181e20d2b"},"vehicle_type_id":"4","last_reported":1741208909,"current_range_meters":8400,"station_id":"ce4bh012rcd13ifvqcv0","pricing_plan_id":"cebpf4jnsgd1na2vs0mg"},{"bike_id":"795b0f31-b66b-40c0-b13e-77cc95697a65","system_id":"levelo_inurba_marseille","lat":43.27989,"lon":5.4004,"is_reserved":false,"is_disabled":false,"rental_uris":{"android":"levelo://app?vid=795b0f31-b66b-40c0-b13e-77cc95697a65","ios":"levelo://app?vid=795b0f31-b66b-40c0-b13e-77cc95697a65"},"vehicle_type_id":"4","last_reported":1741208909,"current_range_meters":8400,"station_id":"ce4bho92rcd13ifvqh4g","pricing_plan_id":"cebpf4jnsgd1na2vs0mg"},{"bike_id":"55f3137e-de59-4df3-bc43-34575a42bfd9","system_id":"levelo_inurba_marseille","lat":43.24282,"lon":5.37773,"is_reserved":false,"is_disabled":false,"rental_uris":{"android":"levelo://app?vid=55f3137e-de59-4df3-bc43-34575a42bfd9","ios":"levelo://app?vid=55f3137e-de59-4df3-bc43-34575a42bfd9"},"vehicle_type_id":"4","last_reported":1741208909,"current_range_meters":8400,"station_id":"","pricing_plan_id":"cebpf4jnsgd1na2vs0mg"},{"bike_id":"931dbda0-5b3f-48fa-8441-4dcb748976d6","system_id":"levelo_inurba_marseille","lat":43.29581,"lon":5.39966,"is_reserved":false,"is_disabled":false,"rental_uris":{"android":"levelo://app?vid=931dbda0-5b3f-48fa-8441-4dcb748976d6","ios":"levelo://app?vid=931dbda0-5b3f-48fa-8441-4dcb748976d6"},"vehicle_type_id":"4","last_reported":1741208909,"current_range_meters":8400,"station_id":"ce4bh312rcd13ifvqdj0","pricing_plan_id":"cebpf4jnsgd1na2vs0mg"},{"bike_id":"e713224a-efe1-4a17-9c98-f37c14588b5c","system_id":"levelo_inurba_marseille","lat":43.25082,"lon":5.39507,"is_reserved":false,"is_disabled":false,"rental_uris":{"android":"levelo://app?vid=e713224a-efe1-4a17-9c98-f37c14588b5c","ios":"levelo://app?vid=e713224a-efe1-4a17-9c98-f37c14588b5c"},"vehicle_type_id":"4","last_reported":1741208909,"current_range_meters":8400,"station_id":"ce4bhm12rcd13ifvqgkg","pricing_plan_id":"cebpf4jnsgd1na2vs0mg"},{"bike_id":"2c57ca77-f587-4fb7-baf7-553c5df662dc","system_id":"levelo_inurba_marseille","lat":43.28425,"lon":5.37534,"is_reserved":false,"is_disabled":false,"rental_uris":{"android":"levelo://app?vid=2c57ca77-f587-4fb7-baf7-553c5df662dc","ios":"levelo://app?vid=2c57ca77-f587-4fb7-baf7-553c5df662dc"},"vehicle_type_id":"4","last_reported":1741208909,"current_range_meters":8400,"station_id":"ce4bh412rcd13ifvqds0","pricing_plan_id":"cebpf4jnsgd1na2vs0mg"},{"bike_id":"97399946-e3e6-4c82-9064-b3472fe1a6d0","system_id":"levelo_inurba_marseille","lat":43.26243,"lon":5.40479,"is_reserved":false,"is_disabled":true,"rental_uris":{"android":"levelo://app?vid=97399946-e3e6-4c82-9064-b3472fe1a6d0","ios":"levelo://app?vid=97399946-e3e6-4c82-9064-b3472fe1a6d0"},"vehicle_type_id":"4","last_reported":1741208909,"current_range_meters":8400,"station_id":"","pricing_plan_id":"cebpf4jnsgd1na2vs0mg"},{"bike_id":"466033f8-ea52-4086-be4d-613149ddf7f7","system_id":"levelo_inurba_marseille","lat":43.262153,"lon":5.404743,"is_reserved":false,"is_disabled":false,"rental_uris":{"android":"levelo://app?vid=466033f8-ea52-4086-be4d-613149ddf7f7","ios":"levelo://app?vid=466033f8-ea52-4086-be4d-613149ddf7f7"},"vehicle_type_id":"4","last_reported":1741208909,"current_range_meters":8400,"station_id":"ce4bhmh2rcd13ifvqgmg","pricing_plan_id":"cebpf4jnsgd1na2vs0mg"},{"bike_id":"ff22ac5f-4107-4c43-91dd-83932ff30650","system_id":"levelo_inurba_marseille","lat":43.26704,"lon":5.38283,"is_reserved":false,"is_disabled":true,"rental_uris":{"android":"levelo://app?vid=ff22ac5f-4107-4c43-91dd-83932ff30650","ios":"levelo://app?vid=ff22ac5f-4107-4c43-91dd-83932ff30650"},"vehicle_type_id":"4","last_reported":1741208909,"current_range_meters":8400,"station_id":"ce4bhg92rcd13ifvqf90","pricing_plan_id":"cebpf4jnsgd1na2vs0mg"},{"bike_id":"1d1a5219-3491-4dfc-8d1d-fecbc2b5114e","system_id":"levelo_inurba_marseille","lat":43.29015,"lon":5.38626,"is_reserved":false,"is_disabled":false,"rental_uris":{"android":"levelo://app?vid=1d1a5219-3491-4dfc-8d1d-fecbc2b5114e","ios":"levelo://app?vid=1d1a5219-3491-4dfc-8d1d-fecbc2b5114e"},"vehicle_type_id":"4","last_reported":1741208909,"current_range_meters":8400,"station_id":"ce4bh4p2rcd13ifvqe0g","pricing_plan_id":"cebpf4jnsgd1na2vs0mg"},{"bike_id":"ecfd8a99-7621-41ad-bf57-bcdf4d143264","system_id":"levelo_inurba_marseille","lat":43.2862,"lon":5.35103,"is_reserved":false,"is_disabled":false,"rental_uris":{"android":"levelo://app?vid=ecfd8a99-7621-41ad-bf57-bcdf4d143264","ios":"levelo://app?vid=ecfd8a99-7621-41ad-bf57-bcdf4d143264"},"vehicle_type_id":"4","last_reported":1741208909,"current_range_meters":8400,"station_id":"ce4bhch2rcd13ifvqeug","pricing_plan_id":"cebpf4jnsgd1na2vs0mg"},{"bike_id":"3439a580-4b13-4596-bc3a-9d40342307f1","system_id":"levelo_inurba_marseille","lat":43.32107,"lon":5.36777,"is_reserved":false,"is_disabled":false,"rental_uris":{"android":"levelo://app?vid=3439a580-4b13-4596-bc3a-9d40342307f1","ios":"levelo://app?vid=3439a580-4b13-4596-bc3a-9d40342307f1"},"vehicle_type_id":"4","last_reported":1741208909,"current_range_meters":8400,"station_id":"ce4bhrh2rcd13ifvqhug","pricing_plan_id":"cebpf4jnsgd1na2vs0mg"},{"bike_id":"74060890-3e35-4575-a053-512de0a17acf","system_id":"levelo_inurba_marseille","lat":43.28485,"lon":5.3842,"is_reserved":false,"is_disabled":false,"rental_uris":{"android":"levelo://app?vid=74060890-3e35-4575-a053-512de0a17acf","ios":"levelo://app?vid=74060890-3e35-4575-a053-512de0a17acf"},"vehicle_type_id":"4","last_reported":1741208909,"current_range_meters":8800,"station_id":"ce4bh512rcd13ifvqe3g","pricing_plan_id":"cebpf4jnsgd1na2vs0mg"},{"bike_id":"7edaf201-c7f5-4e72-8e4c-5bdcb181b3f8","system_id":"levelo_inurba_marseille","lat":43.31163,"lon":5.38725,"is_reserved":false,"is_disabled":false,"rental_uris":{"android":"levelo://app?vid=7edaf201-c7f5-4e72-8e4c-5bdcb181b3f8","ios":"levelo://app?vid=7edaf201-c7f5-4e72-8e4c-5bdcb181b3f8"},"vehicle_type_id":"4","last_reported":1741208909,"current_range_meters":8800,"station_id":"ce4bgv12rcd13ifvqcp0","pricing_plan_id":"cebpf4jnsgd1na2vs0mg"},{"bike_id":"04602ea3-ac36-4387-91cd-683c524f904f","system_id":"levelo_inurba_marseille","lat":43.27987,"lon":5.40021,"is_reserved":false,"is_disabled":true,"rental_uris":{"android":"levelo://app?vid=04602ea3-ac36-4387-91cd-683c524f904f","ios":"levelo://app?vid=04602ea3-ac36-4387-91cd-683c524f904f"},"vehicle_type_id":"4","last_reported":1741208909,"current_range_meters":8800,"station_id":"ce4bho92rcd13ifvqh4g","pricing_plan_id":"cebpf4jnsgd1na2vs0mg"},{"bike_id":"2bee20e2-464b-49c8-8baa-71bb5d7d30ee","system_id":"levelo_inurba_marseille","lat":43.28013,"lon":5.40063,"is_reserved":false,"is_disabled":false,"rental_uris":{"android":"levelo://app?vid=2bee20e2-464b-49c8-8baa-71bb5d7d30ee","ios":"levelo://app?vid=2bee20e2-464b-49c8-8baa-71bb5d7d30ee"},"vehicle_type_id":"4","last_reported":1741208909,"current_range_meters":8800,"station_id":"ce4bho92rcd13ifvqh4g","pricing_plan_id":"cebpf4jnsgd1na2vs0mg"},{"bike_id":"64e79dd5-bfb5-4cef-b7cd-0b56dd60a2a9","system_id":"levelo_inurba_marseille","lat":43.28727,"lon":5.37936,"is_reserved":false,"is_disabled":false,"rental_uris":{"android":"levelo://app?vid=64e79dd5-bfb5-4cef-b7cd-0b56dd60a2a9","ios":"levelo://app?vid=64e79dd5-bfb5-4cef-b7cd-0b56dd60a2a9"},"vehicle_type_id":"4","last_reported":1741208909,"current_range_meters":8400,"station_id":"ce4bh9p2rcd13ifvqec0","pricing_plan_id":"cebpf4jnsgd1na2vs0mg"},{"bike_id":"d8c5bf8b-e5c6-4105-a80a-df7533c653b6","system_id":"levelo_inurba_marseille","lat":43.29602,"lon":5.38105,"is_reserved":false,"is_disabled":false,"rental_uris":{"android":"levelo://app?vid=d8c5bf8b-e5c6-4105-a80a-df7533c653b6","ios":"levelo://app?vid=d8c5bf8b-e5c6-4105-a80a-df7533c653b6"},"vehicle_type_id":"4","last_reported":1741208909,"current_range_meters":8800,"station_id":"ce4bgl12rcd13ifvqbo0","pricing_plan_id":"cebpf4jnsgd1na2vs0mg"},{"bike_id":"7d3d35e6-a2c5-492b-af61-686f2a90865d","system_id":"levelo_inurba_marseille","lat":43.31164,"lon":5.38701,"is_reserved":false,"is_disabled":false,"rental_uris":{"android":"levelo://app?vid=7d3d35e6-a2c5-492b-af61-686f2a90865d","ios":"levelo://app?vid=7d3d35e6-a2c5-492b-af61-686f2a90865d"},"vehicle_type_id":"4","last_reported":1741208909,"current_range_meters":8800,"station_id":"ce4bgv12rcd13ifvqcp0","pricing_plan_id":"cebpf4jnsgd1na2vs0mg"},{"bike_id":"4e8e4afc-90ed-44e1-b551-2fd0902805f8","system_id":"levelo_inurba_marseille","lat":43.28685,"lon":5.37388,"is_reserved":false,"is_disabled":false,"rental_uris":{"android":"levelo://app?vid=4e8e4afc-90ed-44e1-b551-2fd0902805f8","ios":"levelo://app?vid=4e8e4afc-90ed-44e1-b551-2fd0902805f8"},"vehicle_type_id":"4","last_reported":1741208909,"current_range_meters":8800,"station_id":"ce4bh3p2rcd13ifvqdq0","pricing_plan_id":"cebpf4jnsgd1na2vs0mg"},{"bike_id":"32907a51-37c0-4e0b-8c86-2b4c497990fb","system_id":"levelo_inurba_marseille","lat":43.29271,"lon":5.38441,"is_reserved":false,"is_disabled":false,"rental_uris":{"android":"levelo://app?vid=32907a51-37c0-4e0b-8c86-2b4c497990fb","ios":"levelo://app?vid=32907a51-37c0-4e0b-8c86-2b4c497990fb"},"vehicle_type_id":"4","last_reported":1741208909,"current_range_meters":8800,"station_id":"ce4bh692rcd13ifvqea0","pricing_plan_id":"cebpf4jnsgd1na2vs0mg"},{"bike_id":"d6ba82be-90e6-4543-b298-a7d041946b68","system_id":"levelo_inurba_marseille","lat":43.31164,"lon":5.38708,"is_reserved":false,"is_disabled":false,"rental_uris":{"android":"levelo://app?vid=d6ba82be-90e6-4543-b298-a7d041946b68","ios":"levelo://app?vid=d6ba82be-90e6-4543-b298-a7d041946b68"},"vehicle_type_id":"4","last_reported":1741208909,"current_range_meters":8800,"station_id":"ce4bgv12rcd13ifvqcp0","pricing_plan_id":"cebpf4jnsgd1na2vs0mg"},{"bike_id":"35a63d3f-3cf5-4e65-898f-16f1f00b237d","system_id":"levelo_inurba_marseille","lat":43.31184,"lon":5.38707,"is_reserved":false,"is_disabled":false,"rental_uris":{"android":"levelo://app?vid=35a63d3f-3cf5-4e65-898f-16f1f00b237d","ios":"levelo://app?vid=35a63d3f-3cf5-4e65-898f-16f1f00b237d"},"vehicle_type_id":"4","last_reported":1741208909,"current_range_meters":8800,"station_id":"ce4bgv12rcd13ifvqcp0","pricing_plan_id":"cebpf4jnsgd1na2vs0mg"},{"bike_id":"695828ba-2cea-49da-8d0e-3782d691adc5","system_id":"levelo_inurba_marseille","lat":43.2719,"lon":5.41002,"is_reserved":false,"is_disabled":false,"rental_uris":{"android":"levelo://app?vid=695828ba-2cea-49da-8d0e-3782d691adc5","ios":"levelo://app?vid=695828ba-2cea-49da-8d0e-3782d691adc5"},"vehicle_type_id":"4","last_reported":1741208909,"current_range_meters":8800,"station_id":"ce4bhl12rcd13ifvqgf0","pricing_plan_id":"cebpf4jnsgd1na2vs0mg"},{"bike_id":"e0c0bec3-454a-410d-a60f-3aed516ec149","system_id":"levelo_inurba_marseille","lat":43.23197,"lon":5.35541,"is_reserved":false,"is_disabled":false,"rental_uris":{"android":"levelo://app?vid=e0c0bec3-454a-410d-a60f-3aed516ec149","ios":"levelo://app?vid=e0c0bec3-454a-410d-a60f-3aed516ec149"},"vehicle_type_id":"4","last_reported":1741208909,"current_range_meters":9200,"station_id":"ce4bhu92rcd13ifvqi70","pricing_plan_id":"cebpf4jnsgd1na2vs0mg"},{"bike_id":"67bea12d-33fd-4eac-b275-4a5b5dd193e3","system_id":"levelo_inurba_marseille","lat":43.2721,"lon":5.40957,"is_reserved":false,"is_disabled":false,"rental_uris":{"android":"levelo://app?vid=67bea12d-33fd-4eac-b275-4a5b5dd193e3","ios":"levelo://app?vid=67bea12d-33fd-4eac-b275-4a5b5dd193e3"},"vehicle_type_id":"4","last_reported":1741208909,"current_range_meters":9200,"station_id":"","pricing_plan_id":"cebpf4jnsgd1na2vs0mg"},{"bike_id":"c55557ad-1ed5-4997-aee7-ac92107f14b6","system_id":"levelo_inurba_marseille","lat":43.26439,"lon":5.37493,"is_reserved":false,"is_disabled":false,"rental_uris":{"android":"levelo://app?vid=c55557ad-1ed5-4997-aee7-ac92107f14b6","ios":"levelo://app?vid=c55557ad-1ed5-4997-aee7-ac92107f14b6"},"vehicle_type_id":"4","last_reported":1741208909,"current_range_meters":9200,"station_id":"","pricing_plan_id":"cebpf4jnsgd1na2vs0mg"},{"bike_id":"a91949e8-ceed-4f64-874e-98e204602e93","system_id":"levelo_inurba_marseille","lat":43.28,"lon":5.41655,"is_reserved":false,"is_disabled":false,"rental_uris":{"android":"levelo://app?vid=a91949e8-ceed-4f64-874e-98e204602e93","ios":"levelo://app?vid=a91949e8-ceed-4f64-874e-98e204602e93"},"vehicle_type_id":"4","last_reported":1741208909,"current_range_meters":9200,"station_id":"ce4bho12rcd13ifvqh1g","pricing_plan_id":"cebpf4jnsgd1na2vs0mg"},{"bike_id":"c3c9ecad-94db-4438-9fd2-f695a5cc6950","system_id":"levelo_inurba_marseille","lat":43.26232,"lon":5.40446,"is_reserved":false,"is_disabled":false,"rental_uris":{"android":"levelo://app?vid=c3c9ecad-94db-4438-9fd2-f695a5cc6950","ios":"levelo://app?vid=c3c9ecad-94db-4438-9fd2-f695a5cc6950"},"vehicle_type_id":"4","last_reported":1741208909,"current_range_meters":9200,"station_id":"ce4bhmh2rcd13ifvqgmg","pricing_plan_id":"cebpf4jnsgd1na2vs0mg"},{"bike_id":"1bad045b-6ab3-484d-a893-50827840f29c","system_id":"levelo_inurba_marseille","lat":43.29246,"lon":5.38228,"is_reserved":false,"is_disabled":false,"rental_uris":{"android":"levelo://app?vid=1bad045b-6ab3-484d-a893-50827840f29c","ios":"levelo://app?vid=1bad045b-6ab3-484d-a893-50827840f29c"},"vehicle_type_id":"4","last_reported":1741208909,"current_range_meters":9200,"station_id":"","pricing_plan_id":"cebpf4jnsgd1na2vs0mg"},{"bike_id":"d0873e3f-ad6e-42a7-84f7-5e0b2b855259","system_id":"levelo_inurba_marseille","lat":43.28571,"lon":5.39494,"is_reserved":false,"is_disabled":false,"rental_uris":{"android":"levelo://app?vid=d0873e3f-ad6e-42a7-84f7-5e0b2b855259","ios":"levelo://app?vid=d0873e3f-ad6e-42a7-84f7-5e0b2b855259"},"vehicle_type_id":"4","last_reported":1741208909,"current_range_meters":8800,"station_id":"ce4bh292rcd13ifvqdg0","pricing_plan_id":"cebpf4jnsgd1na2vs0mg"},{"bike_id":"d571166c-77a4-4a91-b051-9cc34ad31336","system_id":"levelo_inurba_marseille","lat":43.30197,"lon":5.39365,"is_reserved":false,"is_disabled":false,"rental_uris":{"android":"levelo://app?vid=d571166c-77a4-4a91-b051-9cc34ad31336","ios":"levelo://app?vid=d571166c-77a4-4a91-b051-9cc34ad31336"},"vehicle_type_id":"4","last_reported":1741208909,"current_range_meters":9200,"station_id":"","pricing_plan_id":"cebpf4jnsgd1na2vs0mg"},{"bike_id":"c1b7c9a0-fbed-475c-bb6e-af7a52ee162b","system_id":"levelo_inurba_marseille","lat":43.29523,"lon":5.39403,"is_reserved":false,"is_disabled":false,"rental_uris":{"android":"levelo://app?vid=c1b7c9a0-fbed-475c-bb6e-af7a52ee162b","ios":"levelo://app?vid=c1b7c9a0-fbed-475c-bb6e-af7a52ee162b"},"vehicle_type_id":"4","last_reported":1741208909,"current_range_meters":9200,"station_id":"ce4bh292rcd13ifvqdf0","pricing_plan_id":"cebpf4jnsgd1na2vs0mg"},{"bike_id":"b14e61c0-b102-40bc-8ab8-4b6b40a5b831","system_id":"levelo_inurba_marseille","lat":43.25077,"lon":5.39503,"is_reserved":false,"is_disabled":false,"rental_uris":{"android":"levelo://app?vid=b14e61c0-b102-40bc-8ab8-4b6b40a5b831","ios":"levelo://app?vid=b14e61c0-b102-40bc-8ab8-4b6b40a5b831"},"vehicle_type_id":"4","last_reported":1741208909,"current_range_meters":9200,"station_id":"ce4bhm12rcd13ifvqgkg","pricing_plan_id":"cebpf4jnsgd1na2vs0mg"},{"bike_id":"af3cf4f6-c607-4028-be9d-a76adfa8f336","system_id":"levelo_inurba_marseille","lat":43.27984,"lon":5.40025,"is_reserved":false,"is_disabled":false,"rental_uris":{"android":"levelo://app?vid=af3cf4f6-c607-4028-be9d-a76adfa8f336","ios":"levelo://app?vid=af3cf4f6-c607-4028-be9d-a76adfa8f336"},"vehicle_type_id":"4","last_reported":1741208909,"current_range_meters":9200,"station_id":"ce4bho92rcd13ifvqh4g","pricing_plan_id":"cebpf4jnsgd1na2vs0mg"},{"bike_id":"0c435379-2d96-40d9-86a6-885a9070a563","system_id":"levelo_inurba_marseille","lat":43.30641,"lon":5.40094,"is_reserved":false,"is_disabled":false,"rental_uris":{"android":"levelo://app?vid=0c435379-2d96-40d9-86a6-885a9070a563","ios":"levelo://app?vid=0c435379-2d96-40d9-86a6-885a9070a563"},"vehicle_type_id":"4","last_reported":1741208909,"current_range_meters":9200,"station_id":"ce4bh112rcd13ifvqda0","pricing_plan_id":"cebpf4jnsgd1na2vs0mg"},{"bike_id":"06bc3813-b031-4c24-b3a0-3fe0f177e267","system_id":"levelo_inurba_marseille","lat":43.28008,"lon":5.40013,"is_reserved":false,"is_disabled":false,"rental_uris":{"android":"levelo://app?vid=06bc3813-b031-4c24-b3a0-3fe0f177e267","ios":"levelo://app?vid=06bc3813-b031-4c24-b3a0-3fe0f177e267"},"vehicle_type_id":"4","last_reported":1741208909,"current_range_meters":9200,"station_id":"ce4bho92rcd13ifvqh4g","pricing_plan_id":"cebpf4jnsgd1na2vs0mg"},{"bike_id":"53d870ba-c1c7-435e-8690-6e90e58a9b1d","system_id":"levelo_inurba_marseille","lat":43.28726,"lon":5.36092,"is_reserved":false,"is_disabled":false,"rental_uris":{"android":"levelo://app?vid=53d870ba-c1c7-435e-8690-6e90e58a9b1d","ios":"levelo://app?vid=53d870ba-c1c7-435e-8690-6e90e58a9b1d"},"vehicle_type_id":"4","last_reported":1741208909,"current_range_meters":9600,"station_id":"cki0cbj6b192h4jlfktg","pricing_plan_id":"cebpf4jnsgd1na2vs0mg"},{"bike_id":"492b7423-76dd-486e-b5b1-c5b37cf8fc51","system_id":"levelo_inurba_marseille","lat":43.29154,"lon":5.37163,"is_reserved":false,"is_disabled":true,"rental_uris":{"android":"levelo://app?vid=492b7423-76dd-486e-b5b1-c5b37cf8fc51","ios":"levelo://app?vid=492b7423-76dd-486e-b5b1-c5b37cf8fc51"},"vehicle_type_id":"4","last_reported":1741208909,"current_range_meters":9600,"station_id":"ce4bha92rcd13ifvqeh0","pricing_plan_id":"cebpf4jnsgd1na2vs0mg"},{"bike_id":"33e5b400-4462-43b3-8f5a-40e45b69eed1","system_id":"levelo_inurba_marseille","lat":43.291946,"lon":5.393257,"is_reserved":false,"is_disabled":false,"rental_uris":{"android":"levelo://app?vid=33e5b400-4462-43b3-8f5a-40e45b69eed1","ios":"levelo://app?vid=33e5b400-4462-43b3-8f5a-40e45b69eed1"},"vehicle_type_id":"4","last_reported":1741208909,"current_range_meters":9600,"station_id":"ce4bh192rcd13ifvqdd0","pricing_plan_id":"cebpf4jnsgd1na2vs0mg"},{"bike_id":"61a6adcd-dca9-42c7-a4d3-4975e7039d7e","system_id":"levelo_inurba_marseille","lat":43.28081,"lon":5.3964,"is_reserved":false,"is_disabled":false,"rental_uris":{"android":"levelo://app?vid=61a6adcd-dca9-42c7-a4d3-4975e7039d7e","ios":"levelo://app?vid=61a6adcd-dca9-42c7-a4d3-4975e7039d7e"},"vehicle_type_id":"4","last_reported":1741208909,"current_range_meters":9600,"station_id":"ce4bho12rcd13ifvqh2g","pricing_plan_id":"cebpf4jnsgd1na2vs0mg"},{"bike_id":"f3459b12-704e-4e38-bf15-bfc95696332b","system_id":"levelo_inurba_marseille","lat":43.29294,"lon":5.37453,"is_reserved":false,"is_disabled":false,"rental_uris":{"android":"levelo://app?vid=f3459b12-704e-4e38-bf15-bfc95696332b","ios":"levelo://app?vid=f3459b12-704e-4e38-bf15-bfc95696332b"},"vehicle_type_id":"4","last_reported":1741208909,"current_range_meters":8000,"station_id":"ce4bgi12rcd13ifvqb70","pricing_plan_id":"cebpf4jnsgd1na2vs0mg"},{"bike_id":"0a4f74e0-42e3-473c-833a-cc3dd28944e5","system_id":"levelo_inurba_marseille","lat":43.28002,"lon":5.40029,"is_reserved":false,"is_disabled":false,"rental_uris":{"android":"levelo://app?vid=0a4f74e0-42e3-473c-833a-cc3dd28944e5","ios":"levelo://app?vid=0a4f74e0-42e3-473c-833a-cc3dd28944e5"},"vehicle_type_id":"4","last_reported":1741208909,"current_range_meters":9600,"station_id":"ce4bho92rcd13ifvqh4g","pricing_plan_id":"cebpf4jnsgd1na2vs0mg"},{"bike_id":"29c43b50-035f-47e7-b84d-980187540468","system_id":"levelo_inurba_marseille","lat":43.2957,"lon":5.39971,"is_reserved":false,"is_disabled":false,"rental_uris":{"android":"levelo://app?vid=29c43b50-035f-47e7-b84d-980187540468","ios":"levelo://app?vid=29c43b50-035f-47e7-b84d-980187540468"},"vehicle_type_id":"4","last_reported":1741208909,"current_range_meters":9600,"station_id":"ce4bh312rcd13ifvqdj0","pricing_plan_id":"cebpf4jnsgd1na2vs0mg"},{"bike_id":"7b4f8cff-ffb9-4dae-8741-5123a474b481","system_id":"levelo_inurba_marseille","lat":43.27911,"lon":5.39585,"is_reserved":false,"is_disabled":false,"rental_uris":{"android":"levelo://app?vid=7b4f8cff-ffb9-4dae-8741-5123a474b481","ios":"levelo://app?vid=7b4f8cff-ffb9-4dae-8741-5123a474b481"},"vehicle_type_id":"4","last_reported":1741208909,"current_range_meters":9600,"station_id":"ce4bhf92rcd13ifvqf40","pricing_plan_id":"cebpf4jnsgd1na2vs0mg"},{"bike_id":"983eb5f5-44ab-41a8-b99b-2892fcb7622b","system_id":"levelo_inurba_marseille","lat":43.29206,"lon":5.39322,"is_reserved":false,"is_disabled":false,"rental_uris":{"android":"levelo://app?vid=983eb5f5-44ab-41a8-b99b-2892fcb7622b","ios":"levelo://app?vid=983eb5f5-44ab-41a8-b99b-2892fcb7622b"},"vehicle_type_id":"4","last_reported":1741208909,"current_range_meters":9600,"station_id":"ce4bh192rcd13ifvqdd0","pricing_plan_id":"cebpf4jnsgd1na2vs0mg"},{"bike_id":"12497cc8-3cc8-4a67-b203-4abe6a0e0c26","system_id":"levelo_inurba_marseille","lat":43.29194,"lon":5.39343,"is_reserved":false,"is_disabled":false,"rental_uris":{"android":"levelo://app?vid=12497cc8-3cc8-4a67-b203-4abe6a0e0c26","ios":"levelo://app?vid=12497cc8-3cc8-4a67-b203-4abe6a0e0c26"},"vehicle_type_id":"4","last_reported":1741208909,"current_range_meters":10000,"station_id":"ce4bh192rcd13ifvqdd0","pricing_plan_id":"cebpf4jnsgd1na2vs0mg"},{"bike_id":"d10378d9-ce56-4a8a-bdfe-1c2940fd6047","system_id":"levelo_inurba_marseille","lat":43.28006,"lon":5.4003,"is_reserved":false,"is_disabled":false,"rental_uris":{"android":"levelo://app?vid=d10378d9-ce56-4a8a-bdfe-1c2940fd6047","ios":"levelo://app?vid=d10378d9-ce56-4a8a-bdfe-1c2940fd6047"},"vehicle_type_id":"4","last_reported":1741208909,"current_range_meters":10000,"station_id":"ce4bho92rcd13ifvqh4g","pricing_plan_id":"cebpf4jnsgd1na2vs0mg"},{"bike_id":"dd77cf1f-213c-4462-b964-b64fe4e4eb17","system_id":"levelo_inurba_marseille","lat":43.29782,"lon":5.37079,"is_reserved":false,"is_disabled":false,"rental_uris":{"android":"levelo://app?vid=dd77cf1f-213c-4462-b964-b64fe4e4eb17","ios":"levelo://app?vid=dd77cf1f-213c-4462-b964-b64fe4e4eb17"},"vehicle_type_id":"4","last_reported":1741208909,"current_range_meters":10000,"station_id":"ce4bgop2rcd13ifvqc1g","pricing_plan_id":"cebpf4jnsgd1na2vs0mg"},{"bike_id":"bc1ff28f-0226-4fe1-bb42-0a1e2869659e","system_id":"levelo_inurba_marseille","lat":43.323759,"lon":5.389349,"is_reserved":false,"is_disabled":false,"rental_uris":{"android":"levelo://app?vid=bc1ff28f-0226-4fe1-bb42-0a1e2869659e","ios":"levelo://app?vid=bc1ff28f-0226-4fe1-bb42-0a1e2869659e"},"vehicle_type_id":"4","last_reported":1741208909,"current_range_meters":10000,"station_id":"ce4bhqp2rcd13ifvqhog","pricing_plan_id":"cebpf4jnsgd1na2vs0mg"},{"bike_id":"8e67c6c2-1f86-420e-855b-676e159ed831","system_id":"levelo_inurba_marseille","lat":43.230641,"lon":5.354912,"is_reserved":false,"is_disabled":false,"rental_uris":{"android":"levelo://app?vid=8e67c6c2-1f86-420e-855b-676e159ed831","ios":"levelo://app?vid=8e67c6c2-1f86-420e-855b-676e159ed831"},"vehicle_type_id":"4","last_reported":1741208909,"current_range_meters":10800,"station_id":"cpo3342slgdg3j2ifvpg","pricing_plan_id":"cebpf4jnsgd1na2vs0mg"},{"bike_id":"e06c9e42-b5a9-4c0c-bdaf-82bd2f03054e","system_id":"levelo_inurba_marseille","lat":43.29513,"lon":5.3903,"is_reserved":false,"is_disabled":false,"rental_uris":{"android":"levelo://app?vid=e06c9e42-b5a9-4c0c-bdaf-82bd2f03054e","ios":"levelo://app?vid=e06c9e42-b5a9-4c0c-bdaf-82bd2f03054e"},"vehicle_type_id":"4","last_reported":1741208909,"current_range_meters":10800,"station_id":"ce4bh3p2rcd13ifvqdp0","pricing_plan_id":"cebpf4jnsgd1na2vs0mg"},{"bike_id":"e661ac9a-00f3-48e9-a2f9-9cb238f764d8","system_id":"levelo_inurba_marseille","lat":43.28933,"lon":5.36618,"is_reserved":false,"is_disabled":false,"rental_uris":{"android":"levelo://app?vid=e661ac9a-00f3-48e9-a2f9-9cb238f764d8","ios":"levelo://app?vid=e661ac9a-00f3-48e9-a2f9-9cb238f764d8"},"vehicle_type_id":"4","last_reported":1741208909,"current_range_meters":10800,"station_id":"ce4bhap2rcd13ifvqek0","pricing_plan_id":"cebpf4jnsgd1na2vs0mg"},{"bike_id":"4fecef55-a3e5-4774-bb38-3310c98348d4","system_id":"levelo_inurba_marseille","lat":43.29531,"lon":5.38543,"is_reserved":false,"is_disabled":false,"rental_uris":{"android":"levelo://app?vid=4fecef55-a3e5-4774-bb38-3310c98348d4","ios":"levelo://app?vid=4fecef55-a3e5-4774-bb38-3310c98348d4"},"vehicle_type_id":"4","last_reported":1741208909,"current_range_meters":10800,"station_id":"ce4bgih2rcd13ifvqba0","pricing_plan_id":"cebpf4jnsgd1na2vs0mg"},{"bike_id":"fa66bbb1-2941-4167-af31-ea5b435ac063","system_id":"levelo_inurba_marseille","lat":43.29537,"lon":5.3855,"is_reserved":false,"is_disabled":false,"rental_uris":{"android":"levelo://app?vid=fa66bbb1-2941-4167-af31-ea5b435ac063","ios":"levelo://app?vid=fa66bbb1-2941-4167-af31-ea5b435ac063"},"vehicle_type_id":"4","last_reported":1741208909,"current_range_meters":10800,"station_id":"ce4bgih2rcd13ifvqba0","pricing_plan_id":"cebpf4jnsgd1na2vs0mg"},{"bike_id":"20a6bdbd-65c6-4950-9704-b68c9f02327b","system_id":"levelo_inurba_marseille","lat":43.30651,"lon":5.40088,"is_reserved":false,"is_disabled":false,"rental_uris":{"android":"levelo://app?vid=20a6bdbd-65c6-4950-9704-b68c9f02327b","ios":"levelo://app?vid=20a6bdbd-65c6-4950-9704-b68c9f02327b"},"vehicle_type_id":"4","last_reported":1741208909,"current_range_meters":10800,"station_id":"ce4bh112rcd13ifvqda0","pricing_plan_id":"cebpf4jnsgd1na2vs0mg"},{"bike_id":"b60f3a78-5898-4011-9dd7-b2406e2714d6","system_id":"levelo_inurba_marseille","lat":43.2953,"lon":5.38538,"is_reserved":false,"is_disabled":false,"rental_uris":{"android":"levelo://app?vid=b60f3a78-5898-4011-9dd7-b2406e2714d6","ios":"levelo://app?vid=b60f3a78-5898-4011-9dd7-b2406e2714d6"},"vehicle_type_id":"4","last_reported":1741208909,"current_range_meters":10800,"station_id":"ce4bgih2rcd13ifvqba0","pricing_plan_id":"cebpf4jnsgd1na2vs0mg"},{"bike_id":"c3420ede-4b8b-477e-982a-ad43884aafdb","system_id":"levelo_inurba_marseille","lat":43.30533,"lon":5.38412,"is_reserved":false,"is_disabled":false,"rental_uris":{"android":"levelo://app?vid=c3420ede-4b8b-477e-982a-ad43884aafdb","ios":"levelo://app?vid=c3420ede-4b8b-477e-982a-ad43884aafdb"},"vehicle_type_id":"4","last_reported":1741208909,"current_range_meters":8000,"station_id":"ce4bgg92rcd13ifvqb30","pricing_plan_id":"cebpf4jnsgd1na2vs0mg"},{"bike_id":"4aa1a903-875d-473d-a45d-6e3eb07245cd","system_id":"levelo_inurba_marseille","lat":43.31162,"lon":5.38702,"is_reserved":false,"is_disabled":false,"rental_uris":{"android":"levelo://app?vid=4aa1a903-875d-473d-a45d-6e3eb07245cd","ios":"levelo://app?vid=4aa1a903-875d-473d-a45d-6e3eb07245cd"},"vehicle_type_id":"4","last_reported":1741208909,"current_range_meters":10800,"station_id":"ce4bgv12rcd13ifvqcp0","pricing_plan_id":"cebpf4jnsgd1na2vs0mg"},{"bike_id":"4b56be8b-2b4f-4dc6-a370-1c984a4cfeb1","system_id":"levelo_inurba_marseille","lat":43.29423,"lon":5.38619,"is_reserved":false,"is_disabled":false,"rental_uris":{"android":"levelo://app?vid=4b56be8b-2b4f-4dc6-a370-1c984a4cfeb1","ios":"levelo://app?vid=4b56be8b-2b4f-4dc6-a370-1c984a4cfeb1"},"vehicle_type_id":"4","last_reported":1741208909,"current_range_meters":10800,"station_id":"ce4bh2h2rcd13ifvqdh0","pricing_plan_id":"cebpf4jnsgd1na2vs0mg"},{"bike_id":"5d331fd4-aab1-48b3-aa54-5ff977e5340d","system_id":"levelo_inurba_marseille","lat":43.3045,"lon":5.38884,"is_reserved":false,"is_disabled":false,"rental_uris":{"android":"levelo://app?vid=5d331fd4-aab1-48b3-aa54-5ff977e5340d","ios":"levelo://app?vid=5d331fd4-aab1-48b3-aa54-5ff977e5340d"},"vehicle_type_id":"4","last_reported":1741208909,"current_range_meters":11200,"station_id":"ce4bgk12rcd13ifvqbi0","pricing_plan_id":"cebpf4jnsgd1na2vs0mg"},{"bike_id":"4b37d7b2-e4f0-4881-ae4a-14e74b2ab8e7","system_id":"levelo_inurba_marseille","lat":43.29474,"lon":5.39746,"is_reserved":false,"is_disabled":true,"rental_uris":{"android":"levelo://app?vid=4b37d7b2-e4f0-4881-ae4a-14e74b2ab8e7","ios":"levelo://app?vid=4b37d7b2-e4f0-4881-ae4a-14e74b2ab8e7"},"vehicle_type_id":"4","last_reported":1741208909,"current_range_meters":11200,"station_id":"ce4bh3h2rcd13ifvqdo0","pricing_plan_id":"cebpf4jnsgd1na2vs0mg"},{"bike_id":"41fc5ccf-7cae-4a19-ab3c-a6c8d7cf741a","system_id":"levelo_inurba_marseille","lat":43.24073,"lon":5.37766,"is_reserved":false,"is_disabled":false,"rental_uris":{"android":"levelo://app?vid=41fc5ccf-7cae-4a19-ab3c-a6c8d7cf741a","ios":"levelo://app?vid=41fc5ccf-7cae-4a19-ab3c-a6c8d7cf741a"},"vehicle_type_id":"4","last_reported":1741208909,"current_range_meters":11200,"station_id":"ce4bhnp2rcd13ifvqgvg","pricing_plan_id":"cebpf4jnsgd1na2vs0mg"},{"bike_id":"7be10eac-e616-4904-8cdc-c543b04d589f","system_id":"levelo_inurba_marseille","lat":43.24195,"lon":5.36383,"is_reserved":false,"is_disabled":false,"rental_uris":{"android":"levelo://app?vid=7be10eac-e616-4904-8cdc-c543b04d589f","ios":"levelo://app?vid=7be10eac-e616-4904-8cdc-c543b04d589f"},"vehicle_type_id":"4","last_reported":1741208909,"current_range_meters":11200,"station_id":"cpo36qri1sfpv3e86is0","pricing_plan_id":"cebpf4jnsgd1na2vs0mg"},{"bike_id":"cfe4852d-8ccb-40dc-9ca9-7a1ab2e03a31","system_id":"levelo_inurba_marseille","lat":43.30773,"lon":5.37652,"is_reserved":false,"is_disabled":false,"rental_uris":{"android":"levelo://app?vid=cfe4852d-8ccb-40dc-9ca9-7a1ab2e03a31","ios":"levelo://app?vid=cfe4852d-8ccb-40dc-9ca9-7a1ab2e03a31"},"vehicle_type_id":"4","last_reported":1741208909,"current_range_meters":11200,"station_id":"ce4bgv92rcd13ifvqcq0","pricing_plan_id":"cebpf4jnsgd1na2vs0mg"},{"bike_id":"d7184b7d-81b1-4152-8eec-6faee4073379","system_id":"levelo_inurba_marseille","lat":43.28419,"lon":5.37519,"is_reserved":false,"is_disabled":false,"rental_uris":{"android":"levelo://app?vid=d7184b7d-81b1-4152-8eec-6faee4073379","ios":"levelo://app?vid=d7184b7d-81b1-4152-8eec-6faee4073379"},"vehicle_type_id":"4","last_reported":1741208909,"current_range_meters":11200,"station_id":"ce4bh412rcd13ifvqds0","pricing_plan_id":"cebpf4jnsgd1na2vs0mg"},{"bike_id":"ca07a718-f8ac-4087-9a95-92942dcf8e8f","system_id":"levelo_inurba_marseille","lat":43.30793,"lon":5.38154,"is_reserved":false,"is_disabled":false,"rental_uris":{"android":"levelo://app?vid=ca07a718-f8ac-4087-9a95-92942dcf8e8f","ios":"levelo://app?vid=ca07a718-f8ac-4087-9a95-92942dcf8e8f"},"vehicle_type_id":"4","last_reported":1741208909,"current_range_meters":10800,"station_id":"ce4bgt12rcd13ifvqce0","pricing_plan_id":"cebpf4jnsgd1na2vs0mg"},{"bike_id":"1541c923-478d-4331-a6bc-dc30e8a96065","system_id":"levelo_inurba_marseille","lat":43.28936,"lon":5.36408,"is_reserved":false,"is_disabled":false,"rental_uris":{"android":"levelo://app?vid=1541c923-478d-4331-a6bc-dc30e8a96065","ios":"levelo://app?vid=1541c923-478d-4331-a6bc-dc30e8a96065"},"vehicle_type_id":"4","last_reported":1741208909,"current_range_meters":11600,"station_id":"ce4bhc92rcd13ifvqetg","pricing_plan_id":"cebpf4jnsgd1na2vs0mg"},{"bike_id":"12a20f7f-cb45-4751-b1a9-af4e8cb47202","system_id":"levelo_inurba_marseille","lat":43.282628,"lon":5.35062,"is_reserved":false,"is_disabled":false,"rental_uris":{"android":"levelo://app?vid=12a20f7f-cb45-4751-b1a9-af4e8cb47202","ios":"levelo://app?vid=12a20f7f-cb45-4751-b1a9-af4e8cb47202"},"vehicle_type_id":"4","last_reported":1741208909,"current_range_meters":11600,"station_id":"ce4bhbp2rcd13ifvqerg","pricing_plan_id":"cebpf4jnsgd1na2vs0mg"},{"bike_id":"19707f4e-57a0-487d-a0fd-b6e158a12fa5","system_id":"levelo_inurba_marseille","lat":43.28103,"lon":5.37851,"is_reserved":false,"is_disabled":false,"rental_uris":{"android":"levelo://app?vid=19707f4e-57a0-487d-a0fd-b6e158a12fa5","ios":"levelo://app?vid=19707f4e-57a0-487d-a0fd-b6e158a12fa5"},"vehicle_type_id":"4","last_reported":1741208909,"current_range_meters":11600,"station_id":"ce4bha12rcd13ifvqee0","pricing_plan_id":"cebpf4jnsgd1na2vs0mg"},{"bike_id":"bb45f7b7-9587-4597-8722-1e39e214ac14","system_id":"levelo_inurba_marseille","lat":43.29304,"lon":5.37165,"is_reserved":false,"is_disabled":false,"rental_uris":{"android":"levelo://app?vid=bb45f7b7-9587-4597-8722-1e39e214ac14","ios":"levelo://app?vid=bb45f7b7-9587-4597-8722-1e39e214ac14"},"vehicle_type_id":"4","last_reported":1741208909,"current_range_meters":11600,"station_id":"ce4bgh92rcd13ifvqb40","pricing_plan_id":"cebpf4jnsgd1na2vs0mg"},{"bike_id":"88f1cdf8-d5f9-4bd1-9807-7495f7918208","system_id":"levelo_inurba_marseille","lat":43.31287,"lon":5.36815,"is_reserved":false,"is_disabled":false,"rental_uris":{"android":"levelo://app?vid=88f1cdf8-d5f9-4bd1-9807-7495f7918208","ios":"levelo://app?vid=88f1cdf8-d5f9-4bd1-9807-7495f7918208"},"vehicle_type_id":"4","last_reported":1741208909,"current_range_meters":11600,"station_id":"","pricing_plan_id":"cebpf4jnsgd1na2vs0mg"},{"bike_id":"6ab0c99d-6e8d-4655-92f8-3398841d09fa","system_id":"levelo_inurba_marseille","lat":43.27992,"lon":5.40017,"is_reserved":false,"is_disabled":false,"rental_uris":{"android":"levelo://app?vid=6ab0c99d-6e8d-4655-92f8-3398841d09fa","ios":"levelo://app?vid=6ab0c99d-6e8d-4655-92f8-3398841d09fa"},"vehicle_type_id":"4","last_reported":1741208909,"current_range_meters":11600,"station_id":"ce4bho92rcd13ifvqh4g","pricing_plan_id":"cebpf4jnsgd1na2vs0mg"},{"bike_id":"fa98af60-ad58-4ccc-a5a0-6ebd1ae22394","system_id":"levelo_inurba_marseille","lat":43.28103,"lon":5.37833,"is_reserved":false,"is_disabled":false,"rental_uris":{"android":"levelo://app?vid=fa98af60-ad58-4ccc-a5a0-6ebd1ae22394","ios":"levelo://app?vid=fa98af60-ad58-4ccc-a5a0-6ebd1ae22394"},"vehicle_type_id":"4","last_reported":1741208909,"current_range_meters":11600,"station_id":"ce4bha12rcd13ifvqee0","pricing_plan_id":"cebpf4jnsgd1na2vs0mg"},{"bike_id":"798acd2b-25fe-4105-b652-b2441316d3ae","system_id":"levelo_inurba_marseille","lat":43.26683,"lon":5.38258,"is_reserved":false,"is_disabled":true,"rental_uris":{"android":"levelo://app?vid=798acd2b-25fe-4105-b652-b2441316d3ae","ios":"levelo://app?vid=798acd2b-25fe-4105-b652-b2441316d3ae"},"vehicle_type_id":"4","last_reported":1741208909,"current_range_meters":11200,"station_id":"ce4bhg92rcd13ifvqf90","pricing_plan_id":"cebpf4jnsgd1na2vs0mg"},{"bike_id":"88d3dde0-88ad-492d-89b3-3139a3d5705f","system_id":"levelo_inurba_marseille","lat":43.29968,"lon":5.38493,"is_reserved":false,"is_disabled":false,"rental_uris":{"android":"levelo://app?vid=88d3dde0-88ad-492d-89b3-3139a3d5705f","ios":"levelo://app?vid=88d3dde0-88ad-492d-89b3-3139a3d5705f"},"vehicle_type_id":"4","last_reported":1741208909,"current_range_meters":11600,"station_id":"ce4bgj92rcd13ifvqbd0","pricing_plan_id":"cebpf4jnsgd1na2vs0mg"},{"bike_id":"edb3884d-abcd-4560-8dc9-302df86773ce","system_id":"levelo_inurba_marseille","lat":43.28944,"lon":5.3664,"is_reserved":false,"is_disabled":false,"rental_uris":{"android":"levelo://app?vid=edb3884d-abcd-4560-8dc9-302df86773ce","ios":"levelo://app?vid=edb3884d-abcd-4560-8dc9-302df86773ce"},"vehicle_type_id":"4","last_reported":1741208909,"current_range_meters":12000,"station_id":"ce4bhap2rcd13ifvqek0","pricing_plan_id":"cebpf4jnsgd1na2vs0mg"},{"bike_id":"f1969ae6-398f-4ca1-9c4a-74f3b1e55c0e","system_id":"levelo_inurba_marseille","lat":43.3089,"lon":5.39645,"is_reserved":false,"is_disabled":true,"rental_uris":{"android":"levelo://app?vid=f1969ae6-398f-4ca1-9c4a-74f3b1e55c0e","ios":"levelo://app?vid=f1969ae6-398f-4ca1-9c4a-74f3b1e55c0e"},"vehicle_type_id":"4","last_reported":1741208909,"current_range_meters":12000,"station_id":"ce4bh012rcd13ifvqcv0","pricing_plan_id":"cebpf4jnsgd1na2vs0mg"},{"bike_id":"a04945a2-f46f-4a31-934c-e5afa1784de6","system_id":"levelo_inurba_marseille","lat":43.28669,"lon":5.36353,"is_reserved":false,"is_disabled":false,"rental_uris":{"android":"levelo://app?vid=a04945a2-f46f-4a31-934c-e5afa1784de6","ios":"levelo://app?vid=a04945a2-f46f-4a31-934c-e5afa1784de6"},"vehicle_type_id":"4","last_reported":1741208909,"current_range_meters":12000,"station_id":"ce4bhah2rcd13ifvqej0","pricing_plan_id":"cebpf4jnsgd1na2vs0mg"},{"bike_id":"d2c86759-c403-4c7c-88f9-b29ee0f9435b","system_id":"levelo_inurba_marseille","lat":43.30931,"lon":5.40152,"is_reserved":false,"is_disabled":false,"rental_uris":{"android":"levelo://app?vid=d2c86759-c403-4c7c-88f9-b29ee0f9435b","ios":"levelo://app?vid=d2c86759-c403-4c7c-88f9-b29ee0f9435b"},"vehicle_type_id":"4","last_reported":1741208909,"current_range_meters":12000,"station_id":"ce4bgvp2rcd13ifvqct0","pricing_plan_id":"cebpf4jnsgd1na2vs0mg"},{"bike_id":"93e360f6-914d-4f2f-9f62-13fa240ce1c4","system_id":"levelo_inurba_marseille","lat":43.28932,"lon":5.38396,"is_reserved":false,"is_disabled":false,"rental_uris":{"android":"levelo://app?vid=93e360f6-914d-4f2f-9f62-13fa240ce1c4","ios":"levelo://app?vid=93e360f6-914d-4f2f-9f62-13fa240ce1c4"},"vehicle_type_id":"4","last_reported":1741208909,"current_range_meters":12000,"station_id":"ce4bh612rcd13ifvqe6g","pricing_plan_id":"cebpf4jnsgd1na2vs0mg"},{"bike_id":"f024c185-2a57-4e66-9bf5-e40d5d184cb1","system_id":"levelo_inurba_marseille","lat":43.25021,"lon":5.38924,"is_reserved":false,"is_disabled":false,"rental_uris":{"android":"levelo://app?vid=f024c185-2a57-4e66-9bf5-e40d5d184cb1","ios":"levelo://app?vid=f024c185-2a57-4e66-9bf5-e40d5d184cb1"},"vehicle_type_id":"4","last_reported":1741208909,"current_range_meters":11200,"station_id":"ce4bhgp2rcd13ifvqfd0","pricing_plan_id":"cebpf4jnsgd1na2vs0mg"},{"bike_id":"3acabc1e-11c2-491e-bc5d-b11d8884d3d4","system_id":"levelo_inurba_marseille","lat":43.28689,"lon":5.38673,"is_reserved":false,"is_disabled":false,"rental_uris":{"android":"levelo://app?vid=3acabc1e-11c2-491e-bc5d-b11d8884d3d4","ios":"levelo://app?vid=3acabc1e-11c2-491e-bc5d-b11d8884d3d4"},"vehicle_type_id":"4","last_reported":1741208909,"current_range_meters":12400,"station_id":"ce4bh492rcd13ifvqdug","pricing_plan_id":"cebpf4jnsgd1na2vs0mg"},{"bike_id":"42f3fd83-d5cd-45ba-afcf-0a822294d812","system_id":"levelo_inurba_marseille","lat":43.28595,"lon":5.42985,"is_reserved":false,"is_disabled":true,"rental_uris":{"android":"levelo://app?vid=42f3fd83-d5cd-45ba-afcf-0a822294d812","ios":"levelo://app?vid=42f3fd83-d5cd-45ba-afcf-0a822294d812"},"vehicle_type_id":"4","last_reported":1741208909,"current_range_meters":12400,"station_id":"","pricing_plan_id":"cebpf4jnsgd1na2vs0mg"},{"bike_id":"a0d8f949-6ee3-4689-9b5f-0c06c75b65f6","system_id":"levelo_inurba_marseille","lat":43.28084,"lon":5.39654,"is_reserved":false,"is_disabled":false,"rental_uris":{"android":"levelo://app?vid=a0d8f949-6ee3-4689-9b5f-0c06c75b65f6","ios":"levelo://app?vid=a0d8f949-6ee3-4689-9b5f-0c06c75b65f6"},"vehicle_type_id":"4","last_reported":1741208909,"current_range_meters":12400,"station_id":"ce4bho12rcd13ifvqh2g","pricing_plan_id":"cebpf4jnsgd1na2vs0mg"},{"bike_id":"51a8be7e-5a3d-48ec-85be-f518408342f1","system_id":"levelo_inurba_marseille","lat":43.28566,"lon":5.39505,"is_reserved":false,"is_disabled":false,"rental_uris":{"android":"levelo://app?vid=51a8be7e-5a3d-48ec-85be-f518408342f1","ios":"levelo://app?vid=51a8be7e-5a3d-48ec-85be-f518408342f1"},"vehicle_type_id":"4","last_reported":1741208909,"current_range_meters":12000,"station_id":"ce4bh292rcd13ifvqdg0","pricing_plan_id":"cebpf4jnsgd1na2vs0mg"},{"bike_id":"6bb40379-a505-4b1d-9282-b739c69ec956","system_id":"levelo_inurba_marseille","lat":43.28621,"lon":5.35102,"is_reserved":false,"is_disabled":false,"rental_uris":{"android":"levelo://app?vid=6bb40379-a505-4b1d-9282-b739c69ec956","ios":"levelo://app?vid=6bb40379-a505-4b1d-9282-b739c69ec956"},"vehicle_type_id":"4","last_reported":1741208909,"current_range_meters":12800,"station_id":"ce4bhch2rcd13ifvqeug","pricing_plan_id":"cebpf4jnsgd1na2vs0mg"},{"bike_id":"b3d6b562-588f-40e0-a82e-2b5b4334bf7b","system_id":"levelo_inurba_marseille","lat":43.265552,"lon":5.372848,"is_reserved":false,"is_disabled":false,"rental_uris":{"android":"levelo://app?vid=b3d6b562-588f-40e0-a82e-2b5b4334bf7b","ios":"levelo://app?vid=b3d6b562-588f-40e0-a82e-2b5b4334bf7b"},"vehicle_type_id":"4","last_reported":1741208909,"current_range_meters":12800,"station_id":"ce4bh692rcd13ifvqea0","pricing_plan_id":"cebpf4jnsgd1na2vs0mg"},{"bike_id":"ca1a041a-a77e-46be-a6bb-53fe35310996","system_id":"levelo_inurba_marseille","lat":43.24664,"lon":5.38162,"is_reserved":false,"is_disabled":false,"rental_uris":{"android":"levelo://app?vid=ca1a041a-a77e-46be-a6bb-53fe35310996","ios":"levelo://app?vid=ca1a041a-a77e-46be-a6bb-53fe35310996"},"vehicle_type_id":"4","last_reported":1741208909,"current_range_meters":12800,"station_id":"ce4bhih2rcd13ifvqfr0","pricing_plan_id":"cebpf4jnsgd1na2vs0mg"},{"bike_id":"ff51cf58-fb92-49b3-99ce-0d368460e499","system_id":"levelo_inurba_marseille","lat":43.28729,"lon":5.3609,"is_reserved":false,"is_disabled":false,"rental_uris":{"android":"levelo://app?vid=ff51cf58-fb92-49b3-99ce-0d368460e499","ios":"levelo://app?vid=ff51cf58-fb92-49b3-99ce-0d368460e499"},"vehicle_type_id":"4","last_reported":1741208909,"current_range_meters":12800,"station_id":"cki0cbj6b192h4jlfktg","pricing_plan_id":"cebpf4jnsgd1na2vs0mg"},{"bike_id":"deccb326-0579-4f88-8ded-8a796f163b88","system_id":"levelo_inurba_marseille","lat":43.31412,"lon":5.37595,"is_reserved":false,"is_disabled":false,"rental_uris":{"android":"levelo://app?vid=deccb326-0579-4f88-8ded-8a796f163b88","ios":"levelo://app?vid=deccb326-0579-4f88-8ded-8a796f163b88"},"vehicle_type_id":"4","last_reported":1741208909,"current_range_meters":12800,"station_id":"","pricing_plan_id":"cebpf4jnsgd1na2vs0mg"},{"bike_id":"123b1ed3-00ac-4c69-aa8e-d5785ac56bbe","system_id":"levelo_inurba_marseille","lat":43.30329,"lon":5.4044,"is_reserved":false,"is_disabled":false,"rental_uris":{"android":"levelo://app?vid=123b1ed3-00ac-4c69-aa8e-d5785ac56bbe","ios":"levelo://app?vid=123b1ed3-00ac-4c69-aa8e-d5785ac56bbe"},"vehicle_type_id":"4","last_reported":1741208909,"current_range_meters":12800,"station_id":"ce4bh012rcd13ifvqd10","pricing_plan_id":"cebpf4jnsgd1na2vs0mg"},{"bike_id":"9ffe4c62-2bd3-4723-993c-16dea11429a3","system_id":"levelo_inurba_marseille","lat":43.30786,"lon":5.37639,"is_reserved":false,"is_disabled":false,"rental_uris":{"android":"levelo://app?vid=9ffe4c62-2bd3-4723-993c-16dea11429a3","ios":"levelo://app?vid=9ffe4c62-2bd3-4723-993c-16dea11429a3"},"vehicle_type_id":"4","last_reported":1741208909,"current_range_meters":12800,"station_id":"ce4bgv92rcd13ifvqcq0","pricing_plan_id":"cebpf4jnsgd1na2vs0mg"},{"bike_id":"6394fffa-9b9b-4bbe-9197-995fa28b7814","system_id":"levelo_inurba_marseille","lat":43.25114,"lon":5.40313,"is_reserved":false,"is_disabled":false,"rental_uris":{"android":"levelo://app?vid=6394fffa-9b9b-4bbe-9197-995fa28b7814","ios":"levelo://app?vid=6394fffa-9b9b-4bbe-9197-995fa28b7814"},"vehicle_type_id":"4","last_reported":1741208909,"current_range_meters":13600,"station_id":"ce4bhlh2rcd13ifvqgig","pricing_plan_id":"cebpf4jnsgd1na2vs0mg"},{"bike_id":"bab0ac47-c916-4e47-9fb4-01832ee32486","system_id":"levelo_inurba_marseille","lat":43.29423,"lon":5.38626,"is_reserved":false,"is_disabled":false,"rental_uris":{"android":"levelo://app?vid=bab0ac47-c916-4e47-9fb4-01832ee32486","ios":"levelo://app?vid=bab0ac47-c916-4e47-9fb4-01832ee32486"},"vehicle_type_id":"4","last_reported":1741208909,"current_range_meters":13600,"station_id":"ce4bh2h2rcd13ifvqdh0","pricing_plan_id":"cebpf4jnsgd1na2vs0mg"},{"bike_id":"7f1905bf-da4d-4f13-af14-c5d46804e585","system_id":"levelo_inurba_marseille","lat":43.23196,"lon":5.35556,"is_reserved":false,"is_disabled":false,"rental_uris":{"android":"levelo://app?vid=7f1905bf-da4d-4f13-af14-c5d46804e585","ios":"levelo://app?vid=7f1905bf-da4d-4f13-af14-c5d46804e585"},"vehicle_type_id":"4","last_reported":1741208909,"current_range_meters":13600,"station_id":"ce4bhu92rcd13ifvqi70","pricing_plan_id":"cebpf4jnsgd1na2vs0mg"},{"bike_id":"58e06900-8a07-44fe-9b07-04dcd95039bb","system_id":"levelo_inurba_marseille","lat":43.29513,"lon":5.39033,"is_reserved":false,"is_disabled":false,"rental_uris":{"android":"levelo://app?vid=58e06900-8a07-44fe-9b07-04dcd95039bb","ios":"levelo://app?vid=58e06900-8a07-44fe-9b07-04dcd95039bb"},"vehicle_type_id":"4","last_reported":1741208909,"current_range_meters":13600,"station_id":"ce4bh3p2rcd13ifvqdp0","pricing_plan_id":"cebpf4jnsgd1na2vs0mg"},{"bike_id":"73d1f78b-6edc-4ddd-a685-99342e0072dd","system_id":"levelo_inurba_marseille","lat":43.29412,"lon":5.38584,"is_reserved":false,"is_disabled":false,"rental_uris":{"android":"levelo://app?vid=73d1f78b-6edc-4ddd-a685-99342e0072dd","ios":"levelo://app?vid=73d1f78b-6edc-4ddd-a685-99342e0072dd"},"vehicle_type_id":"4","last_reported":1741208909,"current_range_meters":13600,"station_id":"ce4bh2h2rcd13ifvqdh0","pricing_plan_id":"cebpf4jnsgd1na2vs0mg"},{"bike_id":"6a9f8ca0-5af1-4980-b975-8bd5c2ea5594","system_id":"levelo_inurba_marseille","lat":43.29428,"lon":5.37463,"is_reserved":false,"is_disabled":false,"rental_uris":{"android":"levelo://app?vid=6a9f8ca0-5af1-4980-b975-8bd5c2ea5594","ios":"levelo://app?vid=6a9f8ca0-5af1-4980-b975-8bd5c2ea5594"},"vehicle_type_id":"4","last_reported":1741208909,"current_range_meters":14000,"station_id":"","pricing_plan_id":"cebpf4jnsgd1na2vs0mg"},{"bike_id":"0b3cb245-c1ab-4265-9e03-36f6b9bfa685","system_id":"levelo_inurba_marseille","lat":43.23067,"lon":5.35499,"is_reserved":false,"is_disabled":false,"rental_uris":{"android":"levelo://app?vid=0b3cb245-c1ab-4265-9e03-36f6b9bfa685","ios":"levelo://app?vid=0b3cb245-c1ab-4265-9e03-36f6b9bfa685"},"vehicle_type_id":"4","last_reported":1741208909,"current_range_meters":14000,"station_id":"cpo3342slgdg3j2ifvpg","pricing_plan_id":"cebpf4jnsgd1na2vs0mg"},{"bike_id":"160d99f6-406c-48e7-92b4-461afd63ed3d","system_id":"levelo_inurba_marseille","lat":43.29573,"lon":5.39969,"is_reserved":false,"is_disabled":false,"rental_uris":{"android":"levelo://app?vid=160d99f6-406c-48e7-92b4-461afd63ed3d","ios":"levelo://app?vid=160d99f6-406c-48e7-92b4-461afd63ed3d"},"vehicle_type_id":"4","last_reported":1741208909,"current_range_meters":13600,"station_id":"ce4bh312rcd13ifvqdj0","pricing_plan_id":"cebpf4jnsgd1na2vs0mg"},{"bike_id":"070f0b28-933a-491f-9593-eed632e613d2","system_id":"levelo_inurba_marseille","lat":43.33738,"lon":5.39177,"is_reserved":false,"is_disabled":false,"rental_uris":{"android":"levelo://app?vid=070f0b28-933a-491f-9593-eed632e613d2","ios":"levelo://app?vid=070f0b28-933a-491f-9593-eed632e613d2"},"vehicle_type_id":"4","last_reported":1741208909,"current_range_meters":14400,"station_id":"ce4bhr92rcd13ifvqhsg","pricing_plan_id":"cebpf4jnsgd1na2vs0mg"},{"bike_id":"be5b5be4-7dee-46a7-ab79-b3a611383c0a","system_id":"levelo_inurba_marseille","lat":43.29277,"lon":5.36842,"is_reserved":false,"is_disabled":false,"rental_uris":{"android":"levelo://app?vid=be5b5be4-7dee-46a7-ab79-b3a611383c0a","ios":"levelo://app?vid=be5b5be4-7dee-46a7-ab79-b3a611383c0a"},"vehicle_type_id":"4","last_reported":1741208909,"current_range_meters":14400,"station_id":"ce4bhbp2rcd13ifvqesg","pricing_plan_id":"cebpf4jnsgd1na2vs0mg"},{"bike_id":"9ac1c336-dfa1-4d65-823a-b1369608e56e","system_id":"levelo_inurba_marseille","lat":43.27807,"lon":5.40303,"is_reserved":false,"is_disabled":false,"rental_uris":{"android":"levelo://app?vid=9ac1c336-dfa1-4d65-823a-b1369608e56e","ios":"levelo://app?vid=9ac1c336-dfa1-4d65-823a-b1369608e56e"},"vehicle_type_id":"4","last_reported":1741208909,"current_range_meters":14000,"station_id":"ce4bh292rcd13ifvqdg0","pricing_plan_id":"cebpf4jnsgd1na2vs0mg"},{"bike_id":"b81266b2-7136-458d-9697-f3c4ff8783c8","system_id":"levelo_inurba_marseille","lat":43.30796,"lon":5.38152,"is_reserved":false,"is_disabled":false,"rental_uris":{"android":"levelo://app?vid=b81266b2-7136-458d-9697-f3c4ff8783c8","ios":"levelo://app?vid=b81266b2-7136-458d-9697-f3c4ff8783c8"},"vehicle_type_id":"4","last_reported":1741208909,"current_range_meters":14800,"station_id":"ce4bgt12rcd13ifvqce0","pricing_plan_id":"cebpf4jnsgd1na2vs0mg"},{"bike_id":"be240f09-8b59-4ee0-96ab-ce1c7056fc7f","system_id":"levelo_inurba_marseille","lat":43.29188,"lon":5.39322,"is_reserved":false,"is_disabled":false,"rental_uris":{"android":"levelo://app?vid=be240f09-8b59-4ee0-96ab-ce1c7056fc7f","ios":"levelo://app?vid=be240f09-8b59-4ee0-96ab-ce1c7056fc7f"},"vehicle_type_id":"4","last_reported":1741208909,"current_range_meters":14800,"station_id":"ce4bh192rcd13ifvqdd0","pricing_plan_id":"cebpf4jnsgd1na2vs0mg"},{"bike_id":"7628ff89-4ee0-4030-93fe-4d980a8943a8","system_id":"levelo_inurba_marseille","lat":43.28157,"lon":5.42597,"is_reserved":false,"is_disabled":false,"rental_uris":{"android":"levelo://app?vid=7628ff89-4ee0-4030-93fe-4d980a8943a8","ios":"levelo://app?vid=7628ff89-4ee0-4030-93fe-4d980a8943a8"},"vehicle_type_id":"4","last_reported":1741208909,"current_range_meters":14000,"station_id":"ce4bhnh2rcd13ifvqgug","pricing_plan_id":"cebpf4jnsgd1na2vs0mg"},{"bike_id":"66dfca42-0e17-4dbc-ac51-f38f194e9d6e","system_id":"levelo_inurba_marseille","lat":43.2899,"lon":5.38093,"is_reserved":false,"is_disabled":false,"rental_uris":{"android":"levelo://app?vid=66dfca42-0e17-4dbc-ac51-f38f194e9d6e","ios":"levelo://app?vid=66dfca42-0e17-4dbc-ac51-f38f194e9d6e"},"vehicle_type_id":"4","last_reported":1741208909,"current_range_meters":14800,"station_id":"ce4bh4p2rcd13ifvqe1g","pricing_plan_id":"cebpf4jnsgd1na2vs0mg"},{"bike_id":"9f00589d-05ed-4682-a8cb-ed83a79571db","system_id":"levelo_inurba_marseille","lat":43.28848,"lon":5.39307,"is_reserved":false,"is_disabled":false,"rental_uris":{"android":"levelo://app?vid=9f00589d-05ed-4682-a8cb-ed83a79571db","ios":"levelo://app?vid=9f00589d-05ed-4682-a8cb-ed83a79571db"},"vehicle_type_id":"4","last_reported":1741208909,"current_range_meters":14800,"station_id":"ce4bh2p2rcd13ifvqdi0","pricing_plan_id":"cebpf4jnsgd1na2vs0mg"},{"bike_id":"6b0ab485-d469-4369-87d5-d8a589ffc853","system_id":"levelo_inurba_marseille","lat":43.31163,"lon":5.38725,"is_reserved":false,"is_disabled":false,"rental_uris":{"android":"levelo://app?vid=6b0ab485-d469-4369-87d5-d8a589ffc853","ios":"levelo://app?vid=6b0ab485-d469-4369-87d5-d8a589ffc853"},"vehicle_type_id":"4","last_reported":1741208909,"current_range_meters":15200,"station_id":"ce4bgv12rcd13ifvqcp0","pricing_plan_id":"cebpf4jnsgd1na2vs0mg"},{"bike_id":"6e6042af-59bf-48aa-ba7b-2f9c9a66fb2c","system_id":"levelo_inurba_marseille","lat":43.28935,"lon":5.36638,"is_reserved":false,"is_disabled":false,"rental_uris":{"android":"levelo://app?vid=6e6042af-59bf-48aa-ba7b-2f9c9a66fb2c","ios":"levelo://app?vid=6e6042af-59bf-48aa-ba7b-2f9c9a66fb2c"},"vehicle_type_id":"4","last_reported":1741208909,"current_range_meters":15200,"station_id":"ce4bhap2rcd13ifvqek0","pricing_plan_id":"cebpf4jnsgd1na2vs0mg"},{"bike_id":"6a221c15-df87-47a5-83f8-7826eb8856fb","system_id":"levelo_inurba_marseille","lat":43.29248,"lon":5.38423,"is_reserved":false,"is_disabled":false,"rental_uris":{"android":"levelo://app?vid=6a221c15-df87-47a5-83f8-7826eb8856fb","ios":"levelo://app?vid=6a221c15-df87-47a5-83f8-7826eb8856fb"},"vehicle_type_id":"4","last_reported":1741208909,"current_range_meters":15200,"station_id":"ce4bh692rcd13ifvqea0","pricing_plan_id":"cebpf4jnsgd1na2vs0mg"},{"bike_id":"9dcbde01-698c-4330-a463-ed95dfc536ce","system_id":"levelo_inurba_marseille","lat":43.3182,"lon":5.423698,"is_reserved":false,"is_disabled":false,"rental_uris":{"android":"levelo://app?vid=9dcbde01-698c-4330-a463-ed95dfc536ce","ios":"levelo://app?vid=9dcbde01-698c-4330-a463-ed95dfc536ce"},"vehicle_type_id":"4","last_reported":1741208909,"current_range_meters":15200,"station_id":"ce4bhp92rcd13ifvqhbg","pricing_plan_id":"cebpf4jnsgd1na2vs0mg"},{"bike_id":"5767adce-4b87-4fa6-ab5a-cd6bc1f79831","system_id":"levelo_inurba_marseille","lat":43.29572,"lon":5.40247,"is_reserved":false,"is_disabled":false,"rental_uris":{"android":"levelo://app?vid=5767adce-4b87-4fa6-ab5a-cd6bc1f79831","ios":"levelo://app?vid=5767adce-4b87-4fa6-ab5a-cd6bc1f79831"},"vehicle_type_id":"4","last_reported":1741208909,"current_range_meters":15200,"station_id":"","pricing_plan_id":"cebpf4jnsgd1na2vs0mg"},{"bike_id":"cb23fa5e-5019-40d7-a239-c075baf0c85b","system_id":"levelo_inurba_marseille","lat":43.28932,"lon":5.3663,"is_reserved":false,"is_disabled":false,"rental_uris":{"android":"levelo://app?vid=cb23fa5e-5019-40d7-a239-c075baf0c85b","ios":"levelo://app?vid=cb23fa5e-5019-40d7-a239-c075baf0c85b"},"vehicle_type_id":"4","last_reported":1741208909,"current_range_meters":16000,"station_id":"ce4bhap2rcd13ifvqek0","pricing_plan_id":"cebpf4jnsgd1na2vs0mg"},{"bike_id":"5a62d36f-144f-462b-a3df-56626507f702","system_id":"levelo_inurba_marseille","lat":43.26955,"lon":5.3864,"is_reserved":false,"is_disabled":false,"rental_uris":{"android":"levelo://app?vid=5a62d36f-144f-462b-a3df-56626507f702","ios":"levelo://app?vid=5a62d36f-144f-462b-a3df-56626507f702"},"vehicle_type_id":"4","last_reported":1741208909,"current_range_meters":16000,"station_id":"ce4bhh92rcd13ifvqfh0","pricing_plan_id":"cebpf4jnsgd1na2vs0mg"},{"bike_id":"ce473dce-350e-446f-ab87-47f1bb7bb4dd","system_id":"levelo_inurba_marseille","lat":43.27999,"lon":5.4002,"is_reserved":false,"is_disabled":false,"rental_uris":{"android":"levelo://app?vid=ce473dce-350e-446f-ab87-47f1bb7bb4dd","ios":"levelo://app?vid=ce473dce-350e-446f-ab87-47f1bb7bb4dd"},"vehicle_type_id":"4","last_reported":1741208909,"current_range_meters":16000,"station_id":"ce4bho92rcd13ifvqh4g","pricing_plan_id":"cebpf4jnsgd1na2vs0mg"},{"bike_id":"acf20595-7755-43d3-8c8f-296b234b0f1b","system_id":"levelo_inurba_marseille","lat":43.2509,"lon":5.41068,"is_reserved":false,"is_disabled":false,"rental_uris":{"android":"levelo://app?vid=acf20595-7755-43d3-8c8f-296b234b0f1b","ios":"levelo://app?vid=acf20595-7755-43d3-8c8f-296b234b0f1b"},"vehicle_type_id":"4","last_reported":1741208909,"current_range_meters":16000,"station_id":"","pricing_plan_id":"cebpf4jnsgd1na2vs0mg"},{"bike_id":"2efcb3fe-daab-4bc0-8756-02f56d7db58a","system_id":"levelo_inurba_marseille","lat":43.29254,"lon":5.38434,"is_reserved":false,"is_disabled":false,"rental_uris":{"android":"levelo://app?vid=2efcb3fe-daab-4bc0-8756-02f56d7db58a","ios":"levelo://app?vid=2efcb3fe-daab-4bc0-8756-02f56d7db58a"},"vehicle_type_id":"4","last_reported":1741208909,"current_range_meters":16000,"station_id":"ce4bh692rcd13ifvqea0","pricing_plan_id":"cebpf4jnsgd1na2vs0mg"},{"bike_id":"7cb5d2b6-f1df-489c-aae3-6fd46b81c378","system_id":"levelo_inurba_marseille","lat":43.308,"lon":5.4353,"is_reserved":false,"is_disabled":false,"rental_uris":{"android":"levelo://app?vid=7cb5d2b6-f1df-489c-aae3-6fd46b81c378","ios":"levelo://app?vid=7cb5d2b6-f1df-489c-aae3-6fd46b81c378"},"vehicle_type_id":"4","last_reported":1741208909,"current_range_meters":16000,"station_id":"ce4bhph2rcd13ifvqheg","pricing_plan_id":"cebpf4jnsgd1na2vs0mg"},{"bike_id":"6a35bdfb-bce0-4464-a229-8e066cf3eee6","system_id":"levelo_inurba_marseille","lat":43.29798,"lon":5.40402,"is_reserved":false,"is_disabled":false,"rental_uris":{"android":"levelo://app?vid=6a35bdfb-bce0-4464-a229-8e066cf3eee6","ios":"levelo://app?vid=6a35bdfb-bce0-4464-a229-8e066cf3eee6"},"vehicle_type_id":"4","last_reported":1741208909,"current_range_meters":13600,"station_id":"ce4bh112rcd13ifvqd90","pricing_plan_id":"cebpf4jnsgd1na2vs0mg"},{"bike_id":"c7cc2e21-7839-4548-a071-c42358a9f239","system_id":"levelo_inurba_marseille","lat":43.23181,"lon":5.39994,"is_reserved":false,"is_disabled":false,"rental_uris":{"android":"levelo://app?vid=c7cc2e21-7839-4548-a071-c42358a9f239","ios":"levelo://app?vid=c7cc2e21-7839-4548-a071-c42358a9f239"},"vehicle_type_id":"4","last_reported":1741208909,"current_range_meters":14400,"station_id":"ce4bhn12rcd13ifvqgqg","pricing_plan_id":"cebpf4jnsgd1na2vs0mg"},{"bike_id":"57d67a4d-7fbc-42eb-b50f-18062a4ffdfb","system_id":"levelo_inurba_marseille","lat":43.2845,"lon":5.39178,"is_reserved":false,"is_disabled":false,"rental_uris":{"android":"levelo://app?vid=57d67a4d-7fbc-42eb-b50f-18062a4ffdfb","ios":"levelo://app?vid=57d67a4d-7fbc-42eb-b50f-18062a4ffdfb"},"vehicle_type_id":"4","last_reported":1741208909,"current_range_meters":16400,"station_id":"ce4bhoh2rcd13ifvqh5g","pricing_plan_id":"cebpf4jnsgd1na2vs0mg"},{"bike_id":"d86f8736-019e-42bc-8e26-7fa7feba3e20","system_id":"levelo_inurba_marseille","lat":43.31159,"lon":5.38678,"is_reserved":false,"is_disabled":false,"rental_uris":{"android":"levelo://app?vid=d86f8736-019e-42bc-8e26-7fa7feba3e20","ios":"levelo://app?vid=d86f8736-019e-42bc-8e26-7fa7feba3e20"},"vehicle_type_id":"4","last_reported":1741208909,"current_range_meters":16400,"station_id":"ce4bgv12rcd13ifvqcp0","pricing_plan_id":"cebpf4jnsgd1na2vs0mg"},{"bike_id":"051dfc05-0a94-496f-9e67-2505994a08e6","system_id":"levelo_inurba_marseille","lat":43.29413,"lon":5.38653,"is_reserved":false,"is_disabled":false,"rental_uris":{"android":"levelo://app?vid=051dfc05-0a94-496f-9e67-2505994a08e6","ios":"levelo://app?vid=051dfc05-0a94-496f-9e67-2505994a08e6"},"vehicle_type_id":"4","last_reported":1741208909,"current_range_meters":16400,"station_id":"ce4bh2h2rcd13ifvqdh0","pricing_plan_id":"cebpf4jnsgd1na2vs0mg"},{"bike_id":"ef33791b-fe73-41a7-bfe2-2c890402d267","system_id":"levelo_inurba_marseille","lat":43.25122,"lon":5.40315,"is_reserved":false,"is_disabled":false,"rental_uris":{"android":"levelo://app?vid=ef33791b-fe73-41a7-bfe2-2c890402d267","ios":"levelo://app?vid=ef33791b-fe73-41a7-bfe2-2c890402d267"},"vehicle_type_id":"4","last_reported":1741208909,"current_range_meters":16400,"station_id":"ce4bhlh2rcd13ifvqgig","pricing_plan_id":"cebpf4jnsgd1na2vs0mg"},{"bike_id":"98a1abc3-601b-4576-b2df-57cfbfeb024d","system_id":"levelo_inurba_marseille","lat":43.28104,"lon":5.37863,"is_reserved":false,"is_disabled":false,"rental_uris":{"android":"levelo://app?vid=98a1abc3-601b-4576-b2df-57cfbfeb024d","ios":"levelo://app?vid=98a1abc3-601b-4576-b2df-57cfbfeb024d"},"vehicle_type_id":"4","last_reported":1741208909,"current_range_meters":16400,"station_id":"ce4bha12rcd13ifvqee0","pricing_plan_id":"cebpf4jnsgd1na2vs0mg"},{"bike_id":"45122d05-26eb-48f0-9a61-895281fa4f5c","system_id":"levelo_inurba_marseille","lat":43.29258,"lon":5.38451,"is_reserved":false,"is_disabled":false,"rental_uris":{"android":"levelo://app?vid=45122d05-26eb-48f0-9a61-895281fa4f5c","ios":"levelo://app?vid=45122d05-26eb-48f0-9a61-895281fa4f5c"},"vehicle_type_id":"4","last_reported":1741208909,"current_range_meters":16400,"station_id":"ce4bh692rcd13ifvqea0","pricing_plan_id":"cebpf4jnsgd1na2vs0mg"},{"bike_id":"ffa1112c-0f84-4ff4-b346-843cf30536aa","system_id":"levelo_inurba_marseille","lat":43.28701,"lon":5.40005,"is_reserved":false,"is_disabled":false,"rental_uris":{"android":"levelo://app?vid=ffa1112c-0f84-4ff4-b346-843cf30536aa","ios":"levelo://app?vid=ffa1112c-0f84-4ff4-b346-843cf30536aa"},"vehicle_type_id":"4","last_reported":1741208909,"current_range_meters":16400,"station_id":"ce4bho92rcd13ifvqh3g","pricing_plan_id":"cebpf4jnsgd1na2vs0mg"},{"bike_id":"eb349d4a-0d99-4439-8882-617b17acaea4","system_id":"levelo_inurba_marseille","lat":43.29187,"lon":5.35803,"is_reserved":false,"is_disabled":false,"rental_uris":{"android":"levelo://app?vid=eb349d4a-0d99-4439-8882-617b17acaea4","ios":"levelo://app?vid=eb349d4a-0d99-4439-8882-617b17acaea4"},"vehicle_type_id":"4","last_reported":1741208909,"current_range_meters":16800,"station_id":"ce4bhb12rcd13ifvqel0","pricing_plan_id":"cebpf4jnsgd1na2vs0mg"},{"bike_id":"bf030217-95a7-44f6-a57c-986e647d8e0c","system_id":"levelo_inurba_marseille","lat":43.29536,"lon":5.38549,"is_reserved":false,"is_disabled":false,"rental_uris":{"android":"levelo://app?vid=bf030217-95a7-44f6-a57c-986e647d8e0c","ios":"levelo://app?vid=bf030217-95a7-44f6-a57c-986e647d8e0c"},"vehicle_type_id":"4","last_reported":1741208909,"current_range_meters":16800,"station_id":"ce4bgih2rcd13ifvqba0","pricing_plan_id":"cebpf4jnsgd1na2vs0mg"},{"bike_id":"b4eca92e-f557-43df-a620-caa0a4c6d751","system_id":"levelo_inurba_marseille","lat":43.28347,"lon":5.38098,"is_reserved":false,"is_disabled":false,"rental_uris":{"android":"levelo://app?vid=b4eca92e-f557-43df-a620-caa0a4c6d751","ios":"levelo://app?vid=b4eca92e-f557-43df-a620-caa0a4c6d751"},"vehicle_type_id":"4","last_reported":1741208909,"current_range_meters":16800,"station_id":"ce4bh412rcd13ifvqdr0","pricing_plan_id":"cebpf4jnsgd1na2vs0mg"},{"bike_id":"b808de5b-c9f7-4ff9-b594-8798d4b2d49c","system_id":"levelo_inurba_marseille","lat":43.29287,"lon":5.37632,"is_reserved":false,"is_disabled":false,"rental_uris":{"android":"levelo://app?vid=b808de5b-c9f7-4ff9-b594-8798d4b2d49c","ios":"levelo://app?vid=b808de5b-c9f7-4ff9-b594-8798d4b2d49c"},"vehicle_type_id":"4","last_reported":1741208909,"current_range_meters":16800,"station_id":"ce4bgi12rcd13ifvqb80","pricing_plan_id":"cebpf4jnsgd1na2vs0mg"},{"bike_id":"a585c947-8f9c-479f-8ee7-957444de4603","system_id":"levelo_inurba_marseille","lat":43.28545,"lon":5.39487,"is_reserved":false,"is_disabled":false,"rental_uris":{"android":"levelo://app?vid=a585c947-8f9c-479f-8ee7-957444de4603","ios":"levelo://app?vid=a585c947-8f9c-479f-8ee7-957444de4603"},"vehicle_type_id":"4","last_reported":1741208909,"current_range_meters":16400,"station_id":"ce4bh292rcd13ifvqdg0","pricing_plan_id":"cebpf4jnsgd1na2vs0mg"},{"bike_id":"1bc0c6d0-7e10-4b8d-a0c9-084dbeb3f1f3","system_id":"levelo_inurba_marseille","lat":43.30882,"lon":5.39641,"is_reserved":false,"is_disabled":false,"rental_uris":{"android":"levelo://app?vid=1bc0c6d0-7e10-4b8d-a0c9-084dbeb3f1f3","ios":"levelo://app?vid=1bc0c6d0-7e10-4b8d-a0c9-084dbeb3f1f3"},"vehicle_type_id":"4","last_reported":1741208909,"current_range_meters":16800,"station_id":"ce4bh012rcd13ifvqcv0","pricing_plan_id":"cebpf4jnsgd1na2vs0mg"},{"bike_id":"1b01aa92-c556-40e5-85c7-61664ececda2","system_id":"levelo_inurba_marseille","lat":43.3149,"lon":5.37308,"is_reserved":false,"is_disabled":false,"rental_uris":{"android":"levelo://app?vid=1b01aa92-c556-40e5-85c7-61664ececda2","ios":"levelo://app?vid=1b01aa92-c556-40e5-85c7-61664ececda2"},"vehicle_type_id":"4","last_reported":1741208909,"current_range_meters":16800,"station_id":"ce4bgt12rcd13ifvqcd0","pricing_plan_id":"cebpf4jnsgd1na2vs0mg"},{"bike_id":"dae77719-96f1-4615-ae17-b42ddec1f9e5","system_id":"levelo_inurba_marseille","lat":43.3092,"lon":5.40149,"is_reserved":false,"is_disabled":false,"rental_uris":{"android":"levelo://app?vid=dae77719-96f1-4615-ae17-b42ddec1f9e5","ios":"levelo://app?vid=dae77719-96f1-4615-ae17-b42ddec1f9e5"},"vehicle_type_id":"4","last_reported":1741208909,"current_range_meters":16800,"station_id":"ce4bgvp2rcd13ifvqct0","pricing_plan_id":"cebpf4jnsgd1na2vs0mg"},{"bike_id":"13f7799c-a29a-4758-8101-19a482f5506c","system_id":"levelo_inurba_marseille","lat":43.27991,"lon":5.40025,"is_reserved":false,"is_disabled":false,"rental_uris":{"android":"levelo://app?vid=13f7799c-a29a-4758-8101-19a482f5506c","ios":"levelo://app?vid=13f7799c-a29a-4758-8101-19a482f5506c"},"vehicle_type_id":"4","last_reported":1741208909,"current_range_meters":16800,"station_id":"ce4bho92rcd13ifvqh4g","pricing_plan_id":"cebpf4jnsgd1na2vs0mg"},{"bike_id":"0cee6dbb-1037-4c6f-946e-bf6311663e5c","system_id":"levelo_inurba_marseille","lat":43.28254,"lon":5.35066,"is_reserved":false,"is_disabled":false,"rental_uris":{"android":"levelo://app?vid=0cee6dbb-1037-4c6f-946e-bf6311663e5c","ios":"levelo://app?vid=0cee6dbb-1037-4c6f-946e-bf6311663e5c"},"vehicle_type_id":"4","last_reported":1741208909,"current_range_meters":16400,"station_id":"ce4bhbp2rcd13ifvqerg","pricing_plan_id":"cebpf4jnsgd1na2vs0mg"},{"bike_id":"da46d397-1fa9-4ea9-ad84-6594cc95fb1d","system_id":"levelo_inurba_marseille","lat":43.279988,"lon":5.400085,"is_reserved":false,"is_disabled":false,"rental_uris":{"android":"levelo://app?vid=da46d397-1fa9-4ea9-ad84-6594cc95fb1d","ios":"levelo://app?vid=da46d397-1fa9-4ea9-ad84-6594cc95fb1d"},"vehicle_type_id":"4","last_reported":1741208909,"current_range_meters":17200,"station_id":"ce4bho92rcd13ifvqh4g","pricing_plan_id":"cebpf4jnsgd1na2vs0mg"},{"bike_id":"52b19b0a-896e-4508-971e-9b8862ef11d0","system_id":"levelo_inurba_marseille","lat":43.23073,"lon":5.35506,"is_reserved":false,"is_disabled":false,"rental_uris":{"android":"levelo://app?vid=52b19b0a-896e-4508-971e-9b8862ef11d0","ios":"levelo://app?vid=52b19b0a-896e-4508-971e-9b8862ef11d0"},"vehicle_type_id":"4","last_reported":1741208909,"current_range_meters":17200,"station_id":"cpo3342slgdg3j2ifvpg","pricing_plan_id":"cebpf4jnsgd1na2vs0mg"},{"bike_id":"f2896ecd-b24b-46c4-8d75-7e3bebc05adf","system_id":"levelo_inurba_marseille","lat":43.2954,"lon":5.3854,"is_reserved":false,"is_disabled":true,"rental_uris":{"android":"levelo://app?vid=f2896ecd-b24b-46c4-8d75-7e3bebc05adf","ios":"levelo://app?vid=f2896ecd-b24b-46c4-8d75-7e3bebc05adf"},"vehicle_type_id":"4","last_reported":1741208909,"current_range_meters":17200,"station_id":"ce4bgih2rcd13ifvqba0","pricing_plan_id":"cebpf4jnsgd1na2vs0mg"},{"bike_id":"7940066d-cd24-41b6-836e-1355fc2b9e03","system_id":"levelo_inurba_marseille","lat":43.2321,"lon":5.35572,"is_reserved":false,"is_disabled":false,"rental_uris":{"android":"levelo://app?vid=7940066d-cd24-41b6-836e-1355fc2b9e03","ios":"levelo://app?vid=7940066d-cd24-41b6-836e-1355fc2b9e03"},"vehicle_type_id":"4","last_reported":1741208909,"current_range_meters":17200,"station_id":"ce4bhu92rcd13ifvqi70","pricing_plan_id":"cebpf4jnsgd1na2vs0mg"},{"bike_id":"c0b7ddde-74bf-4be4-b818-5eb6dcd58992","system_id":"levelo_inurba_marseille","lat":43.30471,"lon":5.36889,"is_reserved":false,"is_disabled":false,"rental_uris":{"android":"levelo://app?vid=c0b7ddde-74bf-4be4-b818-5eb6dcd58992","ios":"levelo://app?vid=c0b7ddde-74bf-4be4-b818-5eb6dcd58992"},"vehicle_type_id":"4","last_reported":1741208909,"current_range_meters":17200,"station_id":"","pricing_plan_id":"cebpf4jnsgd1na2vs0mg"},{"bike_id":"87c905b4-b64d-499c-913e-900643c90ee6","system_id":"levelo_inurba_marseille","lat":43.28572,"lon":5.39497,"is_reserved":false,"is_disabled":false,"rental_uris":{"android":"levelo://app?vid=87c905b4-b64d-499c-913e-900643c90ee6","ios":"levelo://app?vid=87c905b4-b64d-499c-913e-900643c90ee6"},"vehicle_type_id":"4","last_reported":1741208909,"current_range_meters":17200,"station_id":"ce4bh292rcd13ifvqdg0","pricing_plan_id":"cebpf4jnsgd1na2vs0mg"},{"bike_id":"84015ccf-994b-4f1d-865d-5c15201c6edb","system_id":"levelo_inurba_marseille","lat":43.28479,"lon":5.38553,"is_reserved":false,"is_disabled":false,"rental_uris":{"android":"levelo://app?vid=84015ccf-994b-4f1d-865d-5c15201c6edb","ios":"levelo://app?vid=84015ccf-994b-4f1d-865d-5c15201c6edb"},"vehicle_type_id":"4","last_reported":1741208909,"current_range_meters":17200,"station_id":"ce4bh8p2rcd13ifvqeb0","pricing_plan_id":"cebpf4jnsgd1na2vs0mg"},{"bike_id":"cf9ddbb6-3222-4b05-ba3a-6bea5abb9d7f","system_id":"levelo_inurba_marseille","lat":43.30807,"lon":5.38148,"is_reserved":false,"is_disabled":false,"rental_uris":{"android":"levelo://app?vid=cf9ddbb6-3222-4b05-ba3a-6bea5abb9d7f","ios":"levelo://app?vid=cf9ddbb6-3222-4b05-ba3a-6bea5abb9d7f"},"vehicle_type_id":"4","last_reported":1741208909,"current_range_meters":17600,"station_id":"ce4bgt12rcd13ifvqce0","pricing_plan_id":"cebpf4jnsgd1na2vs0mg"},{"bike_id":"9473cc53-fda0-4de4-af37-4d2c899c9b25","system_id":"levelo_inurba_marseille","lat":43.27984,"lon":5.40006,"is_reserved":false,"is_disabled":false,"rental_uris":{"android":"levelo://app?vid=9473cc53-fda0-4de4-af37-4d2c899c9b25","ios":"levelo://app?vid=9473cc53-fda0-4de4-af37-4d2c899c9b25"},"vehicle_type_id":"4","last_reported":1741208909,"current_range_meters":17600,"station_id":"ce4bho92rcd13ifvqh4g","pricing_plan_id":"cebpf4jnsgd1na2vs0mg"},{"bike_id":"b82a4310-faa0-49cc-ac88-47512c5fe680","system_id":"levelo_inurba_marseille","lat":43.30889,"lon":5.39657,"is_reserved":false,"is_disabled":false,"rental_uris":{"android":"levelo://app?vid=b82a4310-faa0-49cc-ac88-47512c5fe680","ios":"levelo://app?vid=b82a4310-faa0-49cc-ac88-47512c5fe680"},"vehicle_type_id":"4","last_reported":1741208909,"current_range_meters":17600,"station_id":"ce4bh012rcd13ifvqcv0","pricing_plan_id":"cebpf4jnsgd1na2vs0mg"},{"bike_id":"594cc1b1-cc9e-4a36-b127-5c66c54f3649","system_id":"levelo_inurba_marseille","lat":43.28098,"lon":5.37839,"is_reserved":false,"is_disabled":false,"rental_uris":{"android":"levelo://app?vid=594cc1b1-cc9e-4a36-b127-5c66c54f3649","ios":"levelo://app?vid=594cc1b1-cc9e-4a36-b127-5c66c54f3649"},"vehicle_type_id":"4","last_reported":1741208909,"current_range_meters":17600,"station_id":"ce4bha12rcd13ifvqee0","pricing_plan_id":"cebpf4jnsgd1na2vs0mg"},{"bike_id":"a16ca73a-2a93-46a8-9654-bf75c34070af","system_id":"levelo_inurba_marseille","lat":43.28727,"lon":5.37941,"is_reserved":false,"is_disabled":false,"rental_uris":{"android":"levelo://app?vid=a16ca73a-2a93-46a8-9654-bf75c34070af","ios":"levelo://app?vid=a16ca73a-2a93-46a8-9654-bf75c34070af"},"vehicle_type_id":"4","last_reported":1741208909,"current_range_meters":17600,"station_id":"","pricing_plan_id":"cebpf4jnsgd1na2vs0mg"},{"bike_id":"670475d3-7528-4b4f-a9c6-8ef591f89160","system_id":"levelo_inurba_marseille","lat":43.28666,"lon":5.36355,"is_reserved":false,"is_disabled":false,"rental_uris":{"android":"levelo://app?vid=670475d3-7528-4b4f-a9c6-8ef591f89160","ios":"levelo://app?vid=670475d3-7528-4b4f-a9c6-8ef591f89160"},"vehicle_type_id":"4","last_reported":1741208909,"current_range_meters":17600,"station_id":"ce4bhah2rcd13ifvqej0","pricing_plan_id":"cebpf4jnsgd1na2vs0mg"},{"bike_id":"ac46262e-7adb-4377-97f1-d6f168b35d38","system_id":"levelo_inurba_marseille","lat":43.26551,"lon":5.3899,"is_reserved":false,"is_disabled":false,"rental_uris":{"android":"levelo://app?vid=ac46262e-7adb-4377-97f1-d6f168b35d38","ios":"levelo://app?vid=ac46262e-7adb-4377-97f1-d6f168b35d38"},"vehicle_type_id":"4","last_reported":1741208909,"current_range_meters":17600,"station_id":"ce4bhe12rcd13ifvqf30","pricing_plan_id":"cebpf4jnsgd1na2vs0mg"},{"bike_id":"03079e20-3ea3-4b65-b016-93bb3664b34a","system_id":"levelo_inurba_marseille","lat":43.31332,"lon":5.39715,"is_reserved":false,"is_disabled":false,"rental_uris":{"android":"levelo://app?vid=03079e20-3ea3-4b65-b016-93bb3664b34a","ios":"levelo://app?vid=03079e20-3ea3-4b65-b016-93bb3664b34a"},"vehicle_type_id":"4","last_reported":1741208909,"current_range_meters":18000,"station_id":"ce4bgvp2rcd13ifvqcu0","pricing_plan_id":"cebpf4jnsgd1na2vs0mg"},{"bike_id":"322f7df7-77ff-4e80-85a1-2d36ed5507f3","system_id":"levelo_inurba_marseille","lat":43.28926,"lon":5.38416,"is_reserved":false,"is_disabled":false,"rental_uris":{"android":"levelo://app?vid=322f7df7-77ff-4e80-85a1-2d36ed5507f3","ios":"levelo://app?vid=322f7df7-77ff-4e80-85a1-2d36ed5507f3"},"vehicle_type_id":"4","last_reported":1741208909,"current_range_meters":17600,"station_id":"ce4bh612rcd13ifvqe6g","pricing_plan_id":"cebpf4jnsgd1na2vs0mg"},{"bike_id":"d9ff3617-2120-408e-a9c1-1c1d3bb9c3b6","system_id":"levelo_inurba_marseille","lat":43.27909,"lon":5.396,"is_reserved":false,"is_disabled":false,"rental_uris":{"android":"levelo://app?vid=d9ff3617-2120-408e-a9c1-1c1d3bb9c3b6","ios":"levelo://app?vid=d9ff3617-2120-408e-a9c1-1c1d3bb9c3b6"},"vehicle_type_id":"4","last_reported":1741208909,"current_range_meters":18000,"station_id":"ce4bhf92rcd13ifvqf40","pricing_plan_id":"cebpf4jnsgd1na2vs0mg"},{"bike_id":"f927a9c8-5d84-472f-b8fd-88f2fc3bc3e6","system_id":"levelo_inurba_marseille","lat":43.299,"lon":5.43674,"is_reserved":false,"is_disabled":false,"rental_uris":{"android":"levelo://app?vid=f927a9c8-5d84-472f-b8fd-88f2fc3bc3e6","ios":"levelo://app?vid=f927a9c8-5d84-472f-b8fd-88f2fc3bc3e6"},"vehicle_type_id":"4","last_reported":1741208909,"current_range_meters":18000,"station_id":"ce4bhpp2rcd13ifvqhfg","pricing_plan_id":"cebpf4jnsgd1na2vs0mg"},{"bike_id":"bd0a603c-b0da-4110-bc59-661cb7877b09","system_id":"levelo_inurba_marseille","lat":43.29512,"lon":5.39423,"is_reserved":false,"is_disabled":false,"rental_uris":{"android":"levelo://app?vid=bd0a603c-b0da-4110-bc59-661cb7877b09","ios":"levelo://app?vid=bd0a603c-b0da-4110-bc59-661cb7877b09"},"vehicle_type_id":"4","last_reported":1741208909,"current_range_meters":18000,"station_id":"ce4bh292rcd13ifvqdf0","pricing_plan_id":"cebpf4jnsgd1na2vs0mg"},{"bike_id":"c0330a78-9dc0-46ed-a902-732c98c17f0d","system_id":"levelo_inurba_marseille","lat":43.29305,"lon":5.37175,"is_reserved":false,"is_disabled":false,"rental_uris":{"android":"levelo://app?vid=c0330a78-9dc0-46ed-a902-732c98c17f0d","ios":"levelo://app?vid=c0330a78-9dc0-46ed-a902-732c98c17f0d"},"vehicle_type_id":"4","last_reported":1741208909,"current_range_meters":18000,"station_id":"ce4bgh92rcd13ifvqb40","pricing_plan_id":"cebpf4jnsgd1na2vs0mg"},{"bike_id":"f6886864-24d9-446e-843a-3a8c7cbefacd","system_id":"levelo_inurba_marseille","lat":43.27802,"lon":5.40717,"is_reserved":false,"is_disabled":false,"rental_uris":{"android":"levelo://app?vid=f6886864-24d9-446e-843a-3a8c7cbefacd","ios":"levelo://app?vid=f6886864-24d9-446e-843a-3a8c7cbefacd"},"vehicle_type_id":"4","last_reported":1741208909,"current_range_meters":18000,"station_id":"ce4bhnh2rcd13ifvqgtg","pricing_plan_id":"cebpf4jnsgd1na2vs0mg"},{"bike_id":"08d82b42-81a7-4f80-a594-5c2b53e40e3b","system_id":"levelo_inurba_marseille","lat":43.29626,"lon":5.40595,"is_reserved":false,"is_disabled":false,"rental_uris":{"android":"levelo://app?vid=08d82b42-81a7-4f80-a594-5c2b53e40e3b","ios":"levelo://app?vid=08d82b42-81a7-4f80-a594-5c2b53e40e3b"},"vehicle_type_id":"4","last_reported":1741208909,"current_range_meters":17200,"station_id":"ce4bh0h2rcd13ifvqd60","pricing_plan_id":"cebpf4jnsgd1na2vs0mg"},{"bike_id":"6b6693de-27f2-4657-af46-98a9bfa57062","system_id":"levelo_inurba_marseille","lat":43.28504,"lon":5.38575,"is_reserved":false,"is_disabled":false,"rental_uris":{"android":"levelo://app?vid=6b6693de-27f2-4657-af46-98a9bfa57062","ios":"levelo://app?vid=6b6693de-27f2-4657-af46-98a9bfa57062"},"vehicle_type_id":"4","last_reported":1741208909,"current_range_meters":18000,"station_id":"ce4bh8p2rcd13ifvqeb0","pricing_plan_id":"cebpf4jnsgd1na2vs0mg"},{"bike_id":"5dfd7e16-25ee-4993-b950-9bdbaafa4b99","system_id":"levelo_inurba_marseille","lat":43.30535,"lon":5.38431,"is_reserved":false,"is_disabled":false,"rental_uris":{"android":"levelo://app?vid=5dfd7e16-25ee-4993-b950-9bdbaafa4b99","ios":"levelo://app?vid=5dfd7e16-25ee-4993-b950-9bdbaafa4b99"},"vehicle_type_id":"4","last_reported":1741208909,"current_range_meters":19200,"station_id":"ce4bgg92rcd13ifvqb30","pricing_plan_id":"cebpf4jnsgd1na2vs0mg"},{"bike_id":"00c9bea9-7d78-4435-8261-fa49c68fd27f","system_id":"levelo_inurba_marseille","lat":43.26032,"lon":5.41742,"is_reserved":false,"is_disabled":false,"rental_uris":{"android":"levelo://app?vid=00c9bea9-7d78-4435-8261-fa49c68fd27f","ios":"levelo://app?vid=00c9bea9-7d78-4435-8261-fa49c68fd27f"},