{"last_updated":1703192784,"ttl":30,"version":"2.2","data":{"bikes":[{"bike_id":"3f165bd7-2447-4d48-82ef-d0fdf1685239","system_id":"levelo_inurba_marseille","lat":43.312239,"lon":5.368562,"is_reserved":false,"is_disabled":false,"rental_uris":{"android":"levelo://app?vid=3f165bd7-2447-4d48-82ef-d0fdf1685239","ios":"levelo://app?vid=3f165bd7-2447-4d48-82ef-d0fdf1685239"},"vehicle_type_id":"4","last_reported":1703192785,"current_range_meters":11200,"station_id":"ce4bgl92rcd13ifvqbq0","pricing_plan_id":"free"},{"bike_id":"97bcd857-7bb6-4540-9e17-566d8bbdb6fe","system_id":"levelo_inurba_marseille","lat":43.314811,"lon":5.373103,"is_reserved":false,"is_disabled":false,"rental_uris":{"android":"levelo://app?vid=97bcd857-7bb6-4540-9e17-566d8bbdb6fe","ios":"levelo://app?vid=97bcd857-7bb6-4540-9e17-566d8bbdb6fe"},"vehicle_type_id":"4","last_reported":1703192785,"current_range_meters":22000,"station_id":"ce4bgt12rcd13ifvqcd0","pricing_plan_id":"free"},{"bike_id":"3ab5d134-272d-44c4-9a30-69d3a8ebb8ff","system_id":"levelo_inurba_marseille","lat":43.314811,"lon":5.373103,"is_reserved":false,"is_disabled":false,"rental_uris":{"android":"levelo://app?vid=3ab5d134-272d-44c4-9a30-69d3a8ebb8ff","ios":"levelo://app?vid=3ab5d134-272d-44c4-9a30-69d3a8ebb8ff"},"vehicle_type_id":"4","last_reported":1703192785,"current_range_meters":3200,"station_id":"ce4bgt12rcd13ifvqcd0","pricing_plan_id":"free"},{"bike_id":"492b87f2-ef87-4d81-abd0-12d5e227433c","system_id":"levelo_inurba_marseille","lat":43.309039,"lon":5.371797,"is_reserved":false,"is_disabled":false,"rental_uris":{"android":"levelo://app?vid=492b87f2-ef87-4d81-abd0-12d5e227433c","ios":"levelo://app?vid=492b87f2-ef87-4d81-abd0-12d5e227433c"},"vehicle_type_id":"4","last_reported":1703192785,"current_range_meters":22400,"station_id":"ce4bguh2rcd13ifvqckg","pricing_plan_id":"free"},{"bike_id":"bd6f0c15-d2c2-464f-ba27-9fef31a6073d","system_id":"levelo_inurba_marseille","lat":43.305368,"lon":5.367343,"is_reserved":false,"is_disabled":false,"rental_uris":{"android":"levelo://app?vid=bd6f0c15-d2c2-464f-ba27-9fef31a6073d","ios":"levelo://app?vid=bd6f0c15-d2c2-464f-ba27-9fef31a6073d"},"vehicle_type_id":"4","last_reported":1703192785,"current_range_meters":8800,"station_id":"ce4bgrp2rcd13ifvqc9g","pricing_plan_id":"free"},{"bike_id":"386c82fe-10d7-49c7-8d0b-ee164cbd52f7","system_id":"levelo_inurba_marseille","lat":43.305989,"lon":5.37225,"is_reserved":false,"is_disabled":false,"rental_uris":{"android":"levelo://app?vid=386c82fe-10d7-49c7-8d0b-ee164cbd52f7","ios":"levelo://app?vid=386c82fe-10d7-49c7-8d0b-ee164cbd52f7"},"vehicle_type_id":"4","last_reported":1703192785,"current_range_meters":23200,"station_id":"ce4bgqh2rcd13ifvqc4g","pricing_plan_id":"free"},{"bike_id":"3f7382c3-8eb3-4665-b4f9-5d14aa0fb469","system_id":"levelo_inurba_marseille","lat":43.311125,"lon":5.377624,"is_reserved":false,"is_disabled":false,"rental_uris":{"android":"levelo://app?vid=3f7382c3-8eb3-4665-b4f9-5d14aa0fb469","ios":"levelo://app?vid=3f7382c3-8eb3-4665-b4f9-5d14aa0fb469"},"vehicle_type_id":"4","last_reported":1703192785,"current_range_meters":24800,"station_id":"ce4bgt92rcd13ifvqcg0","pricing_plan_id":"free"},{"bike_id":"7dc86dff-5bab-459a-b72a-161577a4ca9b","system_id":"levelo_inurba_marseille","lat":43.303046,"lon":5.368981,"is_reserved":false,"is_disabled":false,"rental_uris":{"android":"levelo://app?vid=7dc86dff-5bab-459a-b72a-161577a4ca9b","ios":"levelo://app?vid=7dc86dff-5bab-459a-b72a-161577a4ca9b"},"vehicle_type_id":"4","last_reported":1703192785,"current_range_meters":30800,"station_id":"ce4bgqh2rcd13ifvqc5g","pricing_plan_id":"free"},{"bike_id":"6c662160-2878-403e-9cb2-748204edb49f","system_id":"levelo_inurba_marseille","lat":43.315393,"lon":5.380304,"is_reserved":false,"is_disabled":false,"rental_uris":{"android":"levelo://app?vid=6c662160-2878-403e-9cb2-748204edb49f","ios":"levelo://app?vid=6c662160-2878-403e-9cb2-748204edb49f"},"vehicle_type_id":"4","last_reported":1703192785,"current_range_meters":6800,"station_id":"ce4bhsp2rcd13ifvqi50","pricing_plan_id":"free"},{"bike_id":"b308f8c2-ba33-4192-af9f-5fa5a39279bb","system_id":"levelo_inurba_marseille","lat":43.301939,"lon":5.366286,"is_reserved":false,"is_disabled":false,"rental_uris":{"android":"levelo://app?vid=b308f8c2-ba33-4192-af9f-5fa5a39279bb","ios":"levelo://app?vid=b308f8c2-ba33-4192-af9f-5fa5a39279bb"},"vehicle_type_id":"4","last_reported":1703192785,"current_range_meters":27200,"station_id":"ce4bgrh2rcd13ifvqc8g","pricing_plan_id":"free"},{"bike_id":"26e4b55d-4243-4287-9e88-fbeda384b486","system_id":"levelo_inurba_marseille","lat":43.310856,"lon":5.381914,"is_reserved":false,"is_disabled":false,"rental_uris":{"android":"levelo://app?vid=26e4b55d-4243-4287-9e88-fbeda384b486","ios":"levelo://app?vid=26e4b55d-4243-4287-9e88-fbeda384b486"},"vehicle_type_id":"4","last_reported":1703192785,"current_range_meters":12800,"station_id":"","pricing_plan_id":"free"},{"bike_id":"0f29f9fc-ade1-445d-ba8d-4631c9525c9b","system_id":"levelo_inurba_marseille","lat":43.30636,"lon":5.37995,"is_reserved":false,"is_disabled":false,"rental_uris":{"android":"levelo://app?vid=0f29f9fc-ade1-445d-ba8d-4631c9525c9b","ios":"levelo://app?vid=0f29f9fc-ade1-445d-ba8d-4631c9525c9b"},"vehicle_type_id":"4","last_reported":1703192785,"current_range_meters":0,"station_id":"","pricing_plan_id":"free"},{"bike_id":"500571ea-4fba-4810-9e11-0fd87d0b12b3","system_id":"levelo_inurba_marseille","lat":43.319935,"lon":5.381699,"is_reserved":false,"is_disabled":false,"rental_uris":{"android":"levelo://app?vid=500571ea-4fba-4810-9e11-0fd87d0b12b3","ios":"levelo://app?vid=500571ea-4fba-4810-9e11-0fd87d0b12b3"},"vehicle_type_id":"4","last_reported":1703192785,"current_range_meters":29200,"station_id":"ce4bhr12rcd13ifvqhpg","pricing_plan_id":"free"},{"bike_id":"0effb7f6-23e5-4f02-a1eb-80bdf14a191a","system_id":"levelo_inurba_marseille","lat":43.319914,"lon":5.381487,"is_reserved":false,"is_disabled":false,"rental_uris":{"android":"levelo://app?vid=0effb7f6-23e5-4f02-a1eb-80bdf14a191a","ios":"levelo://app?vid=0effb7f6-23e5-4f02-a1eb-80bdf14a191a"},"vehicle_type_id":"4","last_reported":1703192785,"current_range_meters":31200,"station_id":"ce4bhr12rcd13ifvqhpg","pricing_plan_id":"free"},{"bike_id":"51360f23-00df-4b8c-b369-faeb35be788d","system_id":"levelo_inurba_marseille","lat":43.319935,"lon":5.381699,"is_reserved":false,"is_disabled":false,"rental_uris":{"android":"levelo://app?vid=51360f23-00df-4b8c-b369-faeb35be788d","ios":"levelo://app?vid=51360f23-00df-4b8c-b369-faeb35be788d"},"vehicle_type_id":"4","last_reported":1703192785,"current_range_meters":29600,"station_id":"ce4bhr12rcd13ifvqhpg","pricing_plan_id":"free"},{"bike_id":"dc0f6af5-c02c-4610-baea-e5c6ca16f530","system_id":"levelo_inurba_marseille","lat":43.319973,"lon":5.381484,"is_reserved":false,"is_disabled":false,"rental_uris":{"android":"levelo://app?vid=dc0f6af5-c02c-4610-baea-e5c6ca16f530","ios":"levelo://app?vid=dc0f6af5-c02c-4610-baea-e5c6ca16f530"},"vehicle_type_id":"4","last_reported":1703192785,"current_range_meters":30800,"station_id":"ce4bhr12rcd13ifvqhpg","pricing_plan_id":"free"},{"bike_id":"af0ab532-e26f-41d4-b9ce-17ae08ae4cee","system_id":"levelo_inurba_marseille","lat":43.320005,"lon":5.381601,"is_reserved":false,"is_disabled":false,"rental_uris":{"android":"levelo://app?vid=af0ab532-e26f-41d4-b9ce-17ae08ae4cee","ios":"levelo://app?vid=af0ab532-e26f-41d4-b9ce-17ae08ae4cee"},"vehicle_type_id":"4","last_reported":1703192785,"current_range_meters":9200,"station_id":"ce4bhr12rcd13ifvqhpg","pricing_plan_id":"free"},{"bike_id":"c5cae810-39cc-4218-86e0-83a8342df03b","system_id":"levelo_inurba_marseille","lat":43.32577,"lon":5.366286,"is_reserved":false,"is_disabled":false,"rental_uris":{"android":"levelo://app?vid=c5cae810-39cc-4218-86e0-83a8342df03b","ios":"levelo://app?vid=c5cae810-39cc-4218-86e0-83a8342df03b"},"vehicle_type_id":"4","last_reported":1703192785,"current_range_meters":11600,"station_id":"","pricing_plan_id":"free"},{"bike_id":"6d825d4c-fa52-4a92-97bb-2105454f9ea8","system_id":"levelo_inurba_marseille","lat":43.299222,"lon":5.365554,"is_reserved":false,"is_disabled":false,"rental_uris":{"android":"levelo://app?vid=6d825d4c-fa52-4a92-97bb-2105454f9ea8","ios":"levelo://app?vid=6d825d4c-fa52-4a92-97bb-2105454f9ea8"},"vehicle_type_id":"4","last_reported":1703192785,"current_range_meters":0,"station_id":"ce4bgm92rcd13ifvqbr0","pricing_plan_id":"free"},{"bike_id":"6c8e9413-1a3f-4707-a277-42fdfc09d431","system_id":"levelo_inurba_marseille","lat":43.299724,"lon":5.371829,"is_reserved":false,"is_disabled":false,"rental_uris":{"android":"levelo://app?vid=6c8e9413-1a3f-4707-a277-42fdfc09d431","ios":"levelo://app?vid=6c8e9413-1a3f-4707-a277-42fdfc09d431"},"vehicle_type_id":"4","last_reported":1703192785,"current_range_meters":25600,"station_id":"ce4bgr92rcd13ifvqc7g","pricing_plan_id":"free"},{"bike_id":"846565da-d8ed-4cda-9e94-7a6b793a735f","system_id":"levelo_inurba_marseille","lat":43.299724,"lon":5.371829,"is_reserved":false,"is_disabled":false,"rental_uris":{"android":"levelo://app?vid=846565da-d8ed-4cda-9e94-7a6b793a735f","ios":"levelo://app?vid=846565da-d8ed-4cda-9e94-7a6b793a735f"},"vehicle_type_id":"4","last_reported":1703192785,"current_range_meters":24400,"station_id":"ce4bgr92rcd13ifvqc7g","pricing_plan_id":"free"},{"bike_id":"2e9f5103-6aa1-498d-96e6-3f66cfffb65f","system_id":"levelo_inurba_marseille","lat":43.299724,"lon":5.371829,"is_reserved":false,"is_disabled":false,"rental_uris":{"android":"levelo://app?vid=2e9f5103-6aa1-498d-96e6-3f66cfffb65f","ios":"levelo://app?vid=2e9f5103-6aa1-498d-96e6-3f66cfffb65f"},"vehicle_type_id":"4","last_reported":1703192785,"current_range_meters":12000,"station_id":"ce4bgr92rcd13ifvqc7g","pricing_plan_id":"free"},{"bike_id":"e27be8eb-cad2-4c7a-86c9-6cca9d1fad39","system_id":"levelo_inurba_marseille","lat":43.3256,"lon":5.37422,"is_reserved":false,"is_disabled":false,"rental_uris":{"android":"levelo://app?vid=e27be8eb-cad2-4c7a-86c9-6cca9d1fad39","ios":"levelo://app?vid=e27be8eb-cad2-4c7a-86c9-6cca9d1fad39"},"vehicle_type_id":"4","last_reported":1703192785,"current_range_meters":31200,"station_id":"","pricing_plan_id":"free"},{"bike_id":"f1c0c3e9-ac08-4a1d-882e-5abea29e8414","system_id":"levelo_inurba_marseille","lat":43.298433,"lon":5.362774,"is_reserved":false,"is_disabled":false,"rental_uris":{"android":"levelo://app?vid=f1c0c3e9-ac08-4a1d-882e-5abea29e8414","ios":"levelo://app?vid=f1c0c3e9-ac08-4a1d-882e-5abea29e8414"},"vehicle_type_id":"4","last_reported":1703192785,"current_range_meters":26800,"station_id":"ce4bgpp2rcd13ifvqc3g","pricing_plan_id":"free"},{"bike_id":"0cdbd0f0-d3c9-4a82-8c6d-6ffa03bfbf25","system_id":"levelo_inurba_marseille","lat":43.326937,"lon":5.373183,"is_reserved":false,"is_disabled":false,"rental_uris":{"android":"levelo://app?vid=0cdbd0f0-d3c9-4a82-8c6d-6ffa03bfbf25","ios":"levelo://app?vid=0cdbd0f0-d3c9-4a82-8c6d-6ffa03bfbf25"},"vehicle_type_id":"4","last_reported":1703192785,"current_range_meters":18800,"station_id":"","pricing_plan_id":"free"},{"bike_id":"b58c4005-ed15-40ec-b249-38d0c39e7d3b","system_id":"levelo_inurba_marseille","lat":43.322872,"lon":5.382756,"is_reserved":false,"is_disabled":false,"rental_uris":{"android":"levelo://app?vid=b58c4005-ed15-40ec-b249-38d0c39e7d3b","ios":"levelo://app?vid=b58c4005-ed15-40ec-b249-38d0c39e7d3b"},"vehicle_type_id":"4","last_reported":1703192785,"current_range_meters":12400,"station_id":"ce4bhr12rcd13ifvqhqg","pricing_plan_id":"free"},{"bike_id":"2d0ccb8c-a8f7-4ee9-8463-316526ef0ad5","system_id":"levelo_inurba_marseille","lat":43.322872,"lon":5.382756,"is_reserved":false,"is_disabled":false,"rental_uris":{"android":"levelo://app?vid=2d0ccb8c-a8f7-4ee9-8463-316526ef0ad5","ios":"levelo://app?vid=2d0ccb8c-a8f7-4ee9-8463-316526ef0ad5"},"vehicle_type_id":"4","last_reported":1703192785,"current_range_meters":31600,"station_id":"ce4bhr12rcd13ifvqhqg","pricing_plan_id":"free"},{"bike_id":"f6678c52-8fdb-46d8-969e-3297a365c131","system_id":"levelo_inurba_marseille","lat":43.322872,"lon":5.382756,"is_reserved":false,"is_disabled":false,"rental_uris":{"android":"levelo://app?vid=f6678c52-8fdb-46d8-969e-3297a365c131","ios":"levelo://app?vid=f6678c52-8fdb-46d8-969e-3297a365c131"},"vehicle_type_id":"4","last_reported":1703192785,"current_range_meters":28400,"station_id":"ce4bhr12rcd13ifvqhqg","pricing_plan_id":"free"},{"bike_id":"e299beb3-acc1-46fa-9fec-22d2fe5e6b13","system_id":"levelo_inurba_marseille","lat":43.32828,"lon":5.36675,"is_reserved":false,"is_disabled":false,"rental_uris":{"android":"levelo://app?vid=e299beb3-acc1-46fa-9fec-22d2fe5e6b13","ios":"levelo://app?vid=e299beb3-acc1-46fa-9fec-22d2fe5e6b13"},"vehicle_type_id":"4","last_reported":1703192785,"current_range_meters":20800,"station_id":"ce4bhs92rcd13ifvqi0g","pricing_plan_id":"free"},{"bike_id":"8bf0395d-c27d-407d-bf00-1fe14b7d1f01","system_id":"levelo_inurba_marseille","lat":43.32829,"lon":5.36682,"is_reserved":false,"is_disabled":false,"rental_uris":{"android":"levelo://app?vid=8bf0395d-c27d-407d-bf00-1fe14b7d1f01","ios":"levelo://app?vid=8bf0395d-c27d-407d-bf00-1fe14b7d1f01"},"vehicle_type_id":"4","last_reported":1703192785,"current_range_meters":8400,"station_id":"ce4bhs92rcd13ifvqi0g","pricing_plan_id":"free"},{"bike_id":"220dbcc5-f9b9-4ec1-a000-a1e02fed0e9b","system_id":"levelo_inurba_marseille","lat":43.295872,"lon":5.367853,"is_reserved":false,"is_disabled":false,"rental_uris":{"android":"levelo://app?vid=220dbcc5-f9b9-4ec1-a000-a1e02fed0e9b","ios":"levelo://app?vid=220dbcc5-f9b9-4ec1-a000-a1e02fed0e9b"},"vehicle_type_id":"4","last_reported":1703192785,"current_range_meters":23600,"station_id":"ce4bgph2rcd13ifvqc2g","pricing_plan_id":"free"},{"bike_id":"2b41cee7-ecb3-4a3c-ae16-9716a201deb8","system_id":"levelo_inurba_marseille","lat":43.29573,"lon":5.367355,"is_reserved":false,"is_disabled":false,"rental_uris":{"android":"levelo://app?vid=2b41cee7-ecb3-4a3c-ae16-9716a201deb8","ios":"levelo://app?vid=2b41cee7-ecb3-4a3c-ae16-9716a201deb8"},"vehicle_type_id":"4","last_reported":1703192785,"current_range_meters":14000,"station_id":"ce4bgph2rcd13ifvqc2g","pricing_plan_id":"free"},{"bike_id":"e59074bb-49fe-49a4-9b5c-50c0e3847ad9","system_id":"levelo_inurba_marseille","lat":43.29573,"lon":5.367355,"is_reserved":false,"is_disabled":false,"rental_uris":{"android":"levelo://app?vid=e59074bb-49fe-49a4-9b5c-50c0e3847ad9","ios":"levelo://app?vid=e59074bb-49fe-49a4-9b5c-50c0e3847ad9"},"vehicle_type_id":"4","last_reported":1703192785,"current_range_meters":13600,"station_id":"ce4bgph2rcd13ifvqc2g","pricing_plan_id":"free"},{"bike_id":"01889a61-b591-444d-bf46-d93014a668ed","system_id":"levelo_inurba_marseille","lat":43.29573,"lon":5.367355,"is_reserved":false,"is_disabled":false,"rental_uris":{"android":"levelo://app?vid=01889a61-b591-444d-bf46-d93014a668ed","ios":"levelo://app?vid=01889a61-b591-444d-bf46-d93014a668ed"},"vehicle_type_id":"4","last_reported":1703192785,"current_range_meters":6000,"station_id":"ce4bgph2rcd13ifvqc2g","pricing_plan_id":"free"},{"bike_id":"b36987bf-f53b-430d-9772-82665de38e0c","system_id":"levelo_inurba_marseille","lat":43.299028,"lon":5.381509,"is_reserved":false,"is_disabled":false,"rental_uris":{"android":"levelo://app?vid=b36987bf-f53b-430d-9772-82665de38e0c","ios":"levelo://app?vid=b36987bf-f53b-430d-9772-82665de38e0c"},"vehicle_type_id":"4","last_reported":1703192785,"current_range_meters":16400,"station_id":"ce4bgj12rcd13ifvqbc0","pricing_plan_id":"free"},{"bike_id":"e9f02028-8e53-448c-ba24-ea59b59db859","system_id":"levelo_inurba_marseille","lat":43.309589,"lon":5.390258,"is_reserved":false,"is_disabled":false,"rental_uris":{"android":"levelo://app?vid=e9f02028-8e53-448c-ba24-ea59b59db859","ios":"levelo://app?vid=e9f02028-8e53-448c-ba24-ea59b59db859"},"vehicle_type_id":"4","last_reported":1703192785,"current_range_meters":14800,"station_id":"ce4bgup2rcd13ifvqco0","pricing_plan_id":"free"},{"bike_id":"04ca680c-0493-4f1b-9ef8-db1e704523dd","system_id":"levelo_inurba_marseille","lat":43.317576,"lon":5.39007,"is_reserved":false,"is_disabled":false,"rental_uris":{"android":"levelo://app?vid=04ca680c-0493-4f1b-9ef8-db1e704523dd","ios":"levelo://app?vid=04ca680c-0493-4f1b-9ef8-db1e704523dd"},"vehicle_type_id":"4","last_reported":1703192785,"current_range_meters":24000,"station_id":"ce4bhqp2rcd13ifvqhng","pricing_plan_id":"free"},{"bike_id":"834b9782-39e8-4602-8b8d-ea95026281ec","system_id":"levelo_inurba_marseille","lat":43.317568,"lon":5.390154,"is_reserved":false,"is_disabled":false,"rental_uris":{"android":"levelo://app?vid=834b9782-39e8-4602-8b8d-ea95026281ec","ios":"levelo://app?vid=834b9782-39e8-4602-8b8d-ea95026281ec"},"vehicle_type_id":"4","last_reported":1703192785,"current_range_meters":2800,"station_id":"ce4bhqp2rcd13ifvqhng","pricing_plan_id":"free"},{"bike_id":"7b89b0ee-9ba8-4aaf-8663-348001241aa8","system_id":"levelo_inurba_marseille","lat":43.317557,"lon":5.390173,"is_reserved":false,"is_disabled":false,"rental_uris":{"android":"levelo://app?vid=7b89b0ee-9ba8-4aaf-8663-348001241aa8","ios":"levelo://app?vid=7b89b0ee-9ba8-4aaf-8663-348001241aa8"},"vehicle_type_id":"4","last_reported":1703192785,"current_range_meters":27200,"station_id":"ce4bhqp2rcd13ifvqhng","pricing_plan_id":"free"},{"bike_id":"53d02047-2fc2-4d30-88b2-583fd58923ab","system_id":"levelo_inurba_marseille","lat":43.317557,"lon":5.390173,"is_reserved":false,"is_disabled":false,"rental_uris":{"android":"levelo://app?vid=53d02047-2fc2-4d30-88b2-583fd58923ab","ios":"levelo://app?vid=53d02047-2fc2-4d30-88b2-583fd58923ab"},"vehicle_type_id":"4","last_reported":1703192785,"current_range_meters":26800,"station_id":"ce4bhqp2rcd13ifvqhng","pricing_plan_id":"free"},{"bike_id":"73e32343-304a-4c27-b27b-dc371d17ae0e","system_id":"levelo_inurba_marseille","lat":43.295748,"lon":5.37522,"is_reserved":false,"is_disabled":false,"rental_uris":{"android":"levelo://app?vid=73e32343-304a-4c27-b27b-dc371d17ae0e","ios":"levelo://app?vid=73e32343-304a-4c27-b27b-dc371d17ae0e"},"vehicle_type_id":"4","last_reported":1703192785,"current_range_meters":14400,"station_id":"ce4bgh92rcd13ifvqb50","pricing_plan_id":"free"},{"bike_id":"6057878f-0bf0-4e72-979d-794aa072771a","system_id":"levelo_inurba_marseille","lat":43.304274,"lon":5.388873,"is_reserved":false,"is_disabled":false,"rental_uris":{"android":"levelo://app?vid=6057878f-0bf0-4e72-979d-794aa072771a","ios":"levelo://app?vid=6057878f-0bf0-4e72-979d-794aa072771a"},"vehicle_type_id":"4","last_reported":1703192785,"current_range_meters":9200,"station_id":"ce4bgk12rcd13ifvqbi0","pricing_plan_id":"free"},{"bike_id":"3ae66d64-1e9e-46fa-b495-349f3b7ad5b9","system_id":"levelo_inurba_marseille","lat":43.304278,"lon":5.388868,"is_reserved":false,"is_disabled":false,"rental_uris":{"android":"levelo://app?vid=3ae66d64-1e9e-46fa-b495-349f3b7ad5b9","ios":"levelo://app?vid=3ae66d64-1e9e-46fa-b495-349f3b7ad5b9"},"vehicle_type_id":"4","last_reported":1703192785,"current_range_meters":25200,"station_id":"ce4bgk12rcd13ifvqbi0","pricing_plan_id":"free"},{"bike_id":"c1107a20-7296-48ab-82e6-f733e09eafbe","system_id":"levelo_inurba_marseille","lat":43.298037,"lon":5.381066,"is_reserved":false,"is_disabled":false,"rental_uris":{"android":"levelo://app?vid=c1107a20-7296-48ab-82e6-f733e09eafbe","ios":"levelo://app?vid=c1107a20-7296-48ab-82e6-f733e09eafbe"},"vehicle_type_id":"4","last_reported":1703192785,"current_range_meters":26000,"station_id":"ce4bgip2rcd13ifvqbb0","pricing_plan_id":"free"},{"bike_id":"c2dcd709-0fbd-4c44-9db8-a462aeb50fd8","system_id":"levelo_inurba_marseille","lat":43.304278,"lon":5.388868,"is_reserved":false,"is_disabled":false,"rental_uris":{"android":"levelo://app?vid=c2dcd709-0fbd-4c44-9db8-a462aeb50fd8","ios":"levelo://app?vid=c2dcd709-0fbd-4c44-9db8-a462aeb50fd8"},"vehicle_type_id":"4","last_reported":1703192785,"current_range_meters":22400,"station_id":"ce4bgk12rcd13ifvqbi0","pricing_plan_id":"free"},{"bike_id":"2ed194e5-ee02-4f73-bff2-ecfb7878281c","system_id":"levelo_inurba_marseille","lat":43.29975,"lon":5.38498,"is_reserved":false,"is_disabled":false,"rental_uris":{"android":"levelo://app?vid=2ed194e5-ee02-4f73-bff2-ecfb7878281c","ios":"levelo://app?vid=2ed194e5-ee02-4f73-bff2-ecfb7878281c"},"vehicle_type_id":"4","last_reported":1703192785,"current_range_meters":0,"station_id":"ce4bgj92rcd13ifvqbd0","pricing_plan_id":"free"},{"bike_id":"1378810b-812d-44e5-847a-1b7aeb90e4c4","system_id":"levelo_inurba_marseille","lat":43.29654,"lon":5.37953,"is_reserved":false,"is_disabled":false,"rental_uris":{"android":"levelo://app?vid=1378810b-812d-44e5-847a-1b7aeb90e4c4","ios":"levelo://app?vid=1378810b-812d-44e5-847a-1b7aeb90e4c4"},"vehicle_type_id":"4","last_reported":1703192785,"current_range_meters":14000,"station_id":"","pricing_plan_id":"free"},{"bike_id":"4ec7f9ee-3059-4281-9f08-dc41f2a9f5d0","system_id":"levelo_inurba_marseille","lat":43.32362,"lon":5.38881,"is_reserved":false,"is_disabled":false,"rental_uris":{"android":"levelo://app?vid=4ec7f9ee-3059-4281-9f08-dc41f2a9f5d0","ios":"levelo://app?vid=4ec7f9ee-3059-4281-9f08-dc41f2a9f5d0"},"vehicle_type_id":"4","last_reported":1703192785,"current_range_meters":9200,"station_id":"ce4bhqp2rcd13ifvqhog","pricing_plan_id":"free"},{"bike_id":"7825f2e2-5dc0-48bf-9610-bf0be308ff43","system_id":"levelo_inurba_marseille","lat":43.32365,"lon":5.38884,"is_reserved":false,"is_disabled":false,"rental_uris":{"android":"levelo://app?vid=7825f2e2-5dc0-48bf-9610-bf0be308ff43","ios":"levelo://app?vid=7825f2e2-5dc0-48bf-9610-bf0be308ff43"},"vehicle_type_id":"4","last_reported":1703192785,"current_range_meters":1200,"station_id":"ce4bhqp2rcd13ifvqhog","pricing_plan_id":"free"},{"bike_id":"6bc005d8-6c9e-4ae1-b98d-409c3cb65d81","system_id":"levelo_inurba_marseille","lat":43.32367,"lon":5.388836,"is_reserved":false,"is_disabled":false,"rental_uris":{"android":"levelo://app?vid=6bc005d8-6c9e-4ae1-b98d-409c3cb65d81","ios":"levelo://app?vid=6bc005d8-6c9e-4ae1-b98d-409c3cb65d81"},"vehicle_type_id":"4","last_reported":1703192785,"current_range_meters":15200,"station_id":"ce4bhqp2rcd13ifvqhog","pricing_plan_id":"free"},{"bike_id":"7451fc93-9fd1-4ad4-9da9-65a4cc69e861","system_id":"levelo_inurba_marseille","lat":43.29601,"lon":5.381084,"is_reserved":false,"is_disabled":false,"rental_uris":{"android":"levelo://app?vid=7451fc93-9fd1-4ad4-9da9-65a4cc69e861","ios":"levelo://app?vid=7451fc93-9fd1-4ad4-9da9-65a4cc69e861"},"vehicle_type_id":"4","last_reported":1703192785,"current_range_meters":800,"station_id":"ce4bgl12rcd13ifvqbo0","pricing_plan_id":"free"},{"bike_id":"3220673e-4391-4ac2-9084-2f71921c4d85","system_id":"levelo_inurba_marseille","lat":43.29602,"lon":5.381084,"is_reserved":false,"is_disabled":false,"rental_uris":{"android":"levelo://app?vid=3220673e-4391-4ac2-9084-2f71921c4d85","ios":"levelo://app?vid=3220673e-4391-4ac2-9084-2f71921c4d85"},"vehicle_type_id":"4","last_reported":1703192785,"current_range_meters":20400,"station_id":"ce4bgl12rcd13ifvqbo0","pricing_plan_id":"free"},{"bike_id":"75068f82-a029-4ea4-849a-63ad4594867f","system_id":"levelo_inurba_marseille","lat":43.29601,"lon":5.381084,"is_reserved":false,"is_disabled":false,"rental_uris":{"android":"levelo://app?vid=75068f82-a029-4ea4-849a-63ad4594867f","ios":"levelo://app?vid=75068f82-a029-4ea4-849a-63ad4594867f"},"vehicle_type_id":"4","last_reported":1703192785,"current_range_meters":24400,"station_id":"ce4bgl12rcd13ifvqbo0","pricing_plan_id":"free"},{"bike_id":"e2789652-237e-49e4-8da2-a9f199b9b249","system_id":"levelo_inurba_marseille","lat":43.29601,"lon":5.381084,"is_reserved":false,"is_disabled":false,"rental_uris":{"android":"levelo://app?vid=e2789652-237e-49e4-8da2-a9f199b9b249","ios":"levelo://app?vid=e2789652-237e-49e4-8da2-a9f199b9b249"},"vehicle_type_id":"4","last_reported":1703192785,"current_range_meters":10000,"station_id":"ce4bgl12rcd13ifvqbo0","pricing_plan_id":"free"},{"bike_id":"ac859244-08dd-449b-939c-2b1e110f44f5","system_id":"levelo_inurba_marseille","lat":43.293009,"lon":5.374584,"is_reserved":false,"is_disabled":false,"rental_uris":{"android":"levelo://app?vid=ac859244-08dd-449b-939c-2b1e110f44f5","ios":"levelo://app?vid=ac859244-08dd-449b-939c-2b1e110f44f5"},"vehicle_type_id":"4","last_reported":1703192785,"current_range_meters":0,"station_id":"ce4bgi12rcd13ifvqb70","pricing_plan_id":"free"},{"bike_id":"3ebc140b-d888-4779-b6c8-ecbcfce49cab","system_id":"levelo_inurba_marseille","lat":43.293009,"lon":5.374584,"is_reserved":false,"is_disabled":false,"rental_uris":{"android":"levelo://app?vid=3ebc140b-d888-4779-b6c8-ecbcfce49cab","ios":"levelo://app?vid=3ebc140b-d888-4779-b6c8-ecbcfce49cab"},"vehicle_type_id":"4","last_reported":1703192785,"current_range_meters":12800,"station_id":"ce4bgi12rcd13ifvqb70","pricing_plan_id":"free"},{"bike_id":"3c6065a3-e76d-4db8-bfd2-e2018d755b15","system_id":"levelo_inurba_marseille","lat":43.30595,"lon":5.39359,"is_reserved":false,"is_disabled":false,"rental_uris":{"android":"levelo://app?vid=3c6065a3-e76d-4db8-bfd2-e2018d755b15","ios":"levelo://app?vid=3c6065a3-e76d-4db8-bfd2-e2018d755b15"},"vehicle_type_id":"4","last_reported":1703192785,"current_range_meters":9200,"station_id":"ce4bh0p2rcd13ifvqd80","pricing_plan_id":"free"},{"bike_id":"d2e3b80d-b4bd-4b30-bac5-6738f67b7f95","system_id":"levelo_inurba_marseille","lat":43.284538,"lon":5.358657,"is_reserved":false,"is_disabled":false,"rental_uris":{"android":"levelo://app?vid=d2e3b80d-b4bd-4b30-bac5-6738f67b7f95","ios":"levelo://app?vid=d2e3b80d-b4bd-4b30-bac5-6738f67b7f95"},"vehicle_type_id":"4","last_reported":1703192785,"current_range_meters":4400,"station_id":"ce4bhah2rcd13ifvqei0","pricing_plan_id":"free"},{"bike_id":"cd46c0ee-d6ff-479b-91c7-43a1954e514c","system_id":"levelo_inurba_marseille","lat":43.302992,"lon":5.392136,"is_reserved":false,"is_disabled":false,"rental_uris":{"android":"levelo://app?vid=cd46c0ee-d6ff-479b-91c7-43a1954e514c","ios":"levelo://app?vid=cd46c0ee-d6ff-479b-91c7-43a1954e514c"},"vehicle_type_id":"4","last_reported":1703192785,"current_range_meters":28400,"station_id":"ce4bgkh2rcd13ifvqbk0","pricing_plan_id":"free"},{"bike_id":"b92d8c08-4834-44b1-858c-d7cabc5a10f3","system_id":"levelo_inurba_marseille","lat":43.29277,"lon":5.37629,"is_reserved":false,"is_disabled":false,"rental_uris":{"android":"levelo://app?vid=b92d8c08-4834-44b1-858c-d7cabc5a10f3","ios":"levelo://app?vid=b92d8c08-4834-44b1-858c-d7cabc5a10f3"},"vehicle_type_id":"4","last_reported":1703192785,"current_range_meters":25600,"station_id":"","pricing_plan_id":"free"},{"bike_id":"e2cd3274-80e1-44d0-b122-63a88b800651","system_id":"levelo_inurba_marseille","lat":43.29864,"lon":5.38906,"is_reserved":false,"is_disabled":false,"rental_uris":{"android":"levelo://app?vid=e2cd3274-80e1-44d0-b122-63a88b800651","ios":"levelo://app?vid=e2cd3274-80e1-44d0-b122-63a88b800651"},"vehicle_type_id":"4","last_reported":1703192785,"current_range_meters":8400,"station_id":"","pricing_plan_id":"free"},{"bike_id":"95a3e35a-3104-4144-8d27-87d5a86d65e6","system_id":"levelo_inurba_marseille","lat":43.313291,"lon":5.396838,"is_reserved":false,"is_disabled":false,"rental_uris":{"android":"levelo://app?vid=95a3e35a-3104-4144-8d27-87d5a86d65e6","ios":"levelo://app?vid=95a3e35a-3104-4144-8d27-87d5a86d65e6"},"vehicle_type_id":"4","last_reported":1703192785,"current_range_meters":22800,"station_id":"ce4bgvp2rcd13ifvqcu0","pricing_plan_id":"free"},{"bike_id":"434d14e8-130f-405b-8158-613dd2934d56","system_id":"levelo_inurba_marseille","lat":43.313291,"lon":5.396838,"is_reserved":false,"is_disabled":false,"rental_uris":{"android":"levelo://app?vid=434d14e8-130f-405b-8158-613dd2934d56","ios":"levelo://app?vid=434d14e8-130f-405b-8158-613dd2934d56"},"vehicle_type_id":"4","last_reported":1703192785,"current_range_meters":29600,"station_id":"ce4bgvp2rcd13ifvqcu0","pricing_plan_id":"free"},{"bike_id":"e15180be-0f1e-4dc8-acdb-8d6edc541f43","system_id":"levelo_inurba_marseille","lat":43.313291,"lon":5.396838,"is_reserved":false,"is_disabled":false,"rental_uris":{"android":"levelo://app?vid=e15180be-0f1e-4dc8-acdb-8d6edc541f43","ios":"levelo://app?vid=e15180be-0f1e-4dc8-acdb-8d6edc541f43"},"vehicle_type_id":"4","last_reported":1703192785,"current_range_meters":18800,"station_id":"ce4bgvp2rcd13ifvqcu0","pricing_plan_id":"free"},{"bike_id":"1509a640-caa2-474c-af59-5a2373d66749","system_id":"levelo_inurba_marseille","lat":43.30888,"lon":5.39645,"is_reserved":false,"is_disabled":false,"rental_uris":{"android":"levelo://app?vid=1509a640-caa2-474c-af59-5a2373d66749","ios":"levelo://app?vid=1509a640-caa2-474c-af59-5a2373d66749"},"vehicle_type_id":"4","last_reported":1703192785,"current_range_meters":26000,"station_id":"ce4bh012rcd13ifvqcv0","pricing_plan_id":"free"},{"bike_id":"45f99cda-befa-42ee-a2ee-ea05b8e79130","system_id":"levelo_inurba_marseille","lat":43.313291,"lon":5.396838,"is_reserved":false,"is_disabled":false,"rental_uris":{"android":"levelo://app?vid=45f99cda-befa-42ee-a2ee-ea05b8e79130","ios":"levelo://app?vid=45f99cda-befa-42ee-a2ee-ea05b8e79130"},"vehicle_type_id":"4","last_reported":1703192785,"current_range_meters":22000,"station_id":"ce4bgvp2rcd13ifvqcu0","pricing_plan_id":"free"},{"bike_id":"7600b465-ae55-430f-a74a-3301103ebfcf","system_id":"levelo_inurba_marseille","lat":43.313291,"lon":5.396838,"is_reserved":false,"is_disabled":false,"rental_uris":{"android":"levelo://app?vid=7600b465-ae55-430f-a74a-3301103ebfcf","ios":"levelo://app?vid=7600b465-ae55-430f-a74a-3301103ebfcf"},"vehicle_type_id":"4","last_reported":1703192785,"current_range_meters":23600,"station_id":"ce4bgvp2rcd13ifvqcu0","pricing_plan_id":"free"},{"bike_id":"569df881-44aa-4fb0-bd43-e2c14ad0998e","system_id":"levelo_inurba_marseille","lat":43.309038,"lon":5.396546,"is_reserved":false,"is_disabled":false,"rental_uris":{"android":"levelo://app?vid=569df881-44aa-4fb0-bd43-e2c14ad0998e","ios":"levelo://app?vid=569df881-44aa-4fb0-bd43-e2c14ad0998e"},"vehicle_type_id":"4","last_reported":1703192785,"current_range_meters":26000,"station_id":"ce4bh012rcd13ifvqcv0","pricing_plan_id":"free"},{"bike_id":"9d58efe2-96e6-4766-9ebc-c407ffa9d805","system_id":"levelo_inurba_marseille","lat":43.309038,"lon":5.396546,"is_reserved":false,"is_disabled":false,"rental_uris":{"android":"levelo://app?vid=9d58efe2-96e6-4766-9ebc-c407ffa9d805","ios":"levelo://app?vid=9d58efe2-96e6-4766-9ebc-c407ffa9d805"},"vehicle_type_id":"4","last_reported":1703192785,"current_range_meters":18800,"station_id":"ce4bh012rcd13ifvqcv0","pricing_plan_id":"free"},{"bike_id":"dadec077-0df0-4e3f-a2e2-94987a23d35f","system_id":"levelo_inurba_marseille","lat":43.313291,"lon":5.396838,"is_reserved":false,"is_disabled":false,"rental_uris":{"android":"levelo://app?vid=dadec077-0df0-4e3f-a2e2-94987a23d35f","ios":"levelo://app?vid=dadec077-0df0-4e3f-a2e2-94987a23d35f"},"vehicle_type_id":"4","last_reported":1703192785,"current_range_meters":28800,"station_id":"ce4bgvp2rcd13ifvqcu0","pricing_plan_id":"free"},{"bike_id":"7a2b29dd-8ac3-4ff3-b529-deeb2ea9bc8b","system_id":"levelo_inurba_marseille","lat":43.295355,"lon":5.385485,"is_reserved":false,"is_disabled":false,"rental_uris":{"android":"levelo://app?vid=7a2b29dd-8ac3-4ff3-b529-deeb2ea9bc8b","ios":"levelo://app?vid=7a2b29dd-8ac3-4ff3-b529-deeb2ea9bc8b"},"vehicle_type_id":"4","last_reported":1703192785,"current_range_meters":15200,"station_id":"ce4bgih2rcd13ifvqba0","pricing_plan_id":"free"},{"bike_id":"7e4574a7-182b-4f45-ba5d-5b009abe1400","system_id":"levelo_inurba_marseille","lat":43.29529,"lon":5.385581,"is_reserved":false,"is_disabled":false,"rental_uris":{"android":"levelo://app?vid=7e4574a7-182b-4f45-ba5d-5b009abe1400","ios":"levelo://app?vid=7e4574a7-182b-4f45-ba5d-5b009abe1400"},"vehicle_type_id":"4","last_reported":1703192785,"current_range_meters":31200,"station_id":"ce4bgih2rcd13ifvqba0","pricing_plan_id":"free"},{"bike_id":"ecb97174-512d-429f-a1fa-e02431c1c418","system_id":"levelo_inurba_marseille","lat":43.29529,"lon":5.385581,"is_reserved":false,"is_disabled":false,"rental_uris":{"android":"levelo://app?vid=ecb97174-512d-429f-a1fa-e02431c1c418","ios":"levelo://app?vid=ecb97174-512d-429f-a1fa-e02431c1c418"},"vehicle_type_id":"4","last_reported":1703192785,"current_range_meters":4800,"station_id":"ce4bgih2rcd13ifvqba0","pricing_plan_id":"free"},{"bike_id":"e0b733d2-1149-4b09-a7e6-851a2c15bca4","system_id":"levelo_inurba_marseille","lat":43.293506,"lon":5.3835,"is_reserved":false,"is_disabled":false,"rental_uris":{"android":"levelo://app?vid=e0b733d2-1149-4b09-a7e6-851a2c15bca4","ios":"levelo://app?vid=e0b733d2-1149-4b09-a7e6-851a2c15bca4"},"vehicle_type_id":"4","last_reported":1703192785,"current_range_meters":3600,"station_id":"","pricing_plan_id":"free"},{"bike_id":"2653f605-94ba-44d8-a55d-d47340179a1f","system_id":"levelo_inurba_marseille","lat":43.302008,"lon":5.394694,"is_reserved":false,"is_disabled":false,"rental_uris":{"android":"levelo://app?vid=2653f605-94ba-44d8-a55d-d47340179a1f","ios":"levelo://app?vid=2653f605-94ba-44d8-a55d-d47340179a1f"},"vehicle_type_id":"4","last_reported":1703192785,"current_range_meters":26400,"station_id":"ce4bh0p2rcd13ifvqd70","pricing_plan_id":"free"},{"bike_id":"6f7c93d2-c5a6-44bb-bb95-2061367c2b18","system_id":"levelo_inurba_marseille","lat":43.302008,"lon":5.394694,"is_reserved":false,"is_disabled":false,"rental_uris":{"android":"levelo://app?vid=6f7c93d2-c5a6-44bb-bb95-2061367c2b18","ios":"levelo://app?vid=6f7c93d2-c5a6-44bb-bb95-2061367c2b18"},"vehicle_type_id":"4","last_reported":1703192785,"current_range_meters":28400,"station_id":"ce4bh0p2rcd13ifvqd70","pricing_plan_id":"free"},{"bike_id":"e8cbb176-3542-4aa8-bda8-57c5d31bf253","system_id":"levelo_inurba_marseille","lat":43.302008,"lon":5.394694,"is_reserved":false,"is_disabled":false,"rental_uris":{"android":"levelo://app?vid=e8cbb176-3542-4aa8-bda8-57c5d31bf253","ios":"levelo://app?vid=e8cbb176-3542-4aa8-bda8-57c5d31bf253"},"vehicle_type_id":"4","last_reported":1703192785,"current_range_meters":20000,"station_id":"ce4bh0p2rcd13ifvqd70","pricing_plan_id":"free"},{"bike_id":"1186acaa-b928-4a76-834f-d94e544595b2","system_id":"levelo_inurba_marseille","lat":43.29421,"lon":5.38612,"is_reserved":false,"is_disabled":false,"rental_uris":{"android":"levelo://app?vid=1186acaa-b928-4a76-834f-d94e544595b2","ios":"levelo://app?vid=1186acaa-b928-4a76-834f-d94e544595b2"},"vehicle_type_id":"4","last_reported":1703192785,"current_range_meters":20400,"station_id":"ce4bh2h2rcd13ifvqdh0","pricing_plan_id":"free"},{"bike_id":"f081ea35-0928-4634-af21-e9c7ccf6388c","system_id":"levelo_inurba_marseille","lat":43.2942,"lon":5.38614,"is_reserved":false,"is_disabled":false,"rental_uris":{"android":"levelo://app?vid=f081ea35-0928-4634-af21-e9c7ccf6388c","ios":"levelo://app?vid=f081ea35-0928-4634-af21-e9c7ccf6388c"},"vehicle_type_id":"4","last_reported":1703192785,"current_range_meters":13600,"station_id":"ce4bh2h2rcd13ifvqdh0","pricing_plan_id":"free"},{"bike_id":"28e4b989-8b88-4f40-8cfc-507d0fc7cbe2","system_id":"levelo_inurba_marseille","lat":43.294223,"lon":5.386216,"is_reserved":false,"is_disabled":false,"rental_uris":{"android":"levelo://app?vid=28e4b989-8b88-4f40-8cfc-507d0fc7cbe2","ios":"levelo://app?vid=28e4b989-8b88-4f40-8cfc-507d0fc7cbe2"},"vehicle_type_id":"4","last_reported":1703192785,"current_range_meters":4800,"station_id":"ce4bh2h2rcd13ifvqdh0","pricing_plan_id":"free"},{"bike_id":"c6671794-cfdb-432b-9880-b0347ca5f109","system_id":"levelo_inurba_marseille","lat":43.29423,"lon":5.38625,"is_reserved":false,"is_disabled":false,"rental_uris":{"android":"levelo://app?vid=c6671794-cfdb-432b-9880-b0347ca5f109","ios":"levelo://app?vid=c6671794-cfdb-432b-9880-b0347ca5f109"},"vehicle_type_id":"4","last_reported":1703192785,"current_range_meters":6800,"station_id":"ce4bh2h2rcd13ifvqdh0","pricing_plan_id":"free"},{"bike_id":"b255d341-f1c2-4c79-abc3-1f1910096150","system_id":"levelo_inurba_marseille","lat":43.294162,"lon":5.386292,"is_reserved":false,"is_disabled":false,"rental_uris":{"android":"levelo://app?vid=b255d341-f1c2-4c79-abc3-1f1910096150","ios":"levelo://app?vid=b255d341-f1c2-4c79-abc3-1f1910096150"},"vehicle_type_id":"4","last_reported":1703192785,"current_range_meters":24800,"station_id":"ce4bh2h2rcd13ifvqdh0","pricing_plan_id":"free"},{"bike_id":"39d1d8e2-afa2-4e4e-aa96-f0d5f6bc7da1","system_id":"levelo_inurba_marseille","lat":43.29422,"lon":5.38627,"is_reserved":false,"is_disabled":false,"rental_uris":{"android":"levelo://app?vid=39d1d8e2-afa2-4e4e-aa96-f0d5f6bc7da1","ios":"levelo://app?vid=39d1d8e2-afa2-4e4e-aa96-f0d5f6bc7da1"},"vehicle_type_id":"4","last_reported":1703192785,"current_range_meters":17600,"station_id":"ce4bh2h2rcd13ifvqdh0","pricing_plan_id":"free"},{"bike_id":"7c8b8175-d874-4a64-969a-52042df905b8","system_id":"levelo_inurba_marseille","lat":43.29415,"lon":5.38615,"is_reserved":false,"is_disabled":false,"rental_uris":{"android":"levelo://app?vid=7c8b8175-d874-4a64-969a-52042df905b8","ios":"levelo://app?vid=7c8b8175-d874-4a64-969a-52042df905b8"},"vehicle_type_id":"4","last_reported":1703192785,"current_range_meters":5600,"station_id":"ce4bh2h2rcd13ifvqdh0","pricing_plan_id":"free"},{"bike_id":"f1d271e3-48c7-4d5a-8eff-3d8ca8b684d6","system_id":"levelo_inurba_marseille","lat":43.2942,"lon":5.38625,"is_reserved":false,"is_disabled":false,"rental_uris":{"android":"levelo://app?vid=f1d271e3-48c7-4d5a-8eff-3d8ca8b684d6","ios":"levelo://app?vid=f1d271e3-48c7-4d5a-8eff-3d8ca8b684d6"},"vehicle_type_id":"4","last_reported":1703192785,"current_range_meters":400,"station_id":"ce4bh2h2rcd13ifvqdh0","pricing_plan_id":"free"},{"bike_id":"297f45f7-d5e9-48eb-bb11-cc2ba972b3ed","system_id":"levelo_inurba_marseille","lat":43.294162,"lon":5.386292,"is_reserved":false,"is_disabled":false,"rental_uris":{"android":"levelo://app?vid=297f45f7-d5e9-48eb-bb11-cc2ba972b3ed","ios":"levelo://app?vid=297f45f7-d5e9-48eb-bb11-cc2ba972b3ed"},"vehicle_type_id":"4","last_reported":1703192785,"current_range_meters":18800,"station_id":"ce4bh2h2rcd13ifvqdh0","pricing_plan_id":"free"},{"bike_id":"7c005a1e-af2a-4bcb-843f-9fcc4fe1daac","system_id":"levelo_inurba_marseille","lat":43.2942,"lon":5.38628,"is_reserved":false,"is_disabled":false,"rental_uris":{"android":"levelo://app?vid=7c005a1e-af2a-4bcb-843f-9fcc4fe1daac","ios":"levelo://app?vid=7c005a1e-af2a-4bcb-843f-9fcc4fe1daac"},"vehicle_type_id":"4","last_reported":1703192785,"current_range_meters":24800,"station_id":"ce4bh2h2rcd13ifvqdh0","pricing_plan_id":"free"},{"bike_id":"da61600b-af4e-4853-957f-a0295327d58c","system_id":"levelo_inurba_marseille","lat":43.29417,"lon":5.38623,"is_reserved":false,"is_disabled":false,"rental_uris":{"android":"levelo://app?vid=da61600b-af4e-4853-957f-a0295327d58c","ios":"levelo://app?vid=da61600b-af4e-4853-957f-a0295327d58c"},"vehicle_type_id":"4","last_reported":1703192785,"current_range_meters":4400,"station_id":"ce4bh2h2rcd13ifvqdh0","pricing_plan_id":"free"},{"bike_id":"33891db1-de8f-4ac7-8ab5-87788d813ebc","system_id":"levelo_inurba_marseille","lat":43.29418,"lon":5.38626,"is_reserved":false,"is_disabled":false,"rental_uris":{"android":"levelo://app?vid=33891db1-de8f-4ac7-8ab5-87788d813ebc","ios":"levelo://app?vid=33891db1-de8f-4ac7-8ab5-87788d813ebc"},"vehicle_type_id":"4","last_reported":1703192785,"current_range_meters":4400,"station_id":"ce4bh2h2rcd13ifvqdh0","pricing_plan_id":"free"},{"bike_id":"07a5c12f-1a00-4192-90a1-43a3b54f9dda","system_id":"levelo_inurba_marseille","lat":43.294162,"lon":5.386292,"is_reserved":false,"is_disabled":false,"rental_uris":{"android":"levelo://app?vid=07a5c12f-1a00-4192-90a1-43a3b54f9dda","ios":"levelo://app?vid=07a5c12f-1a00-4192-90a1-43a3b54f9dda"},"vehicle_type_id":"4","last_reported":1703192785,"current_range_meters":5600,"station_id":"ce4bh2h2rcd13ifvqdh0","pricing_plan_id":"free"},{"bike_id":"8be0141b-2df4-4d3b-8bee-24104a64e1f5","system_id":"levelo_inurba_marseille","lat":43.289184,"lon":5.366408,"is_reserved":false,"is_disabled":false,"rental_uris":{"android":"levelo://app?vid=8be0141b-2df4-4d3b-8bee-24104a64e1f5","ios":"levelo://app?vid=8be0141b-2df4-4d3b-8bee-24104a64e1f5"},"vehicle_type_id":"4","last_reported":1703192785,"current_range_meters":7600,"station_id":"ce4bhap2rcd13ifvqek0","pricing_plan_id":"free"},{"bike_id":"d276c16a-58b8-4831-be88-ee093ec8174c","system_id":"levelo_inurba_marseille","lat":43.294162,"lon":5.386292,"is_reserved":false,"is_disabled":false,"rental_uris":{"android":"levelo://app?vid=d276c16a-58b8-4831-be88-ee093ec8174c","ios":"levelo://app?vid=d276c16a-58b8-4831-be88-ee093ec8174c"},"vehicle_type_id":"4","last_reported":1703192785,"current_range_meters":6800,"station_id":"ce4bh2h2rcd13ifvqdh0","pricing_plan_id":"free"},{"bike_id":"d9d106e5-fb71-4db2-bf60-417a93650c27","system_id":"levelo_inurba_marseille","lat":43.29416,"lon":5.38627,"is_reserved":false,"is_disabled":false,"rental_uris":{"android":"levelo://app?vid=d9d106e5-fb71-4db2-bf60-417a93650c27","ios":"levelo://app?vid=d9d106e5-fb71-4db2-bf60-417a93650c27"},"vehicle_type_id":"4","last_reported":1703192785,"current_range_meters":17600,"station_id":"ce4bh2h2rcd13ifvqdh0","pricing_plan_id":"free"},{"bike_id":"5749d636-89ca-4e31-928c-d1a6834f4869","system_id":"levelo_inurba_marseille","lat":43.294162,"lon":5.386292,"is_reserved":false,"is_disabled":false,"rental_uris":{"android":"levelo://app?vid=5749d636-89ca-4e31-928c-d1a6834f4869","ios":"levelo://app?vid=5749d636-89ca-4e31-928c-d1a6834f4869"},"vehicle_type_id":"4","last_reported":1703192785,"current_range_meters":6000,"station_id":"ce4bh2h2rcd13ifvqdh0","pricing_plan_id":"free"},{"bike_id":"22e835aa-c1d9-4711-8714-4ff717ce60c4","system_id":"levelo_inurba_marseille","lat":43.294153,"lon":5.386305,"is_reserved":false,"is_disabled":false,"rental_uris":{"android":"levelo://app?vid=22e835aa-c1d9-4711-8714-4ff717ce60c4","ios":"levelo://app?vid=22e835aa-c1d9-4711-8714-4ff717ce60c4"},"vehicle_type_id":"4","last_reported":1703192785,"current_range_meters":400,"station_id":"ce4bh2h2rcd13ifvqdh0","pricing_plan_id":"free"},{"bike_id":"2ffc53ec-c420-4fc3-9c05-91259ace94d0","system_id":"levelo_inurba_marseille","lat":43.294153,"lon":5.386305,"is_reserved":false,"is_disabled":false,"rental_uris":{"android":"levelo://app?vid=2ffc53ec-c420-4fc3-9c05-91259ace94d0","ios":"levelo://app?vid=2ffc53ec-c420-4fc3-9c05-91259ace94d0"},"vehicle_type_id":"4","last_reported":1703192785,"current_range_meters":17600,"station_id":"ce4bh2h2rcd13ifvqdh0","pricing_plan_id":"free"},{"bike_id":"e6b9267f-4405-43ee-8269-ded61e780564","system_id":"levelo_inurba_marseille","lat":43.289184,"lon":5.366408,"is_reserved":false,"is_disabled":false,"rental_uris":{"android":"levelo://app?vid=e6b9267f-4405-43ee-8269-ded61e780564","ios":"levelo://app?vid=e6b9267f-4405-43ee-8269-ded61e780564"},"vehicle_type_id":"4","last_reported":1703192785,"current_range_meters":18800,"station_id":"ce4bhap2rcd13ifvqek0","pricing_plan_id":"free"},{"bike_id":"d713219b-7195-4a78-a306-5c60df7a1ab6","system_id":"levelo_inurba_marseille","lat":43.292642,"lon":5.384254,"is_reserved":false,"is_disabled":false,"rental_uris":{"android":"levelo://app?vid=d713219b-7195-4a78-a306-5c60df7a1ab6","ios":"levelo://app?vid=d713219b-7195-4a78-a306-5c60df7a1ab6"},"vehicle_type_id":"4","last_reported":1703192785,"current_range_meters":5600,"station_id":"ce4bh692rcd13ifvqea0","pricing_plan_id":"free"},{"bike_id":"e39d69ca-dd36-4665-bfe3-d907fb914bbe","system_id":"levelo_inurba_marseille","lat":43.292644,"lon":5.384257,"is_reserved":false,"is_disabled":false,"rental_uris":{"android":"levelo://app?vid=e39d69ca-dd36-4665-bfe3-d907fb914bbe","ios":"levelo://app?vid=e39d69ca-dd36-4665-bfe3-d907fb914bbe"},"vehicle_type_id":"4","last_reported":1703192785,"current_range_meters":9600,"station_id":"ce4bh692rcd13ifvqea0","pricing_plan_id":"free"},{"bike_id":"aaf369e7-b0c4-4783-bce7-5c4e29d8ca47","system_id":"levelo_inurba_marseille","lat":43.292642,"lon":5.384254,"is_reserved":false,"is_disabled":false,"rental_uris":{"android":"levelo://app?vid=aaf369e7-b0c4-4783-bce7-5c4e29d8ca47","ios":"levelo://app?vid=aaf369e7-b0c4-4783-bce7-5c4e29d8ca47"},"vehicle_type_id":"4","last_reported":1703192785,"current_range_meters":0,"station_id":"ce4bh692rcd13ifvqea0","pricing_plan_id":"free"},{"bike_id":"172aa6bc-4bb0-4030-9da2-5dc735cbc145","system_id":"levelo_inurba_marseille","lat":43.304296,"lon":5.397513,"is_reserved":false,"is_disabled":false,"rental_uris":{"android":"levelo://app?vid=172aa6bc-4bb0-4030-9da2-5dc735cbc145","ios":"levelo://app?vid=172aa6bc-4bb0-4030-9da2-5dc735cbc145"},"vehicle_type_id":"4","last_reported":1703192785,"current_range_meters":800,"station_id":"ce4bh092rcd13ifvqd20","pricing_plan_id":"free"},{"bike_id":"9df40a06-5ea0-40e5-8cf3-16638db5763a","system_id":"levelo_inurba_marseille","lat":43.292644,"lon":5.384257,"is_reserved":false,"is_disabled":false,"rental_uris":{"android":"levelo://app?vid=9df40a06-5ea0-40e5-8cf3-16638db5763a","ios":"levelo://app?vid=9df40a06-5ea0-40e5-8cf3-16638db5763a"},"vehicle_type_id":"4","last_reported":1703192785,"current_range_meters":22000,"station_id":"ce4bh692rcd13ifvqea0","pricing_plan_id":"free"},{"bike_id":"a7ad659d-d19a-421a-9637-498b3db2d95f","system_id":"levelo_inurba_marseille","lat":43.292642,"lon":5.384254,"is_reserved":false,"is_disabled":false,"rental_uris":{"android":"levelo://app?vid=a7ad659d-d19a-421a-9637-498b3db2d95f","ios":"levelo://app?vid=a7ad659d-d19a-421a-9637-498b3db2d95f"},"vehicle_type_id":"4","last_reported":1703192785,"current_range_meters":13200,"station_id":"ce4bh692rcd13ifvqea0","pricing_plan_id":"free"},{"bike_id":"f9471835-a11d-41e2-8fda-61c178c61111","system_id":"levelo_inurba_marseille","lat":43.292642,"lon":5.384254,"is_reserved":false,"is_disabled":false,"rental_uris":{"android":"levelo://app?vid=f9471835-a11d-41e2-8fda-61c178c61111","ios":"levelo://app?vid=f9471835-a11d-41e2-8fda-61c178c61111"},"vehicle_type_id":"4","last_reported":1703192785,"current_range_meters":1600,"station_id":"ce4bh692rcd13ifvqea0","pricing_plan_id":"free"},{"bike_id":"b46ef01a-efc4-4b57-b208-1dc8085c89f4","system_id":"levelo_inurba_marseille","lat":43.292642,"lon":5.384254,"is_reserved":false,"is_disabled":false,"rental_uris":{"android":"levelo://app?vid=b46ef01a-efc4-4b57-b208-1dc8085c89f4","ios":"levelo://app?vid=b46ef01a-efc4-4b57-b208-1dc8085c89f4"},"vehicle_type_id":"4","last_reported":1703192785,"current_range_meters":26000,"station_id":"ce4bh692rcd13ifvqea0","pricing_plan_id":"free"},{"bike_id":"c6cb8b39-bc12-4f1c-b0f5-36377909f91a","system_id":"levelo_inurba_marseille","lat":43.292642,"lon":5.384254,"is_reserved":false,"is_disabled":false,"rental_uris":{"android":"levelo://app?vid=c6cb8b39-bc12-4f1c-b0f5-36377909f91a","ios":"levelo://app?vid=c6cb8b39-bc12-4f1c-b0f5-36377909f91a"},"vehicle_type_id":"4","last_reported":1703192785,"current_range_meters":0,"station_id":"ce4bh692rcd13ifvqea0","pricing_plan_id":"free"},{"bike_id":"caf667f9-6a72-46ab-9f57-9d8cb007530f","system_id":"levelo_inurba_marseille","lat":43.30644,"lon":5.39857,"is_reserved":false,"is_disabled":false,"rental_uris":{"android":"levelo://app?vid=caf667f9-6a72-46ab-9f57-9d8cb007530f","ios":"levelo://app?vid=caf667f9-6a72-46ab-9f57-9d8cb007530f"},"vehicle_type_id":"4","last_reported":1703192785,"current_range_meters":0,"station_id":"","pricing_plan_id":"free"},{"bike_id":"1e67263e-7fcf-4dd5-a556-b88ebac7ac24","system_id":"levelo_inurba_marseille","lat":43.292642,"lon":5.384254,"is_reserved":false,"is_disabled":false,"rental_uris":{"android":"levelo://app?vid=1e67263e-7fcf-4dd5-a556-b88ebac7ac24","ios":"levelo://app?vid=1e67263e-7fcf-4dd5-a556-b88ebac7ac24"},"vehicle_type_id":"4","last_reported":1703192785,"current_range_meters":0,"station_id":"ce4bh692rcd13ifvqea0","pricing_plan_id":"free"},{"bike_id":"fe04619a-837f-4215-99fb-c7797369a2b1","system_id":"levelo_inurba_marseille","lat":43.330442,"lon":5.389148,"is_reserved":false,"is_disabled":false,"rental_uris":{"android":"levelo://app?vid=fe04619a-837f-4215-99fb-c7797369a2b1","ios":"levelo://app?vid=fe04619a-837f-4215-99fb-c7797369a2b1"},"vehicle_type_id":"4","last_reported":1703192785,"current_range_meters":20400,"station_id":"ce4bhr92rcd13ifvqhrg","pricing_plan_id":"free"},{"bike_id":"86f2253d-40cf-48fe-a740-0d91efe06196","system_id":"levelo_inurba_marseille","lat":43.295169,"lon":5.390426,"is_reserved":false,"is_disabled":false,"rental_uris":{"android":"levelo://app?vid=86f2253d-40cf-48fe-a740-0d91efe06196","ios":"levelo://app?vid=86f2253d-40cf-48fe-a740-0d91efe06196"},"vehicle_type_id":"4","last_reported":1703192785,"current_range_meters":22800,"station_id":"ce4bh3p2rcd13ifvqdp0","pricing_plan_id":"free"},{"bike_id":"0c117c73-9b27-4175-b015-03e56caac421","system_id":"levelo_inurba_marseille","lat":43.29523,"lon":5.3904,"is_reserved":false,"is_disabled":false,"rental_uris":{"android":"levelo://app?vid=0c117c73-9b27-4175-b015-03e56caac421","ios":"levelo://app?vid=0c117c73-9b27-4175-b015-03e56caac421"},"vehicle_type_id":"4","last_reported":1703192785,"current_range_meters":0,"station_id":"ce4bh3p2rcd13ifvqdp0","pricing_plan_id":"free"},{"bike_id":"6427305e-953f-4484-8ae8-4e920f6d7ef3","system_id":"levelo_inurba_marseille","lat":43.295169,"lon":5.390426,"is_reserved":false,"is_disabled":false,"rental_uris":{"android":"levelo://app?vid=6427305e-953f-4484-8ae8-4e920f6d7ef3","ios":"levelo://app?vid=6427305e-953f-4484-8ae8-4e920f6d7ef3"},"vehicle_type_id":"4","last_reported":1703192785,"current_range_meters":7600,"station_id":"ce4bh3p2rcd13ifvqdp0","pricing_plan_id":"free"},{"bike_id":"b505eab4-aaca-40b5-a44c-7ef4f8cacfbb","system_id":"levelo_inurba_marseille","lat":43.295169,"lon":5.390426,"is_reserved":false,"is_disabled":false,"rental_uris":{"android":"levelo://app?vid=b505eab4-aaca-40b5-a44c-7ef4f8cacfbb","ios":"levelo://app?vid=b505eab4-aaca-40b5-a44c-7ef4f8cacfbb"},"vehicle_type_id":"4","last_reported":1703192785,"current_range_meters":0,"station_id":"ce4bh3p2rcd13ifvqdp0","pricing_plan_id":"free"},{"bike_id":"35a9c6ce-a812-4193-a62e-ac16dcd1226a","system_id":"levelo_inurba_marseille","lat":43.28856,"lon":5.358371,"is_reserved":false,"is_disabled":false,"rental_uris":{"android":"levelo://app?vid=35a9c6ce-a812-4193-a62e-ac16dcd1226a","ios":"levelo://app?vid=35a9c6ce-a812-4193-a62e-ac16dcd1226a"},"vehicle_type_id":"4","last_reported":1703192785,"current_range_meters":8400,"station_id":"ce4bhb12rcd13ifvqem0","pricing_plan_id":"free"},{"bike_id":"95a5d527-02e9-4477-bca4-7a559443ba1e","system_id":"levelo_inurba_marseille","lat":43.28856,"lon":5.358371,"is_reserved":false,"is_disabled":false,"rental_uris":{"android":"levelo://app?vid=95a5d527-02e9-4477-bca4-7a559443ba1e","ios":"levelo://app?vid=95a5d527-02e9-4477-bca4-7a559443ba1e"},"vehicle_type_id":"4","last_reported":1703192785,"current_range_meters":5600,"station_id":"ce4bhb12rcd13ifvqem0","pricing_plan_id":"free"},{"bike_id":"2d69ba61-662c-4ce0-8aea-66e66ad60cb7","system_id":"levelo_inurba_marseille","lat":43.28856,"lon":5.358371,"is_reserved":false,"is_disabled":false,"rental_uris":{"android":"levelo://app?vid=2d69ba61-662c-4ce0-8aea-66e66ad60cb7","ios":"levelo://app?vid=2d69ba61-662c-4ce0-8aea-66e66ad60cb7"},"vehicle_type_id":"4","last_reported":1703192785,"current_range_meters":0,"station_id":"ce4bhb12rcd13ifvqem0","pricing_plan_id":"free"},{"bike_id":"0758ba9b-eec1-4a13-8fa3-d200e4b83daf","system_id":"levelo_inurba_marseille","lat":43.312609,"lon":5.401662,"is_reserved":false,"is_disabled":false,"rental_uris":{"android":"levelo://app?vid=0758ba9b-eec1-4a13-8fa3-d200e4b83daf","ios":"levelo://app?vid=0758ba9b-eec1-4a13-8fa3-d200e4b83daf"},"vehicle_type_id":"4","last_reported":1703192785,"current_range_meters":18000,"station_id":"ce4bh092rcd13ifvqd30","pricing_plan_id":"free"},{"bike_id":"f686e92f-8790-4c07-83c0-e05c875b57d5","system_id":"levelo_inurba_marseille","lat":43.309371,"lon":5.401449,"is_reserved":false,"is_disabled":false,"rental_uris":{"android":"levelo://app?vid=f686e92f-8790-4c07-83c0-e05c875b57d5","ios":"levelo://app?vid=f686e92f-8790-4c07-83c0-e05c875b57d5"},"vehicle_type_id":"4","last_reported":1703192785,"current_range_meters":9200,"station_id":"ce4bgvp2rcd13ifvqct0","pricing_plan_id":"free"},{"bike_id":"da224aca-9757-4a57-88ba-cd0e45a5fdd2","system_id":"levelo_inurba_marseille","lat":43.30923,"lon":5.40143,"is_reserved":false,"is_disabled":false,"rental_uris":{"android":"levelo://app?vid=da224aca-9757-4a57-88ba-cd0e45a5fdd2","ios":"levelo://app?vid=da224aca-9757-4a57-88ba-cd0e45a5fdd2"},"vehicle_type_id":"4","last_reported":1703192785,"current_range_meters":10800,"station_id":"ce4bgvp2rcd13ifvqct0","pricing_plan_id":"free"},{"bike_id":"1a59bbe6-4ce8-4bd7-8490-51717c6c735e","system_id":"levelo_inurba_marseille","lat":43.312609,"lon":5.401662,"is_reserved":false,"is_disabled":false,"rental_uris":{"android":"levelo://app?vid=1a59bbe6-4ce8-4bd7-8490-51717c6c735e","ios":"levelo://app?vid=1a59bbe6-4ce8-4bd7-8490-51717c6c735e"},"vehicle_type_id":"4","last_reported":1703192785,"current_range_meters":0,"station_id":"ce4bh092rcd13ifvqd30","pricing_plan_id":"free"},{"bike_id":"284f9061-f39d-4a8d-b72d-d997729b14de","system_id":"levelo_inurba_marseille","lat":43.312609,"lon":5.401662,"is_reserved":false,"is_disabled":false,"rental_uris":{"android":"levelo://app?vid=284f9061-f39d-4a8d-b72d-d997729b14de","ios":"levelo://app?vid=284f9061-f39d-4a8d-b72d-d997729b14de"},"vehicle_type_id":"4","last_reported":1703192785,"current_range_meters":3600,"station_id":"ce4bh092rcd13ifvqd30","pricing_plan_id":"free"},{"bike_id":"d6a3b3f7-47ad-400d-a5fa-5c5759b52bf0","system_id":"levelo_inurba_marseille","lat":43.309371,"lon":5.401449,"is_reserved":false,"is_disabled":false,"rental_uris":{"android":"levelo://app?vid=d6a3b3f7-47ad-400d-a5fa-5c5759b52bf0","ios":"levelo://app?vid=d6a3b3f7-47ad-400d-a5fa-5c5759b52bf0"},"vehicle_type_id":"4","last_reported":1703192785,"current_range_meters":0,"station_id":"ce4bgvp2rcd13ifvqct0","pricing_plan_id":"free"},{"bike_id":"5c81a891-9f9f-45af-8799-b5e5314532fa","system_id":"levelo_inurba_marseille","lat":43.33764,"lon":5.37453,"is_reserved":false,"is_disabled":false,"rental_uris":{"android":"levelo://app?vid=5c81a891-9f9f-45af-8799-b5e5314532fa","ios":"levelo://app?vid=5c81a891-9f9f-45af-8799-b5e5314532fa"},"vehicle_type_id":"4","last_reported":1703192785,"current_range_meters":25600,"station_id":"","pricing_plan_id":"free"},{"bike_id":"337955db-d8ba-4f5e-b077-77e188f45be6","system_id":"levelo_inurba_marseille","lat":43.306528,"lon":5.400997,"is_reserved":false,"is_disabled":false,"rental_uris":{"android":"levelo://app?vid=337955db-d8ba-4f5e-b077-77e188f45be6","ios":"levelo://app?vid=337955db-d8ba-4f5e-b077-77e188f45be6"},"vehicle_type_id":"4","last_reported":1703192785,"current_range_meters":20800,"station_id":"ce4bh112rcd13ifvqda0","pricing_plan_id":"free"},{"bike_id":"783b44d6-7fa2-4a72-8c1b-47896d85b61a","system_id":"levelo_inurba_marseille","lat":43.301117,"lon":5.398795,"is_reserved":false,"is_disabled":false,"rental_uris":{"android":"levelo://app?vid=783b44d6-7fa2-4a72-8c1b-47896d85b61a","ios":"levelo://app?vid=783b44d6-7fa2-4a72-8c1b-47896d85b61a"},"vehicle_type_id":"4","last_reported":1703192785,"current_range_meters":2800,"station_id":"ce4bh0h2rcd13ifvqd40","pricing_plan_id":"free"},{"bike_id":"a4d298b7-c127-45cd-9124-4eff460c842c","system_id":"levelo_inurba_marseille","lat":43.301117,"lon":5.398795,"is_reserved":false,"is_disabled":false,"rental_uris":{"android":"levelo://app?vid=a4d298b7-c127-45cd-9124-4eff460c842c","ios":"levelo://app?vid=a4d298b7-c127-45cd-9124-4eff460c842c"},"vehicle_type_id":"4","last_reported":1703192785,"current_range_meters":4000,"station_id":"ce4bh0h2rcd13ifvqd40","pricing_plan_id":"free"},{"bike_id":"d7871565-7fd7-4103-ba59-6c3a96d1a2fd","system_id":"levelo_inurba_marseille","lat":43.301117,"lon":5.398795,"is_reserved":false,"is_disabled":false,"rental_uris":{"android":"levelo://app?vid=d7871565-7fd7-4103-ba59-6c3a96d1a2fd","ios":"levelo://app?vid=d7871565-7fd7-4103-ba59-6c3a96d1a2fd"},"vehicle_type_id":"4","last_reported":1703192785,"current_range_meters":13600,"station_id":"ce4bh0h2rcd13ifvqd40","pricing_plan_id":"free"},{"bike_id":"5f147c6d-83bf-4674-b7cd-cac60e2f3776","system_id":"levelo_inurba_marseille","lat":43.28727,"lon":5.36078,"is_reserved":false,"is_disabled":false,"rental_uris":{"android":"levelo://app?vid=5f147c6d-83bf-4674-b7cd-cac60e2f3776","ios":"levelo://app?vid=5f147c6d-83bf-4674-b7cd-cac60e2f3776"},"vehicle_type_id":"4","last_reported":1703192785,"current_range_meters":14000,"station_id":"cki0cbj6b192h4jlfktg","pricing_plan_id":"free"},{"bike_id":"a96b6b94-efb1-4357-a5ac-d7d9e034cee8","system_id":"levelo_inurba_marseille","lat":43.286591,"lon":5.363346,"is_reserved":false,"is_disabled":false,"rental_uris":{"android":"levelo://app?vid=a96b6b94-efb1-4357-a5ac-d7d9e034cee8","ios":"levelo://app?vid=a96b6b94-efb1-4357-a5ac-d7d9e034cee8"},"vehicle_type_id":"4","last_reported":1703192785,"current_range_meters":12800,"station_id":"ce4bhah2rcd13ifvqej0","pricing_plan_id":"free"},{"bike_id":"4b97a246-132f-4e94-a373-fd2cedcc3f8e","system_id":"levelo_inurba_marseille","lat":43.298681,"lon":5.397225,"is_reserved":false,"is_disabled":false,"rental_uris":{"android":"levelo://app?vid=4b97a246-132f-4e94-a373-fd2cedcc3f8e","ios":"levelo://app?vid=4b97a246-132f-4e94-a373-fd2cedcc3f8e"},"vehicle_type_id":"4","last_reported":1703192785,"current_range_meters":16000,"station_id":"ce4bh0h2rcd13ifvqd50","pricing_plan_id":"free"},{"bike_id":"deff87f3-a8b4-4694-9043-50a28afaff45","system_id":"levelo_inurba_marseille","lat":43.298681,"lon":5.397225,"is_reserved":false,"is_disabled":false,"rental_uris":{"android":"levelo://app?vid=deff87f3-a8b4-4694-9043-50a28afaff45","ios":"levelo://app?vid=deff87f3-a8b4-4694-9043-50a28afaff45"},"vehicle_type_id":"4","last_reported":1703192785,"current_range_meters":8800,"station_id":"ce4bh0h2rcd13ifvqd50","pricing_plan_id":"free"},{"bike_id":"298733c3-c783-4e88-98bd-9bcc8b9fb2de","system_id":"levelo_inurba_marseille","lat":43.289307,"lon":5.38406,"is_reserved":false,"is_disabled":false,"rental_uris":{"android":"levelo://app?vid=298733c3-c783-4e88-98bd-9bcc8b9fb2de","ios":"levelo://app?vid=298733c3-c783-4e88-98bd-9bcc8b9fb2de"},"vehicle_type_id":"4","last_reported":1703192785,"current_range_meters":12400,"station_id":"ce4bh612rcd13ifvqe6g","pricing_plan_id":"free"},{"bike_id":"2724bcc0-5e6e-4473-bba1-30cbdf2c1ff9","system_id":"levelo_inurba_marseille","lat":43.302759,"lon":5.400793,"is_reserved":false,"is_disabled":false,"rental_uris":{"android":"levelo://app?vid=2724bcc0-5e6e-4473-bba1-30cbdf2c1ff9","ios":"levelo://app?vid=2724bcc0-5e6e-4473-bba1-30cbdf2c1ff9"},"vehicle_type_id":"4","last_reported":1703192785,"current_range_meters":10000,"station_id":"ce4bgvh2rcd13ifvqcs0","pricing_plan_id":"free"},{"bike_id":"6aa38bdd-76d4-4047-851d-59b712722d74","system_id":"levelo_inurba_marseille","lat":43.290345,"lon":5.38646,"is_reserved":false,"is_disabled":false,"rental_uris":{"android":"levelo://app?vid=6aa38bdd-76d4-4047-851d-59b712722d74","ios":"levelo://app?vid=6aa38bdd-76d4-4047-851d-59b712722d74"},"vehicle_type_id":"4","last_reported":1703192785,"current_range_meters":18400,"station_id":"ce4bh4p2rcd13ifvqe0g","pricing_plan_id":"free"},{"bike_id":"657b4d30-11c4-4174-ae70-5f17e3ee8719","system_id":"levelo_inurba_marseille","lat":43.286039,"lon":5.370679,"is_reserved":false,"is_disabled":false,"rental_uris":{"android":"levelo://app?vid=657b4d30-11c4-4174-ae70-5f17e3ee8719","ios":"levelo://app?vid=657b4d30-11c4-4174-ae70-5f17e3ee8719"},"vehicle_type_id":"4","last_reported":1703192785,"current_range_meters":29200,"station_id":"ce4bht12rcd13ifvqi60","pricing_plan_id":"free"},{"bike_id":"4d882ab1-2188-4a1b-93c0-ea8a8c1f82e2","system_id":"levelo_inurba_marseille","lat":43.286039,"lon":5.370679,"is_reserved":false,"is_disabled":false,"rental_uris":{"android":"levelo://app?vid=4d882ab1-2188-4a1b-93c0-ea8a8c1f82e2","ios":"levelo://app?vid=4d882ab1-2188-4a1b-93c0-ea8a8c1f82e2"},"vehicle_type_id":"4","last_reported":1703192785,"current_range_meters":30000,"station_id":"ce4bht12rcd13ifvqi60","pricing_plan_id":"free"},{"bike_id":"983ef4bd-15ac-4651-8cde-3bd14abec0b1","system_id":"levelo_inurba_marseille","lat":43.28604,"lon":5.37068,"is_reserved":false,"is_disabled":false,"rental_uris":{"android":"levelo://app?vid=983ef4bd-15ac-4651-8cde-3bd14abec0b1","ios":"levelo://app?vid=983ef4bd-15ac-4651-8cde-3bd14abec0b1"},"vehicle_type_id":"4","last_reported":1703192785,"current_range_meters":0,"station_id":"ce4bht12rcd13ifvqi60","pricing_plan_id":"free"},{"bike_id":"832dead0-3ef0-44c4-aee5-04fa5d0db04d","system_id":"levelo_inurba_marseille","lat":43.287184,"lon":5.37937,"is_reserved":false,"is_disabled":false,"rental_uris":{"android":"levelo://app?vid=832dead0-3ef0-44c4-aee5-04fa5d0db04d","ios":"levelo://app?vid=832dead0-3ef0-44c4-aee5-04fa5d0db04d"},"vehicle_type_id":"4","last_reported":1703192785,"current_range_meters":14000,"station_id":"ce4bh9p2rcd13ifvqec0","pricing_plan_id":"free"},{"bike_id":"b5ba4e31-c8a5-4cda-8e3b-5ca032e9d193","system_id":"levelo_inurba_marseille","lat":43.316821,"lon":5.404737,"is_reserved":false,"is_disabled":false,"rental_uris":{"android":"levelo://app?vid=b5ba4e31-c8a5-4cda-8e3b-5ca032e9d193","ios":"levelo://app?vid=b5ba4e31-c8a5-4cda-8e3b-5ca032e9d193"},"vehicle_type_id":"4","last_reported":1703192785,"current_range_meters":15600,"station_id":"ce4bh012rcd13ifvqd00","pricing_plan_id":"free"},{"bike_id":"9c1d8e00-a419-47ac-962c-e3e4436c700f","system_id":"levelo_inurba_marseille","lat":43.316821,"lon":5.404737,"is_reserved":false,"is_disabled":false,"rental_uris":{"android":"levelo://app?vid=9c1d8e00-a419-47ac-962c-e3e4436c700f","ios":"levelo://app?vid=9c1d8e00-a419-47ac-962c-e3e4436c700f"},"vehicle_type_id":"4","last_reported":1703192785,"current_range_meters":22400,"station_id":"ce4bh012rcd13ifvqd00","pricing_plan_id":"free"},{"bike_id":"ccd51165-f4f1-4994-ab1f-db1f3ac78838","system_id":"levelo_inurba_marseille","lat":43.316821,"lon":5.404737,"is_reserved":false,"is_disabled":false,"rental_uris":{"android":"levelo://app?vid=ccd51165-f4f1-4994-ab1f-db1f3ac78838","ios":"levelo://app?vid=ccd51165-f4f1-4994-ab1f-db1f3ac78838"},"vehicle_type_id":"4","last_reported":1703192785,"current_range_meters":11200,"station_id":"ce4bh012rcd13ifvqd00","pricing_plan_id":"free"},{"bike_id":"79ceb97f-5fba-4b46-ad1c-30e377ac8dc5","system_id":"levelo_inurba_marseille","lat":43.291994,"lon":5.392907,"is_reserved":false,"is_disabled":false,"rental_uris":{"android":"levelo://app?vid=79ceb97f-5fba-4b46-ad1c-30e377ac8dc5","ios":"levelo://app?vid=79ceb97f-5fba-4b46-ad1c-30e377ac8dc5"},"vehicle_type_id":"4","last_reported":1703192785,"current_range_meters":400,"station_id":"ce4bh192rcd13ifvqdd0","pricing_plan_id":"free"},{"bike_id":"1e55e673-918d-4cf6-80fd-f45266ebab14","system_id":"levelo_inurba_marseille","lat":43.291994,"lon":5.392907,"is_reserved":false,"is_disabled":false,"rental_uris":{"android":"levelo://app?vid=1e55e673-918d-4cf6-80fd-f45266ebab14","ios":"levelo://app?vid=1e55e673-918d-4cf6-80fd-f45266ebab14"},"vehicle_type_id":"4","last_reported":1703192785,"current_range_meters":12000,"station_id":"ce4bh192rcd13ifvqdd0","pricing_plan_id":"free"},{"bike_id":"b1c38bac-293d-4f4e-9104-cc29dff78f8f","system_id":"levelo_inurba_marseille","lat":43.291994,"lon":5.392907,"is_reserved":false,"is_disabled":false,"rental_uris":{"android":"levelo://app?vid=b1c38bac-293d-4f4e-9104-cc29dff78f8f","ios":"levelo://app?vid=b1c38bac-293d-4f4e-9104-cc29dff78f8f"},"vehicle_type_id":"4","last_reported":1703192785,"current_range_meters":400,"station_id":"ce4bh192rcd13ifvqdd0","pricing_plan_id":"free"},{"bike_id":"9382ba44-52c5-40f8-a4e8-d5c089cb2a27","system_id":"levelo_inurba_marseille","lat":43.284538,"lon":5.358657,"is_reserved":false,"is_disabled":false,"rental_uris":{"android":"levelo://app?vid=9382ba44-52c5-40f8-a4e8-d5c089cb2a27","ios":"levelo://app?vid=9382ba44-52c5-40f8-a4e8-d5c089cb2a27"},"vehicle_type_id":"4","last_reported":1703192785,"current_range_meters":9200,"station_id":"ce4bhah2rcd13ifvqei0","pricing_plan_id":"free"},{"bike_id":"0b4a10b2-056b-4f55-b0ea-eee93fe16f97","system_id":"levelo_inurba_marseille","lat":43.284538,"lon":5.358657,"is_reserved":false,"is_disabled":false,"rental_uris":{"android":"levelo://app?vid=0b4a10b2-056b-4f55-b0ea-eee93fe16f97","ios":"levelo://app?vid=0b4a10b2-056b-4f55-b0ea-eee93fe16f97"},"vehicle_type_id":"4","last_reported":1703192785,"current_range_meters":16800,"station_id":"ce4bhah2rcd13ifvqei0","pricing_plan_id":"free"},{"bike_id":"d831b56a-b1fc-47e5-b882-a485e822b747","system_id":"levelo_inurba_marseille","lat":43.28456,"lon":5.35895,"is_reserved":false,"is_disabled":false,"rental_uris":{"android":"levelo://app?vid=d831b56a-b1fc-47e5-b882-a485e822b747","ios":"levelo://app?vid=d831b56a-b1fc-47e5-b882-a485e822b747"},"vehicle_type_id":"4","last_reported":1703192785,"current_range_meters":0,"station_id":"ce4bhah2rcd13ifvqei0","pricing_plan_id":"free"},{"bike_id":"cd505932-198d-4807-a5d1-e6480e642615","system_id":"levelo_inurba_marseille","lat":43.284538,"lon":5.358657,"is_reserved":false,"is_disabled":false,"rental_uris":{"android":"levelo://app?vid=cd505932-198d-4807-a5d1-e6480e642615","ios":"levelo://app?vid=cd505932-198d-4807-a5d1-e6480e642615"},"vehicle_type_id":"4","last_reported":1703192785,"current_range_meters":22800,"station_id":"ce4bhah2rcd13ifvqei0","pricing_plan_id":"free"},{"bike_id":"7c2636e3-4942-4723-b44c-8451a7ead0ad","system_id":"levelo_inurba_marseille","lat":43.284538,"lon":5.358657,"is_reserved":false,"is_disabled":false,"rental_uris":{"android":"levelo://app?vid=7c2636e3-4942-4723-b44c-8451a7ead0ad","ios":"levelo://app?vid=7c2636e3-4942-4723-b44c-8451a7ead0ad"},"vehicle_type_id":"4","last_reported":1703192785,"current_range_meters":14800,"station_id":"ce4bhah2rcd13ifvqei0","pricing_plan_id":"free"},{"bike_id":"614713e0-f904-46db-a563-19679d087ee5","system_id":"levelo_inurba_marseille","lat":43.294314,"lon":5.397498,"is_reserved":false,"is_disabled":false,"rental_uris":{"android":"levelo://app?vid=614713e0-f904-46db-a563-19679d087ee5","ios":"levelo://app?vid=614713e0-f904-46db-a563-19679d087ee5"},"vehicle_type_id":"4","last_reported":1703192785,"current_range_meters":26400,"station_id":"ce4bh3h2rcd13ifvqdo0","pricing_plan_id":"free"},{"bike_id":"84f3770d-b198-4ea6-8902-3a342ef768f5","system_id":"levelo_inurba_marseille","lat":43.285856,"lon":5.350771,"is_reserved":false,"is_disabled":false,"rental_uris":{"android":"levelo://app?vid=84f3770d-b198-4ea6-8902-3a342ef768f5","ios":"levelo://app?vid=84f3770d-b198-4ea6-8902-3a342ef768f5"},"vehicle_type_id":"4","last_reported":1703192785,"current_range_meters":8400,"station_id":"ce4bhch2rcd13ifvqeug","pricing_plan_id":"free"},{"bike_id":"b46f17f1-7187-440c-83c9-b6c7d75f2b5a","system_id":"levelo_inurba_marseille","lat":43.285856,"lon":5.350771,"is_reserved":false,"is_disabled":false,"rental_uris":{"android":"levelo://app?vid=b46f17f1-7187-440c-83c9-b6c7d75f2b5a","ios":"levelo://app?vid=b46f17f1-7187-440c-83c9-b6c7d75f2b5a"},"vehicle_type_id":"4","last_reported":1703192785,"current_range_meters":2800,"station_id":"ce4bhch2rcd13ifvqeug","pricing_plan_id":"free"},{"bike_id":"971f3b80-cdbc-42e0-aeb5-d29f0f4204d2","system_id":"levelo_inurba_marseille","lat":43.285856,"lon":5.350771,"is_reserved":false,"is_disabled":false,"rental_uris":{"android":"levelo://app?vid=971f3b80-cdbc-42e0-aeb5-d29f0f4204d2","ios":"levelo://app?vid=971f3b80-cdbc-42e0-aeb5-d29f0f4204d2"},"vehicle_type_id":"4","last_reported":1703192785,"current_range_meters":10000,"station_id":"ce4bhch2rcd13ifvqeug","pricing_plan_id":"free"},{"bike_id":"8538e6dd-dbef-4a5a-a119-9a857fd021ad","system_id":"levelo_inurba_marseille","lat":43.33218,"lon":5.397067,"is_reserved":false,"is_disabled":false,"rental_uris":{"android":"levelo://app?vid=8538e6dd-dbef-4a5a-a119-9a857fd021ad","ios":"levelo://app?vid=8538e6dd-dbef-4a5a-a119-9a857fd021ad"},"vehicle_type_id":"4","last_reported":1703192785,"current_range_meters":0,"station_id":"","pricing_plan_id":"free"},{"bike_id":"ea8b4f00-1277-43d2-b1fc-070479d7bc5d","system_id":"levelo_inurba_marseille","lat":43.295713,"lon":5.399639,"is_reserved":false,"is_disabled":false,"rental_uris":{"android":"levelo://app?vid=ea8b4f00-1277-43d2-b1fc-070479d7bc5d","ios":"levelo://app?vid=ea8b4f00-1277-43d2-b1fc-070479d7bc5d"},"vehicle_type_id":"4","last_reported":1703192785,"current_range_meters":11200,"station_id":"ce4bh312rcd13ifvqdj0","pricing_plan_id":"free"},{"bike_id":"a871351f-f588-41ff-be0b-aa4c1cae87db","system_id":"levelo_inurba_marseille","lat":43.28673,"lon":5.38663,"is_reserved":false,"is_disabled":false,"rental_uris":{"android":"levelo://app?vid=a871351f-f588-41ff-be0b-aa4c1cae87db","ios":"levelo://app?vid=a871351f-f588-41ff-be0b-aa4c1cae87db"},"vehicle_type_id":"4","last_reported":1703192785,"current_range_meters":5600,"station_id":"ce4bh492rcd13ifvqdug","pricing_plan_id":"free"},{"bike_id":"65d06931-bb5b-4f3d-9201-e4a284c6ece5","system_id":"levelo_inurba_marseille","lat":43.286595,"lon":5.386795,"is_reserved":false,"is_disabled":false,"rental_uris":{"android":"levelo://app?vid=65d06931-bb5b-4f3d-9201-e4a284c6ece5","ios":"levelo://app?vid=65d06931-bb5b-4f3d-9201-e4a284c6ece5"},"vehicle_type_id":"4","last_reported":1703192785,"current_range_meters":26400,"station_id":"ce4bh492rcd13ifvqdug","pricing_plan_id":"free"},{"bike_id":"dd6a7f2a-8d1c-444e-a1e7-1279dbc884aa","system_id":"levelo_inurba_marseille","lat":43.286595,"lon":5.386795,"is_reserved":false,"is_disabled":false,"rental_uris":{"android":"levelo://app?vid=dd6a7f2a-8d1c-444e-a1e7-1279dbc884aa","ios":"levelo://app?vid=dd6a7f2a-8d1c-444e-a1e7-1279dbc884aa"},"vehicle_type_id":"4","last_reported":1703192785,"current_range_meters":18000,"station_id":"ce4bh492rcd13ifvqdug","pricing_plan_id":"free"},{"bike_id":"dfdadb00-295f-4147-bb7b-992e830130a9","system_id":"levelo_inurba_marseille","lat":43.323464,"lon":5.406297,"is_reserved":false,"is_disabled":false,"rental_uris":{"android":"levelo://app?vid=dfdadb00-295f-4147-bb7b-992e830130a9","ios":"levelo://app?vid=dfdadb00-295f-4147-bb7b-992e830130a9"},"vehicle_type_id":"4","last_reported":1703192785,"current_range_meters":31200,"station_id":"ce4bhq92rcd13ifvqhjg","pricing_plan_id":"free"},{"bike_id":"aa1bea3e-ff5f-4c49-a630-426ec3e7598d","system_id":"levelo_inurba_marseille","lat":43.323464,"lon":5.406297,"is_reserved":false,"is_disabled":false,"rental_uris":{"android":"levelo://app?vid=aa1bea3e-ff5f-4c49-a630-426ec3e7598d","ios":"levelo://app?vid=aa1bea3e-ff5f-4c49-a630-426ec3e7598d"},"vehicle_type_id":"4","last_reported":1703192785,"current_range_meters":30000,"station_id":"ce4bhq92rcd13ifvqhjg","pricing_plan_id":"free"},{"bike_id":"fd2e7039-0fd3-4628-8b15-7dd4fa49c5ea","system_id":"levelo_inurba_marseille","lat":43.288501,"lon":5.393087,"is_reserved":false,"is_disabled":false,"rental_uris":{"android":"levelo://app?vid=fd2e7039-0fd3-4628-8b15-7dd4fa49c5ea","ios":"levelo://app?vid=fd2e7039-0fd3-4628-8b15-7dd4fa49c5ea"},"vehicle_type_id":"4","last_reported":1703192785,"current_range_meters":19600,"station_id":"ce4bh2p2rcd13ifvqdi0","pricing_plan_id":"free"},{"bike_id":"4bad87de-9f68-483c-a1e2-7bed09f95159","system_id":"levelo_inurba_marseille","lat":43.288501,"lon":5.393087,"is_reserved":false,"is_disabled":false,"rental_uris":{"android":"levelo://app?vid=4bad87de-9f68-483c-a1e2-7bed09f95159","ios":"levelo://app?vid=4bad87de-9f68-483c-a1e2-7bed09f95159"},"vehicle_type_id":"4","last_reported":1703192785,"current_range_meters":7200,"station_id":"ce4bh2p2rcd13ifvqdi0","pricing_plan_id":"free"},{"bike_id":"d56a2764-677e-4209-adfa-b8c19fb45def","system_id":"levelo_inurba_marseille","lat":43.323948,"lon":5.406558,"is_reserved":false,"is_disabled":false,"rental_uris":{"android":"levelo://app?vid=d56a2764-677e-4209-adfa-b8c19fb45def","ios":"levelo://app?vid=d56a2764-677e-4209-adfa-b8c19fb45def"},"vehicle_type_id":"4","last_reported":1703192785,"current_range_meters":16400,"station_id":"","pricing_plan_id":"free"},{"bike_id":"2158a846-6c1a-421d-8c30-5f0480c00175","system_id":"levelo_inurba_marseille","lat":43.284219,"lon":5.3497,"is_reserved":false,"is_disabled":false,"rental_uris":{"android":"levelo://app?vid=2158a846-6c1a-421d-8c30-5f0480c00175","ios":"levelo://app?vid=2158a846-6c1a-421d-8c30-5f0480c00175"},"vehicle_type_id":"4","last_reported":1703192785,"current_range_meters":27200,"station_id":"ce4bhbh2rcd13ifvqepg","pricing_plan_id":"free"},{"bike_id":"0f42eedd-bd33-445f-91fc-4e7504a96eb4","system_id":"levelo_inurba_marseille","lat":43.324256,"lon":5.407073,"is_reserved":false,"is_disabled":false,"rental_uris":{"android":"levelo://app?vid=0f42eedd-bd33-445f-91fc-4e7504a96eb4","ios":"levelo://app?vid=0f42eedd-bd33-445f-91fc-4e7504a96eb4"},"vehicle_type_id":"4","last_reported":1703192785,"current_range_meters":15600,"station_id":"","pricing_plan_id":"free"},{"bike_id":"40dbcca8-099d-461b-ba3d-9f3ec3babe1f","system_id":"levelo_inurba_marseille","lat":43.292724,"lon":5.401131,"is_reserved":false,"is_disabled":false,"rental_uris":{"android":"levelo://app?vid=40dbcca8-099d-461b-ba3d-9f3ec3babe1f","ios":"levelo://app?vid=40dbcca8-099d-461b-ba3d-9f3ec3babe1f"},"vehicle_type_id":"4","last_reported":1703192785,"current_range_meters":23200,"station_id":"ce4bh312rcd13ifvqdk0","pricing_plan_id":"free"},{"bike_id":"b9002e60-29b2-4d55-b022-34e9ea283f51","system_id":"levelo_inurba_marseille","lat":43.292724,"lon":5.401131,"is_reserved":false,"is_disabled":false,"rental_uris":{"android":"levelo://app?vid=b9002e60-29b2-4d55-b022-34e9ea283f51","ios":"levelo://app?vid=b9002e60-29b2-4d55-b022-34e9ea283f51"},"vehicle_type_id":"4","last_reported":1703192785,"current_range_meters":8800,"station_id":"ce4bh312rcd13ifvqdk0","pricing_plan_id":"free"},{"bike_id":"65cc50fe-2134-4b29-bb15-9a4245357cdd","system_id":"levelo_inurba_marseille","lat":43.280382,"lon":5.369291,"is_reserved":false,"is_disabled":false,"rental_uris":{"android":"levelo://app?vid=65cc50fe-2134-4b29-bb15-9a4245357cdd","ios":"levelo://app?vid=65cc50fe-2134-4b29-bb15-9a4245357cdd"},"vehicle_type_id":"4","last_reported":1703192785,"current_range_meters":30400,"station_id":"ce4bha12rcd13ifvqef0","pricing_plan_id":"free"},{"bike_id":"d455de63-4ee9-4350-af98-c8f411895641","system_id":"levelo_inurba_marseille","lat":43.28039,"lon":5.369297,"is_reserved":false,"is_disabled":false,"rental_uris":{"android":"levelo://app?vid=d455de63-4ee9-4350-af98-c8f411895641","ios":"levelo://app?vid=d455de63-4ee9-4350-af98-c8f411895641"},"vehicle_type_id":"4","last_reported":1703192785,"current_range_meters":24000,"station_id":"ce4bha12rcd13ifvqef0","pricing_plan_id":"free"},{"bike_id":"31c602b8-b2f4-44cc-9abd-5fcc8a98728b","system_id":"levelo_inurba_marseille","lat":43.280382,"lon":5.369291,"is_reserved":false,"is_disabled":false,"rental_uris":{"android":"levelo://app?vid=31c602b8-b2f4-44cc-9abd-5fcc8a98728b","ios":"levelo://app?vid=31c602b8-b2f4-44cc-9abd-5fcc8a98728b"},"vehicle_type_id":"4","last_reported":1703192785,"current_range_meters":8800,"station_id":"ce4bha12rcd13ifvqef0","pricing_plan_id":"free"},{"bike_id":"ff52d6a6-0ed0-4bce-b962-fb7821a1f614","system_id":"levelo_inurba_marseille","lat":43.296263,"lon":5.40601,"is_reserved":false,"is_disabled":false,"rental_uris":{"android":"levelo://app?vid=ff52d6a6-0ed0-4bce-b962-fb7821a1f614","ios":"levelo://app?vid=ff52d6a6-0ed0-4bce-b962-fb7821a1f614"},"vehicle_type_id":"4","last_reported":1703192785,"current_range_meters":18000,"station_id":"ce4bh0h2rcd13ifvqd60","pricing_plan_id":"free"},{"bike_id":"5dd19d89-487e-4b79-b972-5e2cbceb81ef","system_id":"levelo_inurba_marseille","lat":43.28446,"lon":5.39191,"is_reserved":false,"is_disabled":false,"rental_uris":{"android":"levelo://app?vid=5dd19d89-487e-4b79-b972-5e2cbceb81ef","ios":"levelo://app?vid=5dd19d89-487e-4b79-b972-5e2cbceb81ef"},"vehicle_type_id":"4","last_reported":1703192785,"current_range_meters":0,"station_id":"ce4bhoh2rcd13ifvqh5g","pricing_plan_id":"free"},{"bike_id":"babe4483-c6c5-491e-85d2-9879a1697949","system_id":"levelo_inurba_marseille","lat":43.284462,"lon":5.392121,"is_reserved":false,"is_disabled":false,"rental_uris":{"android":"levelo://app?vid=babe4483-c6c5-491e-85d2-9879a1697949","ios":"levelo://app?vid=babe4483-c6c5-491e-85d2-9879a1697949"},"vehicle_type_id":"4","last_reported":1703192785,"current_range_meters":25200,"station_id":"ce4bhoh2rcd13ifvqh5g","pricing_plan_id":"free"},{"bike_id":"7600fc08-cfb1-4e11-b521-d39c27b76b5c","system_id":"levelo_inurba_marseille","lat":43.28573,"lon":5.394992,"is_reserved":false,"is_disabled":false,"rental_uris":{"android":"levelo://app?vid=7600fc08-cfb1-4e11-b521-d39c27b76b5c","ios":"levelo://app?vid=7600fc08-cfb1-4e11-b521-d39c27b76b5c"},"vehicle_type_id":"4","last_reported":1703192785,"current_range_meters":26000,"station_id":"ce4bh292rcd13ifvqdg0","pricing_plan_id":"free"},{"bike_id":"27d3e183-05a0-482b-97d7-4e4058c9b78c","system_id":"levelo_inurba_marseille","lat":43.285742,"lon":5.395004,"is_reserved":false,"is_disabled":false,"rental_uris":{"android":"levelo://app?vid=27d3e183-05a0-482b-97d7-4e4058c9b78c","ios":"levelo://app?vid=27d3e183-05a0-482b-97d7-4e4058c9b78c"},"vehicle_type_id":"4","last_reported":1703192785,"current_range_meters":17200,"station_id":"ce4bh292rcd13ifvqdg0","pricing_plan_id":"free"},{"bike_id":"b29b2b6b-7f41-4d12-bfcb-b6e194be46db","system_id":"levelo_inurba_marseille","lat":43.28573,"lon":5.394992,"is_reserved":false,"is_disabled":false,"rental_uris":{"android":"levelo://app?vid=b29b2b6b-7f41-4d12-bfcb-b6e194be46db","ios":"levelo://app?vid=b29b2b6b-7f41-4d12-bfcb-b6e194be46db"},"vehicle_type_id":"4","last_reported":1703192785,"current_range_meters":14800,"station_id":"ce4bh292rcd13ifvqdg0","pricing_plan_id":"free"},{"bike_id":"1be6f272-4008-4a47-8ed0-6d560481a1f3","system_id":"levelo_inurba_marseille","lat":43.275625,"lon":5.384392,"is_reserved":false,"is_disabled":false,"rental_uris":{"android":"levelo://app?vid=1be6f272-4008-4a47-8ed0-6d560481a1f3","ios":"levelo://app?vid=1be6f272-4008-4a47-8ed0-6d560481a1f3"},"vehicle_type_id":"4","last_reported":1703192785,"current_range_meters":13600,"station_id":"ce4bhh92rcd13ifvqfi0","pricing_plan_id":"free"},{"bike_id":"8e916718-8e97-4602-92d8-836b75f84880","system_id":"levelo_inurba_marseille","lat":43.326605,"lon":5.409903,"is_reserved":false,"is_disabled":false,"rental_uris":{"android":"levelo://app?vid=8e916718-8e97-4602-92d8-836b75f84880","ios":"levelo://app?vid=8e916718-8e97-4602-92d8-836b75f84880"},"vehicle_type_id":"4","last_reported":1703192785,"current_range_meters":29600,"station_id":"ce4bhpp2rcd13ifvqhgg","pricing_plan_id":"free"},{"bike_id":"7f302279-6c81-430d-b83b-d444e2cd8d7d","system_id":"levelo_inurba_marseille","lat":43.279051,"lon":5.380026,"is_reserved":false,"is_disabled":false,"rental_uris":{"android":"levelo://app?vid=7f302279-6c81-430d-b83b-d444e2cd8d7d","ios":"levelo://app?vid=7f302279-6c81-430d-b83b-d444e2cd8d7d"},"vehicle_type_id":"4","last_reported":1703192785,"current_range_meters":16800,"station_id":"ce4bhf92rcd13ifvqf50","pricing_plan_id":"free"},{"bike_id":"ee6409aa-78cc-4424-8f38-66cec2954c90","system_id":"levelo_inurba_marseille","lat":43.287154,"lon":5.399979,"is_reserved":false,"is_disabled":false,"rental_uris":{"android":"levelo://app?vid=ee6409aa-78cc-4424-8f38-66cec2954c90","ios":"levelo://app?vid=ee6409aa-78cc-4424-8f38-66cec2954c90"},"vehicle_type_id":"4","last_reported":1703192785,"current_range_meters":19600,"station_id":"ce4bho92rcd13ifvqh3g","pricing_plan_id":"free"},{"bike_id":"48f6e051-9a01-470b-a58d-04d779d3f1e2","system_id":"levelo_inurba_marseille","lat":43.287154,"lon":5.399979,"is_reserved":false,"is_disabled":false,"rental_uris":{"android":"levelo://app?vid=48f6e051-9a01-470b-a58d-04d779d3f1e2","ios":"levelo://app?vid=48f6e051-9a01-470b-a58d-04d779d3f1e2"},"vehicle_type_id":"4","last_reported":1703192785,"current_range_meters":10400,"station_id":"ce4bho92rcd13ifvqh3g","pricing_plan_id":"free"},{"bike_id":"84cf6a25-7be0-4d19-9520-16ed68f49fd6","system_id":"levelo_inurba_marseille","lat":43.287154,"lon":5.399979,"is_reserved":false,"is_disabled":false,"rental_uris":{"android":"levelo://app?vid=84cf6a25-7be0-4d19-9520-16ed68f49fd6","ios":"levelo://app?vid=84cf6a25-7be0-4d19-9520-16ed68f49fd6"},"vehicle_type_id":"4","last_reported":1703192785,"current_range_meters":1200,"station_id":"ce4bho92rcd13ifvqh3g","pricing_plan_id":"free"},{"bike_id":"d421cad1-6533-4885-9cde-5b8f0aa16d67","system_id":"levelo_inurba_marseille","lat":43.299577,"lon":5.413277,"is_reserved":false,"is_disabled":false,"rental_uris":{"android":"levelo://app?vid=d421cad1-6533-4885-9cde-5b8f0aa16d67","ios":"levelo://app?vid=d421cad1-6533-4885-9cde-5b8f0aa16d67"},"vehicle_type_id":"4","last_reported":1703192785,"current_range_meters":4400,"station_id":"ce4bhp12rcd13ifvqh9g","pricing_plan_id":"free"},{"bike_id":"aa6eeeb9-266d-4245-a0d8-1432a7450451","system_id":"levelo_inurba_marseille","lat":43.279742,"lon":5.38744,"is_reserved":false,"is_disabled":false,"rental_uris":{"android":"levelo://app?vid=aa6eeeb9-266d-4245-a0d8-1432a7450451","ios":"levelo://app?vid=aa6eeeb9-266d-4245-a0d8-1432a7450451"},"vehicle_type_id":"4","last_reported":1703192785,"current_range_meters":24000,"station_id":"ce4bhg12rcd13ifvqf80","pricing_plan_id":"free"},{"bike_id":"2fad4742-c1f4-48f5-b65d-1481ddb58933","system_id":"levelo_inurba_marseille","lat":43.292569,"lon":5.409107,"is_reserved":false,"is_disabled":false,"rental_uris":{"android":"levelo://app?vid=2fad4742-c1f4-48f5-b65d-1481ddb58933","ios":"levelo://app?vid=2fad4742-c1f4-48f5-b65d-1481ddb58933"},"vehicle_type_id":"4","last_reported":1703192785,"current_range_meters":19600,"station_id":"ce4bh192rcd13ifvqdc0","pricing_plan_id":"free"},{"bike_id":"9cde0b4c-4ed5-47e3-aca4-3f2363bf55cc","system_id":"levelo_inurba_marseille","lat":43.292569,"lon":5.409107,"is_reserved":false,"is_disabled":false,"rental_uris":{"android":"levelo://app?vid=9cde0b4c-4ed5-47e3-aca4-3f2363bf55cc","ios":"levelo://app?vid=9cde0b4c-4ed5-47e3-aca4-3f2363bf55cc"},"vehicle_type_id":"4","last_reported":1703192785,"current_range_meters":10800,"station_id":"ce4bh192rcd13ifvqdc0","pricing_plan_id":"free"},{"bike_id":"ffa15899-9557-45c8-ad67-27da0a226e87","system_id":"levelo_inurba_marseille","lat":43.292569,"lon":5.409107,"is_reserved":false,"is_disabled":false,"rental_uris":{"android":"levelo://app?vid=ffa15899-9557-45c8-ad67-27da0a226e87","ios":"levelo://app?vid=ffa15899-9557-45c8-ad67-27da0a226e87"},"vehicle_type_id":"4","last_reported":1703192785,"current_range_meters":11200,"station_id":"ce4bh192rcd13ifvqdc0","pricing_plan_id":"free"},{"bike_id":"ce0e9fc3-e69f-4802-94b0-e30fd9af3603","system_id":"levelo_inurba_marseille","lat":43.292569,"lon":5.409107,"is_reserved":false,"is_disabled":false,"rental_uris":{"android":"levelo://app?vid=ce0e9fc3-e69f-4802-94b0-e30fd9af3603","ios":"levelo://app?vid=ce0e9fc3-e69f-4802-94b0-e30fd9af3603"},"vehicle_type_id":"4","last_reported":1703192785,"current_range_meters":0,"station_id":"ce4bh192rcd13ifvqdc0","pricing_plan_id":"free"},{"bike_id":"ed47a379-ff26-4271-8a21-5d800d0ed53a","system_id":"levelo_inurba_marseille","lat":43.280784,"lon":5.396622,"is_reserved":false,"is_disabled":false,"rental_uris":{"android":"levelo://app?vid=ed47a379-ff26-4271-8a21-5d800d0ed53a","ios":"levelo://app?vid=ed47a379-ff26-4271-8a21-5d800d0ed53a"},"vehicle_type_id":"4","last_reported":1703192785,"current_range_meters":26800,"station_id":"ce4bho12rcd13ifvqh2g","pricing_plan_id":"free"},{"bike_id":"8dd69acf-c793-447a-8783-89367ca6bd4c","system_id":"levelo_inurba_marseille","lat":43.280784,"lon":5.396622,"is_reserved":false,"is_disabled":false,"rental_uris":{"android":"levelo://app?vid=8dd69acf-c793-447a-8783-89367ca6bd4c","ios":"levelo://app?vid=8dd69acf-c793-447a-8783-89367ca6bd4c"},"vehicle_type_id":"4","last_reported":1703192785,"current_range_meters":22000,"station_id":"ce4bho12rcd13ifvqh2g","pricing_plan_id":"free"},{"bike_id":"94a5f2f6-47e3-4bff-926a-f0c8027edb43","system_id":"levelo_inurba_marseille","lat":43.303837,"lon":5.418724,"is_reserved":false,"is_disabled":false,"rental_uris":{"android":"levelo://app?vid=94a5f2f6-47e3-4bff-926a-f0c8027edb43","ios":"levelo://app?vid=94a5f2f6-47e3-4bff-926a-f0c8027edb43"},"vehicle_type_id":"4","last_reported":1703192785,"current_range_meters":18000,"station_id":"ce4bhop2rcd13ifvqh7g","pricing_plan_id":"free"},{"bike_id":"e10cc150-4041-48d5-aaa1-023406c60c29","system_id":"levelo_inurba_marseille","lat":43.273613,"lon":5.362705,"is_reserved":false,"is_disabled":false,"rental_uris":{"android":"levelo://app?vid=e10cc150-4041-48d5-aaa1-023406c60c29","ios":"levelo://app?vid=e10cc150-4041-48d5-aaa1-023406c60c29"},"vehicle_type_id":"4","last_reported":1703192785,"current_range_meters":14400,"station_id":"ce4bhbh2rcd13ifvqeo0","pricing_plan_id":"free"},{"bike_id":"d8ff0415-dc40-43fb-9f96-30d9ea2d9ee8","system_id":"levelo_inurba_marseille","lat":43.336148,"lon":5.410349,"is_reserved":false,"is_disabled":false,"rental_uris":{"android":"levelo://app?vid=d8ff0415-dc40-43fb-9f96-30d9ea2d9ee8","ios":"levelo://app?vid=d8ff0415-dc40-43fb-9f96-30d9ea2d9ee8"},"vehicle_type_id":"4","last_reported":1703192785,"current_range_meters":26400,"station_id":"ce4bhqh2rcd13ifvqhmg","pricing_plan_id":"free"},{"bike_id":"f6722288-54cd-4113-bd35-2c45bbbe5f84","system_id":"levelo_inurba_marseille","lat":43.275625,"lon":5.384392,"is_reserved":false,"is_disabled":false,"rental_uris":{"android":"levelo://app?vid=f6722288-54cd-4113-bd35-2c45bbbe5f84","ios":"levelo://app?vid=f6722288-54cd-4113-bd35-2c45bbbe5f84"},"vehicle_type_id":"4","last_reported":1703192785,"current_range_meters":23200,"station_id":"ce4bhh92rcd13ifvqfi0","pricing_plan_id":"free"},{"bike_id":"abe7b8a3-3af6-4156-a136-f077a1595c56","system_id":"levelo_inurba_marseille","lat":43.273609,"lon":5.362708,"is_reserved":false,"is_disabled":false,"rental_uris":{"android":"levelo://app?vid=abe7b8a3-3af6-4156-a136-f077a1595c56","ios":"levelo://app?vid=abe7b8a3-3af6-4156-a136-f077a1595c56"},"vehicle_type_id":"4","last_reported":1703192785,"current_range_meters":26800,"station_id":"ce4bhbh2rcd13ifvqeo0","pricing_plan_id":"free"},{"bike_id":"b3b1917b-e8fd-4337-a586-ebe5889634cc","system_id":"levelo_inurba_marseille","lat":43.279952,"lon":5.400085,"is_reserved":false,"is_disabled":false,"rental_uris":{"android":"levelo://app?vid=b3b1917b-e8fd-4337-a586-ebe5889634cc","ios":"levelo://app?vid=b3b1917b-e8fd-4337-a586-ebe5889634cc"},"vehicle_type_id":"4","last_reported":1703192785,"current_range_meters":20000,"station_id":"ce4bho92rcd13ifvqh4g","pricing_plan_id":"free"},{"bike_id":"db97d23b-b358-42c7-9b7c-756cec040fbb","system_id":"levelo_inurba_marseille","lat":43.317121,"lon":5.423936,"is_reserved":false,"is_disabled":false,"rental_uris":{"android":"levelo://app?vid=db97d23b-b358-42c7-9b7c-756cec040fbb","ios":"levelo://app?vid=db97d23b-b358-42c7-9b7c-756cec040fbb"},"vehicle_type_id":"4","last_reported":1703192785,"current_range_meters":31200,"station_id":"ce4bhp92rcd13ifvqhbg","pricing_plan_id":"free"},{"bike_id":"498eff31-f366-4e6d-8222-0820a528cb33","system_id":"levelo_inurba_marseille","lat":43.317121,"lon":5.423936,"is_reserved":false,"is_disabled":false,"rental_uris":{"android":"levelo://app?vid=498eff31-f366-4e6d-8222-0820a528cb33","ios":"levelo://app?vid=498eff31-f366-4e6d-8222-0820a528cb33"},"vehicle_type_id":"4","last_reported":1703192785,"current_range_meters":22800,"station_id":"ce4bhp92rcd13ifvqhbg","pricing_plan_id":"free"},{"bike_id":"7ada0439-e02f-43f4-a65c-6cdbad12b2d5","system_id":"levelo_inurba_marseille","lat":43.317121,"lon":5.423936,"is_reserved":false,"is_disabled":false,"rental_uris":{"android":"levelo://app?vid=7ada0439-e02f-43f4-a65c-6cdbad12b2d5","ios":"levelo://app?vid=7ada0439-e02f-43f4-a65c-6cdbad12b2d5"},"vehicle_type_id":"4","last_reported":1703192785,"current_range_meters":28800,"station_id":"ce4bhp92rcd13ifvqhbg","pricing_plan_id":"free"},{"bike_id":"097bc4e0-b542-4537-a4e9-cb2bbc6d2077","system_id":"levelo_inurba_marseille","lat":43.340804,"lon":5.410219,"is_reserved":false,"is_disabled":false,"rental_uris":{"android":"levelo://app?vid=097bc4e0-b542-4537-a4e9-cb2bbc6d2077","ios":"levelo://app?vid=097bc4e0-b542-4537-a4e9-cb2bbc6d2077"},"vehicle_type_id":"4","last_reported":1703192785,"current_range_meters":30000,"station_id":"ce4bhqh2rcd13ifvqhlg","pricing_plan_id":"free"},{"bike_id":"fb739138-6305-4efd-a093-7e0801fb4dde","system_id":"levelo_inurba_marseille","lat":43.274099,"lon":5.394019,"is_reserved":false,"is_disabled":false,"rental_uris":{"android":"levelo://app?vid=fb739138-6305-4efd-a093-7e0801fb4dde","ios":"levelo://app?vid=fb739138-6305-4efd-a093-7e0801fb4dde"},"vehicle_type_id":"4","last_reported":1703192785,"current_range_meters":11200,"station_id":"ce4bhdp2rcd13ifvqf20","pricing_plan_id":"free"},{"bike_id":"bc96446b-31f5-4313-822f-625edd6d0b52","system_id":"levelo_inurba_marseille","lat":43.295523,"lon":5.422926,"is_reserved":false,"is_disabled":false,"rental_uris":{"android":"levelo://app?vid=bc96446b-31f5-4313-822f-625edd6d0b52","ios":"levelo://app?vid=bc96446b-31f5-4313-822f-625edd6d0b52"},"vehicle_type_id":"4","last_reported":1703192785,"current_range_meters":26800,"station_id":"ce4bhph2rcd13ifvqhdg","pricing_plan_id":"free"},{"bike_id":"96484c65-8dd7-4167-a438-a7d837c6b7a7","system_id":"levelo_inurba_marseille","lat":43.295523,"lon":5.422926,"is_reserved":false,"is_disabled":false,"rental_uris":{"android":"levelo://app?vid=96484c65-8dd7-4167-a438-a7d837c6b7a7","ios":"levelo://app?vid=96484c65-8dd7-4167-a438-a7d837c6b7a7"},"vehicle_type_id":"4","last_reported":1703192785,"current_range_meters":31200,"station_id":"ce4bhph2rcd13ifvqhdg","pricing_plan_id":"free"},{"bike_id":"0454933a-5656-4345-852e-0e25afae89fb","system_id":"levelo_inurba_marseille","lat":43.295523,"lon":5.422926,"is_reserved":false,"is_disabled":false,"rental_uris":{"android":"levelo://app?vid=0454933a-5656-4345-852e-0e25afae89fb","ios":"levelo://app?vid=0454933a-5656-4345-852e-0e25afae89fb"},"vehicle_type_id":"4","last_reported":1703192785,"current_range_meters":29600,"station_id":"ce4bhph2rcd13ifvqhdg","pricing_plan_id":"free"},{"bike_id":"a80c78b0-54bd-4c06-a456-7ff9cb5fb92c","system_id":"levelo_inurba_marseille","lat":43.29556,"lon":5.422815,"is_reserved":false,"is_disabled":false,"rental_uris":{"android":"levelo://app?vid=a80c78b0-54bd-4c06-a456-7ff9cb5fb92c","ios":"levelo://app?vid=a80c78b0-54bd-4c06-a456-7ff9cb5fb92c"},"vehicle_type_id":"4","last_reported":1703192785,"current_range_meters":12000,"station_id":"ce4bhph2rcd13ifvqhdg","pricing_plan_id":"free"},{"bike_id":"7b50e92c-923d-47a0-98cd-9b6ef12b5315","system_id":"levelo_inurba_marseille","lat":43.295523,"lon":5.422926,"is_reserved":false,"is_disabled":false,"rental_uris":{"android":"levelo://app?vid=7b50e92c-923d-47a0-98cd-9b6ef12b5315","ios":"levelo://app?vid=7b50e92c-923d-47a0-98cd-9b6ef12b5315"},"vehicle_type_id":"4","last_reported":1703192785,"current_range_meters":25600,"station_id":"ce4bhph2rcd13ifvqhdg","pricing_plan_id":"free"},{"bike_id":"218ca4ab-a316-43a6-87cd-acfc23cd8e62","system_id":"levelo_inurba_marseille","lat":43.295523,"lon":5.422926,"is_reserved":false,"is_disabled":false,"rental_uris":{"android":"levelo://app?vid=218ca4ab-a316-43a6-87cd-acfc23cd8e62","ios":"levelo://app?vid=218ca4ab-a316-43a6-87cd-acfc23cd8e62"},"vehicle_type_id":"4","last_reported":1703192785,"current_range_meters":21600,"station_id":"ce4bhph2rcd13ifvqhdg","pricing_plan_id":"free"},{"bike_id":"9449eb80-d18a-481d-bf00-b32c1d52c065","system_id":"levelo_inurba_marseille","lat":43.295523,"lon":5.422926,"is_reserved":false,"is_disabled":false,"rental_uris":{"android":"levelo://app?vid=9449eb80-d18a-481d-bf00-b32c1d52c065","ios":"levelo://app?vid=9449eb80-d18a-481d-bf00-b32c1d52c065"},"vehicle_type_id":"4","last_reported":1703192785,"current_range_meters":6400,"station_id":"ce4bhph2rcd13ifvqhdg","pricing_plan_id":"free"},{"bike_id":"b55db1a0-b820-479b-9929-7610c21584c5","system_id":"levelo_inurba_marseille","lat":43.295511,"lon":5.422926,"is_reserved":false,"is_disabled":false,"rental_uris":{"android":"levelo://app?vid=b55db1a0-b820-479b-9929-7610c21584c5","ios":"levelo://app?vid=b55db1a0-b820-479b-9929-7610c21584c5"},"vehicle_type_id":"4","last_reported":1703192785,"current_range_meters":25200,"station_id":"ce4bhph2rcd13ifvqhdg","pricing_plan_id":"free"},{"bike_id":"7d800ac1-1b26-47dd-97c6-49cd89d9ab11","system_id":"levelo_inurba_marseille","lat":43.295511,"lon":5.422926,"is_reserved":false,"is_disabled":false,"rental_uris":{"android":"levelo://app?vid=7d800ac1-1b26-47dd-97c6-49cd89d9ab11","ios":"levelo://app?vid=7d800ac1-1b26-47dd-97c6-49cd89d9ab11"},"vehicle_type_id":"4","last_reported":1703192785,"current_range_meters":14400,"station_id":"ce4bhph2rcd13ifvqhdg","pricing_plan_id":"free"},{"bike_id":"23d13786-8601-4dce-a424-5d4a35dea444","system_id":"levelo_inurba_marseille","lat":43.295511,"lon":5.422926,"is_reserved":false,"is_disabled":false,"rental_uris":{"android":"levelo://app?vid=23d13786-8601-4dce-a424-5d4a35dea444","ios":"levelo://app?vid=23d13786-8601-4dce-a424-5d4a35dea444"},"vehicle_type_id":"4","last_reported":1703192785,"current_range_meters":18400,"station_id":"ce4bhph2rcd13ifvqhdg","pricing_plan_id":"free"},{"bike_id":"f543ff15-d022-4b23-91e8-a2726d33180d","system_id":"levelo_inurba_marseille","lat":43.269467,"lon":5.386439,"is_reserved":false,"is_disabled":false,"rental_uris":{"android":"levelo://app?vid=f543ff15-d022-4b23-91e8-a2726d33180d","ios":"levelo://app?vid=f543ff15-d022-4b23-91e8-a2726d33180d"},"vehicle_type_id":"4","last_reported":1703192785,"current_range_meters":26800,"station_id":"ce4bhh92rcd13ifvqfh0","pricing_plan_id":"free"},{"bike_id":"2385a3dc-ecc5-4c8e-b554-c8e4b25ef268","system_id":"levelo_inurba_marseille","lat":43.278128,"lon":5.407195,"is_reserved":false,"is_disabled":false,"rental_uris":{"android":"levelo://app?vid=2385a3dc-ecc5-4c8e-b554-c8e4b25ef268","ios":"levelo://app?vid=2385a3dc-ecc5-4c8e-b554-c8e4b25ef268"},"vehicle_type_id":"4","last_reported":1703192785,"current_range_meters":24800,"station_id":"ce4bhnh2rcd13ifvqgtg","pricing_plan_id":"free"},{"bike_id":"59d66a0a-b392-45cf-9cfd-32926820ebdd","system_id":"levelo_inurba_marseille","lat":43.2781,"lon":5.40712,"is_reserved":false,"is_disabled":false,"rental_uris":{"android":"levelo://app?vid=59d66a0a-b392-45cf-9cfd-32926820ebdd","ios":"levelo://app?vid=59d66a0a-b392-45cf-9cfd-32926820ebdd"},"vehicle_type_id":"4","last_reported":1703192785,"current_range_meters":0,"station_id":"ce4bhnh2rcd13ifvqgtg","pricing_plan_id":"free"},{"bike_id":"199d6611-9c4f-4815-877f-00c49477778f","system_id":"levelo_inurba_marseille","lat":43.278128,"lon":5.407195,"is_reserved":false,"is_disabled":false,"rental_uris":{"android":"levelo://app?vid=199d6611-9c4f-4815-877f-00c49477778f","ios":"levelo://app?vid=199d6611-9c4f-4815-877f-00c49477778f"},"vehicle_type_id":"4","last_reported":1703192785,"current_range_meters":10400,"station_id":"ce4bhnh2rcd13ifvqgtg","pricing_plan_id":"free"},{"bike_id":"b979e0ac-564d-4365-807b-d6390958382e","system_id":"levelo_inurba_marseille","lat":43.278128,"lon":5.407195,"is_reserved":false,"is_disabled":false,"rental_uris":{"android":"levelo://app?vid=b979e0ac-564d-4365-807b-d6390958382e","ios":"levelo://app?vid=b979e0ac-564d-4365-807b-d6390958382e"},"vehicle_type_id":"4","last_reported":1703192785,"current_range_meters":12400,"station_id":"ce4bhnh2rcd13ifvqgtg","pricing_plan_id":"free"},{"bike_id":"5932d942-52dc-4479-b425-bc303043ea23","system_id":"levelo_inurba_marseille","lat":43.269467,"lon":5.386439,"is_reserved":false,"is_disabled":false,"rental_uris":{"android":"levelo://app?vid=5932d942-52dc-4479-b425-bc303043ea23","ios":"levelo://app?vid=5932d942-52dc-4479-b425-bc303043ea23"},"vehicle_type_id":"4","last_reported":1703192785,"current_range_meters":12800,"station_id":"ce4bhh92rcd13ifvqfh0","pricing_plan_id":"free"},{"bike_id":"dd7a4c94-1cae-4b8e-8af2-371efd47134e","system_id":"levelo_inurba_marseille","lat":43.279465,"lon":5.410561,"is_reserved":false,"is_disabled":false,"rental_uris":{"android":"levelo://app?vid=dd7a4c94-1cae-4b8e-8af2-371efd47134e","ios":"levelo://app?vid=dd7a4c94-1cae-4b8e-8af2-371efd47134e"},"vehicle_type_id":"4","last_reported":1703192785,"current_range_meters":0,"station_id":"ce4bhnp2rcd13ifvqh0g","pricing_plan_id":"free"},{"bike_id":"7e030546-f2f8-4fb6-9253-241c431fb97c","system_id":"levelo_inurba_marseille","lat":43.279465,"lon":5.410561,"is_reserved":false,"is_disabled":false,"rental_uris":{"android":"levelo://app?vid=7e030546-f2f8-4fb6-9253-241c431fb97c","ios":"levelo://app?vid=7e030546-f2f8-4fb6-9253-241c431fb97c"},"vehicle_type_id":"4","last_reported":1703192785,"current_range_meters":1600,"station_id":"ce4bhnp2rcd13ifvqh0g","pricing_plan_id":"free"},{"bike_id":"72b2f34c-31f6-4eb9-823e-d44187203595","system_id":"levelo_inurba_marseille","lat":43.279465,"lon":5.410561,"is_reserved":false,"is_disabled":false,"rental_uris":{"android":"levelo://app?vid=72b2f34c-31f6-4eb9-823e-d44187203595","ios":"levelo://app?vid=72b2f34c-31f6-4eb9-823e-d44187203595"},"vehicle_type_id":"4","last_reported":1703192785,"current_range_meters":6400,"station_id":"ce4bhnp2rcd13ifvqh0g","pricing_plan_id":"free"},{"bike_id":"60ea0f00-3e75-4a2a-86b1-ad81cfe8ccb9","system_id":"levelo_inurba_marseille","lat":43.269319,"lon":5.389397,"is_reserved":false,"is_disabled":false,"rental_uris":{"android":"levelo://app?vid=60ea0f00-3e75-4a2a-86b1-ad81cfe8ccb9","ios":"levelo://app?vid=60ea0f00-3e75-4a2a-86b1-ad81cfe8ccb9"},"vehicle_type_id":"4","last_reported":1703192785,"current_range_meters":19600,"station_id":"ce4bhhh2rcd13ifvqfl0","pricing_plan_id":"free"},{"bike_id":"a91a48dc-67a8-4598-9aeb-3bc5b9acb3b6","system_id":"levelo_inurba_marseille","lat":43.269319,"lon":5.389397,"is_reserved":false,"is_disabled":false,"rental_uris":{"android":"levelo://app?vid=a91a48dc-67a8-4598-9aeb-3bc5b9acb3b6","ios":"levelo://app?vid=a91a48dc-67a8-4598-9aeb-3bc5b9acb3b6"},"vehicle_type_id":"4","last_reported":1703192785,"current_range_meters":10400,"station_id":"ce4bhhh2rcd13ifvqfl0","pricing_plan_id":"free"},{"bike_id":"c8ca5d2a-5581-4dad-aa8e-b15f36931a25","system_id":"levelo_inurba_marseille","lat":43.26681,"lon":5.382694,"is_reserved":false,"is_disabled":false,"rental_uris":{"android":"levelo://app?vid=c8ca5d2a-5581-4dad-aa8e-b15f36931a25","ios":"levelo://app?vid=c8ca5d2a-5581-4dad-aa8e-b15f36931a25"},"vehicle_type_id":"4","last_reported":1703192785,"current_range_meters":2000,"station_id":"ce4bhg92rcd13ifvqf90","pricing_plan_id":"free"},{"bike_id":"ddc116a7-beab-4d15-9d1e-d1d89e77aa33","system_id":"levelo_inurba_marseille","lat":43.265714,"lon":5.372891,"is_reserved":false,"is_disabled":false,"rental_uris":{"android":"levelo://app?vid=ddc116a7-beab-4d15-9d1e-d1d89e77aa33","ios":"levelo://app?vid=ddc116a7-beab-4d15-9d1e-d1d89e77aa33"},"vehicle_type_id":"4","last_reported":1703192785,"current_range_meters":5200,"station_id":"ce4bhg12rcd13ifvqf70","pricing_plan_id":"free"},{"bike_id":"56e77a7b-e5be-46cd-ac56-fbe5af53b827","system_id":"levelo_inurba_marseille","lat":43.27996,"lon":5.416624,"is_reserved":false,"is_disabled":false,"rental_uris":{"android":"levelo://app?vid=56e77a7b-e5be-46cd-ac56-fbe5af53b827","ios":"levelo://app?vid=56e77a7b-e5be-46cd-ac56-fbe5af53b827"},"vehicle_type_id":"4","last_reported":1703192785,"current_range_meters":3200,"station_id":"ce4bho12rcd13ifvqh1g","pricing_plan_id":"free"},{"bike_id":"ce0c4d09-c919-48d9-92ee-b40420eed1b4","system_id":"levelo_inurba_marseille","lat":43.27996,"lon":5.416624,"is_reserved":false,"is_disabled":false,"rental_uris":{"android":"levelo://app?vid=ce0c4d09-c919-48d9-92ee-b40420eed1b4","ios":"levelo://app?vid=ce0c4d09-c919-48d9-92ee-b40420eed1b4"},"vehicle_type_id":"4","last_reported":1703192785,"current_range_meters":8800,"station_id":"ce4bho12rcd13ifvqh1g","pricing_plan_id":"free"},{"bike_id":"9692d61b-7af5-4076-aa8d-aca8a3a47860","system_id":"levelo_inurba_marseille","lat":43.27996,"lon":5.416624,"is_reserved":false,"is_disabled":false,"rental_uris":{"android":"levelo://app?vid=9692d61b-7af5-4076-aa8d-aca8a3a47860","ios":"levelo://app?vid=9692d61b-7af5-4076-aa8d-aca8a3a47860"},