{"last_updated":1748790577,"ttl":60,"version":"2.2","data":{"bikes":[{"bike_id":"b4f42508-0e6c-4664-947b-3c49781f49d1","system_id":"levelo_inurba_marseille","lat":43.33608,"lon":5.41037,"is_reserved":false,"is_disabled":false,"rental_uris":{"android":"levelo://app?vid=b4f42508-0e6c-4664-947b-3c49781f49d1","ios":"levelo://app?vid=b4f42508-0e6c-4664-947b-3c49781f49d1"},"vehicle_type_id":"4","last_reported":1748790577,"current_range_meters":2000,"station_id":"ce4bhqh2rcd13ifvqhmg","pricing_plan_id":"cebpf4jnsgd1na2vs0mg"},{"bike_id":"7744b0bc-9255-402e-8dd0-6b3090927fb9","system_id":"levelo_inurba_marseille","lat":43.269588,"lon":5.402697,"is_reserved":false,"is_disabled":true,"rental_uris":{"android":"levelo://app?vid=7744b0bc-9255-402e-8dd0-6b3090927fb9","ios":"levelo://app?vid=7744b0bc-9255-402e-8dd0-6b3090927fb9"},"vehicle_type_id":"4","last_reported":1748790577,"current_range_meters":3200,"station_id":"cjm6bp8fraef2m0cb0m0","pricing_plan_id":"cebpf4jnsgd1na2vs0mg"},{"bike_id":"820ae4aa-d24f-405f-a88a-0b84cc1582cd","system_id":"levelo_inurba_marseille","lat":43.29914,"lon":5.37486,"is_reserved":false,"is_disabled":false,"rental_uris":{"android":"levelo://app?vid=820ae4aa-d24f-405f-a88a-0b84cc1582cd","ios":"levelo://app?vid=820ae4aa-d24f-405f-a88a-0b84cc1582cd"},"vehicle_type_id":"4","last_reported":1748790577,"current_range_meters":3200,"station_id":"ce4bgjh2rcd13ifvqbg0","pricing_plan_id":"cebpf4jnsgd1na2vs0mg"},{"bike_id":"3d8a58eb-3a53-4ccd-931e-eac169a1312d","system_id":"levelo_inurba_marseille","lat":43.25502,"lon":5.37654,"is_reserved":false,"is_disabled":false,"rental_uris":{"android":"levelo://app?vid=3d8a58eb-3a53-4ccd-931e-eac169a1312d","ios":"levelo://app?vid=3d8a58eb-3a53-4ccd-931e-eac169a1312d"},"vehicle_type_id":"4","last_reported":1748790577,"current_range_meters":3200,"station_id":"ce4bhh12rcd13ifvqff0","pricing_plan_id":"cebpf4jnsgd1na2vs0mg"},{"bike_id":"bf18450b-e83a-4de0-ab6e-0851d3467f6c","system_id":"levelo_inurba_marseille","lat":43.30295,"lon":5.39212,"is_reserved":false,"is_disabled":false,"rental_uris":{"android":"levelo://app?vid=bf18450b-e83a-4de0-ab6e-0851d3467f6c","ios":"levelo://app?vid=bf18450b-e83a-4de0-ab6e-0851d3467f6c"},"vehicle_type_id":"4","last_reported":1748790577,"current_range_meters":3200,"station_id":"ce4bgkh2rcd13ifvqbk0","pricing_plan_id":"cebpf4jnsgd1na2vs0mg"},{"bike_id":"800eab8d-3dfe-4625-a079-18d597cb2eaa","system_id":"levelo_inurba_marseille","lat":43.2315,"lon":5.437,"is_reserved":false,"is_disabled":false,"rental_uris":{"android":"levelo://app?vid=800eab8d-3dfe-4625-a079-18d597cb2eaa","ios":"levelo://app?vid=800eab8d-3dfe-4625-a079-18d597cb2eaa"},"vehicle_type_id":"4","last_reported":1748790577,"current_range_meters":3200,"station_id":"ce4bhmp2rcd13ifvqgog","pricing_plan_id":"cebpf4jnsgd1na2vs0mg"},{"bike_id":"d5416db9-ea48-42f7-ae74-099623cdda1f","system_id":"levelo_inurba_marseille","lat":43.26678,"lon":5.38271,"is_reserved":false,"is_disabled":false,"rental_uris":{"android":"levelo://app?vid=d5416db9-ea48-42f7-ae74-099623cdda1f","ios":"levelo://app?vid=d5416db9-ea48-42f7-ae74-099623cdda1f"},"vehicle_type_id":"4","last_reported":1748790577,"current_range_meters":2800,"station_id":"ce4bhg92rcd13ifvqf90","pricing_plan_id":"cebpf4jnsgd1na2vs0mg"},{"bike_id":"42adb963-ae8b-44cd-b583-e8fcbe8c38e8","system_id":"levelo_inurba_marseille","lat":43.28576,"lon":5.3949,"is_reserved":false,"is_disabled":true,"rental_uris":{"android":"levelo://app?vid=42adb963-ae8b-44cd-b583-e8fcbe8c38e8","ios":"levelo://app?vid=42adb963-ae8b-44cd-b583-e8fcbe8c38e8"},"vehicle_type_id":"4","last_reported":1748790577,"current_range_meters":3600,"station_id":"ce4bh292rcd13ifvqdg0","pricing_plan_id":"cebpf4jnsgd1na2vs0mg"},{"bike_id":"86f98502-b2ea-4ae2-b537-0ec0806d47f1","system_id":"levelo_inurba_marseille","lat":43.25834,"lon":5.39437,"is_reserved":false,"is_disabled":false,"rental_uris":{"android":"levelo://app?vid=86f98502-b2ea-4ae2-b537-0ec0806d47f1","ios":"levelo://app?vid=86f98502-b2ea-4ae2-b537-0ec0806d47f1"},"vehicle_type_id":"4","last_reported":1748790577,"current_range_meters":4000,"station_id":"ce4bhip2rcd13ifvqft0","pricing_plan_id":"cebpf4jnsgd1na2vs0mg"},{"bike_id":"32e7cc04-b756-4a65-85b5-2487e090dcd6","system_id":"levelo_inurba_marseille","lat":43.28634,"lon":5.35102,"is_reserved":false,"is_disabled":false,"rental_uris":{"android":"levelo://app?vid=32e7cc04-b756-4a65-85b5-2487e090dcd6","ios":"levelo://app?vid=32e7cc04-b756-4a65-85b5-2487e090dcd6"},"vehicle_type_id":"4","last_reported":1748790577,"current_range_meters":4000,"station_id":"ce4bhch2rcd13ifvqeug","pricing_plan_id":"cebpf4jnsgd1na2vs0mg"},{"bike_id":"f7c2464c-54be-42a7-8da2-cc2b408f11d9","system_id":"levelo_inurba_marseille","lat":43.29527,"lon":5.375,"is_reserved":false,"is_disabled":false,"rental_uris":{"android":"levelo://app?vid=f7c2464c-54be-42a7-8da2-cc2b408f11d9","ios":"levelo://app?vid=f7c2464c-54be-42a7-8da2-cc2b408f11d9"},"vehicle_type_id":"4","last_reported":1748790577,"current_range_meters":3600,"station_id":"ce4bgkp2rcd13ifvqbmg","pricing_plan_id":"cebpf4jnsgd1na2vs0mg"},{"bike_id":"9af9537a-6d36-4aa7-b579-79e11efc0c1d","system_id":"levelo_inurba_marseille","lat":43.23155,"lon":5.43736,"is_reserved":false,"is_disabled":false,"rental_uris":{"android":"levelo://app?vid=9af9537a-6d36-4aa7-b579-79e11efc0c1d","ios":"levelo://app?vid=9af9537a-6d36-4aa7-b579-79e11efc0c1d"},"vehicle_type_id":"4","last_reported":1748790577,"current_range_meters":3600,"station_id":"ce4bhmp2rcd13ifvqgog","pricing_plan_id":"cebpf4jnsgd1na2vs0mg"},{"bike_id":"fa1f6c3b-5713-4622-86d9-7e6937e25260","system_id":"levelo_inurba_marseille","lat":43.31258,"lon":5.36871,"is_reserved":false,"is_disabled":true,"rental_uris":{"android":"levelo://app?vid=fa1f6c3b-5713-4622-86d9-7e6937e25260","ios":"levelo://app?vid=fa1f6c3b-5713-4622-86d9-7e6937e25260"},"vehicle_type_id":"4","last_reported":1748790577,"current_range_meters":4400,"station_id":"ce4bgl92rcd13ifvqbq0","pricing_plan_id":"cebpf4jnsgd1na2vs0mg"},{"bike_id":"66537fe4-75cc-4099-a154-26a667caff14","system_id":"levelo_inurba_marseille","lat":43.29263,"lon":5.37629,"is_reserved":false,"is_disabled":false,"rental_uris":{"android":"levelo://app?vid=66537fe4-75cc-4099-a154-26a667caff14","ios":"levelo://app?vid=66537fe4-75cc-4099-a154-26a667caff14"},"vehicle_type_id":"4","last_reported":1748790577,"current_range_meters":4400,"station_id":"ce4bgi12rcd13ifvqb80","pricing_plan_id":"cebpf4jnsgd1na2vs0mg"},{"bike_id":"0235eee8-4e01-47eb-9d4e-1feb230d4785","system_id":"levelo_inurba_marseille","lat":43.303962,"lon":5.418683,"is_reserved":false,"is_disabled":false,"rental_uris":{"android":"levelo://app?vid=0235eee8-4e01-47eb-9d4e-1feb230d4785","ios":"levelo://app?vid=0235eee8-4e01-47eb-9d4e-1feb230d4785"},"vehicle_type_id":"4","last_reported":1748790577,"current_range_meters":4400,"station_id":"ce4bhop2rcd13ifvqh7g","pricing_plan_id":"cebpf4jnsgd1na2vs0mg"},{"bike_id":"7eb0ae84-809c-4d99-b76a-5e5f68d082e1","system_id":"levelo_inurba_marseille","lat":43.30936,"lon":5.40139,"is_reserved":false,"is_disabled":false,"rental_uris":{"android":"levelo://app?vid=7eb0ae84-809c-4d99-b76a-5e5f68d082e1","ios":"levelo://app?vid=7eb0ae84-809c-4d99-b76a-5e5f68d082e1"},"vehicle_type_id":"4","last_reported":1748790577,"current_range_meters":4800,"station_id":"ce4bgvp2rcd13ifvqct0","pricing_plan_id":"cebpf4jnsgd1na2vs0mg"},{"bike_id":"9904aaaf-c2b4-4981-8167-08976a9fcc79","system_id":"levelo_inurba_marseille","lat":43.26506,"lon":5.39532,"is_reserved":false,"is_disabled":false,"rental_uris":{"android":"levelo://app?vid=9904aaaf-c2b4-4981-8167-08976a9fcc79","ios":"levelo://app?vid=9904aaaf-c2b4-4981-8167-08976a9fcc79"},"vehicle_type_id":"4","last_reported":1748790577,"current_range_meters":4800,"station_id":"ce4bhi12rcd13ifvqfq0","pricing_plan_id":"cebpf4jnsgd1na2vs0mg"},{"bike_id":"70f70429-b3a4-4bd4-900e-7624fcef71b2","system_id":"levelo_inurba_marseille","lat":43.31512,"lon":5.38903,"is_reserved":false,"is_disabled":false,"rental_uris":{"android":"levelo://app?vid=70f70429-b3a4-4bd4-900e-7624fcef71b2","ios":"levelo://app?vid=70f70429-b3a4-4bd4-900e-7624fcef71b2"},"vehicle_type_id":"4","last_reported":1748790577,"current_range_meters":5600,"station_id":"","pricing_plan_id":"cebpf4jnsgd1na2vs0mg"},{"bike_id":"229745dc-ce30-4a4a-a97d-383da26a453e","system_id":"levelo_inurba_marseille","lat":43.25349,"lon":5.37589,"is_reserved":false,"is_disabled":false,"rental_uris":{"android":"levelo://app?vid=229745dc-ce30-4a4a-a97d-383da26a453e","ios":"levelo://app?vid=229745dc-ce30-4a4a-a97d-383da26a453e"},"vehicle_type_id":"4","last_reported":1748790577,"current_range_meters":5600,"station_id":"","pricing_plan_id":"cebpf4jnsgd1na2vs0mg"},{"bike_id":"efcd36ca-cfa5-4839-acfc-9a93cbc50d12","system_id":"levelo_inurba_marseille","lat":43.264949,"lon":5.395339,"is_reserved":false,"is_disabled":false,"rental_uris":{"android":"levelo://app?vid=efcd36ca-cfa5-4839-acfc-9a93cbc50d12","ios":"levelo://app?vid=efcd36ca-cfa5-4839-acfc-9a93cbc50d12"},"vehicle_type_id":"4","last_reported":1748790577,"current_range_meters":5600,"station_id":"ce4bhi12rcd13ifvqfq0","pricing_plan_id":"cebpf4jnsgd1na2vs0mg"},{"bike_id":"2b201de7-06ee-44b6-9c85-dda11376754f","system_id":"levelo_inurba_marseille","lat":43.24383,"lon":5.38008,"is_reserved":false,"is_disabled":false,"rental_uris":{"android":"levelo://app?vid=2b201de7-06ee-44b6-9c85-dda11376754f","ios":"levelo://app?vid=2b201de7-06ee-44b6-9c85-dda11376754f"},"vehicle_type_id":"4","last_reported":1748790577,"current_range_meters":5600,"station_id":"","pricing_plan_id":"cebpf4jnsgd1na2vs0mg"},{"bike_id":"742ea022-7ec3-403b-ab76-b027020c7592","system_id":"levelo_inurba_marseille","lat":43.322913,"lon":5.382744,"is_reserved":false,"is_disabled":false,"rental_uris":{"android":"levelo://app?vid=742ea022-7ec3-403b-ab76-b027020c7592","ios":"levelo://app?vid=742ea022-7ec3-403b-ab76-b027020c7592"},"vehicle_type_id":"4","last_reported":1748790577,"current_range_meters":6000,"station_id":"ce4bhr12rcd13ifvqhqg","pricing_plan_id":"cebpf4jnsgd1na2vs0mg"},{"bike_id":"a921b20e-565c-46bc-998e-47a55d98b420","system_id":"levelo_inurba_marseille","lat":43.25091,"lon":5.39524,"is_reserved":false,"is_disabled":false,"rental_uris":{"android":"levelo://app?vid=a921b20e-565c-46bc-998e-47a55d98b420","ios":"levelo://app?vid=a921b20e-565c-46bc-998e-47a55d98b420"},"vehicle_type_id":"4","last_reported":1748790577,"current_range_meters":6000,"station_id":"ce4bhm12rcd13ifvqgkg","pricing_plan_id":"cebpf4jnsgd1na2vs0mg"},{"bike_id":"8d48119e-760e-4c00-b401-59af0a322afa","system_id":"levelo_inurba_marseille","lat":43.25669,"lon":5.40844,"is_reserved":false,"is_disabled":false,"rental_uris":{"android":"levelo://app?vid=8d48119e-760e-4c00-b401-59af0a322afa","ios":"levelo://app?vid=8d48119e-760e-4c00-b401-59af0a322afa"},"vehicle_type_id":"4","last_reported":1748790577,"current_range_meters":6000,"station_id":"","pricing_plan_id":"cebpf4jnsgd1na2vs0mg"},{"bike_id":"f8321a2c-303f-48d2-b728-ec5497c1cd3f","system_id":"levelo_inurba_marseille","lat":43.23435,"lon":5.35998,"is_reserved":false,"is_disabled":false,"rental_uris":{"android":"levelo://app?vid=f8321a2c-303f-48d2-b728-ec5497c1cd3f","ios":"levelo://app?vid=f8321a2c-303f-48d2-b728-ec5497c1cd3f"},"vehicle_type_id":"4","last_reported":1748790577,"current_range_meters":6000,"station_id":"","pricing_plan_id":"cebpf4jnsgd1na2vs0mg"},{"bike_id":"5906bdd7-acf2-4e31-a673-d00bd9995f93","system_id":"levelo_inurba_marseille","lat":43.24808,"lon":5.37454,"is_reserved":false,"is_disabled":false,"rental_uris":{"android":"levelo://app?vid=5906bdd7-acf2-4e31-a673-d00bd9995f93","ios":"levelo://app?vid=5906bdd7-acf2-4e31-a673-d00bd9995f93"},"vehicle_type_id":"4","last_reported":1748790577,"current_range_meters":6000,"station_id":"ce4bhgh2rcd13ifvqfb0","pricing_plan_id":"cebpf4jnsgd1na2vs0mg"},{"bike_id":"c07b9fef-48d7-42e6-87ed-46fbccf3c2e2","system_id":"levelo_inurba_marseille","lat":43.29754,"lon":5.39898,"is_reserved":false,"is_disabled":false,"rental_uris":{"android":"levelo://app?vid=c07b9fef-48d7-42e6-87ed-46fbccf3c2e2","ios":"levelo://app?vid=c07b9fef-48d7-42e6-87ed-46fbccf3c2e2"},"vehicle_type_id":"4","last_reported":1748790577,"current_range_meters":6000,"station_id":"","pricing_plan_id":"cebpf4jnsgd1na2vs0mg"},{"bike_id":"0d3bab2f-26cf-41f1-82dd-bb5db963b288","system_id":"levelo_inurba_marseille","lat":43.32542,"lon":5.36483,"is_reserved":false,"is_disabled":true,"rental_uris":{"android":"levelo://app?vid=0d3bab2f-26cf-41f1-82dd-bb5db963b288","ios":"levelo://app?vid=0d3bab2f-26cf-41f1-82dd-bb5db963b288"},"vehicle_type_id":"4","last_reported":1748790577,"current_range_meters":6000,"station_id":"","pricing_plan_id":"cebpf4jnsgd1na2vs0mg"},{"bike_id":"b817233f-ca62-4c03-a2a3-75e039bdd914","system_id":"levelo_inurba_marseille","lat":43.32215,"lon":5.39457,"is_reserved":false,"is_disabled":false,"rental_uris":{"android":"levelo://app?vid=b817233f-ca62-4c03-a2a3-75e039bdd914","ios":"levelo://app?vid=b817233f-ca62-4c03-a2a3-75e039bdd914"},"vehicle_type_id":"4","last_reported":1748790577,"current_range_meters":6000,"station_id":"","pricing_plan_id":"cebpf4jnsgd1na2vs0mg"},{"bike_id":"91687964-4a51-4b14-b0d7-6ad370726154","system_id":"levelo_inurba_marseille","lat":43.29012,"lon":5.38127,"is_reserved":false,"is_disabled":false,"rental_uris":{"android":"levelo://app?vid=91687964-4a51-4b14-b0d7-6ad370726154","ios":"levelo://app?vid=91687964-4a51-4b14-b0d7-6ad370726154"},"vehicle_type_id":"4","last_reported":1748790577,"current_range_meters":6400,"station_id":"ce4bh4p2rcd13ifvqe1g","pricing_plan_id":"cebpf4jnsgd1na2vs0mg"},{"bike_id":"4fa5e7e7-0cc6-4516-a9a0-edc4a88f4960","system_id":"levelo_inurba_marseille","lat":43.31371,"lon":5.38509,"is_reserved":false,"is_disabled":false,"rental_uris":{"android":"levelo://app?vid=4fa5e7e7-0cc6-4516-a9a0-edc4a88f4960","ios":"levelo://app?vid=4fa5e7e7-0cc6-4516-a9a0-edc4a88f4960"},"vehicle_type_id":"4","last_reported":1748790577,"current_range_meters":6000,"station_id":"ce4bgt92rcd13ifvqcf0","pricing_plan_id":"cebpf4jnsgd1na2vs0mg"},{"bike_id":"a5085c63-b32d-452e-a284-8ee9edd8c8ea","system_id":"levelo_inurba_marseille","lat":43.28414,"lon":5.34976,"is_reserved":false,"is_disabled":false,"rental_uris":{"android":"levelo://app?vid=a5085c63-b32d-452e-a284-8ee9edd8c8ea","ios":"levelo://app?vid=a5085c63-b32d-452e-a284-8ee9edd8c8ea"},"vehicle_type_id":"4","last_reported":1748790577,"current_range_meters":6800,"station_id":"ce4bhbh2rcd13ifvqepg","pricing_plan_id":"cebpf4jnsgd1na2vs0mg"},{"bike_id":"69395d5f-e7d4-42a0-bfdf-2fdffcf7ebe4","system_id":"levelo_inurba_marseille","lat":43.32114,"lon":5.36767,"is_reserved":false,"is_disabled":false,"rental_uris":{"android":"levelo://app?vid=69395d5f-e7d4-42a0-bfdf-2fdffcf7ebe4","ios":"levelo://app?vid=69395d5f-e7d4-42a0-bfdf-2fdffcf7ebe4"},"vehicle_type_id":"4","last_reported":1748790577,"current_range_meters":6800,"station_id":"ce4bhrh2rcd13ifvqhug","pricing_plan_id":"cebpf4jnsgd1na2vs0mg"},{"bike_id":"6dbec55b-fee0-4a3a-9ed2-723f9ae1c783","system_id":"levelo_inurba_marseille","lat":43.29925,"lon":5.43627,"is_reserved":false,"is_disabled":true,"rental_uris":{"android":"levelo://app?vid=6dbec55b-fee0-4a3a-9ed2-723f9ae1c783","ios":"levelo://app?vid=6dbec55b-fee0-4a3a-9ed2-723f9ae1c783"},"vehicle_type_id":"4","last_reported":1748790577,"current_range_meters":6800,"station_id":"","pricing_plan_id":"cebpf4jnsgd1na2vs0mg"},{"bike_id":"5184b43c-8c47-49a4-a76d-bef549fb92b4","system_id":"levelo_inurba_marseille","lat":43.29915,"lon":5.37474,"is_reserved":false,"is_disabled":false,"rental_uris":{"android":"levelo://app?vid=5184b43c-8c47-49a4-a76d-bef549fb92b4","ios":"levelo://app?vid=5184b43c-8c47-49a4-a76d-bef549fb92b4"},"vehicle_type_id":"4","last_reported":1748790577,"current_range_meters":6800,"station_id":"ce4bgjh2rcd13ifvqbg0","pricing_plan_id":"cebpf4jnsgd1na2vs0mg"},{"bike_id":"8ad96e50-3126-40a9-8b6e-d0f2b3776474","system_id":"levelo_inurba_marseille","lat":43.30557,"lon":5.36562,"is_reserved":false,"is_disabled":false,"rental_uris":{"android":"levelo://app?vid=8ad96e50-3126-40a9-8b6e-d0f2b3776474","ios":"levelo://app?vid=8ad96e50-3126-40a9-8b6e-d0f2b3776474"},"vehicle_type_id":"4","last_reported":1748790577,"current_range_meters":6800,"station_id":"ce4bgs12rcd13ifvqcag","pricing_plan_id":"cebpf4jnsgd1na2vs0mg"},{"bike_id":"7f7cf4f1-2535-4810-9015-7a119c6c6940","system_id":"levelo_inurba_marseille","lat":43.29032,"lon":5.35649,"is_reserved":false,"is_disabled":true,"rental_uris":{"android":"levelo://app?vid=7f7cf4f1-2535-4810-9015-7a119c6c6940","ios":"levelo://app?vid=7f7cf4f1-2535-4810-9015-7a119c6c6940"},"vehicle_type_id":"4","last_reported":1748790577,"current_range_meters":6800,"station_id":"ce4bhb92rcd13ifvqen0","pricing_plan_id":"cebpf4jnsgd1na2vs0mg"},{"bike_id":"9de579cc-d377-424c-894c-721c9fe78936","system_id":"levelo_inurba_marseille","lat":43.27677,"lon":5.38906,"is_reserved":false,"is_disabled":false,"rental_uris":{"android":"levelo://app?vid=9de579cc-d377-424c-894c-721c9fe78936","ios":"levelo://app?vid=9de579cc-d377-424c-894c-721c9fe78936"},"vehicle_type_id":"4","last_reported":1748790577,"current_range_meters":6800,"station_id":"ce4bhi12rcd13ifvqfo0","pricing_plan_id":"cebpf4jnsgd1na2vs0mg"},{"bike_id":"5c503f54-c8ec-4f52-a114-35d2e928f1cb","system_id":"levelo_inurba_marseille","lat":43.25088,"lon":5.39505,"is_reserved":false,"is_disabled":false,"rental_uris":{"android":"levelo://app?vid=5c503f54-c8ec-4f52-a114-35d2e928f1cb","ios":"levelo://app?vid=5c503f54-c8ec-4f52-a114-35d2e928f1cb"},"vehicle_type_id":"4","last_reported":1748790577,"current_range_meters":7200,"station_id":"ce4bhm12rcd13ifvqgkg","pricing_plan_id":"cebpf4jnsgd1na2vs0mg"},{"bike_id":"f4e49996-ce0c-42e7-9a15-35b5f4497b3e","system_id":"levelo_inurba_marseille","lat":43.32291,"lon":5.38264,"is_reserved":false,"is_disabled":false,"rental_uris":{"android":"levelo://app?vid=f4e49996-ce0c-42e7-9a15-35b5f4497b3e","ios":"levelo://app?vid=f4e49996-ce0c-42e7-9a15-35b5f4497b3e"},"vehicle_type_id":"4","last_reported":1748790577,"current_range_meters":7200,"station_id":"ce4bhr12rcd13ifvqhqg","pricing_plan_id":"cebpf4jnsgd1na2vs0mg"},{"bike_id":"637e3931-dcb1-4185-b34d-0e727261d057","system_id":"levelo_inurba_marseille","lat":43.232004,"lon":5.355501,"is_reserved":false,"is_disabled":false,"rental_uris":{"android":"levelo://app?vid=637e3931-dcb1-4185-b34d-0e727261d057","ios":"levelo://app?vid=637e3931-dcb1-4185-b34d-0e727261d057"},"vehicle_type_id":"4","last_reported":1748790577,"current_range_meters":7200,"station_id":"ce4bhu92rcd13ifvqi70","pricing_plan_id":"cebpf4jnsgd1na2vs0mg"},{"bike_id":"f7d80c12-64a1-477d-915a-e6e6aa0759c9","system_id":"levelo_inurba_marseille","lat":43.27999,"lon":5.41665,"is_reserved":false,"is_disabled":false,"rental_uris":{"android":"levelo://app?vid=f7d80c12-64a1-477d-915a-e6e6aa0759c9","ios":"levelo://app?vid=f7d80c12-64a1-477d-915a-e6e6aa0759c9"},"vehicle_type_id":"4","last_reported":1748790577,"current_range_meters":7200,"station_id":"ce4bho12rcd13ifvqh1g","pricing_plan_id":"cebpf4jnsgd1na2vs0mg"},{"bike_id":"59ae54bb-ea00-4726-8c0c-f78e033628de","system_id":"levelo_inurba_marseille","lat":43.4343,"lon":5.38319,"is_reserved":false,"is_disabled":false,"rental_uris":{"android":"levelo://app?vid=59ae54bb-ea00-4726-8c0c-f78e033628de","ios":"levelo://app?vid=59ae54bb-ea00-4726-8c0c-f78e033628de"},"vehicle_type_id":"4","last_reported":1748790577,"current_range_meters":7200,"station_id":"","pricing_plan_id":"cebpf4jnsgd1na2vs0mg"},{"bike_id":"7ac4bb10-5cb7-4388-920a-e5c4ce5422c8","system_id":"levelo_inurba_marseille","lat":43.27495,"lon":5.42468,"is_reserved":false,"is_disabled":false,"rental_uris":{"android":"levelo://app?vid=7ac4bb10-5cb7-4388-920a-e5c4ce5422c8","ios":"levelo://app?vid=7ac4bb10-5cb7-4388-920a-e5c4ce5422c8"},"vehicle_type_id":"4","last_reported":1748790577,"current_range_meters":7200,"station_id":"ce4bhn92rcd13ifvqgrg","pricing_plan_id":"cebpf4jnsgd1na2vs0mg"},{"bike_id":"8ae16160-9348-492b-9270-6bee880ca5e3","system_id":"levelo_inurba_marseille","lat":43.3597,"lon":5.32349,"is_reserved":false,"is_disabled":false,"rental_uris":{"android":"levelo://app?vid=8ae16160-9348-492b-9270-6bee880ca5e3","ios":"levelo://app?vid=8ae16160-9348-492b-9270-6bee880ca5e3"},"vehicle_type_id":"4","last_reported":1748790577,"current_range_meters":7200,"station_id":"","pricing_plan_id":"cebpf4jnsgd1na2vs0mg"},{"bike_id":"3e86c2ae-4f0b-451c-baad-e875715becb6","system_id":"levelo_inurba_marseille","lat":43.29035,"lon":5.39971,"is_reserved":false,"is_disabled":false,"rental_uris":{"android":"levelo://app?vid=3e86c2ae-4f0b-451c-baad-e875715becb6","ios":"levelo://app?vid=3e86c2ae-4f0b-451c-baad-e875715becb6"},"vehicle_type_id":"4","last_reported":1748790577,"current_range_meters":7200,"station_id":"ce4bh392rcd13ifvqdm0","pricing_plan_id":"cebpf4jnsgd1na2vs0mg"},{"bike_id":"8590f097-f13b-4728-acb8-9dfc98eaedb3","system_id":"levelo_inurba_marseille","lat":43.30955,"lon":5.39034,"is_reserved":false,"is_disabled":false,"rental_uris":{"android":"levelo://app?vid=8590f097-f13b-4728-acb8-9dfc98eaedb3","ios":"levelo://app?vid=8590f097-f13b-4728-acb8-9dfc98eaedb3"},"vehicle_type_id":"4","last_reported":1748790577,"current_range_meters":7200,"station_id":"ce4bgup2rcd13ifvqco0","pricing_plan_id":"cebpf4jnsgd1na2vs0mg"},{"bike_id":"19016de9-d712-4811-a6fc-ba71d86df41c","system_id":"levelo_inurba_marseille","lat":43.28665,"lon":5.36347,"is_reserved":false,"is_disabled":false,"rental_uris":{"android":"levelo://app?vid=19016de9-d712-4811-a6fc-ba71d86df41c","ios":"levelo://app?vid=19016de9-d712-4811-a6fc-ba71d86df41c"},"vehicle_type_id":"4","last_reported":1748790577,"current_range_meters":7200,"station_id":"ce4bhah2rcd13ifvqej0","pricing_plan_id":"cebpf4jnsgd1na2vs0mg"},{"bike_id":"79a5f6b8-3eb7-4888-b9a1-76e848c5f305","system_id":"levelo_inurba_marseille","lat":43.29514,"lon":5.39391,"is_reserved":false,"is_disabled":true,"rental_uris":{"android":"levelo://app?vid=79a5f6b8-3eb7-4888-b9a1-76e848c5f305","ios":"levelo://app?vid=79a5f6b8-3eb7-4888-b9a1-76e848c5f305"},"vehicle_type_id":"4","last_reported":1748790577,"current_range_meters":7200,"station_id":"ce4bh292rcd13ifvqdf0","pricing_plan_id":"cebpf4jnsgd1na2vs0mg"},{"bike_id":"16956ecc-ed47-44a5-bf64-7ac7c0de85fa","system_id":"levelo_inurba_marseille","lat":43.31565,"lon":5.36918,"is_reserved":false,"is_disabled":false,"rental_uris":{"android":"levelo://app?vid=16956ecc-ed47-44a5-bf64-7ac7c0de85fa","ios":"levelo://app?vid=16956ecc-ed47-44a5-bf64-7ac7c0de85fa"},"vehicle_type_id":"4","last_reported":1748790577,"current_range_meters":7200,"station_id":"","pricing_plan_id":"cebpf4jnsgd1na2vs0mg"},{"bike_id":"75ef326e-69c8-490e-9b82-467bc5900c16","system_id":"levelo_inurba_marseille","lat":43.30324,"lon":5.40432,"is_reserved":false,"is_disabled":false,"rental_uris":{"android":"levelo://app?vid=75ef326e-69c8-490e-9b82-467bc5900c16","ios":"levelo://app?vid=75ef326e-69c8-490e-9b82-467bc5900c16"},"vehicle_type_id":"4","last_reported":1748790577,"current_range_meters":7200,"station_id":"ce4bh012rcd13ifvqd10","pricing_plan_id":"cebpf4jnsgd1na2vs0mg"},{"bike_id":"c786e267-686f-464f-be4c-0365535f47c9","system_id":"levelo_inurba_marseille","lat":43.21203,"lon":5.35079,"is_reserved":false,"is_disabled":false,"rental_uris":{"android":"levelo://app?vid=c786e267-686f-464f-be4c-0365535f47c9","ios":"levelo://app?vid=c786e267-686f-464f-be4c-0365535f47c9"},"vehicle_type_id":"4","last_reported":1748790577,"current_range_meters":8000,"station_id":"st_cvj6sg6p6f1abm77japg","pricing_plan_id":"cebpf4jnsgd1na2vs0mg"},{"bike_id":"4963743f-8f69-41bb-a985-ff0e9af01686","system_id":"levelo_inurba_marseille","lat":43.27208,"lon":5.39179,"is_reserved":false,"is_disabled":false,"rental_uris":{"android":"levelo://app?vid=4963743f-8f69-41bb-a985-ff0e9af01686","ios":"levelo://app?vid=4963743f-8f69-41bb-a985-ff0e9af01686"},"vehicle_type_id":"4","last_reported":1748790577,"current_range_meters":7200,"station_id":"ce4bhhp2rcd13ifvqfm0","pricing_plan_id":"cebpf4jnsgd1na2vs0mg"},{"bike_id":"4eaf3a84-f46a-45ab-9480-f86b6e20b495","system_id":"levelo_inurba_marseille","lat":43.29192,"lon":5.39318,"is_reserved":false,"is_disabled":false,"rental_uris":{"android":"levelo://app?vid=4eaf3a84-f46a-45ab-9480-f86b6e20b495","ios":"levelo://app?vid=4eaf3a84-f46a-45ab-9480-f86b6e20b495"},"vehicle_type_id":"4","last_reported":1748790577,"current_range_meters":8000,"station_id":"ce4bh192rcd13ifvqdd0","pricing_plan_id":"cebpf4jnsgd1na2vs0mg"},{"bike_id":"74d89a74-956c-4c9e-a762-4e08fbfbb742","system_id":"levelo_inurba_marseille","lat":43.27911,"lon":5.41073,"is_reserved":false,"is_disabled":false,"rental_uris":{"android":"levelo://app?vid=74d89a74-956c-4c9e-a762-4e08fbfbb742","ios":"levelo://app?vid=74d89a74-956c-4c9e-a762-4e08fbfbb742"},"vehicle_type_id":"4","last_reported":1748790577,"current_range_meters":8000,"station_id":"ce4bhnp2rcd13ifvqh0g","pricing_plan_id":"cebpf4jnsgd1na2vs0mg"},{"bike_id":"fd46a80b-8b93-49cf-a34b-8cffcb0fc192","system_id":"levelo_inurba_marseille","lat":43.262288,"lon":5.404608,"is_reserved":false,"is_disabled":false,"rental_uris":{"android":"levelo://app?vid=fd46a80b-8b93-49cf-a34b-8cffcb0fc192","ios":"levelo://app?vid=fd46a80b-8b93-49cf-a34b-8cffcb0fc192"},"vehicle_type_id":"4","last_reported":1748790577,"current_range_meters":8000,"station_id":"ce4bhmh2rcd13ifvqgmg","pricing_plan_id":"cebpf4jnsgd1na2vs0mg"},{"bike_id":"0ed9e1b8-6196-4f83-a55a-bd81f1b6a9f1","system_id":"levelo_inurba_marseille","lat":43.31165,"lon":5.38698,"is_reserved":false,"is_disabled":false,"rental_uris":{"android":"levelo://app?vid=0ed9e1b8-6196-4f83-a55a-bd81f1b6a9f1","ios":"levelo://app?vid=0ed9e1b8-6196-4f83-a55a-bd81f1b6a9f1"},"vehicle_type_id":"4","last_reported":1748790577,"current_range_meters":8400,"station_id":"ce4bgv12rcd13ifvqcp0","pricing_plan_id":"cebpf4jnsgd1na2vs0mg"},{"bike_id":"489e51a2-47a3-410a-a0a6-e28b81ffc8a2","system_id":"levelo_inurba_marseille","lat":43.31201,"lon":5.38724,"is_reserved":false,"is_disabled":false,"rental_uris":{"android":"levelo://app?vid=489e51a2-47a3-410a-a0a6-e28b81ffc8a2","ios":"levelo://app?vid=489e51a2-47a3-410a-a0a6-e28b81ffc8a2"},"vehicle_type_id":"4","last_reported":1748790577,"current_range_meters":8400,"station_id":"ce4bgv12rcd13ifvqcp0","pricing_plan_id":"cebpf4jnsgd1na2vs0mg"},{"bike_id":"acfbab2f-8c03-44c7-8a2f-cb74efcc20a6","system_id":"levelo_inurba_marseille","lat":43.30244,"lon":5.37253,"is_reserved":false,"is_disabled":false,"rental_uris":{"android":"levelo://app?vid=acfbab2f-8c03-44c7-8a2f-cb74efcc20a6","ios":"levelo://app?vid=acfbab2f-8c03-44c7-8a2f-cb74efcc20a6"},"vehicle_type_id":"4","last_reported":1748790577,"current_range_meters":8400,"station_id":"","pricing_plan_id":"cebpf4jnsgd1na2vs0mg"},{"bike_id":"3294237b-294a-444f-a8fd-a0b9ac247b2c","system_id":"levelo_inurba_marseille","lat":43.28409,"lon":5.34984,"is_reserved":false,"is_disabled":false,"rental_uris":{"android":"levelo://app?vid=3294237b-294a-444f-a8fd-a0b9ac247b2c","ios":"levelo://app?vid=3294237b-294a-444f-a8fd-a0b9ac247b2c"},"vehicle_type_id":"4","last_reported":1748790577,"current_range_meters":8400,"station_id":"ce4bhbh2rcd13ifvqepg","pricing_plan_id":"cebpf4jnsgd1na2vs0mg"},{"bike_id":"6a1a350e-c8c5-4703-9dc6-da2316db5327","system_id":"levelo_inurba_marseille","lat":43.31331,"lon":5.39692,"is_reserved":false,"is_disabled":false,"rental_uris":{"android":"levelo://app?vid=6a1a350e-c8c5-4703-9dc6-da2316db5327","ios":"levelo://app?vid=6a1a350e-c8c5-4703-9dc6-da2316db5327"},"vehicle_type_id":"4","last_reported":1748790577,"current_range_meters":8400,"station_id":"ce4bgvp2rcd13ifvqcu0","pricing_plan_id":"cebpf4jnsgd1na2vs0mg"},{"bike_id":"bfbc8e6a-78f4-46c6-80b5-8ef536ef448f","system_id":"levelo_inurba_marseille","lat":43.276099,"lon":5.360989,"is_reserved":false,"is_disabled":false,"rental_uris":{"android":"levelo://app?vid=bfbc8e6a-78f4-46c6-80b5-8ef536ef448f","ios":"levelo://app?vid=bfbc8e6a-78f4-46c6-80b5-8ef536ef448f"},"vehicle_type_id":"4","last_reported":1748790577,"current_range_meters":8400,"station_id":"ce4bgj92rcd13ifvqbe0","pricing_plan_id":"cebpf4jnsgd1na2vs0mg"},{"bike_id":"7f08a69a-2d5b-48e6-8e97-32333e7c1f12","system_id":"levelo_inurba_marseille","lat":43.25449,"lon":5.37595,"is_reserved":false,"is_disabled":false,"rental_uris":{"android":"levelo://app?vid=7f08a69a-2d5b-48e6-8e97-32333e7c1f12","ios":"levelo://app?vid=7f08a69a-2d5b-48e6-8e97-32333e7c1f12"},"vehicle_type_id":"4","last_reported":1748790577,"current_range_meters":8800,"station_id":"","pricing_plan_id":"cebpf4jnsgd1na2vs0mg"},{"bike_id":"e6bf0c37-d2a0-4cf7-bda5-bdec7e2a1f23","system_id":"levelo_inurba_marseille","lat":43.322864,"lon":5.382745,"is_reserved":false,"is_disabled":false,"rental_uris":{"android":"levelo://app?vid=e6bf0c37-d2a0-4cf7-bda5-bdec7e2a1f23","ios":"levelo://app?vid=e6bf0c37-d2a0-4cf7-bda5-bdec7e2a1f23"},"vehicle_type_id":"4","last_reported":1748790577,"current_range_meters":8800,"station_id":"ce4bhr12rcd13ifvqhqg","pricing_plan_id":"cebpf4jnsgd1na2vs0mg"},{"bike_id":"33cf99aa-f7ee-444f-993d-55a81247017d","system_id":"levelo_inurba_marseille","lat":43.28417,"lon":5.34975,"is_reserved":false,"is_disabled":false,"rental_uris":{"android":"levelo://app?vid=33cf99aa-f7ee-444f-993d-55a81247017d","ios":"levelo://app?vid=33cf99aa-f7ee-444f-993d-55a81247017d"},"vehicle_type_id":"4","last_reported":1748790577,"current_range_meters":8800,"station_id":"ce4bhbh2rcd13ifvqepg","pricing_plan_id":"cebpf4jnsgd1na2vs0mg"},{"bike_id":"153f2125-a964-4000-8b9b-7b377bb31d0b","system_id":"levelo_inurba_marseille","lat":43.25337,"lon":5.37616,"is_reserved":false,"is_disabled":false,"rental_uris":{"android":"levelo://app?vid=153f2125-a964-4000-8b9b-7b377bb31d0b","ios":"levelo://app?vid=153f2125-a964-4000-8b9b-7b377bb31d0b"},"vehicle_type_id":"4","last_reported":1748790577,"current_range_meters":9200,"station_id":"","pricing_plan_id":"cebpf4jnsgd1na2vs0mg"},{"bike_id":"1f9b1868-3df1-4147-8f3e-2fc8eb022cd3","system_id":"levelo_inurba_marseille","lat":43.23182,"lon":5.43709,"is_reserved":false,"is_disabled":false,"rental_uris":{"android":"levelo://app?vid=1f9b1868-3df1-4147-8f3e-2fc8eb022cd3","ios":"levelo://app?vid=1f9b1868-3df1-4147-8f3e-2fc8eb022cd3"},"vehicle_type_id":"4","last_reported":1748790577,"current_range_meters":9200,"station_id":"ce4bhmp2rcd13ifvqgog","pricing_plan_id":"cebpf4jnsgd1na2vs0mg"},{"bike_id":"5e4cf6f1-c1b6-4bb0-a018-629de3512c8d","system_id":"levelo_inurba_marseille","lat":43.24222,"lon":5.39778,"is_reserved":false,"is_disabled":false,"rental_uris":{"android":"levelo://app?vid=5e4cf6f1-c1b6-4bb0-a018-629de3512c8d","ios":"levelo://app?vid=5e4cf6f1-c1b6-4bb0-a018-629de3512c8d"},"vehicle_type_id":"4","last_reported":1748790577,"current_range_meters":9200,"station_id":"ce4bhn12rcd13ifvqgpg","pricing_plan_id":"cebpf4jnsgd1na2vs0mg"},{"bike_id":"f2d24b18-d214-4b88-99a9-26c99e5fd23c","system_id":"levelo_inurba_marseille","lat":43.24611,"lon":5.39346,"is_reserved":false,"is_disabled":false,"rental_uris":{"android":"levelo://app?vid=f2d24b18-d214-4b88-99a9-26c99e5fd23c","ios":"levelo://app?vid=f2d24b18-d214-4b88-99a9-26c99e5fd23c"},"vehicle_type_id":"4","last_reported":1748790577,"current_range_meters":9200,"station_id":"","pricing_plan_id":"cebpf4jnsgd1na2vs0mg"},{"bike_id":"ecebdb4a-cab4-42a1-9cd6-f5e0afbea53d","system_id":"levelo_inurba_marseille","lat":43.30187,"lon":5.36608,"is_reserved":false,"is_disabled":false,"rental_uris":{"android":"levelo://app?vid=ecebdb4a-cab4-42a1-9cd6-f5e0afbea53d","ios":"levelo://app?vid=ecebdb4a-cab4-42a1-9cd6-f5e0afbea53d"},"vehicle_type_id":"4","last_reported":1748790577,"current_range_meters":9200,"station_id":"ce4bgrh2rcd13ifvqc8g","pricing_plan_id":"cebpf4jnsgd1na2vs0mg"},{"bike_id":"cce60de1-9ee2-4a70-a0f1-fc5ea2eff6a2","system_id":"levelo_inurba_marseille","lat":43.29318,"lon":5.37176,"is_reserved":false,"is_disabled":true,"rental_uris":{"android":"levelo://app?vid=cce60de1-9ee2-4a70-a0f1-fc5ea2eff6a2","ios":"levelo://app?vid=cce60de1-9ee2-4a70-a0f1-fc5ea2eff6a2"},"vehicle_type_id":"4","last_reported":1748790577,"current_range_meters":9600,"station_id":"ce4bgh92rcd13ifvqb40","pricing_plan_id":"cebpf4jnsgd1na2vs0mg"},{"bike_id":"afbc6872-4063-4cb1-9e5b-f6392d82fefa","system_id":"levelo_inurba_marseille","lat":43.21751,"lon":5.34602,"is_reserved":false,"is_disabled":false,"rental_uris":{"android":"levelo://app?vid=afbc6872-4063-4cb1-9e5b-f6392d82fefa","ios":"levelo://app?vid=afbc6872-4063-4cb1-9e5b-f6392d82fefa"},"vehicle_type_id":"4","last_reported":1748790577,"current_range_meters":9600,"station_id":"st_cvj6r9ubvosntc0bgbag","pricing_plan_id":"cebpf4jnsgd1na2vs0mg"},{"bike_id":"5ef067e7-b281-4ef9-ad2a-1c6b02a54c04","system_id":"levelo_inurba_marseille","lat":43.319202,"lon":5.440399,"is_reserved":false,"is_disabled":false,"rental_uris":{"android":"levelo://app?vid=5ef067e7-b281-4ef9-ad2a-1c6b02a54c04","ios":"levelo://app?vid=5ef067e7-b281-4ef9-ad2a-1c6b02a54c04"},"vehicle_type_id":"4","last_reported":1748790577,"current_range_meters":9600,"station_id":"","pricing_plan_id":"cebpf4jnsgd1na2vs0mg"},{"bike_id":"94f43558-c2b4-41a2-907e-cbc340232580","system_id":"levelo_inurba_marseille","lat":43.225,"lon":5.34787,"is_reserved":false,"is_disabled":true,"rental_uris":{"android":"levelo://app?vid=94f43558-c2b4-41a2-907e-cbc340232580","ios":"levelo://app?vid=94f43558-c2b4-41a2-907e-cbc340232580"},"vehicle_type_id":"4","last_reported":1748790577,"current_range_meters":10000,"station_id":"","pricing_plan_id":"cebpf4jnsgd1na2vs0mg"},{"bike_id":"88e3a5db-2aa6-4432-8067-6ed9a912292e","system_id":"levelo_inurba_marseille","lat":43.299675,"lon":5.384789,"is_reserved":false,"is_disabled":false,"rental_uris":{"android":"levelo://app?vid=88e3a5db-2aa6-4432-8067-6ed9a912292e","ios":"levelo://app?vid=88e3a5db-2aa6-4432-8067-6ed9a912292e"},"vehicle_type_id":"4","last_reported":1748790577,"current_range_meters":10000,"station_id":"","pricing_plan_id":"cebpf4jnsgd1na2vs0mg"},{"bike_id":"f985fef7-3af9-401c-aa4c-0a9943dde790","system_id":"levelo_inurba_marseille","lat":43.27383,"lon":5.36253,"is_reserved":false,"is_disabled":false,"rental_uris":{"android":"levelo://app?vid=f985fef7-3af9-401c-aa4c-0a9943dde790","ios":"levelo://app?vid=f985fef7-3af9-401c-aa4c-0a9943dde790"},"vehicle_type_id":"4","last_reported":1748790577,"current_range_meters":10000,"station_id":"ce4bhbh2rcd13ifvqeo0","pricing_plan_id":"cebpf4jnsgd1na2vs0mg"},{"bike_id":"43d84069-a1ab-47cf-ae7b-2abbaad50795","system_id":"levelo_inurba_marseille","lat":43.2756,"lon":5.38443,"is_reserved":false,"is_disabled":false,"rental_uris":{"android":"levelo://app?vid=43d84069-a1ab-47cf-ae7b-2abbaad50795","ios":"levelo://app?vid=43d84069-a1ab-47cf-ae7b-2abbaad50795"},"vehicle_type_id":"4","last_reported":1748790577,"current_range_meters":10000,"station_id":"ce4bhh92rcd13ifvqfi0","pricing_plan_id":"cebpf4jnsgd1na2vs0mg"},{"bike_id":"5df05316-524d-4046-90a8-d4f2dfb87ecf","system_id":"levelo_inurba_marseille","lat":43.24373,"lon":5.38021,"is_reserved":false,"is_disabled":false,"rental_uris":{"android":"levelo://app?vid=5df05316-524d-4046-90a8-d4f2dfb87ecf","ios":"levelo://app?vid=5df05316-524d-4046-90a8-d4f2dfb87ecf"},"vehicle_type_id":"4","last_reported":1748790577,"current_range_meters":10000,"station_id":"","pricing_plan_id":"cebpf4jnsgd1na2vs0mg"},{"bike_id":"19dea0c0-2f91-4275-b08d-82c62a5f134d","system_id":"levelo_inurba_marseille","lat":43.25091,"lon":5.39513,"is_reserved":false,"is_disabled":false,"rental_uris":{"android":"levelo://app?vid=19dea0c0-2f91-4275-b08d-82c62a5f134d","ios":"levelo://app?vid=19dea0c0-2f91-4275-b08d-82c62a5f134d"},"vehicle_type_id":"4","last_reported":1748790577,"current_range_meters":10000,"station_id":"ce4bhm12rcd13ifvqgkg","pricing_plan_id":"cebpf4jnsgd1na2vs0mg"},{"bike_id":"589f32da-4ec4-455c-b0bc-143fa4e0e056","system_id":"levelo_inurba_marseille","lat":43.2842,"lon":5.34991,"is_reserved":false,"is_disabled":false,"rental_uris":{"android":"levelo://app?vid=589f32da-4ec4-455c-b0bc-143fa4e0e056","ios":"levelo://app?vid=589f32da-4ec4-455c-b0bc-143fa4e0e056"},"vehicle_type_id":"4","last_reported":1748790577,"current_range_meters":10000,"station_id":"ce4bhbh2rcd13ifvqepg","pricing_plan_id":"cebpf4jnsgd1na2vs0mg"},{"bike_id":"d0226586-c166-4538-8bd1-7479c31f3b86","system_id":"levelo_inurba_marseille","lat":43.28256,"lon":5.35086,"is_reserved":false,"is_disabled":false,"rental_uris":{"android":"levelo://app?vid=d0226586-c166-4538-8bd1-7479c31f3b86","ios":"levelo://app?vid=d0226586-c166-4538-8bd1-7479c31f3b86"},"vehicle_type_id":"4","last_reported":1748790577,"current_range_meters":10000,"station_id":"ce4bhbp2rcd13ifvqerg","pricing_plan_id":"cebpf4jnsgd1na2vs0mg"},{"bike_id":"c213034b-f9a3-48e8-9a07-6d97a3c51b73","system_id":"levelo_inurba_marseille","lat":43.251,"lon":5.40343,"is_reserved":false,"is_disabled":true,"rental_uris":{"android":"levelo://app?vid=c213034b-f9a3-48e8-9a07-6d97a3c51b73","ios":"levelo://app?vid=c213034b-f9a3-48e8-9a07-6d97a3c51b73"},"vehicle_type_id":"4","last_reported":1748790577,"current_range_meters":10000,"station_id":"ce4bhlh2rcd13ifvqgig","pricing_plan_id":"cebpf4jnsgd1na2vs0mg"},{"bike_id":"e210be7e-07b8-44d3-ae09-6702f28e2ae8","system_id":"levelo_inurba_marseille","lat":43.25119,"lon":5.39353,"is_reserved":false,"is_disabled":false,"rental_uris":{"android":"levelo://app?vid=e210be7e-07b8-44d3-ae09-6702f28e2ae8","ios":"levelo://app?vid=e210be7e-07b8-44d3-ae09-6702f28e2ae8"},"vehicle_type_id":"4","last_reported":1748790577,"current_range_meters":10000,"station_id":"","pricing_plan_id":"cebpf4jnsgd1na2vs0mg"},{"bike_id":"9a189ee8-27ed-444b-b171-f705371af28f","system_id":"levelo_inurba_marseille","lat":43.28253,"lon":5.3491,"is_reserved":false,"is_disabled":false,"rental_uris":{"android":"levelo://app?vid=9a189ee8-27ed-444b-b171-f705371af28f","ios":"levelo://app?vid=9a189ee8-27ed-444b-b171-f705371af28f"},"vehicle_type_id":"4","last_reported":1748790577,"current_range_meters":10800,"station_id":"","pricing_plan_id":"cebpf4jnsgd1na2vs0mg"},{"bike_id":"5d275565-2d08-4b67-b808-4c0fd3d7335f","system_id":"levelo_inurba_marseille","lat":43.241816,"lon":5.397199,"is_reserved":false,"is_disabled":false,"rental_uris":{"android":"levelo://app?vid=5d275565-2d08-4b67-b808-4c0fd3d7335f","ios":"levelo://app?vid=5d275565-2d08-4b67-b808-4c0fd3d7335f"},"vehicle_type_id":"4","last_reported":1748790577,"current_range_meters":10800,"station_id":"ce4bhn12rcd13ifvqgpg","pricing_plan_id":"cebpf4jnsgd1na2vs0mg"},{"bike_id":"32503fa7-7208-4269-b40f-34ba3dae0f9e","system_id":"levelo_inurba_marseille","lat":43.308729,"lon":5.403687,"is_reserved":false,"is_disabled":false,"rental_uris":{"android":"levelo://app?vid=32503fa7-7208-4269-b40f-34ba3dae0f9e","ios":"levelo://app?vid=32503fa7-7208-4269-b40f-34ba3dae0f9e"},"vehicle_type_id":"4","last_reported":1748790577,"current_range_meters":10800,"station_id":"","pricing_plan_id":"cebpf4jnsgd1na2vs0mg"},{"bike_id":"f8d6271e-8143-4c0a-a2b0-f0ef9bd8dfab","system_id":"levelo_inurba_marseille","lat":43.27509,"lon":5.42484,"is_reserved":false,"is_disabled":false,"rental_uris":{"android":"levelo://app?vid=f8d6271e-8143-4c0a-a2b0-f0ef9bd8dfab","ios":"levelo://app?vid=f8d6271e-8143-4c0a-a2b0-f0ef9bd8dfab"},"vehicle_type_id":"4","last_reported":1748790577,"current_range_meters":10800,"station_id":"ce4bhn92rcd13ifvqgrg","pricing_plan_id":"cebpf4jnsgd1na2vs0mg"},{"bike_id":"21ff3fb6-d282-4e8f-8c65-749c73573e4b","system_id":"levelo_inurba_marseille","lat":43.33724,"lon":5.39223,"is_reserved":false,"is_disabled":false,"rental_uris":{"android":"levelo://app?vid=21ff3fb6-d282-4e8f-8c65-749c73573e4b","ios":"levelo://app?vid=21ff3fb6-d282-4e8f-8c65-749c73573e4b"},"vehicle_type_id":"4","last_reported":1748790577,"current_range_meters":10800,"station_id":"ce4bhr92rcd13ifvqhsg","pricing_plan_id":"cebpf4jnsgd1na2vs0mg"},{"bike_id":"d95a8927-9413-4ee6-b8dd-9b96d5af8d5e","system_id":"levelo_inurba_marseille","lat":43.28347,"lon":5.35011,"is_reserved":false,"is_disabled":false,"rental_uris":{"android":"levelo://app?vid=d95a8927-9413-4ee6-b8dd-9b96d5af8d5e","ios":"levelo://app?vid=d95a8927-9413-4ee6-b8dd-9b96d5af8d5e"},"vehicle_type_id":"4","last_reported":1748790577,"current_range_meters":10800,"station_id":"","pricing_plan_id":"cebpf4jnsgd1na2vs0mg"},{"bike_id":"0d803a4f-9098-48e9-a569-1518365d312f","system_id":"levelo_inurba_marseille","lat":43.26192,"lon":5.37446,"is_reserved":false,"is_disabled":true,"rental_uris":{"android":"levelo://app?vid=0d803a4f-9098-48e9-a569-1518365d312f","ios":"levelo://app?vid=0d803a4f-9098-48e9-a569-1518365d312f"},"vehicle_type_id":"4","last_reported":1748790577,"current_range_meters":10800,"station_id":"ce4bhgp2rcd13ifvqfc0","pricing_plan_id":"cebpf4jnsgd1na2vs0mg"},{"bike_id":"5356d8f5-5b58-4b1d-b436-d492bdf4f503","system_id":"levelo_inurba_marseille","lat":43.2987,"lon":5.39729,"is_reserved":false,"is_disabled":false,"rental_uris":{"android":"levelo://app?vid=5356d8f5-5b58-4b1d-b436-d492bdf4f503","ios":"levelo://app?vid=5356d8f5-5b58-4b1d-b436-d492bdf4f503"},"vehicle_type_id":"4","last_reported":1748790577,"current_range_meters":11200,"station_id":"ce4bh0h2rcd13ifvqd50","pricing_plan_id":"cebpf4jnsgd1na2vs0mg"},{"bike_id":"84e94b65-0704-41b9-b45c-33b81545a7c4","system_id":"levelo_inurba_marseille","lat":43.303064,"lon":5.369042,"is_reserved":false,"is_disabled":true,"rental_uris":{"android":"levelo://app?vid=84e94b65-0704-41b9-b45c-33b81545a7c4","ios":"levelo://app?vid=84e94b65-0704-41b9-b45c-33b81545a7c4"},"vehicle_type_id":"4","last_reported":1748790577,"current_range_meters":11200,"station_id":"ce4bgqh2rcd13ifvqc5g","pricing_plan_id":"cebpf4jnsgd1na2vs0mg"},{"bike_id":"f291c724-e618-4657-aff6-8af53c7b8aa4","system_id":"levelo_inurba_marseille","lat":43.27616,"lon":5.36115,"is_reserved":false,"is_disabled":false,"rental_uris":{"android":"levelo://app?vid=f291c724-e618-4657-aff6-8af53c7b8aa4","ios":"levelo://app?vid=f291c724-e618-4657-aff6-8af53c7b8aa4"},"vehicle_type_id":"4","last_reported":1748790577,"current_range_meters":11200,"station_id":"ce4bgj92rcd13ifvqbe0","pricing_plan_id":"cebpf4jnsgd1na2vs0mg"},{"bike_id":"090d2e47-c7dd-4a5f-9eb4-e5dbd36a07d5","system_id":"levelo_inurba_marseille","lat":43.286133,"lon":5.351055,"is_reserved":false,"is_disabled":false,"rental_uris":{"android":"levelo://app?vid=090d2e47-c7dd-4a5f-9eb4-e5dbd36a07d5","ios":"levelo://app?vid=090d2e47-c7dd-4a5f-9eb4-e5dbd36a07d5"},"vehicle_type_id":"4","last_reported":1748790577,"current_range_meters":11600,"station_id":"ce4bhch2rcd13ifvqeug","pricing_plan_id":"cebpf4jnsgd1na2vs0mg"},{"bike_id":"e12c6e89-2d07-4396-a0fc-c4b20c3c74d2","system_id":"levelo_inurba_marseille","lat":43.29963,"lon":5.38503,"is_reserved":false,"is_disabled":true,"rental_uris":{"android":"levelo://app?vid=e12c6e89-2d07-4396-a0fc-c4b20c3c74d2","ios":"levelo://app?vid=e12c6e89-2d07-4396-a0fc-c4b20c3c74d2"},"vehicle_type_id":"4","last_reported":1748790577,"current_range_meters":11600,"station_id":"ce4bgj92rcd13ifvqbd0","pricing_plan_id":"cebpf4jnsgd1na2vs0mg"},{"bike_id":"41e8b6df-4d26-4a51-8fe8-f8b1c18bc880","system_id":"levelo_inurba_marseille","lat":43.2758,"lon":5.37792,"is_reserved":false,"is_disabled":false,"rental_uris":{"android":"levelo://app?vid=41e8b6df-4d26-4a51-8fe8-f8b1c18bc880","ios":"levelo://app?vid=41e8b6df-4d26-4a51-8fe8-f8b1c18bc880"},"vehicle_type_id":"4","last_reported":1748790577,"current_range_meters":11600,"station_id":"","pricing_plan_id":"cebpf4jnsgd1na2vs0mg"},{"bike_id":"3d2471ba-c5dc-4bcd-a752-6a161f4943cf","system_id":"levelo_inurba_marseille","lat":43.23129,"lon":5.43647,"is_reserved":false,"is_disabled":false,"rental_uris":{"android":"levelo://app?vid=3d2471ba-c5dc-4bcd-a752-6a161f4943cf","ios":"levelo://app?vid=3d2471ba-c5dc-4bcd-a752-6a161f4943cf"},"vehicle_type_id":"4","last_reported":1748790577,"current_range_meters":11600,"station_id":"ce4bhmp2rcd13ifvqgog","pricing_plan_id":"cebpf4jnsgd1na2vs0mg"},{"bike_id":"52138315-f13b-4871-ab78-9e5155a1008c","system_id":"levelo_inurba_marseille","lat":43.32285,"lon":5.38265,"is_reserved":false,"is_disabled":false,"rental_uris":{"android":"levelo://app?vid=52138315-f13b-4871-ab78-9e5155a1008c","ios":"levelo://app?vid=52138315-f13b-4871-ab78-9e5155a1008c"},"vehicle_type_id":"4","last_reported":1748790577,"current_range_meters":11600,"station_id":"ce4bhr12rcd13ifvqhqg","pricing_plan_id":"cebpf4jnsgd1na2vs0mg"},{"bike_id":"8da505a6-9127-4643-9747-98d690037222","system_id":"levelo_inurba_marseille","lat":43.28407,"lon":5.34988,"is_reserved":false,"is_disabled":false,"rental_uris":{"android":"levelo://app?vid=8da505a6-9127-4643-9747-98d690037222","ios":"levelo://app?vid=8da505a6-9127-4643-9747-98d690037222"},"vehicle_type_id":"4","last_reported":1748790577,"current_range_meters":11600,"station_id":"ce4bhbh2rcd13ifvqepg","pricing_plan_id":"cebpf4jnsgd1na2vs0mg"},{"bike_id":"ac08a224-e278-4da8-b823-4e8d52ac1e4b","system_id":"levelo_inurba_marseille","lat":43.23181,"lon":5.40006,"is_reserved":false,"is_disabled":false,"rental_uris":{"android":"levelo://app?vid=ac08a224-e278-4da8-b823-4e8d52ac1e4b","ios":"levelo://app?vid=ac08a224-e278-4da8-b823-4e8d52ac1e4b"},"vehicle_type_id":"4","last_reported":1748790577,"current_range_meters":12000,"station_id":"ce4bhn12rcd13ifvqgqg","pricing_plan_id":"cebpf4jnsgd1na2vs0mg"},{"bike_id":"d0be705b-61f8-4d12-a07b-b168d0bf903d","system_id":"levelo_inurba_marseille","lat":43.23964,"lon":5.36633,"is_reserved":false,"is_disabled":false,"rental_uris":{"android":"levelo://app?vid=d0be705b-61f8-4d12-a07b-b168d0bf903d","ios":"levelo://app?vid=d0be705b-61f8-4d12-a07b-b168d0bf903d"},"vehicle_type_id":"4","last_reported":1748790577,"current_range_meters":12000,"station_id":"ce4bhi12rcd13ifvqfp0","pricing_plan_id":"cebpf4jnsgd1na2vs0mg"},{"bike_id":"f5a90625-b7e8-48a8-90c6-777efe255a32","system_id":"levelo_inurba_marseille","lat":43.251,"lon":5.40968,"is_reserved":false,"is_disabled":false,"rental_uris":{"android":"levelo://app?vid=f5a90625-b7e8-48a8-90c6-777efe255a32","ios":"levelo://app?vid=f5a90625-b7e8-48a8-90c6-777efe255a32"},"vehicle_type_id":"4","last_reported":1748790577,"current_range_meters":12000,"station_id":"","pricing_plan_id":"cebpf4jnsgd1na2vs0mg"},{"bike_id":"fc3e0abc-66d2-42b0-abe4-f028a0b0b1b6","system_id":"levelo_inurba_marseille","lat":43.284114,"lon":5.34981,"is_reserved":false,"is_disabled":false,"rental_uris":{"android":"levelo://app?vid=fc3e0abc-66d2-42b0-abe4-f028a0b0b1b6","ios":"levelo://app?vid=fc3e0abc-66d2-42b0-abe4-f028a0b0b1b6"},"vehicle_type_id":"4","last_reported":1748790577,"current_range_meters":12000,"station_id":"ce4bhbh2rcd13ifvqepg","pricing_plan_id":"cebpf4jnsgd1na2vs0mg"},{"bike_id":"e33bafc2-02e2-4d6c-94fe-339e5eb46a79","system_id":"levelo_inurba_marseille","lat":43.28663,"lon":5.38653,"is_reserved":false,"is_disabled":false,"rental_uris":{"android":"levelo://app?vid=e33bafc2-02e2-4d6c-94fe-339e5eb46a79","ios":"levelo://app?vid=e33bafc2-02e2-4d6c-94fe-339e5eb46a79"},"vehicle_type_id":"4","last_reported":1748790577,"current_range_meters":12000,"station_id":"ce4bh492rcd13ifvqdug","pricing_plan_id":"cebpf4jnsgd1na2vs0mg"},{"bike_id":"bf9b8875-5c44-4f8d-9f02-12147db66e30","system_id":"levelo_inurba_marseille","lat":43.243896,"lon":5.370612,"is_reserved":false,"is_disabled":false,"rental_uris":{"android":"levelo://app?vid=bf9b8875-5c44-4f8d-9f02-12147db66e30","ios":"levelo://app?vid=bf9b8875-5c44-4f8d-9f02-12147db66e30"},"vehicle_type_id":"4","last_reported":1748790577,"current_range_meters":12000,"station_id":"ce4bhhh2rcd13ifvqfk0","pricing_plan_id":"cebpf4jnsgd1na2vs0mg"},{"bike_id":"351a6f72-9c39-411a-a5b8-f92aa3b83d46","system_id":"levelo_inurba_marseille","lat":43.337444,"lon":5.374475,"is_reserved":false,"is_disabled":false,"rental_uris":{"android":"levelo://app?vid=351a6f72-9c39-411a-a5b8-f92aa3b83d46","ios":"levelo://app?vid=351a6f72-9c39-411a-a5b8-f92aa3b83d46"},"vehicle_type_id":"4","last_reported":1748790577,"current_range_meters":12000,"station_id":"","pricing_plan_id":"cebpf4jnsgd1na2vs0mg"},{"bike_id":"c24a9e00-c85a-4a8d-9423-01d90806dbfa","system_id":"levelo_inurba_marseille","lat":43.24186,"lon":5.36416,"is_reserved":false,"is_disabled":false,"rental_uris":{"android":"levelo://app?vid=c24a9e00-c85a-4a8d-9423-01d90806dbfa","ios":"levelo://app?vid=c24a9e00-c85a-4a8d-9423-01d90806dbfa"},"vehicle_type_id":"4","last_reported":1748790577,"current_range_meters":12000,"station_id":"cpo36qri1sfpv3e86is0","pricing_plan_id":"cebpf4jnsgd1na2vs0mg"},{"bike_id":"3c714906-76f2-42cc-b185-ab332f5426c2","system_id":"levelo_inurba_marseille","lat":43.23087,"lon":5.40172,"is_reserved":false,"is_disabled":false,"rental_uris":{"android":"levelo://app?vid=3c714906-76f2-42cc-b185-ab332f5426c2","ios":"levelo://app?vid=3c714906-76f2-42cc-b185-ab332f5426c2"},"vehicle_type_id":"4","last_reported":1748790577,"current_range_meters":12000,"station_id":"","pricing_plan_id":"cebpf4jnsgd1na2vs0mg"},{"bike_id":"76f771a0-d27e-462d-a1fe-7bd311768559","system_id":"levelo_inurba_marseille","lat":43.28422,"lon":5.34986,"is_reserved":false,"is_disabled":true,"rental_uris":{"android":"levelo://app?vid=76f771a0-d27e-462d-a1fe-7bd311768559","ios":"levelo://app?vid=76f771a0-d27e-462d-a1fe-7bd311768559"},"vehicle_type_id":"4","last_reported":1748790577,"current_range_meters":12000,"station_id":"ce4bhbh2rcd13ifvqepg","pricing_plan_id":"cebpf4jnsgd1na2vs0mg"},{"bike_id":"d1c4b609-d8f6-4720-9f4e-1255d9197b0e","system_id":"levelo_inurba_marseille","lat":43.24172,"lon":5.36412,"is_reserved":false,"is_disabled":false,"rental_uris":{"android":"levelo://app?vid=d1c4b609-d8f6-4720-9f4e-1255d9197b0e","ios":"levelo://app?vid=d1c4b609-d8f6-4720-9f4e-1255d9197b0e"},"vehicle_type_id":"4","last_reported":1748790577,"current_range_meters":12400,"station_id":"cpo36qri1sfpv3e86is0","pricing_plan_id":"cebpf4jnsgd1na2vs0mg"},{"bike_id":"8d0dc2bd-d579-4174-be71-d7fd28c50439","system_id":"levelo_inurba_marseille","lat":43.28628,"lon":5.35133,"is_reserved":false,"is_disabled":false,"rental_uris":{"android":"levelo://app?vid=8d0dc2bd-d579-4174-be71-d7fd28c50439","ios":"levelo://app?vid=8d0dc2bd-d579-4174-be71-d7fd28c50439"},"vehicle_type_id":"4","last_reported":1748790577,"current_range_meters":12400,"station_id":"ce4bhch2rcd13ifvqeug","pricing_plan_id":"cebpf4jnsgd1na2vs0mg"},{"bike_id":"69b9053c-05b9-4aeb-b3a8-f249160618aa","system_id":"levelo_inurba_marseille","lat":43.23196,"lon":5.35553,"is_reserved":false,"is_disabled":false,"rental_uris":{"android":"levelo://app?vid=69b9053c-05b9-4aeb-b3a8-f249160618aa","ios":"levelo://app?vid=69b9053c-05b9-4aeb-b3a8-f249160618aa"},"vehicle_type_id":"4","last_reported":1748790577,"current_range_meters":12400,"station_id":"ce4bhu92rcd13ifvqi70","pricing_plan_id":"cebpf4jnsgd1na2vs0mg"},{"bike_id":"05f4943e-a1b2-4577-94ef-7ac30db30d97","system_id":"levelo_inurba_marseille","lat":43.211933,"lon":5.350824,"is_reserved":false,"is_disabled":false,"rental_uris":{"android":"levelo://app?vid=05f4943e-a1b2-4577-94ef-7ac30db30d97","ios":"levelo://app?vid=05f4943e-a1b2-4577-94ef-7ac30db30d97"},"vehicle_type_id":"4","last_reported":1748790577,"current_range_meters":12400,"station_id":"st_cvj6sg6p6f1abm77japg","pricing_plan_id":"cebpf4jnsgd1na2vs0mg"},{"bike_id":"008baeb4-b559-4feb-b7fb-e408fbccfd47","system_id":"levelo_inurba_marseille","lat":43.23059,"lon":5.3549,"is_reserved":false,"is_disabled":false,"rental_uris":{"android":"levelo://app?vid=008baeb4-b559-4feb-b7fb-e408fbccfd47","ios":"levelo://app?vid=008baeb4-b559-4feb-b7fb-e408fbccfd47"},"vehicle_type_id":"4","last_reported":1748790577,"current_range_meters":12400,"station_id":"cpo3342slgdg3j2ifvpg","pricing_plan_id":"cebpf4jnsgd1na2vs0mg"},{"bike_id":"77520d45-03bf-4b26-9f9b-8ac6c162ce6b","system_id":"levelo_inurba_marseille","lat":43.24356,"lon":5.41133,"is_reserved":false,"is_disabled":false,"rental_uris":{"android":"levelo://app?vid=77520d45-03bf-4b26-9f9b-8ac6c162ce6b","ios":"levelo://app?vid=77520d45-03bf-4b26-9f9b-8ac6c162ce6b"},"vehicle_type_id":"4","last_reported":1748790577,"current_range_meters":12400,"station_id":"","pricing_plan_id":"cebpf4jnsgd1na2vs0mg"},{"bike_id":"9f079562-e2fe-45eb-9fb0-0738e6112895","system_id":"levelo_inurba_marseille","lat":43.2738,"lon":5.36261,"is_reserved":false,"is_disabled":false,"rental_uris":{"android":"levelo://app?vid=9f079562-e2fe-45eb-9fb0-0738e6112895","ios":"levelo://app?vid=9f079562-e2fe-45eb-9fb0-0738e6112895"},"vehicle_type_id":"4","last_reported":1748790577,"current_range_meters":12400,"station_id":"ce4bhbh2rcd13ifvqeo0","pricing_plan_id":"cebpf4jnsgd1na2vs0mg"},{"bike_id":"f35d0f1c-ea84-4247-925b-fb4cb9ee5c81","system_id":"levelo_inurba_marseille","lat":43.27376,"lon":5.36255,"is_reserved":false,"is_disabled":false,"rental_uris":{"android":"levelo://app?vid=f35d0f1c-ea84-4247-925b-fb4cb9ee5c81","ios":"levelo://app?vid=f35d0f1c-ea84-4247-925b-fb4cb9ee5c81"},"vehicle_type_id":"4","last_reported":1748790577,"current_range_meters":12400,"station_id":"ce4bhbh2rcd13ifvqeo0","pricing_plan_id":"cebpf4jnsgd1na2vs0mg"},{"bike_id":"03f11a34-c5a5-4d1c-aefa-5ad7b42ff88b","system_id":"levelo_inurba_marseille","lat":43.28433,"lon":5.34998,"is_reserved":false,"is_disabled":false,"rental_uris":{"android":"levelo://app?vid=03f11a34-c5a5-4d1c-aefa-5ad7b42ff88b","ios":"levelo://app?vid=03f11a34-c5a5-4d1c-aefa-5ad7b42ff88b"},"vehicle_type_id":"4","last_reported":1748790577,"current_range_meters":12400,"station_id":"ce4bhbh2rcd13ifvqepg","pricing_plan_id":"cebpf4jnsgd1na2vs0mg"},{"bike_id":"00d5851a-72a1-4fa1-8c45-6763da27be7b","system_id":"levelo_inurba_marseille","lat":43.30427,"lon":5.38878,"is_reserved":false,"is_disabled":false,"rental_uris":{"android":"levelo://app?vid=00d5851a-72a1-4fa1-8c45-6763da27be7b","ios":"levelo://app?vid=00d5851a-72a1-4fa1-8c45-6763da27be7b"},"vehicle_type_id":"4","last_reported":1748790577,"current_range_meters":12800,"station_id":"ce4bgk12rcd13ifvqbi0","pricing_plan_id":"cebpf4jnsgd1na2vs0mg"},{"bike_id":"d22ebb4a-c1eb-45f0-9ac2-4227bcfdae83","system_id":"levelo_inurba_marseille","lat":43.24074,"lon":5.37761,"is_reserved":false,"is_disabled":false,"rental_uris":{"android":"levelo://app?vid=d22ebb4a-c1eb-45f0-9ac2-4227bcfdae83","ios":"levelo://app?vid=d22ebb4a-c1eb-45f0-9ac2-4227bcfdae83"},"vehicle_type_id":"4","last_reported":1748790577,"current_range_meters":12800,"station_id":"ce4bhnp2rcd13ifvqgvg","pricing_plan_id":"cebpf4jnsgd1na2vs0mg"},{"bike_id":"d787cfdb-50c2-451d-8448-0eff07939f1e","system_id":"levelo_inurba_marseille","lat":43.23145,"lon":5.43716,"is_reserved":false,"is_disabled":true,"rental_uris":{"android":"levelo://app?vid=d787cfdb-50c2-451d-8448-0eff07939f1e","ios":"levelo://app?vid=d787cfdb-50c2-451d-8448-0eff07939f1e"},"vehicle_type_id":"4","last_reported":1748790577,"current_range_meters":12800,"station_id":"ce4bhmp2rcd13ifvqgog","pricing_plan_id":"cebpf4jnsgd1na2vs0mg"},{"bike_id":"b8e75e35-b896-4ec7-9d1b-3addd72de50a","system_id":"levelo_inurba_marseille","lat":43.23155,"lon":5.43701,"is_reserved":false,"is_disabled":false,"rental_uris":{"android":"levelo://app?vid=b8e75e35-b896-4ec7-9d1b-3addd72de50a","ios":"levelo://app?vid=b8e75e35-b896-4ec7-9d1b-3addd72de50a"},"vehicle_type_id":"4","last_reported":1748790577,"current_range_meters":12800,"station_id":"ce4bhmp2rcd13ifvqgog","pricing_plan_id":"cebpf4jnsgd1na2vs0mg"},{"bike_id":"c141145b-77e0-4edc-934c-786c3dd9430d","system_id":"levelo_inurba_marseille","lat":43.24398,"lon":5.37062,"is_reserved":false,"is_disabled":false,"rental_uris":{"android":"levelo://app?vid=c141145b-77e0-4edc-934c-786c3dd9430d","ios":"levelo://app?vid=c141145b-77e0-4edc-934c-786c3dd9430d"},"vehicle_type_id":"4","last_reported":1748790577,"current_range_meters":12800,"station_id":"ce4bhhh2rcd13ifvqfk0","pricing_plan_id":"cebpf4jnsgd1na2vs0mg"},{"bike_id":"041ccf7f-d6ad-46ca-9460-64cca4be35d2","system_id":"levelo_inurba_marseille","lat":43.21192,"lon":5.35076,"is_reserved":false,"is_disabled":false,"rental_uris":{"android":"levelo://app?vid=041ccf7f-d6ad-46ca-9460-64cca4be35d2","ios":"levelo://app?vid=041ccf7f-d6ad-46ca-9460-64cca4be35d2"},"vehicle_type_id":"4","last_reported":1748790577,"current_range_meters":12800,"station_id":"st_cvj6sg6p6f1abm77japg","pricing_plan_id":"cebpf4jnsgd1na2vs0mg"},{"bike_id":"08d3aee6-80f2-44c5-8acd-df914b66789a","system_id":"levelo_inurba_marseille","lat":43.23192,"lon":5.35545,"is_reserved":false,"is_disabled":false,"rental_uris":{"android":"levelo://app?vid=08d3aee6-80f2-44c5-8acd-df914b66789a","ios":"levelo://app?vid=08d3aee6-80f2-44c5-8acd-df914b66789a"},"vehicle_type_id":"4","last_reported":1748790577,"current_range_meters":12800,"station_id":"ce4bhu92rcd13ifvqi70","pricing_plan_id":"cebpf4jnsgd1na2vs0mg"},{"bike_id":"1fb0e14c-2ed2-49a1-9b22-dc8a7a1f919b","system_id":"levelo_inurba_marseille","lat":43.29162,"lon":5.40324,"is_reserved":false,"is_disabled":true,"rental_uris":{"android":"levelo://app?vid=1fb0e14c-2ed2-49a1-9b22-dc8a7a1f919b","ios":"levelo://app?vid=1fb0e14c-2ed2-49a1-9b22-dc8a7a1f919b"},"vehicle_type_id":"4","last_reported":1748790577,"current_range_meters":12800,"station_id":"ce4bh312rcd13ifvqdk0","pricing_plan_id":"cebpf4jnsgd1na2vs0mg"},{"bike_id":"3c70328c-14ea-41ad-92f4-d644c258ea81","system_id":"levelo_inurba_marseille","lat":43.23185,"lon":5.39997,"is_reserved":false,"is_disabled":false,"rental_uris":{"android":"levelo://app?vid=3c70328c-14ea-41ad-92f4-d644c258ea81","ios":"levelo://app?vid=3c70328c-14ea-41ad-92f4-d644c258ea81"},"vehicle_type_id":"4","last_reported":1748790577,"current_range_meters":12400,"station_id":"ce4bhn12rcd13ifvqgqg","pricing_plan_id":"cebpf4jnsgd1na2vs0mg"},{"bike_id":"5bc419c6-b812-4e4c-817a-ba7efb520f72","system_id":"levelo_inurba_marseille","lat":43.30138,"lon":5.38779,"is_reserved":false,"is_disabled":false,"rental_uris":{"android":"levelo://app?vid=5bc419c6-b812-4e4c-817a-ba7efb520f72","ios":"levelo://app?vid=5bc419c6-b812-4e4c-817a-ba7efb520f72"},"vehicle_type_id":"4","last_reported":1748790577,"current_range_meters":12400,"station_id":"ce4bghh2rcd13ifvqb60","pricing_plan_id":"cebpf4jnsgd1na2vs0mg"},{"bike_id":"7dea44b7-60b5-4346-974c-d011e7fee9db","system_id":"levelo_inurba_marseille","lat":43.24163,"lon":5.36404,"is_reserved":false,"is_disabled":false,"rental_uris":{"android":"levelo://app?vid=7dea44b7-60b5-4346-974c-d011e7fee9db","ios":"levelo://app?vid=7dea44b7-60b5-4346-974c-d011e7fee9db"},"vehicle_type_id":"4","last_reported":1748790577,"current_range_meters":13600,"station_id":"cpo36qri1sfpv3e86is0","pricing_plan_id":"cebpf4jnsgd1na2vs0mg"},{"bike_id":"1568157f-d6cd-49d6-b02c-610dbb10a4c0","system_id":"levelo_inurba_marseille","lat":43.27384,"lon":5.36255,"is_reserved":false,"is_disabled":false,"rental_uris":{"android":"levelo://app?vid=1568157f-d6cd-49d6-b02c-610dbb10a4c0","ios":"levelo://app?vid=1568157f-d6cd-49d6-b02c-610dbb10a4c0"},"vehicle_type_id":"4","last_reported":1748790577,"current_range_meters":13600,"station_id":"ce4bhbh2rcd13ifvqeo0","pricing_plan_id":"cebpf4jnsgd1na2vs0mg"},{"bike_id":"f8c310ff-7f1e-4846-a3ed-b26bf26e087f","system_id":"levelo_inurba_marseille","lat":43.29222,"lon":5.37896,"is_reserved":false,"is_disabled":false,"rental_uris":{"android":"levelo://app?vid=f8c310ff-7f1e-4846-a3ed-b26bf26e087f","ios":"levelo://app?vid=f8c310ff-7f1e-4846-a3ed-b26bf26e087f"},"vehicle_type_id":"4","last_reported":1748790577,"current_range_meters":13600,"station_id":"","pricing_plan_id":"cebpf4jnsgd1na2vs0mg"},{"bike_id":"bfc6dce9-77ca-4235-96b6-63b5fbc4d6e2","system_id":"levelo_inurba_marseille","lat":43.336744,"lon":5.385734,"is_reserved":false,"is_disabled":false,"rental_uris":{"android":"levelo://app?vid=bfc6dce9-77ca-4235-96b6-63b5fbc4d6e2","ios":"levelo://app?vid=bfc6dce9-77ca-4235-96b6-63b5fbc4d6e2"},"vehicle_type_id":"4","last_reported":1748790577,"current_range_meters":14000,"station_id":"","pricing_plan_id":"cebpf4jnsgd1na2vs0mg"},{"bike_id":"eaf2f441-7a40-4beb-ad41-b0895827a9d2","system_id":"levelo_inurba_marseille","lat":43.26686,"lon":5.38251,"is_reserved":false,"is_disabled":false,"rental_uris":{"android":"levelo://app?vid=eaf2f441-7a40-4beb-ad41-b0895827a9d2","ios":"levelo://app?vid=eaf2f441-7a40-4beb-ad41-b0895827a9d2"},"vehicle_type_id":"4","last_reported":1748790577,"current_range_meters":14000,"station_id":"ce4bhg92rcd13ifvqf90","pricing_plan_id":"cebpf4jnsgd1na2vs0mg"},{"bike_id":"b5806e8c-065c-41e5-8415-4e8c05eadebe","system_id":"levelo_inurba_marseille","lat":43.29234,"lon":5.36104,"is_reserved":false,"is_disabled":true,"rental_uris":{"android":"levelo://app?vid=b5806e8c-065c-41e5-8415-4e8c05eadebe","ios":"levelo://app?vid=b5806e8c-065c-41e5-8415-4e8c05eadebe"},"vehicle_type_id":"4","last_reported":1748790577,"current_range_meters":14000,"station_id":"ce4bhbh2rcd13ifvqeqg","pricing_plan_id":"cebpf4jnsgd1na2vs0mg"},{"bike_id":"da14038c-9989-46ca-b5f1-927413f56e9c","system_id":"levelo_inurba_marseille","lat":43.26197,"lon":5.37937,"is_reserved":false,"is_disabled":false,"rental_uris":{"android":"levelo://app?vid=da14038c-9989-46ca-b5f1-927413f56e9c","ios":"levelo://app?vid=da14038c-9989-46ca-b5f1-927413f56e9c"},"vehicle_type_id":"4","last_reported":1748790577,"current_range_meters":14000,"station_id":"ce4bhjp2rcd13ifvqg90","pricing_plan_id":"cebpf4jnsgd1na2vs0mg"},{"bike_id":"db74bf79-01f2-48f6-9d39-72f0ca961cd4","system_id":"levelo_inurba_marseille","lat":43.24391,"lon":5.37056,"is_reserved":false,"is_disabled":false,"rental_uris":{"android":"levelo://app?vid=db74bf79-01f2-48f6-9d39-72f0ca961cd4","ios":"levelo://app?vid=db74bf79-01f2-48f6-9d39-72f0ca961cd4"},"vehicle_type_id":"4","last_reported":1748790577,"current_range_meters":14400,"station_id":"ce4bhhh2rcd13ifvqfk0","pricing_plan_id":"cebpf4jnsgd1na2vs0mg"},{"bike_id":"eaf56981-6005-409e-947c-097ddbaff2a1","system_id":"levelo_inurba_marseille","lat":43.31683,"lon":5.40476,"is_reserved":false,"is_disabled":false,"rental_uris":{"android":"levelo://app?vid=eaf56981-6005-409e-947c-097ddbaff2a1","ios":"levelo://app?vid=eaf56981-6005-409e-947c-097ddbaff2a1"},"vehicle_type_id":"4","last_reported":1748790577,"current_range_meters":14400,"station_id":"ce4bh012rcd13ifvqd00","pricing_plan_id":"cebpf4jnsgd1na2vs0mg"},{"bike_id":"f52497c8-c108-49fc-9f32-de0765e913e9","system_id":"levelo_inurba_marseille","lat":43.27369,"lon":5.36235,"is_reserved":false,"is_disabled":false,"rental_uris":{"android":"levelo://app?vid=f52497c8-c108-49fc-9f32-de0765e913e9","ios":"levelo://app?vid=f52497c8-c108-49fc-9f32-de0765e913e9"},"vehicle_type_id":"4","last_reported":1748790577,"current_range_meters":14400,"station_id":"ce4bhbh2rcd13ifvqeo0","pricing_plan_id":"cebpf4jnsgd1na2vs0mg"},{"bike_id":"90569407-bca1-41dc-905c-8b3bfbc15260","system_id":"levelo_inurba_marseille","lat":43.273663,"lon":5.362335,"is_reserved":false,"is_disabled":false,"rental_uris":{"android":"levelo://app?vid=90569407-bca1-41dc-905c-8b3bfbc15260","ios":"levelo://app?vid=90569407-bca1-41dc-905c-8b3bfbc15260"},"vehicle_type_id":"4","last_reported":1748790577,"current_range_meters":14400,"station_id":"ce4bhbh2rcd13ifvqeo0","pricing_plan_id":"cebpf4jnsgd1na2vs0mg"},{"bike_id":"f7cca971-f521-43ef-89fd-78ae5ca5a091","system_id":"levelo_inurba_marseille","lat":43.26559,"lon":5.37284,"is_reserved":false,"is_disabled":false,"rental_uris":{"android":"levelo://app?vid=f7cca971-f521-43ef-89fd-78ae5ca5a091","ios":"levelo://app?vid=f7cca971-f521-43ef-89fd-78ae5ca5a091"},"vehicle_type_id":"4","last_reported":1748790577,"current_range_meters":14800,"station_id":"ce4bhg12rcd13ifvqf70","pricing_plan_id":"cebpf4jnsgd1na2vs0mg"},{"bike_id":"6194bd11-cbbb-4e68-a441-7b6e267c9cf8","system_id":"levelo_inurba_marseille","lat":43.26312,"lon":5.37572,"is_reserved":false,"is_disabled":false,"rental_uris":{"android":"levelo://app?vid=6194bd11-cbbb-4e68-a441-7b6e267c9cf8","ios":"levelo://app?vid=6194bd11-cbbb-4e68-a441-7b6e267c9cf8"},"vehicle_type_id":"4","last_reported":1748790577,"current_range_meters":14800,"station_id":"","pricing_plan_id":"cebpf4jnsgd1na2vs0mg"},{"bike_id":"a5a49411-588e-4b5e-94a6-1c2ad2ee88eb","system_id":"levelo_inurba_marseille","lat":43.325331,"lon":5.424916,"is_reserved":false,"is_disabled":false,"rental_uris":{"android":"levelo://app?vid=a5a49411-588e-4b5e-94a6-1c2ad2ee88eb","ios":"levelo://app?vid=a5a49411-588e-4b5e-94a6-1c2ad2ee88eb"},"vehicle_type_id":"4","last_reported":1748790577,"current_range_meters":14800,"station_id":"","pricing_plan_id":"cebpf4jnsgd1na2vs0mg"},{"bike_id":"91df3012-3c0d-4778-aa25-10b21c70d768","system_id":"levelo_inurba_marseille","lat":43.265565,"lon":5.372823,"is_reserved":false,"is_disabled":false,"rental_uris":{"android":"levelo://app?vid=91df3012-3c0d-4778-aa25-10b21c70d768","ios":"levelo://app?vid=91df3012-3c0d-4778-aa25-10b21c70d768"},"vehicle_type_id":"4","last_reported":1748790577,"current_range_meters":15200,"station_id":"","pricing_plan_id":"cebpf4jnsgd1na2vs0mg"},{"bike_id":"5d1e3b11-2e7f-4249-bce2-9e97b826d111","system_id":"levelo_inurba_marseille","lat":43.28409,"lon":5.34977,"is_reserved":false,"is_disabled":false,"rental_uris":{"android":"levelo://app?vid=5d1e3b11-2e7f-4249-bce2-9e97b826d111","ios":"levelo://app?vid=5d1e3b11-2e7f-4249-bce2-9e97b826d111"},"vehicle_type_id":"4","last_reported":1748790577,"current_range_meters":15200,"station_id":"ce4bhbh2rcd13ifvqepg","pricing_plan_id":"cebpf4jnsgd1na2vs0mg"},{"bike_id":"93ba3c6c-e189-45ca-b859-9f97edfd3f42","system_id":"levelo_inurba_marseille","lat":43.24173,"lon":5.36396,"is_reserved":false,"is_disabled":false,"rental_uris":{"android":"levelo://app?vid=93ba3c6c-e189-45ca-b859-9f97edfd3f42","ios":"levelo://app?vid=93ba3c6c-e189-45ca-b859-9f97edfd3f42"},"vehicle_type_id":"4","last_reported":1748790577,"current_range_meters":15200,"station_id":"cpo36qri1sfpv3e86is0","pricing_plan_id":"cebpf4jnsgd1na2vs0mg"},{"bike_id":"670143e9-876b-4b6f-98e3-d8cc82ae0dfc","system_id":"levelo_inurba_marseille","lat":43.28272,"lon":5.35081,"is_reserved":false,"is_disabled":false,"rental_uris":{"android":"levelo://app?vid=670143e9-876b-4b6f-98e3-d8cc82ae0dfc","ios":"levelo://app?vid=670143e9-876b-4b6f-98e3-d8cc82ae0dfc"},"vehicle_type_id":"4","last_reported":1748790577,"current_range_meters":15200,"station_id":"ce4bhbp2rcd13ifvqerg","pricing_plan_id":"cebpf4jnsgd1na2vs0mg"},{"bike_id":"97a58472-f76b-47e3-a716-281b120ccffa","system_id":"levelo_inurba_marseille","lat":43.27918,"lon":5.39584,"is_reserved":false,"is_disabled":true,"rental_uris":{"android":"levelo://app?vid=97a58472-f76b-47e3-a716-281b120ccffa","ios":"levelo://app?vid=97a58472-f76b-47e3-a716-281b120ccffa"},"vehicle_type_id":"4","last_reported":1748790577,"current_range_meters":15200,"station_id":"ce4bhf92rcd13ifvqf40","pricing_plan_id":"cebpf4jnsgd1na2vs0mg"},{"bike_id":"a5b143c3-9dc1-484a-a0f5-a366b3a0e247","system_id":"levelo_inurba_marseille","lat":43.24186,"lon":5.36418,"is_reserved":false,"is_disabled":false,"rental_uris":{"android":"levelo://app?vid=a5b143c3-9dc1-484a-a0f5-a366b3a0e247","ios":"levelo://app?vid=a5b143c3-9dc1-484a-a0f5-a366b3a0e247"},"vehicle_type_id":"4","last_reported":1748790577,"current_range_meters":15200,"station_id":"cpo36qri1sfpv3e86is0","pricing_plan_id":"cebpf4jnsgd1na2vs0mg"},{"bike_id":"1ec6a323-7bb2-4bb8-b7c0-383ec847c198","system_id":"levelo_inurba_marseille","lat":43.22939,"lon":5.35387,"is_reserved":false,"is_disabled":false,"rental_uris":{"android":"levelo://app?vid=1ec6a323-7bb2-4bb8-b7c0-383ec847c198","ios":"levelo://app?vid=1ec6a323-7bb2-4bb8-b7c0-383ec847c198"},"vehicle_type_id":"4","last_reported":1748790577,"current_range_meters":15200,"station_id":"cpo3532slgdg3j2ikp40","pricing_plan_id":"cebpf4jnsgd1na2vs0mg"},{"bike_id":"a71a861c-8712-4698-bad4-c06516ffb36a","system_id":"levelo_inurba_marseille","lat":43.26561,"lon":5.37291,"is_reserved":false,"is_disabled":false,"rental_uris":{"android":"levelo://app?vid=a71a861c-8712-4698-bad4-c06516ffb36a","ios":"levelo://app?vid=a71a861c-8712-4698-bad4-c06516ffb36a"},"vehicle_type_id":"4","last_reported":1748790577,"current_range_meters":15200,"station_id":"ce4bhg12rcd13ifvqf70","pricing_plan_id":"cebpf4jnsgd1na2vs0mg"},{"bike_id":"99fc0013-49ba-4e69-9175-49e177d9845c","system_id":"levelo_inurba_marseille","lat":43.23973,"lon":5.36653,"is_reserved":false,"is_disabled":false,"rental_uris":{"android":"levelo://app?vid=99fc0013-49ba-4e69-9175-49e177d9845c","ios":"levelo://app?vid=99fc0013-49ba-4e69-9175-49e177d9845c"},"vehicle_type_id":"4","last_reported":1748790577,"current_range_meters":16000,"station_id":"ce4bhi12rcd13ifvqfp0","pricing_plan_id":"cebpf4jnsgd1na2vs0mg"},{"bike_id":"9d166f89-4853-4abc-9129-61b3862b6ac8","system_id":"levelo_inurba_marseille","lat":43.28411,"lon":5.35043,"is_reserved":false,"is_disabled":false,"rental_uris":{"android":"levelo://app?vid=9d166f89-4853-4abc-9129-61b3862b6ac8","ios":"levelo://app?vid=9d166f89-4853-4abc-9129-61b3862b6ac8"},"vehicle_type_id":"4","last_reported":1748790577,"current_range_meters":16000,"station_id":"","pricing_plan_id":"cebpf4jnsgd1na2vs0mg"},{"bike_id":"b765ed66-9730-4b06-bfd6-b187ac5f7c3c","system_id":"levelo_inurba_marseille","lat":43.28632,"lon":5.35097,"is_reserved":false,"is_disabled":false,"rental_uris":{"android":"levelo://app?vid=b765ed66-9730-4b06-bfd6-b187ac5f7c3c","ios":"levelo://app?vid=b765ed66-9730-4b06-bfd6-b187ac5f7c3c"},"vehicle_type_id":"4","last_reported":1748790577,"current_range_meters":16000,"station_id":"ce4bhch2rcd13ifvqeug","pricing_plan_id":"cebpf4jnsgd1na2vs0mg"},{"bike_id":"6ce4b28d-795e-4bac-9191-ed8b90ece122","system_id":"levelo_inurba_marseille","lat":43.27939,"lon":5.41049,"is_reserved":false,"is_disabled":false,"rental_uris":{"android":"levelo://app?vid=6ce4b28d-795e-4bac-9191-ed8b90ece122","ios":"levelo://app?vid=6ce4b28d-795e-4bac-9191-ed8b90ece122"},"vehicle_type_id":"4","last_reported":1748790577,"current_range_meters":16000,"station_id":"ce4bhnp2rcd13ifvqh0g","pricing_plan_id":"cebpf4jnsgd1na2vs0mg"},{"bike_id":"9f5506a2-7319-4021-ac08-7ece130e4127","system_id":"levelo_inurba_marseille","lat":43.29415,"lon":5.38604,"is_reserved":false,"is_disabled":true,"rental_uris":{"android":"levelo://app?vid=9f5506a2-7319-4021-ac08-7ece130e4127","ios":"levelo://app?vid=9f5506a2-7319-4021-ac08-7ece130e4127"},"vehicle_type_id":"4","last_reported":1748790577,"current_range_meters":16000,"station_id":"ce4bh2h2rcd13ifvqdh0","pricing_plan_id":"cebpf4jnsgd1na2vs0mg"},{"bike_id":"e4f2e553-75d1-42a7-95cb-b18b90074a93","system_id":"levelo_inurba_marseille","lat":43.31741,"lon":5.38782,"is_reserved":false,"is_disabled":false,"rental_uris":{"android":"levelo://app?vid=e4f2e553-75d1-42a7-95cb-b18b90074a93","ios":"levelo://app?vid=e4f2e553-75d1-42a7-95cb-b18b90074a93"},"vehicle_type_id":"4","last_reported":1748790577,"current_range_meters":16000,"station_id":"","pricing_plan_id":"cebpf4jnsgd1na2vs0mg"},{"bike_id":"d698a491-2f13-4a4d-ada2-0f302f8e678a","system_id":"levelo_inurba_marseille","lat":43.28673,"lon":5.35127,"is_reserved":false,"is_disabled":false,"rental_uris":{"android":"levelo://app?vid=d698a491-2f13-4a4d-ada2-0f302f8e678a","ios":"levelo://app?vid=d698a491-2f13-4a4d-ada2-0f302f8e678a"},"vehicle_type_id":"4","last_reported":1748790577,"current_range_meters":16000,"station_id":"ce4bhch2rcd13ifvqeug","pricing_plan_id":"cebpf4jnsgd1na2vs0mg"},{"bike_id":"e32a573d-12fd-4460-9306-03b7c8e2fe25","system_id":"levelo_inurba_marseille","lat":43.28746,"lon":5.36101,"is_reserved":false,"is_disabled":true,"rental_uris":{"android":"levelo://app?vid=e32a573d-12fd-4460-9306-03b7c8e2fe25","ios":"levelo://app?vid=e32a573d-12fd-4460-9306-03b7c8e2fe25"},"vehicle_type_id":"4","last_reported":1748790577,"current_range_meters":16000,"station_id":"cki0cbj6b192h4jlfktg","pricing_plan_id":"cebpf4jnsgd1na2vs0mg"},{"bike_id":"d5d1ca4c-b959-4455-8514-78556dfb9680","system_id":"levelo_inurba_marseille","lat":43.28265,"lon":5.35091,"is_reserved":false,"is_disabled":false,"rental_uris":{"android":"levelo://app?vid=d5d1ca4c-b959-4455-8514-78556dfb9680","ios":"levelo://app?vid=d5d1ca4c-b959-4455-8514-78556dfb9680"},"vehicle_type_id":"4","last_reported":1748790577,"current_range_meters":16000,"station_id":"ce4bhbp2rcd13ifvqerg","pricing_plan_id":"cebpf4jnsgd1na2vs0mg"},{"bike_id":"59273f64-4b0b-4745-9cad-a7cf896ec233","system_id":"levelo_inurba_marseille","lat":43.231937,"lon":5.355449,"is_reserved":false,"is_disabled":false,"rental_uris":{"android":"levelo://app?vid=59273f64-4b0b-4745-9cad-a7cf896ec233","ios":"levelo://app?vid=59273f64-4b0b-4745-9cad-a7cf896ec233"},"vehicle_type_id":"4","last_reported":1748790577,"current_range_meters":16400,"station_id":"ce4bhu92rcd13ifvqi70","pricing_plan_id":"cebpf4jnsgd1na2vs0mg"},{"bike_id":"b3ca4f43-b3d5-4477-ad41-ef2c298f0ffa","system_id":"levelo_inurba_marseille","lat":43.27617,"lon":5.36103,"is_reserved":false,"is_disabled":false,"rental_uris":{"android":"levelo://app?vid=b3ca4f43-b3d5-4477-ad41-ef2c298f0ffa","ios":"levelo://app?vid=b3ca4f43-b3d5-4477-ad41-ef2c298f0ffa"},"vehicle_type_id":"4","last_reported":1748790577,"current_range_meters":16400,"station_id":"ce4bgj92rcd13ifvqbe0","pricing_plan_id":"cebpf4jnsgd1na2vs0mg"},{"bike_id":"b62bc0f3-3e90-40f2-b35a-ddbcb1bfbcb6","system_id":"levelo_inurba_marseille","lat":43.3211,"lon":5.36771,"is_reserved":false,"is_disabled":false,"rental_uris":{"android":"levelo://app?vid=b62bc0f3-3e90-40f2-b35a-ddbcb1bfbcb6","ios":"levelo://app?vid=b62bc0f3-3e90-40f2-b35a-ddbcb1bfbcb6"},"vehicle_type_id":"4","last_reported":1748790577,"current_range_meters":16400,"station_id":"ce4bhrh2rcd13ifvqhug","pricing_plan_id":"cebpf4jnsgd1na2vs0mg"},{"bike_id":"b441b05c-33fb-4375-a56d-179b84988e95","system_id":"levelo_inurba_marseille","lat":43.23152,"lon":5.4372,"is_reserved":false,"is_disabled":false,"rental_uris":{"android":"levelo://app?vid=b441b05c-33fb-4375-a56d-179b84988e95","ios":"levelo://app?vid=b441b05c-33fb-4375-a56d-179b84988e95"},"vehicle_type_id":"4","last_reported":1748790577,"current_range_meters":16000,"station_id":"ce4bhmp2rcd13ifvqgog","pricing_plan_id":"cebpf4jnsgd1na2vs0mg"},{"bike_id":"b0e77b09-837f-49a5-816e-2b333aa54c52","system_id":"levelo_inurba_marseille","lat":43.27493,"lon":5.42452,"is_reserved":false,"is_disabled":false,"rental_uris":{"android":"levelo://app?vid=b0e77b09-837f-49a5-816e-2b333aa54c52","ios":"levelo://app?vid=b0e77b09-837f-49a5-816e-2b333aa54c52"},"vehicle_type_id":"4","last_reported":1748790577,"current_range_meters":16400,"station_id":"ce4bhn92rcd13ifvqgrg","pricing_plan_id":"cebpf4jnsgd1na2vs0mg"},{"bike_id":"a2b036ba-3694-4bf2-8644-a73e1adf2623","system_id":"levelo_inurba_marseille","lat":43.22934,"lon":5.353841,"is_reserved":false,"is_disabled":false,"rental_uris":{"android":"levelo://app?vid=a2b036ba-3694-4bf2-8644-a73e1adf2623","ios":"levelo://app?vid=a2b036ba-3694-4bf2-8644-a73e1adf2623"},"vehicle_type_id":"4","last_reported":1748790577,"current_range_meters":16400,"station_id":"cpo3532slgdg3j2ikp40","pricing_plan_id":"cebpf4jnsgd1na2vs0mg"},{"bike_id":"d8a83d8e-eb80-4bae-93b4-c23f7b976198","system_id":"levelo_inurba_marseille","lat":43.24191,"lon":5.36434,"is_reserved":false,"is_disabled":false,"rental_uris":{"android":"levelo://app?vid=d8a83d8e-eb80-4bae-93b4-c23f7b976198","ios":"levelo://app?vid=d8a83d8e-eb80-4bae-93b4-c23f7b976198"},"vehicle_type_id":"4","last_reported":1748790577,"current_range_meters":16400,"station_id":"cpo36qri1sfpv3e86is0","pricing_plan_id":"cebpf4jnsgd1na2vs0mg"},{"bike_id":"25e2ffe6-5f8f-4e04-b51e-ebda67c0f9eb","system_id":"levelo_inurba_marseille","lat":43.24804,"lon":5.374556,"is_reserved":false,"is_disabled":false,"rental_uris":{"android":"levelo://app?vid=25e2ffe6-5f8f-4e04-b51e-ebda67c0f9eb","ios":"levelo://app?vid=25e2ffe6-5f8f-4e04-b51e-ebda67c0f9eb"},"vehicle_type_id":"4","last_reported":1748790577,"current_range_meters":16400,"station_id":"ce4bhgh2rcd13ifvqfb0","pricing_plan_id":"cebpf4jnsgd1na2vs0mg"},{"bike_id":"bee91618-6266-48b2-ae30-f7f89e154756","system_id":"levelo_inurba_marseille","lat":43.24196,"lon":5.39759,"is_reserved":false,"is_disabled":false,"rental_uris":{"android":"levelo://app?vid=bee91618-6266-48b2-ae30-f7f89e154756","ios":"levelo://app?vid=bee91618-6266-48b2-ae30-f7f89e154756"},"vehicle_type_id":"4","last_reported":1748790577,"current_range_meters":16400,"station_id":"ce4bhn12rcd13ifvqgpg","pricing_plan_id":"cebpf4jnsgd1na2vs0mg"},{"bike_id":"e5bbf378-4c10-4ddc-900f-2443fd9d9631","system_id":"levelo_inurba_marseille","lat":43.28417,"lon":5.35,"is_reserved":false,"is_disabled":false,"rental_uris":{"android":"levelo://app?vid=e5bbf378-4c10-4ddc-900f-2443fd9d9631","ios":"levelo://app?vid=e5bbf378-4c10-4ddc-900f-2443fd9d9631"},"vehicle_type_id":"4","last_reported":1748790577,"current_range_meters":16400,"station_id":"ce4bhbh2rcd13ifvqepg","pricing_plan_id":"cebpf4jnsgd1na2vs0mg"},{"bike_id":"eeec1ab4-e7e1-4281-8f31-817621443bb7","system_id":"levelo_inurba_marseille","lat":43.307036,"lon":5.373225,"is_reserved":false,"is_disabled":false,"rental_uris":{"android":"levelo://app?vid=eeec1ab4-e7e1-4281-8f31-817621443bb7","ios":"levelo://app?vid=eeec1ab4-e7e1-4281-8f31-817621443bb7"},"vehicle_type_id":"4","last_reported":1748790577,"current_range_meters":16400,"station_id":"","pricing_plan_id":"cebpf4jnsgd1na2vs0mg"},{"bike_id":"7983f32a-d334-4dd5-91bd-1489670cd4ec","system_id":"levelo_inurba_marseille","lat":43.29904,"lon":5.4364,"is_reserved":false,"is_disabled":false,"rental_uris":{"android":"levelo://app?vid=7983f32a-d334-4dd5-91bd-1489670cd4ec","ios":"levelo://app?vid=7983f32a-d334-4dd5-91bd-1489670cd4ec"},"vehicle_type_id":"4","last_reported":1748790577,"current_range_meters":16400,"station_id":"ce4bhpp2rcd13ifvqhfg","pricing_plan_id":"cebpf4jnsgd1na2vs0mg"},{"bike_id":"0e09c9c1-1db9-4633-ad95-ce9accd69e58","system_id":"levelo_inurba_marseille","lat":43.3012,"lon":5.39859,"is_reserved":false,"is_disabled":false,"rental_uris":{"android":"levelo://app?vid=0e09c9c1-1db9-4633-ad95-ce9accd69e58","ios":"levelo://app?vid=0e09c9c1-1db9-4633-ad95-ce9accd69e58"},"vehicle_type_id":"4","last_reported":1748790577,"current_range_meters":16400,"station_id":"ce4bh0h2rcd13ifvqd40","pricing_plan_id":"cebpf4jnsgd1na2vs0mg"},{"bike_id":"e76852b9-c96d-4901-9bd8-11e5bc082a3b","system_id":"levelo_inurba_marseille","lat":43.23203,"lon":5.35551,"is_reserved":false,"is_disabled":false,"rental_uris":{"android":"levelo://app?vid=e76852b9-c96d-4901-9bd8-11e5bc082a3b","ios":"levelo://app?vid=e76852b9-c96d-4901-9bd8-11e5bc082a3b"},"vehicle_type_id":"4","last_reported":1748790577,"current_range_meters":16800,"station_id":"ce4bhu92rcd13ifvqi70","pricing_plan_id":"cebpf4jnsgd1na2vs0mg"},{"bike_id":"0df4d3a5-d8ff-499f-b459-20cbdc168f56","system_id":"levelo_inurba_marseille","lat":43.28411,"lon":5.34996,"is_reserved":false,"is_disabled":false,"rental_uris":{"android":"levelo://app?vid=0df4d3a5-d8ff-499f-b459-20cbdc168f56","ios":"levelo://app?vid=0df4d3a5-d8ff-499f-b459-20cbdc168f56"},"vehicle_type_id":"4","last_reported":1748790577,"current_range_meters":16800,"station_id":"ce4bhbh2rcd13ifvqepg","pricing_plan_id":"cebpf4jnsgd1na2vs0mg"},{"bike_id":"254e030c-a78f-41be-9494-6c89fd4aac35","system_id":"levelo_inurba_marseille","lat":43.28484,"lon":5.35926,"is_reserved":false,"is_disabled":true,"rental_uris":{"android":"levelo://app?vid=254e030c-a78f-41be-9494-6c89fd4aac35","ios":"levelo://app?vid=254e030c-a78f-41be-9494-6c89fd4aac35"},"vehicle_type_id":"4","last_reported":1748790577,"current_range_meters":16800,"station_id":"ce4bhah2rcd13ifvqei0","pricing_plan_id":"cebpf4jnsgd1na2vs0mg"},{"bike_id":"f9707e64-f3a2-4626-8e27-5509f44d3427","system_id":"levelo_inurba_marseille","lat":43.24184,"lon":5.3641,"is_reserved":false,"is_disabled":true,"rental_uris":{"android":"levelo://app?vid=f9707e64-f3a2-4626-8e27-5509f44d3427","ios":"levelo://app?vid=f9707e64-f3a2-4626-8e27-5509f44d3427"},"vehicle_type_id":"4","last_reported":1748790577,"current_range_meters":16800,"station_id":"cpo36qri1sfpv3e86is0","pricing_plan_id":"cebpf4jnsgd1na2vs0mg"},{"bike_id":"d9edca53-1065-47a2-9b52-0241f50707f2","system_id":"levelo_inurba_marseille","lat":43.24135,"lon":5.36415,"is_reserved":false,"is_disabled":false,"rental_uris":{"android":"levelo://app?vid=d9edca53-1065-47a2-9b52-0241f50707f2","ios":"levelo://app?vid=d9edca53-1065-47a2-9b52-0241f50707f2"},"vehicle_type_id":"4","last_reported":1748790577,"current_range_meters":16800,"station_id":"cpo36qri1sfpv3e86is0","pricing_plan_id":"cebpf4jnsgd1na2vs0mg"},{"bike_id":"73220b88-ed7d-4ac9-b2a5-71f377225e34","system_id":"levelo_inurba_marseille","lat":43.25119,"lon":5.40326,"is_reserved":false,"is_disabled":false,"rental_uris":{"android":"levelo://app?vid=73220b88-ed7d-4ac9-b2a5-71f377225e34","ios":"levelo://app?vid=73220b88-ed7d-4ac9-b2a5-71f377225e34"},"vehicle_type_id":"4","last_reported":1748790577,"current_range_meters":16800,"station_id":"ce4bhlh2rcd13ifvqgig","pricing_plan_id":"cebpf4jnsgd1na2vs0mg"},{"bike_id":"5c390cef-3f42-410f-8156-76211208ead2","system_id":"levelo_inurba_marseille","lat":43.23196,"lon":5.35552,"is_reserved":false,"is_disabled":false,"rental_uris":{"android":"levelo://app?vid=5c390cef-3f42-410f-8156-76211208ead2","ios":"levelo://app?vid=5c390cef-3f42-410f-8156-76211208ead2"},"vehicle_type_id":"4","last_reported":1748790577,"current_range_meters":16800,"station_id":"ce4bhu92rcd13ifvqi70","pricing_plan_id":"cebpf4jnsgd1na2vs0mg"},{"bike_id":"e10c0242-61d0-4006-9e0c-3ac83b53140a","system_id":"levelo_inurba_marseille","lat":43.25118,"lon":5.39517,"is_reserved":false,"is_disabled":false,"rental_uris":{"android":"levelo://app?vid=e10c0242-61d0-4006-9e0c-3ac83b53140a","ios":"levelo://app?vid=e10c0242-61d0-4006-9e0c-3ac83b53140a"},"vehicle_type_id":"4","last_reported":1748790577,"current_range_meters":16800,"station_id":"ce4bhm12rcd13ifvqgkg","pricing_plan_id":"cebpf4jnsgd1na2vs0mg"},{"bike_id":"11f07930-ae1a-432e-ba14-35ea50107439","system_id":"levelo_inurba_marseille","lat":43.29048,"lon":5.35908,"is_reserved":false,"is_disabled":false,"rental_uris":{"android":"levelo://app?vid=11f07930-ae1a-432e-ba14-35ea50107439","ios":"levelo://app?vid=11f07930-ae1a-432e-ba14-35ea50107439"},"vehicle_type_id":"4","last_reported":1748790577,"current_range_meters":16800,"station_id":"ce4bha92rcd13ifvqeg0","pricing_plan_id":"cebpf4jnsgd1na2vs0mg"},{"bike_id":"33c35359-5524-4058-83ce-91ea8fac1ba0","system_id":"levelo_inurba_marseille","lat":43.24173,"lon":5.36406,"is_reserved":false,"is_disabled":false,"rental_uris":{"android":"levelo://app?vid=33c35359-5524-4058-83ce-91ea8fac1ba0","ios":"levelo://app?vid=33c35359-5524-4058-83ce-91ea8fac1ba0"},"vehicle_type_id":"4","last_reported":1748790577,"current_range_meters":17200,"station_id":"cpo36qri1sfpv3e86is0","pricing_plan_id":"cebpf4jnsgd1na2vs0mg"},{"bike_id":"2aa1e878-6bf3-4e45-9d1b-911bdae5e848","system_id":"levelo_inurba_marseille","lat":43.28407,"lon":5.34998,"is_reserved":false,"is_disabled":false,"rental_uris":{"android":"levelo://app?vid=2aa1e878-6bf3-4e45-9d1b-911bdae5e848","ios":"levelo://app?vid=2aa1e878-6bf3-4e45-9d1b-911bdae5e848"},"vehicle_type_id":"4","last_reported":1748790577,"current_range_meters":17200,"station_id":"ce4bhbh2rcd13ifvqepg","pricing_plan_id":"cebpf4jnsgd1na2vs0mg"},{"bike_id":"4e92c470-4a18-4e5b-807b-72a69481a319","system_id":"levelo_inurba_marseille","lat":43.28395,"lon":5.34989,"is_reserved":false,"is_disabled":false,"rental_uris":{"android":"levelo://app?vid=4e92c470-4a18-4e5b-807b-72a69481a319","ios":"levelo://app?vid=4e92c470-4a18-4e5b-807b-72a69481a319"},"vehicle_type_id":"4","last_reported":1748790577,"current_range_meters":17200,"station_id":"ce4bhbh2rcd13ifvqepg","pricing_plan_id":"cebpf4jnsgd1na2vs0mg"},{"bike_id":"17825ccb-0f3c-492d-9cfa-11823bbc53be","system_id":"levelo_inurba_marseille","lat":43.29188,"lon":5.35802,"is_reserved":false,"is_disabled":false,"rental_uris":{"android":"levelo://app?vid=17825ccb-0f3c-492d-9cfa-11823bbc53be","ios":"levelo://app?vid=17825ccb-0f3c-492d-9cfa-11823bbc53be"},"vehicle_type_id":"4","last_reported":1748790577,"current_range_meters":17200,"station_id":"ce4bhb12rcd13ifvqel0","pricing_plan_id":"cebpf4jnsgd1na2vs0mg"},{"bike_id":"3d3a71e3-77af-4ca6-a141-cb552463b4e6","system_id":"levelo_inurba_marseille","lat":43.21213,"lon":5.35077,"is_reserved":false,"is_disabled":false,"rental_uris":{"android":"levelo://app?vid=3d3a71e3-77af-4ca6-a141-cb552463b4e6","ios":"levelo://app?vid=3d3a71e3-77af-4ca6-a141-cb552463b4e6"},"vehicle_type_id":"4","last_reported":1748790577,"current_range_meters":17600,"station_id":"st_cvj6sg6p6f1abm77japg","pricing_plan_id":"cebpf4jnsgd1na2vs0mg"},{"bike_id":"b39ecd88-96dd-4c8e-930b-d41d3dc878f1","system_id":"levelo_inurba_marseille","lat":43.2845,"lon":5.39201,"is_reserved":false,"is_disabled":false,"rental_uris":{"android":"levelo://app?vid=b39ecd88-96dd-4c8e-930b-d41d3dc878f1","ios":"levelo://app?vid=b39ecd88-96dd-4c8e-930b-d41d3dc878f1"},"vehicle_type_id":"4","last_reported":1748790577,"current_range_meters":17600,"station_id":"ce4bhoh2rcd13ifvqh5g","pricing_plan_id":"cebpf4jnsgd1na2vs0mg"},{"bike_id":"a8294d9c-3676-4023-a4ed-e4b3c7e26406","system_id":"levelo_inurba_marseille","lat":43.28861,"lon":5.3587,"is_reserved":false,"is_disabled":false,"rental_uris":{"android":"levelo://app?vid=a8294d9c-3676-4023-a4ed-e4b3c7e26406","ios":"levelo://app?vid=a8294d9c-3676-4023-a4ed-e4b3c7e26406"},"vehicle_type_id":"4","last_reported":1748790577,"current_range_meters":17600,"station_id":"ce4bhb12rcd13ifvqem0","pricing_plan_id":"cebpf4jnsgd1na2vs0mg"},{"bike_id":"ae25ec77-1e4d-4bf9-b2df-32d50c46c80c","system_id":"levelo_inurba_marseille","lat":43.28269,"lon":5.3506,"is_reserved":false,"is_disabled":false,"rental_uris":{"android":"levelo://app?vid=ae25ec77-1e4d-4bf9-b2df-32d50c46c80c","ios":"levelo://app?vid=ae25ec77-1e4d-4bf9-b2df-32d50c46c80c"},"vehicle_type_id":"4","last_reported":1748790577,"current_range_meters":17600,"station_id":"ce4bhbp2rcd13ifvqerg","pricing_plan_id":"cebpf4jnsgd1na2vs0mg"},{"bike_id":"157fac85-2c74-46dc-8373-f61ea8482be2","system_id":"levelo_inurba_marseille","lat":43.24675,"lon":5.38168,"is_reserved":false,"is_disabled":true,"rental_uris":{"android":"levelo://app?vid=157fac85-2c74-46dc-8373-f61ea8482be2","ios":"levelo://app?vid=157fac85-2c74-46dc-8373-f61ea8482be2"},"vehicle_type_id":"4","last_reported":1748790577,"current_range_meters":17600,"station_id":"ce4bhih2rcd13ifvqfr0","pricing_plan_id":"cebpf4jnsgd1na2vs0mg"},{"bike_id":"007d31f6-8a68-466a-a0b8-9953d1f293c0","system_id":"levelo_inurba_marseille","lat":43.295657,"lon":5.399727,"is_reserved":false,"is_disabled":true,"rental_uris":{"android":"levelo://app?vid=007d31f6-8a68-466a-a0b8-9953d1f293c0","ios":"levelo://app?vid=007d31f6-8a68-466a-a0b8-9953d1f293c0"},"vehicle_type_id":"4","last_reported":1748790577,"current_range_meters":17600,"station_id":"","pricing_plan_id":"cebpf4jnsgd1na2vs0mg"},{"bike_id":"cb1aac20-660d-4e28-a3b9-e9200dc658a2","system_id":"levelo_inurba_marseille","lat":43.293815,"lon":5.378567,"is_reserved":false,"is_disabled":true,"rental_uris":{"android":"levelo://app?vid=cb1aac20-660d-4e28-a3b9-e9200dc658a2","ios":"levelo://app?vid=cb1aac20-660d-4e28-a3b9-e9200dc658a2"},"vehicle_type_id":"4","last_reported":1748790577,"current_range_meters":17600,"station_id":"ce4bgjh2rcd13ifvqbf0","pricing_plan_id":"cebpf4jnsgd1na2vs0mg"},{"bike_id":"ca816c82-299a-4a02-866a-f8a669549769","system_id":"levelo_inurba_marseille","lat":43.249997,"lon":5.389247,"is_reserved":false,"is_disabled":false,"rental_uris":{"android":"levelo://app?vid=ca816c82-299a-4a02-866a-f8a669549769","ios":"levelo://app?vid=ca816c82-299a-4a02-866a-f8a669549769"},"vehicle_type_id":"4","last_reported":1748790577,"current_range_meters":17600,"station_id":"ce4bhgp2rcd13ifvqfd0","pricing_plan_id":"cebpf4jnsgd1na2vs0mg"},{"bike_id":"e552fc11-eee9-4a61-acef-ec010b1499f8","system_id":"levelo_inurba_marseille","lat":43.28405,"lon":5.34994,"is_reserved":false,"is_disabled":false,"rental_uris":{"android":"levelo://app?vid=e552fc11-eee9-4a61-acef-ec010b1499f8","ios":"levelo://app?vid=e552fc11-eee9-4a61-acef-ec010b1499f8"},"vehicle_type_id":"4","last_reported":1748790577,"current_range_meters":18000,"station_id":"ce4bhbh2rcd13ifvqepg","pricing_plan_id":"cebpf4jnsgd1na2vs0mg"},{"bike_id":"1be354d4-9606-4b01-a539-ba9c4a0edb43","system_id":"levelo_inurba_marseille","lat":43.32118,"lon":5.36788,"is_reserved":false,"is_disabled":false,"rental_uris":{"android":"levelo://app?vid=1be354d4-9606-4b01-a539-ba9c4a0edb43","ios":"levelo://app?vid=1be354d4-9606-4b01-a539-ba9c4a0edb43"},"vehicle_type_id":"4","last_reported":1748790577,"current_range_meters":18000,"station_id":"ce4bhrh2rcd13ifvqhug","pricing_plan_id":"cebpf4jnsgd1na2vs0mg"},{"bike_id":"0ecb1182-6681-40f2-b0cb-a49e025f533a","system_id":"levelo_inurba_marseille","lat":43.27378,"lon":5.36266,"is_reserved":false,"is_disabled":false,"rental_uris":{"android":"levelo://app?vid=0ecb1182-6681-40f2-b0cb-a49e025f533a","ios":"levelo://app?vid=0ecb1182-6681-40f2-b0cb-a49e025f533a"},"vehicle_type_id":"4","last_reported":1748790577,"current_range_meters":18000,"station_id":"ce4bhbh2rcd13ifvqeo0","pricing_plan_id":"cebpf4jnsgd1na2vs0mg"},{"bike_id":"da95f25b-27df-45f4-ae30-9fbde1b4f1a5","system_id":"levelo_inurba_marseille","lat":43.2885,"lon":5.50609,"is_reserved":false,"is_disabled":false,"rental_uris":{"android":"levelo://app?vid=da95f25b-27df-45f4-ae30-9fbde1b4f1a5","ios":"levelo://app?vid=da95f25b-27df-45f4-ae30-9fbde1b4f1a5"},"vehicle_type_id":"4","last_reported":1748790577,"current_range_meters":18000,"station_id":"","pricing_plan_id":"cebpf4jnsgd1na2vs0mg"},{"bike_id":"dc8706df-23fc-4a1f-aac9-771df71c828a","system_id":"levelo_inurba_marseille","lat":43.28599,"lon":5.35112,"is_reserved":false,"is_disabled":false,"rental_uris":{"android":"levelo://app?vid=dc8706df-23fc-4a1f-aac9-771df71c828a","ios":"levelo://app?vid=dc8706df-23fc-4a1f-aac9-771df71c828a"},"vehicle_type_id":"4","last_reported":1748790577,"current_range_meters":18000,"station_id":"ce4bhch2rcd13ifvqeug","pricing_plan_id":"cebpf4jnsgd1na2vs0mg"},{"bike_id":"d5410d48-6d41-4d04-91e4-0e97795495bf","system_id":"levelo_inurba_marseille","lat":43.26189,"lon":5.37461,"is_reserved":false,"is_disabled":true,"rental_uris":{"android":"levelo://app?vid=d5410d48-6d41-4d04-91e4-0e97795495bf","ios":"levelo://app?vid=d5410d48-6d41-4d04-91e4-0e97795495bf"},"vehicle_type_id":"4","last_reported":1748790577,"current_range_meters":18000,"station_id":"ce4bhgp2rcd13ifvqfc0","pricing_plan_id":"cebpf4jnsgd1na2vs0mg"},{"bike_id":"3f7d627d-78ba-40d9-877c-76a27f888a8f","system_id":"levelo_inurba_marseille","lat":43.31356,"lon":5.38486,"is_reserved":false,"is_disabled":false,"rental_uris":{"android":"levelo://app?vid=3f7d627d-78ba-40d9-877c-76a27f888a8f","ios":"levelo://app?vid=3f7d627d-78ba-40d9-877c-76a27f888a8f"},"vehicle_type_id":"4","last_reported":1748790577,"current_range_meters":18000,"station_id":"ce4bgt92rcd13ifvqcf0","pricing_plan_id":"cebpf4jnsgd1na2vs0mg"},{"bike_id":"7f8ab202-46c1-466e-a93d-685dd3763063","system_id":"levelo_inurba_marseille","lat":43.24184,"lon":5.36408,"is_reserved":false,"is_disabled":false,"rental_uris":{"android":"levelo://app?vid=7f8ab202-46c1-466e-a93d-685dd3763063","ios":"levelo://app?vid=7f8ab202-46c1-466e-a93d-685dd3763063"},"vehicle_type_id":"4","last_reported":1748790577,"current_range_meters":18000,"station_id":"cpo36qri1sfpv3e86is0","pricing_plan_id":"cebpf4jnsgd1na2vs0mg"},{"bike_id":"dda13f80-b95d-4de9-9b2f-38a10ceac5b8","system_id":"levelo_inurba_marseille","lat":43.26028,"lon":5.37552,"is_reserved":false,"is_disabled":false,"rental_uris":{"android":"levelo://app?vid=dda13f80-b95d-4de9-9b2f-38a10ceac5b8","ios":"levelo://app?vid=dda13f80-b95d-4de9-9b2f-38a10ceac5b8"},"vehicle_type_id":"4","last_reported":1748790577,"current_range_meters":18000,"station_id":"ce4bhgh2rcd13ifvqfa0","pricing_plan_id":"cebpf4jnsgd1na2vs0mg"},{"bike_id":"31180f62-b026-459c-b75b-98338e57a182","system_id":"levelo_inurba_marseille","lat":43.28026,"lon":5.36954,"is_reserved":false,"is_disabled":false,"rental_uris":{"android":"levelo://app?vid=31180f62-b026-459c-b75b-98338e57a182","ios":"levelo://app?vid=31180f62-b026-459c-b75b-98338e57a182"},"vehicle_type_id":"4","last_reported":1748790577,"current_range_meters":18000,"station_id":"ce4bha12rcd13ifvqef0","pricing_plan_id":"cebpf4jnsgd1na2vs0mg"},{"bike_id":"6f8a9e94-496d-4888-a910-f9b9ba7460e2","system_id":"levelo_inurba_marseille","lat":43.24191,"lon":5.36414,"is_reserved":false,"is_disabled":false,"rental_uris":{"android":"levelo://app?vid=6f8a9e94-496d-4888-a910-f9b9ba7460e2","ios":"levelo://app?vid=6f8a9e94-496d-4888-a910-f9b9ba7460e2"},"vehicle_type_id":"4","last_reported":1748790577,"current_range_meters":18000,"station_id":"cpo36qri1sfpv3e86is0","pricing_plan_id":"cebpf4jnsgd1na2vs0mg"},{"bike_id":"10bce9a9-1208-4b02-9ace-6b5b3cbdf887","system_id":"levelo_inurba_marseille","lat":43.3229,"lon":5.39069,"is_reserved":false,"is_disabled":false,"rental_uris":{"android":"levelo://app?vid=10bce9a9-1208-4b02-9ace-6b5b3cbdf887","ios":"levelo://app?vid=10bce9a9-1208-4b02-9ace-6b5b3cbdf887"},"vehicle_type_id":"4","last_reported":1748790577,"current_range_meters":18800,"station_id":"","pricing_plan_id":"cebpf4jnsgd1na2vs0mg"},{"bike_id":"6170dc2e-9b47-41f6-99b3-139f4f385d5d","system_id":"levelo_inurba_marseille","lat":43.31711,"lon":5.37761,"is_reserved":false,"is_disabled":false,"rental_uris":{"android":"levelo://app?vid=6170dc2e-9b47-41f6-99b3-139f4f385d5d","ios":"levelo://app?vid=6170dc2e-9b47-41f6-99b3-139f4f385d5d"},"vehicle_type_id":"4","last_reported":1748790577,"current_range_meters":18800,"station_id":"ce4bgth2rcd13ifvqch0","pricing_plan_id":"cebpf4jnsgd1na2vs0mg"},{"bike_id":"883f8512-e2e4-4252-9a06-1e65cc55b2f1","system_id":"levelo_inurba_marseille","lat":43.26786,"lon":5.39416,"is_reserved":false,"is_disabled":false,"rental_uris":{"android":"levelo://app?vid=883f8512-e2e4-4252-9a06-1e65cc55b2f1","ios":"levelo://app?vid=883f8512-e2e4-4252-9a06-1e65cc55b2f1"},"vehicle_type_id":"4","last_reported":1748790577,"current_range_meters":18800,"station_id":"ce4bhh12rcd13ifvqfg0","pricing_plan_id":"cebpf4jnsgd1na2vs0mg"},{"bike_id":"298ed691-2bb4-4423-8e41-065932427039","system_id":"levelo_inurba_marseille","lat":43.23196,"lon":5.35555,"is_reserved":false,"is_disabled":false,"rental_uris":{"android":"levelo://app?vid=298ed691-2bb4-4423-8e41-065932427039","ios":"levelo://app?vid=298ed691-2bb4-4423-8e41-065932427039"},"vehicle_type_id":"4","last_reported":1748790577,"current_range_meters":18800,"station_id":"ce4bhu92rcd13ifvqi70","pricing_plan_id":"cebpf4jnsgd1na2vs0mg"},{"bike_id":"c479c76b-c22c-4020-95d5-8b35d8603c34","system_id":"levelo_inurba_marseille","lat":43.27368,"lon":5.36263,"is_reserved":false,"is_disabled":false,"rental_uris":{"android":"levelo://app?vid=c479c76b-c22c-4020-95d5-8b35d8603c34","ios":"levelo://app?vid=c479c76b-c22c-4020-95d5-8b35d8603c34"},"vehicle_type_id":"4","last_reported":1748790577,"current_range_meters":18800,"station_id":"ce4bhbh2rcd13ifvqeo0","pricing_plan_id":"cebpf4jnsgd1na2vs0mg"},{"bike_id":"bf3535f2-5d2a-4e3e-bdf8-70d1e9b8be9b","system_id":"levelo_inurba_marseille","lat":43.32496,"lon":5.3658,"is_reserved":false,"is_disabled":false,"rental_uris":{"android":"levelo://app?vid=bf3535f2-5d2a-4e3e-bdf8-70d1e9b8be9b","ios":"levelo://app?vid=bf3535f2-5d2a-4e3e-bdf8-70d1e9b8be9b"},"vehicle_type_id":"4","last_reported":1748790577,"current_range_meters":18000,"station_id":"ce4bhs12rcd13ifvqhvg","pricing_plan_id":"cebpf4jnsgd1na2vs0mg"},{"bike_id":"21335fe1-e361-4f25-9703-649c07cc251d","system_id":"levelo_inurba_marseille","lat":43.32013,"lon":5.36811,"is_reserved":false,"is_disabled":false,"rental_uris":{"android":"levelo://app?vid=21335fe1-e361-4f25-9703-649c07cc251d","ios":"levelo://app?vid=21335fe1-e361-4f25-9703-649c07cc251d"},"vehicle_type_id":"4","last_reported":1748790577,"current_range_meters":19200,"station_id":"","pricing_plan_id":"cebpf4jnsgd1na2vs0mg"},{"bike_id":"fe8ae147-9576-4013-8b9b-d248745f8ef3","system_id":"levelo_inurba_marseille","lat":43.26586,"lon":5.39079,"is_reserved":false,"is_disabled":false,"rental_uris":{"android":"levelo://app?vid=fe8ae147-9576-4013-8b9b-d248745f8ef3","ios":"levelo://app?vid=fe8ae147-9576-4013-8b9b-d248745f8ef3"},"vehicle_type_id":"4","last_reported":1748790577,"current_range_meters":19200,"station_id":"ce4bhe12rcd13ifvqf30","pricing_plan_id":"cebpf4jnsgd1na2vs0mg"},{"bike_id":"9ea5a2fd-3b9c-4c54-a69f-88226f41e97a","system_id":"levelo_inurba_marseille","lat":43.26552,"lon":5.37287,"is_reserved":false,"is_disabled":false,"rental_uris":{"android":"levelo://app?vid=9ea5a2fd-3b9c-4c54-a69f-88226f41e97a","ios":"levelo://app?vid=9ea5a2fd-3b9c-4c54-a69f-88226f41e97a"},"vehicle_type_id":"4","last_reported":1748790577,"current_range_meters":19200,"station_id":"ce4bhg12rcd13ifvqf70","pricing_plan_id":"cebpf4jnsgd1na2vs0mg"},{"bike_id":"e1f02121-31a5-43ad-a327-2352971981c7","system_id":"levelo_inurba_marseille","lat":43.2623,"lon":5.40418,"is_reserved":false,"is_disabled":false,"rental_uris":{"android":"levelo://app?vid=e1f02121-31a5-43ad-a327-2352971981c7","ios":"levelo://app?vid=e1f02121-31a5-43ad-a327-2352971981c7"},"vehicle_type_id":"4","last_reported":1748790577,"current_range_meters":19200,"station_id":"ce4bhmh2rcd13ifvqgmg","pricing_plan_id":"cebpf4jnsgd1na2vs0mg"},{"bike_id":"600527ed-b197-4b5d-a99c-02537ae290f0","system_id":"levelo_inurba_marseille","lat":43.27392,"lon":5.36253,"is_reserved":false,"is_disabled":false,"rental_uris":{"android":"levelo://app?vid=600527ed-b197-4b5d-a99c-02537ae290f0","ios":"levelo://app?vid=600527ed-b197-4b5d-a99c-02537ae290f0"},"vehicle_type_id":"4","last_reported":1748790577,"current_range_meters":19200,"station_id":"ce4bhbh2rcd13ifvqeo0","pricing_plan_id":"cebpf4jnsgd1na2vs0mg"},{"bike_id":"f259b9ed-d69c-4f8b-b745-4ac929647d88","system_id":"levelo_inurba_marseille","lat":43.21206,"lon":5.35117,"is_reserved":false,"is_disabled":false,"rental_uris":{"android":"levelo://app?vid=f259b9ed-d69c-4f8b-b745-4ac929647d88","ios":"levelo://app?vid=f259b9ed-d69c-4f8b-b745-4ac929647d88"},"vehicle_type_id":"4","last_reported":1748790577,"current_range_meters":19200,"station_id":"st_cvj6sg6p6f1abm77japg","pricing_plan_id":"cebpf4jnsgd1na2vs0mg"},{"bike_id":"55ac09ca-190d-4604-9f71-cbf52c107ef4","system_id":"levelo_inurba_marseille","lat":43.29266,"lon":5.38436,"is_reserved":false,"is_disabled":false,"rental_uris":{"android":"levelo://app?vid=55ac09ca-190d-4604-9f71-cbf52c107ef4","ios":"levelo://app?vid=55ac09ca-190d-4604-9f71-cbf52c107ef4"},"vehicle_type_id":"4","last_reported":1748790577,"current_range_meters":19200,"station_id":"ce4bh692rcd13ifvqea0","pricing_plan_id":"cebpf4jnsgd1na2vs0mg"},{"bike_id":"05bd3804-25a5-493f-b613-d0aa2cf208db","system_id":"levelo_inurba_marseille","lat":43.28505,"lon":5.35438,"is_reserved":false,"is_disabled":false,"rental_uris":{"android":"levelo://app?vid=05bd3804-25a5-493f-b613-d0aa2cf208db","ios":"levelo://app?vid=05bd3804-25a5-493f-b613-d0aa2cf208db"},"vehicle_type_id":"4","last_reported":1748790577,"current_range_meters":19200,"station_id":"","pricing_plan_id":"cebpf4jnsgd1na2vs0mg"},{"bike_id":"3513f1f3-8c6c-495a-8d4c-fb2be1b7532b","system_id":"levelo_inurba_marseille","lat":43.29632,"lon":5.37531,"is_reserved":false,"is_disabled":true,"rental_uris":{"android":"levelo://app?vid=3513f1f3-8c6c-495a-8d4c-fb2be1b7532b","ios":"levelo://app?vid=3513f1f3-8c6c-495a-8d4c-fb2be1b7532b"},"vehicle_type_id":"4","last_reported":1748790577,"current_range_meters":19600,"station_id":"","pricing_plan_id":"cebpf4jnsgd1na2vs0mg"},{"bike_id":"ec1ec44d-5486-41a9-96d1-27a18b1b81a0","system_id":"levelo_inurba_marseille","lat":43.28261,"lon":5.35069,"is_reserved":false,"is_disabled":false,"rental_uris":{"android":"levelo://app?vid=ec1ec44d-5486-41a9-96d1-27a18b1b81a0","ios":"levelo://app?vid=ec1ec44d-5486-41a9-96d1-27a18b1b81a0"},"vehicle_type_id":"4","last_reported":1748790577,"current_range_meters":19600,"station_id":"ce4bhbp2rcd13ifvqerg","pricing_plan_id":"cebpf4jnsgd1na2vs0mg"},{"bike_id":"0d16f474-0514-4105-a3d8-0c17198701df","system_id":"levelo_inurba_marseille","lat":43.24408,"lon":5.3707,"is_reserved":false,"is_disabled":true,"rental_uris":{"android":"levelo://app?vid=0d16f474-0514-4105-a3d8-0c17198701df","ios":"levelo://app?vid=0d16f474-0514-4105-a3d8-0c17198701df"},