{"last_updated":1717780043,"ttl":30,"version":"2.2","data":{"bikes":[{"bike_id":"4d8b435c-e536-496c-a178-ca6e2bc06c98","system_id":"levelo_inurba_marseille","lat":43.309039,"lon":5.371797,"is_reserved":false,"is_disabled":false,"rental_uris":{"android":"levelo://app?vid=4d8b435c-e536-496c-a178-ca6e2bc06c98","ios":"levelo://app?vid=4d8b435c-e536-496c-a178-ca6e2bc06c98"},"vehicle_type_id":"4","last_reported":1717780043,"current_range_meters":400,"station_id":"ce4bguh2rcd13ifvqckg","pricing_plan_id":"cebpf4jnsgd1na2vs0mg"},{"bike_id":"72b0ca43-74ab-4b80-a089-aafe37485377","system_id":"levelo_inurba_marseille","lat":43.309076,"lon":5.368465,"is_reserved":false,"is_disabled":false,"rental_uris":{"android":"levelo://app?vid=72b0ca43-74ab-4b80-a089-aafe37485377","ios":"levelo://app?vid=72b0ca43-74ab-4b80-a089-aafe37485377"},"vehicle_type_id":"4","last_reported":1717780043,"current_range_meters":17600,"station_id":"ce4bgn92rcd13ifvqbvg","pricing_plan_id":"cebpf4jnsgd1na2vs0mg"},{"bike_id":"8f54fd8b-298d-4b8a-90c5-9c6c5f2424a6","system_id":"levelo_inurba_marseille","lat":43.314811,"lon":5.373104,"is_reserved":false,"is_disabled":false,"rental_uris":{"android":"levelo://app?vid=8f54fd8b-298d-4b8a-90c5-9c6c5f2424a6","ios":"levelo://app?vid=8f54fd8b-298d-4b8a-90c5-9c6c5f2424a6"},"vehicle_type_id":"4","last_reported":1717780043,"current_range_meters":2400,"station_id":"ce4bgt12rcd13ifvqcd0","pricing_plan_id":"cebpf4jnsgd1na2vs0mg"},{"bike_id":"ee7383d4-fdd8-46f9-ad27-c5193471fa6d","system_id":"levelo_inurba_marseille","lat":43.3158,"lon":5.37483,"is_reserved":false,"is_disabled":false,"rental_uris":{"android":"levelo://app?vid=ee7383d4-fdd8-46f9-ad27-c5193471fa6d","ios":"levelo://app?vid=ee7383d4-fdd8-46f9-ad27-c5193471fa6d"},"vehicle_type_id":"4","last_reported":1717780043,"current_range_meters":0,"station_id":"","pricing_plan_id":"cebpf4jnsgd1na2vs0mg"},{"bike_id":"3831026c-bf7d-4276-aaf4-28622c390a44","system_id":"levelo_inurba_marseille","lat":43.305714,"lon":5.365633,"is_reserved":false,"is_disabled":false,"rental_uris":{"android":"levelo://app?vid=3831026c-bf7d-4276-aaf4-28622c390a44","ios":"levelo://app?vid=3831026c-bf7d-4276-aaf4-28622c390a44"},"vehicle_type_id":"4","last_reported":1717780043,"current_range_meters":0,"station_id":"ce4bgs12rcd13ifvqcag","pricing_plan_id":"cebpf4jnsgd1na2vs0mg"},{"bike_id":"f6f68d46-dcd0-421f-a901-9c77b7b1d205","system_id":"levelo_inurba_marseille","lat":43.30537,"lon":5.367345,"is_reserved":false,"is_disabled":false,"rental_uris":{"android":"levelo://app?vid=f6f68d46-dcd0-421f-a901-9c77b7b1d205","ios":"levelo://app?vid=f6f68d46-dcd0-421f-a901-9c77b7b1d205"},"vehicle_type_id":"4","last_reported":1717780043,"current_range_meters":0,"station_id":"ce4bgrp2rcd13ifvqc9g","pricing_plan_id":"cebpf4jnsgd1na2vs0mg"},{"bike_id":"d7ebc416-1854-4b70-83be-dfc91d3f13cf","system_id":"levelo_inurba_marseille","lat":43.30537,"lon":5.367345,"is_reserved":false,"is_disabled":false,"rental_uris":{"android":"levelo://app?vid=d7ebc416-1854-4b70-83be-dfc91d3f13cf","ios":"levelo://app?vid=d7ebc416-1854-4b70-83be-dfc91d3f13cf"},"vehicle_type_id":"4","last_reported":1717780043,"current_range_meters":8000,"station_id":"ce4bgrp2rcd13ifvqc9g","pricing_plan_id":"cebpf4jnsgd1na2vs0mg"},{"bike_id":"6711a720-4be1-4766-9812-54d9f67bc267","system_id":"levelo_inurba_marseille","lat":43.3183,"lon":5.37368,"is_reserved":false,"is_disabled":false,"rental_uris":{"android":"levelo://app?vid=6711a720-4be1-4766-9812-54d9f67bc267","ios":"levelo://app?vid=6711a720-4be1-4766-9812-54d9f67bc267"},"vehicle_type_id":"4","last_reported":1717780043,"current_range_meters":15200,"station_id":"","pricing_plan_id":"cebpf4jnsgd1na2vs0mg"},{"bike_id":"2be474a2-0edc-43c5-a367-9a075b46d2aa","system_id":"levelo_inurba_marseille","lat":43.305294,"lon":5.365807,"is_reserved":false,"is_disabled":false,"rental_uris":{"android":"levelo://app?vid=2be474a2-0edc-43c5-a367-9a075b46d2aa","ios":"levelo://app?vid=2be474a2-0edc-43c5-a367-9a075b46d2aa"},"vehicle_type_id":"4","last_reported":1717780043,"current_range_meters":0,"station_id":"ce4bgs12rcd13ifvqcag","pricing_plan_id":"cebpf4jnsgd1na2vs0mg"},{"bike_id":"a993e75c-78d2-4d4f-a208-d3c118b08dc3","system_id":"levelo_inurba_marseille","lat":43.311125,"lon":5.377624,"is_reserved":false,"is_disabled":false,"rental_uris":{"android":"levelo://app?vid=a993e75c-78d2-4d4f-a208-d3c118b08dc3","ios":"levelo://app?vid=a993e75c-78d2-4d4f-a208-d3c118b08dc3"},"vehicle_type_id":"4","last_reported":1717780043,"current_range_meters":15200,"station_id":"ce4bgt92rcd13ifvqcg0","pricing_plan_id":"cebpf4jnsgd1na2vs0mg"},{"bike_id":"a8af5b6d-f727-4cb8-a422-029078cfc90f","system_id":"levelo_inurba_marseille","lat":43.303424,"lon":5.368244,"is_reserved":false,"is_disabled":false,"rental_uris":{"android":"levelo://app?vid=a8af5b6d-f727-4cb8-a422-029078cfc90f","ios":"levelo://app?vid=a8af5b6d-f727-4cb8-a422-029078cfc90f"},"vehicle_type_id":"4","last_reported":1717780043,"current_range_meters":21600,"station_id":"","pricing_plan_id":"cebpf4jnsgd1na2vs0mg"},{"bike_id":"ba6d3cd6-a346-476c-9b5d-3b03c0c0c0b7","system_id":"levelo_inurba_marseille","lat":43.303046,"lon":5.368981,"is_reserved":false,"is_disabled":false,"rental_uris":{"android":"levelo://app?vid=ba6d3cd6-a346-476c-9b5d-3b03c0c0c0b7","ios":"levelo://app?vid=ba6d3cd6-a346-476c-9b5d-3b03c0c0c0b7"},"vehicle_type_id":"4","last_reported":1717780043,"current_range_meters":0,"station_id":"ce4bgqh2rcd13ifvqc5g","pricing_plan_id":"cebpf4jnsgd1na2vs0mg"},{"bike_id":"edea9eaa-f3b2-4cbb-88a3-5771130e06f8","system_id":"levelo_inurba_marseille","lat":43.315289,"lon":5.380349,"is_reserved":false,"is_disabled":false,"rental_uris":{"android":"levelo://app?vid=edea9eaa-f3b2-4cbb-88a3-5771130e06f8","ios":"levelo://app?vid=edea9eaa-f3b2-4cbb-88a3-5771130e06f8"},"vehicle_type_id":"4","last_reported":1717780043,"current_range_meters":800,"station_id":"ce4bhsp2rcd13ifvqi50","pricing_plan_id":"cebpf4jnsgd1na2vs0mg"},{"bike_id":"3cc3a32b-6a5e-4fe3-ba61-7b554d88864a","system_id":"levelo_inurba_marseille","lat":43.301939,"lon":5.366286,"is_reserved":false,"is_disabled":false,"rental_uris":{"android":"levelo://app?vid=3cc3a32b-6a5e-4fe3-ba61-7b554d88864a","ios":"levelo://app?vid=3cc3a32b-6a5e-4fe3-ba61-7b554d88864a"},"vehicle_type_id":"4","last_reported":1717780043,"current_range_meters":0,"station_id":"ce4bgrh2rcd13ifvqc8g","pricing_plan_id":"cebpf4jnsgd1na2vs0mg"},{"bike_id":"4cda28a8-ec7a-412b-9e7a-8b64a65b12e6","system_id":"levelo_inurba_marseille","lat":43.308012,"lon":5.381511,"is_reserved":false,"is_disabled":false,"rental_uris":{"android":"levelo://app?vid=4cda28a8-ec7a-412b-9e7a-8b64a65b12e6","ios":"levelo://app?vid=4cda28a8-ec7a-412b-9e7a-8b64a65b12e6"},"vehicle_type_id":"4","last_reported":1717780043,"current_range_meters":14800,"station_id":"ce4bgt12rcd13ifvqce0","pricing_plan_id":"cebpf4jnsgd1na2vs0mg"},{"bike_id":"53295028-3f58-42d0-84d8-686ed73f20d0","system_id":"levelo_inurba_marseille","lat":43.31795,"lon":5.38118,"is_reserved":false,"is_disabled":false,"rental_uris":{"android":"levelo://app?vid=53295028-3f58-42d0-84d8-686ed73f20d0","ios":"levelo://app?vid=53295028-3f58-42d0-84d8-686ed73f20d0"},"vehicle_type_id":"4","last_reported":1717780043,"current_range_meters":19600,"station_id":"","pricing_plan_id":"cebpf4jnsgd1na2vs0mg"},{"bike_id":"30e53fa0-09d6-4b91-8445-85a86d924732","system_id":"levelo_inurba_marseille","lat":43.304606,"lon":5.379026,"is_reserved":false,"is_disabled":false,"rental_uris":{"android":"levelo://app?vid=30e53fa0-09d6-4b91-8445-85a86d924732","ios":"levelo://app?vid=30e53fa0-09d6-4b91-8445-85a86d924732"},"vehicle_type_id":"4","last_reported":1717780043,"current_range_meters":14800,"station_id":"ce4bgup2rcd13ifvqcn0","pricing_plan_id":"cebpf4jnsgd1na2vs0mg"},{"bike_id":"0ce93583-1297-47a8-8cd8-4172fe747f38","system_id":"levelo_inurba_marseille","lat":43.304606,"lon":5.379026,"is_reserved":false,"is_disabled":false,"rental_uris":{"android":"levelo://app?vid=0ce93583-1297-47a8-8cd8-4172fe747f38","ios":"levelo://app?vid=0ce93583-1297-47a8-8cd8-4172fe747f38"},"vehicle_type_id":"4","last_reported":1717780043,"current_range_meters":0,"station_id":"ce4bgup2rcd13ifvqcn0","pricing_plan_id":"cebpf4jnsgd1na2vs0mg"},{"bike_id":"3c9fe599-11ef-4904-ac9f-222bc966a693","system_id":"levelo_inurba_marseille","lat":43.30903,"lon":5.38273,"is_reserved":false,"is_disabled":false,"rental_uris":{"android":"levelo://app?vid=3c9fe599-11ef-4904-ac9f-222bc966a693","ios":"levelo://app?vid=3c9fe599-11ef-4904-ac9f-222bc966a693"},"vehicle_type_id":"4","last_reported":1717780043,"current_range_meters":6000,"station_id":"","pricing_plan_id":"cebpf4jnsgd1na2vs0mg"},{"bike_id":"f3fa49d3-adc2-4971-84b8-5e268d765da5","system_id":"levelo_inurba_marseille","lat":43.324771,"lon":5.36557,"is_reserved":false,"is_disabled":false,"rental_uris":{"android":"levelo://app?vid=f3fa49d3-adc2-4971-84b8-5e268d765da5","ios":"levelo://app?vid=f3fa49d3-adc2-4971-84b8-5e268d765da5"},"vehicle_type_id":"4","last_reported":1717780043,"current_range_meters":18000,"station_id":"ce4bhs12rcd13ifvqhvg","pricing_plan_id":"cebpf4jnsgd1na2vs0mg"},{"bike_id":"f53aec01-0aa5-4377-9da5-18a6e84ccbfe","system_id":"levelo_inurba_marseille","lat":43.324771,"lon":5.36557,"is_reserved":false,"is_disabled":false,"rental_uris":{"android":"levelo://app?vid=f53aec01-0aa5-4377-9da5-18a6e84ccbfe","ios":"levelo://app?vid=f53aec01-0aa5-4377-9da5-18a6e84ccbfe"},"vehicle_type_id":"4","last_reported":1717780043,"current_range_meters":28400,"station_id":"ce4bhs12rcd13ifvqhvg","pricing_plan_id":"cebpf4jnsgd1na2vs0mg"},{"bike_id":"8b1cf84b-abce-483f-84a6-70393928fc89","system_id":"levelo_inurba_marseille","lat":43.31074,"lon":5.38351,"is_reserved":false,"is_disabled":false,"rental_uris":{"android":"levelo://app?vid=8b1cf84b-abce-483f-84a6-70393928fc89","ios":"levelo://app?vid=8b1cf84b-abce-483f-84a6-70393928fc89"},"vehicle_type_id":"4","last_reported":1717780043,"current_range_meters":0,"station_id":"ce4bgv92rcd13ifvqcr0","pricing_plan_id":"cebpf4jnsgd1na2vs0mg"},{"bike_id":"216b003a-669e-41ea-a542-ba3384a6185f","system_id":"levelo_inurba_marseille","lat":43.31072,"lon":5.383508,"is_reserved":false,"is_disabled":false,"rental_uris":{"android":"levelo://app?vid=216b003a-669e-41ea-a542-ba3384a6185f","ios":"levelo://app?vid=216b003a-669e-41ea-a542-ba3384a6185f"},"vehicle_type_id":"4","last_reported":1717780043,"current_range_meters":0,"station_id":"ce4bgv92rcd13ifvqcr0","pricing_plan_id":"cebpf4jnsgd1na2vs0mg"},{"bike_id":"b7ca7cc0-2c94-4c87-9ead-59eaad1158df","system_id":"levelo_inurba_marseille","lat":43.310804,"lon":5.38359,"is_reserved":false,"is_disabled":false,"rental_uris":{"android":"levelo://app?vid=b7ca7cc0-2c94-4c87-9ead-59eaad1158df","ios":"levelo://app?vid=b7ca7cc0-2c94-4c87-9ead-59eaad1158df"},"vehicle_type_id":"4","last_reported":1717780043,"current_range_meters":0,"station_id":"ce4bgv92rcd13ifvqcr0","pricing_plan_id":"cebpf4jnsgd1na2vs0mg"},{"bike_id":"0c52dce3-d850-4f8b-926e-7fe346d77026","system_id":"levelo_inurba_marseille","lat":43.310804,"lon":5.38359,"is_reserved":false,"is_disabled":false,"rental_uris":{"android":"levelo://app?vid=0c52dce3-d850-4f8b-926e-7fe346d77026","ios":"levelo://app?vid=0c52dce3-d850-4f8b-926e-7fe346d77026"},"vehicle_type_id":"4","last_reported":1717780043,"current_range_meters":14800,"station_id":"ce4bgv92rcd13ifvqcr0","pricing_plan_id":"cebpf4jnsgd1na2vs0mg"},{"bike_id":"37c34ae9-bd8c-49b2-aa4b-aac96d0461bf","system_id":"levelo_inurba_marseille","lat":43.310804,"lon":5.38359,"is_reserved":false,"is_disabled":false,"rental_uris":{"android":"levelo://app?vid=37c34ae9-bd8c-49b2-aa4b-aac96d0461bf","ios":"levelo://app?vid=37c34ae9-bd8c-49b2-aa4b-aac96d0461bf"},"vehicle_type_id":"4","last_reported":1717780043,"current_range_meters":6400,"station_id":"ce4bgv92rcd13ifvqcr0","pricing_plan_id":"cebpf4jnsgd1na2vs0mg"},{"bike_id":"9d98b88c-d407-4a1e-a959-46df0e273483","system_id":"levelo_inurba_marseille","lat":43.302784,"lon":5.377158,"is_reserved":false,"is_disabled":false,"rental_uris":{"android":"levelo://app?vid=9d98b88c-d407-4a1e-a959-46df0e273483","ios":"levelo://app?vid=9d98b88c-d407-4a1e-a959-46df0e273483"},"vehicle_type_id":"4","last_reported":1717780043,"current_range_meters":400,"station_id":"ce4bguh2rcd13ifvqcj0","pricing_plan_id":"cebpf4jnsgd1na2vs0mg"},{"bike_id":"7bc1fe16-89e1-4796-abae-5cb10ad461b1","system_id":"levelo_inurba_marseille","lat":43.302784,"lon":5.377158,"is_reserved":false,"is_disabled":false,"rental_uris":{"android":"levelo://app?vid=7bc1fe16-89e1-4796-abae-5cb10ad461b1","ios":"levelo://app?vid=7bc1fe16-89e1-4796-abae-5cb10ad461b1"},"vehicle_type_id":"4","last_reported":1717780043,"current_range_meters":27200,"station_id":"ce4bguh2rcd13ifvqcj0","pricing_plan_id":"cebpf4jnsgd1na2vs0mg"},{"bike_id":"1bc9f33c-40a3-43cf-b4a6-b8f7af51aeb4","system_id":"levelo_inurba_marseille","lat":43.30142,"lon":5.37411,"is_reserved":false,"is_disabled":false,"rental_uris":{"android":"levelo://app?vid=1bc9f33c-40a3-43cf-b4a6-b8f7af51aeb4","ios":"levelo://app?vid=1bc9f33c-40a3-43cf-b4a6-b8f7af51aeb4"},"vehicle_type_id":"4","last_reported":1717780043,"current_range_meters":0,"station_id":"ce4bgs92rcd13ifvqcc0","pricing_plan_id":"cebpf4jnsgd1na2vs0mg"},{"bike_id":"b5164740-e863-4cf5-bd31-be4917092857","system_id":"levelo_inurba_marseille","lat":43.319845,"lon":5.38139,"is_reserved":false,"is_disabled":false,"rental_uris":{"android":"levelo://app?vid=b5164740-e863-4cf5-bd31-be4917092857","ios":"levelo://app?vid=b5164740-e863-4cf5-bd31-be4917092857"},"vehicle_type_id":"4","last_reported":1717780043,"current_range_meters":0,"station_id":"ce4bhr12rcd13ifvqhpg","pricing_plan_id":"cebpf4jnsgd1na2vs0mg"},{"bike_id":"deb4d2cc-bcf8-4c40-9b7c-53928f047508","system_id":"levelo_inurba_marseille","lat":43.324771,"lon":5.36557,"is_reserved":false,"is_disabled":false,"rental_uris":{"android":"levelo://app?vid=deb4d2cc-bcf8-4c40-9b7c-53928f047508","ios":"levelo://app?vid=deb4d2cc-bcf8-4c40-9b7c-53928f047508"},"vehicle_type_id":"4","last_reported":1717780043,"current_range_meters":7200,"station_id":"ce4bhs12rcd13ifvqhvg","pricing_plan_id":"cebpf4jnsgd1na2vs0mg"},{"bike_id":"ca5651ca-8c34-482d-8ec8-83f047b15163","system_id":"levelo_inurba_marseille","lat":43.31991,"lon":5.38144,"is_reserved":false,"is_disabled":false,"rental_uris":{"android":"levelo://app?vid=ca5651ca-8c34-482d-8ec8-83f047b15163","ios":"levelo://app?vid=ca5651ca-8c34-482d-8ec8-83f047b15163"},"vehicle_type_id":"4","last_reported":1717780043,"current_range_meters":10000,"station_id":"ce4bhr12rcd13ifvqhpg","pricing_plan_id":"cebpf4jnsgd1na2vs0mg"},{"bike_id":"59a7dbc3-5436-4fb7-9262-6d8b8803ca0b","system_id":"levelo_inurba_marseille","lat":43.313571,"lon":5.384829,"is_reserved":false,"is_disabled":false,"rental_uris":{"android":"levelo://app?vid=59a7dbc3-5436-4fb7-9262-6d8b8803ca0b","ios":"levelo://app?vid=59a7dbc3-5436-4fb7-9262-6d8b8803ca0b"},"vehicle_type_id":"4","last_reported":1717780043,"current_range_meters":4800,"station_id":"ce4bgt92rcd13ifvqcf0","pricing_plan_id":"cebpf4jnsgd1na2vs0mg"},{"bike_id":"f35fd368-7732-4129-bf31-98bc6f1bd7d8","system_id":"levelo_inurba_marseille","lat":43.299222,"lon":5.365554,"is_reserved":false,"is_disabled":false,"rental_uris":{"android":"levelo://app?vid=f35fd368-7732-4129-bf31-98bc6f1bd7d8","ios":"levelo://app?vid=f35fd368-7732-4129-bf31-98bc6f1bd7d8"},"vehicle_type_id":"4","last_reported":1717780043,"current_range_meters":20800,"station_id":"ce4bgm92rcd13ifvqbr0","pricing_plan_id":"cebpf4jnsgd1na2vs0mg"},{"bike_id":"2b8e1f3a-dd73-4e4d-bc61-7c5986901c67","system_id":"levelo_inurba_marseille","lat":43.300084,"lon":5.37404,"is_reserved":false,"is_disabled":false,"rental_uris":{"android":"levelo://app?vid=2b8e1f3a-dd73-4e4d-bc61-7c5986901c67","ios":"levelo://app?vid=2b8e1f3a-dd73-4e4d-bc61-7c5986901c67"},"vehicle_type_id":"4","last_reported":1717780043,"current_range_meters":28800,"station_id":"","pricing_plan_id":"cebpf4jnsgd1na2vs0mg"},{"bike_id":"8139841d-8aa8-40d4-b6e0-e733f9f2605f","system_id":"levelo_inurba_marseille","lat":43.305364,"lon":5.384119,"is_reserved":false,"is_disabled":false,"rental_uris":{"android":"levelo://app?vid=8139841d-8aa8-40d4-b6e0-e733f9f2605f","ios":"levelo://app?vid=8139841d-8aa8-40d4-b6e0-e733f9f2605f"},"vehicle_type_id":"4","last_reported":1717780043,"current_range_meters":15600,"station_id":"ce4bgg92rcd13ifvqb30","pricing_plan_id":"cebpf4jnsgd1na2vs0mg"},{"bike_id":"94181673-2292-4cca-bb2d-3b28ad3305ad","system_id":"levelo_inurba_marseille","lat":43.299243,"lon":5.374807,"is_reserved":false,"is_disabled":false,"rental_uris":{"android":"levelo://app?vid=94181673-2292-4cca-bb2d-3b28ad3305ad","ios":"levelo://app?vid=94181673-2292-4cca-bb2d-3b28ad3305ad"},"vehicle_type_id":"4","last_reported":1717780043,"current_range_meters":26800,"station_id":"ce4bgjh2rcd13ifvqbg0","pricing_plan_id":"cebpf4jnsgd1na2vs0mg"},{"bike_id":"23f7d586-dbc2-48e8-b500-0e7921230d53","system_id":"levelo_inurba_marseille","lat":43.30003,"lon":5.37809,"is_reserved":false,"is_disabled":false,"rental_uris":{"android":"levelo://app?vid=23f7d586-dbc2-48e8-b500-0e7921230d53","ios":"levelo://app?vid=23f7d586-dbc2-48e8-b500-0e7921230d53"},"vehicle_type_id":"4","last_reported":1717780043,"current_range_meters":2400,"station_id":"","pricing_plan_id":"cebpf4jnsgd1na2vs0mg"},{"bike_id":"4e38701b-1634-4f25-ba41-8976b3d14520","system_id":"levelo_inurba_marseille","lat":43.298969,"lon":5.375415,"is_reserved":false,"is_disabled":false,"rental_uris":{"android":"levelo://app?vid=4e38701b-1634-4f25-ba41-8976b3d14520","ios":"levelo://app?vid=4e38701b-1634-4f25-ba41-8976b3d14520"},"vehicle_type_id":"4","last_reported":1717780043,"current_range_meters":0,"station_id":"ce4bgjh2rcd13ifvqbg0","pricing_plan_id":"cebpf4jnsgd1na2vs0mg"},{"bike_id":"01baf404-9771-4493-a73e-b59cc96485d3","system_id":"levelo_inurba_marseille","lat":43.297794,"lon":5.370888,"is_reserved":false,"is_disabled":false,"rental_uris":{"android":"levelo://app?vid=01baf404-9771-4493-a73e-b59cc96485d3","ios":"levelo://app?vid=01baf404-9771-4493-a73e-b59cc96485d3"},"vehicle_type_id":"4","last_reported":1717780043,"current_range_meters":14400,"station_id":"ce4bgop2rcd13ifvqc1g","pricing_plan_id":"cebpf4jnsgd1na2vs0mg"},{"bike_id":"78e24f65-8640-48bf-b76c-9e82e0350dde","system_id":"levelo_inurba_marseille","lat":43.322938,"lon":5.382551,"is_reserved":false,"is_disabled":false,"rental_uris":{"android":"levelo://app?vid=78e24f65-8640-48bf-b76c-9e82e0350dde","ios":"levelo://app?vid=78e24f65-8640-48bf-b76c-9e82e0350dde"},"vehicle_type_id":"4","last_reported":1717780043,"current_range_meters":9200,"station_id":"ce4bhr12rcd13ifvqhqg","pricing_plan_id":"cebpf4jnsgd1na2vs0mg"},{"bike_id":"9c564fac-9daf-4e27-8d1b-431d177f5c8f","system_id":"levelo_inurba_marseille","lat":43.322872,"lon":5.382756,"is_reserved":false,"is_disabled":false,"rental_uris":{"android":"levelo://app?vid=9c564fac-9daf-4e27-8d1b-431d177f5c8f","ios":"levelo://app?vid=9c564fac-9daf-4e27-8d1b-431d177f5c8f"},"vehicle_type_id":"4","last_reported":1717780043,"current_range_meters":16000,"station_id":"ce4bhr12rcd13ifvqhqg","pricing_plan_id":"cebpf4jnsgd1na2vs0mg"},{"bike_id":"5540a9ee-bf36-47d7-b4fa-9e44f79dfdd1","system_id":"levelo_inurba_marseille","lat":43.32283,"lon":5.38282,"is_reserved":false,"is_disabled":false,"rental_uris":{"android":"levelo://app?vid=5540a9ee-bf36-47d7-b4fa-9e44f79dfdd1","ios":"levelo://app?vid=5540a9ee-bf36-47d7-b4fa-9e44f79dfdd1"},"vehicle_type_id":"4","last_reported":1717780043,"current_range_meters":20000,"station_id":"ce4bhr12rcd13ifvqhqg","pricing_plan_id":"cebpf4jnsgd1na2vs0mg"},{"bike_id":"eecff279-029d-4aeb-b256-5405f226927c","system_id":"levelo_inurba_marseille","lat":43.322872,"lon":5.382756,"is_reserved":false,"is_disabled":false,"rental_uris":{"android":"levelo://app?vid=eecff279-029d-4aeb-b256-5405f226927c","ios":"levelo://app?vid=eecff279-029d-4aeb-b256-5405f226927c"},"vehicle_type_id":"4","last_reported":1717780043,"current_range_meters":26000,"station_id":"ce4bhr12rcd13ifvqhqg","pricing_plan_id":"cebpf4jnsgd1na2vs0mg"},{"bike_id":"cd513c29-385f-4a9d-8e28-9779363bdbbc","system_id":"levelo_inurba_marseille","lat":43.297163,"lon":5.365866,"is_reserved":false,"is_disabled":false,"rental_uris":{"android":"levelo://app?vid=cd513c29-385f-4a9d-8e28-9779363bdbbc","ios":"levelo://app?vid=cd513c29-385f-4a9d-8e28-9779363bdbbc"},"vehicle_type_id":"4","last_reported":1717780043,"current_range_meters":4000,"station_id":"ce4bgn12rcd13ifvqbt0","pricing_plan_id":"cebpf4jnsgd1na2vs0mg"},{"bike_id":"c1a94169-0098-4e98-9469-1e2250fb4ec0","system_id":"levelo_inurba_marseille","lat":43.297163,"lon":5.365866,"is_reserved":false,"is_disabled":false,"rental_uris":{"android":"levelo://app?vid=c1a94169-0098-4e98-9469-1e2250fb4ec0","ios":"levelo://app?vid=c1a94169-0098-4e98-9469-1e2250fb4ec0"},"vehicle_type_id":"4","last_reported":1717780043,"current_range_meters":4400,"station_id":"ce4bgn12rcd13ifvqbt0","pricing_plan_id":"cebpf4jnsgd1na2vs0mg"},{"bike_id":"9834a927-9501-4a29-b56f-dd7e32d0a4ae","system_id":"levelo_inurba_marseille","lat":43.297037,"lon":5.366204,"is_reserved":false,"is_disabled":false,"rental_uris":{"android":"levelo://app?vid=9834a927-9501-4a29-b56f-dd7e32d0a4ae","ios":"levelo://app?vid=9834a927-9501-4a29-b56f-dd7e32d0a4ae"},"vehicle_type_id":"4","last_reported":1717780043,"current_range_meters":0,"station_id":"","pricing_plan_id":"cebpf4jnsgd1na2vs0mg"},{"bike_id":"bfe33d00-22be-4fcb-b412-bf8809def526","system_id":"levelo_inurba_marseille","lat":43.326153,"lon":5.37884,"is_reserved":false,"is_disabled":false,"rental_uris":{"android":"levelo://app?vid=bfe33d00-22be-4fcb-b412-bf8809def526","ios":"levelo://app?vid=bfe33d00-22be-4fcb-b412-bf8809def526"},"vehicle_type_id":"4","last_reported":1717780043,"current_range_meters":17200,"station_id":"","pricing_plan_id":"cebpf4jnsgd1na2vs0mg"},{"bike_id":"2fc4ad32-1c72-4846-a8a3-6f8c5444cba2","system_id":"levelo_inurba_marseille","lat":43.296131,"lon":5.370773,"is_reserved":false,"is_disabled":false,"rental_uris":{"android":"levelo://app?vid=2fc4ad32-1c72-4846-a8a3-6f8c5444cba2","ios":"levelo://app?vid=2fc4ad32-1c72-4846-a8a3-6f8c5444cba2"},"vehicle_type_id":"4","last_reported":1717780043,"current_range_meters":8800,"station_id":"ce4bgnh2rcd13ifvqc0g","pricing_plan_id":"cebpf4jnsgd1na2vs0mg"},{"bike_id":"68551d8d-73cd-4382-af1e-18d6b4ddacb5","system_id":"levelo_inurba_marseille","lat":43.29573,"lon":5.367355,"is_reserved":false,"is_disabled":false,"rental_uris":{"android":"levelo://app?vid=68551d8d-73cd-4382-af1e-18d6b4ddacb5","ios":"levelo://app?vid=68551d8d-73cd-4382-af1e-18d6b4ddacb5"},"vehicle_type_id":"4","last_reported":1717780043,"current_range_meters":21600,"station_id":"ce4bgph2rcd13ifvqc2g","pricing_plan_id":"cebpf4jnsgd1na2vs0mg"},{"bike_id":"7c44bba9-ef7d-4dc0-868a-c36d7b2ea2e4","system_id":"levelo_inurba_marseille","lat":43.296129,"lon":5.370777,"is_reserved":false,"is_disabled":false,"rental_uris":{"android":"levelo://app?vid=7c44bba9-ef7d-4dc0-868a-c36d7b2ea2e4","ios":"levelo://app?vid=7c44bba9-ef7d-4dc0-868a-c36d7b2ea2e4"},"vehicle_type_id":"4","last_reported":1717780043,"current_range_meters":14800,"station_id":"ce4bgnh2rcd13ifvqc0g","pricing_plan_id":"cebpf4jnsgd1na2vs0mg"},{"bike_id":"0630808b-b6d9-4138-8f3d-e0a6375eb3c1","system_id":"levelo_inurba_marseille","lat":43.32147,"lon":5.38685,"is_reserved":false,"is_disabled":false,"rental_uris":{"android":"levelo://app?vid=0630808b-b6d9-4138-8f3d-e0a6375eb3c1","ios":"levelo://app?vid=0630808b-b6d9-4138-8f3d-e0a6375eb3c1"},"vehicle_type_id":"4","last_reported":1717780043,"current_range_meters":5200,"station_id":"","pricing_plan_id":"cebpf4jnsgd1na2vs0mg"},{"bike_id":"76d24b88-8017-4e9a-8fb8-887b9d6c8d31","system_id":"levelo_inurba_marseille","lat":43.296935,"lon":5.376544,"is_reserved":false,"is_disabled":false,"rental_uris":{"android":"levelo://app?vid=76d24b88-8017-4e9a-8fb8-887b9d6c8d31","ios":"levelo://app?vid=76d24b88-8017-4e9a-8fb8-887b9d6c8d31"},"vehicle_type_id":"4","last_reported":1717780043,"current_range_meters":16000,"station_id":"ce4bgkh2rcd13ifvqbl0","pricing_plan_id":"cebpf4jnsgd1na2vs0mg"},{"bike_id":"9b85d55a-e93b-4662-bf4c-c48cd17d4650","system_id":"levelo_inurba_marseille","lat":43.309589,"lon":5.390258,"is_reserved":false,"is_disabled":false,"rental_uris":{"android":"levelo://app?vid=9b85d55a-e93b-4662-bf4c-c48cd17d4650","ios":"levelo://app?vid=9b85d55a-e93b-4662-bf4c-c48cd17d4650"},"vehicle_type_id":"4","last_reported":1717780043,"current_range_meters":0,"station_id":"ce4bgup2rcd13ifvqco0","pricing_plan_id":"cebpf4jnsgd1na2vs0mg"},{"bike_id":"14a73c23-cba6-4b7f-a40a-251f756265a4","system_id":"levelo_inurba_marseille","lat":43.309589,"lon":5.390258,"is_reserved":false,"is_disabled":false,"rental_uris":{"android":"levelo://app?vid=14a73c23-cba6-4b7f-a40a-251f756265a4","ios":"levelo://app?vid=14a73c23-cba6-4b7f-a40a-251f756265a4"},"vehicle_type_id":"4","last_reported":1717780043,"current_range_meters":0,"station_id":"ce4bgup2rcd13ifvqco0","pricing_plan_id":"cebpf4jnsgd1na2vs0mg"},{"bike_id":"5e272ae7-d115-4856-bed6-fcdde3afaeb8","system_id":"levelo_inurba_marseille","lat":43.309589,"lon":5.390258,"is_reserved":false,"is_disabled":false,"rental_uris":{"android":"levelo://app?vid=5e272ae7-d115-4856-bed6-fcdde3afaeb8","ios":"levelo://app?vid=5e272ae7-d115-4856-bed6-fcdde3afaeb8"},"vehicle_type_id":"4","last_reported":1717780043,"current_range_meters":0,"station_id":"ce4bgup2rcd13ifvqco0","pricing_plan_id":"cebpf4jnsgd1na2vs0mg"},{"bike_id":"c1c592cc-9a1b-4b1c-b277-88f6186e14e3","system_id":"levelo_inurba_marseille","lat":43.31758,"lon":5.39022,"is_reserved":false,"is_disabled":false,"rental_uris":{"android":"levelo://app?vid=c1c592cc-9a1b-4b1c-b277-88f6186e14e3","ios":"levelo://app?vid=c1c592cc-9a1b-4b1c-b277-88f6186e14e3"},"vehicle_type_id":"4","last_reported":1717780043,"current_range_meters":0,"station_id":"ce4bhqp2rcd13ifvqhng","pricing_plan_id":"cebpf4jnsgd1na2vs0mg"},{"bike_id":"4875bc8f-88f6-4fe5-80a3-4f440e6b3be2","system_id":"levelo_inurba_marseille","lat":43.3175,"lon":5.39029,"is_reserved":false,"is_disabled":false,"rental_uris":{"android":"levelo://app?vid=4875bc8f-88f6-4fe5-80a3-4f440e6b3be2","ios":"levelo://app?vid=4875bc8f-88f6-4fe5-80a3-4f440e6b3be2"},"vehicle_type_id":"4","last_reported":1717780043,"current_range_meters":25600,"station_id":"ce4bhqp2rcd13ifvqhng","pricing_plan_id":"cebpf4jnsgd1na2vs0mg"},{"bike_id":"ec1a418d-f154-4ceb-a31a-22ec60091642","system_id":"levelo_inurba_marseille","lat":43.304284,"lon":5.388655,"is_reserved":false,"is_disabled":false,"rental_uris":{"android":"levelo://app?vid=ec1a418d-f154-4ceb-a31a-22ec60091642","ios":"levelo://app?vid=ec1a418d-f154-4ceb-a31a-22ec60091642"},"vehicle_type_id":"4","last_reported":1717780043,"current_range_meters":0,"station_id":"","pricing_plan_id":"cebpf4jnsgd1na2vs0mg"},{"bike_id":"61ae5a46-26db-4b6b-b5a9-65544e8b3f18","system_id":"levelo_inurba_marseille","lat":43.295748,"lon":5.37522,"is_reserved":false,"is_disabled":false,"rental_uris":{"android":"levelo://app?vid=61ae5a46-26db-4b6b-b5a9-65544e8b3f18","ios":"levelo://app?vid=61ae5a46-26db-4b6b-b5a9-65544e8b3f18"},"vehicle_type_id":"4","last_reported":1717780043,"current_range_meters":13200,"station_id":"ce4bgh92rcd13ifvqb50","pricing_plan_id":"cebpf4jnsgd1na2vs0mg"},{"bike_id":"5bc685fc-6ac3-4d2d-bee3-efa6cc50438e","system_id":"levelo_inurba_marseille","lat":43.298037,"lon":5.381066,"is_reserved":false,"is_disabled":false,"rental_uris":{"android":"levelo://app?vid=5bc685fc-6ac3-4d2d-bee3-efa6cc50438e","ios":"levelo://app?vid=5bc685fc-6ac3-4d2d-bee3-efa6cc50438e"},"vehicle_type_id":"4","last_reported":1717780043,"current_range_meters":0,"station_id":"ce4bgip2rcd13ifvqbb0","pricing_plan_id":"cebpf4jnsgd1na2vs0mg"},{"bike_id":"a9ebfab6-8837-49c3-bc82-4e34500b403d","system_id":"levelo_inurba_marseille","lat":43.304274,"lon":5.388873,"is_reserved":false,"is_disabled":false,"rental_uris":{"android":"levelo://app?vid=a9ebfab6-8837-49c3-bc82-4e34500b403d","ios":"levelo://app?vid=a9ebfab6-8837-49c3-bc82-4e34500b403d"},"vehicle_type_id":"4","last_reported":1717780043,"current_range_meters":0,"station_id":"ce4bgk12rcd13ifvqbi0","pricing_plan_id":"cebpf4jnsgd1na2vs0mg"},{"bike_id":"36b475bb-547e-4d26-abdf-e794a56dc33f","system_id":"levelo_inurba_marseille","lat":43.295748,"lon":5.37522,"is_reserved":false,"is_disabled":false,"rental_uris":{"android":"levelo://app?vid=36b475bb-547e-4d26-abdf-e794a56dc33f","ios":"levelo://app?vid=36b475bb-547e-4d26-abdf-e794a56dc33f"},"vehicle_type_id":"4","last_reported":1717780043,"current_range_meters":0,"station_id":"ce4bgh92rcd13ifvqb50","pricing_plan_id":"cebpf4jnsgd1na2vs0mg"},{"bike_id":"0b1ced9d-77d9-4612-9649-ee0c6f5b8c5e","system_id":"levelo_inurba_marseille","lat":43.295748,"lon":5.37522,"is_reserved":false,"is_disabled":false,"rental_uris":{"android":"levelo://app?vid=0b1ced9d-77d9-4612-9649-ee0c6f5b8c5e","ios":"levelo://app?vid=0b1ced9d-77d9-4612-9649-ee0c6f5b8c5e"},"vehicle_type_id":"4","last_reported":1717780043,"current_range_meters":21600,"station_id":"ce4bgh92rcd13ifvqb50","pricing_plan_id":"cebpf4jnsgd1na2vs0mg"},{"bike_id":"5a917ff7-a524-4fa1-a968-e21bbecf20e8","system_id":"levelo_inurba_marseille","lat":43.295685,"lon":5.375274,"is_reserved":false,"is_disabled":false,"rental_uris":{"android":"levelo://app?vid=5a917ff7-a524-4fa1-a968-e21bbecf20e8","ios":"levelo://app?vid=5a917ff7-a524-4fa1-a968-e21bbecf20e8"},"vehicle_type_id":"4","last_reported":1717780043,"current_range_meters":29600,"station_id":"","pricing_plan_id":"cebpf4jnsgd1na2vs0mg"},{"bike_id":"446afed6-f25d-4235-a6e0-d7d58212eeb7","system_id":"levelo_inurba_marseille","lat":43.29621,"lon":5.37714,"is_reserved":false,"is_disabled":false,"rental_uris":{"android":"levelo://app?vid=446afed6-f25d-4235-a6e0-d7d58212eeb7","ios":"levelo://app?vid=446afed6-f25d-4235-a6e0-d7d58212eeb7"},"vehicle_type_id":"4","last_reported":1717780043,"current_range_meters":28000,"station_id":"ce4bgi92rcd13ifvqb90","pricing_plan_id":"cebpf4jnsgd1na2vs0mg"},{"bike_id":"a6407515-ce97-45dc-8a07-3a737a85c342","system_id":"levelo_inurba_marseille","lat":43.295279,"lon":5.375048,"is_reserved":false,"is_disabled":false,"rental_uris":{"android":"levelo://app?vid=a6407515-ce97-45dc-8a07-3a737a85c342","ios":"levelo://app?vid=a6407515-ce97-45dc-8a07-3a737a85c342"},"vehicle_type_id":"4","last_reported":1717780043,"current_range_meters":25600,"station_id":"ce4bgkp2rcd13ifvqbmg","pricing_plan_id":"cebpf4jnsgd1na2vs0mg"},{"bike_id":"999e3e47-3846-4ed3-8547-ad27892e2650","system_id":"levelo_inurba_marseille","lat":43.29974,"lon":5.3849,"is_reserved":false,"is_disabled":false,"rental_uris":{"android":"levelo://app?vid=999e3e47-3846-4ed3-8547-ad27892e2650","ios":"levelo://app?vid=999e3e47-3846-4ed3-8547-ad27892e2650"},"vehicle_type_id":"4","last_reported":1717780043,"current_range_meters":0,"station_id":"ce4bgj92rcd13ifvqbd0","pricing_plan_id":"cebpf4jnsgd1na2vs0mg"},{"bike_id":"56c4ee67-ed81-47a0-a6ea-22d0d89f2bd5","system_id":"levelo_inurba_marseille","lat":43.29975,"lon":5.38496,"is_reserved":false,"is_disabled":false,"rental_uris":{"android":"levelo://app?vid=56c4ee67-ed81-47a0-a6ea-22d0d89f2bd5","ios":"levelo://app?vid=56c4ee67-ed81-47a0-a6ea-22d0d89f2bd5"},"vehicle_type_id":"4","last_reported":1717780043,"current_range_meters":0,"station_id":"ce4bgj92rcd13ifvqbd0","pricing_plan_id":"cebpf4jnsgd1na2vs0mg"},{"bike_id":"182eb1a7-8915-4da7-a74e-54467c7543cc","system_id":"levelo_inurba_marseille","lat":43.295279,"lon":5.375048,"is_reserved":false,"is_disabled":false,"rental_uris":{"android":"levelo://app?vid=182eb1a7-8915-4da7-a74e-54467c7543cc","ios":"levelo://app?vid=182eb1a7-8915-4da7-a74e-54467c7543cc"},"vehicle_type_id":"4","last_reported":1717780043,"current_range_meters":4000,"station_id":"ce4bgkp2rcd13ifvqbmg","pricing_plan_id":"cebpf4jnsgd1na2vs0mg"},{"bike_id":"3ae06c29-a1fe-482f-9607-870f574455e9","system_id":"levelo_inurba_marseille","lat":43.299832,"lon":5.385184,"is_reserved":false,"is_disabled":false,"rental_uris":{"android":"levelo://app?vid=3ae06c29-a1fe-482f-9607-870f574455e9","ios":"levelo://app?vid=3ae06c29-a1fe-482f-9607-870f574455e9"},"vehicle_type_id":"4","last_reported":1717780043,"current_range_meters":0,"station_id":"ce4bgj92rcd13ifvqbd0","pricing_plan_id":"cebpf4jnsgd1na2vs0mg"},{"bike_id":"9f8304d9-7bdf-4430-8a30-3bc342786175","system_id":"levelo_inurba_marseille","lat":43.29962,"lon":5.385021,"is_reserved":false,"is_disabled":false,"rental_uris":{"android":"levelo://app?vid=9f8304d9-7bdf-4430-8a30-3bc342786175","ios":"levelo://app?vid=9f8304d9-7bdf-4430-8a30-3bc342786175"},"vehicle_type_id":"4","last_reported":1717780043,"current_range_meters":0,"station_id":"ce4bgj92rcd13ifvqbd0","pricing_plan_id":"cebpf4jnsgd1na2vs0mg"},{"bike_id":"4f76f5b2-cf50-4c65-9b68-dd6956a90581","system_id":"levelo_inurba_marseille","lat":43.311722,"lon":5.387247,"is_reserved":false,"is_disabled":false,"rental_uris":{"android":"levelo://app?vid=4f76f5b2-cf50-4c65-9b68-dd6956a90581","ios":"levelo://app?vid=4f76f5b2-cf50-4c65-9b68-dd6956a90581"},"vehicle_type_id":"4","last_reported":1717780043,"current_range_meters":24000,"station_id":"ce4bgv12rcd13ifvqcp0","pricing_plan_id":"cebpf4jnsgd1na2vs0mg"},{"bike_id":"4ee3b19b-5e60-46b4-86b8-9d516947c518","system_id":"levelo_inurba_marseille","lat":43.32367,"lon":5.388836,"is_reserved":false,"is_disabled":false,"rental_uris":{"android":"levelo://app?vid=4ee3b19b-5e60-46b4-86b8-9d516947c518","ios":"levelo://app?vid=4ee3b19b-5e60-46b4-86b8-9d516947c518"},"vehicle_type_id":"4","last_reported":1717780043,"current_range_meters":1200,"station_id":"ce4bhqp2rcd13ifvqhog","pricing_plan_id":"cebpf4jnsgd1na2vs0mg"},{"bike_id":"aa454f51-b083-44f1-98ad-15801166ef48","system_id":"levelo_inurba_marseille","lat":43.32363,"lon":5.38888,"is_reserved":false,"is_disabled":false,"rental_uris":{"android":"levelo://app?vid=aa454f51-b083-44f1-98ad-15801166ef48","ios":"levelo://app?vid=aa454f51-b083-44f1-98ad-15801166ef48"},"vehicle_type_id":"4","last_reported":1717780043,"current_range_meters":0,"station_id":"ce4bhqp2rcd13ifvqhog","pricing_plan_id":"cebpf4jnsgd1na2vs0mg"},{"bike_id":"c80ab693-0acd-41c4-b7cd-ab310215aa84","system_id":"levelo_inurba_marseille","lat":43.32367,"lon":5.388836,"is_reserved":false,"is_disabled":false,"rental_uris":{"android":"levelo://app?vid=c80ab693-0acd-41c4-b7cd-ab310215aa84","ios":"levelo://app?vid=c80ab693-0acd-41c4-b7cd-ab310215aa84"},"vehicle_type_id":"4","last_reported":1717780043,"current_range_meters":2000,"station_id":"ce4bhqp2rcd13ifvqhog","pricing_plan_id":"cebpf4jnsgd1na2vs0mg"},{"bike_id":"4bf201c8-1a65-4ccf-b1de-f52e548e7784","system_id":"levelo_inurba_marseille","lat":43.29549,"lon":5.37972,"is_reserved":false,"is_disabled":false,"rental_uris":{"android":"levelo://app?vid=4bf201c8-1a65-4ccf-b1de-f52e548e7784","ios":"levelo://app?vid=4bf201c8-1a65-4ccf-b1de-f52e548e7784"},"vehicle_type_id":"4","last_reported":1717780043,"current_range_meters":0,"station_id":"","pricing_plan_id":"cebpf4jnsgd1na2vs0mg"},{"bike_id":"e395657e-1b05-4abb-a9cc-65956a2b8411","system_id":"levelo_inurba_marseille","lat":43.29602,"lon":5.381084,"is_reserved":false,"is_disabled":false,"rental_uris":{"android":"levelo://app?vid=e395657e-1b05-4abb-a9cc-65956a2b8411","ios":"levelo://app?vid=e395657e-1b05-4abb-a9cc-65956a2b8411"},"vehicle_type_id":"4","last_reported":1717780043,"current_range_meters":29600,"station_id":"ce4bgl12rcd13ifvqbo0","pricing_plan_id":"cebpf4jnsgd1na2vs0mg"},{"bike_id":"9ec254fe-49d3-4709-aaed-3f6e24230616","system_id":"levelo_inurba_marseille","lat":43.2936,"lon":5.37835,"is_reserved":false,"is_disabled":false,"rental_uris":{"android":"levelo://app?vid=9ec254fe-49d3-4709-aaed-3f6e24230616","ios":"levelo://app?vid=9ec254fe-49d3-4709-aaed-3f6e24230616"},"vehicle_type_id":"4","last_reported":1717780043,"current_range_meters":6000,"station_id":"ce4bgjh2rcd13ifvqbf0","pricing_plan_id":"cebpf4jnsgd1na2vs0mg"},{"bike_id":"ef732a26-26dc-42ba-ab68-3d19c4c4d3b7","system_id":"levelo_inurba_marseille","lat":43.293259,"lon":5.371586,"is_reserved":false,"is_disabled":false,"rental_uris":{"android":"levelo://app?vid=ef732a26-26dc-42ba-ab68-3d19c4c4d3b7","ios":"levelo://app?vid=ef732a26-26dc-42ba-ab68-3d19c4c4d3b7"},"vehicle_type_id":"4","last_reported":1717780043,"current_range_meters":29200,"station_id":"ce4bgh92rcd13ifvqb40","pricing_plan_id":"cebpf4jnsgd1na2vs0mg"},{"bike_id":"6cb29395-ced8-402d-8d18-d6d065fc4432","system_id":"levelo_inurba_marseille","lat":43.29274,"lon":5.36845,"is_reserved":false,"is_disabled":false,"rental_uris":{"android":"levelo://app?vid=6cb29395-ced8-402d-8d18-d6d065fc4432","ios":"levelo://app?vid=6cb29395-ced8-402d-8d18-d6d065fc4432"},"vehicle_type_id":"4","last_reported":1717780043,"current_range_meters":26800,"station_id":"ce4bhbp2rcd13ifvqesg","pricing_plan_id":"cebpf4jnsgd1na2vs0mg"},{"bike_id":"fe07c8c3-6b9e-41dc-a801-551d6e7d9ff1","system_id":"levelo_inurba_marseille","lat":43.292749,"lon":5.368402,"is_reserved":false,"is_disabled":false,"rental_uris":{"android":"levelo://app?vid=fe07c8c3-6b9e-41dc-a801-551d6e7d9ff1","ios":"levelo://app?vid=fe07c8c3-6b9e-41dc-a801-551d6e7d9ff1"},"vehicle_type_id":"4","last_reported":1717780043,"current_range_meters":0,"station_id":"ce4bhbp2rcd13ifvqesg","pricing_plan_id":"cebpf4jnsgd1na2vs0mg"},{"bike_id":"57416c75-93c5-45c2-a758-813367ca240d","system_id":"levelo_inurba_marseille","lat":43.293009,"lon":5.374584,"is_reserved":false,"is_disabled":false,"rental_uris":{"android":"levelo://app?vid=57416c75-93c5-45c2-a758-813367ca240d","ios":"levelo://app?vid=57416c75-93c5-45c2-a758-813367ca240d"},"vehicle_type_id":"4","last_reported":1717780043,"current_range_meters":0,"station_id":"ce4bgi12rcd13ifvqb70","pricing_plan_id":"cebpf4jnsgd1na2vs0mg"},{"bike_id":"38e46061-8f74-48bd-99be-1620499a7a90","system_id":"levelo_inurba_marseille","lat":43.293009,"lon":5.374584,"is_reserved":false,"is_disabled":false,"rental_uris":{"android":"levelo://app?vid=38e46061-8f74-48bd-99be-1620499a7a90","ios":"levelo://app?vid=38e46061-8f74-48bd-99be-1620499a7a90"},"vehicle_type_id":"4","last_reported":1717780043,"current_range_meters":0,"station_id":"ce4bgi12rcd13ifvqb70","pricing_plan_id":"cebpf4jnsgd1na2vs0mg"},{"bike_id":"6ede7e0f-0bfc-4805-963b-4bc761f953e9","system_id":"levelo_inurba_marseille","lat":43.303002,"lon":5.392142,"is_reserved":false,"is_disabled":false,"rental_uris":{"android":"levelo://app?vid=6ede7e0f-0bfc-4805-963b-4bc761f953e9","ios":"levelo://app?vid=6ede7e0f-0bfc-4805-963b-4bc761f953e9"},"vehicle_type_id":"4","last_reported":1717780043,"current_range_meters":0,"station_id":"ce4bgkh2rcd13ifvqbk0","pricing_plan_id":"cebpf4jnsgd1na2vs0mg"},{"bike_id":"90cae7e2-2082-4b00-8010-a782ed19a483","system_id":"levelo_inurba_marseille","lat":43.303002,"lon":5.392142,"is_reserved":false,"is_disabled":false,"rental_uris":{"android":"levelo://app?vid=90cae7e2-2082-4b00-8010-a782ed19a483","ios":"levelo://app?vid=90cae7e2-2082-4b00-8010-a782ed19a483"},"vehicle_type_id":"4","last_reported":1717780043,"current_range_meters":1600,"station_id":"ce4bgkh2rcd13ifvqbk0","pricing_plan_id":"cebpf4jnsgd1na2vs0mg"},{"bike_id":"3410304e-f345-4b48-be4c-a3bda136623d","system_id":"levelo_inurba_marseille","lat":43.2936,"lon":5.37835,"is_reserved":false,"is_disabled":false,"rental_uris":{"android":"levelo://app?vid=3410304e-f345-4b48-be4c-a3bda136623d","ios":"levelo://app?vid=3410304e-f345-4b48-be4c-a3bda136623d"},"vehicle_type_id":"4","last_reported":1717780043,"current_range_meters":0,"station_id":"ce4bgjh2rcd13ifvqbf0","pricing_plan_id":"cebpf4jnsgd1na2vs0mg"},{"bike_id":"e6d08363-5fba-4e2c-a742-de4b9e9aad8a","system_id":"levelo_inurba_marseille","lat":43.302992,"lon":5.392136,"is_reserved":false,"is_disabled":false,"rental_uris":{"android":"levelo://app?vid=e6d08363-5fba-4e2c-a742-de4b9e9aad8a","ios":"levelo://app?vid=e6d08363-5fba-4e2c-a742-de4b9e9aad8a"},"vehicle_type_id":"4","last_reported":1717780043,"current_range_meters":0,"station_id":"ce4bgkh2rcd13ifvqbk0","pricing_plan_id":"cebpf4jnsgd1na2vs0mg"},{"bike_id":"15c06786-9cd9-484d-ab55-50b9c8db0652","system_id":"levelo_inurba_marseille","lat":43.29232,"lon":5.36068,"is_reserved":false,"is_disabled":false,"rental_uris":{"android":"levelo://app?vid=15c06786-9cd9-484d-ab55-50b9c8db0652","ios":"levelo://app?vid=15c06786-9cd9-484d-ab55-50b9c8db0652"},"vehicle_type_id":"4","last_reported":1717780043,"current_range_meters":0,"station_id":"ce4bhbh2rcd13ifvqeqg","pricing_plan_id":"cebpf4jnsgd1na2vs0mg"},{"bike_id":"a06314c6-af08-46ab-ab6d-ac67bc4b197a","system_id":"levelo_inurba_marseille","lat":43.292311,"lon":5.360731,"is_reserved":false,"is_disabled":false,"rental_uris":{"android":"levelo://app?vid=a06314c6-af08-46ab-ab6d-ac67bc4b197a","ios":"levelo://app?vid=a06314c6-af08-46ab-ab6d-ac67bc4b197a"},"vehicle_type_id":"4","last_reported":1717780043,"current_range_meters":3200,"station_id":"ce4bhbh2rcd13ifvqeqg","pricing_plan_id":"cebpf4jnsgd1na2vs0mg"},{"bike_id":"e7095ec0-744b-4cdd-86b0-0c21f56260a8","system_id":"levelo_inurba_marseille","lat":43.29228,"lon":5.36062,"is_reserved":false,"is_disabled":false,"rental_uris":{"android":"levelo://app?vid=e7095ec0-744b-4cdd-86b0-0c21f56260a8","ios":"levelo://app?vid=e7095ec0-744b-4cdd-86b0-0c21f56260a8"},"vehicle_type_id":"4","last_reported":1717780043,"current_range_meters":16400,"station_id":"ce4bhbh2rcd13ifvqeqg","pricing_plan_id":"cebpf4jnsgd1na2vs0mg"},{"bike_id":"73a80997-f470-4b6d-bbcf-9cc34b794750","system_id":"levelo_inurba_marseille","lat":43.30085,"lon":5.390856,"is_reserved":false,"is_disabled":false,"rental_uris":{"android":"levelo://app?vid=73a80997-f470-4b6d-bbcf-9cc34b794750","ios":"levelo://app?vid=73a80997-f470-4b6d-bbcf-9cc34b794750"},"vehicle_type_id":"4","last_reported":1717780043,"current_range_meters":1200,"station_id":"ce4bh192rcd13ifvqdb0","pricing_plan_id":"cebpf4jnsgd1na2vs0mg"},{"bike_id":"474b2bf1-7123-449b-b9f2-1b92c363d427","system_id":"levelo_inurba_marseille","lat":43.29223,"lon":5.36069,"is_reserved":false,"is_disabled":false,"rental_uris":{"android":"levelo://app?vid=474b2bf1-7123-449b-b9f2-1b92c363d427","ios":"levelo://app?vid=474b2bf1-7123-449b-b9f2-1b92c363d427"},"vehicle_type_id":"4","last_reported":1717780043,"current_range_meters":4800,"station_id":"ce4bhbh2rcd13ifvqeqg","pricing_plan_id":"cebpf4jnsgd1na2vs0mg"},{"bike_id":"f7ece9f3-aa6a-47af-9690-60936c326b59","system_id":"levelo_inurba_marseille","lat":43.300839,"lon":5.390742,"is_reserved":false,"is_disabled":false,"rental_uris":{"android":"levelo://app?vid=f7ece9f3-aa6a-47af-9690-60936c326b59","ios":"levelo://app?vid=f7ece9f3-aa6a-47af-9690-60936c326b59"},"vehicle_type_id":"4","last_reported":1717780043,"current_range_meters":15200,"station_id":"","pricing_plan_id":"cebpf4jnsgd1na2vs0mg"},{"bike_id":"5b7f1e9d-90ff-4c9f-9143-29d203f1c9e1","system_id":"levelo_inurba_marseille","lat":43.298764,"lon":5.388973,"is_reserved":false,"is_disabled":false,"rental_uris":{"android":"levelo://app?vid=5b7f1e9d-90ff-4c9f-9143-29d203f1c9e1","ios":"levelo://app?vid=5b7f1e9d-90ff-4c9f-9143-29d203f1c9e1"},"vehicle_type_id":"4","last_reported":1717780043,"current_range_meters":7200,"station_id":"ce4bh392rcd13ifvqdl0","pricing_plan_id":"cebpf4jnsgd1na2vs0mg"},{"bike_id":"e932e726-c6bb-4292-8454-8f0ad3f44902","system_id":"levelo_inurba_marseille","lat":43.298764,"lon":5.388973,"is_reserved":false,"is_disabled":false,"rental_uris":{"android":"levelo://app?vid=e932e726-c6bb-4292-8454-8f0ad3f44902","ios":"levelo://app?vid=e932e726-c6bb-4292-8454-8f0ad3f44902"},"vehicle_type_id":"4","last_reported":1717780043,"current_range_meters":11200,"station_id":"ce4bh392rcd13ifvqdl0","pricing_plan_id":"cebpf4jnsgd1na2vs0mg"},{"bike_id":"367b0984-120c-4c00-9f31-e0c1ada754be","system_id":"levelo_inurba_marseille","lat":43.291675,"lon":5.371583,"is_reserved":false,"is_disabled":false,"rental_uris":{"android":"levelo://app?vid=367b0984-120c-4c00-9f31-e0c1ada754be","ios":"levelo://app?vid=367b0984-120c-4c00-9f31-e0c1ada754be"},"vehicle_type_id":"4","last_reported":1717780043,"current_range_meters":28400,"station_id":"ce4bha92rcd13ifvqeh0","pricing_plan_id":"cebpf4jnsgd1na2vs0mg"},{"bike_id":"958aea3f-82fe-4028-8e63-1d88f7f6e1d0","system_id":"levelo_inurba_marseille","lat":43.298764,"lon":5.388973,"is_reserved":false,"is_disabled":false,"rental_uris":{"android":"levelo://app?vid=958aea3f-82fe-4028-8e63-1d88f7f6e1d0","ios":"levelo://app?vid=958aea3f-82fe-4028-8e63-1d88f7f6e1d0"},"vehicle_type_id":"4","last_reported":1717780043,"current_range_meters":19600,"station_id":"ce4bh392rcd13ifvqdl0","pricing_plan_id":"cebpf4jnsgd1na2vs0mg"},{"bike_id":"de6d4131-bd33-43b0-8866-3c83c47a9da8","system_id":"levelo_inurba_marseille","lat":43.292012,"lon":5.359491,"is_reserved":false,"is_disabled":false,"rental_uris":{"android":"levelo://app?vid=de6d4131-bd33-43b0-8866-3c83c47a9da8","ios":"levelo://app?vid=de6d4131-bd33-43b0-8866-3c83c47a9da8"},"vehicle_type_id":"4","last_reported":1717780043,"current_range_meters":0,"station_id":"ce4bhbh2rcd13ifvqeqg","pricing_plan_id":"cebpf4jnsgd1na2vs0mg"},{"bike_id":"ea58e26c-4ac8-4772-8a81-fb79926fd16c","system_id":"levelo_inurba_marseille","lat":43.30892,"lon":5.39639,"is_reserved":false,"is_disabled":false,"rental_uris":{"android":"levelo://app?vid=ea58e26c-4ac8-4772-8a81-fb79926fd16c","ios":"levelo://app?vid=ea58e26c-4ac8-4772-8a81-fb79926fd16c"},"vehicle_type_id":"4","last_reported":1717780043,"current_range_meters":0,"station_id":"ce4bh012rcd13ifvqcv0","pricing_plan_id":"cebpf4jnsgd1na2vs0mg"},{"bike_id":"865cbbeb-7389-4c68-b446-44ba473f17ab","system_id":"levelo_inurba_marseille","lat":43.292005,"lon":5.357875,"is_reserved":false,"is_disabled":false,"rental_uris":{"android":"levelo://app?vid=865cbbeb-7389-4c68-b446-44ba473f17ab","ios":"levelo://app?vid=865cbbeb-7389-4c68-b446-44ba473f17ab"},"vehicle_type_id":"4","last_reported":1717780043,"current_range_meters":1200,"station_id":"ce4bhb12rcd13ifvqel0","pricing_plan_id":"cebpf4jnsgd1na2vs0mg"},{"bike_id":"04be2d15-c00b-4a82-8a72-077bfeb5de1e","system_id":"levelo_inurba_marseille","lat":43.30887,"lon":5.39648,"is_reserved":false,"is_disabled":false,"rental_uris":{"android":"levelo://app?vid=04be2d15-c00b-4a82-8a72-077bfeb5de1e","ios":"levelo://app?vid=04be2d15-c00b-4a82-8a72-077bfeb5de1e"},"vehicle_type_id":"4","last_reported":1717780043,"current_range_meters":14400,"station_id":"ce4bh012rcd13ifvqcv0","pricing_plan_id":"cebpf4jnsgd1na2vs0mg"},{"bike_id":"5e3d9b98-daf0-463f-af65-c5a95a3fc74e","system_id":"levelo_inurba_marseille","lat":43.29529,"lon":5.385581,"is_reserved":false,"is_disabled":false,"rental_uris":{"android":"levelo://app?vid=5e3d9b98-daf0-463f-af65-c5a95a3fc74e","ios":"levelo://app?vid=5e3d9b98-daf0-463f-af65-c5a95a3fc74e"},"vehicle_type_id":"4","last_reported":1717780043,"current_range_meters":0,"station_id":"ce4bgih2rcd13ifvqba0","pricing_plan_id":"cebpf4jnsgd1na2vs0mg"},{"bike_id":"53e35578-ceb3-4ec1-8537-990eb851d3ea","system_id":"levelo_inurba_marseille","lat":43.295443,"lon":5.385549,"is_reserved":false,"is_disabled":false,"rental_uris":{"android":"levelo://app?vid=53e35578-ceb3-4ec1-8537-990eb851d3ea","ios":"levelo://app?vid=53e35578-ceb3-4ec1-8537-990eb851d3ea"},"vehicle_type_id":"4","last_reported":1717780043,"current_range_meters":0,"station_id":"ce4bgih2rcd13ifvqba0","pricing_plan_id":"cebpf4jnsgd1na2vs0mg"},{"bike_id":"b55caedd-d76d-4df5-91ac-ee9da95ca9f3","system_id":"levelo_inurba_marseille","lat":43.292642,"lon":5.384254,"is_reserved":false,"is_disabled":false,"rental_uris":{"android":"levelo://app?vid=b55caedd-d76d-4df5-91ac-ee9da95ca9f3","ios":"levelo://app?vid=b55caedd-d76d-4df5-91ac-ee9da95ca9f3"},"vehicle_type_id":"4","last_reported":1717780043,"current_range_meters":0,"station_id":"ce4bh692rcd13ifvqea0","pricing_plan_id":"cebpf4jnsgd1na2vs0mg"},{"bike_id":"39350f84-5b2c-484f-94b8-b9e9aeed93fa","system_id":"levelo_inurba_marseille","lat":43.290779,"lon":5.371482,"is_reserved":false,"is_disabled":false,"rental_uris":{"android":"levelo://app?vid=39350f84-5b2c-484f-94b8-b9e9aeed93fa","ios":"levelo://app?vid=39350f84-5b2c-484f-94b8-b9e9aeed93fa"},"vehicle_type_id":"4","last_reported":1717780043,"current_range_meters":18800,"station_id":"ce4bh5p2rcd13ifvqe4g","pricing_plan_id":"cebpf4jnsgd1na2vs0mg"},{"bike_id":"c917e88c-b353-478f-82d3-571605f56daf","system_id":"levelo_inurba_marseille","lat":43.290779,"lon":5.371482,"is_reserved":false,"is_disabled":false,"rental_uris":{"android":"levelo://app?vid=c917e88c-b353-478f-82d3-571605f56daf","ios":"levelo://app?vid=c917e88c-b353-478f-82d3-571605f56daf"},"vehicle_type_id":"4","last_reported":1717780043,"current_range_meters":0,"station_id":"ce4bh5p2rcd13ifvqe4g","pricing_plan_id":"cebpf4jnsgd1na2vs0mg"},{"bike_id":"6279dac0-e389-4fbb-adb2-87f8a5932130","system_id":"levelo_inurba_marseille","lat":43.283502,"lon":5.386471,"is_reserved":false,"is_disabled":false,"rental_uris":{"android":"levelo://app?vid=6279dac0-e389-4fbb-adb2-87f8a5932130","ios":"levelo://app?vid=6279dac0-e389-4fbb-adb2-87f8a5932130"},"vehicle_type_id":"4","last_reported":1717780043,"current_range_meters":1600,"station_id":"ce4bh492rcd13ifvqdvg","pricing_plan_id":"cebpf4jnsgd1na2vs0mg"},{"bike_id":"65538ad3-7e90-4f6f-ac77-99f101cbe2c0","system_id":"levelo_inurba_marseille","lat":43.290624,"lon":5.359245,"is_reserved":false,"is_disabled":false,"rental_uris":{"android":"levelo://app?vid=65538ad3-7e90-4f6f-ac77-99f101cbe2c0","ios":"levelo://app?vid=65538ad3-7e90-4f6f-ac77-99f101cbe2c0"},"vehicle_type_id":"4","last_reported":1717780043,"current_range_meters":0,"station_id":"ce4bha92rcd13ifvqeg0","pricing_plan_id":"cebpf4jnsgd1na2vs0mg"},{"bike_id":"0c248ae5-969d-4a58-9f92-beb5b1543127","system_id":"levelo_inurba_marseille","lat":43.290376,"lon":5.359315,"is_reserved":false,"is_disabled":false,"rental_uris":{"android":"levelo://app?vid=0c248ae5-969d-4a58-9f92-beb5b1543127","ios":"levelo://app?vid=0c248ae5-969d-4a58-9f92-beb5b1543127"},"vehicle_type_id":"4","last_reported":1717780043,"current_range_meters":0,"station_id":"ce4bha92rcd13ifvqeg0","pricing_plan_id":"cebpf4jnsgd1na2vs0mg"},{"bike_id":"58d25942-9c8c-4486-8d2c-fdc78b890b6e","system_id":"levelo_inurba_marseille","lat":43.294153,"lon":5.386305,"is_reserved":false,"is_disabled":false,"rental_uris":{"android":"levelo://app?vid=58d25942-9c8c-4486-8d2c-fdc78b890b6e","ios":"levelo://app?vid=58d25942-9c8c-4486-8d2c-fdc78b890b6e"},"vehicle_type_id":"4","last_reported":1717780043,"current_range_meters":0,"station_id":"ce4bh2h2rcd13ifvqdh0","pricing_plan_id":"cebpf4jnsgd1na2vs0mg"},{"bike_id":"aa1f881f-a53a-48fe-a685-e6aa1f6fe5f9","system_id":"levelo_inurba_marseille","lat":43.290319,"lon":5.375732,"is_reserved":false,"is_disabled":false,"rental_uris":{"android":"levelo://app?vid=aa1f881f-a53a-48fe-a685-e6aa1f6fe5f9","ios":"levelo://app?vid=aa1f881f-a53a-48fe-a685-e6aa1f6fe5f9"},"vehicle_type_id":"4","last_reported":1717780043,"current_range_meters":1600,"station_id":"ce4bh692rcd13ifvqe90","pricing_plan_id":"cebpf4jnsgd1na2vs0mg"},{"bike_id":"2db822d0-1676-44b2-93c8-26b87d18e990","system_id":"levelo_inurba_marseille","lat":43.29037,"lon":5.3757,"is_reserved":false,"is_disabled":false,"rental_uris":{"android":"levelo://app?vid=2db822d0-1676-44b2-93c8-26b87d18e990","ios":"levelo://app?vid=2db822d0-1676-44b2-93c8-26b87d18e990"},"vehicle_type_id":"4","last_reported":1717780043,"current_range_meters":0,"station_id":"ce4bh692rcd13ifvqe90","pricing_plan_id":"cebpf4jnsgd1na2vs0mg"},{"bike_id":"3a80c3f4-e842-4d26-91f3-de0de4eb0699","system_id":"levelo_inurba_marseille","lat":43.294153,"lon":5.386305,"is_reserved":false,"is_disabled":false,"rental_uris":{"android":"levelo://app?vid=3a80c3f4-e842-4d26-91f3-de0de4eb0699","ios":"levelo://app?vid=3a80c3f4-e842-4d26-91f3-de0de4eb0699"},"vehicle_type_id":"4","last_reported":1717780043,"current_range_meters":15600,"station_id":"ce4bh2h2rcd13ifvqdh0","pricing_plan_id":"cebpf4jnsgd1na2vs0mg"},{"bike_id":"1d08a09e-7f06-4185-8c27-57d89be22815","system_id":"levelo_inurba_marseille","lat":43.29439,"lon":5.38675,"is_reserved":false,"is_disabled":false,"rental_uris":{"android":"levelo://app?vid=1d08a09e-7f06-4185-8c27-57d89be22815","ios":"levelo://app?vid=1d08a09e-7f06-4185-8c27-57d89be22815"},"vehicle_type_id":"4","last_reported":1717780043,"current_range_meters":14400,"station_id":"ce4bh2h2rcd13ifvqdh0","pricing_plan_id":"cebpf4jnsgd1na2vs0mg"},{"bike_id":"09c11a47-eb3e-4d58-bc16-c33a8e5140ba","system_id":"levelo_inurba_marseille","lat":43.289184,"lon":5.366408,"is_reserved":false,"is_disabled":false,"rental_uris":{"android":"levelo://app?vid=09c11a47-eb3e-4d58-bc16-c33a8e5140ba","ios":"levelo://app?vid=09c11a47-eb3e-4d58-bc16-c33a8e5140ba"},"vehicle_type_id":"4","last_reported":1717780043,"current_range_meters":1600,"station_id":"ce4bhap2rcd13ifvqek0","pricing_plan_id":"cebpf4jnsgd1na2vs0mg"},{"bike_id":"7a818773-a0fb-4c29-b3e3-1435335929cd","system_id":"levelo_inurba_marseille","lat":43.289468,"lon":5.363719,"is_reserved":false,"is_disabled":false,"rental_uris":{"android":"levelo://app?vid=7a818773-a0fb-4c29-b3e3-1435335929cd","ios":"levelo://app?vid=7a818773-a0fb-4c29-b3e3-1435335929cd"},"vehicle_type_id":"4","last_reported":1717780043,"current_range_meters":0,"station_id":"ce4bhc92rcd13ifvqetg","pricing_plan_id":"cebpf4jnsgd1na2vs0mg"},{"bike_id":"d68adc2b-47ef-437c-b234-2b28eccade7e","system_id":"levelo_inurba_marseille","lat":43.289468,"lon":5.363719,"is_reserved":false,"is_disabled":false,"rental_uris":{"android":"levelo://app?vid=d68adc2b-47ef-437c-b234-2b28eccade7e","ios":"levelo://app?vid=d68adc2b-47ef-437c-b234-2b28eccade7e"},"vehicle_type_id":"4","last_reported":1717780043,"current_range_meters":9200,"station_id":"ce4bhc92rcd13ifvqetg","pricing_plan_id":"cebpf4jnsgd1na2vs0mg"},{"bike_id":"5b7a548d-5846-475e-88cc-f6f4d2544659","system_id":"levelo_inurba_marseille","lat":43.289468,"lon":5.363719,"is_reserved":false,"is_disabled":false,"rental_uris":{"android":"levelo://app?vid=5b7a548d-5846-475e-88cc-f6f4d2544659","ios":"levelo://app?vid=5b7a548d-5846-475e-88cc-f6f4d2544659"},"vehicle_type_id":"4","last_reported":1717780043,"current_range_meters":13200,"station_id":"ce4bhc92rcd13ifvqetg","pricing_plan_id":"cebpf4jnsgd1na2vs0mg"},{"bike_id":"d00b892c-b554-4041-8c92-765554da8114","system_id":"levelo_inurba_marseille","lat":43.28936,"lon":5.36627,"is_reserved":false,"is_disabled":false,"rental_uris":{"android":"levelo://app?vid=d00b892c-b554-4041-8c92-765554da8114","ios":"levelo://app?vid=d00b892c-b554-4041-8c92-765554da8114"},"vehicle_type_id":"4","last_reported":1717780043,"current_range_meters":0,"station_id":"ce4bhap2rcd13ifvqek0","pricing_plan_id":"cebpf4jnsgd1na2vs0mg"},{"bike_id":"98b0c87e-6727-4d36-9346-938a26dfb32c","system_id":"levelo_inurba_marseille","lat":43.289468,"lon":5.363719,"is_reserved":false,"is_disabled":false,"rental_uris":{"android":"levelo://app?vid=98b0c87e-6727-4d36-9346-938a26dfb32c","ios":"levelo://app?vid=98b0c87e-6727-4d36-9346-938a26dfb32c"},"vehicle_type_id":"4","last_reported":1717780043,"current_range_meters":400,"station_id":"ce4bhc92rcd13ifvqetg","pricing_plan_id":"cebpf4jnsgd1na2vs0mg"},{"bike_id":"d5023e36-af76-498c-ac0b-55b5d83fcb25","system_id":"levelo_inurba_marseille","lat":43.289184,"lon":5.366408,"is_reserved":false,"is_disabled":false,"rental_uris":{"android":"levelo://app?vid=d5023e36-af76-498c-ac0b-55b5d83fcb25","ios":"levelo://app?vid=d5023e36-af76-498c-ac0b-55b5d83fcb25"},"vehicle_type_id":"4","last_reported":1717780043,"current_range_meters":0,"station_id":"ce4bhap2rcd13ifvqek0","pricing_plan_id":"cebpf4jnsgd1na2vs0mg"},{"bike_id":"bf129803-0fc3-40b7-8040-56bf66f2c7cf","system_id":"levelo_inurba_marseille","lat":43.289468,"lon":5.363719,"is_reserved":false,"is_disabled":false,"rental_uris":{"android":"levelo://app?vid=bf129803-0fc3-40b7-8040-56bf66f2c7cf","ios":"levelo://app?vid=bf129803-0fc3-40b7-8040-56bf66f2c7cf"},"vehicle_type_id":"4","last_reported":1717780043,"current_range_meters":4800,"station_id":"ce4bhc92rcd13ifvqetg","pricing_plan_id":"cebpf4jnsgd1na2vs0mg"},{"bike_id":"5ad356fd-11ac-4d1b-9c1d-eb0d6e2408ef","system_id":"levelo_inurba_marseille","lat":43.289468,"lon":5.363719,"is_reserved":false,"is_disabled":false,"rental_uris":{"android":"levelo://app?vid=5ad356fd-11ac-4d1b-9c1d-eb0d6e2408ef","ios":"levelo://app?vid=5ad356fd-11ac-4d1b-9c1d-eb0d6e2408ef"},"vehicle_type_id":"4","last_reported":1717780043,"current_range_meters":2400,"station_id":"ce4bhc92rcd13ifvqetg","pricing_plan_id":"cebpf4jnsgd1na2vs0mg"},{"bike_id":"a718525a-e7a3-48dd-9a55-b2b8f64a846a","system_id":"levelo_inurba_marseille","lat":43.289106,"lon":5.366433,"is_reserved":false,"is_disabled":false,"rental_uris":{"android":"levelo://app?vid=a718525a-e7a3-48dd-9a55-b2b8f64a846a","ios":"levelo://app?vid=a718525a-e7a3-48dd-9a55-b2b8f64a846a"},"vehicle_type_id":"4","last_reported":1717780043,"current_range_meters":0,"station_id":"ce4bhap2rcd13ifvqek0","pricing_plan_id":"cebpf4jnsgd1na2vs0mg"},{"bike_id":"c023ac33-b812-45a6-a527-bf8efeeb13c1","system_id":"levelo_inurba_marseille","lat":43.2927,"lon":5.38428,"is_reserved":false,"is_disabled":false,"rental_uris":{"android":"levelo://app?vid=c023ac33-b812-45a6-a527-bf8efeeb13c1","ios":"levelo://app?vid=c023ac33-b812-45a6-a527-bf8efeeb13c1"},"vehicle_type_id":"4","last_reported":1717780043,"current_range_meters":4000,"station_id":"ce4bh692rcd13ifvqea0","pricing_plan_id":"cebpf4jnsgd1na2vs0mg"},{"bike_id":"ccb44edb-a99e-4844-9c1c-5ef4dad067d2","system_id":"levelo_inurba_marseille","lat":43.292644,"lon":5.384257,"is_reserved":false,"is_disabled":false,"rental_uris":{"android":"levelo://app?vid=ccb44edb-a99e-4844-9c1c-5ef4dad067d2","ios":"levelo://app?vid=ccb44edb-a99e-4844-9c1c-5ef4dad067d2"},"vehicle_type_id":"4","last_reported":1717780043,"current_range_meters":0,"station_id":"ce4bh692rcd13ifvqea0","pricing_plan_id":"cebpf4jnsgd1na2vs0mg"},{"bike_id":"de441dbe-485f-4078-8b20-ffec6f2e9223","system_id":"levelo_inurba_marseille","lat":43.292644,"lon":5.384257,"is_reserved":false,"is_disabled":false,"rental_uris":{"android":"levelo://app?vid=de441dbe-485f-4078-8b20-ffec6f2e9223","ios":"levelo://app?vid=de441dbe-485f-4078-8b20-ffec6f2e9223"},"vehicle_type_id":"4","last_reported":1717780043,"current_range_meters":4400,"station_id":"ce4bh692rcd13ifvqea0","pricing_plan_id":"cebpf4jnsgd1na2vs0mg"},{"bike_id":"d03e20a4-18ae-49ee-a10d-8d4039126daa","system_id":"levelo_inurba_marseille","lat":43.292644,"lon":5.384257,"is_reserved":false,"is_disabled":false,"rental_uris":{"android":"levelo://app?vid=d03e20a4-18ae-49ee-a10d-8d4039126daa","ios":"levelo://app?vid=d03e20a4-18ae-49ee-a10d-8d4039126daa"},"vehicle_type_id":"4","last_reported":1717780043,"current_range_meters":0,"station_id":"ce4bh692rcd13ifvqea0","pricing_plan_id":"cebpf4jnsgd1na2vs0mg"},{"bike_id":"3b080d8e-b492-4b81-9fbb-8a7c8a8c35e1","system_id":"levelo_inurba_marseille","lat":43.292644,"lon":5.384257,"is_reserved":false,"is_disabled":false,"rental_uris":{"android":"levelo://app?vid=3b080d8e-b492-4b81-9fbb-8a7c8a8c35e1","ios":"levelo://app?vid=3b080d8e-b492-4b81-9fbb-8a7c8a8c35e1"},"vehicle_type_id":"4","last_reported":1717780043,"current_range_meters":28000,"station_id":"ce4bh692rcd13ifvqea0","pricing_plan_id":"cebpf4jnsgd1na2vs0mg"},{"bike_id":"8cd82b79-f950-493f-8527-7a1a2705ff1b","system_id":"levelo_inurba_marseille","lat":43.292642,"lon":5.384254,"is_reserved":false,"is_disabled":false,"rental_uris":{"android":"levelo://app?vid=8cd82b79-f950-493f-8527-7a1a2705ff1b","ios":"levelo://app?vid=8cd82b79-f950-493f-8527-7a1a2705ff1b"},"vehicle_type_id":"4","last_reported":1717780043,"current_range_meters":2800,"station_id":"ce4bh692rcd13ifvqea0","pricing_plan_id":"cebpf4jnsgd1na2vs0mg"},{"bike_id":"b6957794-8f89-426b-87f7-ef9907bd4c3a","system_id":"levelo_inurba_marseille","lat":43.29265,"lon":5.38436,"is_reserved":false,"is_disabled":false,"rental_uris":{"android":"levelo://app?vid=b6957794-8f89-426b-87f7-ef9907bd4c3a","ios":"levelo://app?vid=b6957794-8f89-426b-87f7-ef9907bd4c3a"},"vehicle_type_id":"4","last_reported":1717780043,"current_range_meters":4000,"station_id":"ce4bh692rcd13ifvqea0","pricing_plan_id":"cebpf4jnsgd1na2vs0mg"},{"bike_id":"9e13d052-95cb-4fd9-ad9c-fadbbad38f2f","system_id":"levelo_inurba_marseille","lat":43.292644,"lon":5.384257,"is_reserved":false,"is_disabled":false,"rental_uris":{"android":"levelo://app?vid=9e13d052-95cb-4fd9-ad9c-fadbbad38f2f","ios":"levelo://app?vid=9e13d052-95cb-4fd9-ad9c-fadbbad38f2f"},"vehicle_type_id":"4","last_reported":1717780043,"current_range_meters":2400,"station_id":"ce4bh692rcd13ifvqea0","pricing_plan_id":"cebpf4jnsgd1na2vs0mg"},{"bike_id":"93b09939-aaf2-4843-94f0-7fe66abfc9fc","system_id":"levelo_inurba_marseille","lat":43.2926,"lon":5.38447,"is_reserved":false,"is_disabled":false,"rental_uris":{"android":"levelo://app?vid=93b09939-aaf2-4843-94f0-7fe66abfc9fc","ios":"levelo://app?vid=93b09939-aaf2-4843-94f0-7fe66abfc9fc"},"vehicle_type_id":"4","last_reported":1717780043,"current_range_meters":0,"station_id":"ce4bh692rcd13ifvqea0","pricing_plan_id":"cebpf4jnsgd1na2vs0mg"},{"bike_id":"e2147445-80d7-482e-bbe6-22001511e30f","system_id":"levelo_inurba_marseille","lat":43.29573,"lon":5.367355,"is_reserved":false,"is_disabled":false,"rental_uris":{"android":"levelo://app?vid=e2147445-80d7-482e-bbe6-22001511e30f","ios":"levelo://app?vid=e2147445-80d7-482e-bbe6-22001511e30f"},"vehicle_type_id":"4","last_reported":1717780043,"current_range_meters":2800,"station_id":"ce4bgph2rcd13ifvqc2g","pricing_plan_id":"cebpf4jnsgd1na2vs0mg"},{"bike_id":"4df77a38-0071-4200-9a45-86d34837d9c4","system_id":"levelo_inurba_marseille","lat":43.290104,"lon":5.356111,"is_reserved":false,"is_disabled":false,"rental_uris":{"android":"levelo://app?vid=4df77a38-0071-4200-9a45-86d34837d9c4","ios":"levelo://app?vid=4df77a38-0071-4200-9a45-86d34837d9c4"},"vehicle_type_id":"4","last_reported":1717780043,"current_range_meters":2400,"station_id":"ce4bhb92rcd13ifvqen0","pricing_plan_id":"cebpf4jnsgd1na2vs0mg"},{"bike_id":"fb2699dd-af45-45d2-88b6-57f41c852d3f","system_id":"levelo_inurba_marseille","lat":43.29005,"lon":5.35615,"is_reserved":false,"is_disabled":false,"rental_uris":{"android":"levelo://app?vid=fb2699dd-af45-45d2-88b6-57f41c852d3f","ios":"levelo://app?vid=fb2699dd-af45-45d2-88b6-57f41c852d3f"},"vehicle_type_id":"4","last_reported":1717780043,"current_range_meters":0,"station_id":"ce4bhb92rcd13ifvqen0","pricing_plan_id":"cebpf4jnsgd1na2vs0mg"},{"bike_id":"6df55c9f-3559-4e46-9a7b-e2b15c1d5cce","system_id":"levelo_inurba_marseille","lat":43.290104,"lon":5.356111,"is_reserved":false,"is_disabled":false,"rental_uris":{"android":"levelo://app?vid=6df55c9f-3559-4e46-9a7b-e2b15c1d5cce","ios":"levelo://app?vid=6df55c9f-3559-4e46-9a7b-e2b15c1d5cce"},"vehicle_type_id":"4","last_reported":1717780043,"current_range_meters":22000,"station_id":"ce4bhb92rcd13ifvqen0","pricing_plan_id":"cebpf4jnsgd1na2vs0mg"},{"bike_id":"efa62b2a-3522-4a00-bf9b-12df13022a1f","system_id":"levelo_inurba_marseille","lat":43.29005,"lon":5.3561,"is_reserved":false,"is_disabled":false,"rental_uris":{"android":"levelo://app?vid=efa62b2a-3522-4a00-bf9b-12df13022a1f","ios":"levelo://app?vid=efa62b2a-3522-4a00-bf9b-12df13022a1f"},"vehicle_type_id":"4","last_reported":1717780043,"current_range_meters":0,"station_id":"ce4bhb92rcd13ifvqen0","pricing_plan_id":"cebpf4jnsgd1na2vs0mg"},{"bike_id":"b2ecbfac-fe96-412f-8d62-9b6ef6cb004c","system_id":"levelo_inurba_marseille","lat":43.29001,"lon":5.35609,"is_reserved":false,"is_disabled":false,"rental_uris":{"android":"levelo://app?vid=b2ecbfac-fe96-412f-8d62-9b6ef6cb004c","ios":"levelo://app?vid=b2ecbfac-fe96-412f-8d62-9b6ef6cb004c"},"vehicle_type_id":"4","last_reported":1717780043,"current_range_meters":0,"station_id":"ce4bhb92rcd13ifvqen0","pricing_plan_id":"cebpf4jnsgd1na2vs0mg"},{"bike_id":"15a64dda-1a03-45a7-bafe-c03039ef4ed5","system_id":"levelo_inurba_marseille","lat":43.29082,"lon":5.38088,"is_reserved":false,"is_disabled":false,"rental_uris":{"android":"levelo://app?vid=15a64dda-1a03-45a7-bafe-c03039ef4ed5","ios":"levelo://app?vid=15a64dda-1a03-45a7-bafe-c03039ef4ed5"},"vehicle_type_id":"4","last_reported":1717780043,"current_range_meters":0,"station_id":"ce4bgrh2rcd13ifvqc8g","pricing_plan_id":"cebpf4jnsgd1na2vs0mg"},{"bike_id":"70136024-cf6b-4c9a-a6d7-d367a5e45a05","system_id":"levelo_inurba_marseille","lat":43.290995,"lon":5.381361,"is_reserved":false,"is_disabled":false,"rental_uris":{"android":"levelo://app?vid=70136024-cf6b-4c9a-a6d7-d367a5e45a05","ios":"levelo://app?vid=70136024-cf6b-4c9a-a6d7-d367a5e45a05"},"vehicle_type_id":"4","last_reported":1717780043,"current_range_meters":18000,"station_id":"ce4bh512rcd13ifvqe2g","pricing_plan_id":"cebpf4jnsgd1na2vs0mg"},{"bike_id":"ddeda329-d020-4c5c-96a0-1639fe155267","system_id":"levelo_inurba_marseille","lat":43.29785,"lon":5.39339,"is_reserved":false,"is_disabled":false,"rental_uris":{"android":"levelo://app?vid=ddeda329-d020-4c5c-96a0-1639fe155267","ios":"levelo://app?vid=ddeda329-d020-4c5c-96a0-1639fe155267"},"vehicle_type_id":"4","last_reported":1717780043,"current_range_meters":22400,"station_id":"chh1huq6cuj3fo74tm60","pricing_plan_id":"cebpf4jnsgd1na2vs0mg"},{"bike_id":"89579bc4-6aa7-4478-a644-24ac7665eb0a","system_id":"levelo_inurba_marseille","lat":43.297815,"lon":5.393548,"is_reserved":false,"is_disabled":false,"rental_uris":{"android":"levelo://app?vid=89579bc4-6aa7-4478-a644-24ac7665eb0a","ios":"levelo://app?vid=89579bc4-6aa7-4478-a644-24ac7665eb0a"},"vehicle_type_id":"4","last_reported":1717780043,"current_range_meters":28400,"station_id":"chh1huq6cuj3fo74tm60","pricing_plan_id":"cebpf4jnsgd1na2vs0mg"},{"bike_id":"ff1440f2-c81e-496d-b577-d1e5c0768f08","system_id":"levelo_inurba_marseille","lat":43.292334,"lon":5.385366,"is_reserved":false,"is_disabled":false,"rental_uris":{"android":"levelo://app?vid=ff1440f2-c81e-496d-b577-d1e5c0768f08","ios":"levelo://app?vid=ff1440f2-c81e-496d-b577-d1e5c0768f08"},"vehicle_type_id":"4","last_reported":1717780043,"current_range_meters":0,"station_id":"ce4bh2h2rcd13ifvqdh0","pricing_plan_id":"cebpf4jnsgd1na2vs0mg"},{"bike_id":"273a2819-17a0-432d-aba1-2069621a36e1","system_id":"levelo_inurba_marseille","lat":43.289741,"lon":5.378306,"is_reserved":false,"is_disabled":false,"rental_uris":{"android":"levelo://app?vid=273a2819-17a0-432d-aba1-2069621a36e1","ios":"levelo://app?vid=273a2819-17a0-432d-aba1-2069621a36e1"},"vehicle_type_id":"4","last_reported":1717780043,"current_range_meters":13600,"station_id":"ce4bh9p2rcd13ifvqed0","pricing_plan_id":"cebpf4jnsgd1na2vs0mg"},{"bike_id":"9eb1f5ab-3b44-4bbf-ac21-0279e7f9c8e4","system_id":"levelo_inurba_marseille","lat":43.330442,"lon":5.389148,"is_reserved":false,"is_disabled":false,"rental_uris":{"android":"levelo://app?vid=9eb1f5ab-3b44-4bbf-ac21-0279e7f9c8e4","ios":"levelo://app?vid=9eb1f5ab-3b44-4bbf-ac21-0279e7f9c8e4"},"vehicle_type_id":"4","last_reported":1717780043,"current_range_meters":12400,"station_id":"ce4bhr92rcd13ifvqhrg","pricing_plan_id":"cebpf4jnsgd1na2vs0mg"},{"bike_id":"57002f9c-1971-4c59-879d-0f62cdf75fde","system_id":"levelo_inurba_marseille","lat":43.330442,"lon":5.389148,"is_reserved":false,"is_disabled":false,"rental_uris":{"android":"levelo://app?vid=57002f9c-1971-4c59-879d-0f62cdf75fde","ios":"levelo://app?vid=57002f9c-1971-4c59-879d-0f62cdf75fde"},"vehicle_type_id":"4","last_reported":1717780043,"current_range_meters":7200,"station_id":"ce4bhr92rcd13ifvqhrg","pricing_plan_id":"cebpf4jnsgd1na2vs0mg"},{"bike_id":"9108f245-90b7-4e0c-ab28-4828180908da","system_id":"levelo_inurba_marseille","lat":43.330259,"lon":5.39038,"is_reserved":false,"is_disabled":false,"rental_uris":{"android":"levelo://app?vid=9108f245-90b7-4e0c-ab28-4828180908da","ios":"levelo://app?vid=9108f245-90b7-4e0c-ab28-4828180908da"},"vehicle_type_id":"4","last_reported":1717780043,"current_range_meters":13600,"station_id":"ce4bhr92rcd13ifvqhrg","pricing_plan_id":"cebpf4jnsgd1na2vs0mg"},{"bike_id":"63d5feee-b68a-4e4a-9d95-b5808a4e263f","system_id":"levelo_inurba_marseille","lat":43.330442,"lon":5.389148,"is_reserved":false,"is_disabled":false,"rental_uris":{"android":"levelo://app?vid=63d5feee-b68a-4e4a-9d95-b5808a4e263f","ios":"levelo://app?vid=63d5feee-b68a-4e4a-9d95-b5808a4e263f"},"vehicle_type_id":"4","last_reported":1717780043,"current_range_meters":24000,"station_id":"ce4bhr92rcd13ifvqhrg","pricing_plan_id":"cebpf4jnsgd1na2vs0mg"},{"bike_id":"10f052da-41c3-43e5-b96c-96043e84b34e","system_id":"levelo_inurba_marseille","lat":43.31067,"lon":5.400863,"is_reserved":false,"is_disabled":false,"rental_uris":{"android":"levelo://app?vid=10f052da-41c3-43e5-b96c-96043e84b34e","ios":"levelo://app?vid=10f052da-41c3-43e5-b96c-96043e84b34e"},"vehicle_type_id":"4","last_reported":1717780043,"current_range_meters":31200,"station_id":"","pricing_plan_id":"cebpf4jnsgd1na2vs0mg"},{"bike_id":"a17e8fa5-7922-4bf2-8126-44f23a78d420","system_id":"levelo_inurba_marseille","lat":43.28856,"lon":5.358371,"is_reserved":false,"is_disabled":false,"rental_uris":{"android":"levelo://app?vid=a17e8fa5-7922-4bf2-8126-44f23a78d420","ios":"levelo://app?vid=a17e8fa5-7922-4bf2-8126-44f23a78d420"},"vehicle_type_id":"4","last_reported":1717780043,"current_range_meters":19600,"station_id":"ce4bhb12rcd13ifvqem0","pricing_plan_id":"cebpf4jnsgd1na2vs0mg"},{"bike_id":"de0d302e-697c-41cf-9b3d-530a7bd4f608","system_id":"levelo_inurba_marseille","lat":43.2901,"lon":5.381269,"is_reserved":false,"is_disabled":false,"rental_uris":{"android":"levelo://app?vid=de0d302e-697c-41cf-9b3d-530a7bd4f608","ios":"levelo://app?vid=de0d302e-697c-41cf-9b3d-530a7bd4f608"},"vehicle_type_id":"4","last_reported":1717780043,"current_range_meters":0,"station_id":"ce4bh4p2rcd13ifvqe1g","pricing_plan_id":"cebpf4jnsgd1na2vs0mg"},{"bike_id":"3635ca78-2c05-46f7-990a-5c6ad2754e4e","system_id":"levelo_inurba_marseille","lat":43.2901,"lon":5.381269,"is_reserved":false,"is_disabled":false,"rental_uris":{"android":"levelo://app?vid=3635ca78-2c05-46f7-990a-5c6ad2754e4e","ios":"levelo://app?vid=3635ca78-2c05-46f7-990a-5c6ad2754e4e"},"vehicle_type_id":"4","last_reported":1717780043,"current_range_meters":30000,"station_id":"ce4bh4p2rcd13ifvqe1g","pricing_plan_id":"cebpf4jnsgd1na2vs0mg"},{"bike_id":"5a70da64-aecd-4170-8480-f95f2e878834","system_id":"levelo_inurba_marseille","lat":43.28852,"lon":5.35849,"is_reserved":false,"is_disabled":false,"rental_uris":{"android":"levelo://app?vid=5a70da64-aecd-4170-8480-f95f2e878834","ios":"levelo://app?vid=5a70da64-aecd-4170-8480-f95f2e878834"},"vehicle_type_id":"4","last_reported":1717780043,"current_range_meters":2000,"station_id":"","pricing_plan_id":"cebpf4jnsgd1na2vs0mg"},{"bike_id":"f5d81ff7-7e0d-44d8-86e3-2548419d17b8","system_id":"levelo_inurba_marseille","lat":43.33737,"lon":5.37483,"is_reserved":false,"is_disabled":false,"rental_uris":{"android":"levelo://app?vid=f5d81ff7-7e0d-44d8-86e3-2548419d17b8","ios":"levelo://app?vid=f5d81ff7-7e0d-44d8-86e3-2548419d17b8"},"vehicle_type_id":"4","last_reported":1717780043,"current_range_meters":6000,"station_id":"","pricing_plan_id":"cebpf4jnsgd1na2vs0mg"},{"bike_id":"2ab5a7f8-0a6d-4201-ab5b-050bcb92b058","system_id":"levelo_inurba_marseille","lat":43.309371,"lon":5.401449,"is_reserved":false,"is_disabled":false,"rental_uris":{"android":"levelo://app?vid=2ab5a7f8-0a6d-4201-ab5b-050bcb92b058","ios":"levelo://app?vid=2ab5a7f8-0a6d-4201-ab5b-050bcb92b058"},"vehicle_type_id":"4","last_reported":1717780043,"current_range_meters":20000,"station_id":"ce4bgvp2rcd13ifvqct0","pricing_plan_id":"cebpf4jnsgd1na2vs0mg"},{"bike_id":"6de5a280-bad5-47db-8f28-b4f22c74e2bb","system_id":"levelo_inurba_marseille","lat":43.309371,"lon":5.401449,"is_reserved":false,"is_disabled":false,"rental_uris":{"android":"levelo://app?vid=6de5a280-bad5-47db-8f28-b4f22c74e2bb","ios":"levelo://app?vid=6de5a280-bad5-47db-8f28-b4f22c74e2bb"},"vehicle_type_id":"4","last_reported":1717780043,"current_range_meters":15600,"station_id":"ce4bgvp2rcd13ifvqct0","pricing_plan_id":"cebpf4jnsgd1na2vs0mg"},{"bike_id":"cb968fa6-1425-4db5-b111-741fc3873653","system_id":"levelo_inurba_marseille","lat":43.33745,"lon":5.374543,"is_reserved":false,"is_disabled":false,"rental_uris":{"android":"levelo://app?vid=cb968fa6-1425-4db5-b111-741fc3873653","ios":"levelo://app?vid=cb968fa6-1425-4db5-b111-741fc3873653"},"vehicle_type_id":"4","last_reported":1717780043,"current_range_meters":29200,"station_id":"","pricing_plan_id":"cebpf4jnsgd1na2vs0mg"},{"bike_id":"ceff1af8-1a5a-442a-94e2-a660a6b91490","system_id":"levelo_inurba_marseille","lat":43.31268,"lon":5.40173,"is_reserved":false,"is_disabled":false,"rental_uris":{"android":"levelo://app?vid=ceff1af8-1a5a-442a-94e2-a660a6b91490","ios":"levelo://app?vid=ceff1af8-1a5a-442a-94e2-a660a6b91490"},"vehicle_type_id":"4","last_reported":1717780043,"current_range_meters":4800,"station_id":"ce4bh092rcd13ifvqd30","pricing_plan_id":"cebpf4jnsgd1na2vs0mg"},{"bike_id":"687c0801-f2ac-4679-8409-c4662b81b882","system_id":"levelo_inurba_marseille","lat":43.309371,"lon":5.401449,"is_reserved":false,"is_disabled":false,"rental_uris":{"android":"levelo://app?vid=687c0801-f2ac-4679-8409-c4662b81b882","ios":"levelo://app?vid=687c0801-f2ac-4679-8409-c4662b81b882"},"vehicle_type_id":"4","last_reported":1717780043,"current_range_meters":0,"station_id":"ce4bgvp2rcd13ifvqct0","pricing_plan_id":"cebpf4jnsgd1na2vs0mg"},{"bike_id":"1e2f8b55-fdbf-441a-906e-1ae2d57293ab","system_id":"levelo_inurba_marseille","lat":43.3093,"lon":5.40146,"is_reserved":false,"is_disabled":false,"rental_uris":{"android":"levelo://app?vid=1e2f8b55-fdbf-441a-906e-1ae2d57293ab","ios":"levelo://app?vid=1e2f8b55-fdbf-441a-906e-1ae2d57293ab"},"vehicle_type_id":"4","last_reported":1717780043,"current_range_meters":0,"station_id":"","pricing_plan_id":"cebpf4jnsgd1na2vs0mg"},{"bike_id":"5e662ddf-d523-4773-afc8-52e65d8b5b01","system_id":"levelo_inurba_marseille","lat":43.30929,"lon":5.40149,"is_reserved":false,"is_disabled":false,"rental_uris":{"android":"levelo://app?vid=5e662ddf-d523-4773-afc8-52e65d8b5b01","ios":"levelo://app?vid=5e662ddf-d523-4773-afc8-52e65d8b5b01"},"vehicle_type_id":"4","last_reported":1717780043,"current_range_meters":0,"station_id":"ce4bgvp2rcd13ifvqct0","pricing_plan_id":"cebpf4jnsgd1na2vs0mg"},{"bike_id":"8318e27e-8553-4cce-80b9-ba8a9b0f2180","system_id":"levelo_inurba_marseille","lat":43.312609,"lon":5.401662,"is_reserved":false,"is_disabled":false,"rental_uris":{"android":"levelo://app?vid=8318e27e-8553-4cce-80b9-ba8a9b0f2180","ios":"levelo://app?vid=8318e27e-8553-4cce-80b9-ba8a9b0f2180"},"vehicle_type_id":"4","last_reported":1717780043,"current_range_meters":25200,"station_id":"ce4bh092rcd13ifvqd30","pricing_plan_id":"cebpf4jnsgd1na2vs0mg"},{"bike_id":"c4f698ec-64e9-4887-b0e3-1335dc62c252","system_id":"levelo_inurba_marseille","lat":43.337564,"lon":5.374545,"is_reserved":false,"is_disabled":false,"rental_uris":{"android":"levelo://app?vid=c4f698ec-64e9-4887-b0e3-1335dc62c252","ios":"levelo://app?vid=c4f698ec-64e9-4887-b0e3-1335dc62c252"},"vehicle_type_id":"4","last_reported":1717780043,"current_range_meters":18400,"station_id":"","pricing_plan_id":"cebpf4jnsgd1na2vs0mg"},{"bike_id":"1fcf9f4a-821a-4e24-8f11-be3d088c25bd","system_id":"levelo_inurba_marseille","lat":43.306414,"lon":5.40084,"is_reserved":false,"is_disabled":false,"rental_uris":{"android":"levelo://app?vid=1fcf9f4a-821a-4e24-8f11-be3d088c25bd","ios":"levelo://app?vid=1fcf9f4a-821a-4e24-8f11-be3d088c25bd"},"vehicle_type_id":"4","last_reported":1717780043,"current_range_meters":0,"station_id":"ce4bh112rcd13ifvqda0","pricing_plan_id":"cebpf4jnsgd1na2vs0mg"},{"bike_id":"1b8081a7-5fe1-4966-a78e-a17c2bc76b50","system_id":"levelo_inurba_marseille","lat":43.306412,"lon":5.401035,"is_reserved":false,"is_disabled":false,"rental_uris":{"android":"levelo://app?vid=1b8081a7-5fe1-4966-a78e-a17c2bc76b50","ios":"levelo://app?vid=1b8081a7-5fe1-4966-a78e-a17c2bc76b50"},"vehicle_type_id":"4","last_reported":1717780043,"current_range_meters":12000,"station_id":"ce4bh112rcd13ifvqda0","pricing_plan_id":"cebpf4jnsgd1na2vs0mg"},{"bike_id":"212a6e72-20c2-4729-a6fe-22226ecaee91","system_id":"levelo_inurba_marseille","lat":43.30142,"lon":5.39857,"is_reserved":false,"is_disabled":false,"rental_uris":{"android":"levelo://app?vid=212a6e72-20c2-4729-a6fe-22226ecaee91","ios":"levelo://app?vid=212a6e72-20c2-4729-a6fe-22226ecaee91"},"vehicle_type_id":"4","last_reported":1717780043,"current_range_meters":0,"station_id":"ce4bh0h2rcd13ifvqd40","pricing_plan_id":"cebpf4jnsgd1na2vs0mg"},{"bike_id":"ad65f61e-b772-4084-9f76-eff09d7544fa","system_id":"levelo_inurba_marseille","lat":43.301117,"lon":5.398795,"is_reserved":false,"is_disabled":false,"rental_uris":{"android":"levelo://app?vid=ad65f61e-b772-4084-9f76-eff09d7544fa","ios":"levelo://app?vid=ad65f61e-b772-4084-9f76-eff09d7544fa"},"vehicle_type_id":"4","last_reported":1717780043,"current_range_meters":23200,"station_id":"ce4bh0h2rcd13ifvqd40","pricing_plan_id":"cebpf4jnsgd1na2vs0mg"},{"bike_id":"6d679425-45dc-4b0e-b21f-2ce1b5cb7ae7","system_id":"levelo_inurba_marseille","lat":43.286836,"lon":5.367224,"is_reserved":false,"is_disabled":false,"rental_uris":{"android":"levelo://app?vid=6d679425-45dc-4b0e-b21f-2ce1b5cb7ae7","ios":"levelo://app?vid=6d679425-45dc-4b0e-b21f-2ce1b5cb7ae7"},"vehicle_type_id":"4","last_reported":1717780043,"current_range_meters":6000,"station_id":"","pricing_plan_id":"cebpf4jnsgd1na2vs0mg"},{"bike_id":"2e304f85-63a7-4525-97e4-474c52d0a33d","system_id":"levelo_inurba_marseille","lat":43.28727,"lon":5.36078,"is_reserved":false,"is_disabled":false,"rental_uris":{"android":"levelo://app?vid=2e304f85-63a7-4525-97e4-474c52d0a33d","ios":"levelo://app?vid=2e304f85-63a7-4525-97e4-474c52d0a33d"},"vehicle_type_id":"4","last_reported":1717780043,"current_range_meters":4000,"station_id":"cki0cbj6b192h4jlfktg","pricing_plan_id":"cebpf4jnsgd1na2vs0mg"},{"bike_id":"360d2ba7-3132-4ff1-9d3a-6386eef8204e","system_id":"levelo_inurba_marseille","lat":43.286591,"lon":5.363346,"is_reserved":false,"is_disabled":false,"rental_uris":{"android":"levelo://app?vid=360d2ba7-3132-4ff1-9d3a-6386eef8204e","ios":"levelo://app?vid=360d2ba7-3132-4ff1-9d3a-6386eef8204e"},"vehicle_type_id":"4","last_reported":1717780043,"current_range_meters":14800,"station_id":"ce4bhah2rcd13ifvqej0","pricing_plan_id":"cebpf4jnsgd1na2vs0mg"},{"bike_id":"d8a840f1-d4a4-4f36-84c4-c20aa025d4cb","system_id":"levelo_inurba_marseille","lat":43.29873,"lon":5.39731,"is_reserved":false,"is_disabled":false,"rental_uris":{"android":"levelo://app?vid=d8a840f1-d4a4-4f36-84c4-c20aa025d4cb","ios":"levelo://app?vid=d8a840f1-d4a4-4f36-84c4-c20aa025d4cb"},"vehicle_type_id":"4","last_reported":1717780043,"current_range_meters":1200,"station_id":"","pricing_plan_id":"cebpf4jnsgd1na2vs0mg"},{"bike_id":"35af90f7-896f-42da-82b0-51f06834653a","system_id":"levelo_inurba_marseille","lat":43.298681,"lon":5.397225,"is_reserved":false,"is_disabled":false,"rental_uris":{"android":"levelo://app?vid=35af90f7-896f-42da-82b0-51f06834653a","ios":"levelo://app?vid=35af90f7-896f-42da-82b0-51f06834653a"},"vehicle_type_id":"4","last_reported":1717780043,"current_range_meters":30000,"station_id":"ce4bh0h2rcd13ifvqd50","pricing_plan_id":"cebpf4jnsgd1na2vs0mg"},{"bike_id":"ede76472-6ff8-4148-b7a2-c21bb69e0fcd","system_id":"levelo_inurba_marseille","lat":43.298681,"lon":5.397225,"is_reserved":false,"is_disabled":false,"rental_uris":{"android":"levelo://app?vid=ede76472-6ff8-4148-b7a2-c21bb69e0fcd","ios":"levelo://app?vid=ede76472-6ff8-4148-b7a2-c21bb69e0fcd"},"vehicle_type_id":"4","last_reported":1717780043,"current_range_meters":24800,"station_id":"ce4bh0h2rcd13ifvqd50","pricing_plan_id":"cebpf4jnsgd1na2vs0mg"},{"bike_id":"01993729-e41d-49cd-a350-416b7d44299b","system_id":"levelo_inurba_marseille","lat":43.286593,"lon":5.363346,"is_reserved":false,"is_disabled":false,"rental_uris":{"android":"levelo://app?vid=01993729-e41d-49cd-a350-416b7d44299b","ios":"levelo://app?vid=01993729-e41d-49cd-a350-416b7d44299b"},"vehicle_type_id":"4","last_reported":1717780043,"current_range_meters":3200,"station_id":"ce4bhah2rcd13ifvqej0","pricing_plan_id":"cebpf4jnsgd1na2vs0mg"},{"bike_id":"f21eb051-23b1-4485-9b11-107ca21e2a07","system_id":"levelo_inurba_marseille","lat":43.287005,"lon":5.373857,"is_reserved":false,"is_disabled":false,"rental_uris":{"android":"levelo://app?vid=f21eb051-23b1-4485-9b11-107ca21e2a07","ios":"levelo://app?vid=f21eb051-23b1-4485-9b11-107ca21e2a07"},"vehicle_type_id":"4","last_reported":1717780043,"current_range_meters":20400,"station_id":"ce4bh3p2rcd13ifvqdq0","pricing_plan_id":"cebpf4jnsgd1na2vs0mg"},{"bike_id":"3dfb69b7-96de-454e-8a7f-e7c965b342ea","system_id":"levelo_inurba_marseille","lat":43.28698,"lon":5.3739,"is_reserved":false,"is_disabled":false,"rental_uris":{"android":"levelo://app?vid=3dfb69b7-96de-454e-8a7f-e7c965b342ea","ios":"levelo://app?vid=3dfb69b7-96de-454e-8a7f-e7c965b342ea"},"vehicle_type_id":"4","last_reported":1717780043,"current_range_meters":0,"station_id":"ce4bh3p2rcd13ifvqdq0","pricing_plan_id":"cebpf4jnsgd1na2vs0mg"},{"bike_id":"641bcfbc-b94e-4225-ab47-e6ea57c56be0","system_id":"levelo_inurba_marseille","lat":43.2866,"lon":5.36354,"is_reserved":false,"is_disabled":false,"rental_uris":{"android":"levelo://app?vid=641bcfbc-b94e-4225-ab47-e6ea57c56be0","ios":"levelo://app?vid=641bcfbc-b94e-4225-ab47-e6ea57c56be0"},"vehicle_type_id":"4","last_reported":1717780043,"current_range_meters":0,"station_id":"ce4bhah2rcd13ifvqej0","pricing_plan_id":"cebpf4jnsgd1na2vs0mg"},{"bike_id":"0960c1ee-b8e2-4acc-87f2-b7650da92a43","system_id":"levelo_inurba_marseille","lat":43.28698,"lon":5.374,"is_reserved":false,"is_disabled":false,"rental_uris":{"android":"levelo://app?vid=0960c1ee-b8e2-4acc-87f2-b7650da92a43","ios":"levelo://app?vid=0960c1ee-b8e2-4acc-87f2-b7650da92a43"},"vehicle_type_id":"4","last_reported":1717780043,"current_range_meters":0,"station_id":"ce4bh3p2rcd13ifvqdq0","pricing_plan_id":"cebpf4jnsgd1na2vs0mg"},{"bike_id":"1e1f8b74-0e30-428a-a50b-32b3ed5692b1","system_id":"levelo_inurba_marseille","lat":43.298681,"lon":5.397225,"is_reserved":false,"is_disabled":false,"rental_uris":{"android":"levelo://app?vid=1e1f8b74-0e30-428a-a50b-32b3ed5692b1","ios":"levelo://app?vid=1e1f8b74-0e30-428a-a50b-32b3ed5692b1"},"vehicle_type_id":"4","last_reported":1717780043,"current_range_meters":13200,"station_id":"ce4bh0h2rcd13ifvqd50","pricing_plan_id":"cebpf4jnsgd1na2vs0mg"},{"bike_id":"5f3b7565-116e-4b6d-a5b7-871a2eee265c","system_id":"levelo_inurba_marseille","lat":43.295196,"lon":5.39397,"is_reserved":false,"is_disabled":false,"rental_uris":{"android":"levelo://app?vid=5f3b7565-116e-4b6d-a5b7-871a2eee265c","ios":"levelo://app?vid=5f3b7565-116e-4b6d-a5b7-871a2eee265c"},"vehicle_type_id":"4","last_reported":1717780043,"current_range_meters":16800,"station_id":"ce4bh292rcd13ifvqdf0","pricing_plan_id":"cebpf4jnsgd1na2vs0mg"},{"bike_id":"72833424-f157-473d-bc85-8b2da848bfca","system_id":"levelo_inurba_marseille","lat":43.295194,"lon":5.39397,"is_reserved":false,"is_disabled":false,"rental_uris":{"android":"levelo://app?vid=72833424-f157-473d-bc85-8b2da848bfca","ios":"levelo://app?vid=72833424-f157-473d-bc85-8b2da848bfca"},"vehicle_type_id":"4","last_reported":1717780043,"current_range_meters":13600,"station_id":"ce4bh292rcd13ifvqdf0","pricing_plan_id":"cebpf4jnsgd1na2vs0mg"},{"bike_id":"564cc913-955e-4960-b295-b82c60b144f2","system_id":"levelo_inurba_marseille","lat":43.290345,"lon":5.38646,"is_reserved":false,"is_disabled":false,"rental_uris":{"android":"levelo://app?vid=564cc913-955e-4960-b295-b82c60b144f2","ios":"levelo://app?vid=564cc913-955e-4960-b295-b82c60b144f2"},"vehicle_type_id":"4","last_reported":1717780043,"current_range_meters":800,"station_id":"ce4bh4p2rcd13ifvqe0g","pricing_plan_id":"cebpf4jnsgd1na2vs0mg"},{"bike_id":"a0fda5cd-094a-46ca-ac54-bcfd43057dea","system_id":"levelo_inurba_marseille","lat":43.286039,"lon":5.370681,"is_reserved":false,"is_disabled":false,"rental_uris":{"android":"levelo://app?vid=a0fda5cd-094a-46ca-ac54-bcfd43057dea","ios":"levelo://app?vid=a0fda5cd-094a-46ca-ac54-bcfd43057dea"},"vehicle_type_id":"4","last_reported":1717780043,"current_range_meters":25200,"station_id":"ce4bht12rcd13ifvqi60","pricing_plan_id":"cebpf4jnsgd1na2vs0mg"},{"bike_id":"650fa684-82e9-4139-907d-523899a967d1","system_id":"levelo_inurba_marseille","lat":43.302759,"lon":5.400793,"is_reserved":false,"is_disabled":false,"rental_uris":{"android":"levelo://app?vid=650fa684-82e9-4139-907d-523899a967d1","ios":"levelo://app?vid=650fa684-82e9-4139-907d-523899a967d1"},"vehicle_type_id":"4","last_reported":1717780043,"current_range_meters":7200,"station_id":"ce4bgvh2rcd13ifvqcs0","pricing_plan_id":"cebpf4jnsgd1na2vs0mg"},{"bike_id":"fcb03cfe-2255-4b89-b95f-ba80e31a23f6","system_id":"levelo_inurba_marseille","lat":43.286039,"lon":5.370681,"is_reserved":false,"is_disabled":false,"rental_uris":{"android":"levelo://app?vid=fcb03cfe-2255-4b89-b95f-ba80e31a23f6","ios":"levelo://app?vid=fcb03cfe-2255-4b89-b95f-ba80e31a23f6"},"vehicle_type_id":"4","last_reported":1717780043,"current_range_meters":10400,"station_id":"ce4bht12rcd13ifvqi60","pricing_plan_id":"cebpf4jnsgd1na2vs0mg"},{"bike_id":"f9397181-2862-49ab-a440-9e77222a5379","system_id":"levelo_inurba_marseille","lat":43.286039,"lon":5.370681,"is_reserved":false,"is_disabled":false,"rental_uris":{"android":"levelo://app?vid=f9397181-2862-49ab-a440-9e77222a5379","ios":"levelo://app?vid=f9397181-2862-49ab-a440-9e77222a5379"},"vehicle_type_id":"4","last_reported":1717780043,"current_range_meters":21600,"station_id":"ce4bht12rcd13ifvqi60","pricing_plan_id":"cebpf4jnsgd1na2vs0mg"},{"bike_id":"b1277ced-54f6-4d6c-92f4-1f77244992e2","system_id":"levelo_inurba_marseille","lat":43.286039,"lon":5.370681,"is_reserved":false,"is_disabled":false,"rental_uris":{"android":"levelo://app?vid=b1277ced-54f6-4d6c-92f4-1f77244992e2","ios":"levelo://app?vid=b1277ced-54f6-4d6c-92f4-1f77244992e2"},"vehicle_type_id":"4","last_reported":1717780043,"current_range_meters":22400,"station_id":"ce4bht12rcd13ifvqi60","pricing_plan_id":"cebpf4jnsgd1na2vs0mg"},{"bike_id":"5b43c40f-2488-4a05-84af-cc0148af6824","system_id":"levelo_inurba_marseille","lat":43.286,"lon":5.37075,"is_reserved":false,"is_disabled":false,"rental_uris":{"android":"levelo://app?vid=5b43c40f-2488-4a05-84af-cc0148af6824","ios":"levelo://app?vid=5b43c40f-2488-4a05-84af-cc0148af6824"},"vehicle_type_id":"4","last_reported":1717780043,"current_range_meters":0,"station_id":"ce4bht12rcd13ifvqi60","pricing_plan_id":"cebpf4jnsgd1na2vs0mg"},{"bike_id":"1a1adc70-c71d-42e9-9231-3ec02c596c17","system_id":"levelo_inurba_marseille","lat":43.286039,"lon":5.370681,"is_reserved":false,"is_disabled":false,"rental_uris":{"android":"levelo://app?vid=1a1adc70-c71d-42e9-9231-3ec02c596c17","ios":"levelo://app?vid=1a1adc70-c71d-42e9-9231-3ec02c596c17"},"vehicle_type_id":"4","last_reported":1717780043,"current_range_meters":2000,"station_id":"ce4bht12rcd13ifvqi60","pricing_plan_id":"cebpf4jnsgd1na2vs0mg"},{"bike_id":"69ff26e8-d177-4e6e-81ee-01bcb4a2fa1e","system_id":"levelo_inurba_marseille","lat":43.287184,"lon":5.37937,"is_reserved":false,"is_disabled":false,"rental_uris":{"android":"levelo://app?vid=69ff26e8-d177-4e6e-81ee-01bcb4a2fa1e","ios":"levelo://app?vid=69ff26e8-d177-4e6e-81ee-01bcb4a2fa1e"},"vehicle_type_id":"4","last_reported":1717780043,"current_range_meters":12000,"station_id":"ce4bh9p2rcd13ifvqec0","pricing_plan_id":"cebpf4jnsgd1na2vs0mg"},{"bike_id":"60070079-2d84-4b31-8b1e-1651ce1646c0","system_id":"levelo_inurba_marseille","lat":43.28726,"lon":5.37931,"is_reserved":false,"is_disabled":false,"rental_uris":{"android":"levelo://app?vid=60070079-2d84-4b31-8b1e-1651ce1646c0","ios":"levelo://app?vid=60070079-2d84-4b31-8b1e-1651ce1646c0"},"vehicle_type_id":"4","last_reported":1717780043,"current_range_meters":31200,"station_id":"ce4bh9p2rcd13ifvqec0","pricing_plan_id":"cebpf4jnsgd1na2vs0mg"},{"bike_id":"7097b3b5-f414-401b-ac44-7bdc4259d60f","system_id":"levelo_inurba_marseille","lat":43.287143,"lon":5.379436,"is_reserved":false,"is_disabled":false,"rental_uris":{"android":"levelo://app?vid=7097b3b5-f414-401b-ac44-7bdc4259d60f","ios":"levelo://app?vid=7097b3b5-f414-401b-ac44-7bdc4259d60f"},"vehicle_type_id":"4","last_reported":1717780043,"current_range_meters":27200,"station_id":"ce4bh9p2rcd13ifvqec0","pricing_plan_id":"cebpf4jnsgd1na2vs0mg"},{"bike_id":"2e5f25a6-8248-440f-a3e6-105cfe6020d2","system_id":"levelo_inurba_marseille","lat":43.287104,"lon":5.379454,"is_reserved":false,"is_disabled":false,"rental_uris":{"android":"levelo://app?vid=2e5f25a6-8248-440f-a3e6-105cfe6020d2","ios":"levelo://app?vid=2e5f25a6-8248-440f-a3e6-105cfe6020d2"},"vehicle_type_id":"4","last_reported":1717780043,"current_range_meters":31200,"station_id":"ce4bh9p2rcd13ifvqec0","pricing_plan_id":"cebpf4jnsgd1na2vs0mg"},{"bike_id":"3c63c494-7a9d-4c07-9b50-1c084ac6f93c","system_id":"levelo_inurba_marseille","lat":43.28675,"lon":5.35469,"is_reserved":false,"is_disabled":false,"rental_uris":{"android":"levelo://app?vid=3c63c494-7a9d-4c07-9b50-1c084ac6f93c","ios":"levelo://app?vid=3c63c494-7a9d-4c07-9b50-1c084ac6f93c"},"vehicle_type_id":"4","last_reported":1717780043,"current_range_meters":9200,"station_id":"","pricing_plan_id":"cebpf4jnsgd1na2vs0mg"},{"bike_id":"4aa933df-201c-4cfe-9fc0-62fbdb301dea","system_id":"levelo_inurba_marseille","lat":43.287417,"lon":5.352228,"is_reserved":false,"is_disabled":false,"rental_uris":{"android":"levelo://app?vid=4aa933df-201c-4cfe-9fc0-62fbdb301dea","ios":"levelo://app?vid=4aa933df-201c-4cfe-9fc0-62fbdb301dea"},"vehicle_type_id":"4","last_reported":1717780043,"current_range_meters":26000,"station_id":"","pricing_plan_id":"cebpf4jnsgd1na2vs0mg"},{"bike_id":"fe6de07a-ada4-41f8-bd0d-1a5a64fba262","system_id":"levelo_inurba_marseille","lat":43.291994,"lon":5.392907,"is_reserved":false,"is_disabled":false,"rental_uris":{"android":"levelo://app?vid=fe6de07a-ada4-41f8-bd0d-1a5a64fba262","ios":"levelo://app?vid=fe6de07a-ada4-41f8-bd0d-1a5a64fba262"},"vehicle_type_id":"4","last_reported":1717780043,"current_range_meters":10000,"station_id":"ce4bh192rcd13ifvqdd0","pricing_plan_id":"cebpf4jnsgd1na2vs0mg"},{"bike_id":"93526fca-75f4-4c41-b021-12da5e78493f","system_id":"levelo_inurba_marseille","lat":43.291994,"lon":5.392907,"is_reserved":false,"is_disabled":false,"rental_uris":{"android":"levelo://app?vid=93526fca-75f4-4c41-b021-12da5e78493f","ios":"levelo://app?vid=93526fca-75f4-4c41-b021-12da5e78493f"},"vehicle_type_id":"4","last_reported":1717780043,"current_range_meters":27600,"station_id":"ce4bh192rcd13ifvqdd0","pricing_plan_id":"cebpf4jnsgd1na2vs0mg"},{"bike_id":"8cbf6d42-9bf7-416f-ad97-4cf80e4fbb62","system_id":"levelo_inurba_marseille","lat":43.291822,"lon":5.393085,"is_reserved":false,"is_disabled":false,"rental_uris":{"android":"levelo://app?vid=8cbf6d42-9bf7-416f-ad97-4cf80e4fbb62","ios":"levelo://app?vid=8cbf6d42-9bf7-416f-ad97-4cf80e4fbb62"},"vehicle_type_id":"4","last_reported":1717780043,"current_range_meters":0,"station_id":"ce4bh192rcd13ifvqdd0","pricing_plan_id":"cebpf4jnsgd1na2vs0mg"},{"bike_id":"7ba47bd0-6fe8-499e-bbc3-d655206d7de0","system_id":"levelo_inurba_marseille","lat":43.284534,"lon":5.358662,"is_reserved":false,"is_disabled":false,"rental_uris":{"android":"levelo://app?vid=7ba47bd0-6fe8-499e-bbc3-d655206d7de0","ios":"levelo://app?vid=7ba47bd0-6fe8-499e-bbc3-d655206d7de0"},"vehicle_type_id":"4","last_reported":1717780043,"current_range_meters":800,"station_id":"ce4bhah2rcd13ifvqei0","pricing_plan_id":"cebpf4jnsgd1na2vs0mg"},{"bike_id":"173f60ca-fab6-443d-9d88-40cf92b6d744","system_id":"levelo_inurba_marseille","lat":43.284534,"lon":5.358662,"is_reserved":false,"is_disabled":false,"rental_uris":{"android":"levelo://app?vid=173f60ca-fab6-443d-9d88-40cf92b6d744","ios":"levelo://app?vid=173f60ca-fab6-443d-9d88-40cf92b6d744"},"vehicle_type_id":"4","last_reported":1717780043,"current_range_meters":0,"station_id":"ce4bhah2rcd13ifvqei0","pricing_plan_id":"cebpf4jnsgd1na2vs0mg"},{"bike_id":"30bb0e9c-629a-4a57-96e2-e3b6374670c8","system_id":"levelo_inurba_marseille","lat":43.294314,"lon":5.397498,"is_reserved":false,"is_disabled":false,"rental_uris":{"android":"levelo://app?vid=30bb0e9c-629a-4a57-96e2-e3b6374670c8","ios":"levelo://app?vid=30bb0e9c-629a-4a57-96e2-e3b6374670c8"},"vehicle_type_id":"4","last_reported":1717780043,"current_range_meters":11200,"station_id":"ce4bh3h2rcd13ifvqdo0","pricing_plan_id":"cebpf4jnsgd1na2vs0mg"},{"bike_id":"5fe55bbc-dc4b-445c-bbfa-7c92f104fd6f","system_id":"levelo_inurba_marseille","lat":43.294314,"lon":5.397498,"is_reserved":false,"is_disabled":false,"rental_uris":{"android":"levelo://app?vid=5fe55bbc-dc4b-445c-bbfa-7c92f104fd6f","ios":"levelo://app?vid=5fe55bbc-dc4b-445c-bbfa-7c92f104fd6f"},"vehicle_type_id":"4","last_reported":1717780043,"current_range_meters":13200,"station_id":"ce4bh3h2rcd13ifvqdo0","pricing_plan_id":"cebpf4jnsgd1na2vs0mg"},{"bike_id":"3ee00098-36ba-4a9d-b1ef-f43b2f8b0911","system_id":"levelo_inurba_marseille","lat":43.294314,"lon":5.397498,"is_reserved":false,"is_disabled":false,"rental_uris":{"android":"levelo://app?vid=3ee00098-36ba-4a9d-b1ef-f43b2f8b0911","ios":"levelo://app?vid=3ee00098-36ba-4a9d-b1ef-f43b2f8b0911"},"vehicle_type_id":"4","last_reported":1717780043,"current_range_meters":0,"station_id":"ce4bh3h2rcd13ifvqdo0","pricing_plan_id":"cebpf4jnsgd1na2vs0mg"},{"bike_id":"766bb971-4b30-415a-8ac2-d111153d4d6c","system_id":"levelo_inurba_marseille","lat":43.285856,"lon":5.350771,"is_reserved":false,"is_disabled":false,"rental_uris":{"android":"levelo://app?vid=766bb971-4b30-415a-8ac2-d111153d4d6c","ios":"levelo://app?vid=766bb971-4b30-415a-8ac2-d111153d4d6c"},"vehicle_type_id":"4","last_reported":1717780043,"current_range_meters":0,"station_id":"ce4bhch2rcd13ifvqeug","pricing_plan_id":"cebpf4jnsgd1na2vs0mg"},{"bike_id":"8976798d-d818-4063-81c8-508f7dbad95b","system_id":"levelo_inurba_marseille","lat":43.285848,"lon":5.350787,"is_reserved":false,"is_disabled":false,"rental_uris":{"android":"levelo://app?vid=8976798d-d818-4063-81c8-508f7dbad95b","ios":"levelo://app?vid=8976798d-d818-4063-81c8-508f7dbad95b"},"vehicle_type_id":"4","last_reported":1717780043,"current_range_meters":19600,"station_id":"ce4bhch2rcd13ifvqeug","pricing_plan_id":"cebpf4jnsgd1na2vs0mg"},{"bike_id":"2b2ae0e2-5dad-4669-a940-ea7ed20dab26","system_id":"levelo_inurba_marseille","lat":43.285856,"lon":5.350771,"is_reserved":false,"is_disabled":false,"rental_uris":{"android":"levelo://app?vid=2b2ae0e2-5dad-4669-a940-ea7ed20dab26","ios":"levelo://app?vid=2b2ae0e2-5dad-4669-a940-ea7ed20dab26"},"vehicle_type_id":"4","last_reported":1717780043,"current_range_meters":0,"station_id":"ce4bhch2rcd13ifvqeug","pricing_plan_id":"cebpf4jnsgd1na2vs0mg"},{"bike_id":"aa284899-d0ce-4106-bdf8-3b6f68df1546","system_id":"levelo_inurba_marseille","lat":43.285848,"lon":5.350787,"is_reserved":false,"is_disabled":false,"rental_uris":{"android":"levelo://app?vid=aa284899-d0ce-4106-bdf8-3b6f68df1546","ios":"levelo://app?vid=aa284899-d0ce-4106-bdf8-3b6f68df1546"},"vehicle_type_id":"4","last_reported":1717780043,"current_range_meters":0,"station_id":"ce4bhch2rcd13ifvqeug","pricing_plan_id":"cebpf4jnsgd1na2vs0mg"},{"bike_id":"3db354c2-1235-49e4-ad59-7ed8c91cfadc","system_id":"levelo_inurba_marseille","lat":43.285848,"lon":5.350787,"is_reserved":false,"is_disabled":false,"rental_uris":{"android":"levelo://app?vid=3db354c2-1235-49e4-ad59-7ed8c91cfadc","ios":"levelo://app?vid=3db354c2-1235-49e4-ad59-7ed8c91cfadc"},"vehicle_type_id":"4","last_reported":1717780043,"current_range_meters":0,"station_id":"ce4bhch2rcd13ifvqeug","pricing_plan_id":"cebpf4jnsgd1na2vs0mg"},{"bike_id":"3823e368-86fc-42cf-89bc-a6d6f6c3b72c","system_id":"levelo_inurba_marseille","lat":43.285856,"lon":5.350771,"is_reserved":false,"is_disabled":false,"rental_uris":{"android":"levelo://app?vid=3823e368-86fc-42cf-89bc-a6d6f6c3b72c","ios":"levelo://app?vid=3823e368-86fc-42cf-89bc-a6d6f6c3b72c"},"vehicle_type_id":"4","last_reported":1717780043,"current_range_meters":3600,"station_id":"ce4bhch2rcd13ifvqeug","pricing_plan_id":"cebpf4jnsgd1na2vs0mg"},{"bike_id":"f6b9ba81-2bdc-4eed-8461-c652e105c07b","system_id":"levelo_inurba_marseille","lat":43.285848,"lon":5.350787,"is_reserved":false,"is_disabled":false,"rental_uris":{"android":"levelo://app?vid=f6b9ba81-2bdc-4eed-8461-c652e105c07b","ios":"levelo://app?vid=f6b9ba81-2bdc-4eed-8461-c652e105c07b"},"vehicle_type_id":"4","last_reported":1717780043,"current_range_meters":18400,"station_id":"ce4bhch2rcd13ifvqeug","pricing_plan_id":"cebpf4jnsgd1na2vs0mg"},{"bike_id":"36d1191a-205c-43b8-88ec-13699a381d2a","system_id":"levelo_inurba_marseille","lat":43.285848,"lon":5.350787,"is_reserved":false,"is_disabled":false,"rental_uris":{"android":"levelo://app?vid=36d1191a-205c-43b8-88ec-13699a381d2a","ios":"levelo://app?vid=36d1191a-205c-43b8-88ec-13699a381d2a"},"vehicle_type_id":"4","last_reported":1717780043,"current_range_meters":15600,"station_id":"ce4bhch2rcd13ifvqeug","pricing_plan_id":"cebpf4jnsgd1na2vs0mg"},{"bike_id":"6d46b12f-d327-4019-b905-f2db65a193bf","system_id":"levelo_inurba_marseille","lat":43.283998,"lon":5.375062,"is_reserved":false,"is_disabled":false,"rental_uris":{"android":"levelo://app?vid=6d46b12f-d327-4019-b905-f2db65a193bf","ios":"levelo://app?vid=6d46b12f-d327-4019-b905-f2db65a193bf"},"vehicle_type_id":"4","last_reported":1717780043,"current_range_meters":27200,"station_id":"ce4bh412rcd13ifvqds0","pricing_plan_id":"cebpf4jnsgd1na2vs0mg"},{"bike_id":"54f7ff17-165a-4ab7-9450-7dfe26f7bf0a","system_id":"levelo_inurba_marseille","lat":43.283998,"lon":5.375062,"is_reserved":false,"is_disabled":false,"rental_uris":{"android":"levelo://app?vid=54f7ff17-165a-4ab7-9450-7dfe26f7bf0a","ios":"levelo://app?vid=54f7ff17-165a-4ab7-9450-7dfe26f7bf0a"},"vehicle_type_id":"4","last_reported":1717780043,"current_range_meters":5600,"station_id":"ce4bh412rcd13ifvqds0","pricing_plan_id":"cebpf4jnsgd1na2vs0mg"},{"bike_id":"3a630e53-0b54-4242-81c4-c3da5871f47e","system_id":"levelo_inurba_marseille","lat":43.283998,"lon":5.375062,"is_reserved":false,"is_disabled":false,"rental_uris":{"android":"levelo://app?vid=3a630e53-0b54-4242-81c4-c3da5871f47e","ios":"levelo://app?vid=3a630e53-0b54-4242-81c4-c3da5871f47e"},"vehicle_type_id":"4","last_reported":1717780043,"current_range_meters":15200,"station_id":"ce4bh412rcd13ifvqds0","pricing_plan_id":"cebpf4jnsgd1na2vs0mg"},{"bike_id":"ae1168b4-aabb-40ad-952b-7473f5f880fb","system_id":"levelo_inurba_marseille","lat":43.283998,"lon":5.375062,"is_reserved":false,"is_disabled":false,"rental_uris":{"android":"levelo://app?vid=ae1168b4-aabb-40ad-952b-7473f5f880fb","ios":"levelo://app?vid=ae1168b4-aabb-40ad-952b-7473f5f880fb"},"vehicle_type_id":"4","last_reported":1717780043,"current_range_meters":0,"station_id":"ce4bh412rcd13ifvqds0","pricing_plan_id":"cebpf4jnsgd1na2vs0mg"},{"bike_id":"59d66657-12e4-4cbe-bdc4-70dcbf8f16c1","system_id":"levelo_inurba_marseille","lat":43.283998,"lon":5.375062,"is_reserved":false,"is_disabled":false,"rental_uris":{"android":"levelo://app?vid=59d66657-12e4-4cbe-bdc4-70dcbf8f16c1","ios":"levelo://app?vid=59d66657-12e4-4cbe-bdc4-70dcbf8f16c1"},"vehicle_type_id":"4","last_reported":1717780043,"current_range_meters":0,"station_id":"ce4bh412rcd13ifvqds0","pricing_plan_id":"cebpf4jnsgd1na2vs0mg"},{"bike_id":"50470cbc-435a-492a-bf4c-2e15a2799d38","system_id":"levelo_inurba_marseille","lat":43.283998,"lon":5.375062,"is_reserved":false,"is_disabled":false,"rental_uris":{"android":"levelo://app?vid=50470cbc-435a-492a-bf4c-2e15a2799d38","ios":"levelo://app?vid=50470cbc-435a-492a-bf4c-2e15a2799d38"},"vehicle_type_id":"4","last_reported":1717780043,"current_range_meters":0,"station_id":"ce4bh412rcd13ifvqds0","pricing_plan_id":"cebpf4jnsgd1na2vs0mg"},{"bike_id":"94e05489-97be-4754-916b-8932f76362e3","system_id":"levelo_inurba_marseille","lat":43.295713,"lon":5.399639,"is_reserved":false,"is_disabled":false,"rental_uris":{"android":"levelo://app?vid=94e05489-97be-4754-916b-8932f76362e3","ios":"levelo://app?vid=94e05489-97be-4754-916b-8932f76362e3"},