{"last_updated":1706360749,"ttl":30,"version":"2.2","data":{"bikes":[{"bike_id":"3c101926-4857-4ae5-b46d-9e6bc99ad01b","system_id":"levelo_inurba_marseille","lat":43.312239,"lon":5.368562,"is_reserved":false,"is_disabled":false,"rental_uris":{"android":"levelo://app?vid=3c101926-4857-4ae5-b46d-9e6bc99ad01b","ios":"levelo://app?vid=3c101926-4857-4ae5-b46d-9e6bc99ad01b"},"vehicle_type_id":"4","last_reported":1706360749,"current_range_meters":11600,"station_id":"ce4bgl92rcd13ifvqbq0","pricing_plan_id":"free"},{"bike_id":"7ddb9bc2-5ffb-4e53-8fd8-de4d98e5a289","system_id":"levelo_inurba_marseille","lat":43.312239,"lon":5.368562,"is_reserved":false,"is_disabled":false,"rental_uris":{"android":"levelo://app?vid=7ddb9bc2-5ffb-4e53-8fd8-de4d98e5a289","ios":"levelo://app?vid=7ddb9bc2-5ffb-4e53-8fd8-de4d98e5a289"},"vehicle_type_id":"4","last_reported":1706360749,"current_range_meters":29200,"station_id":"ce4bgl92rcd13ifvqbq0","pricing_plan_id":"free"},{"bike_id":"6c12da30-7c67-4f1b-b91d-c7cf4a5091da","system_id":"levelo_inurba_marseille","lat":43.31228,"lon":5.36871,"is_reserved":false,"is_disabled":false,"rental_uris":{"android":"levelo://app?vid=6c12da30-7c67-4f1b-b91d-c7cf4a5091da","ios":"levelo://app?vid=6c12da30-7c67-4f1b-b91d-c7cf4a5091da"},"vehicle_type_id":"4","last_reported":1706360749,"current_range_meters":22000,"station_id":"ce4bgl92rcd13ifvqbq0","pricing_plan_id":"free"},{"bike_id":"796864da-075a-4bae-9320-ac463dbe4555","system_id":"levelo_inurba_marseille","lat":43.309076,"lon":5.368465,"is_reserved":false,"is_disabled":false,"rental_uris":{"android":"levelo://app?vid=796864da-075a-4bae-9320-ac463dbe4555","ios":"levelo://app?vid=796864da-075a-4bae-9320-ac463dbe4555"},"vehicle_type_id":"4","last_reported":1706360749,"current_range_meters":13200,"station_id":"ce4bgn92rcd13ifvqbvg","pricing_plan_id":"free"},{"bike_id":"3a42d3e8-b187-4320-85ef-c3559d665cf2","system_id":"levelo_inurba_marseille","lat":43.309034,"lon":5.371783,"is_reserved":false,"is_disabled":false,"rental_uris":{"android":"levelo://app?vid=3a42d3e8-b187-4320-85ef-c3559d665cf2","ios":"levelo://app?vid=3a42d3e8-b187-4320-85ef-c3559d665cf2"},"vehicle_type_id":"4","last_reported":1706360749,"current_range_meters":6000,"station_id":"ce4bguh2rcd13ifvqckg","pricing_plan_id":"free"},{"bike_id":"457f0da0-33eb-49a0-a878-7f28870def87","system_id":"levelo_inurba_marseille","lat":43.305405,"lon":5.367044,"is_reserved":false,"is_disabled":false,"rental_uris":{"android":"levelo://app?vid=457f0da0-33eb-49a0-a878-7f28870def87","ios":"levelo://app?vid=457f0da0-33eb-49a0-a878-7f28870def87"},"vehicle_type_id":"4","last_reported":1706360749,"current_range_meters":16800,"station_id":"","pricing_plan_id":"free"},{"bike_id":"0695760a-30e3-4fa8-b36a-44930c9979a2","system_id":"levelo_inurba_marseille","lat":43.30541,"lon":5.36548,"is_reserved":false,"is_disabled":false,"rental_uris":{"android":"levelo://app?vid=0695760a-30e3-4fa8-b36a-44930c9979a2","ios":"levelo://app?vid=0695760a-30e3-4fa8-b36a-44930c9979a2"},"vehicle_type_id":"4","last_reported":1706360749,"current_range_meters":24000,"station_id":"ce4bgs12rcd13ifvqcag","pricing_plan_id":"free"},{"bike_id":"1d5d532d-02b0-4e1f-9268-1c53f319cafa","system_id":"levelo_inurba_marseille","lat":43.305706,"lon":5.365654,"is_reserved":false,"is_disabled":false,"rental_uris":{"android":"levelo://app?vid=1d5d532d-02b0-4e1f-9268-1c53f319cafa","ios":"levelo://app?vid=1d5d532d-02b0-4e1f-9268-1c53f319cafa"},"vehicle_type_id":"4","last_reported":1706360749,"current_range_meters":23600,"station_id":"ce4bgs12rcd13ifvqcag","pricing_plan_id":"free"},{"bike_id":"0e98e38c-af24-4058-8463-4b5e61bc32db","system_id":"levelo_inurba_marseille","lat":43.305706,"lon":5.365654,"is_reserved":false,"is_disabled":false,"rental_uris":{"android":"levelo://app?vid=0e98e38c-af24-4058-8463-4b5e61bc32db","ios":"levelo://app?vid=0e98e38c-af24-4058-8463-4b5e61bc32db"},"vehicle_type_id":"4","last_reported":1706360749,"current_range_meters":27200,"station_id":"ce4bgs12rcd13ifvqcag","pricing_plan_id":"free"},{"bike_id":"88ef3d12-b234-4b3c-ae3b-3c2dca84a486","system_id":"levelo_inurba_marseille","lat":43.305706,"lon":5.365654,"is_reserved":false,"is_disabled":false,"rental_uris":{"android":"levelo://app?vid=88ef3d12-b234-4b3c-ae3b-3c2dca84a486","ios":"levelo://app?vid=88ef3d12-b234-4b3c-ae3b-3c2dca84a486"},"vehicle_type_id":"4","last_reported":1706360749,"current_range_meters":31600,"station_id":"ce4bgs12rcd13ifvqcag","pricing_plan_id":"free"},{"bike_id":"830d35c5-2482-4141-bca8-23ce5ee02de2","system_id":"levelo_inurba_marseille","lat":43.305109,"lon":5.368171,"is_reserved":false,"is_disabled":false,"rental_uris":{"android":"levelo://app?vid=830d35c5-2482-4141-bca8-23ce5ee02de2","ios":"levelo://app?vid=830d35c5-2482-4141-bca8-23ce5ee02de2"},"vehicle_type_id":"4","last_reported":1706360749,"current_range_meters":23200,"station_id":"","pricing_plan_id":"free"},{"bike_id":"c53f5869-47c5-4922-9d03-f1999b958618","system_id":"levelo_inurba_marseille","lat":43.305989,"lon":5.37225,"is_reserved":false,"is_disabled":false,"rental_uris":{"android":"levelo://app?vid=c53f5869-47c5-4922-9d03-f1999b958618","ios":"levelo://app?vid=c53f5869-47c5-4922-9d03-f1999b958618"},"vehicle_type_id":"4","last_reported":1706360749,"current_range_meters":9600,"station_id":"ce4bgqh2rcd13ifvqc4g","pricing_plan_id":"free"},{"bike_id":"964a8275-e941-4dbe-8ef7-45472f00ba10","system_id":"levelo_inurba_marseille","lat":43.305989,"lon":5.37225,"is_reserved":false,"is_disabled":false,"rental_uris":{"android":"levelo://app?vid=964a8275-e941-4dbe-8ef7-45472f00ba10","ios":"levelo://app?vid=964a8275-e941-4dbe-8ef7-45472f00ba10"},"vehicle_type_id":"4","last_reported":1706360749,"current_range_meters":16400,"station_id":"ce4bgqh2rcd13ifvqc4g","pricing_plan_id":"free"},{"bike_id":"6998beef-1d57-4e63-8f99-6b6cce49c9e7","system_id":"levelo_inurba_marseille","lat":43.305989,"lon":5.37225,"is_reserved":false,"is_disabled":false,"rental_uris":{"android":"levelo://app?vid=6998beef-1d57-4e63-8f99-6b6cce49c9e7","ios":"levelo://app?vid=6998beef-1d57-4e63-8f99-6b6cce49c9e7"},"vehicle_type_id":"4","last_reported":1706360749,"current_range_meters":12400,"station_id":"ce4bgqh2rcd13ifvqc4g","pricing_plan_id":"free"},{"bike_id":"705e0754-1b6d-4af7-bd19-8a08af3ecd91","system_id":"levelo_inurba_marseille","lat":43.31112,"lon":5.37766,"is_reserved":false,"is_disabled":false,"rental_uris":{"android":"levelo://app?vid=705e0754-1b6d-4af7-bd19-8a08af3ecd91","ios":"levelo://app?vid=705e0754-1b6d-4af7-bd19-8a08af3ecd91"},"vehicle_type_id":"4","last_reported":1706360749,"current_range_meters":22800,"station_id":"ce4bgt92rcd13ifvqcg0","pricing_plan_id":"free"},{"bike_id":"65c357b0-f114-451e-9dff-dbc976ff1731","system_id":"levelo_inurba_marseille","lat":43.31114,"lon":5.37771,"is_reserved":false,"is_disabled":false,"rental_uris":{"android":"levelo://app?vid=65c357b0-f114-451e-9dff-dbc976ff1731","ios":"levelo://app?vid=65c357b0-f114-451e-9dff-dbc976ff1731"},"vehicle_type_id":"4","last_reported":1706360749,"current_range_meters":19600,"station_id":"ce4bgt92rcd13ifvqcg0","pricing_plan_id":"free"},{"bike_id":"30e8c8fb-6e6e-4e96-a653-3a5c219d14b2","system_id":"levelo_inurba_marseille","lat":43.307945,"lon":5.376487,"is_reserved":false,"is_disabled":false,"rental_uris":{"android":"levelo://app?vid=30e8c8fb-6e6e-4e96-a653-3a5c219d14b2","ios":"levelo://app?vid=30e8c8fb-6e6e-4e96-a653-3a5c219d14b2"},"vehicle_type_id":"4","last_reported":1706360749,"current_range_meters":19200,"station_id":"ce4bgv92rcd13ifvqcq0","pricing_plan_id":"free"},{"bike_id":"93a9b434-6499-4481-b579-c94e94533a01","system_id":"levelo_inurba_marseille","lat":43.307945,"lon":5.376487,"is_reserved":false,"is_disabled":false,"rental_uris":{"android":"levelo://app?vid=93a9b434-6499-4481-b579-c94e94533a01","ios":"levelo://app?vid=93a9b434-6499-4481-b579-c94e94533a01"},"vehicle_type_id":"4","last_reported":1706360749,"current_range_meters":7600,"station_id":"ce4bgv92rcd13ifvqcq0","pricing_plan_id":"free"},{"bike_id":"5b0a56ae-3d70-40f6-ad3f-78c604f89c73","system_id":"levelo_inurba_marseille","lat":43.312361,"lon":5.379906,"is_reserved":false,"is_disabled":false,"rental_uris":{"android":"levelo://app?vid=5b0a56ae-3d70-40f6-ad3f-78c604f89c73","ios":"levelo://app?vid=5b0a56ae-3d70-40f6-ad3f-78c604f89c73"},"vehicle_type_id":"4","last_reported":1706360749,"current_range_meters":14400,"station_id":"","pricing_plan_id":"free"},{"bike_id":"b83daeb9-a39c-4884-86e2-16a37c651f7f","system_id":"levelo_inurba_marseille","lat":43.31998,"lon":5.37622,"is_reserved":false,"is_disabled":false,"rental_uris":{"android":"levelo://app?vid=b83daeb9-a39c-4884-86e2-16a37c651f7f","ios":"levelo://app?vid=b83daeb9-a39c-4884-86e2-16a37c651f7f"},"vehicle_type_id":"4","last_reported":1706360749,"current_range_meters":10800,"station_id":"","pricing_plan_id":"free"},{"bike_id":"6daf3eeb-ebe7-4aaf-84d8-7a9417c24aa0","system_id":"levelo_inurba_marseille","lat":43.301939,"lon":5.366286,"is_reserved":false,"is_disabled":false,"rental_uris":{"android":"levelo://app?vid=6daf3eeb-ebe7-4aaf-84d8-7a9417c24aa0","ios":"levelo://app?vid=6daf3eeb-ebe7-4aaf-84d8-7a9417c24aa0"},"vehicle_type_id":"4","last_reported":1706360749,"current_range_meters":4800,"station_id":"ce4bgrh2rcd13ifvqc8g","pricing_plan_id":"free"},{"bike_id":"835188c8-f182-40af-8682-6a76d42e67fa","system_id":"levelo_inurba_marseille","lat":43.301939,"lon":5.366286,"is_reserved":false,"is_disabled":false,"rental_uris":{"android":"levelo://app?vid=835188c8-f182-40af-8682-6a76d42e67fa","ios":"levelo://app?vid=835188c8-f182-40af-8682-6a76d42e67fa"},"vehicle_type_id":"4","last_reported":1706360749,"current_range_meters":26000,"station_id":"ce4bgrh2rcd13ifvqc8g","pricing_plan_id":"free"},{"bike_id":"04a5e4f7-b35a-425d-b564-05ddf165cc9a","system_id":"levelo_inurba_marseille","lat":43.301939,"lon":5.366286,"is_reserved":false,"is_disabled":false,"rental_uris":{"android":"levelo://app?vid=04a5e4f7-b35a-425d-b564-05ddf165cc9a","ios":"levelo://app?vid=04a5e4f7-b35a-425d-b564-05ddf165cc9a"},"vehicle_type_id":"4","last_reported":1706360749,"current_range_meters":2000,"station_id":"ce4bgrh2rcd13ifvqc8g","pricing_plan_id":"free"},{"bike_id":"f03c9002-52b3-49b3-9d08-8a97770ae5a2","system_id":"levelo_inurba_marseille","lat":43.301939,"lon":5.366286,"is_reserved":false,"is_disabled":false,"rental_uris":{"android":"levelo://app?vid=f03c9002-52b3-49b3-9d08-8a97770ae5a2","ios":"levelo://app?vid=f03c9002-52b3-49b3-9d08-8a97770ae5a2"},"vehicle_type_id":"4","last_reported":1706360749,"current_range_meters":15200,"station_id":"ce4bgrh2rcd13ifvqc8g","pricing_plan_id":"free"},{"bike_id":"943fb68a-6ec7-4e2e-a9b3-8ac7e54f84f9","system_id":"levelo_inurba_marseille","lat":43.301939,"lon":5.366286,"is_reserved":false,"is_disabled":false,"rental_uris":{"android":"levelo://app?vid=943fb68a-6ec7-4e2e-a9b3-8ac7e54f84f9","ios":"levelo://app?vid=943fb68a-6ec7-4e2e-a9b3-8ac7e54f84f9"},"vehicle_type_id":"4","last_reported":1706360749,"current_range_meters":22400,"station_id":"ce4bgrh2rcd13ifvqc8g","pricing_plan_id":"free"},{"bike_id":"e3146a8c-e037-47ce-8a8d-8b9aa3b32a9b","system_id":"levelo_inurba_marseille","lat":43.308012,"lon":5.381511,"is_reserved":false,"is_disabled":false,"rental_uris":{"android":"levelo://app?vid=e3146a8c-e037-47ce-8a8d-8b9aa3b32a9b","ios":"levelo://app?vid=e3146a8c-e037-47ce-8a8d-8b9aa3b32a9b"},"vehicle_type_id":"4","last_reported":1706360749,"current_range_meters":8000,"station_id":"ce4bgt12rcd13ifvqce0","pricing_plan_id":"free"},{"bike_id":"02b73893-5bef-4b3a-a3b3-c9f7519a4f77","system_id":"levelo_inurba_marseille","lat":43.308012,"lon":5.381511,"is_reserved":false,"is_disabled":false,"rental_uris":{"android":"levelo://app?vid=02b73893-5bef-4b3a-a3b3-c9f7519a4f77","ios":"levelo://app?vid=02b73893-5bef-4b3a-a3b3-c9f7519a4f77"},"vehicle_type_id":"4","last_reported":1706360749,"current_range_meters":8800,"station_id":"ce4bgt12rcd13ifvqce0","pricing_plan_id":"free"},{"bike_id":"d462dd8f-aec3-445c-89f6-947e7a4e9853","system_id":"levelo_inurba_marseille","lat":43.30465,"lon":5.379029,"is_reserved":false,"is_disabled":false,"rental_uris":{"android":"levelo://app?vid=d462dd8f-aec3-445c-89f6-947e7a4e9853","ios":"levelo://app?vid=d462dd8f-aec3-445c-89f6-947e7a4e9853"},"vehicle_type_id":"4","last_reported":1706360749,"current_range_meters":400,"station_id":"ce4bgup2rcd13ifvqcn0","pricing_plan_id":"free"},{"bike_id":"befc9bdc-a707-47ce-90c7-a435575a1405","system_id":"levelo_inurba_marseille","lat":43.304606,"lon":5.379026,"is_reserved":false,"is_disabled":false,"rental_uris":{"android":"levelo://app?vid=befc9bdc-a707-47ce-90c7-a435575a1405","ios":"levelo://app?vid=befc9bdc-a707-47ce-90c7-a435575a1405"},"vehicle_type_id":"4","last_reported":1706360749,"current_range_meters":23200,"station_id":"ce4bgup2rcd13ifvqcn0","pricing_plan_id":"free"},{"bike_id":"ac5653c3-828c-4df8-a3fd-ba9ad7b73579","system_id":"levelo_inurba_marseille","lat":43.304606,"lon":5.379026,"is_reserved":false,"is_disabled":false,"rental_uris":{"android":"levelo://app?vid=ac5653c3-828c-4df8-a3fd-ba9ad7b73579","ios":"levelo://app?vid=ac5653c3-828c-4df8-a3fd-ba9ad7b73579"},"vehicle_type_id":"4","last_reported":1706360749,"current_range_meters":2400,"station_id":"ce4bgup2rcd13ifvqcn0","pricing_plan_id":"free"},{"bike_id":"86d4df1c-8a93-45a8-af3f-2f4e9388b4dd","system_id":"levelo_inurba_marseille","lat":43.302784,"lon":5.377158,"is_reserved":false,"is_disabled":false,"rental_uris":{"android":"levelo://app?vid=86d4df1c-8a93-45a8-af3f-2f4e9388b4dd","ios":"levelo://app?vid=86d4df1c-8a93-45a8-af3f-2f4e9388b4dd"},"vehicle_type_id":"4","last_reported":1706360749,"current_range_meters":0,"station_id":"ce4bguh2rcd13ifvqcj0","pricing_plan_id":"free"},{"bike_id":"88aa8230-dcc9-433d-96e4-513a284697d7","system_id":"levelo_inurba_marseille","lat":43.302784,"lon":5.377158,"is_reserved":false,"is_disabled":false,"rental_uris":{"android":"levelo://app?vid=88aa8230-dcc9-433d-96e4-513a284697d7","ios":"levelo://app?vid=88aa8230-dcc9-433d-96e4-513a284697d7"},"vehicle_type_id":"4","last_reported":1706360749,"current_range_meters":26000,"station_id":"ce4bguh2rcd13ifvqcj0","pricing_plan_id":"free"},{"bike_id":"29c7aafd-c762-4726-9126-2bbb65834ec1","system_id":"levelo_inurba_marseille","lat":43.302784,"lon":5.377158,"is_reserved":false,"is_disabled":false,"rental_uris":{"android":"levelo://app?vid=29c7aafd-c762-4726-9126-2bbb65834ec1","ios":"levelo://app?vid=29c7aafd-c762-4726-9126-2bbb65834ec1"},"vehicle_type_id":"4","last_reported":1706360749,"current_range_meters":26000,"station_id":"ce4bguh2rcd13ifvqcj0","pricing_plan_id":"free"},{"bike_id":"4fa6ba96-8d6d-4b90-afed-8c821d5c169b","system_id":"levelo_inurba_marseille","lat":43.302784,"lon":5.377158,"is_reserved":false,"is_disabled":false,"rental_uris":{"android":"levelo://app?vid=4fa6ba96-8d6d-4b90-afed-8c821d5c169b","ios":"levelo://app?vid=4fa6ba96-8d6d-4b90-afed-8c821d5c169b"},"vehicle_type_id":"4","last_reported":1706360749,"current_range_meters":7200,"station_id":"ce4bguh2rcd13ifvqcj0","pricing_plan_id":"free"},{"bike_id":"97f4d461-4027-49f9-b3d2-c01dc6a5969a","system_id":"levelo_inurba_marseille","lat":43.301429,"lon":5.37413,"is_reserved":false,"is_disabled":false,"rental_uris":{"android":"levelo://app?vid=97f4d461-4027-49f9-b3d2-c01dc6a5969a","ios":"levelo://app?vid=97f4d461-4027-49f9-b3d2-c01dc6a5969a"},"vehicle_type_id":"4","last_reported":1706360749,"current_range_meters":7600,"station_id":"ce4bgs92rcd13ifvqcc0","pricing_plan_id":"free"},{"bike_id":"e3878ff0-887a-4393-bc67-309945b46e9a","system_id":"levelo_inurba_marseille","lat":43.314873,"lon":5.384003,"is_reserved":false,"is_disabled":false,"rental_uris":{"android":"levelo://app?vid=e3878ff0-887a-4393-bc67-309945b46e9a","ios":"levelo://app?vid=e3878ff0-887a-4393-bc67-309945b46e9a"},"vehicle_type_id":"4","last_reported":1706360749,"current_range_meters":20400,"station_id":"","pricing_plan_id":"free"},{"bike_id":"ae7ab608-8fac-4c0d-9f43-8ffacb07a49d","system_id":"levelo_inurba_marseille","lat":43.319935,"lon":5.381699,"is_reserved":false,"is_disabled":false,"rental_uris":{"android":"levelo://app?vid=ae7ab608-8fac-4c0d-9f43-8ffacb07a49d","ios":"levelo://app?vid=ae7ab608-8fac-4c0d-9f43-8ffacb07a49d"},"vehicle_type_id":"4","last_reported":1706360749,"current_range_meters":4000,"station_id":"ce4bhr12rcd13ifvqhpg","pricing_plan_id":"free"},{"bike_id":"d11a1f3a-d548-483b-8bfb-a3d43524c954","system_id":"levelo_inurba_marseille","lat":43.319935,"lon":5.381699,"is_reserved":false,"is_disabled":false,"rental_uris":{"android":"levelo://app?vid=d11a1f3a-d548-483b-8bfb-a3d43524c954","ios":"levelo://app?vid=d11a1f3a-d548-483b-8bfb-a3d43524c954"},"vehicle_type_id":"4","last_reported":1706360749,"current_range_meters":31200,"station_id":"ce4bhr12rcd13ifvqhpg","pricing_plan_id":"free"},{"bike_id":"f7b1efc0-1961-4895-ae9d-0ad221e9232d","system_id":"levelo_inurba_marseille","lat":43.319935,"lon":5.381699,"is_reserved":false,"is_disabled":false,"rental_uris":{"android":"levelo://app?vid=f7b1efc0-1961-4895-ae9d-0ad221e9232d","ios":"levelo://app?vid=f7b1efc0-1961-4895-ae9d-0ad221e9232d"},"vehicle_type_id":"4","last_reported":1706360749,"current_range_meters":28800,"station_id":"ce4bhr12rcd13ifvqhpg","pricing_plan_id":"free"},{"bike_id":"5f7ec9ca-defa-4048-96f4-b62ebd1a927a","system_id":"levelo_inurba_marseille","lat":43.319935,"lon":5.381699,"is_reserved":false,"is_disabled":false,"rental_uris":{"android":"levelo://app?vid=5f7ec9ca-defa-4048-96f4-b62ebd1a927a","ios":"levelo://app?vid=5f7ec9ca-defa-4048-96f4-b62ebd1a927a"},"vehicle_type_id":"4","last_reported":1706360749,"current_range_meters":19200,"station_id":"ce4bhr12rcd13ifvqhpg","pricing_plan_id":"free"},{"bike_id":"fbd1c7c8-59f4-40f3-bd13-92a41198f404","system_id":"levelo_inurba_marseille","lat":43.319935,"lon":5.381699,"is_reserved":false,"is_disabled":false,"rental_uris":{"android":"levelo://app?vid=fbd1c7c8-59f4-40f3-bd13-92a41198f404","ios":"levelo://app?vid=fbd1c7c8-59f4-40f3-bd13-92a41198f404"},"vehicle_type_id":"4","last_reported":1706360749,"current_range_meters":16800,"station_id":"ce4bhr12rcd13ifvqhpg","pricing_plan_id":"free"},{"bike_id":"488abd18-e9a1-4239-9600-d9dbf03e5437","system_id":"levelo_inurba_marseille","lat":43.319935,"lon":5.381699,"is_reserved":false,"is_disabled":false,"rental_uris":{"android":"levelo://app?vid=488abd18-e9a1-4239-9600-d9dbf03e5437","ios":"levelo://app?vid=488abd18-e9a1-4239-9600-d9dbf03e5437"},"vehicle_type_id":"4","last_reported":1706360749,"current_range_meters":29600,"station_id":"ce4bhr12rcd13ifvqhpg","pricing_plan_id":"free"},{"bike_id":"01533f59-2c23-4279-b5fa-c0608335cf09","system_id":"levelo_inurba_marseille","lat":43.319935,"lon":5.381699,"is_reserved":false,"is_disabled":false,"rental_uris":{"android":"levelo://app?vid=01533f59-2c23-4279-b5fa-c0608335cf09","ios":"levelo://app?vid=01533f59-2c23-4279-b5fa-c0608335cf09"},"vehicle_type_id":"4","last_reported":1706360749,"current_range_meters":30000,"station_id":"ce4bhr12rcd13ifvqhpg","pricing_plan_id":"free"},{"bike_id":"8acee7ff-9d85-4008-8496-2b6b9f77e9bd","system_id":"levelo_inurba_marseille","lat":43.313571,"lon":5.384829,"is_reserved":false,"is_disabled":false,"rental_uris":{"android":"levelo://app?vid=8acee7ff-9d85-4008-8496-2b6b9f77e9bd","ios":"levelo://app?vid=8acee7ff-9d85-4008-8496-2b6b9f77e9bd"},"vehicle_type_id":"4","last_reported":1706360749,"current_range_meters":22000,"station_id":"ce4bgt92rcd13ifvqcf0","pricing_plan_id":"free"},{"bike_id":"35be57aa-0dbd-441d-8194-c082e4f36312","system_id":"levelo_inurba_marseille","lat":43.299222,"lon":5.365554,"is_reserved":false,"is_disabled":false,"rental_uris":{"android":"levelo://app?vid=35be57aa-0dbd-441d-8194-c082e4f36312","ios":"levelo://app?vid=35be57aa-0dbd-441d-8194-c082e4f36312"},"vehicle_type_id":"4","last_reported":1706360749,"current_range_meters":0,"station_id":"ce4bgm92rcd13ifvqbr0","pricing_plan_id":"free"},{"bike_id":"31f5579b-6409-47b8-8445-14a3f54ee1ab","system_id":"levelo_inurba_marseille","lat":43.298433,"lon":5.362774,"is_reserved":false,"is_disabled":false,"rental_uris":{"android":"levelo://app?vid=31f5579b-6409-47b8-8445-14a3f54ee1ab","ios":"levelo://app?vid=31f5579b-6409-47b8-8445-14a3f54ee1ab"},"vehicle_type_id":"4","last_reported":1706360749,"current_range_meters":31600,"station_id":"ce4bgpp2rcd13ifvqc3g","pricing_plan_id":"free"},{"bike_id":"91c30fb2-b0fc-4322-bff4-9614a4d52e08","system_id":"levelo_inurba_marseille","lat":43.298433,"lon":5.362774,"is_reserved":false,"is_disabled":false,"rental_uris":{"android":"levelo://app?vid=91c30fb2-b0fc-4322-bff4-9614a4d52e08","ios":"levelo://app?vid=91c30fb2-b0fc-4322-bff4-9614a4d52e08"},"vehicle_type_id":"4","last_reported":1706360749,"current_range_meters":16800,"station_id":"ce4bgpp2rcd13ifvqc3g","pricing_plan_id":"free"},{"bike_id":"b4dd7b6b-e124-4980-b70e-2bcb9a5f8545","system_id":"levelo_inurba_marseille","lat":43.299243,"lon":5.37481,"is_reserved":false,"is_disabled":false,"rental_uris":{"android":"levelo://app?vid=b4dd7b6b-e124-4980-b70e-2bcb9a5f8545","ios":"levelo://app?vid=b4dd7b6b-e124-4980-b70e-2bcb9a5f8545"},"vehicle_type_id":"4","last_reported":1706360749,"current_range_meters":26400,"station_id":"ce4bgjh2rcd13ifvqbg0","pricing_plan_id":"free"},{"bike_id":"0047b82e-bf51-40ec-b1f2-b5cf1a0607c7","system_id":"levelo_inurba_marseille","lat":43.311722,"lon":5.387247,"is_reserved":false,"is_disabled":false,"rental_uris":{"android":"levelo://app?vid=0047b82e-bf51-40ec-b1f2-b5cf1a0607c7","ios":"levelo://app?vid=0047b82e-bf51-40ec-b1f2-b5cf1a0607c7"},"vehicle_type_id":"4","last_reported":1706360749,"current_range_meters":31600,"station_id":"ce4bgv12rcd13ifvqcp0","pricing_plan_id":"free"},{"bike_id":"965a5dab-e227-4efc-b518-9780186a9de9","system_id":"levelo_inurba_marseille","lat":43.32287,"lon":5.3826,"is_reserved":false,"is_disabled":false,"rental_uris":{"android":"levelo://app?vid=965a5dab-e227-4efc-b518-9780186a9de9","ios":"levelo://app?vid=965a5dab-e227-4efc-b518-9780186a9de9"},"vehicle_type_id":"4","last_reported":1706360749,"current_range_meters":23600,"station_id":"ce4bhr12rcd13ifvqhqg","pricing_plan_id":"free"},{"bike_id":"416475d6-ef00-46bd-9618-e51e0a232531","system_id":"levelo_inurba_marseille","lat":43.322884,"lon":5.382586,"is_reserved":false,"is_disabled":false,"rental_uris":{"android":"levelo://app?vid=416475d6-ef00-46bd-9618-e51e0a232531","ios":"levelo://app?vid=416475d6-ef00-46bd-9618-e51e0a232531"},"vehicle_type_id":"4","last_reported":1706360749,"current_range_meters":31200,"station_id":"ce4bhr12rcd13ifvqhqg","pricing_plan_id":"free"},{"bike_id":"1126cdc6-95ba-449a-b7b2-5f3f58786e97","system_id":"levelo_inurba_marseille","lat":43.32287,"lon":5.38268,"is_reserved":false,"is_disabled":false,"rental_uris":{"android":"levelo://app?vid=1126cdc6-95ba-449a-b7b2-5f3f58786e97","ios":"levelo://app?vid=1126cdc6-95ba-449a-b7b2-5f3f58786e97"},"vehicle_type_id":"4","last_reported":1706360749,"current_range_meters":28000,"station_id":"ce4bhr12rcd13ifvqhqg","pricing_plan_id":"free"},{"bike_id":"a3d946e6-0cc2-490a-9320-f817493af37d","system_id":"levelo_inurba_marseille","lat":43.297774,"lon":5.370875,"is_reserved":false,"is_disabled":false,"rental_uris":{"android":"levelo://app?vid=a3d946e6-0cc2-490a-9320-f817493af37d","ios":"levelo://app?vid=a3d946e6-0cc2-490a-9320-f817493af37d"},"vehicle_type_id":"4","last_reported":1706360749,"current_range_meters":10000,"station_id":"ce4bgop2rcd13ifvqc1g","pricing_plan_id":"free"},{"bike_id":"12f941b9-88c6-41be-99f4-1e6a6f822512","system_id":"levelo_inurba_marseille","lat":43.297794,"lon":5.370888,"is_reserved":false,"is_disabled":false,"rental_uris":{"android":"levelo://app?vid=12f941b9-88c6-41be-99f4-1e6a6f822512","ios":"levelo://app?vid=12f941b9-88c6-41be-99f4-1e6a6f822512"},"vehicle_type_id":"4","last_reported":1706360749,"current_range_meters":20000,"station_id":"ce4bgop2rcd13ifvqc1g","pricing_plan_id":"free"},{"bike_id":"5e98879a-df25-42d7-a72e-59c9369b5f46","system_id":"levelo_inurba_marseille","lat":43.322861,"lon":5.382781,"is_reserved":false,"is_disabled":false,"rental_uris":{"android":"levelo://app?vid=5e98879a-df25-42d7-a72e-59c9369b5f46","ios":"levelo://app?vid=5e98879a-df25-42d7-a72e-59c9369b5f46"},"vehicle_type_id":"4","last_reported":1706360749,"current_range_meters":31200,"station_id":"ce4bhr12rcd13ifvqhqg","pricing_plan_id":"free"},{"bike_id":"82367bf1-4482-4275-9f83-4852c528f5e2","system_id":"levelo_inurba_marseille","lat":43.297774,"lon":5.370875,"is_reserved":false,"is_disabled":false,"rental_uris":{"android":"levelo://app?vid=82367bf1-4482-4275-9f83-4852c528f5e2","ios":"levelo://app?vid=82367bf1-4482-4275-9f83-4852c528f5e2"},"vehicle_type_id":"4","last_reported":1706360749,"current_range_meters":22000,"station_id":"ce4bgop2rcd13ifvqc1g","pricing_plan_id":"free"},{"bike_id":"3f8e6f12-b7bc-4955-8ca9-56a69dad498d","system_id":"levelo_inurba_marseille","lat":43.32826,"lon":5.3669,"is_reserved":false,"is_disabled":false,"rental_uris":{"android":"levelo://app?vid=3f8e6f12-b7bc-4955-8ca9-56a69dad498d","ios":"levelo://app?vid=3f8e6f12-b7bc-4955-8ca9-56a69dad498d"},"vehicle_type_id":"4","last_reported":1706360749,"current_range_meters":29200,"station_id":"ce4bhs92rcd13ifvqi0g","pricing_plan_id":"free"},{"bike_id":"31c884b6-24f3-4ad2-b153-4d91b407eb8c","system_id":"levelo_inurba_marseille","lat":43.32826,"lon":5.36681,"is_reserved":false,"is_disabled":false,"rental_uris":{"android":"levelo://app?vid=31c884b6-24f3-4ad2-b153-4d91b407eb8c","ios":"levelo://app?vid=31c884b6-24f3-4ad2-b153-4d91b407eb8c"},"vehicle_type_id":"4","last_reported":1706360749,"current_range_meters":21200,"station_id":"ce4bhs92rcd13ifvqi0g","pricing_plan_id":"free"},{"bike_id":"c0bacbb9-2761-4491-a8c1-93af05373d9b","system_id":"levelo_inurba_marseille","lat":43.32829,"lon":5.36677,"is_reserved":false,"is_disabled":false,"rental_uris":{"android":"levelo://app?vid=c0bacbb9-2761-4491-a8c1-93af05373d9b","ios":"levelo://app?vid=c0bacbb9-2761-4491-a8c1-93af05373d9b"},"vehicle_type_id":"4","last_reported":1706360749,"current_range_meters":20400,"station_id":"ce4bhs92rcd13ifvqi0g","pricing_plan_id":"free"},{"bike_id":"d5116bb0-0ca9-40f3-8eea-af49ca1b13d9","system_id":"levelo_inurba_marseille","lat":43.297163,"lon":5.365866,"is_reserved":false,"is_disabled":false,"rental_uris":{"android":"levelo://app?vid=d5116bb0-0ca9-40f3-8eea-af49ca1b13d9","ios":"levelo://app?vid=d5116bb0-0ca9-40f3-8eea-af49ca1b13d9"},"vehicle_type_id":"4","last_reported":1706360749,"current_range_meters":23200,"station_id":"ce4bgn12rcd13ifvqbt0","pricing_plan_id":"free"},{"bike_id":"0001113a-58de-4572-81b9-6c8ab7a052c7","system_id":"levelo_inurba_marseille","lat":43.297163,"lon":5.365866,"is_reserved":false,"is_disabled":false,"rental_uris":{"android":"levelo://app?vid=0001113a-58de-4572-81b9-6c8ab7a052c7","ios":"levelo://app?vid=0001113a-58de-4572-81b9-6c8ab7a052c7"},"vehicle_type_id":"4","last_reported":1706360749,"current_range_meters":18000,"station_id":"ce4bgn12rcd13ifvqbt0","pricing_plan_id":"free"},{"bike_id":"d63b15fb-075c-469a-806b-701c5390db63","system_id":"levelo_inurba_marseille","lat":43.2968,"lon":5.37291,"is_reserved":false,"is_disabled":false,"rental_uris":{"android":"levelo://app?vid=d63b15fb-075c-469a-806b-701c5390db63","ios":"levelo://app?vid=d63b15fb-075c-469a-806b-701c5390db63"},"vehicle_type_id":"4","last_reported":1706360749,"current_range_meters":14400,"station_id":"ce4bgk12rcd13ifvqbj0","pricing_plan_id":"free"},{"bike_id":"f7f54730-ab44-4050-8781-0c330729a931","system_id":"levelo_inurba_marseille","lat":43.29573,"lon":5.367355,"is_reserved":false,"is_disabled":false,"rental_uris":{"android":"levelo://app?vid=f7f54730-ab44-4050-8781-0c330729a931","ios":"levelo://app?vid=f7f54730-ab44-4050-8781-0c330729a931"},"vehicle_type_id":"4","last_reported":1706360749,"current_range_meters":29600,"station_id":"ce4bgph2rcd13ifvqc2g","pricing_plan_id":"free"},{"bike_id":"09511989-eaec-4047-ad99-f971facac736","system_id":"levelo_inurba_marseille","lat":43.299028,"lon":5.381509,"is_reserved":false,"is_disabled":false,"rental_uris":{"android":"levelo://app?vid=09511989-eaec-4047-ad99-f971facac736","ios":"levelo://app?vid=09511989-eaec-4047-ad99-f971facac736"},"vehicle_type_id":"4","last_reported":1706360749,"current_range_meters":18400,"station_id":"ce4bgj12rcd13ifvqbc0","pricing_plan_id":"free"},{"bike_id":"910e4bd9-0b70-413d-87ea-6cf8ffeccb82","system_id":"levelo_inurba_marseille","lat":43.299028,"lon":5.381509,"is_reserved":false,"is_disabled":false,"rental_uris":{"android":"levelo://app?vid=910e4bd9-0b70-413d-87ea-6cf8ffeccb82","ios":"levelo://app?vid=910e4bd9-0b70-413d-87ea-6cf8ffeccb82"},"vehicle_type_id":"4","last_reported":1706360749,"current_range_meters":13600,"station_id":"ce4bgj12rcd13ifvqbc0","pricing_plan_id":"free"},{"bike_id":"5849c8f1-de07-480c-ab10-c023b55280ba","system_id":"levelo_inurba_marseille","lat":43.322186,"lon":5.386904,"is_reserved":false,"is_disabled":false,"rental_uris":{"android":"levelo://app?vid=5849c8f1-de07-480c-ab10-c023b55280ba","ios":"levelo://app?vid=5849c8f1-de07-480c-ab10-c023b55280ba"},"vehicle_type_id":"4","last_reported":1706360749,"current_range_meters":2800,"station_id":"","pricing_plan_id":"free"},{"bike_id":"5a584012-9bd7-476c-b290-979688a92221","system_id":"levelo_inurba_marseille","lat":43.296921,"lon":5.376579,"is_reserved":false,"is_disabled":false,"rental_uris":{"android":"levelo://app?vid=5a584012-9bd7-476c-b290-979688a92221","ios":"levelo://app?vid=5a584012-9bd7-476c-b290-979688a92221"},"vehicle_type_id":"4","last_reported":1706360749,"current_range_meters":14800,"station_id":"ce4bgkh2rcd13ifvqbl0","pricing_plan_id":"free"},{"bike_id":"e19585e0-54be-417e-af0d-9c4a0a82e01a","system_id":"levelo_inurba_marseille","lat":43.296921,"lon":5.376579,"is_reserved":false,"is_disabled":false,"rental_uris":{"android":"levelo://app?vid=e19585e0-54be-417e-af0d-9c4a0a82e01a","ios":"levelo://app?vid=e19585e0-54be-417e-af0d-9c4a0a82e01a"},"vehicle_type_id":"4","last_reported":1706360749,"current_range_meters":21600,"station_id":"ce4bgkh2rcd13ifvqbl0","pricing_plan_id":"free"},{"bike_id":"456fb5e5-1471-4b2c-ba2c-de0b5880349c","system_id":"levelo_inurba_marseille","lat":43.317557,"lon":5.390173,"is_reserved":false,"is_disabled":false,"rental_uris":{"android":"levelo://app?vid=456fb5e5-1471-4b2c-ba2c-de0b5880349c","ios":"levelo://app?vid=456fb5e5-1471-4b2c-ba2c-de0b5880349c"},"vehicle_type_id":"4","last_reported":1706360749,"current_range_meters":16800,"station_id":"ce4bhqp2rcd13ifvqhng","pricing_plan_id":"free"},{"bike_id":"27b0f9b6-57a9-4d15-bc3d-344febd747f5","system_id":"levelo_inurba_marseille","lat":43.309589,"lon":5.390258,"is_reserved":false,"is_disabled":false,"rental_uris":{"android":"levelo://app?vid=27b0f9b6-57a9-4d15-bc3d-344febd747f5","ios":"levelo://app?vid=27b0f9b6-57a9-4d15-bc3d-344febd747f5"},"vehicle_type_id":"4","last_reported":1706360749,"current_range_meters":15600,"station_id":"ce4bgup2rcd13ifvqco0","pricing_plan_id":"free"},{"bike_id":"6fd4b95d-5b3f-4cd0-bc4c-cd03e7974576","system_id":"levelo_inurba_marseille","lat":43.299707,"lon":5.384859,"is_reserved":false,"is_disabled":false,"rental_uris":{"android":"levelo://app?vid=6fd4b95d-5b3f-4cd0-bc4c-cd03e7974576","ios":"levelo://app?vid=6fd4b95d-5b3f-4cd0-bc4c-cd03e7974576"},"vehicle_type_id":"4","last_reported":1706360749,"current_range_meters":0,"station_id":"ce4bgj92rcd13ifvqbd0","pricing_plan_id":"free"},{"bike_id":"c4e5f830-dd0f-41b0-b26a-85e21e6a82e4","system_id":"levelo_inurba_marseille","lat":43.299707,"lon":5.384859,"is_reserved":false,"is_disabled":false,"rental_uris":{"android":"levelo://app?vid=c4e5f830-dd0f-41b0-b26a-85e21e6a82e4","ios":"levelo://app?vid=c4e5f830-dd0f-41b0-b26a-85e21e6a82e4"},"vehicle_type_id":"4","last_reported":1706360749,"current_range_meters":0,"station_id":"ce4bgj92rcd13ifvqbd0","pricing_plan_id":"free"},{"bike_id":"92356f76-a123-431c-afc1-45dc36fd5a22","system_id":"levelo_inurba_marseille","lat":43.299717,"lon":5.384845,"is_reserved":false,"is_disabled":false,"rental_uris":{"android":"levelo://app?vid=92356f76-a123-431c-afc1-45dc36fd5a22","ios":"levelo://app?vid=92356f76-a123-431c-afc1-45dc36fd5a22"},"vehicle_type_id":"4","last_reported":1706360749,"current_range_meters":8800,"station_id":"ce4bgj92rcd13ifvqbd0","pricing_plan_id":"free"},{"bike_id":"032ec125-c034-420a-84b7-58bdc7fa920c","system_id":"levelo_inurba_marseille","lat":43.299717,"lon":5.384845,"is_reserved":false,"is_disabled":false,"rental_uris":{"android":"levelo://app?vid=032ec125-c034-420a-84b7-58bdc7fa920c","ios":"levelo://app?vid=032ec125-c034-420a-84b7-58bdc7fa920c"},"vehicle_type_id":"4","last_reported":1706360749,"current_range_meters":11600,"station_id":"ce4bgj92rcd13ifvqbd0","pricing_plan_id":"free"},{"bike_id":"2df976ad-4a24-46d3-9c62-3980a2156f7c","system_id":"levelo_inurba_marseille","lat":43.299724,"lon":5.384848,"is_reserved":false,"is_disabled":false,"rental_uris":{"android":"levelo://app?vid=2df976ad-4a24-46d3-9c62-3980a2156f7c","ios":"levelo://app?vid=2df976ad-4a24-46d3-9c62-3980a2156f7c"},"vehicle_type_id":"4","last_reported":1706360749,"current_range_meters":2000,"station_id":"ce4bgj92rcd13ifvqbd0","pricing_plan_id":"free"},{"bike_id":"a3fc638d-45be-413d-98af-1c661f6b816e","system_id":"levelo_inurba_marseille","lat":43.299717,"lon":5.384845,"is_reserved":false,"is_disabled":false,"rental_uris":{"android":"levelo://app?vid=a3fc638d-45be-413d-98af-1c661f6b816e","ios":"levelo://app?vid=a3fc638d-45be-413d-98af-1c661f6b816e"},"vehicle_type_id":"4","last_reported":1706360749,"current_range_meters":14000,"station_id":"ce4bgj92rcd13ifvqbd0","pricing_plan_id":"free"},{"bike_id":"92939895-7657-4819-b1f4-ca706b113a19","system_id":"levelo_inurba_marseille","lat":43.323593,"lon":5.388739,"is_reserved":false,"is_disabled":false,"rental_uris":{"android":"levelo://app?vid=92939895-7657-4819-b1f4-ca706b113a19","ios":"levelo://app?vid=92939895-7657-4819-b1f4-ca706b113a19"},"vehicle_type_id":"4","last_reported":1706360749,"current_range_meters":29200,"station_id":"ce4bhqp2rcd13ifvqhog","pricing_plan_id":"free"},{"bike_id":"d7803bed-fb47-4ba6-b32d-728fc496b369","system_id":"levelo_inurba_marseille","lat":43.32367,"lon":5.388836,"is_reserved":false,"is_disabled":false,"rental_uris":{"android":"levelo://app?vid=d7803bed-fb47-4ba6-b32d-728fc496b369","ios":"levelo://app?vid=d7803bed-fb47-4ba6-b32d-728fc496b369"},"vehicle_type_id":"4","last_reported":1706360749,"current_range_meters":13200,"station_id":"ce4bhqp2rcd13ifvqhog","pricing_plan_id":"free"},{"bike_id":"73c24fe1-c717-4648-bb40-084f29180982","system_id":"levelo_inurba_marseille","lat":43.3236,"lon":5.38879,"is_reserved":false,"is_disabled":false,"rental_uris":{"android":"levelo://app?vid=73c24fe1-c717-4648-bb40-084f29180982","ios":"levelo://app?vid=73c24fe1-c717-4648-bb40-084f29180982"},"vehicle_type_id":"4","last_reported":1706360749,"current_range_meters":27600,"station_id":"ce4bhqp2rcd13ifvqhog","pricing_plan_id":"free"},{"bike_id":"17539ff0-c1a9-4790-b399-170420149c2c","system_id":"levelo_inurba_marseille","lat":43.32367,"lon":5.388836,"is_reserved":false,"is_disabled":false,"rental_uris":{"android":"levelo://app?vid=17539ff0-c1a9-4790-b399-170420149c2c","ios":"levelo://app?vid=17539ff0-c1a9-4790-b399-170420149c2c"},"vehicle_type_id":"4","last_reported":1706360749,"current_range_meters":20800,"station_id":"ce4bhqp2rcd13ifvqhog","pricing_plan_id":"free"},{"bike_id":"0ea3fd81-3f73-43eb-a24e-cc7fa2617f9d","system_id":"levelo_inurba_marseille","lat":43.32367,"lon":5.388836,"is_reserved":false,"is_disabled":false,"rental_uris":{"android":"levelo://app?vid=0ea3fd81-3f73-43eb-a24e-cc7fa2617f9d","ios":"levelo://app?vid=0ea3fd81-3f73-43eb-a24e-cc7fa2617f9d"},"vehicle_type_id":"4","last_reported":1706360749,"current_range_meters":30400,"station_id":"ce4bhqp2rcd13ifvqhog","pricing_plan_id":"free"},{"bike_id":"c69fc2b7-c2b2-4d45-9f5c-8abf8e5b4583","system_id":"levelo_inurba_marseille","lat":43.32365,"lon":5.38882,"is_reserved":false,"is_disabled":false,"rental_uris":{"android":"levelo://app?vid=c69fc2b7-c2b2-4d45-9f5c-8abf8e5b4583","ios":"levelo://app?vid=c69fc2b7-c2b2-4d45-9f5c-8abf8e5b4583"},"vehicle_type_id":"4","last_reported":1706360749,"current_range_meters":10000,"station_id":"ce4bhqp2rcd13ifvqhog","pricing_plan_id":"free"},{"bike_id":"110e294d-4ae1-4d3c-9a1c-3e70b490847b","system_id":"levelo_inurba_marseille","lat":43.32361,"lon":5.38886,"is_reserved":false,"is_disabled":false,"rental_uris":{"android":"levelo://app?vid=110e294d-4ae1-4d3c-9a1c-3e70b490847b","ios":"levelo://app?vid=110e294d-4ae1-4d3c-9a1c-3e70b490847b"},"vehicle_type_id":"4","last_reported":1706360749,"current_range_meters":20800,"station_id":"ce4bhqp2rcd13ifvqhog","pricing_plan_id":"free"},{"bike_id":"7be10a5b-d8d4-47cd-a19d-58adada9aa30","system_id":"levelo_inurba_marseille","lat":43.32367,"lon":5.388836,"is_reserved":false,"is_disabled":false,"rental_uris":{"android":"levelo://app?vid=7be10a5b-d8d4-47cd-a19d-58adada9aa30","ios":"levelo://app?vid=7be10a5b-d8d4-47cd-a19d-58adada9aa30"},"vehicle_type_id":"4","last_reported":1706360749,"current_range_meters":20000,"station_id":"ce4bhqp2rcd13ifvqhog","pricing_plan_id":"free"},{"bike_id":"2ca78edb-656b-482c-84f6-4464c673d97c","system_id":"levelo_inurba_marseille","lat":43.32367,"lon":5.388836,"is_reserved":false,"is_disabled":false,"rental_uris":{"android":"levelo://app?vid=2ca78edb-656b-482c-84f6-4464c673d97c","ios":"levelo://app?vid=2ca78edb-656b-482c-84f6-4464c673d97c"},"vehicle_type_id":"4","last_reported":1706360749,"current_range_meters":23600,"station_id":"ce4bhqp2rcd13ifvqhog","pricing_plan_id":"free"},{"bike_id":"7c66c9c8-fce3-4e85-9788-bd629b68dcd0","system_id":"levelo_inurba_marseille","lat":43.32367,"lon":5.388836,"is_reserved":false,"is_disabled":false,"rental_uris":{"android":"levelo://app?vid=7c66c9c8-fce3-4e85-9788-bd629b68dcd0","ios":"levelo://app?vid=7c66c9c8-fce3-4e85-9788-bd629b68dcd0"},"vehicle_type_id":"4","last_reported":1706360749,"current_range_meters":13200,"station_id":"ce4bhqp2rcd13ifvqhog","pricing_plan_id":"free"},{"bike_id":"49a7ca8c-21c7-478a-ab58-28ef1d551807","system_id":"levelo_inurba_marseille","lat":43.32367,"lon":5.388836,"is_reserved":false,"is_disabled":false,"rental_uris":{"android":"levelo://app?vid=49a7ca8c-21c7-478a-ab58-28ef1d551807","ios":"levelo://app?vid=49a7ca8c-21c7-478a-ab58-28ef1d551807"},"vehicle_type_id":"4","last_reported":1706360749,"current_range_meters":31200,"station_id":"ce4bhqp2rcd13ifvqhog","pricing_plan_id":"free"},{"bike_id":"96a315e5-94a3-4b02-8b2e-29168b7fab00","system_id":"levelo_inurba_marseille","lat":43.29601,"lon":5.381084,"is_reserved":false,"is_disabled":false,"rental_uris":{"android":"levelo://app?vid=96a315e5-94a3-4b02-8b2e-29168b7fab00","ios":"levelo://app?vid=96a315e5-94a3-4b02-8b2e-29168b7fab00"},"vehicle_type_id":"4","last_reported":1706360749,"current_range_meters":22400,"station_id":"ce4bgl12rcd13ifvqbo0","pricing_plan_id":"free"},{"bike_id":"5126cffd-b803-4a78-941d-b85654da286e","system_id":"levelo_inurba_marseille","lat":43.323557,"lon":5.389756,"is_reserved":false,"is_disabled":false,"rental_uris":{"android":"levelo://app?vid=5126cffd-b803-4a78-941d-b85654da286e","ios":"levelo://app?vid=5126cffd-b803-4a78-941d-b85654da286e"},"vehicle_type_id":"4","last_reported":1706360749,"current_range_meters":1200,"station_id":"ce4bhqp2rcd13ifvqhog","pricing_plan_id":"free"},{"bike_id":"d75a6f7e-211b-4e32-9d51-264fc2150205","system_id":"levelo_inurba_marseille","lat":43.292749,"lon":5.368402,"is_reserved":false,"is_disabled":false,"rental_uris":{"android":"levelo://app?vid=d75a6f7e-211b-4e32-9d51-264fc2150205","ios":"levelo://app?vid=d75a6f7e-211b-4e32-9d51-264fc2150205"},"vehicle_type_id":"4","last_reported":1706360749,"current_range_meters":18400,"station_id":"ce4bhbp2rcd13ifvqesg","pricing_plan_id":"free"},{"bike_id":"eb2fe262-68e0-4fe2-acb0-8a16b2d1c5f9","system_id":"levelo_inurba_marseille","lat":43.292749,"lon":5.368402,"is_reserved":false,"is_disabled":false,"rental_uris":{"android":"levelo://app?vid=eb2fe262-68e0-4fe2-acb0-8a16b2d1c5f9","ios":"levelo://app?vid=eb2fe262-68e0-4fe2-acb0-8a16b2d1c5f9"},"vehicle_type_id":"4","last_reported":1706360749,"current_range_meters":8400,"station_id":"ce4bhbp2rcd13ifvqesg","pricing_plan_id":"free"},{"bike_id":"e21ae2db-a290-4eb2-b9f2-4addd31547a3","system_id":"levelo_inurba_marseille","lat":43.292749,"lon":5.368402,"is_reserved":false,"is_disabled":false,"rental_uris":{"android":"levelo://app?vid=e21ae2db-a290-4eb2-b9f2-4addd31547a3","ios":"levelo://app?vid=e21ae2db-a290-4eb2-b9f2-4addd31547a3"},"vehicle_type_id":"4","last_reported":1706360749,"current_range_meters":22000,"station_id":"ce4bhbp2rcd13ifvqesg","pricing_plan_id":"free"},{"bike_id":"9b4e22c8-caa2-46fd-9c8b-4ea5db59354f","system_id":"levelo_inurba_marseille","lat":43.29298,"lon":5.37157,"is_reserved":false,"is_disabled":false,"rental_uris":{"android":"levelo://app?vid=9b4e22c8-caa2-46fd-9c8b-4ea5db59354f","ios":"levelo://app?vid=9b4e22c8-caa2-46fd-9c8b-4ea5db59354f"},"vehicle_type_id":"4","last_reported":1706360749,"current_range_meters":0,"station_id":"ce4bgh92rcd13ifvqb40","pricing_plan_id":"free"},{"bike_id":"822c66f7-5fa9-44fd-bd6f-0bee05786512","system_id":"levelo_inurba_marseille","lat":43.305994,"lon":5.393687,"is_reserved":false,"is_disabled":false,"rental_uris":{"android":"levelo://app?vid=822c66f7-5fa9-44fd-bd6f-0bee05786512","ios":"levelo://app?vid=822c66f7-5fa9-44fd-bd6f-0bee05786512"},"vehicle_type_id":"4","last_reported":1706360749,"current_range_meters":30000,"station_id":"ce4bh0p2rcd13ifvqd80","pricing_plan_id":"free"},{"bike_id":"de050258-fa68-4627-a474-2ce5ad71726d","system_id":"levelo_inurba_marseille","lat":43.29227,"lon":5.36077,"is_reserved":false,"is_disabled":false,"rental_uris":{"android":"levelo://app?vid=de050258-fa68-4627-a474-2ce5ad71726d","ios":"levelo://app?vid=de050258-fa68-4627-a474-2ce5ad71726d"},"vehicle_type_id":"4","last_reported":1706360749,"current_range_meters":23200,"station_id":"ce4bhbh2rcd13ifvqeqg","pricing_plan_id":"free"},{"bike_id":"2cdd5039-e8ec-441b-9bd5-4c34b690b828","system_id":"levelo_inurba_marseille","lat":43.30492,"lon":5.39418,"is_reserved":false,"is_disabled":false,"rental_uris":{"android":"levelo://app?vid=2cdd5039-e8ec-441b-9bd5-4c34b690b828","ios":"levelo://app?vid=2cdd5039-e8ec-441b-9bd5-4c34b690b828"},"vehicle_type_id":"4","last_reported":1706360749,"current_range_meters":20400,"station_id":"","pricing_plan_id":"free"},{"bike_id":"44e4002d-1dbd-4633-b7e7-caa02a4c129a","system_id":"levelo_inurba_marseille","lat":43.291675,"lon":5.371583,"is_reserved":false,"is_disabled":false,"rental_uris":{"android":"levelo://app?vid=44e4002d-1dbd-4633-b7e7-caa02a4c129a","ios":"levelo://app?vid=44e4002d-1dbd-4633-b7e7-caa02a4c129a"},"vehicle_type_id":"4","last_reported":1706360749,"current_range_meters":30400,"station_id":"ce4bha92rcd13ifvqeh0","pricing_plan_id":"free"},{"bike_id":"ff650c1a-e6a2-4b03-8f89-a07776bac32d","system_id":"levelo_inurba_marseille","lat":43.291994,"lon":5.357886,"is_reserved":false,"is_disabled":false,"rental_uris":{"android":"levelo://app?vid=ff650c1a-e6a2-4b03-8f89-a07776bac32d","ios":"levelo://app?vid=ff650c1a-e6a2-4b03-8f89-a07776bac32d"},"vehicle_type_id":"4","last_reported":1706360749,"current_range_meters":12400,"station_id":"ce4bhb12rcd13ifvqel0","pricing_plan_id":"free"},{"bike_id":"a7c966b1-b6c4-44f2-88d3-0db72bb49359","system_id":"levelo_inurba_marseille","lat":43.290779,"lon":5.371482,"is_reserved":false,"is_disabled":false,"rental_uris":{"android":"levelo://app?vid=a7c966b1-b6c4-44f2-88d3-0db72bb49359","ios":"levelo://app?vid=a7c966b1-b6c4-44f2-88d3-0db72bb49359"},"vehicle_type_id":"4","last_reported":1706360749,"current_range_meters":24000,"station_id":"ce4bh5p2rcd13ifvqe4g","pricing_plan_id":"free"},{"bike_id":"7a0788f4-b583-4117-9ced-eaaeacf6e473","system_id":"levelo_inurba_marseille","lat":43.290779,"lon":5.371482,"is_reserved":false,"is_disabled":false,"rental_uris":{"android":"levelo://app?vid=7a0788f4-b583-4117-9ced-eaaeacf6e473","ios":"levelo://app?vid=7a0788f4-b583-4117-9ced-eaaeacf6e473"},"vehicle_type_id":"4","last_reported":1706360749,"current_range_meters":20800,"station_id":"ce4bh5p2rcd13ifvqe4g","pricing_plan_id":"free"},{"bike_id":"be470bb2-77b0-433a-9afe-7d1db00aa078","system_id":"levelo_inurba_marseille","lat":43.290441,"lon":5.359123,"is_reserved":false,"is_disabled":false,"rental_uris":{"android":"levelo://app?vid=be470bb2-77b0-433a-9afe-7d1db00aa078","ios":"levelo://app?vid=be470bb2-77b0-433a-9afe-7d1db00aa078"},"vehicle_type_id":"4","last_reported":1706360749,"current_range_meters":29600,"station_id":"","pricing_plan_id":"free"},{"bike_id":"6e40e46b-6276-4a1f-8418-fe559f45c32d","system_id":"levelo_inurba_marseille","lat":43.290319,"lon":5.375732,"is_reserved":false,"is_disabled":false,"rental_uris":{"android":"levelo://app?vid=6e40e46b-6276-4a1f-8418-fe559f45c32d","ios":"levelo://app?vid=6e40e46b-6276-4a1f-8418-fe559f45c32d"},"vehicle_type_id":"4","last_reported":1706360749,"current_range_meters":21200,"station_id":"ce4bh692rcd13ifvqe90","pricing_plan_id":"free"},{"bike_id":"3710ca34-4e12-4e54-afcb-87d0d28dff1e","system_id":"levelo_inurba_marseille","lat":43.294162,"lon":5.386292,"is_reserved":false,"is_disabled":false,"rental_uris":{"android":"levelo://app?vid=3710ca34-4e12-4e54-afcb-87d0d28dff1e","ios":"levelo://app?vid=3710ca34-4e12-4e54-afcb-87d0d28dff1e"},"vehicle_type_id":"4","last_reported":1706360749,"current_range_meters":2400,"station_id":"ce4bh2h2rcd13ifvqdh0","pricing_plan_id":"free"},{"bike_id":"98d20a4c-9683-4977-aab4-2f4c25a11b83","system_id":"levelo_inurba_marseille","lat":43.289184,"lon":5.366408,"is_reserved":false,"is_disabled":false,"rental_uris":{"android":"levelo://app?vid=98d20a4c-9683-4977-aab4-2f4c25a11b83","ios":"levelo://app?vid=98d20a4c-9683-4977-aab4-2f4c25a11b83"},"vehicle_type_id":"4","last_reported":1706360749,"current_range_meters":26400,"station_id":"ce4bhap2rcd13ifvqek0","pricing_plan_id":"free"},{"bike_id":"add39bcc-cbb0-4739-967d-a1b6e308a730","system_id":"levelo_inurba_marseille","lat":43.289184,"lon":5.366408,"is_reserved":false,"is_disabled":false,"rental_uris":{"android":"levelo://app?vid=add39bcc-cbb0-4739-967d-a1b6e308a730","ios":"levelo://app?vid=add39bcc-cbb0-4739-967d-a1b6e308a730"},"vehicle_type_id":"4","last_reported":1706360749,"current_range_meters":24400,"station_id":"ce4bhap2rcd13ifvqek0","pricing_plan_id":"free"},{"bike_id":"58a819c4-9b5f-4660-8119-aba36f2eb25a","system_id":"levelo_inurba_marseille","lat":43.289184,"lon":5.366408,"is_reserved":false,"is_disabled":false,"rental_uris":{"android":"levelo://app?vid=58a819c4-9b5f-4660-8119-aba36f2eb25a","ios":"levelo://app?vid=58a819c4-9b5f-4660-8119-aba36f2eb25a"},"vehicle_type_id":"4","last_reported":1706360749,"current_range_meters":2400,"station_id":"ce4bhap2rcd13ifvqek0","pricing_plan_id":"free"},{"bike_id":"04863170-8ce4-49a1-bbf8-2f2ee986c6c1","system_id":"levelo_inurba_marseille","lat":43.304296,"lon":5.397513,"is_reserved":false,"is_disabled":false,"rental_uris":{"android":"levelo://app?vid=04863170-8ce4-49a1-bbf8-2f2ee986c6c1","ios":"levelo://app?vid=04863170-8ce4-49a1-bbf8-2f2ee986c6c1"},"vehicle_type_id":"4","last_reported":1706360749,"current_range_meters":20400,"station_id":"ce4bh092rcd13ifvqd20","pricing_plan_id":"free"},{"bike_id":"f46e1c35-d882-4bab-9399-bdaa8f85cdbf","system_id":"levelo_inurba_marseille","lat":43.292642,"lon":5.384254,"is_reserved":false,"is_disabled":false,"rental_uris":{"android":"levelo://app?vid=f46e1c35-d882-4bab-9399-bdaa8f85cdbf","ios":"levelo://app?vid=f46e1c35-d882-4bab-9399-bdaa8f85cdbf"},"vehicle_type_id":"4","last_reported":1706360749,"current_range_meters":2000,"station_id":"ce4bh692rcd13ifvqea0","pricing_plan_id":"free"},{"bike_id":"70c24b75-b4aa-4b7f-aced-48059d683ad7","system_id":"levelo_inurba_marseille","lat":43.290104,"lon":5.356111,"is_reserved":false,"is_disabled":false,"rental_uris":{"android":"levelo://app?vid=70c24b75-b4aa-4b7f-aced-48059d683ad7","ios":"levelo://app?vid=70c24b75-b4aa-4b7f-aced-48059d683ad7"},"vehicle_type_id":"4","last_reported":1706360749,"current_range_meters":27200,"station_id":"ce4bhb92rcd13ifvqen0","pricing_plan_id":"free"},{"bike_id":"79a06bed-b6fc-45a1-82f5-4c17f490d569","system_id":"levelo_inurba_marseille","lat":43.30907,"lon":5.399567,"is_reserved":false,"is_disabled":false,"rental_uris":{"android":"levelo://app?vid=79a06bed-b6fc-45a1-82f5-4c17f490d569","ios":"levelo://app?vid=79a06bed-b6fc-45a1-82f5-4c17f490d569"},"vehicle_type_id":"4","last_reported":1706360749,"current_range_meters":21600,"station_id":"","pricing_plan_id":"free"},{"bike_id":"2ebb33ce-d254-45cb-89aa-9ee0636317dc","system_id":"levelo_inurba_marseille","lat":43.290104,"lon":5.356111,"is_reserved":false,"is_disabled":false,"rental_uris":{"android":"levelo://app?vid=2ebb33ce-d254-45cb-89aa-9ee0636317dc","ios":"levelo://app?vid=2ebb33ce-d254-45cb-89aa-9ee0636317dc"},"vehicle_type_id":"4","last_reported":1706360749,"current_range_meters":15600,"station_id":"ce4bhb92rcd13ifvqen0","pricing_plan_id":"free"},{"bike_id":"494d857d-54ac-497c-bdf7-6a5b6b5d22f7","system_id":"levelo_inurba_marseille","lat":43.290104,"lon":5.356111,"is_reserved":false,"is_disabled":false,"rental_uris":{"android":"levelo://app?vid=494d857d-54ac-497c-bdf7-6a5b6b5d22f7","ios":"levelo://app?vid=494d857d-54ac-497c-bdf7-6a5b6b5d22f7"},"vehicle_type_id":"4","last_reported":1706360749,"current_range_meters":19200,"station_id":"ce4bhb92rcd13ifvqen0","pricing_plan_id":"free"},{"bike_id":"1407b8e2-11c3-464d-b7bd-c9b928c6b09b","system_id":"levelo_inurba_marseille","lat":43.33021,"lon":5.39047,"is_reserved":false,"is_disabled":false,"rental_uris":{"android":"levelo://app?vid=1407b8e2-11c3-464d-b7bd-c9b928c6b09b","ios":"levelo://app?vid=1407b8e2-11c3-464d-b7bd-c9b928c6b09b"},"vehicle_type_id":"4","last_reported":1706360749,"current_range_meters":30400,"station_id":"ce4bhr92rcd13ifvqhrg","pricing_plan_id":"free"},{"bike_id":"e40cd59e-c067-489d-817b-440f879134bb","system_id":"levelo_inurba_marseille","lat":43.33026,"lon":5.39041,"is_reserved":false,"is_disabled":false,"rental_uris":{"android":"levelo://app?vid=e40cd59e-c067-489d-817b-440f879134bb","ios":"levelo://app?vid=e40cd59e-c067-489d-817b-440f879134bb"},"vehicle_type_id":"4","last_reported":1706360749,"current_range_meters":28800,"station_id":"ce4bhr92rcd13ifvqhrg","pricing_plan_id":"free"},{"bike_id":"6b528262-d8bd-46a7-a8a7-bcddd72eee7f","system_id":"levelo_inurba_marseille","lat":43.330442,"lon":5.389148,"is_reserved":false,"is_disabled":false,"rental_uris":{"android":"levelo://app?vid=6b528262-d8bd-46a7-a8a7-bcddd72eee7f","ios":"levelo://app?vid=6b528262-d8bd-46a7-a8a7-bcddd72eee7f"},"vehicle_type_id":"4","last_reported":1706360749,"current_range_meters":16400,"station_id":"ce4bhr92rcd13ifvqhrg","pricing_plan_id":"free"},{"bike_id":"17c9044b-1e1a-4ec5-a29a-4d2b191e11f0","system_id":"levelo_inurba_marseille","lat":43.330442,"lon":5.389148,"is_reserved":false,"is_disabled":false,"rental_uris":{"android":"levelo://app?vid=17c9044b-1e1a-4ec5-a29a-4d2b191e11f0","ios":"levelo://app?vid=17c9044b-1e1a-4ec5-a29a-4d2b191e11f0"},"vehicle_type_id":"4","last_reported":1706360749,"current_range_meters":10400,"station_id":"ce4bhr92rcd13ifvqhrg","pricing_plan_id":"free"},{"bike_id":"3d2a7ade-7a1e-4abc-8e1e-5176020913b7","system_id":"levelo_inurba_marseille","lat":43.295169,"lon":5.390426,"is_reserved":false,"is_disabled":false,"rental_uris":{"android":"levelo://app?vid=3d2a7ade-7a1e-4abc-8e1e-5176020913b7","ios":"levelo://app?vid=3d2a7ade-7a1e-4abc-8e1e-5176020913b7"},"vehicle_type_id":"4","last_reported":1706360749,"current_range_meters":16400,"station_id":"ce4bh3p2rcd13ifvqdp0","pricing_plan_id":"free"},{"bike_id":"5e50b5fa-cc27-4bb7-a1f3-ec4721f3e351","system_id":"levelo_inurba_marseille","lat":43.33737,"lon":5.37444,"is_reserved":false,"is_disabled":false,"rental_uris":{"android":"levelo://app?vid=5e50b5fa-cc27-4bb7-a1f3-ec4721f3e351","ios":"levelo://app?vid=5e50b5fa-cc27-4bb7-a1f3-ec4721f3e351"},"vehicle_type_id":"4","last_reported":1706360749,"current_range_meters":30400,"station_id":"","pricing_plan_id":"free"},{"bike_id":"f925489e-5ff9-4c2a-8b70-d073c769a08c","system_id":"levelo_inurba_marseille","lat":43.3374,"lon":5.37446,"is_reserved":false,"is_disabled":false,"rental_uris":{"android":"levelo://app?vid=f925489e-5ff9-4c2a-8b70-d073c769a08c","ios":"levelo://app?vid=f925489e-5ff9-4c2a-8b70-d073c769a08c"},"vehicle_type_id":"4","last_reported":1706360749,"current_range_meters":30000,"station_id":"","pricing_plan_id":"free"},{"bike_id":"b7f12eab-e0a6-499e-87ec-2b4381c4602a","system_id":"levelo_inurba_marseille","lat":43.337523,"lon":5.374737,"is_reserved":false,"is_disabled":false,"rental_uris":{"android":"levelo://app?vid=b7f12eab-e0a6-499e-87ec-2b4381c4602a","ios":"levelo://app?vid=b7f12eab-e0a6-499e-87ec-2b4381c4602a"},"vehicle_type_id":"4","last_reported":1706360749,"current_range_meters":24800,"station_id":"","pricing_plan_id":"free"},{"bike_id":"a7827825-c676-4912-93e3-b8f665ca18f4","system_id":"levelo_inurba_marseille","lat":43.30644,"lon":5.40081,"is_reserved":false,"is_disabled":false,"rental_uris":{"android":"levelo://app?vid=a7827825-c676-4912-93e3-b8f665ca18f4","ios":"levelo://app?vid=a7827825-c676-4912-93e3-b8f665ca18f4"},"vehicle_type_id":"4","last_reported":1706360749,"current_range_meters":31200,"station_id":"ce4bh112rcd13ifvqda0","pricing_plan_id":"free"},{"bike_id":"43236fd2-e2e9-4b1e-9ed5-bfdbf82475b3","system_id":"levelo_inurba_marseille","lat":43.3376,"lon":5.37452,"is_reserved":false,"is_disabled":false,"rental_uris":{"android":"levelo://app?vid=43236fd2-e2e9-4b1e-9ed5-bfdbf82475b3","ios":"levelo://app?vid=43236fd2-e2e9-4b1e-9ed5-bfdbf82475b3"},"vehicle_type_id":"4","last_reported":1706360749,"current_range_meters":28000,"station_id":"","pricing_plan_id":"free"},{"bike_id":"5b65f315-e814-43b0-b5ed-004ec0077963","system_id":"levelo_inurba_marseille","lat":43.337602,"lon":5.374578,"is_reserved":false,"is_disabled":false,"rental_uris":{"android":"levelo://app?vid=5b65f315-e814-43b0-b5ed-004ec0077963","ios":"levelo://app?vid=5b65f315-e814-43b0-b5ed-004ec0077963"},"vehicle_type_id":"4","last_reported":1706360749,"current_range_meters":28800,"station_id":"","pricing_plan_id":"free"},{"bike_id":"50fe6007-1527-44b0-8d29-3a5fd7821abc","system_id":"levelo_inurba_marseille","lat":43.30637,"lon":5.4009,"is_reserved":false,"is_disabled":false,"rental_uris":{"android":"levelo://app?vid=50fe6007-1527-44b0-8d29-3a5fd7821abc","ios":"levelo://app?vid=50fe6007-1527-44b0-8d29-3a5fd7821abc"},"vehicle_type_id":"4","last_reported":1706360749,"current_range_meters":10000,"station_id":"ce4bh112rcd13ifvqda0","pricing_plan_id":"free"},{"bike_id":"b7d3b81d-d85a-44b5-a0c7-8f9c9f74639e","system_id":"levelo_inurba_marseille","lat":43.33765,"lon":5.374672,"is_reserved":false,"is_disabled":false,"rental_uris":{"android":"levelo://app?vid=b7d3b81d-d85a-44b5-a0c7-8f9c9f74639e","ios":"levelo://app?vid=b7d3b81d-d85a-44b5-a0c7-8f9c9f74639e"},"vehicle_type_id":"4","last_reported":1706360749,"current_range_meters":30800,"station_id":"","pricing_plan_id":"free"},{"bike_id":"224ef7e0-1f24-474a-847f-c671464f8b87","system_id":"levelo_inurba_marseille","lat":43.286591,"lon":5.363346,"is_reserved":false,"is_disabled":false,"rental_uris":{"android":"levelo://app?vid=224ef7e0-1f24-474a-847f-c671464f8b87","ios":"levelo://app?vid=224ef7e0-1f24-474a-847f-c671464f8b87"},"vehicle_type_id":"4","last_reported":1706360749,"current_range_meters":3600,"station_id":"ce4bhah2rcd13ifvqej0","pricing_plan_id":"free"},{"bike_id":"183bb1c1-398f-466c-b05d-327ac4efc436","system_id":"levelo_inurba_marseille","lat":43.302511,"lon":5.400653,"is_reserved":false,"is_disabled":false,"rental_uris":{"android":"levelo://app?vid=183bb1c1-398f-466c-b05d-327ac4efc436","ios":"levelo://app?vid=183bb1c1-398f-466c-b05d-327ac4efc436"},"vehicle_type_id":"4","last_reported":1706360749,"current_range_meters":14800,"station_id":"ce4bgth2rcd13ifvqch0","pricing_plan_id":"free"},{"bike_id":"09b9f41c-b1ba-461b-8598-a2f6516d987b","system_id":"levelo_inurba_marseille","lat":43.290336,"lon":5.386425,"is_reserved":false,"is_disabled":false,"rental_uris":{"android":"levelo://app?vid=09b9f41c-b1ba-461b-8598-a2f6516d987b","ios":"levelo://app?vid=09b9f41c-b1ba-461b-8598-a2f6516d987b"},"vehicle_type_id":"4","last_reported":1706360749,"current_range_meters":26400,"station_id":"ce4bh4p2rcd13ifvqe0g","pricing_plan_id":"free"},{"bike_id":"28aa71d3-99b6-41e1-a158-5c6d22ea715a","system_id":"levelo_inurba_marseille","lat":43.286039,"lon":5.370681,"is_reserved":false,"is_disabled":false,"rental_uris":{"android":"levelo://app?vid=28aa71d3-99b6-41e1-a158-5c6d22ea715a","ios":"levelo://app?vid=28aa71d3-99b6-41e1-a158-5c6d22ea715a"},"vehicle_type_id":"4","last_reported":1706360749,"current_range_meters":21600,"station_id":"ce4bht12rcd13ifvqi60","pricing_plan_id":"free"},{"bike_id":"33e9220d-51de-419e-b162-8099acf6dffd","system_id":"levelo_inurba_marseille","lat":43.286039,"lon":5.370681,"is_reserved":false,"is_disabled":false,"rental_uris":{"android":"levelo://app?vid=33e9220d-51de-419e-b162-8099acf6dffd","ios":"levelo://app?vid=33e9220d-51de-419e-b162-8099acf6dffd"},"vehicle_type_id":"4","last_reported":1706360749,"current_range_meters":400,"station_id":"ce4bht12rcd13ifvqi60","pricing_plan_id":"free"},{"bike_id":"26339cac-39f8-47cc-a5be-74ce8e87d19d","system_id":"levelo_inurba_marseille","lat":43.286039,"lon":5.370681,"is_reserved":false,"is_disabled":false,"rental_uris":{"android":"levelo://app?vid=26339cac-39f8-47cc-a5be-74ce8e87d19d","ios":"levelo://app?vid=26339cac-39f8-47cc-a5be-74ce8e87d19d"},"vehicle_type_id":"4","last_reported":1706360749,"current_range_meters":3200,"station_id":"ce4bht12rcd13ifvqi60","pricing_plan_id":"free"},{"bike_id":"29f795df-6a4a-43f9-a3b9-3426b9a9a4d1","system_id":"levelo_inurba_marseille","lat":43.286039,"lon":5.370681,"is_reserved":false,"is_disabled":false,"rental_uris":{"android":"levelo://app?vid=29f795df-6a4a-43f9-a3b9-3426b9a9a4d1","ios":"levelo://app?vid=29f795df-6a4a-43f9-a3b9-3426b9a9a4d1"},"vehicle_type_id":"4","last_reported":1706360749,"current_range_meters":22400,"station_id":"ce4bht12rcd13ifvqi60","pricing_plan_id":"free"},{"bike_id":"9647f043-366a-43b2-b024-f06efb08f184","system_id":"levelo_inurba_marseille","lat":43.287184,"lon":5.37937,"is_reserved":false,"is_disabled":false,"rental_uris":{"android":"levelo://app?vid=9647f043-366a-43b2-b024-f06efb08f184","ios":"levelo://app?vid=9647f043-366a-43b2-b024-f06efb08f184"},"vehicle_type_id":"4","last_reported":1706360749,"current_range_meters":28800,"station_id":"ce4bh9p2rcd13ifvqec0","pricing_plan_id":"free"},{"bike_id":"f06821b1-8ac9-457f-89a1-fdd36fb1660f","system_id":"levelo_inurba_marseille","lat":43.287185,"lon":5.379373,"is_reserved":false,"is_disabled":false,"rental_uris":{"android":"levelo://app?vid=f06821b1-8ac9-457f-89a1-fdd36fb1660f","ios":"levelo://app?vid=f06821b1-8ac9-457f-89a1-fdd36fb1660f"},"vehicle_type_id":"4","last_reported":1706360749,"current_range_meters":22000,"station_id":"ce4bh9p2rcd13ifvqec0","pricing_plan_id":"free"},{"bike_id":"2fe24097-b1c2-4583-ba1f-cf8501171a4c","system_id":"levelo_inurba_marseille","lat":43.33895,"lon":5.37797,"is_reserved":false,"is_disabled":false,"rental_uris":{"android":"levelo://app?vid=2fe24097-b1c2-4583-ba1f-cf8501171a4c","ios":"levelo://app?vid=2fe24097-b1c2-4583-ba1f-cf8501171a4c"},"vehicle_type_id":"4","last_reported":1706360749,"current_range_meters":19200,"station_id":"","pricing_plan_id":"free"},{"bike_id":"b332df60-0a81-4841-a021-c7d35a6d7740","system_id":"levelo_inurba_marseille","lat":43.316904,"lon":5.404644,"is_reserved":false,"is_disabled":false,"rental_uris":{"android":"levelo://app?vid=b332df60-0a81-4841-a021-c7d35a6d7740","ios":"levelo://app?vid=b332df60-0a81-4841-a021-c7d35a6d7740"},"vehicle_type_id":"4","last_reported":1706360749,"current_range_meters":9600,"station_id":"ce4bh012rcd13ifvqd00","pricing_plan_id":"free"},{"bike_id":"2251fc59-2828-4aff-966d-0a6777ecbd36","system_id":"levelo_inurba_marseille","lat":43.316929,"lon":5.404641,"is_reserved":false,"is_disabled":false,"rental_uris":{"android":"levelo://app?vid=2251fc59-2828-4aff-966d-0a6777ecbd36","ios":"levelo://app?vid=2251fc59-2828-4aff-966d-0a6777ecbd36"},"vehicle_type_id":"4","last_reported":1706360749,"current_range_meters":6400,"station_id":"ce4bh012rcd13ifvqd00","pricing_plan_id":"free"},{"bike_id":"c011c8ab-84d3-4588-a847-3df4c973ed80","system_id":"levelo_inurba_marseille","lat":43.316828,"lon":5.404723,"is_reserved":false,"is_disabled":false,"rental_uris":{"android":"levelo://app?vid=c011c8ab-84d3-4588-a847-3df4c973ed80","ios":"levelo://app?vid=c011c8ab-84d3-4588-a847-3df4c973ed80"},"vehicle_type_id":"4","last_reported":1706360749,"current_range_meters":13200,"station_id":"ce4bh012rcd13ifvqd00","pricing_plan_id":"free"},{"bike_id":"b284d1f6-e32b-4633-984c-97db893c8269","system_id":"levelo_inurba_marseille","lat":43.283998,"lon":5.375062,"is_reserved":false,"is_disabled":false,"rental_uris":{"android":"levelo://app?vid=b284d1f6-e32b-4633-984c-97db893c8269","ios":"levelo://app?vid=b284d1f6-e32b-4633-984c-97db893c8269"},"vehicle_type_id":"4","last_reported":1706360749,"current_range_meters":26800,"station_id":"ce4bh412rcd13ifvqds0","pricing_plan_id":"free"},{"bike_id":"beae637c-2f06-48ae-82de-5c39dcb32a5d","system_id":"levelo_inurba_marseille","lat":43.294314,"lon":5.397498,"is_reserved":false,"is_disabled":false,"rental_uris":{"android":"levelo://app?vid=beae637c-2f06-48ae-82de-5c39dcb32a5d","ios":"levelo://app?vid=beae637c-2f06-48ae-82de-5c39dcb32a5d"},"vehicle_type_id":"4","last_reported":1706360749,"current_range_meters":16000,"station_id":"ce4bh3h2rcd13ifvqdo0","pricing_plan_id":"free"},{"bike_id":"b69bc4a0-d4fd-4f3b-8913-a119b6550028","system_id":"levelo_inurba_marseille","lat":43.294314,"lon":5.397498,"is_reserved":false,"is_disabled":false,"rental_uris":{"android":"levelo://app?vid=b69bc4a0-d4fd-4f3b-8913-a119b6550028","ios":"levelo://app?vid=b69bc4a0-d4fd-4f3b-8913-a119b6550028"},"vehicle_type_id":"4","last_reported":1706360749,"current_range_meters":24800,"station_id":"ce4bh3h2rcd13ifvqdo0","pricing_plan_id":"free"},{"bike_id":"c8a59845-1f86-4644-b058-d338e82c8292","system_id":"levelo_inurba_marseille","lat":43.294314,"lon":5.397498,"is_reserved":false,"is_disabled":false,"rental_uris":{"android":"levelo://app?vid=c8a59845-1f86-4644-b058-d338e82c8292","ios":"levelo://app?vid=c8a59845-1f86-4644-b058-d338e82c8292"},"vehicle_type_id":"4","last_reported":1706360749,"current_range_meters":22800,"station_id":"ce4bh3h2rcd13ifvqdo0","pricing_plan_id":"free"},{"bike_id":"b114626f-7d10-4440-bd56-46102f1bc82d","system_id":"levelo_inurba_marseille","lat":43.285856,"lon":5.350771,"is_reserved":false,"is_disabled":false,"rental_uris":{"android":"levelo://app?vid=b114626f-7d10-4440-bd56-46102f1bc82d","ios":"levelo://app?vid=b114626f-7d10-4440-bd56-46102f1bc82d"},"vehicle_type_id":"4","last_reported":1706360749,"current_range_meters":15600,"station_id":"ce4bhch2rcd13ifvqeug","pricing_plan_id":"free"},{"bike_id":"2cd92a02-8429-4305-826a-8632e3954970","system_id":"levelo_inurba_marseille","lat":43.285856,"lon":5.350771,"is_reserved":false,"is_disabled":false,"rental_uris":{"android":"levelo://app?vid=2cd92a02-8429-4305-826a-8632e3954970","ios":"levelo://app?vid=2cd92a02-8429-4305-826a-8632e3954970"},"vehicle_type_id":"4","last_reported":1706360749,"current_range_meters":8800,"station_id":"ce4bhch2rcd13ifvqeug","pricing_plan_id":"free"},{"bike_id":"ab46b215-0fdc-44a1-ab1f-434e393bc1be","system_id":"levelo_inurba_marseille","lat":43.285848,"lon":5.350787,"is_reserved":false,"is_disabled":false,"rental_uris":{"android":"levelo://app?vid=ab46b215-0fdc-44a1-ab1f-434e393bc1be","ios":"levelo://app?vid=ab46b215-0fdc-44a1-ab1f-434e393bc1be"},"vehicle_type_id":"4","last_reported":1706360749,"current_range_meters":21600,"station_id":"ce4bhch2rcd13ifvqeug","pricing_plan_id":"free"},{"bike_id":"55993c3f-eb92-4bc7-9c66-80f3e0ea39aa","system_id":"levelo_inurba_marseille","lat":43.285856,"lon":5.350771,"is_reserved":false,"is_disabled":false,"rental_uris":{"android":"levelo://app?vid=55993c3f-eb92-4bc7-9c66-80f3e0ea39aa","ios":"levelo://app?vid=55993c3f-eb92-4bc7-9c66-80f3e0ea39aa"},"vehicle_type_id":"4","last_reported":1706360749,"current_range_meters":30400,"station_id":"ce4bhch2rcd13ifvqeug","pricing_plan_id":"free"},{"bike_id":"0d12208b-3738-4dc1-bc82-1c177e274d0b","system_id":"levelo_inurba_marseille","lat":43.285848,"lon":5.350787,"is_reserved":false,"is_disabled":false,"rental_uris":{"android":"levelo://app?vid=0d12208b-3738-4dc1-bc82-1c177e274d0b","ios":"levelo://app?vid=0d12208b-3738-4dc1-bc82-1c177e274d0b"},"vehicle_type_id":"4","last_reported":1706360749,"current_range_meters":6400,"station_id":"ce4bhch2rcd13ifvqeug","pricing_plan_id":"free"},{"bike_id":"7eb8550f-b6d6-444b-b290-34eac0303f7e","system_id":"levelo_inurba_marseille","lat":43.285856,"lon":5.350771,"is_reserved":false,"is_disabled":false,"rental_uris":{"android":"levelo://app?vid=7eb8550f-b6d6-444b-b290-34eac0303f7e","ios":"levelo://app?vid=7eb8550f-b6d6-444b-b290-34eac0303f7e"},"vehicle_type_id":"4","last_reported":1706360749,"current_range_meters":8000,"station_id":"ce4bhch2rcd13ifvqeug","pricing_plan_id":"free"},{"bike_id":"af64f058-4698-46ff-aaed-504c7cefacfb","system_id":"levelo_inurba_marseille","lat":43.285856,"lon":5.350771,"is_reserved":false,"is_disabled":false,"rental_uris":{"android":"levelo://app?vid=af64f058-4698-46ff-aaed-504c7cefacfb","ios":"levelo://app?vid=af64f058-4698-46ff-aaed-504c7cefacfb"},"vehicle_type_id":"4","last_reported":1706360749,"current_range_meters":0,"station_id":"ce4bhch2rcd13ifvqeug","pricing_plan_id":"free"},{"bike_id":"52a81146-ff2e-48af-b355-b0b4384f5382","system_id":"levelo_inurba_marseille","lat":43.295713,"lon":5.399639,"is_reserved":false,"is_disabled":false,"rental_uris":{"android":"levelo://app?vid=52a81146-ff2e-48af-b355-b0b4384f5382","ios":"levelo://app?vid=52a81146-ff2e-48af-b355-b0b4384f5382"},"vehicle_type_id":"4","last_reported":1706360749,"current_range_meters":8000,"station_id":"ce4bh312rcd13ifvqdj0","pricing_plan_id":"free"},{"bike_id":"0fbf29c5-4ef3-4452-8c85-cbc04a158150","system_id":"levelo_inurba_marseille","lat":43.286595,"lon":5.386795,"is_reserved":false,"is_disabled":false,"rental_uris":{"android":"levelo://app?vid=0fbf29c5-4ef3-4452-8c85-cbc04a158150","ios":"levelo://app?vid=0fbf29c5-4ef3-4452-8c85-cbc04a158150"},"vehicle_type_id":"4","last_reported":1706360749,"current_range_meters":0,"station_id":"ce4bh492rcd13ifvqdug","pricing_plan_id":"free"},{"bike_id":"437eeab1-e5e7-48af-a8bc-fd5592f61138","system_id":"levelo_inurba_marseille","lat":43.286595,"lon":5.386795,"is_reserved":false,"is_disabled":false,"rental_uris":{"android":"levelo://app?vid=437eeab1-e5e7-48af-a8bc-fd5592f61138","ios":"levelo://app?vid=437eeab1-e5e7-48af-a8bc-fd5592f61138"},"vehicle_type_id":"4","last_reported":1706360749,"current_range_meters":29600,"station_id":"ce4bh492rcd13ifvqdug","pricing_plan_id":"free"},{"bike_id":"d798d62e-bfa1-4703-a10d-e77d842b6afb","system_id":"levelo_inurba_marseille","lat":43.319179,"lon":5.407725,"is_reserved":false,"is_disabled":false,"rental_uris":{"android":"levelo://app?vid=d798d62e-bfa1-4703-a10d-e77d842b6afb","ios":"levelo://app?vid=d798d62e-bfa1-4703-a10d-e77d842b6afb"},"vehicle_type_id":"4","last_reported":1706360749,"current_range_meters":20400,"station_id":"ce4bhq12rcd13ifvqhig","pricing_plan_id":"free"},{"bike_id":"62d59916-6117-463b-9a58-062d32529660","system_id":"levelo_inurba_marseille","lat":43.319179,"lon":5.407725,"is_reserved":false,"is_disabled":false,"rental_uris":{"android":"levelo://app?vid=62d59916-6117-463b-9a58-062d32529660","ios":"levelo://app?vid=62d59916-6117-463b-9a58-062d32529660"},"vehicle_type_id":"4","last_reported":1706360749,"current_range_meters":12400,"station_id":"ce4bhq12rcd13ifvqhig","pricing_plan_id":"free"},{"bike_id":"4271315e-3517-43a0-98a0-3c1558040fc6","system_id":"levelo_inurba_marseille","lat":43.319179,"lon":5.407725,"is_reserved":false,"is_disabled":false,"rental_uris":{"android":"levelo://app?vid=4271315e-3517-43a0-98a0-3c1558040fc6","ios":"levelo://app?vid=4271315e-3517-43a0-98a0-3c1558040fc6"},"vehicle_type_id":"4","last_reported":1706360749,"current_range_meters":28400,"station_id":"ce4bhq12rcd13ifvqhig","pricing_plan_id":"free"},{"bike_id":"fe569c08-e0e1-4141-bac2-c6a16f5f5c74","system_id":"levelo_inurba_marseille","lat":43.33717,"lon":5.391857,"is_reserved":false,"is_disabled":false,"rental_uris":{"android":"levelo://app?vid=fe569c08-e0e1-4141-bac2-c6a16f5f5c74","ios":"levelo://app?vid=fe569c08-e0e1-4141-bac2-c6a16f5f5c74"},"vehicle_type_id":"4","last_reported":1706360749,"current_range_meters":30400,"station_id":"ce4bhr92rcd13ifvqhsg","pricing_plan_id":"free"},{"bike_id":"29c971f3-912e-4f79-8c22-d20e1f4b5d74","system_id":"levelo_inurba_marseille","lat":43.337168,"lon":5.391825,"is_reserved":false,"is_disabled":false,"rental_uris":{"android":"levelo://app?vid=29c971f3-912e-4f79-8c22-d20e1f4b5d74","ios":"levelo://app?vid=29c971f3-912e-4f79-8c22-d20e1f4b5d74"},"vehicle_type_id":"4","last_reported":1706360749,"current_range_meters":20800,"station_id":"ce4bhr92rcd13ifvqhsg","pricing_plan_id":"free"},{"bike_id":"f780db9f-e048-4507-b514-552a89d594d4","system_id":"levelo_inurba_marseille","lat":43.284793,"lon":5.384113,"is_reserved":false,"is_disabled":false,"rental_uris":{"android":"levelo://app?vid=f780db9f-e048-4507-b514-552a89d594d4","ios":"levelo://app?vid=f780db9f-e048-4507-b514-552a89d594d4"},"vehicle_type_id":"4","last_reported":1706360749,"current_range_meters":7200,"station_id":"ce4bh512rcd13ifvqe3g","pricing_plan_id":"free"},{"bike_id":"11dee39c-7ee2-439e-b4f5-03bd3c494c1c","system_id":"levelo_inurba_marseille","lat":43.284604,"lon":5.350017,"is_reserved":false,"is_disabled":false,"rental_uris":{"android":"levelo://app?vid=11dee39c-7ee2-439e-b4f5-03bd3c494c1c","ios":"levelo://app?vid=11dee39c-7ee2-439e-b4f5-03bd3c494c1c"},"vehicle_type_id":"4","last_reported":1706360749,"current_range_meters":12000,"station_id":"ce4bhbh2rcd13ifvqepg","pricing_plan_id":"free"},{"bike_id":"8dcd2691-659d-454f-9d3c-367fcd3352ab","system_id":"levelo_inurba_marseille","lat":43.284793,"lon":5.384119,"is_reserved":false,"is_disabled":false,"rental_uris":{"android":"levelo://app?vid=8dcd2691-659d-454f-9d3c-367fcd3352ab","ios":"levelo://app?vid=8dcd2691-659d-454f-9d3c-367fcd3352ab"},"vehicle_type_id":"4","last_reported":1706360749,"current_range_meters":14800,"station_id":"ce4bh512rcd13ifvqe3g","pricing_plan_id":"free"},{"bike_id":"f969c9ce-a0a8-4506-bd86-1dcba8d1d3a0","system_id":"levelo_inurba_marseille","lat":43.283498,"lon":5.380948,"is_reserved":false,"is_disabled":false,"rental_uris":{"android":"levelo://app?vid=f969c9ce-a0a8-4506-bd86-1dcba8d1d3a0","ios":"levelo://app?vid=f969c9ce-a0a8-4506-bd86-1dcba8d1d3a0"},"vehicle_type_id":"4","last_reported":1706360749,"current_range_meters":19600,"station_id":"ce4bh412rcd13ifvqdr0","pricing_plan_id":"free"},{"bike_id":"5d36852d-3eed-4e04-9a46-232c0db57381","system_id":"levelo_inurba_marseille","lat":43.288497,"lon":5.393089,"is_reserved":false,"is_disabled":false,"rental_uris":{"android":"levelo://app?vid=5d36852d-3eed-4e04-9a46-232c0db57381","ios":"levelo://app?vid=5d36852d-3eed-4e04-9a46-232c0db57381"},"vehicle_type_id":"4","last_reported":1706360749,"current_range_meters":8400,"station_id":"ce4bh2p2rcd13ifvqdi0","pricing_plan_id":"free"},{"bike_id":"d5e21001-e786-416e-bf01-74a2010659d3","system_id":"levelo_inurba_marseille","lat":43.283494,"lon":5.380945,"is_reserved":false,"is_disabled":false,"rental_uris":{"android":"levelo://app?vid=d5e21001-e786-416e-bf01-74a2010659d3","ios":"levelo://app?vid=d5e21001-e786-416e-bf01-74a2010659d3"},"vehicle_type_id":"4","last_reported":1706360749,"current_range_meters":29200,"station_id":"ce4bh412rcd13ifvqdr0","pricing_plan_id":"free"},{"bike_id":"690adc0e-cdbc-4607-a73e-fac6db933777","system_id":"levelo_inurba_marseille","lat":43.284219,"lon":5.3497,"is_reserved":false,"is_disabled":false,"rental_uris":{"android":"levelo://app?vid=690adc0e-cdbc-4607-a73e-fac6db933777","ios":"levelo://app?vid=690adc0e-cdbc-4607-a73e-fac6db933777"},"vehicle_type_id":"4","last_reported":1706360749,"current_range_meters":7200,"station_id":"ce4bhbh2rcd13ifvqepg","pricing_plan_id":"free"},{"bike_id":"2e78da9d-3201-4b44-bacd-f76c16d4d164","system_id":"levelo_inurba_marseille","lat":43.28428,"lon":5.34994,"is_reserved":false,"is_disabled":false,"rental_uris":{"android":"levelo://app?vid=2e78da9d-3201-4b44-bacd-f76c16d4d164","ios":"levelo://app?vid=2e78da9d-3201-4b44-bacd-f76c16d4d164"},"vehicle_type_id":"4","last_reported":1706360749,"current_range_meters":12800,"station_id":"ce4bhbh2rcd13ifvqepg","pricing_plan_id":"free"},{"bike_id":"ad3c6411-622f-4e9b-98e5-7a2c7937d741","system_id":"levelo_inurba_marseille","lat":43.284219,"lon":5.3497,"is_reserved":false,"is_disabled":false,"rental_uris":{"android":"levelo://app?vid=ad3c6411-622f-4e9b-98e5-7a2c7937d741","ios":"levelo://app?vid=ad3c6411-622f-4e9b-98e5-7a2c7937d741"},"vehicle_type_id":"4","last_reported":1706360749,"current_range_meters":15600,"station_id":"ce4bhbh2rcd13ifvqepg","pricing_plan_id":"free"},{"bike_id":"a004cad6-5af1-4577-9114-0fc36122dde8","system_id":"levelo_inurba_marseille","lat":43.283498,"lon":5.380948,"is_reserved":false,"is_disabled":false,"rental_uris":{"android":"levelo://app?vid=a004cad6-5af1-4577-9114-0fc36122dde8","ios":"levelo://app?vid=a004cad6-5af1-4577-9114-0fc36122dde8"},"vehicle_type_id":"4","last_reported":1706360749,"current_range_meters":28800,"station_id":"ce4bh412rcd13ifvqdr0","pricing_plan_id":"free"},{"bike_id":"1c7fda76-9fb1-4a7d-a516-4655d6fafbfc","system_id":"levelo_inurba_marseille","lat":43.28427,"lon":5.34983,"is_reserved":false,"is_disabled":false,"rental_uris":{"android":"levelo://app?vid=1c7fda76-9fb1-4a7d-a516-4655d6fafbfc","ios":"levelo://app?vid=1c7fda76-9fb1-4a7d-a516-4655d6fafbfc"},"vehicle_type_id":"4","last_reported":1706360749,"current_range_meters":8400,"station_id":"ce4bhbh2rcd13ifvqepg","pricing_plan_id":"free"},{"bike_id":"4f702587-78ce-48c8-8160-e74f8ab05ebe","system_id":"levelo_inurba_marseille","lat":43.284219,"lon":5.3497,"is_reserved":false,"is_disabled":false,"rental_uris":{"android":"levelo://app?vid=4f702587-78ce-48c8-8160-e74f8ab05ebe","ios":"levelo://app?vid=4f702587-78ce-48c8-8160-e74f8ab05ebe"},"vehicle_type_id":"4","last_reported":1706360749,"current_range_meters":25600,"station_id":"ce4bhbh2rcd13ifvqepg","pricing_plan_id":"free"},{"bike_id":"6cac8acd-ff1d-4dbf-909d-3dc3412ccc10","system_id":"levelo_inurba_marseille","lat":43.284219,"lon":5.3497,"is_reserved":false,"is_disabled":false,"rental_uris":{"android":"levelo://app?vid=6cac8acd-ff1d-4dbf-909d-3dc3412ccc10","ios":"levelo://app?vid=6cac8acd-ff1d-4dbf-909d-3dc3412ccc10"},"vehicle_type_id":"4","last_reported":1706360749,"current_range_meters":24000,"station_id":"ce4bhbh2rcd13ifvqepg","pricing_plan_id":"free"},{"bike_id":"92c20233-919e-485f-8391-041485e14939","system_id":"levelo_inurba_marseille","lat":43.284219,"lon":5.3497,"is_reserved":false,"is_disabled":false,"rental_uris":{"android":"levelo://app?vid=92c20233-919e-485f-8391-041485e14939","ios":"levelo://app?vid=92c20233-919e-485f-8391-041485e14939"},"vehicle_type_id":"4","last_reported":1706360749,"current_range_meters":18400,"station_id":"ce4bhbh2rcd13ifvqepg","pricing_plan_id":"free"},{"bike_id":"e7bf09da-e06d-4272-ae0f-3360e678cad3","system_id":"levelo_inurba_marseille","lat":43.284252,"lon":5.349776,"is_reserved":false,"is_disabled":false,"rental_uris":{"android":"levelo://app?vid=e7bf09da-e06d-4272-ae0f-3360e678cad3","ios":"levelo://app?vid=e7bf09da-e06d-4272-ae0f-3360e678cad3"},"vehicle_type_id":"4","last_reported":1706360749,"current_range_meters":10800,"station_id":"ce4bhbh2rcd13ifvqepg","pricing_plan_id":"free"},{"bike_id":"98eb34fb-fdf0-4105-a920-cf10472e81d8","system_id":"levelo_inurba_marseille","lat":43.28424,"lon":5.34981,"is_reserved":false,"is_disabled":false,"rental_uris":{"android":"levelo://app?vid=98eb34fb-fdf0-4105-a920-cf10472e81d8","ios":"levelo://app?vid=98eb34fb-fdf0-4105-a920-cf10472e81d8"},"vehicle_type_id":"4","last_reported":1706360749,"current_range_meters":15600,"station_id":"ce4bhbh2rcd13ifvqepg","pricing_plan_id":"free"},{"bike_id":"fb3806ee-d358-4682-bd48-b6f7f51ab441","system_id":"levelo_inurba_marseille","lat":43.284219,"lon":5.3497,"is_reserved":false,"is_disabled":false,"rental_uris":{"android":"levelo://app?vid=fb3806ee-d358-4682-bd48-b6f7f51ab441","ios":"levelo://app?vid=fb3806ee-d358-4682-bd48-b6f7f51ab441"},"vehicle_type_id":"4","last_reported":1706360749,"current_range_meters":24000,"station_id":"ce4bhbh2rcd13ifvqepg","pricing_plan_id":"free"},{"bike_id":"12b586c3-12f5-44c0-a431-53d9442fa635","system_id":"levelo_inurba_marseille","lat":43.284219,"lon":5.3497,"is_reserved":false,"is_disabled":false,"rental_uris":{"android":"levelo://app?vid=12b586c3-12f5-44c0-a431-53d9442fa635","ios":"levelo://app?vid=12b586c3-12f5-44c0-a431-53d9442fa635"},"vehicle_type_id":"4","last_reported":1706360749,"current_range_meters":0,"station_id":"ce4bhbh2rcd13ifvqepg","pricing_plan_id":"free"},{"bike_id":"2be7a22f-f4b7-48a6-96ba-7fc49ff17fc4","system_id":"levelo_inurba_marseille","lat":43.284184,"lon":5.349908,"is_reserved":false,"is_disabled":false,"rental_uris":{"android":"levelo://app?vid=2be7a22f-f4b7-48a6-96ba-7fc49ff17fc4","ios":"levelo://app?vid=2be7a22f-f4b7-48a6-96ba-7fc49ff17fc4"},"vehicle_type_id":"4","last_reported":1706360749,"current_range_meters":19600,"station_id":"ce4bhbh2rcd13ifvqepg","pricing_plan_id":"free"},{"bike_id":"d7f38616-fac4-4771-b7ac-b8cdcb5c43bd","system_id":"levelo_inurba_marseille","lat":43.284214,"lon":5.349706,"is_reserved":false,"is_disabled":false,"rental_uris":{"android":"levelo://app?vid=d7f38616-fac4-4771-b7ac-b8cdcb5c43bd","ios":"levelo://app?vid=d7f38616-fac4-4771-b7ac-b8cdcb5c43bd"},"vehicle_type_id":"4","last_reported":1706360749,"current_range_meters":26000,"station_id":"ce4bhbh2rcd13ifvqepg","pricing_plan_id":"free"},{"bike_id":"4eae59f1-45e4-45ef-bb68-da9ab1fd31df","system_id":"levelo_inurba_marseille","lat":43.284219,"lon":5.3497,"is_reserved":false,"is_disabled":false,"rental_uris":{"android":"levelo://app?vid=4eae59f1-45e4-45ef-bb68-da9ab1fd31df","ios":"levelo://app?vid=4eae59f1-45e4-45ef-bb68-da9ab1fd31df"},"vehicle_type_id":"4","last_reported":1706360749,"current_range_meters":30800,"station_id":"ce4bhbh2rcd13ifvqepg","pricing_plan_id":"free"},{"bike_id":"1d04d198-cd72-4d4a-9128-5411f3f5513d","system_id":"levelo_inurba_marseille","lat":43.2842,"lon":5.34983,"is_reserved":false,"is_disabled":false,"rental_uris":{"android":"levelo://app?vid=1d04d198-cd72-4d4a-9128-5411f3f5513d","ios":"levelo://app?vid=1d04d198-cd72-4d4a-9128-5411f3f5513d"},"vehicle_type_id":"4","last_reported":1706360749,"current_range_meters":17200,"station_id":"ce4bhbh2rcd13ifvqepg","pricing_plan_id":"free"},{"bike_id":"abf0807d-4c4b-4d14-b881-b1e29f2f4f83","system_id":"levelo_inurba_marseille","lat":43.284219,"lon":5.3497,"is_reserved":false,"is_disabled":false,"rental_uris":{"android":"levelo://app?vid=abf0807d-4c4b-4d14-b881-b1e29f2f4f83","ios":"levelo://app?vid=abf0807d-4c4b-4d14-b881-b1e29f2f4f83"},"vehicle_type_id":"4","last_reported":1706360749,"current_range_meters":12800,"station_id":"ce4bhbh2rcd13ifvqepg","pricing_plan_id":"free"},{"bike_id":"d42d291b-ed36-4c65-ace3-4f60c773bd7e","system_id":"levelo_inurba_marseille","lat":43.284219,"lon":5.3497,"is_reserved":false,"is_disabled":false,"rental_uris":{"android":"levelo://app?vid=d42d291b-ed36-4c65-ace3-4f60c773bd7e","ios":"levelo://app?vid=d42d291b-ed36-4c65-ace3-4f60c773bd7e"},"vehicle_type_id":"4","last_reported":1706360749,"current_range_meters":23600,"station_id":"ce4bhbh2rcd13ifvqepg","pricing_plan_id":"free"},{"bike_id":"ad9e898d-6b37-4a8e-8d0d-1417dba7880a","system_id":"levelo_inurba_marseille","lat":43.28421,"lon":5.34977,"is_reserved":false,"is_disabled":false,"rental_uris":{"android":"levelo://app?vid=ad9e898d-6b37-4a8e-8d0d-1417dba7880a","ios":"levelo://app?vid=ad9e898d-6b37-4a8e-8d0d-1417dba7880a"},"vehicle_type_id":"4","last_reported":1706360749,"current_range_meters":2800,"station_id":"ce4bhbh2rcd13ifvqepg","pricing_plan_id":"free"},{"bike_id":"ebfe9909-198e-4bc3-b372-0c66aa72f84c","system_id":"levelo_inurba_marseille","lat":43.284219,"lon":5.3497,"is_reserved":false,"is_disabled":false,"rental_uris":{"android":"levelo://app?vid=ebfe9909-198e-4bc3-b372-0c66aa72f84c","ios":"levelo://app?vid=ebfe9909-198e-4bc3-b372-0c66aa72f84c"},"vehicle_type_id":"4","last_reported":1706360749,"current_range_meters":15600,"station_id":"ce4bhbh2rcd13ifvqepg","pricing_plan_id":"free"},{"bike_id":"d9ed4bf7-ae2f-4ae0-8cb0-0ac62470cbc9","system_id":"levelo_inurba_marseille","lat":43.284214,"lon":5.349706,"is_reserved":false,"is_disabled":false,"rental_uris":{"android":"levelo://app?vid=d9ed4bf7-ae2f-4ae0-8cb0-0ac62470cbc9","ios":"levelo://app?vid=d9ed4bf7-ae2f-4ae0-8cb0-0ac62470cbc9"},"vehicle_type_id":"4","last_reported":1706360749,"current_range_meters":6400,"station_id":"ce4bhbh2rcd13ifvqepg","pricing_plan_id":"free"},{"bike_id":"898eeaa3-4723-489a-b2c4-625997b263c1","system_id":"levelo_inurba_marseille","lat":43.28413,"lon":5.34982,"is_reserved":false,"is_disabled":false,"rental_uris":{"android":"levelo://app?vid=898eeaa3-4723-489a-b2c4-625997b263c1","ios":"levelo://app?vid=898eeaa3-4723-489a-b2c4-625997b263c1"},"vehicle_type_id":"4","last_reported":1706360749,"current_range_meters":29200,"station_id":"ce4bhbh2rcd13ifvqepg","pricing_plan_id":"free"},{"bike_id":"d0114db0-d38e-4e30-8ef0-61b4aaaee3c4","system_id":"levelo_inurba_marseille","lat":43.284217,"lon":5.349697,"is_reserved":false,"is_disabled":false,"rental_uris":{"android":"levelo://app?vid=d0114db0-d38e-4e30-8ef0-61b4aaaee3c4","ios":"levelo://app?vid=d0114db0-d38e-4e30-8ef0-61b4aaaee3c4"},"vehicle_type_id":"4","last_reported":1706360749,"current_range_meters":20800,"station_id":"ce4bhbh2rcd13ifvqepg","pricing_plan_id":"free"},{"bike_id":"b41bcd76-cb12-4b33-95cd-9444d1e23578","system_id":"levelo_inurba_marseille","lat":43.293556,"lon":5.401561,"is_reserved":false,"is_disabled":false,"rental_uris":{"android":"levelo://app?vid=b41bcd76-cb12-4b33-95cd-9444d1e23578","ios":"levelo://app?vid=b41bcd76-cb12-4b33-95cd-9444d1e23578"},"vehicle_type_id":"4","last_reported":1706360749,"current_range_meters":10000,"station_id":"","pricing_plan_id":"free"},{"bike_id":"42881a23-bc57-42b5-956f-9e0e2baa931b","system_id":"levelo_inurba_marseille","lat":43.28937,"lon":5.39636,"is_reserved":false,"is_disabled":false,"rental_uris":{"android":"levelo://app?vid=42881a23-bc57-42b5-956f-9e0e2baa931b","ios":"levelo://app?vid=42881a23-bc57-42b5-956f-9e0e2baa931b"},"vehicle_type_id":"4","last_reported":1706360749,"current_range_meters":31200,"station_id":"ce4bh3h2rcd13ifvqdn0","pricing_plan_id":"free"},{"bike_id":"2df1eb57-2a26-4f96-88c5-4112400cd6e8","system_id":"levelo_inurba_marseille","lat":43.292724,"lon":5.401131,"is_reserved":false,"is_disabled":false,"rental_uris":{"android":"levelo://app?vid=2df1eb57-2a26-4f96-88c5-4112400cd6e8","ios":"levelo://app?vid=2df1eb57-2a26-4f96-88c5-4112400cd6e8"},"vehicle_type_id":"4","last_reported":1706360749,"current_range_meters":27200,"station_id":"ce4bh312rcd13ifvqdk0","pricing_plan_id":"free"},{"bike_id":"6f34af00-9c3d-4614-943a-6892b83f8cbb","system_id":"levelo_inurba_marseille","lat":43.28278,"lon":5.35067,"is_reserved":false,"is_disabled":false,"rental_uris":{"android":"levelo://app?vid=6f34af00-9c3d-4614-943a-6892b83f8cbb","ios":"levelo://app?vid=6f34af00-9c3d-4614-943a-6892b83f8cbb"},"vehicle_type_id":"4","last_reported":1706360749,"current_range_meters":9200,"station_id":"ce4bhbp2rcd13ifvqerg","pricing_plan_id":"free"},{"bike_id":"b0cfa148-f23b-493c-8365-41f14b9960a0","system_id":"levelo_inurba_marseille","lat":43.28277,"lon":5.35069,"is_reserved":false,"is_disabled":false,"rental_uris":{"android":"levelo://app?vid=b0cfa148-f23b-493c-8365-41f14b9960a0","ios":"levelo://app?vid=b0cfa148-f23b-493c-8365-41f14b9960a0"},"vehicle_type_id":"4","last_reported":1706360749,"current_range_meters":22000,"station_id":"ce4bhbp2rcd13ifvqerg","pricing_plan_id":"free"},{"bike_id":"32dff749-156d-4a1b-80f0-b8483010e393","system_id":"levelo_inurba_marseille","lat":43.28279,"lon":5.35061,"is_reserved":false,"is_disabled":false,"rental_uris":{"android":"levelo://app?vid=32dff749-156d-4a1b-80f0-b8483010e393","ios":"levelo://app?vid=32dff749-156d-4a1b-80f0-b8483010e393"},"vehicle_type_id":"4","last_reported":1706360749,"current_range_meters":0,"station_id":"ce4bhbp2rcd13ifvqerg","pricing_plan_id":"free"},{"bike_id":"b75788fd-a29d-42ea-982a-9ab4801bb7e8","system_id":"levelo_inurba_marseille","lat":43.28273,"lon":5.35077,"is_reserved":false,"is_disabled":false,"rental_uris":{"android":"levelo://app?vid=b75788fd-a29d-42ea-982a-9ab4801bb7e8","ios":"levelo://app?vid=b75788fd-a29d-42ea-982a-9ab4801bb7e8"},"vehicle_type_id":"4","last_reported":1706360749,"current_range_meters":3600,"station_id":"ce4bhbp2rcd13ifvqerg","pricing_plan_id":"free"},{"bike_id":"105e4a81-a967-4b98-81e5-b1ba5bb2a5d8","system_id":"levelo_inurba_marseille","lat":43.282749,"lon":5.35069,"is_reserved":false,"is_disabled":false,"rental_uris":{"android":"levelo://app?vid=105e4a81-a967-4b98-81e5-b1ba5bb2a5d8","ios":"levelo://app?vid=105e4a81-a967-4b98-81e5-b1ba5bb2a5d8"},"vehicle_type_id":"4","last_reported":1706360749,"current_range_meters":11200,"station_id":"ce4bhbp2rcd13ifvqerg","pricing_plan_id":"free"},{"bike_id":"a3e3cf1a-50e8-4216-8864-684d7964148d","system_id":"levelo_inurba_marseille","lat":43.282744,"lon":5.350533,"is_reserved":false,"is_disabled":false,"rental_uris":{"android":"levelo://app?vid=a3e3cf1a-50e8-4216-8864-684d7964148d","ios":"levelo://app?vid=a3e3cf1a-50e8-4216-8864-684d7964148d"},"vehicle_type_id":"4","last_reported":1706360749,"current_range_meters":13600,"station_id":"ce4bhbp2rcd13ifvqerg","pricing_plan_id":"free"},{"bike_id":"eae70fe5-28f0-4cd1-bd86-24d2b502c741","system_id":"levelo_inurba_marseille","lat":43.28277,"lon":5.35059,"is_reserved":false,"is_disabled":false,"rental_uris":{"android":"levelo://app?vid=eae70fe5-28f0-4cd1-bd86-24d2b502c741","ios":"levelo://app?vid=eae70fe5-28f0-4cd1-bd86-24d2b502c741"},"vehicle_type_id":"4","last_reported":1706360749,"current_range_meters":19200,"station_id":"ce4bhbp2rcd13ifvqerg","pricing_plan_id":"free"},{"bike_id":"57d6eabc-97c5-4e26-a26e-3dedda5354cd","system_id":"levelo_inurba_marseille","lat":43.282744,"lon":5.350533,"is_reserved":false,"is_disabled":false,"rental_uris":{"android":"levelo://app?vid=57d6eabc-97c5-4e26-a26e-3dedda5354cd","ios":"levelo://app?vid=57d6eabc-97c5-4e26-a26e-3dedda5354cd"},"vehicle_type_id":"4","last_reported":1706360749,"current_range_meters":23600,"station_id":"ce4bhbp2rcd13ifvqerg","pricing_plan_id":"free"},{"bike_id":"aceb3af9-bc02-40e4-ab65-dc121505d6a7","system_id":"levelo_inurba_marseille","lat":43.282723,"lon":5.350663,"is_reserved":false,"is_disabled":false,"rental_uris":{"android":"levelo://app?vid=aceb3af9-bc02-40e4-ab65-dc121505d6a7","ios":"levelo://app?vid=aceb3af9-bc02-40e4-ab65-dc121505d6a7"},"vehicle_type_id":"4","last_reported":1706360749,"current_range_meters":30000,"station_id":"ce4bhbp2rcd13ifvqerg","pricing_plan_id":"free"},{"bike_id":"3f6de612-fcb6-4d1b-8a6b-ca54b24d3cb2","system_id":"levelo_inurba_marseille","lat":43.282744,"lon":5.350533,"is_reserved":false,"is_disabled":false,"rental_uris":{"android":"levelo://app?vid=3f6de612-fcb6-4d1b-8a6b-ca54b24d3cb2","ios":"levelo://app?vid=3f6de612-fcb6-4d1b-8a6b-ca54b24d3cb2"},"vehicle_type_id":"4","last_reported":1706360749,"current_range_meters":10400,"station_id":"ce4bhbp2rcd13ifvqerg","pricing_plan_id":"free"},{"bike_id":"80f2def0-e6df-43ef-b0dc-1b4126213b0b","system_id":"levelo_inurba_marseille","lat":43.282744,"lon":5.350533,"is_reserved":false,"is_disabled":false,"rental_uris":{"android":"levelo://app?vid=80f2def0-e6df-43ef-b0dc-1b4126213b0b","ios":"levelo://app?vid=80f2def0-e6df-43ef-b0dc-1b4126213b0b"},"vehicle_type_id":"4","last_reported":1706360749,"current_range_meters":23600,"station_id":"ce4bhbp2rcd13ifvqerg","pricing_plan_id":"free"},{"bike_id":"97606a34-ef2d-4914-b60b-9fd6e8e1cdca","system_id":"levelo_inurba_marseille","lat":43.2827,"lon":5.35069,"is_reserved":false,"is_disabled":false,"rental_uris":{"android":"levelo://app?vid=97606a34-ef2d-4914-b60b-9fd6e8e1cdca","ios":"levelo://app?vid=97606a34-ef2d-4914-b60b-9fd6e8e1cdca"},"vehicle_type_id":"4","last_reported":1706360749,"current_range_meters":4800,"station_id":"ce4bhbp2rcd13ifvqerg","pricing_plan_id":"free"},{"bike_id":"e232a64e-d1f8-4882-8ed2-9a5d41a2ff36","system_id":"levelo_inurba_marseille","lat":43.282744,"lon":5.350533,"is_reserved":false,"is_disabled":false,"rental_uris":{"android":"levelo://app?vid=e232a64e-d1f8-4882-8ed2-9a5d41a2ff36","ios":"levelo://app?vid=e232a64e-d1f8-4882-8ed2-9a5d41a2ff36"},"vehicle_type_id":"4","last_reported":1706360749,"current_range_meters":4400,"station_id":"ce4bhbp2rcd13ifvqerg","pricing_plan_id":"free"},{"bike_id":"4706eb70-48ca-4f50-8a01-e300126bebeb","system_id":"levelo_inurba_marseille","lat":43.282744,"lon":5.350533,"is_reserved":false,"is_disabled":false,"rental_uris":{"android":"levelo://app?vid=4706eb70-48ca-4f50-8a01-e300126bebeb","ios":"levelo://app?vid=4706eb70-48ca-4f50-8a01-e300126bebeb"},"vehicle_type_id":"4","last_reported":1706360749,"current_range_meters":25600,"station_id":"ce4bhbp2rcd13ifvqerg","pricing_plan_id":"free"},{"bike_id":"a8175c3e-6fa0-4c84-8686-e9349af8e27c","system_id":"levelo_inurba_marseille","lat":43.28268,"lon":5.35073,"is_reserved":false,"is_disabled":false,"rental_uris":{"android":"levelo://app?vid=a8175c3e-6fa0-4c84-8686-e9349af8e27c","ios":"levelo://app?vid=a8175c3e-6fa0-4c84-8686-e9349af8e27c"},"vehicle_type_id":"4","last_reported":1706360749,"current_range_meters":14000,"station_id":"ce4bhbp2rcd13ifvqerg","pricing_plan_id":"free"},{"bike_id":"0c02d95b-564d-46ad-be44-0dce1afe81a2","system_id":"levelo_inurba_marseille","lat":43.28269,"lon":5.35067,"is_reserved":false,"is_disabled":false,"rental_uris":{"android":"levelo://app?vid=0c02d95b-564d-46ad-be44-0dce1afe81a2","ios":"levelo://app?vid=0c02d95b-564d-46ad-be44-0dce1afe81a2"},"vehicle_type_id":"4","last_reported":1706360749,"current_range_meters":2000,"station_id":"ce4bhbp2rcd13ifvqerg","pricing_plan_id":"free"},{"bike_id":"ca21f755-8a3c-4004-96a2-c25dc63f802a","system_id":"levelo_inurba_marseille","lat":43.282744,"lon":5.350533,"is_reserved":false,"is_disabled":false,"rental_uris":{"android":"levelo://app?vid=ca21f755-8a3c-4004-96a2-c25dc63f802a","ios":"levelo://app?vid=ca21f755-8a3c-4004-96a2-c25dc63f802a"},"vehicle_type_id":"4","last_reported":1706360749,"current_range_meters":17200,"station_id":"ce4bhbp2rcd13ifvqerg","pricing_plan_id":"free"},{"bike_id":"0a476e3c-052b-4708-b0c8-d634d7c6ad79","system_id":"levelo_inurba_marseille","lat":43.28269,"lon":5.35061,"is_reserved":false,"is_disabled":false,"rental_uris":{"android":"levelo://app?vid=0a476e3c-052b-4708-b0c8-d634d7c6ad79","ios":"levelo://app?vid=0a476e3c-052b-4708-b0c8-d634d7c6ad79"},"vehicle_type_id":"4","last_reported":1706360749,"current_range_meters":19200,"station_id":"ce4bhbp2rcd13ifvqerg","pricing_plan_id":"free"},{"bike_id":"fcbe075e-cc9e-438b-aced-a4d04a4178ec","system_id":"levelo_inurba_marseille","lat":43.28266,"lon":5.35071,"is_reserved":false,"is_disabled":false,"rental_uris":{"android":"levelo://app?vid=fcbe075e-cc9e-438b-aced-a4d04a4178ec","ios":"levelo://app?vid=fcbe075e-cc9e-438b-aced-a4d04a4178ec"},"vehicle_type_id":"4","last_reported":1706360749,"current_range_meters":5200,"station_id":"ce4bhbp2rcd13ifvqerg","pricing_plan_id":"free"},{"bike_id":"4668ab7d-0a4d-4b54-813e-283dd7995772","system_id":"levelo_inurba_marseille","lat":43.282744,"lon":5.350533,"is_reserved":false,"is_disabled":false,"rental_uris":{"android":"levelo://app?vid=4668ab7d-0a4d-4b54-813e-283dd7995772","ios":"levelo://app?vid=4668ab7d-0a4d-4b54-813e-283dd7995772"},"vehicle_type_id":"4","last_reported":1706360749,"current_range_meters":31600,"station_id":"ce4bhbp2rcd13ifvqerg","pricing_plan_id":"free"},{"bike_id":"3934c997-5311-42db-933e-dedd98ae0f6a","system_id":"levelo_inurba_marseille","lat":43.282673,"lon":5.35064,"is_reserved":false,"is_disabled":false,"rental_uris":{"android":"levelo://app?vid=3934c997-5311-42db-933e-dedd98ae0f6a","ios":"levelo://app?vid=3934c997-5311-42db-933e-dedd98ae0f6a"},"vehicle_type_id":"4","last_reported":1706360749,"current_range_meters":19200,"station_id":"ce4bhbp2rcd13ifvqerg","pricing_plan_id":"free"},{"bike_id":"a8fefe0d-71ac-4bca-a5e3-2a95b135bd7a","system_id":"levelo_inurba_marseille","lat":43.282744,"lon":5.350533,"is_reserved":false,"is_disabled":false,"rental_uris":{"android":"levelo://app?vid=a8fefe0d-71ac-4bca-a5e3-2a95b135bd7a","ios":"levelo://app?vid=a8fefe0d-71ac-4bca-a5e3-2a95b135bd7a"},"vehicle_type_id":"4","last_reported":1706360749,"current_range_meters":27200,"station_id":"ce4bhbp2rcd13ifvqerg","pricing_plan_id":"free"},{"bike_id":"6b38c7b6-7622-471b-a6a9-1624a1619b05","system_id":"levelo_inurba_marseille","lat":43.282674,"lon":5.350584,"is_reserved":false,"is_disabled":false,"rental_uris":{"android":"levelo://app?vid=6b38c7b6-7622-471b-a6a9-1624a1619b05","ios":"levelo://app?vid=6b38c7b6-7622-471b-a6a9-1624a1619b05"},"vehicle_type_id":"4","last_reported":1706360749,"current_range_meters":18800,"station_id":"ce4bhbp2rcd13ifvqerg","pricing_plan_id":"free"},{"bike_id":"fa0c0ea4-fb17-4acc-968c-580396166bd7","system_id":"levelo_inurba_marseille","lat":43.282637,"lon":5.350627,"is_reserved":false,"is_disabled":false,"rental_uris":{"android":"levelo://app?vid=fa0c0ea4-fb17-4acc-968c-580396166bd7","ios":"levelo://app?vid=fa0c0ea4-fb17-4acc-968c-580396166bd7"},"vehicle_type_id":"4","last_reported":1706360749,"current_range_meters":26400,"station_id":"ce4bhbp2rcd13ifvqerg","pricing_plan_id":"free"},{"bike_id":"0c8ce921-7aa2-4c05-8e62-8126a6942ef0","system_id":"levelo_inurba_marseille","lat":43.283502,"lon":5.386471,"is_reserved":false,"is_disabled":false,"rental_uris":{"android":"levelo://app?vid=0c8ce921-7aa2-4c05-8e62-8126a6942ef0","ios":"levelo://app?vid=0c8ce921-7aa2-4c05-8e62-8126a6942ef0"},"vehicle_type_id":"4","last_reported":1706360749,"current_range_meters":31600,"station_id":"ce4bh492rcd13ifvqdvg","pricing_plan_id":"free"},{"bike_id":"b80e184f-b10c-486f-b816-eb1c4a9fe6d8","system_id":"levelo_inurba_marseille","lat":43.28033,"lon":5.36952,"is_reserved":false,"is_disabled":false,"rental_uris":{"android":"levelo://app?vid=b80e184f-b10c-486f-b816-eb1c4a9fe6d8","ios":"levelo://app?vid=b80e184f-b10c-486f-b816-eb1c4a9fe6d8"},"vehicle_type_id":"4","last_reported":1706360749,"current_range_meters":31200,"station_id":"ce4bha12rcd13ifvqef0","pricing_plan_id":"free"},{"bike_id":"d1340f25-dae1-4073-9fbc-5ab684921469","system_id":"levelo_inurba_marseille","lat":43.28032,"lon":5.36948,"is_reserved":false,"is_disabled":false,"rental_uris":{"android":"levelo://app?vid=d1340f25-dae1-4073-9fbc-5ab684921469","ios":"levelo://app?vid=d1340f25-dae1-4073-9fbc-5ab684921469"},"vehicle_type_id":"4","last_reported":1706360749,"current_range_meters":22800,"station_id":"ce4bha12rcd13ifvqef0","pricing_plan_id":"free"},{"bike_id":"02d231c4-08d6-4127-b03e-7360bbe901aa","system_id":"levelo_inurba_marseille","lat":43.280382,"lon":5.369291,"is_reserved":false,"is_disabled":false,"rental_uris":{"android":"levelo://app?vid=02d231c4-08d6-4127-b03e-7360bbe901aa","ios":"levelo://app?vid=02d231c4-08d6-4127-b03e-7360bbe901aa"},"vehicle_type_id":"4","last_reported":1706360749,"current_range_meters":30400,"station_id":"ce4bha12rcd13ifvqef0","pricing_plan_id":"free"},{"bike_id":"c311ea8c-5511-4c27-bfb7-8fd64310a88e","system_id":"levelo_inurba_marseille","lat":43.280253,"lon":5.365804,"is_reserved":false,"is_disabled":false,"rental_uris":{"android":"levelo://app?vid=c311ea8c-5511-4c27-bfb7-8fd64310a88e","ios":"levelo://app?vid=c311ea8c-5511-4c27-bfb7-8fd64310a88e"},"vehicle_type_id":"4","last_reported":1706360749,"current_range_meters":26400,"station_id":"","pricing_plan_id":"free"},{"bike_id":"ae3f976c-bdd8-45cd-b516-a2b825de1df3","system_id":"levelo_inurba_marseille","lat":43.29041,"lon":5.399634,"is_reserved":false,"is_disabled":false,"rental_uris":{"android":"levelo://app?vid=ae3f976c-bdd8-45cd-b516-a2b825de1df3","ios":"levelo://app?vid=ae3f976c-bdd8-45cd-b516-a2b825de1df3"},"vehicle_type_id":"4","last_reported":1706360749,"current_range_meters":22400,"station_id":"ce4bh392rcd13ifvqdm0","pricing_plan_id":"free"},{"bike_id":"4e8f85d3-2029-49a2-82b9-f2a440a6e25f","system_id":"levelo_inurba_marseille","lat":43.281044,"lon":5.378308,"is_reserved":false,"is_disabled":false,"rental_uris":{"android":"levelo://app?vid=4e8f85d3-2029-49a2-82b9-f2a440a6e25f","ios":"levelo://app?vid=4e8f85d3-2029-49a2-82b9-f2a440a6e25f"},"vehicle_type_id":"4","last_reported":1706360749,"current_range_meters":17200,"station_id":"ce4bha12rcd13ifvqee0","pricing_plan_id":"free"},{"bike_id":"6d06ff8f-272f-44e0-b603-88ec08fccf51","system_id":"levelo_inurba_marseille","lat":43.296263,"lon":5.40601,"is_reserved":false,"is_disabled":false,"rental_uris":{"android":"levelo://app?vid=6d06ff8f-272f-44e0-b603-88ec08fccf51","ios":"levelo://app?vid=6d06ff8f-272f-44e0-b603-88ec08fccf51"},"vehicle_type_id":"4","last_reported":1706360749,"current_range_meters":13600,"station_id":"ce4bh0h2rcd13ifvqd60","pricing_plan_id":"free"},{"bike_id":"8482648a-3410-4d0c-8742-6676311fa710","system_id":"levelo_inurba_marseille","lat":43.296263,"lon":5.40601,"is_reserved":false,"is_disabled":false,"rental_uris":{"android":"levelo://app?vid=8482648a-3410-4d0c-8742-6676311fa710","ios":"levelo://app?vid=8482648a-3410-4d0c-8742-6676311fa710"},"vehicle_type_id":"4","last_reported":1706360749,"current_range_meters":26000,"station_id":"ce4bh0h2rcd13ifvqd60","pricing_plan_id":"free"},{"bike_id":"acc05eb3-bf2d-4ae0-92d7-e20330376085","system_id":"levelo_inurba_marseille","lat":43.296263,"lon":5.40601,"is_reserved":false,"is_disabled":false,"rental_uris":{"android":"levelo://app?vid=acc05eb3-bf2d-4ae0-92d7-e20330376085","ios":"levelo://app?vid=acc05eb3-bf2d-4ae0-92d7-e20330376085"},"vehicle_type_id":"4","last_reported":1706360749,"current_range_meters":4800,"station_id":"ce4bh0h2rcd13ifvqd60","pricing_plan_id":"free"},{"bike_id":"99addf6f-66f6-4b87-8ea3-ff8689b900c4","system_id":"levelo_inurba_marseille","lat":43.296263,"lon":5.40601,"is_reserved":false,"is_disabled":false,"rental_uris":{"android":"levelo://app?vid=99addf6f-66f6-4b87-8ea3-ff8689b900c4","ios":"levelo://app?vid=99addf6f-66f6-4b87-8ea3-ff8689b900c4"},"vehicle_type_id":"4","last_reported":1706360749,"current_range_meters":15200,"station_id":"ce4bh0h2rcd13ifvqd60","pricing_plan_id":"free"},{"bike_id":"8ebddb7f-9a3c-4c8f-9295-8fe16ab2e099","system_id":"levelo_inurba_marseille","lat":43.281044,"lon":5.378308,"is_reserved":false,"is_disabled":false,"rental_uris":{"android":"levelo://app?vid=8ebddb7f-9a3c-4c8f-9295-8fe16ab2e099","ios":"levelo://app?vid=8ebddb7f-9a3c-4c8f-9295-8fe16ab2e099"},"vehicle_type_id":"4","last_reported":1706360749,"current_range_meters":30800,"station_id":"ce4bha12rcd13ifvqee0","pricing_plan_id":"free"},{"bike_id":"4558e48e-f5ea-4bef-a773-fb09f895cd07","system_id":"levelo_inurba_marseille","lat":43.28573,"lon":5.394992,"is_reserved":false,"is_disabled":false,"rental_uris":{"android":"levelo://app?vid=4558e48e-f5ea-4bef-a773-fb09f895cd07","ios":"levelo://app?vid=4558e48e-f5ea-4bef-a773-fb09f895cd07"},"vehicle_type_id":"4","last_reported":1706360749,"current_range_meters":19200,"station_id":"ce4bh292rcd13ifvqdg0","pricing_plan_id":"free"},{"bike_id":"4a89c957-1f3f-4ab5-b86f-266b79c15db9","system_id":"levelo_inurba_marseille","lat":43.285742,"lon":5.395004,"is_reserved":false,"is_disabled":false,"rental_uris":{"android":"levelo://app?vid=4a89c957-1f3f-4ab5-b86f-266b79c15db9","ios":"levelo://app?vid=4a89c957-1f3f-4ab5-b86f-266b79c15db9"},