{"last_updated":1738508950,"ttl":60,"version":"2.2","data":{"bikes":[{"bike_id":"7ac6de87-4cb5-4d58-adc2-a7c162322d3f","system_id":"levelo_inurba_marseille","lat":43.28478,"lon":5.38418,"is_reserved":false,"is_disabled":true,"rental_uris":{"android":"levelo://app?vid=7ac6de87-4cb5-4d58-adc2-a7c162322d3f","ios":"levelo://app?vid=7ac6de87-4cb5-4d58-adc2-a7c162322d3f"},"vehicle_type_id":"4","last_reported":1738508950,"current_range_meters":19200,"station_id":"ce4bh512rcd13ifvqe3g","pricing_plan_id":"cebpf4jnsgd1na2vs0mg"},{"bike_id":"4034ab67-cfc7-4deb-bf8c-c4ba0fbf9343","system_id":"levelo_inurba_marseille","lat":43.26558,"lon":5.3731,"is_reserved":false,"is_disabled":false,"rental_uris":{"android":"levelo://app?vid=4034ab67-cfc7-4deb-bf8c-c4ba0fbf9343","ios":"levelo://app?vid=4034ab67-cfc7-4deb-bf8c-c4ba0fbf9343"},"vehicle_type_id":"4","last_reported":1738508950,"current_range_meters":26000,"station_id":"ce4bhg12rcd13ifvqf70","pricing_plan_id":"cebpf4jnsgd1na2vs0mg"},{"bike_id":"b7f9fda9-45d0-4944-82e9-253aebd7e57b","system_id":"levelo_inurba_marseille","lat":43.31082,"lon":5.42428,"is_reserved":false,"is_disabled":false,"rental_uris":{"android":"levelo://app?vid=b7f9fda9-45d0-4944-82e9-253aebd7e57b","ios":"levelo://app?vid=b7f9fda9-45d0-4944-82e9-253aebd7e57b"},"vehicle_type_id":"4","last_reported":1738508950,"current_range_meters":20800,"station_id":"ce4bhp92rcd13ifvqhag","pricing_plan_id":"cebpf4jnsgd1na2vs0mg"},{"bike_id":"21ce7c90-ecf1-4c2b-ae39-e9d88703c00b","system_id":"levelo_inurba_marseille","lat":43.27212,"lon":5.39175,"is_reserved":false,"is_disabled":true,"rental_uris":{"android":"levelo://app?vid=21ce7c90-ecf1-4c2b-ae39-e9d88703c00b","ios":"levelo://app?vid=21ce7c90-ecf1-4c2b-ae39-e9d88703c00b"},"vehicle_type_id":"4","last_reported":1738508950,"current_range_meters":30400,"station_id":"ce4bhhp2rcd13ifvqfm0","pricing_plan_id":"cebpf4jnsgd1na2vs0mg"},{"bike_id":"68ec889f-fbad-4ec7-bbe1-dbda6b88a3f5","system_id":"levelo_inurba_marseille","lat":43.29032,"lon":5.38652,"is_reserved":false,"is_disabled":true,"rental_uris":{"android":"levelo://app?vid=68ec889f-fbad-4ec7-bbe1-dbda6b88a3f5","ios":"levelo://app?vid=68ec889f-fbad-4ec7-bbe1-dbda6b88a3f5"},"vehicle_type_id":"4","last_reported":1738508950,"current_range_meters":24400,"station_id":"ce4bh4p2rcd13ifvqe0g","pricing_plan_id":"cebpf4jnsgd1na2vs0mg"},{"bike_id":"19508e03-fa05-4c91-87a7-0a29ac898a81","system_id":"levelo_inurba_marseille","lat":43.25832,"lon":5.3943,"is_reserved":false,"is_disabled":false,"rental_uris":{"android":"levelo://app?vid=19508e03-fa05-4c91-87a7-0a29ac898a81","ios":"levelo://app?vid=19508e03-fa05-4c91-87a7-0a29ac898a81"},"vehicle_type_id":"4","last_reported":1738508950,"current_range_meters":18000,"station_id":"ce4bhip2rcd13ifvqft0","pricing_plan_id":"cebpf4jnsgd1na2vs0mg"},{"bike_id":"ed3b7fbe-dd9d-4bab-8f42-a2405c5dd34c","system_id":"levelo_inurba_marseille","lat":43.26684,"lon":5.38269,"is_reserved":false,"is_disabled":false,"rental_uris":{"android":"levelo://app?vid=ed3b7fbe-dd9d-4bab-8f42-a2405c5dd34c","ios":"levelo://app?vid=ed3b7fbe-dd9d-4bab-8f42-a2405c5dd34c"},"vehicle_type_id":"4","last_reported":1738508950,"current_range_meters":38800,"station_id":"ce4bhg92rcd13ifvqf90","pricing_plan_id":"cebpf4jnsgd1na2vs0mg"},{"bike_id":"931a3b86-1542-47ef-9fa0-26c4393add12","system_id":"levelo_inurba_marseille","lat":43.2397,"lon":5.36626,"is_reserved":false,"is_disabled":false,"rental_uris":{"android":"levelo://app?vid=931a3b86-1542-47ef-9fa0-26c4393add12","ios":"levelo://app?vid=931a3b86-1542-47ef-9fa0-26c4393add12"},"vehicle_type_id":"4","last_reported":1738508950,"current_range_meters":8000,"station_id":"ce4bhi12rcd13ifvqfp0","pricing_plan_id":"cebpf4jnsgd1na2vs0mg"},{"bike_id":"e8ff78b6-5f17-43a2-a0a9-0a0b2e9781ef","system_id":"levelo_inurba_marseille","lat":43.30541,"lon":5.36698,"is_reserved":false,"is_disabled":false,"rental_uris":{"android":"levelo://app?vid=e8ff78b6-5f17-43a2-a0a9-0a0b2e9781ef","ios":"levelo://app?vid=e8ff78b6-5f17-43a2-a0a9-0a0b2e9781ef"},"vehicle_type_id":"4","last_reported":1738508950,"current_range_meters":38800,"station_id":"ce4bgrp2rcd13ifvqc9g","pricing_plan_id":"cebpf4jnsgd1na2vs0mg"},{"bike_id":"58cca8c7-753d-466d-bfee-806283d76372","system_id":"levelo_inurba_marseille","lat":43.28833,"lon":5.393,"is_reserved":false,"is_disabled":false,"rental_uris":{"android":"levelo://app?vid=58cca8c7-753d-466d-bfee-806283d76372","ios":"levelo://app?vid=58cca8c7-753d-466d-bfee-806283d76372"},"vehicle_type_id":"4","last_reported":1738508950,"current_range_meters":17200,"station_id":"ce4bh2p2rcd13ifvqdi0","pricing_plan_id":"cebpf4jnsgd1na2vs0mg"},{"bike_id":"ac2d738a-827a-4bcd-a16e-094036ce1f8a","system_id":"levelo_inurba_marseille","lat":43.31219,"lon":5.36846,"is_reserved":false,"is_disabled":false,"rental_uris":{"android":"levelo://app?vid=ac2d738a-827a-4bcd-a16e-094036ce1f8a","ios":"levelo://app?vid=ac2d738a-827a-4bcd-a16e-094036ce1f8a"},"vehicle_type_id":"4","last_reported":1738508950,"current_range_meters":24800,"station_id":"ce4bgl92rcd13ifvqbq0","pricing_plan_id":"cebpf4jnsgd1na2vs0mg"},{"bike_id":"babeb983-9900-45dd-9c39-c974059de659","system_id":"levelo_inurba_marseille","lat":43.26832,"lon":5.40269,"is_reserved":false,"is_disabled":false,"rental_uris":{"android":"levelo://app?vid=babeb983-9900-45dd-9c39-c974059de659","ios":"levelo://app?vid=babeb983-9900-45dd-9c39-c974059de659"},"vehicle_type_id":"4","last_reported":1738508950,"current_range_meters":38000,"station_id":"ce501612rcd8frsf0b60","pricing_plan_id":"cebpf4jnsgd1na2vs0mg"},{"bike_id":"c26284e6-53ee-4b35-a0cc-ee8d0a2119d1","system_id":"levelo_inurba_marseille","lat":43.28716,"lon":5.37926,"is_reserved":false,"is_disabled":true,"rental_uris":{"android":"levelo://app?vid=c26284e6-53ee-4b35-a0cc-ee8d0a2119d1","ios":"levelo://app?vid=c26284e6-53ee-4b35-a0cc-ee8d0a2119d1"},"vehicle_type_id":"4","last_reported":1738508950,"current_range_meters":12000,"station_id":"ce4bh9p2rcd13ifvqec0","pricing_plan_id":"cebpf4jnsgd1na2vs0mg"},{"bike_id":"0cfeb70a-0a8b-4c9e-bd06-c150e627b9d5","system_id":"levelo_inurba_marseille","lat":43.26812,"lon":5.40261,"is_reserved":false,"is_disabled":false,"rental_uris":{"android":"levelo://app?vid=0cfeb70a-0a8b-4c9e-bd06-c150e627b9d5","ios":"levelo://app?vid=0cfeb70a-0a8b-4c9e-bd06-c150e627b9d5"},"vehicle_type_id":"4","last_reported":1738508950,"current_range_meters":39200,"station_id":"ce501612rcd8frsf0b60","pricing_plan_id":"cebpf4jnsgd1na2vs0mg"},{"bike_id":"c754e6eb-05ef-4e0a-ae25-f3aba8f968c9","system_id":"levelo_inurba_marseille","lat":43.26031,"lon":5.37547,"is_reserved":false,"is_disabled":false,"rental_uris":{"android":"levelo://app?vid=c754e6eb-05ef-4e0a-ae25-f3aba8f968c9","ios":"levelo://app?vid=c754e6eb-05ef-4e0a-ae25-f3aba8f968c9"},"vehicle_type_id":"4","last_reported":1738508950,"current_range_meters":19600,"station_id":"ce4bhgh2rcd13ifvqfa0","pricing_plan_id":"cebpf4jnsgd1na2vs0mg"},{"bike_id":"92352cdf-2cb9-4f18-b837-521c9813a019","system_id":"levelo_inurba_marseille","lat":43.26566,"lon":5.39023,"is_reserved":false,"is_disabled":false,"rental_uris":{"android":"levelo://app?vid=92352cdf-2cb9-4f18-b837-521c9813a019","ios":"levelo://app?vid=92352cdf-2cb9-4f18-b837-521c9813a019"},"vehicle_type_id":"4","last_reported":1738508950,"current_range_meters":38400,"station_id":"ce4bhe12rcd13ifvqf30","pricing_plan_id":"cebpf4jnsgd1na2vs0mg"},{"bike_id":"eacbc765-7813-46a7-9c91-acd236d4dc7a","system_id":"levelo_inurba_marseille","lat":43.30275,"lon":5.37708,"is_reserved":false,"is_disabled":false,"rental_uris":{"android":"levelo://app?vid=eacbc765-7813-46a7-9c91-acd236d4dc7a","ios":"levelo://app?vid=eacbc765-7813-46a7-9c91-acd236d4dc7a"},"vehicle_type_id":"4","last_reported":1738508950,"current_range_meters":22800,"station_id":"ce4bguh2rcd13ifvqcj0","pricing_plan_id":"cebpf4jnsgd1na2vs0mg"},{"bike_id":"db3aea96-2190-4a42-ad15-c255066e1f3e","system_id":"levelo_inurba_marseille","lat":43.32487,"lon":5.36561,"is_reserved":false,"is_disabled":false,"rental_uris":{"android":"levelo://app?vid=db3aea96-2190-4a42-ad15-c255066e1f3e","ios":"levelo://app?vid=db3aea96-2190-4a42-ad15-c255066e1f3e"},"vehicle_type_id":"4","last_reported":1738508950,"current_range_meters":25200,"station_id":"ce4bhs12rcd13ifvqhvg","pricing_plan_id":"cebpf4jnsgd1na2vs0mg"},{"bike_id":"dc6d66d6-e4d3-45c8-8040-dfb68093ccca","system_id":"levelo_inurba_marseille","lat":43.24545,"lon":5.39522,"is_reserved":false,"is_disabled":false,"rental_uris":{"android":"levelo://app?vid=dc6d66d6-e4d3-45c8-8040-dfb68093ccca","ios":"levelo://app?vid=dc6d66d6-e4d3-45c8-8040-dfb68093ccca"},"vehicle_type_id":"4","last_reported":1738508950,"current_range_meters":28400,"station_id":"ce4bhlp2rcd13ifvqgjg","pricing_plan_id":"cebpf4jnsgd1na2vs0mg"},{"bike_id":"b53cf432-0e47-4b61-a305-952377a64c88","system_id":"levelo_inurba_marseille","lat":43.30798,"lon":5.38161,"is_reserved":false,"is_disabled":true,"rental_uris":{"android":"levelo://app?vid=b53cf432-0e47-4b61-a305-952377a64c88","ios":"levelo://app?vid=b53cf432-0e47-4b61-a305-952377a64c88"},"vehicle_type_id":"4","last_reported":1738508950,"current_range_meters":36800,"station_id":"ce4bgt12rcd13ifvqce0","pricing_plan_id":"cebpf4jnsgd1na2vs0mg"},{"bike_id":"5206335d-6e33-40fd-97fa-4c2d2c1057e1","system_id":"levelo_inurba_marseille","lat":43.27927,"lon":5.41026,"is_reserved":false,"is_disabled":false,"rental_uris":{"android":"levelo://app?vid=5206335d-6e33-40fd-97fa-4c2d2c1057e1","ios":"levelo://app?vid=5206335d-6e33-40fd-97fa-4c2d2c1057e1"},"vehicle_type_id":"4","last_reported":1738508950,"current_range_meters":18800,"station_id":"ce4bhnp2rcd13ifvqh0g","pricing_plan_id":"cebpf4jnsgd1na2vs0mg"},{"bike_id":"13a71ca0-af90-4e61-a6f2-18a028732efe","system_id":"levelo_inurba_marseille","lat":43.25089,"lon":5.39509,"is_reserved":false,"is_disabled":false,"rental_uris":{"android":"levelo://app?vid=13a71ca0-af90-4e61-a6f2-18a028732efe","ios":"levelo://app?vid=13a71ca0-af90-4e61-a6f2-18a028732efe"},"vehicle_type_id":"4","last_reported":1738508950,"current_range_meters":27200,"station_id":"ce4bhm12rcd13ifvqgkg","pricing_plan_id":"cebpf4jnsgd1na2vs0mg"},{"bike_id":"b9fb3d2d-81d5-43a8-89dc-d204f4ce4ab1","system_id":"levelo_inurba_marseille","lat":43.30796,"lon":5.43503,"is_reserved":false,"is_disabled":true,"rental_uris":{"android":"levelo://app?vid=b9fb3d2d-81d5-43a8-89dc-d204f4ce4ab1","ios":"levelo://app?vid=b9fb3d2d-81d5-43a8-89dc-d204f4ce4ab1"},"vehicle_type_id":"4","last_reported":1738508950,"current_range_meters":0,"station_id":"ce4bhph2rcd13ifvqheg","pricing_plan_id":"cebpf4jnsgd1na2vs0mg"},{"bike_id":"ac435b7a-3cbe-439d-966f-9ad227b0ea53","system_id":"levelo_inurba_marseille","lat":43.29219,"lon":5.36051,"is_reserved":false,"is_disabled":true,"rental_uris":{"android":"levelo://app?vid=ac435b7a-3cbe-439d-966f-9ad227b0ea53","ios":"levelo://app?vid=ac435b7a-3cbe-439d-966f-9ad227b0ea53"},"vehicle_type_id":"4","last_reported":1738508950,"current_range_meters":38800,"station_id":"ce4bhbh2rcd13ifvqeqg","pricing_plan_id":"cebpf4jnsgd1na2vs0mg"},{"bike_id":"43cbe032-a2ed-488a-a5da-3a792f62ea64","system_id":"levelo_inurba_marseille","lat":43.28273,"lon":5.35073,"is_reserved":false,"is_disabled":false,"rental_uris":{"android":"levelo://app?vid=43cbe032-a2ed-488a-a5da-3a792f62ea64","ios":"levelo://app?vid=43cbe032-a2ed-488a-a5da-3a792f62ea64"},"vehicle_type_id":"4","last_reported":1738508950,"current_range_meters":24000,"station_id":"ce4bhbp2rcd13ifvqerg","pricing_plan_id":"cebpf4jnsgd1na2vs0mg"},{"bike_id":"b133c5d8-0c44-4adb-969d-84c97a5acb94","system_id":"levelo_inurba_marseille","lat":43.32476,"lon":5.36566,"is_reserved":false,"is_disabled":false,"rental_uris":{"android":"levelo://app?vid=b133c5d8-0c44-4adb-969d-84c97a5acb94","ios":"levelo://app?vid=b133c5d8-0c44-4adb-969d-84c97a5acb94"},"vehicle_type_id":"4","last_reported":1738508950,"current_range_meters":25600,"station_id":"ce4bhs12rcd13ifvqhvg","pricing_plan_id":"cebpf4jnsgd1na2vs0mg"},{"bike_id":"a1361b83-7dfc-447a-91a0-ca180866041b","system_id":"levelo_inurba_marseille","lat":43.32358,"lon":5.36755,"is_reserved":false,"is_disabled":false,"rental_uris":{"android":"levelo://app?vid=a1361b83-7dfc-447a-91a0-ca180866041b","ios":"levelo://app?vid=a1361b83-7dfc-447a-91a0-ca180866041b"},"vehicle_type_id":"4","last_reported":1738508950,"current_range_meters":27200,"station_id":"ce4bhsh2rcd13ifvqi2g","pricing_plan_id":"cebpf4jnsgd1na2vs0mg"},{"bike_id":"ddb9c7e9-65ef-4267-9499-9c9d26630482","system_id":"levelo_inurba_marseille","lat":43.32492,"lon":5.36518,"is_reserved":false,"is_disabled":false,"rental_uris":{"android":"levelo://app?vid=ddb9c7e9-65ef-4267-9499-9c9d26630482","ios":"levelo://app?vid=ddb9c7e9-65ef-4267-9499-9c9d26630482"},"vehicle_type_id":"4","last_reported":1738508950,"current_range_meters":30400,"station_id":"ce4bhs12rcd13ifvqhvg","pricing_plan_id":"cebpf4jnsgd1na2vs0mg"},{"bike_id":"cc47836a-b908-432f-8e0e-2f793407f141","system_id":"levelo_inurba_marseille","lat":43.22922,"lon":5.35366,"is_reserved":false,"is_disabled":false,"rental_uris":{"android":"levelo://app?vid=cc47836a-b908-432f-8e0e-2f793407f141","ios":"levelo://app?vid=cc47836a-b908-432f-8e0e-2f793407f141"},"vehicle_type_id":"4","last_reported":1738508950,"current_range_meters":35600,"station_id":"cpo3532slgdg3j2ikp40","pricing_plan_id":"cebpf4jnsgd1na2vs0mg"},{"bike_id":"943be55d-cee7-424a-b22e-f9aee29db6e6","system_id":"levelo_inurba_marseille","lat":43.2755,"lon":5.38427,"is_reserved":false,"is_disabled":false,"rental_uris":{"android":"levelo://app?vid=943be55d-cee7-424a-b22e-f9aee29db6e6","ios":"levelo://app?vid=943be55d-cee7-424a-b22e-f9aee29db6e6"},"vehicle_type_id":"4","last_reported":1738508950,"current_range_meters":38800,"station_id":"ce4bhh92rcd13ifvqfi0","pricing_plan_id":"cebpf4jnsgd1na2vs0mg"},{"bike_id":"eccf3e1b-479c-430a-81d9-b77c081460ec","system_id":"levelo_inurba_marseille","lat":43.31761,"lon":5.38998,"is_reserved":false,"is_disabled":true,"rental_uris":{"android":"levelo://app?vid=eccf3e1b-479c-430a-81d9-b77c081460ec","ios":"levelo://app?vid=eccf3e1b-479c-430a-81d9-b77c081460ec"},"vehicle_type_id":"4","last_reported":1738508950,"current_range_meters":9200,"station_id":"ce4bhqp2rcd13ifvqhng","pricing_plan_id":"cebpf4jnsgd1na2vs0mg"},{"bike_id":"8a006d60-24b2-44c1-bf8d-ce90a4db220e","system_id":"levelo_inurba_marseille","lat":43.26929,"lon":5.40258,"is_reserved":false,"is_disabled":false,"rental_uris":{"android":"levelo://app?vid=8a006d60-24b2-44c1-bf8d-ce90a4db220e","ios":"levelo://app?vid=8a006d60-24b2-44c1-bf8d-ce90a4db220e"},"vehicle_type_id":"4","last_reported":1738508950,"current_range_meters":38800,"station_id":"cjm6bp8fraef2m0cb0m0","pricing_plan_id":"cebpf4jnsgd1na2vs0mg"},{"bike_id":"b721f28c-100f-4934-9d17-7d1f45ba2a96","system_id":"levelo_inurba_marseille","lat":43.28608,"lon":5.37062,"is_reserved":false,"is_disabled":false,"rental_uris":{"android":"levelo://app?vid=b721f28c-100f-4934-9d17-7d1f45ba2a96","ios":"levelo://app?vid=b721f28c-100f-4934-9d17-7d1f45ba2a96"},"vehicle_type_id":"4","last_reported":1738508950,"current_range_meters":14000,"station_id":"ce4bht12rcd13ifvqi60","pricing_plan_id":"cebpf4jnsgd1na2vs0mg"},{"bike_id":"0edaa840-e8b0-4f2c-ad98-c123355c590c","system_id":"levelo_inurba_marseille","lat":43.26063,"lon":5.39385,"is_reserved":false,"is_disabled":true,"rental_uris":{"android":"levelo://app?vid=0edaa840-e8b0-4f2c-ad98-c123355c590c","ios":"levelo://app?vid=0edaa840-e8b0-4f2c-ad98-c123355c590c"},"vehicle_type_id":"4","last_reported":1738508950,"current_range_meters":29600,"station_id":"ce4bhh92rcd13ifvqfj0","pricing_plan_id":"cebpf4jnsgd1na2vs0mg"},{"bike_id":"0c8187f5-988a-4457-bbb8-4cf908ac31d3","system_id":"levelo_inurba_marseille","lat":43.25824,"lon":5.39428,"is_reserved":false,"is_disabled":false,"rental_uris":{"android":"levelo://app?vid=0c8187f5-988a-4457-bbb8-4cf908ac31d3","ios":"levelo://app?vid=0c8187f5-988a-4457-bbb8-4cf908ac31d3"},"vehicle_type_id":"4","last_reported":1738508950,"current_range_meters":12000,"station_id":"ce4bhip2rcd13ifvqft0","pricing_plan_id":"cebpf4jnsgd1na2vs0mg"},{"bike_id":"c8e8c858-e20a-49eb-bd83-63615e9eaa82","system_id":"levelo_inurba_marseille","lat":43.26197,"lon":5.37441,"is_reserved":false,"is_disabled":false,"rental_uris":{"android":"levelo://app?vid=c8e8c858-e20a-49eb-bd83-63615e9eaa82","ios":"levelo://app?vid=c8e8c858-e20a-49eb-bd83-63615e9eaa82"},"vehicle_type_id":"4","last_reported":1738508950,"current_range_meters":16000,"station_id":"ce4bhgp2rcd13ifvqfc0","pricing_plan_id":"cebpf4jnsgd1na2vs0mg"},{"bike_id":"5d15e5ab-a393-43e3-9c89-48d29f988df0","system_id":"levelo_inurba_marseille","lat":43.26945,"lon":5.40249,"is_reserved":false,"is_disabled":false,"rental_uris":{"android":"levelo://app?vid=5d15e5ab-a393-43e3-9c89-48d29f988df0","ios":"levelo://app?vid=5d15e5ab-a393-43e3-9c89-48d29f988df0"},"vehicle_type_id":"4","last_reported":1738508950,"current_range_meters":25600,"station_id":"cjm6bp8fraef2m0cb0m0","pricing_plan_id":"cebpf4jnsgd1na2vs0mg"},{"bike_id":"8b23552f-b7c0-40c8-9d4f-37ff82774c67","system_id":"levelo_inurba_marseille","lat":43.2559,"lon":5.38218,"is_reserved":false,"is_disabled":false,"rental_uris":{"android":"levelo://app?vid=8b23552f-b7c0-40c8-9d4f-37ff82774c67","ios":"levelo://app?vid=8b23552f-b7c0-40c8-9d4f-37ff82774c67"},"vehicle_type_id":"4","last_reported":1738508950,"current_range_meters":28000,"station_id":"ce4bhih2rcd13ifvqfs0","pricing_plan_id":"cebpf4jnsgd1na2vs0mg"},{"bike_id":"637e7848-7b84-4e1d-9cee-355c6601f7c3","system_id":"levelo_inurba_marseille","lat":43.279921,"lon":5.416544,"is_reserved":false,"is_disabled":true,"rental_uris":{"android":"levelo://app?vid=637e7848-7b84-4e1d-9cee-355c6601f7c3","ios":"levelo://app?vid=637e7848-7b84-4e1d-9cee-355c6601f7c3"},"vehicle_type_id":"4","last_reported":1738508950,"current_range_meters":1200,"station_id":"ce4bho12rcd13ifvqh1g","pricing_plan_id":"cebpf4jnsgd1na2vs0mg"},{"bike_id":"c38bcdff-a781-47f5-ae3f-4fcf411750d7","system_id":"levelo_inurba_marseille","lat":43.286174,"lon":5.351032,"is_reserved":false,"is_disabled":false,"rental_uris":{"android":"levelo://app?vid=c38bcdff-a781-47f5-ae3f-4fcf411750d7","ios":"levelo://app?vid=c38bcdff-a781-47f5-ae3f-4fcf411750d7"},"vehicle_type_id":"4","last_reported":1738508950,"current_range_meters":15200,"station_id":"ce4bhch2rcd13ifvqeug","pricing_plan_id":"cebpf4jnsgd1na2vs0mg"},{"bike_id":"a9a9e63c-dbdd-43a7-af31-6f2fb922feaf","system_id":"levelo_inurba_marseille","lat":43.26202,"lon":5.37923,"is_reserved":false,"is_disabled":false,"rental_uris":{"android":"levelo://app?vid=a9a9e63c-dbdd-43a7-af31-6f2fb922feaf","ios":"levelo://app?vid=a9a9e63c-dbdd-43a7-af31-6f2fb922feaf"},"vehicle_type_id":"4","last_reported":1738508950,"current_range_meters":30000,"station_id":"ce4bhjp2rcd13ifvqg90","pricing_plan_id":"cebpf4jnsgd1na2vs0mg"},{"bike_id":"063c7d65-e325-4d83-84e5-cce59ed7e23d","system_id":"levelo_inurba_marseille","lat":43.2953,"lon":5.38545,"is_reserved":false,"is_disabled":false,"rental_uris":{"android":"levelo://app?vid=063c7d65-e325-4d83-84e5-cce59ed7e23d","ios":"levelo://app?vid=063c7d65-e325-4d83-84e5-cce59ed7e23d"},"vehicle_type_id":"4","last_reported":1738508950,"current_range_meters":16800,"station_id":"ce4bgih2rcd13ifvqba0","pricing_plan_id":"cebpf4jnsgd1na2vs0mg"},{"bike_id":"f45416ee-edd9-4a87-84b4-e018fa106464","system_id":"levelo_inurba_marseille","lat":43.30549,"lon":5.36526,"is_reserved":false,"is_disabled":false,"rental_uris":{"android":"levelo://app?vid=f45416ee-edd9-4a87-84b4-e018fa106464","ios":"levelo://app?vid=f45416ee-edd9-4a87-84b4-e018fa106464"},"vehicle_type_id":"4","last_reported":1738508950,"current_range_meters":37600,"station_id":"ce4bgs12rcd13ifvqcag","pricing_plan_id":"cebpf4jnsgd1na2vs0mg"},{"bike_id":"e14e9c94-cb79-4b6c-863d-7b4552345f2f","system_id":"levelo_inurba_marseille","lat":43.29265,"lon":5.36843,"is_reserved":false,"is_disabled":false,"rental_uris":{"android":"levelo://app?vid=e14e9c94-cb79-4b6c-863d-7b4552345f2f","ios":"levelo://app?vid=e14e9c94-cb79-4b6c-863d-7b4552345f2f"},"vehicle_type_id":"4","last_reported":1738508950,"current_range_meters":8000,"station_id":"ce4bhbp2rcd13ifvqesg","pricing_plan_id":"cebpf4jnsgd1na2vs0mg"},{"bike_id":"32e5f4af-c3e2-4e2b-9428-5595e9b70920","system_id":"levelo_inurba_marseille","lat":43.29766,"lon":5.37093,"is_reserved":false,"is_disabled":true,"rental_uris":{"android":"levelo://app?vid=32e5f4af-c3e2-4e2b-9428-5595e9b70920","ios":"levelo://app?vid=32e5f4af-c3e2-4e2b-9428-5595e9b70920"},"vehicle_type_id":"4","last_reported":1738508950,"current_range_meters":36800,"station_id":"ce4bgop2rcd13ifvqc1g","pricing_plan_id":"cebpf4jnsgd1na2vs0mg"},{"bike_id":"34e0c989-9132-40cc-a2fb-52b01a775086","system_id":"levelo_inurba_marseille","lat":43.28555,"lon":5.395,"is_reserved":false,"is_disabled":false,"rental_uris":{"android":"levelo://app?vid=34e0c989-9132-40cc-a2fb-52b01a775086","ios":"levelo://app?vid=34e0c989-9132-40cc-a2fb-52b01a775086"},"vehicle_type_id":"4","last_reported":1738508950,"current_range_meters":34000,"station_id":"ce4bh292rcd13ifvqdg0","pricing_plan_id":"cebpf4jnsgd1na2vs0mg"},{"bike_id":"8f77094f-75d0-490a-8bea-9674423b8df7","system_id":"levelo_inurba_marseille","lat":43.30535,"lon":5.36526,"is_reserved":false,"is_disabled":false,"rental_uris":{"android":"levelo://app?vid=8f77094f-75d0-490a-8bea-9674423b8df7","ios":"levelo://app?vid=8f77094f-75d0-490a-8bea-9674423b8df7"},"vehicle_type_id":"4","last_reported":1738508950,"current_range_meters":38800,"station_id":"ce4bgs12rcd13ifvqcag","pricing_plan_id":"cebpf4jnsgd1na2vs0mg"},{"bike_id":"095e5291-f842-4478-bc34-3769cd441c0c","system_id":"levelo_inurba_marseille","lat":43.2814,"lon":5.42654,"is_reserved":false,"is_disabled":false,"rental_uris":{"android":"levelo://app?vid=095e5291-f842-4478-bc34-3769cd441c0c","ios":"levelo://app?vid=095e5291-f842-4478-bc34-3769cd441c0c"},"vehicle_type_id":"4","last_reported":1738508950,"current_range_meters":12800,"station_id":"ce4bhnh2rcd13ifvqgug","pricing_plan_id":"cebpf4jnsgd1na2vs0mg"},{"bike_id":"19ccc093-786b-4a36-b96d-6e1a9fb02f18","system_id":"levelo_inurba_marseille","lat":43.29033,"lon":5.38627,"is_reserved":false,"is_disabled":true,"rental_uris":{"android":"levelo://app?vid=19ccc093-786b-4a36-b96d-6e1a9fb02f18","ios":"levelo://app?vid=19ccc093-786b-4a36-b96d-6e1a9fb02f18"},"vehicle_type_id":"4","last_reported":1738508950,"current_range_meters":22000,"station_id":"ce4bh4p2rcd13ifvqe0g","pricing_plan_id":"cebpf4jnsgd1na2vs0mg"},{"bike_id":"9f7cbc3c-6e0b-4442-8c70-64c0b2a1452e","system_id":"levelo_inurba_marseille","lat":43.23061,"lon":5.35497,"is_reserved":false,"is_disabled":false,"rental_uris":{"android":"levelo://app?vid=9f7cbc3c-6e0b-4442-8c70-64c0b2a1452e","ios":"levelo://app?vid=9f7cbc3c-6e0b-4442-8c70-64c0b2a1452e"},"vehicle_type_id":"4","last_reported":1738508950,"current_range_meters":31200,"station_id":"cpo3342slgdg3j2ifvpg","pricing_plan_id":"cebpf4jnsgd1na2vs0mg"},{"bike_id":"839eb946-58ee-4ee0-b555-ee765aaf2d62","system_id":"levelo_inurba_marseille","lat":43.28422,"lon":5.34975,"is_reserved":false,"is_disabled":false,"rental_uris":{"android":"levelo://app?vid=839eb946-58ee-4ee0-b555-ee765aaf2d62","ios":"levelo://app?vid=839eb946-58ee-4ee0-b555-ee765aaf2d62"},"vehicle_type_id":"4","last_reported":1738508950,"current_range_meters":36800,"station_id":"ce4bhbh2rcd13ifvqepg","pricing_plan_id":"cebpf4jnsgd1na2vs0mg"},{"bike_id":"f4615d1e-09f8-4173-8ff0-9e3f6ba2ac4e","system_id":"levelo_inurba_marseille","lat":43.26958,"lon":5.40231,"is_reserved":false,"is_disabled":false,"rental_uris":{"android":"levelo://app?vid=f4615d1e-09f8-4173-8ff0-9e3f6ba2ac4e","ios":"levelo://app?vid=f4615d1e-09f8-4173-8ff0-9e3f6ba2ac4e"},"vehicle_type_id":"4","last_reported":1738508950,"current_range_meters":7200,"station_id":"cjm6bp8fraef2m0cb0m0","pricing_plan_id":"cebpf4jnsgd1na2vs0mg"},{"bike_id":"9191983c-f500-4e34-800a-5c4da4f130cb","system_id":"levelo_inurba_marseille","lat":43.27967,"lon":5.41039,"is_reserved":false,"is_disabled":false,"rental_uris":{"android":"levelo://app?vid=9191983c-f500-4e34-800a-5c4da4f130cb","ios":"levelo://app?vid=9191983c-f500-4e34-800a-5c4da4f130cb"},"vehicle_type_id":"4","last_reported":1738508950,"current_range_meters":32000,"station_id":"ce4bhnp2rcd13ifvqh0g","pricing_plan_id":"cebpf4jnsgd1na2vs0mg"},{"bike_id":"285af6c2-616a-41cd-841d-49697bf4712f","system_id":"levelo_inurba_marseille","lat":43.26044,"lon":5.37539,"is_reserved":false,"is_disabled":false,"rental_uris":{"android":"levelo://app?vid=285af6c2-616a-41cd-841d-49697bf4712f","ios":"levelo://app?vid=285af6c2-616a-41cd-841d-49697bf4712f"},"vehicle_type_id":"4","last_reported":1738508950,"current_range_meters":31200,"station_id":"ce4bhgh2rcd13ifvqfa0","pricing_plan_id":"cebpf4jnsgd1na2vs0mg"},{"bike_id":"41e6e298-ec32-4fb2-bd12-4379fb9fc842","system_id":"levelo_inurba_marseille","lat":43.29267,"lon":5.36853,"is_reserved":false,"is_disabled":true,"rental_uris":{"android":"levelo://app?vid=41e6e298-ec32-4fb2-bd12-4379fb9fc842","ios":"levelo://app?vid=41e6e298-ec32-4fb2-bd12-4379fb9fc842"},"vehicle_type_id":"4","last_reported":1738508950,"current_range_meters":2000,"station_id":"ce4bhbp2rcd13ifvqesg","pricing_plan_id":"cebpf4jnsgd1na2vs0mg"},{"bike_id":"ee3fa23f-61ab-46b4-93b7-599dab062394","system_id":"levelo_inurba_marseille","lat":43.28022,"lon":5.36942,"is_reserved":false,"is_disabled":false,"rental_uris":{"android":"levelo://app?vid=ee3fa23f-61ab-46b4-93b7-599dab062394","ios":"levelo://app?vid=ee3fa23f-61ab-46b4-93b7-599dab062394"},"vehicle_type_id":"4","last_reported":1738508950,"current_range_meters":39200,"station_id":"ce4bha12rcd13ifvqef0","pricing_plan_id":"cebpf4jnsgd1na2vs0mg"},{"bike_id":"470fee33-645f-46ad-bee0-77a6cca6a8e6","system_id":"levelo_inurba_marseille","lat":43.30185,"lon":5.36611,"is_reserved":false,"is_disabled":false,"rental_uris":{"android":"levelo://app?vid=470fee33-645f-46ad-bee0-77a6cca6a8e6","ios":"levelo://app?vid=470fee33-645f-46ad-bee0-77a6cca6a8e6"},"vehicle_type_id":"4","last_reported":1738508950,"current_range_meters":38800,"station_id":"ce4bgrh2rcd13ifvqc8g","pricing_plan_id":"cebpf4jnsgd1na2vs0mg"},{"bike_id":"3e6336ed-5127-414c-a249-84235f56b531","system_id":"levelo_inurba_marseille","lat":43.28371,"lon":5.38639,"is_reserved":false,"is_disabled":false,"rental_uris":{"android":"levelo://app?vid=3e6336ed-5127-414c-a249-84235f56b531","ios":"levelo://app?vid=3e6336ed-5127-414c-a249-84235f56b531"},"vehicle_type_id":"4","last_reported":1738508950,"current_range_meters":21600,"station_id":"ce4bh492rcd13ifvqdvg","pricing_plan_id":"cebpf4jnsgd1na2vs0mg"},{"bike_id":"2408d5e8-d269-4b92-a62d-533fb8be8b2d","system_id":"levelo_inurba_marseille","lat":43.29712,"lon":5.36592,"is_reserved":false,"is_disabled":false,"rental_uris":{"android":"levelo://app?vid=2408d5e8-d269-4b92-a62d-533fb8be8b2d","ios":"levelo://app?vid=2408d5e8-d269-4b92-a62d-533fb8be8b2d"},"vehicle_type_id":"4","last_reported":1738508950,"current_range_meters":36000,"station_id":"ce4bgn12rcd13ifvqbt0","pricing_plan_id":"cebpf4jnsgd1na2vs0mg"},{"bike_id":"cb6cbad1-9be5-49a8-997b-c3e9153eb9e1","system_id":"levelo_inurba_marseille","lat":43.24554,"lon":5.39522,"is_reserved":false,"is_disabled":false,"rental_uris":{"android":"levelo://app?vid=cb6cbad1-9be5-49a8-997b-c3e9153eb9e1","ios":"levelo://app?vid=cb6cbad1-9be5-49a8-997b-c3e9153eb9e1"},"vehicle_type_id":"4","last_reported":1738508950,"current_range_meters":38800,"station_id":"ce4bhlp2rcd13ifvqgjg","pricing_plan_id":"cebpf4jnsgd1na2vs0mg"},{"bike_id":"bfb8af47-e771-46c1-a2fc-56387516b814","system_id":"levelo_inurba_marseille","lat":43.2318,"lon":5.39966,"is_reserved":false,"is_disabled":false,"rental_uris":{"android":"levelo://app?vid=bfb8af47-e771-46c1-a2fc-56387516b814","ios":"levelo://app?vid=bfb8af47-e771-46c1-a2fc-56387516b814"},"vehicle_type_id":"4","last_reported":1738508950,"current_range_meters":25200,"station_id":"ce4bhn12rcd13ifvqgqg","pricing_plan_id":"cebpf4jnsgd1na2vs0mg"},{"bike_id":"9fd1d072-3a8b-4482-b70f-62cd25efe66f","system_id":"levelo_inurba_marseille","lat":43.28146,"lon":5.42644,"is_reserved":false,"is_disabled":false,"rental_uris":{"android":"levelo://app?vid=9fd1d072-3a8b-4482-b70f-62cd25efe66f","ios":"levelo://app?vid=9fd1d072-3a8b-4482-b70f-62cd25efe66f"},"vehicle_type_id":"4","last_reported":1738508950,"current_range_meters":33600,"station_id":"ce4bhnh2rcd13ifvqgug","pricing_plan_id":"cebpf4jnsgd1na2vs0mg"},{"bike_id":"351fbbf9-6096-4494-8a57-0f8c8e5a4578","system_id":"levelo_inurba_marseille","lat":43.24808,"lon":5.37456,"is_reserved":false,"is_disabled":false,"rental_uris":{"android":"levelo://app?vid=351fbbf9-6096-4494-8a57-0f8c8e5a4578","ios":"levelo://app?vid=351fbbf9-6096-4494-8a57-0f8c8e5a4578"},"vehicle_type_id":"4","last_reported":1738508950,"current_range_meters":21600,"station_id":"ce4bhgh2rcd13ifvqfb0","pricing_plan_id":"cebpf4jnsgd1na2vs0mg"},{"bike_id":"58f71a46-16e6-471e-a4b1-49cac690aa69","system_id":"levelo_inurba_marseille","lat":43.26502,"lon":5.39546,"is_reserved":false,"is_disabled":false,"rental_uris":{"android":"levelo://app?vid=58f71a46-16e6-471e-a4b1-49cac690aa69","ios":"levelo://app?vid=58f71a46-16e6-471e-a4b1-49cac690aa69"},"vehicle_type_id":"4","last_reported":1738508950,"current_range_meters":17200,"station_id":"ce4bhi12rcd13ifvqfq0","pricing_plan_id":"cebpf4jnsgd1na2vs0mg"},{"bike_id":"b6b896c0-4f8b-42fa-a0c1-32ab44e6242e","system_id":"levelo_inurba_marseille","lat":43.24094,"lon":5.37737,"is_reserved":false,"is_disabled":false,"rental_uris":{"android":"levelo://app?vid=b6b896c0-4f8b-42fa-a0c1-32ab44e6242e","ios":"levelo://app?vid=b6b896c0-4f8b-42fa-a0c1-32ab44e6242e"},"vehicle_type_id":"4","last_reported":1738508950,"current_range_meters":6800,"station_id":"ce4bhnp2rcd13ifvqgvg","pricing_plan_id":"cebpf4jnsgd1na2vs0mg"},{"bike_id":"cfdc3e36-f1ca-4859-b324-931a3f1626bd","system_id":"levelo_inurba_marseille","lat":43.25587,"lon":5.38227,"is_reserved":false,"is_disabled":false,"rental_uris":{"android":"levelo://app?vid=cfdc3e36-f1ca-4859-b324-931a3f1626bd","ios":"levelo://app?vid=cfdc3e36-f1ca-4859-b324-931a3f1626bd"},"vehicle_type_id":"4","last_reported":1738508950,"current_range_meters":38800,"station_id":"ce4bhih2rcd13ifvqfs0","pricing_plan_id":"cebpf4jnsgd1na2vs0mg"},{"bike_id":"defe4ff4-bcc6-4ed4-aaec-8d49723d9ce4","system_id":"levelo_inurba_marseille","lat":43.30521,"lon":5.3653,"is_reserved":false,"is_disabled":false,"rental_uris":{"android":"levelo://app?vid=defe4ff4-bcc6-4ed4-aaec-8d49723d9ce4","ios":"levelo://app?vid=defe4ff4-bcc6-4ed4-aaec-8d49723d9ce4"},"vehicle_type_id":"4","last_reported":1738508950,"current_range_meters":38800,"station_id":"","pricing_plan_id":"cebpf4jnsgd1na2vs0mg"},{"bike_id":"cf32314b-4d23-4b76-8d8c-68bdaf2a525f","system_id":"levelo_inurba_marseille","lat":43.308,"lon":5.43527,"is_reserved":false,"is_disabled":false,"rental_uris":{"android":"levelo://app?vid=cf32314b-4d23-4b76-8d8c-68bdaf2a525f","ios":"levelo://app?vid=cf32314b-4d23-4b76-8d8c-68bdaf2a525f"},"vehicle_type_id":"4","last_reported":1738508950,"current_range_meters":33600,"station_id":"ce4bh192rcd13ifvqdc0","pricing_plan_id":"cebpf4jnsgd1na2vs0mg"},{"bike_id":"57ab9483-28a4-4aa6-9c81-1e10655898cf","system_id":"levelo_inurba_marseille","lat":43.28971,"lon":5.3784,"is_reserved":false,"is_disabled":true,"rental_uris":{"android":"levelo://app?vid=57ab9483-28a4-4aa6-9c81-1e10655898cf","ios":"levelo://app?vid=57ab9483-28a4-4aa6-9c81-1e10655898cf"},"vehicle_type_id":"4","last_reported":1738508950,"current_range_meters":38800,"station_id":"ce4bh9p2rcd13ifvqed0","pricing_plan_id":"cebpf4jnsgd1na2vs0mg"},{"bike_id":"33c53f17-9fe8-4280-a0e5-820f3f7fcb91","system_id":"levelo_inurba_marseille","lat":43.28262,"lon":5.35109,"is_reserved":false,"is_disabled":false,"rental_uris":{"android":"levelo://app?vid=33c53f17-9fe8-4280-a0e5-820f3f7fcb91","ios":"levelo://app?vid=33c53f17-9fe8-4280-a0e5-820f3f7fcb91"},"vehicle_type_id":"4","last_reported":1738508950,"current_range_meters":36800,"station_id":"ce4bhbp2rcd13ifvqerg","pricing_plan_id":"cebpf4jnsgd1na2vs0mg"},{"bike_id":"9378ad3f-8580-4797-a297-1d65be591ec0","system_id":"levelo_inurba_marseille","lat":43.30533,"lon":5.3653,"is_reserved":false,"is_disabled":false,"rental_uris":{"android":"levelo://app?vid=9378ad3f-8580-4797-a297-1d65be591ec0","ios":"levelo://app?vid=9378ad3f-8580-4797-a297-1d65be591ec0"},"vehicle_type_id":"4","last_reported":1738508950,"current_range_meters":12000,"station_id":"ce4bgs12rcd13ifvqcag","pricing_plan_id":"cebpf4jnsgd1na2vs0mg"},{"bike_id":"29e433c5-f86e-40bf-8cf3-374b024916b0","system_id":"levelo_inurba_marseille","lat":43.32285,"lon":5.38258,"is_reserved":false,"is_disabled":false,"rental_uris":{"android":"levelo://app?vid=29e433c5-f86e-40bf-8cf3-374b024916b0","ios":"levelo://app?vid=29e433c5-f86e-40bf-8cf3-374b024916b0"},"vehicle_type_id":"4","last_reported":1738508950,"current_range_meters":38000,"station_id":"ce4bhr12rcd13ifvqhqg","pricing_plan_id":"cebpf4jnsgd1na2vs0mg"},{"bike_id":"65acbc0a-a635-4694-b6f7-fc08a2026af5","system_id":"levelo_inurba_marseille","lat":43.28833,"lon":5.35861,"is_reserved":false,"is_disabled":true,"rental_uris":{"android":"levelo://app?vid=65acbc0a-a635-4694-b6f7-fc08a2026af5","ios":"levelo://app?vid=65acbc0a-a635-4694-b6f7-fc08a2026af5"},"vehicle_type_id":"4","last_reported":1738508950,"current_range_meters":0,"station_id":"ce4bhb12rcd13ifvqem0","pricing_plan_id":"cebpf4jnsgd1na2vs0mg"},{"bike_id":"31a3ebfd-152f-4f64-b846-0d7ee52c7489","system_id":"levelo_inurba_marseille","lat":43.27915,"lon":5.39575,"is_reserved":false,"is_disabled":false,"rental_uris":{"android":"levelo://app?vid=31a3ebfd-152f-4f64-b846-0d7ee52c7489","ios":"levelo://app?vid=31a3ebfd-152f-4f64-b846-0d7ee52c7489"},"vehicle_type_id":"4","last_reported":1738508950,"current_range_meters":35200,"station_id":"ce4bhf92rcd13ifvqf40","pricing_plan_id":"cebpf4jnsgd1na2vs0mg"},{"bike_id":"c8a9d751-cf9d-4066-9d15-b24796745132","system_id":"levelo_inurba_marseille","lat":43.28262,"lon":5.35052,"is_reserved":false,"is_disabled":false,"rental_uris":{"android":"levelo://app?vid=c8a9d751-cf9d-4066-9d15-b24796745132","ios":"levelo://app?vid=c8a9d751-cf9d-4066-9d15-b24796745132"},"vehicle_type_id":"4","last_reported":1738508950,"current_range_meters":30400,"station_id":"ce4bhbp2rcd13ifvqerg","pricing_plan_id":"cebpf4jnsgd1na2vs0mg"},{"bike_id":"a561aae7-6369-4c00-9d68-e8c23562735d","system_id":"levelo_inurba_marseille","lat":43.26576,"lon":5.39054,"is_reserved":false,"is_disabled":true,"rental_uris":{"android":"levelo://app?vid=a561aae7-6369-4c00-9d68-e8c23562735d","ios":"levelo://app?vid=a561aae7-6369-4c00-9d68-e8c23562735d"},"vehicle_type_id":"4","last_reported":1738508950,"current_range_meters":14400,"station_id":"ce4bhe12rcd13ifvqf30","pricing_plan_id":"cebpf4jnsgd1na2vs0mg"},{"bike_id":"2d7630e5-8dfa-488b-8dfa-bd47cafc9cb0","system_id":"levelo_inurba_marseille","lat":43.30354,"lon":5.41885,"is_reserved":false,"is_disabled":false,"rental_uris":{"android":"levelo://app?vid=2d7630e5-8dfa-488b-8dfa-bd47cafc9cb0","ios":"levelo://app?vid=2d7630e5-8dfa-488b-8dfa-bd47cafc9cb0"},"vehicle_type_id":"4","last_reported":1738508950,"current_range_meters":30800,"station_id":"ce4bhop2rcd13ifvqh7g","pricing_plan_id":"cebpf4jnsgd1na2vs0mg"},{"bike_id":"61b9bc9c-89cb-4f33-a107-e1d46889ee3d","system_id":"levelo_inurba_marseille","lat":43.28161,"lon":5.42628,"is_reserved":false,"is_disabled":false,"rental_uris":{"android":"levelo://app?vid=61b9bc9c-89cb-4f33-a107-e1d46889ee3d","ios":"levelo://app?vid=61b9bc9c-89cb-4f33-a107-e1d46889ee3d"},"vehicle_type_id":"4","last_reported":1738508950,"current_range_meters":36400,"station_id":"ce4bhnh2rcd13ifvqgug","pricing_plan_id":"cebpf4jnsgd1na2vs0mg"},{"bike_id":"7076d614-6287-4ef0-a4a8-acac7f297151","system_id":"levelo_inurba_marseille","lat":43.30573,"lon":5.36643,"is_reserved":false,"is_disabled":false,"rental_uris":{"android":"levelo://app?vid=7076d614-6287-4ef0-a4a8-acac7f297151","ios":"levelo://app?vid=7076d614-6287-4ef0-a4a8-acac7f297151"},"vehicle_type_id":"4","last_reported":1738508950,"current_range_meters":30400,"station_id":"","pricing_plan_id":"cebpf4jnsgd1na2vs0mg"},{"bike_id":"d979d8d2-ec65-47af-9229-e4270aab279a","system_id":"levelo_inurba_marseille","lat":43.23065,"lon":5.35472,"is_reserved":false,"is_disabled":false,"rental_uris":{"android":"levelo://app?vid=d979d8d2-ec65-47af-9229-e4270aab279a","ios":"levelo://app?vid=d979d8d2-ec65-47af-9229-e4270aab279a"},"vehicle_type_id":"4","last_reported":1738508950,"current_range_meters":37600,"station_id":"cpo3342slgdg3j2ifvpg","pricing_plan_id":"cebpf4jnsgd1na2vs0mg"},{"bike_id":"82c6eebf-0519-4b18-a727-88dc1d4c976d","system_id":"levelo_inurba_marseille","lat":43.28271,"lon":5.35066,"is_reserved":false,"is_disabled":true,"rental_uris":{"android":"levelo://app?vid=82c6eebf-0519-4b18-a727-88dc1d4c976d","ios":"levelo://app?vid=82c6eebf-0519-4b18-a727-88dc1d4c976d"},"vehicle_type_id":"4","last_reported":1738508950,"current_range_meters":0,"station_id":"ce4bhbp2rcd13ifvqerg","pricing_plan_id":"cebpf4jnsgd1na2vs0mg"},{"bike_id":"3ccd196e-cddd-41f1-8a25-97e7f22947f7","system_id":"levelo_inurba_marseille","lat":43.2512,"lon":5.40329,"is_reserved":false,"is_disabled":true,"rental_uris":{"android":"levelo://app?vid=3ccd196e-cddd-41f1-8a25-97e7f22947f7","ios":"levelo://app?vid=3ccd196e-cddd-41f1-8a25-97e7f22947f7"},"vehicle_type_id":"4","last_reported":1738508950,"current_range_meters":38800,"station_id":"ce4bhlh2rcd13ifvqgig","pricing_plan_id":"cebpf4jnsgd1na2vs0mg"},{"bike_id":"dc559e00-aad3-4020-8e5d-9258b20072e8","system_id":"levelo_inurba_marseille","lat":43.29024,"lon":5.38646,"is_reserved":false,"is_disabled":false,"rental_uris":{"android":"levelo://app?vid=dc559e00-aad3-4020-8e5d-9258b20072e8","ios":"levelo://app?vid=dc559e00-aad3-4020-8e5d-9258b20072e8"},"vehicle_type_id":"4","last_reported":1738508950,"current_range_meters":5600,"station_id":"ce4bh4p2rcd13ifvqe0g","pricing_plan_id":"cebpf4jnsgd1na2vs0mg"},{"bike_id":"cc0fe196-8f6f-4b15-b280-3ae8bea2f49a","system_id":"levelo_inurba_marseille","lat":43.2795,"lon":5.41067,"is_reserved":false,"is_disabled":false,"rental_uris":{"android":"levelo://app?vid=cc0fe196-8f6f-4b15-b280-3ae8bea2f49a","ios":"levelo://app?vid=cc0fe196-8f6f-4b15-b280-3ae8bea2f49a"},"vehicle_type_id":"4","last_reported":1738508950,"current_range_meters":19600,"station_id":"ce4bhnp2rcd13ifvqh0g","pricing_plan_id":"cebpf4jnsgd1na2vs0mg"},{"bike_id":"14eb7a59-9b20-4e76-b93d-5c9f392068a1","system_id":"levelo_inurba_marseille","lat":43.28142,"lon":5.42645,"is_reserved":false,"is_disabled":false,"rental_uris":{"android":"levelo://app?vid=14eb7a59-9b20-4e76-b93d-5c9f392068a1","ios":"levelo://app?vid=14eb7a59-9b20-4e76-b93d-5c9f392068a1"},"vehicle_type_id":"4","last_reported":1738508950,"current_range_meters":14800,"station_id":"ce4bhnh2rcd13ifvqgug","pricing_plan_id":"cebpf4jnsgd1na2vs0mg"},{"bike_id":"90d8247b-1174-449d-9eb0-b1f3c78024c6","system_id":"levelo_inurba_marseille","lat":43.27987,"lon":5.41673,"is_reserved":false,"is_disabled":false,"rental_uris":{"android":"levelo://app?vid=90d8247b-1174-449d-9eb0-b1f3c78024c6","ios":"levelo://app?vid=90d8247b-1174-449d-9eb0-b1f3c78024c6"},"vehicle_type_id":"4","last_reported":1738508950,"current_range_meters":28400,"station_id":"ce4bho12rcd13ifvqh1g","pricing_plan_id":"cebpf4jnsgd1na2vs0mg"},{"bike_id":"f99e91c4-2330-4795-bfe7-3495ca9ba92c","system_id":"levelo_inurba_marseille","lat":43.28944,"lon":5.36625,"is_reserved":false,"is_disabled":true,"rental_uris":{"android":"levelo://app?vid=f99e91c4-2330-4795-bfe7-3495ca9ba92c","ios":"levelo://app?vid=f99e91c4-2330-4795-bfe7-3495ca9ba92c"},"vehicle_type_id":"4","last_reported":1738508950,"current_range_meters":28400,"station_id":"ce4bhap2rcd13ifvqek0","pricing_plan_id":"cebpf4jnsgd1na2vs0mg"},{"bike_id":"31154af0-95ae-42d2-a89e-708f9120f221","system_id":"levelo_inurba_marseille","lat":43.29004,"lon":5.35611,"is_reserved":false,"is_disabled":false,"rental_uris":{"android":"levelo://app?vid=31154af0-95ae-42d2-a89e-708f9120f221","ios":"levelo://app?vid=31154af0-95ae-42d2-a89e-708f9120f221"},"vehicle_type_id":"4","last_reported":1738508950,"current_range_meters":13600,"station_id":"ce4bhb92rcd13ifvqen0","pricing_plan_id":"cebpf4jnsgd1na2vs0mg"},{"bike_id":"bf6f6448-ac2a-4aa9-a865-7272995774af","system_id":"levelo_inurba_marseille","lat":43.33021,"lon":5.39044,"is_reserved":false,"is_disabled":false,"rental_uris":{"android":"levelo://app?vid=bf6f6448-ac2a-4aa9-a865-7272995774af","ios":"levelo://app?vid=bf6f6448-ac2a-4aa9-a865-7272995774af"},"vehicle_type_id":"4","last_reported":1738508950,"current_range_meters":38800,"station_id":"ce4bhr92rcd13ifvqhrg","pricing_plan_id":"cebpf4jnsgd1na2vs0mg"},{"bike_id":"2017d996-f52c-4584-a168-e8654a14f503","system_id":"levelo_inurba_marseille","lat":43.23956,"lon":5.36625,"is_reserved":false,"is_disabled":true,"rental_uris":{"android":"levelo://app?vid=2017d996-f52c-4584-a168-e8654a14f503","ios":"levelo://app?vid=2017d996-f52c-4584-a168-e8654a14f503"},"vehicle_type_id":"4","last_reported":1738508950,"current_range_meters":36000,"station_id":"ce4bhi12rcd13ifvqfp0","pricing_plan_id":"cebpf4jnsgd1na2vs0mg"},{"bike_id":"16bc48c6-5374-4554-a4fa-6149e05451d8","system_id":"levelo_inurba_marseille","lat":43.23185,"lon":5.39977,"is_reserved":false,"is_disabled":false,"rental_uris":{"android":"levelo://app?vid=16bc48c6-5374-4554-a4fa-6149e05451d8","ios":"levelo://app?vid=16bc48c6-5374-4554-a4fa-6149e05451d8"},"vehicle_type_id":"4","last_reported":1738508950,"current_range_meters":39200,"station_id":"ce4bhn12rcd13ifvqgqg","pricing_plan_id":"cebpf4jnsgd1na2vs0mg"},{"bike_id":"1fdb15fc-9162-41d7-addb-80ba1e14a4a4","system_id":"levelo_inurba_marseille","lat":43.28454,"lon":5.3589,"is_reserved":false,"is_disabled":false,"rental_uris":{"android":"levelo://app?vid=1fdb15fc-9162-41d7-addb-80ba1e14a4a4","ios":"levelo://app?vid=1fdb15fc-9162-41d7-addb-80ba1e14a4a4"},"vehicle_type_id":"4","last_reported":1738508950,"current_range_meters":24800,"station_id":"ce4bhah2rcd13ifvqei0","pricing_plan_id":"cebpf4jnsgd1na2vs0mg"},{"bike_id":"0ef83bbd-06ec-47f7-a25d-62aa89428599","system_id":"levelo_inurba_marseille","lat":43.25857,"lon":5.39903,"is_reserved":false,"is_disabled":false,"rental_uris":{"android":"levelo://app?vid=0ef83bbd-06ec-47f7-a25d-62aa89428599","ios":"levelo://app?vid=0ef83bbd-06ec-47f7-a25d-62aa89428599"},"vehicle_type_id":"4","last_reported":1738508950,"current_range_meters":30400,"station_id":"ce4bhl92rcd13ifvqghg","pricing_plan_id":"cebpf4jnsgd1na2vs0mg"},{"bike_id":"96cdde99-07e1-4e29-ada8-0165767ba907","system_id":"levelo_inurba_marseille","lat":43.27942,"lon":5.41011,"is_reserved":false,"is_disabled":false,"rental_uris":{"android":"levelo://app?vid=96cdde99-07e1-4e29-ada8-0165767ba907","ios":"levelo://app?vid=96cdde99-07e1-4e29-ada8-0165767ba907"},"vehicle_type_id":"4","last_reported":1738508950,"current_range_meters":9200,"station_id":"ce4bhnp2rcd13ifvqh0g","pricing_plan_id":"cebpf4jnsgd1na2vs0mg"},{"bike_id":"8344a4b9-fe19-4ccf-9e1e-c66810831c8c","system_id":"levelo_inurba_marseille","lat":43.2439,"lon":5.3707,"is_reserved":false,"is_disabled":false,"rental_uris":{"android":"levelo://app?vid=8344a4b9-fe19-4ccf-9e1e-c66810831c8c","ios":"levelo://app?vid=8344a4b9-fe19-4ccf-9e1e-c66810831c8c"},"vehicle_type_id":"4","last_reported":1738508950,"current_range_meters":11200,"station_id":"ce4bhhh2rcd13ifvqfk0","pricing_plan_id":"cebpf4jnsgd1na2vs0mg"},{"bike_id":"599639a3-7063-4c4a-afa4-daf0dc8bb854","system_id":"levelo_inurba_marseille","lat":43.29264,"lon":5.36854,"is_reserved":false,"is_disabled":false,"rental_uris":{"android":"levelo://app?vid=599639a3-7063-4c4a-afa4-daf0dc8bb854","ios":"levelo://app?vid=599639a3-7063-4c4a-afa4-daf0dc8bb854"},"vehicle_type_id":"4","last_reported":1738508950,"current_range_meters":38800,"station_id":"ce4bhbp2rcd13ifvqesg","pricing_plan_id":"cebpf4jnsgd1na2vs0mg"},{"bike_id":"b9c9228a-1d62-494b-80a7-dbffbb3390f6","system_id":"levelo_inurba_marseille","lat":43.33719,"lon":5.39178,"is_reserved":false,"is_disabled":false,"rental_uris":{"android":"levelo://app?vid=b9c9228a-1d62-494b-80a7-dbffbb3390f6","ios":"levelo://app?vid=b9c9228a-1d62-494b-80a7-dbffbb3390f6"},"vehicle_type_id":"4","last_reported":1738508950,"current_range_meters":38000,"station_id":"ce4bhr92rcd13ifvqhsg","pricing_plan_id":"cebpf4jnsgd1na2vs0mg"},{"bike_id":"2047e938-57e3-4375-958a-69a4e97a2c7d","system_id":"levelo_inurba_marseille","lat":43.23196,"lon":5.39998,"is_reserved":false,"is_disabled":true,"rental_uris":{"android":"levelo://app?vid=2047e938-57e3-4375-958a-69a4e97a2c7d","ios":"levelo://app?vid=2047e938-57e3-4375-958a-69a4e97a2c7d"},"vehicle_type_id":"4","last_reported":1738508950,"current_range_meters":6400,"station_id":"ce4bhn12rcd13ifvqgqg","pricing_plan_id":"cebpf4jnsgd1na2vs0mg"},{"bike_id":"dc816fb7-d85f-46f9-a1d1-e852310b7847","system_id":"levelo_inurba_marseille","lat":43.287273,"lon":5.381078,"is_reserved":false,"is_disabled":false,"rental_uris":{"android":"levelo://app?vid=dc816fb7-d85f-46f9-a1d1-e852310b7847","ios":"levelo://app?vid=dc816fb7-d85f-46f9-a1d1-e852310b7847"},"vehicle_type_id":"4","last_reported":1738508950,"current_range_meters":26800,"station_id":"ce4bh512rcd13ifvqe3g","pricing_plan_id":"cebpf4jnsgd1na2vs0mg"},{"bike_id":"f5e61ec0-75b4-4b6e-bb7a-c7026dc04647","system_id":"levelo_inurba_marseille","lat":43.26205,"lon":5.37445,"is_reserved":false,"is_disabled":false,"rental_uris":{"android":"levelo://app?vid=f5e61ec0-75b4-4b6e-bb7a-c7026dc04647","ios":"levelo://app?vid=f5e61ec0-75b4-4b6e-bb7a-c7026dc04647"},"vehicle_type_id":"4","last_reported":1738508950,"current_range_meters":35200,"station_id":"ce4bhgp2rcd13ifvqfc0","pricing_plan_id":"cebpf4jnsgd1na2vs0mg"},{"bike_id":"67b22a1a-ce4a-449c-aa9f-332720038f8a","system_id":"levelo_inurba_marseille","lat":43.26571,"lon":5.39017,"is_reserved":false,"is_disabled":false,"rental_uris":{"android":"levelo://app?vid=67b22a1a-ce4a-449c-aa9f-332720038f8a","ios":"levelo://app?vid=67b22a1a-ce4a-449c-aa9f-332720038f8a"},"vehicle_type_id":"4","last_reported":1738508950,"current_range_meters":33600,"station_id":"ce4bhe12rcd13ifvqf30","pricing_plan_id":"cebpf4jnsgd1na2vs0mg"},{"bike_id":"949424c7-5fec-4338-af6c-969cb20e656d","system_id":"levelo_inurba_marseille","lat":43.2929,"lon":5.37462,"is_reserved":false,"is_disabled":true,"rental_uris":{"android":"levelo://app?vid=949424c7-5fec-4338-af6c-969cb20e656d","ios":"levelo://app?vid=949424c7-5fec-4338-af6c-969cb20e656d"},"vehicle_type_id":"4","last_reported":1738508950,"current_range_meters":400,"station_id":"ce4bgi12rcd13ifvqb70","pricing_plan_id":"cebpf4jnsgd1na2vs0mg"},{"bike_id":"60773272-8fb8-4a94-ace6-6e2c8f464b5d","system_id":"levelo_inurba_marseille","lat":43.29926,"lon":5.36521,"is_reserved":false,"is_disabled":false,"rental_uris":{"android":"levelo://app?vid=60773272-8fb8-4a94-ace6-6e2c8f464b5d","ios":"levelo://app?vid=60773272-8fb8-4a94-ace6-6e2c8f464b5d"},"vehicle_type_id":"4","last_reported":1738508950,"current_range_meters":30800,"station_id":"ce4bgm92rcd13ifvqbr0","pricing_plan_id":"cebpf4jnsgd1na2vs0mg"},{"bike_id":"849d8071-728e-49ed-929d-d6a6973cbecf","system_id":"levelo_inurba_marseille","lat":43.30927,"lon":5.40162,"is_reserved":false,"is_disabled":false,"rental_uris":{"android":"levelo://app?vid=849d8071-728e-49ed-929d-d6a6973cbecf","ios":"levelo://app?vid=849d8071-728e-49ed-929d-d6a6973cbecf"},"vehicle_type_id":"4","last_reported":1738508950,"current_range_meters":16800,"station_id":"ce4bgvp2rcd13ifvqct0","pricing_plan_id":"cebpf4jnsgd1na2vs0mg"},{"bike_id":"1f7344e2-8691-480d-8878-22054b218930","system_id":"levelo_inurba_marseille","lat":43.2841,"lon":5.34974,"is_reserved":false,"is_disabled":false,"rental_uris":{"android":"levelo://app?vid=1f7344e2-8691-480d-8878-22054b218930","ios":"levelo://app?vid=1f7344e2-8691-480d-8878-22054b218930"},"vehicle_type_id":"4","last_reported":1738508950,"current_range_meters":17200,"station_id":"ce4bhbh2rcd13ifvqepg","pricing_plan_id":"cebpf4jnsgd1na2vs0mg"},{"bike_id":"39deeebf-6ddb-4486-b697-7a127dff7ee4","system_id":"levelo_inurba_marseille","lat":43.24061,"lon":5.37758,"is_reserved":false,"is_disabled":false,"rental_uris":{"android":"levelo://app?vid=39deeebf-6ddb-4486-b697-7a127dff7ee4","ios":"levelo://app?vid=39deeebf-6ddb-4486-b697-7a127dff7ee4"},"vehicle_type_id":"4","last_reported":1738508950,"current_range_meters":38800,"station_id":"ce4bhnp2rcd13ifvqgvg","pricing_plan_id":"cebpf4jnsgd1na2vs0mg"},{"bike_id":"3a60ebc0-dac7-4b3e-a8c5-4699cca32d17","system_id":"levelo_inurba_marseille","lat":43.3079,"lon":5.43515,"is_reserved":false,"is_disabled":false,"rental_uris":{"android":"levelo://app?vid=3a60ebc0-dac7-4b3e-a8c5-4699cca32d17","ios":"levelo://app?vid=3a60ebc0-dac7-4b3e-a8c5-4699cca32d17"},"vehicle_type_id":"4","last_reported":1738508950,"current_range_meters":28400,"station_id":"ce4bhph2rcd13ifvqheg","pricing_plan_id":"cebpf4jnsgd1na2vs0mg"},{"bike_id":"a818700e-3bc4-4615-87f8-824a0d6cbc28","system_id":"levelo_inurba_marseille","lat":43.32475,"lon":5.36551,"is_reserved":false,"is_disabled":false,"rental_uris":{"android":"levelo://app?vid=a818700e-3bc4-4615-87f8-824a0d6cbc28","ios":"levelo://app?vid=a818700e-3bc4-4615-87f8-824a0d6cbc28"},"vehicle_type_id":"4","last_reported":1738508950,"current_range_meters":16800,"station_id":"ce4bhs12rcd13ifvqhvg","pricing_plan_id":"cebpf4jnsgd1na2vs0mg"},{"bike_id":"5c33e9ec-ac2d-41a1-800b-dddc0d3862e2","system_id":"levelo_inurba_marseille","lat":43.30133,"lon":5.38789,"is_reserved":false,"is_disabled":true,"rental_uris":{"android":"levelo://app?vid=5c33e9ec-ac2d-41a1-800b-dddc0d3862e2","ios":"levelo://app?vid=5c33e9ec-ac2d-41a1-800b-dddc0d3862e2"},"vehicle_type_id":"4","last_reported":1738508950,"current_range_meters":28800,"station_id":"ce4bghh2rcd13ifvqb60","pricing_plan_id":"cebpf4jnsgd1na2vs0mg"},{"bike_id":"9d6a62ba-12a5-439c-ae4b-e3287b8ced29","system_id":"levelo_inurba_marseille","lat":43.27202,"lon":5.40966,"is_reserved":false,"is_disabled":false,"rental_uris":{"android":"levelo://app?vid=9d6a62ba-12a5-439c-ae4b-e3287b8ced29","ios":"levelo://app?vid=9d6a62ba-12a5-439c-ae4b-e3287b8ced29"},"vehicle_type_id":"4","last_reported":1738508950,"current_range_meters":25600,"station_id":"ce4bhl12rcd13ifvqgf0","pricing_plan_id":"cebpf4jnsgd1na2vs0mg"},{"bike_id":"55588187-a4ea-4de4-8902-f9455c40bdb2","system_id":"levelo_inurba_marseille","lat":43.32477,"lon":5.36554,"is_reserved":false,"is_disabled":false,"rental_uris":{"android":"levelo://app?vid=55588187-a4ea-4de4-8902-f9455c40bdb2","ios":"levelo://app?vid=55588187-a4ea-4de4-8902-f9455c40bdb2"},"vehicle_type_id":"4","last_reported":1738508950,"current_range_meters":16800,"station_id":"ce4bhs12rcd13ifvqhvg","pricing_plan_id":"cebpf4jnsgd1na2vs0mg"},{"bike_id":"fb2c4d40-98f1-437e-8a63-ab9665c0ff0e","system_id":"levelo_inurba_marseille","lat":43.31059,"lon":5.42201,"is_reserved":false,"is_disabled":false,"rental_uris":{"android":"levelo://app?vid=fb2c4d40-98f1-437e-8a63-ab9665c0ff0e","ios":"levelo://app?vid=fb2c4d40-98f1-437e-8a63-ab9665c0ff0e"},"vehicle_type_id":"4","last_reported":1738508950,"current_range_meters":38000,"station_id":"","pricing_plan_id":"cebpf4jnsgd1na2vs0mg"},{"bike_id":"f9a8bd69-665c-48a7-ad3c-2e9818255e07","system_id":"levelo_inurba_marseille","lat":43.32465,"lon":5.36565,"is_reserved":false,"is_disabled":false,"rental_uris":{"android":"levelo://app?vid=f9a8bd69-665c-48a7-ad3c-2e9818255e07","ios":"levelo://app?vid=f9a8bd69-665c-48a7-ad3c-2e9818255e07"},"vehicle_type_id":"4","last_reported":1738508950,"current_range_meters":36000,"station_id":"ce4bhs12rcd13ifvqhvg","pricing_plan_id":"cebpf4jnsgd1na2vs0mg"},{"bike_id":"d708aa57-14c1-4571-8f74-6f428f61853a","system_id":"levelo_inurba_marseille","lat":43.2985,"lon":5.36296,"is_reserved":false,"is_disabled":false,"rental_uris":{"android":"levelo://app?vid=d708aa57-14c1-4571-8f74-6f428f61853a","ios":"levelo://app?vid=d708aa57-14c1-4571-8f74-6f428f61853a"},"vehicle_type_id":"4","last_reported":1738508950,"current_range_meters":27600,"station_id":"ce4bgpp2rcd13ifvqc3g","pricing_plan_id":"cebpf4jnsgd1na2vs0mg"},{"bike_id":"2abf2e04-64f9-454a-a5ce-482f321c0fbc","system_id":"levelo_inurba_marseille","lat":43.296239,"lon":5.377045,"is_reserved":false,"is_disabled":true,"rental_uris":{"android":"levelo://app?vid=2abf2e04-64f9-454a-a5ce-482f321c0fbc","ios":"levelo://app?vid=2abf2e04-64f9-454a-a5ce-482f321c0fbc"},"vehicle_type_id":"4","last_reported":1738508950,"current_range_meters":0,"station_id":"","pricing_plan_id":"cebpf4jnsgd1na2vs0mg"},{"bike_id":"8b830cc9-4663-4876-bc11-d7cea247ffcc","system_id":"levelo_inurba_marseille","lat":43.32366,"lon":5.38879,"is_reserved":false,"is_disabled":false,"rental_uris":{"android":"levelo://app?vid=8b830cc9-4663-4876-bc11-d7cea247ffcc","ios":"levelo://app?vid=8b830cc9-4663-4876-bc11-d7cea247ffcc"},"vehicle_type_id":"4","last_reported":1738508950,"current_range_meters":16800,"station_id":"ce4bhqp2rcd13ifvqhog","pricing_plan_id":"cebpf4jnsgd1na2vs0mg"},{"bike_id":"ab2c796a-c23b-4a3a-9534-777b873d6a05","system_id":"levelo_inurba_marseille","lat":43.24167,"lon":5.364,"is_reserved":false,"is_disabled":false,"rental_uris":{"android":"levelo://app?vid=ab2c796a-c23b-4a3a-9534-777b873d6a05","ios":"levelo://app?vid=ab2c796a-c23b-4a3a-9534-777b873d6a05"},"vehicle_type_id":"4","last_reported":1738508950,"current_range_meters":28400,"station_id":"cpo36qri1sfpv3e86is0","pricing_plan_id":"cebpf4jnsgd1na2vs0mg"},{"bike_id":"7425f960-9d6f-463d-9f22-8efe90f42224","system_id":"levelo_inurba_marseille","lat":43.28481,"lon":5.38427,"is_reserved":false,"is_disabled":true,"rental_uris":{"android":"levelo://app?vid=7425f960-9d6f-463d-9f22-8efe90f42224","ios":"levelo://app?vid=7425f960-9d6f-463d-9f22-8efe90f42224"},"vehicle_type_id":"4","last_reported":1738508950,"current_range_meters":0,"station_id":"ce4bh512rcd13ifvqe3g","pricing_plan_id":"cebpf4jnsgd1na2vs0mg"},{"bike_id":"dc1d93f0-8070-4816-adf4-81a36b2979e4","system_id":"levelo_inurba_marseille","lat":43.31291,"lon":5.36804,"is_reserved":false,"is_disabled":false,"rental_uris":{"android":"levelo://app?vid=dc1d93f0-8070-4816-adf4-81a36b2979e4","ios":"levelo://app?vid=dc1d93f0-8070-4816-adf4-81a36b2979e4"},"vehicle_type_id":"4","last_reported":1738508950,"current_range_meters":35200,"station_id":"","pricing_plan_id":"cebpf4jnsgd1na2vs0mg"},{"bike_id":"5828b83b-f7c6-4d80-a783-c5c9cb673d67","system_id":"levelo_inurba_marseille","lat":43.30138,"lon":5.37419,"is_reserved":false,"is_disabled":false,"rental_uris":{"android":"levelo://app?vid=5828b83b-f7c6-4d80-a783-c5c9cb673d67","ios":"levelo://app?vid=5828b83b-f7c6-4d80-a783-c5c9cb673d67"},"vehicle_type_id":"4","last_reported":1738508950,"current_range_meters":38800,"station_id":"ce4bgs92rcd13ifvqcc0","pricing_plan_id":"cebpf4jnsgd1na2vs0mg"},{"bike_id":"58feef8f-17b5-470d-8151-c7a13f0dbe24","system_id":"levelo_inurba_marseille","lat":43.28414,"lon":5.37528,"is_reserved":false,"is_disabled":true,"rental_uris":{"android":"levelo://app?vid=58feef8f-17b5-470d-8151-c7a13f0dbe24","ios":"levelo://app?vid=58feef8f-17b5-470d-8151-c7a13f0dbe24"},"vehicle_type_id":"4","last_reported":1738508950,"current_range_meters":0,"station_id":"ce4bh412rcd13ifvqds0","pricing_plan_id":"cebpf4jnsgd1na2vs0mg"},{"bike_id":"355f1236-6cb8-4d5a-975c-305fc24b7d20","system_id":"levelo_inurba_marseille","lat":43.29959,"lon":5.38495,"is_reserved":false,"is_disabled":false,"rental_uris":{"android":"levelo://app?vid=355f1236-6cb8-4d5a-975c-305fc24b7d20","ios":"levelo://app?vid=355f1236-6cb8-4d5a-975c-305fc24b7d20"},"vehicle_type_id":"4","last_reported":1738508950,"current_range_meters":33200,"station_id":"ce4bgj92rcd13ifvqbd0","pricing_plan_id":"cebpf4jnsgd1na2vs0mg"},{"bike_id":"c098c1fe-1a19-4fbd-8d1b-88b207b14904","system_id":"levelo_inurba_marseille","lat":43.28417,"lon":5.35002,"is_reserved":false,"is_disabled":false,"rental_uris":{"android":"levelo://app?vid=c098c1fe-1a19-4fbd-8d1b-88b207b14904","ios":"levelo://app?vid=c098c1fe-1a19-4fbd-8d1b-88b207b14904"},"vehicle_type_id":"4","last_reported":1738508950,"current_range_meters":23200,"station_id":"ce4bhbh2rcd13ifvqepg","pricing_plan_id":"cebpf4jnsgd1na2vs0mg"},{"bike_id":"093047df-d31f-4dd1-b166-48b1654b8375","system_id":"levelo_inurba_marseille","lat":43.24651,"lon":5.38186,"is_reserved":false,"is_disabled":false,"rental_uris":{"android":"levelo://app?vid=093047df-d31f-4dd1-b166-48b1654b8375","ios":"levelo://app?vid=093047df-d31f-4dd1-b166-48b1654b8375"},"vehicle_type_id":"4","last_reported":1738508950,"current_range_meters":28800,"station_id":"ce4bhih2rcd13ifvqfr0","pricing_plan_id":"cebpf4jnsgd1na2vs0mg"},{"bike_id":"e91ad5d9-e7e7-46c0-b582-3c39abb7cb1c","system_id":"levelo_inurba_marseille","lat":43.25116,"lon":5.40324,"is_reserved":false,"is_disabled":false,"rental_uris":{"android":"levelo://app?vid=e91ad5d9-e7e7-46c0-b582-3c39abb7cb1c","ios":"levelo://app?vid=e91ad5d9-e7e7-46c0-b582-3c39abb7cb1c"},"vehicle_type_id":"4","last_reported":1738508950,"current_range_meters":26800,"station_id":"ce4bhlh2rcd13ifvqgig","pricing_plan_id":"cebpf4jnsgd1na2vs0mg"},{"bike_id":"b69743c2-b22e-4135-9a55-ab7140ba08d5","system_id":"levelo_inurba_marseille","lat":43.2861,"lon":5.35114,"is_reserved":false,"is_disabled":true,"rental_uris":{"android":"levelo://app?vid=b69743c2-b22e-4135-9a55-ab7140ba08d5","ios":"levelo://app?vid=b69743c2-b22e-4135-9a55-ab7140ba08d5"},"vehicle_type_id":"4","last_reported":1738508950,"current_range_meters":34000,"station_id":"ce4bhch2rcd13ifvqeug","pricing_plan_id":"cebpf4jnsgd1na2vs0mg"},{"bike_id":"f85aba39-8a5f-4b9b-ae02-5805e5d5b06e","system_id":"levelo_inurba_marseille","lat":43.23052,"lon":5.35497,"is_reserved":false,"is_disabled":false,"rental_uris":{"android":"levelo://app?vid=f85aba39-8a5f-4b9b-ae02-5805e5d5b06e","ios":"levelo://app?vid=f85aba39-8a5f-4b9b-ae02-5805e5d5b06e"},"vehicle_type_id":"4","last_reported":1738508950,"current_range_meters":8400,"station_id":"cpo3342slgdg3j2ifvpg","pricing_plan_id":"cebpf4jnsgd1na2vs0mg"},{"bike_id":"e1d4a2f1-c484-42e0-9232-e98e59dd1624","system_id":"levelo_inurba_marseille","lat":43.29026,"lon":5.38642,"is_reserved":false,"is_disabled":true,"rental_uris":{"android":"levelo://app?vid=e1d4a2f1-c484-42e0-9232-e98e59dd1624","ios":"levelo://app?vid=e1d4a2f1-c484-42e0-9232-e98e59dd1624"},"vehicle_type_id":"4","last_reported":1738508950,"current_range_meters":38000,"station_id":"ce4bh4p2rcd13ifvqe0g","pricing_plan_id":"cebpf4jnsgd1na2vs0mg"},{"bike_id":"f5192a48-f127-416f-ac25-5dcd6cb43014","system_id":"levelo_inurba_marseille","lat":43.310809,"lon":5.424321,"is_reserved":false,"is_disabled":false,"rental_uris":{"android":"levelo://app?vid=f5192a48-f127-416f-ac25-5dcd6cb43014","ios":"levelo://app?vid=f5192a48-f127-416f-ac25-5dcd6cb43014"},"vehicle_type_id":"4","last_reported":1738508950,"current_range_meters":33600,"station_id":"ce4bhp92rcd13ifvqhag","pricing_plan_id":"cebpf4jnsgd1na2vs0mg"},{"bike_id":"e8e1f7c6-d773-4c38-bfcc-4a6d773355ce","system_id":"levelo_inurba_marseille","lat":43.22933,"lon":5.35378,"is_reserved":false,"is_disabled":false,"rental_uris":{"android":"levelo://app?vid=e8e1f7c6-d773-4c38-bfcc-4a6d773355ce","ios":"levelo://app?vid=e8e1f7c6-d773-4c38-bfcc-4a6d773355ce"},"vehicle_type_id":"4","last_reported":1738508950,"current_range_meters":39200,"station_id":"cpo3532slgdg3j2ikp40","pricing_plan_id":"cebpf4jnsgd1na2vs0mg"},{"bike_id":"31e4f8be-96f3-4e8c-a8a9-1da905f247b4","system_id":"levelo_inurba_marseille","lat":43.29446,"lon":5.39743,"is_reserved":false,"is_disabled":false,"rental_uris":{"android":"levelo://app?vid=31e4f8be-96f3-4e8c-a8a9-1da905f247b4","ios":"levelo://app?vid=31e4f8be-96f3-4e8c-a8a9-1da905f247b4"},"vehicle_type_id":"4","last_reported":1738508950,"current_range_meters":6400,"station_id":"ce4bh3h2rcd13ifvqdo0","pricing_plan_id":"cebpf4jnsgd1na2vs0mg"},{"bike_id":"6163803b-f9f9-4d78-8e46-cccaf7d870f1","system_id":"levelo_inurba_marseille","lat":43.28259,"lon":5.35065,"is_reserved":false,"is_disabled":false,"rental_uris":{"android":"levelo://app?vid=6163803b-f9f9-4d78-8e46-cccaf7d870f1","ios":"levelo://app?vid=6163803b-f9f9-4d78-8e46-cccaf7d870f1"},"vehicle_type_id":"4","last_reported":1738508950,"current_range_meters":38800,"station_id":"ce4bhbp2rcd13ifvqerg","pricing_plan_id":"cebpf4jnsgd1na2vs0mg"},{"bike_id":"02b2bb89-f7bf-489a-903d-e9038c5d9090","system_id":"levelo_inurba_marseille","lat":43.29248,"lon":5.38444,"is_reserved":false,"is_disabled":true,"rental_uris":{"android":"levelo://app?vid=02b2bb89-f7bf-489a-903d-e9038c5d9090","ios":"levelo://app?vid=02b2bb89-f7bf-489a-903d-e9038c5d9090"},"vehicle_type_id":"4","last_reported":1738508950,"current_range_meters":30000,"station_id":"ce4bh692rcd13ifvqea0","pricing_plan_id":"cebpf4jnsgd1na2vs0mg"},{"bike_id":"6d8d7d5f-bcf3-4645-9619-220b98c5dc26","system_id":"levelo_inurba_marseille","lat":43.28161,"lon":5.42629,"is_reserved":false,"is_disabled":false,"rental_uris":{"android":"levelo://app?vid=6d8d7d5f-bcf3-4645-9619-220b98c5dc26","ios":"levelo://app?vid=6d8d7d5f-bcf3-4645-9619-220b98c5dc26"},"vehicle_type_id":"4","last_reported":1738508950,"current_range_meters":17600,"station_id":"ce4bhnh2rcd13ifvqgug","pricing_plan_id":"cebpf4jnsgd1na2vs0mg"},{"bike_id":"d78b1979-29d0-44ad-a086-445f24e03eb6","system_id":"levelo_inurba_marseille","lat":43.24168,"lon":5.3639,"is_reserved":false,"is_disabled":false,"rental_uris":{"android":"levelo://app?vid=d78b1979-29d0-44ad-a086-445f24e03eb6","ios":"levelo://app?vid=d78b1979-29d0-44ad-a086-445f24e03eb6"},"vehicle_type_id":"4","last_reported":1738508950,"current_range_meters":26800,"station_id":"cpo36qri1sfpv3e86is0","pricing_plan_id":"cebpf4jnsgd1na2vs0mg"},{"bike_id":"995fc9c5-9cc3-404c-bd94-5898daf1a360","system_id":"levelo_inurba_marseille","lat":43.30913,"lon":5.36854,"is_reserved":false,"is_disabled":true,"rental_uris":{"android":"levelo://app?vid=995fc9c5-9cc3-404c-bd94-5898daf1a360","ios":"levelo://app?vid=995fc9c5-9cc3-404c-bd94-5898daf1a360"},"vehicle_type_id":"4","last_reported":1738508950,"current_range_meters":33600,"station_id":"ce4bgn92rcd13ifvqbvg","pricing_plan_id":"cebpf4jnsgd1na2vs0mg"},{"bike_id":"bed8df55-8232-4631-b910-a7e6e5f8c113","system_id":"levelo_inurba_marseille","lat":43.26931,"lon":5.40234,"is_reserved":false,"is_disabled":false,"rental_uris":{"android":"levelo://app?vid=bed8df55-8232-4631-b910-a7e6e5f8c113","ios":"levelo://app?vid=bed8df55-8232-4631-b910-a7e6e5f8c113"},"vehicle_type_id":"4","last_reported":1738508950,"current_range_meters":22000,"station_id":"cjm6bp8fraef2m0cb0m0","pricing_plan_id":"cebpf4jnsgd1na2vs0mg"},{"bike_id":"16184a9a-984c-4249-8b1e-87cc3ab1aa12","system_id":"levelo_inurba_marseille","lat":43.29202,"lon":5.35795,"is_reserved":false,"is_disabled":false,"rental_uris":{"android":"levelo://app?vid=16184a9a-984c-4249-8b1e-87cc3ab1aa12","ios":"levelo://app?vid=16184a9a-984c-4249-8b1e-87cc3ab1aa12"},"vehicle_type_id":"4","last_reported":1738508950,"current_range_meters":39200,"station_id":"ce4bhb12rcd13ifvqel0","pricing_plan_id":"cebpf4jnsgd1na2vs0mg"},{"bike_id":"7095d643-c88c-4380-b0d5-45028aa7507f","system_id":"levelo_inurba_marseille","lat":43.24666,"lon":5.3889,"is_reserved":false,"is_disabled":false,"rental_uris":{"android":"levelo://app?vid=7095d643-c88c-4380-b0d5-45028aa7507f","ios":"levelo://app?vid=7095d643-c88c-4380-b0d5-45028aa7507f"},"vehicle_type_id":"4","last_reported":1738508950,"current_range_meters":17600,"station_id":"ce4bhg12rcd13ifvqf60","pricing_plan_id":"cebpf4jnsgd1na2vs0mg"},{"bike_id":"e6434fe6-57e3-491f-8972-c564480ab37e","system_id":"levelo_inurba_marseille","lat":43.29253,"lon":5.38446,"is_reserved":false,"is_disabled":false,"rental_uris":{"android":"levelo://app?vid=e6434fe6-57e3-491f-8972-c564480ab37e","ios":"levelo://app?vid=e6434fe6-57e3-491f-8972-c564480ab37e"},"vehicle_type_id":"4","last_reported":1738508950,"current_range_meters":24400,"station_id":"ce4bh692rcd13ifvqea0","pricing_plan_id":"cebpf4jnsgd1na2vs0mg"},{"bike_id":"ddd00e95-387d-4687-9b99-27d0e7bf1447","system_id":"levelo_inurba_marseille","lat":43.296408,"lon":5.390321,"is_reserved":false,"is_disabled":true,"rental_uris":{"android":"levelo://app?vid=ddd00e95-387d-4687-9b99-27d0e7bf1447","ios":"levelo://app?vid=ddd00e95-387d-4687-9b99-27d0e7bf1447"},"vehicle_type_id":"4","last_reported":1738508950,"current_range_meters":0,"station_id":"","pricing_plan_id":"cebpf4jnsgd1na2vs0mg"},{"bike_id":"1e4fb263-2fba-4f88-9b2b-9bf396bd5315","system_id":"levelo_inurba_marseille","lat":43.26037,"lon":5.3753,"is_reserved":false,"is_disabled":false,"rental_uris":{"android":"levelo://app?vid=1e4fb263-2fba-4f88-9b2b-9bf396bd5315","ios":"levelo://app?vid=1e4fb263-2fba-4f88-9b2b-9bf396bd5315"},"vehicle_type_id":"4","last_reported":1738508950,"current_range_meters":23200,"station_id":"ce4bhgh2rcd13ifvqfa0","pricing_plan_id":"cebpf4jnsgd1na2vs0mg"},{"bike_id":"71f34f72-d3b7-46a5-9bd4-1fe057b3152f","system_id":"levelo_inurba_marseille","lat":43.2294,"lon":5.3537,"is_reserved":false,"is_disabled":false,"rental_uris":{"android":"levelo://app?vid=71f34f72-d3b7-46a5-9bd4-1fe057b3152f","ios":"levelo://app?vid=71f34f72-d3b7-46a5-9bd4-1fe057b3152f"},"vehicle_type_id":"4","last_reported":1738508950,"current_range_meters":39200,"station_id":"cpo3532slgdg3j2ikp40","pricing_plan_id":"cebpf4jnsgd1na2vs0mg"},{"bike_id":"ba1b16dd-09e2-4536-8411-babb750bcb3c","system_id":"levelo_inurba_marseille","lat":43.23194,"lon":5.40011,"is_reserved":false,"is_disabled":true,"rental_uris":{"android":"levelo://app?vid=ba1b16dd-09e2-4536-8411-babb750bcb3c","ios":"levelo://app?vid=ba1b16dd-09e2-4536-8411-babb750bcb3c"},"vehicle_type_id":"4","last_reported":1738508950,"current_range_meters":22000,"station_id":"ce4bhn12rcd13ifvqgqg","pricing_plan_id":"cebpf4jnsgd1na2vs0mg"},{"bike_id":"20029bdd-9f9c-4ff9-86e4-5ba6ed30f46a","system_id":"levelo_inurba_marseille","lat":43.23148,"lon":5.43705,"is_reserved":false,"is_disabled":true,"rental_uris":{"android":"levelo://app?vid=20029bdd-9f9c-4ff9-86e4-5ba6ed30f46a","ios":"levelo://app?vid=20029bdd-9f9c-4ff9-86e4-5ba6ed30f46a"},"vehicle_type_id":"4","last_reported":1738508950,"current_range_meters":0,"station_id":"ce4bhmp2rcd13ifvqgog","pricing_plan_id":"cebpf4jnsgd1na2vs0mg"},{"bike_id":"b5cd905e-5e8b-44aa-a1ae-de8db3929550","system_id":"levelo_inurba_marseille","lat":43.27197,"lon":5.3919,"is_reserved":false,"is_disabled":false,"rental_uris":{"android":"levelo://app?vid=b5cd905e-5e8b-44aa-a1ae-de8db3929550","ios":"levelo://app?vid=b5cd905e-5e8b-44aa-a1ae-de8db3929550"},"vehicle_type_id":"4","last_reported":1738508950,"current_range_meters":16800,"station_id":"ce4bhhp2rcd13ifvqfm0","pricing_plan_id":"cebpf4jnsgd1na2vs0mg"},{"bike_id":"65d01550-2daa-4ae4-9b08-a4f8b2d3bcbe","system_id":"levelo_inurba_marseille","lat":43.3372,"lon":5.39188,"is_reserved":false,"is_disabled":false,"rental_uris":{"android":"levelo://app?vid=65d01550-2daa-4ae4-9b08-a4f8b2d3bcbe","ios":"levelo://app?vid=65d01550-2daa-4ae4-9b08-a4f8b2d3bcbe"},"vehicle_type_id":"4","last_reported":1738508950,"current_range_meters":10800,"station_id":"ce4bhr92rcd13ifvqhsg","pricing_plan_id":"cebpf4jnsgd1na2vs0mg"},{"bike_id":"17e6e231-64d8-408b-b398-fdfbed1a4955","system_id":"levelo_inurba_marseille","lat":43.28271,"lon":5.35078,"is_reserved":false,"is_disabled":false,"rental_uris":{"android":"levelo://app?vid=17e6e231-64d8-408b-b398-fdfbed1a4955","ios":"levelo://app?vid=17e6e231-64d8-408b-b398-fdfbed1a4955"},"vehicle_type_id":"4","last_reported":1738508950,"current_range_meters":24400,"station_id":"ce4bhbp2rcd13ifvqerg","pricing_plan_id":"cebpf4jnsgd1na2vs0mg"},{"bike_id":"5805abe4-d33a-4c57-986f-3167b5b7a28d","system_id":"levelo_inurba_marseille","lat":43.279114,"lon":5.395864,"is_reserved":false,"is_disabled":true,"rental_uris":{"android":"levelo://app?vid=5805abe4-d33a-4c57-986f-3167b5b7a28d","ios":"levelo://app?vid=5805abe4-d33a-4c57-986f-3167b5b7a28d"},"vehicle_type_id":"4","last_reported":1738508950,"current_range_meters":0,"station_id":"ce4bhf92rcd13ifvqf40","pricing_plan_id":"cebpf4jnsgd1na2vs0mg"},{"bike_id":"1ab3385b-ef01-4ed8-8984-032f740b0888","system_id":"levelo_inurba_marseille","lat":43.2606,"lon":5.39403,"is_reserved":false,"is_disabled":false,"rental_uris":{"android":"levelo://app?vid=1ab3385b-ef01-4ed8-8984-032f740b0888","ios":"levelo://app?vid=1ab3385b-ef01-4ed8-8984-032f740b0888"},"vehicle_type_id":"4","last_reported":1738508950,"current_range_meters":8000,"station_id":"ce4bhh92rcd13ifvqfj0","pricing_plan_id":"cebpf4jnsgd1na2vs0mg"},{"bike_id":"d03eb309-346f-46c1-9cac-d2de91351483","system_id":"levelo_inurba_marseille","lat":43.24726,"lon":5.38101,"is_reserved":false,"is_disabled":false,"rental_uris":{"android":"levelo://app?vid=d03eb309-346f-46c1-9cac-d2de91351483","ios":"levelo://app?vid=d03eb309-346f-46c1-9cac-d2de91351483"},"vehicle_type_id":"4","last_reported":1738508950,"current_range_meters":38000,"station_id":"ce4bhih2rcd13ifvqfr0","pricing_plan_id":"cebpf4jnsgd1na2vs0mg"},{"bike_id":"491407c5-a175-44f0-86fc-0f4ccadf82e3","system_id":"levelo_inurba_marseille","lat":43.337444,"lon":5.374475,"is_reserved":false,"is_disabled":true,"rental_uris":{"android":"levelo://app?vid=491407c5-a175-44f0-86fc-0f4ccadf82e3","ios":"levelo://app?vid=491407c5-a175-44f0-86fc-0f4ccadf82e3"},"vehicle_type_id":"4","last_reported":1738508950,"current_range_meters":0,"station_id":"","pricing_plan_id":"cebpf4jnsgd1na2vs0mg"},{"bike_id":"acb4c6cc-f34e-4c23-bad1-1a3ddef22e61","system_id":"levelo_inurba_marseille","lat":43.31083,"lon":5.42432,"is_reserved":false,"is_disabled":false,"rental_uris":{"android":"levelo://app?vid=acb4c6cc-f34e-4c23-bad1-1a3ddef22e61","ios":"levelo://app?vid=acb4c6cc-f34e-4c23-bad1-1a3ddef22e61"},"vehicle_type_id":"4","last_reported":1738508950,"current_range_meters":30400,"station_id":"ce4bhp92rcd13ifvqhag","pricing_plan_id":"cebpf4jnsgd1na2vs0mg"},{"bike_id":"1378643c-565d-4955-a191-2b018f9dd2eb","system_id":"levelo_inurba_marseille","lat":43.30392,"lon":5.37075,"is_reserved":false,"is_disabled":false,"rental_uris":{"android":"levelo://app?vid=1378643c-565d-4955-a191-2b018f9dd2eb","ios":"levelo://app?vid=1378643c-565d-4955-a191-2b018f9dd2eb"},"vehicle_type_id":"4","last_reported":1738508950,"current_range_meters":26800,"station_id":"","pricing_plan_id":"cebpf4jnsgd1na2vs0mg"},{"bike_id":"4a7af680-8a77-45cb-85cc-9f0a7f33be68","system_id":"levelo_inurba_marseille","lat":43.29816,"lon":5.404273,"is_reserved":false,"is_disabled":true,"rental_uris":{"android":"levelo://app?vid=4a7af680-8a77-45cb-85cc-9f0a7f33be68","ios":"levelo://app?vid=4a7af680-8a77-45cb-85cc-9f0a7f33be68"},"vehicle_type_id":"4","last_reported":1738508950,"current_range_meters":26800,"station_id":"ce4bh112rcd13ifvqd90","pricing_plan_id":"cebpf4jnsgd1na2vs0mg"},{"bike_id":"4f4fbe48-e8a3-4939-bb62-b6f3e6292288","system_id":"levelo_inurba_marseille","lat":43.26193,"lon":5.37456,"is_reserved":false,"is_disabled":true,"rental_uris":{"android":"levelo://app?vid=4f4fbe48-e8a3-4939-bb62-b6f3e6292288","ios":"levelo://app?vid=4f4fbe48-e8a3-4939-bb62-b6f3e6292288"},"vehicle_type_id":"4","last_reported":1738508950,"current_range_meters":2000,"station_id":"ce4bhgp2rcd13ifvqfc0","pricing_plan_id":"cebpf4jnsgd1na2vs0mg"},{"bike_id":"249b7b60-8305-4794-bc88-bf145ce1b67c","system_id":"levelo_inurba_marseille","lat":43.23197,"lon":5.39964,"is_reserved":false,"is_disabled":false,"rental_uris":{"android":"levelo://app?vid=249b7b60-8305-4794-bc88-bf145ce1b67c","ios":"levelo://app?vid=249b7b60-8305-4794-bc88-bf145ce1b67c"},"vehicle_type_id":"4","last_reported":1738508950,"current_range_meters":38000,"station_id":"ce4bhn12rcd13ifvqgqg","pricing_plan_id":"cebpf4jnsgd1na2vs0mg"},{"bike_id":"0b439ceb-bbef-470b-b522-3e20f798d948","system_id":"levelo_inurba_marseille","lat":43.29087,"lon":5.38136,"is_reserved":false,"is_disabled":true,"rental_uris":{"android":"levelo://app?vid=0b439ceb-bbef-470b-b522-3e20f798d948","ios":"levelo://app?vid=0b439ceb-bbef-470b-b522-3e20f798d948"},"vehicle_type_id":"4","last_reported":1738508950,"current_range_meters":17200,"station_id":"ce4bh512rcd13ifvqe2g","pricing_plan_id":"cebpf4jnsgd1na2vs0mg"},{"bike_id":"528fe304-774b-4f5e-99b0-3a6df52f7bd5","system_id":"levelo_inurba_marseille","lat":43.26675,"lon":5.38254,"is_reserved":false,"is_disabled":false,"rental_uris":{"android":"levelo://app?vid=528fe304-774b-4f5e-99b0-3a6df52f7bd5","ios":"levelo://app?vid=528fe304-774b-4f5e-99b0-3a6df52f7bd5"},"vehicle_type_id":"4","last_reported":1738508950,"current_range_meters":14800,"station_id":"ce4bhg92rcd13ifvqf90","pricing_plan_id":"cebpf4jnsgd1na2vs0mg"},{"bike_id":"693a29bd-5ac5-4712-a645-e5d8a8553060","system_id":"levelo_inurba_marseille","lat":43.29565,"lon":5.39989,"is_reserved":false,"is_disabled":true,"rental_uris":{"android":"levelo://app?vid=693a29bd-5ac5-4712-a645-e5d8a8553060","ios":"levelo://app?vid=693a29bd-5ac5-4712-a645-e5d8a8553060"},"vehicle_type_id":"4","last_reported":1738508950,"current_range_meters":38800,"station_id":"ce4bh312rcd13ifvqdj0","pricing_plan_id":"cebpf4jnsgd1na2vs0mg"},{"bike_id":"246cfd69-3f92-4e90-aa97-e3988a738d3e","system_id":"levelo_inurba_marseille","lat":43.2867,"lon":5.38646,"is_reserved":false,"is_disabled":true,"rental_uris":{"android":"levelo://app?vid=246cfd69-3f92-4e90-aa97-e3988a738d3e","ios":"levelo://app?vid=246cfd69-3f92-4e90-aa97-e3988a738d3e"},"vehicle_type_id":"4","last_reported":1738508950,"current_range_meters":30400,"station_id":"ce4bh492rcd13ifvqdug","pricing_plan_id":"cebpf4jnsgd1na2vs0mg"},{"bike_id":"f38a9b51-7bc8-4445-89b3-2095fb6b771f","system_id":"levelo_inurba_marseille","lat":43.28701,"lon":5.37406,"is_reserved":false,"is_disabled":true,"rental_uris":{"android":"levelo://app?vid=f38a9b51-7bc8-4445-89b3-2095fb6b771f","ios":"levelo://app?vid=f38a9b51-7bc8-4445-89b3-2095fb6b771f"},"vehicle_type_id":"4","last_reported":1738508950,"current_range_meters":23200,"station_id":"ce4bh3p2rcd13ifvqdq0","pricing_plan_id":"cebpf4jnsgd1na2vs0mg"},{"bike_id":"6a70ca64-4a49-4ff2-abb0-2e616a3803cb","system_id":"levelo_inurba_marseille","lat":43.29938,"lon":5.36544,"is_reserved":false,"is_disabled":false,"rental_uris":{"android":"levelo://app?vid=6a70ca64-4a49-4ff2-abb0-2e616a3803cb","ios":"levelo://app?vid=6a70ca64-4a49-4ff2-abb0-2e616a3803cb"},"vehicle_type_id":"4","last_reported":1738508950,"current_range_meters":36800,"station_id":"ce4bgm92rcd13ifvqbr0","pricing_plan_id":"cebpf4jnsgd1na2vs0mg"},{"bike_id":"280a6fd2-e02b-4f1f-b76f-c469c57691c3","system_id":"levelo_inurba_marseille","lat":43.27974,"lon":5.39969,"is_reserved":false,"is_disabled":false,"rental_uris":{"android":"levelo://app?vid=280a6fd2-e02b-4f1f-b76f-c469c57691c3","ios":"levelo://app?vid=280a6fd2-e02b-4f1f-b76f-c469c57691c3"},"vehicle_type_id":"4","last_reported":1738508950,"current_range_meters":30800,"station_id":"ce4bho92rcd13ifvqh4g","pricing_plan_id":"cebpf4jnsgd1na2vs0mg"},{"bike_id":"08329cc2-38ab-45db-9f0e-c6098c68dd29","system_id":"levelo_inurba_marseille","lat":43.30143,"lon":5.37422,"is_reserved":false,"is_disabled":false,"rental_uris":{"android":"levelo://app?vid=08329cc2-38ab-45db-9f0e-c6098c68dd29","ios":"levelo://app?vid=08329cc2-38ab-45db-9f0e-c6098c68dd29"},"vehicle_type_id":"4","last_reported":1738508950,"current_range_meters":28400,"station_id":"ce4bgs92rcd13ifvqcc0","pricing_plan_id":"cebpf4jnsgd1na2vs0mg"},{"bike_id":"8dbfbb47-42ba-4026-a62b-f966c7c4cd18","system_id":"levelo_inurba_marseille","lat":43.30316,"lon":5.40433,"is_reserved":false,"is_disabled":false,"rental_uris":{"android":"levelo://app?vid=8dbfbb47-42ba-4026-a62b-f966c7c4cd18","ios":"levelo://app?vid=8dbfbb47-42ba-4026-a62b-f966c7c4cd18"},"vehicle_type_id":"4","last_reported":1738508950,"current_range_meters":28400,"station_id":"ce4bh012rcd13ifvqd10","pricing_plan_id":"cebpf4jnsgd1na2vs0mg"},{"bike_id":"08b70889-a1d8-49e7-8651-9f01ab5163be","system_id":"levelo_inurba_marseille","lat":43.31884,"lon":5.40737,"is_reserved":false,"is_disabled":false,"rental_uris":{"android":"levelo://app?vid=08b70889-a1d8-49e7-8651-9f01ab5163be","ios":"levelo://app?vid=08b70889-a1d8-49e7-8651-9f01ab5163be"},"vehicle_type_id":"4","last_reported":1738508950,"current_range_meters":38000,"station_id":"ce4bhq12rcd13ifvqhig","pricing_plan_id":"cebpf4jnsgd1na2vs0mg"},{"bike_id":"dff2410f-4af5-4630-b92e-ba7b2cac4e8c","system_id":"levelo_inurba_marseille","lat":43.28153,"lon":5.42629,"is_reserved":false,"is_disabled":false,"rental_uris":{"android":"levelo://app?vid=dff2410f-4af5-4630-b92e-ba7b2cac4e8c","ios":"levelo://app?vid=dff2410f-4af5-4630-b92e-ba7b2cac4e8c"},"vehicle_type_id":"4","last_reported":1738508950,"current_range_meters":32400,"station_id":"ce4bhnh2rcd13ifvqgug","pricing_plan_id":"cebpf4jnsgd1na2vs0mg"},{"bike_id":"3fe7c8e9-a6cd-4521-ad60-e1fd80c0d910","system_id":"levelo_inurba_marseille","lat":43.31223,"lon":5.36856,"is_reserved":false,"is_disabled":false,"rental_uris":{"android":"levelo://app?vid=3fe7c8e9-a6cd-4521-ad60-e1fd80c0d910","ios":"levelo://app?vid=3fe7c8e9-a6cd-4521-ad60-e1fd80c0d910"},"vehicle_type_id":"4","last_reported":1738508950,"current_range_meters":13600,"station_id":"ce4bgl92rcd13ifvqbq0","pricing_plan_id":"cebpf4jnsgd1na2vs0mg"},{"bike_id":"d9126208-a94f-4ba3-9c33-6f92966f1831","system_id":"levelo_inurba_marseille","lat":43.25486,"lon":5.37658,"is_reserved":false,"is_disabled":false,"rental_uris":{"android":"levelo://app?vid=d9126208-a94f-4ba3-9c33-6f92966f1831","ios":"levelo://app?vid=d9126208-a94f-4ba3-9c33-6f92966f1831"},"vehicle_type_id":"4","last_reported":1738508950,"current_range_meters":2800,"station_id":"ce4bhh12rcd13ifvqff0","pricing_plan_id":"cebpf4jnsgd1na2vs0mg"},{"bike_id":"ff352fab-4665-450b-9e8c-472e19204552","system_id":"levelo_inurba_marseille","lat":43.25523,"lon":5.3763,"is_reserved":false,"is_disabled":false,"rental_uris":{"android":"levelo://app?vid=ff352fab-4665-450b-9e8c-472e19204552","ios":"levelo://app?vid=ff352fab-4665-450b-9e8c-472e19204552"},"vehicle_type_id":"4","last_reported":1738508950,"current_range_meters":38400,"station_id":"ce4bhh12rcd13ifvqff0","pricing_plan_id":"cebpf4jnsgd1na2vs0mg"},{"bike_id":"52f26966-645f-4f42-b162-460212bf28de","system_id":"levelo_inurba_marseille","lat":43.30542,"lon":5.36552,"is_reserved":false,"is_disabled":false,"rental_uris":{"android":"levelo://app?vid=52f26966-645f-4f42-b162-460212bf28de","ios":"levelo://app?vid=52f26966-645f-4f42-b162-460212bf28de"},"vehicle_type_id":"4","last_reported":1738508950,"current_range_meters":27600,"station_id":"ce4bgs12rcd13ifvqcag","pricing_plan_id":"cebpf4jnsgd1na2vs0mg"},{"bike_id":"d09d62fd-188d-44eb-8466-0b8d1d1105f2","system_id":"levelo_inurba_marseille","lat":43.23964,"lon":5.36626,"is_reserved":false,"is_disabled":true,"rental_uris":{"android":"levelo://app?vid=d09d62fd-188d-44eb-8466-0b8d1d1105f2","ios":"levelo://app?vid=d09d62fd-188d-44eb-8466-0b8d1d1105f2"},"vehicle_type_id":"4","last_reported":1738508950,"current_range_meters":1200,"station_id":"ce4bhi12rcd13ifvqfp0","pricing_plan_id":"cebpf4jnsgd1na2vs0mg"},{"bike_id":"9c23010f-a17a-4221-9608-c490959ff9da","system_id":"levelo_inurba_marseille","lat":43.3059,"lon":5.39354,"is_reserved":false,"is_disabled":false,"rental_uris":{"android":"levelo://app?vid=9c23010f-a17a-4221-9608-c490959ff9da","ios":"levelo://app?vid=9c23010f-a17a-4221-9608-c490959ff9da"},"vehicle_type_id":"4","last_reported":1738508950,"current_range_meters":26000,"station_id":"ce4bh0p2rcd13ifvqd80","pricing_plan_id":"cebpf4jnsgd1na2vs0mg"},{"bike_id":"1f4e4183-ba38-4674-b19d-0c758736fe8e","system_id":"levelo_inurba_marseille","lat":43.25085,"lon":5.39512,"is_reserved":false,"is_disabled":false,"rental_uris":{"android":"levelo://app?vid=1f4e4183-ba38-4674-b19d-0c758736fe8e","ios":"levelo://app?vid=1f4e4183-ba38-4674-b19d-0c758736fe8e"},"vehicle_type_id":"4","last_reported":1738508950,"current_range_meters":24800,"station_id":"ce4bhm12rcd13ifvqgkg","pricing_plan_id":"cebpf4jnsgd1na2vs0mg"},{"bike_id":"263679ca-908e-467f-a828-ca0277250fb5","system_id":"levelo_inurba_marseille","lat":43.27373,"lon":5.36256,"is_reserved":false,"is_disabled":false,"rental_uris":{"android":"levelo://app?vid=263679ca-908e-467f-a828-ca0277250fb5","ios":"levelo://app?vid=263679ca-908e-467f-a828-ca0277250fb5"},"vehicle_type_id":"4","last_reported":1738508950,"current_range_meters":39200,"station_id":"ce4bhbh2rcd13ifvqeo0","pricing_plan_id":"cebpf4jnsgd1na2vs0mg"},{"bike_id":"fb4cc7a8-e961-4995-96e8-4cbd01ddee0f","system_id":"levelo_inurba_marseille","lat":43.30297,"lon":5.39211,"is_reserved":false,"is_disabled":true,"rental_uris":{"android":"levelo://app?vid=fb4cc7a8-e961-4995-96e8-4cbd01ddee0f","ios":"levelo://app?vid=fb4cc7a8-e961-4995-96e8-4cbd01ddee0f"},"vehicle_type_id":"4","last_reported":1738508950,"current_range_meters":6400,"station_id":"ce4bgkh2rcd13ifvqbk0","pricing_plan_id":"cebpf4jnsgd1na2vs0mg"},{"bike_id":"e19c68f0-a9ba-427c-a04b-633b5f2f0a30","system_id":"levelo_inurba_marseille","lat":43.31222,"lon":5.36854,"is_reserved":false,"is_disabled":true,"rental_uris":{"android":"levelo://app?vid=e19c68f0-a9ba-427c-a04b-633b5f2f0a30","ios":"levelo://app?vid=e19c68f0-a9ba-427c-a04b-633b5f2f0a30"},"vehicle_type_id":"4","last_reported":1738508950,"current_range_meters":1600,"station_id":"ce4bgl92rcd13ifvqbq0","pricing_plan_id":"cebpf4jnsgd1na2vs0mg"},{"bike_id":"a895efa9-50aa-435c-91d1-c119eaf59a54","system_id":"levelo_inurba_marseille","lat":43.26491,"lon":5.39552,"is_reserved":false,"is_disabled":false,"rental_uris":{"android":"levelo://app?vid=a895efa9-50aa-435c-91d1-c119eaf59a54","ios":"levelo://app?vid=a895efa9-50aa-435c-91d1-c119eaf59a54"},"vehicle_type_id":"4","last_reported":1738508950,"current_range_meters":30400,"station_id":"ce4bhi12rcd13ifvqfq0","pricing_plan_id":"cebpf4jnsgd1na2vs0mg"},{"bike_id":"8e104399-aef2-4f9b-ac7b-a192d80911fa","system_id":"levelo_inurba_marseille","lat":43.26562,"lon":5.39045,"is_reserved":false,"is_disabled":false,"rental_uris":{"android":"levelo://app?vid=8e104399-aef2-4f9b-ac7b-a192d80911fa","ios":"levelo://app?vid=8e104399-aef2-4f9b-ac7b-a192d80911fa"},"vehicle_type_id":"4","last_reported":1738508950,"current_range_meters":37600,"station_id":"ce4bhe12rcd13ifvqf30","pricing_plan_id":"cebpf4jnsgd1na2vs0mg"},{"bike_id":"7e3fb6d9-ccd4-42a0-ad5f-bbecad48c859","system_id":"levelo_inurba_marseille","lat":43.31353,"lon":5.36694,"is_reserved":false,"is_disabled":false,"rental_uris":{"android":"levelo://app?vid=7e3fb6d9-ccd4-42a0-ad5f-bbecad48c859","ios":"levelo://app?vid=7e3fb6d9-ccd4-42a0-ad5f-bbecad48c859"},"vehicle_type_id":"4","last_reported":1738508950,"current_range_meters":30400,"station_id":"ce4bgr92rcd13ifvqc6g","pricing_plan_id":"cebpf4jnsgd1na2vs0mg"},{"bike_id":"c0e7550b-6f33-4fbd-9387-96500956f50a","system_id":"levelo_inurba_marseille","lat":43.29454,"lon":5.39741,"is_reserved":false,"is_disabled":true,"rental_uris":{"android":"levelo://app?vid=c0e7550b-6f33-4fbd-9387-96500956f50a","ios":"levelo://app?vid=c0e7550b-6f33-4fbd-9387-96500956f50a"},"vehicle_type_id":"4","last_reported":1738508950,"current_range_meters":24800,"station_id":"ce4bh3h2rcd13ifvqdo0","pricing_plan_id":"cebpf4jnsgd1na2vs0mg"},{"bike_id":"415bd4c5-777c-4b6c-92b5-bc0235839c3f","system_id":"levelo_inurba_marseille","lat":43.301879,"lon":5.366134,"is_reserved":false,"is_disabled":false,"rental_uris":{"android":"levelo://app?vid=415bd4c5-777c-4b6c-92b5-bc0235839c3f","ios":"levelo://app?vid=415bd4c5-777c-4b6c-92b5-bc0235839c3f"},"vehicle_type_id":"4","last_reported":1738508950,"current_range_meters":33600,"station_id":"ce4bgrh2rcd13ifvqc8g","pricing_plan_id":"cebpf4jnsgd1na2vs0mg"},{"bike_id":"7a163fc0-07aa-41da-86bd-3a408e536729","system_id":"levelo_inurba_marseille","lat":43.30588,"lon":5.36544,"is_reserved":false,"is_disabled":false,"rental_uris":{"android":"levelo://app?vid=7a163fc0-07aa-41da-86bd-3a408e536729","ios":"levelo://app?vid=7a163fc0-07aa-41da-86bd-3a408e536729"},"vehicle_type_id":"4","last_reported":1738508950,"current_range_meters":20400,"station_id":"ce4bgs12rcd13ifvqcag","pricing_plan_id":"cebpf4jnsgd1na2vs0mg"},{"bike_id":"51e98b31-1659-413c-a2fd-ad1f5f5b25a8","system_id":"levelo_inurba_marseille","lat":43.31014,"lon":5.36718,"is_reserved":false,"is_disabled":false,"rental_uris":{"android":"levelo://app?vid=51e98b31-1659-413c-a2fd-ad1f5f5b25a8","ios":"levelo://app?vid=51e98b31-1659-413c-a2fd-ad1f5f5b25a8"},"vehicle_type_id":"4","last_reported":1738508950,"current_range_meters":32000,"station_id":"","pricing_plan_id":"cebpf4jnsgd1na2vs0mg"},{"bike_id":"0676ab77-6011-4905-959a-a8ad801c2f41","system_id":"levelo_inurba_marseille","lat":43.2866,"lon":5.3634,"is_reserved":false,"is_disabled":false,"rental_uris":{"android":"levelo://app?vid=0676ab77-6011-4905-959a-a8ad801c2f41","ios":"levelo://app?vid=0676ab77-6011-4905-959a-a8ad801c2f41"},"vehicle_type_id":"4","last_reported":1738508950,"current_range_meters":6000,"station_id":"ce4bhah2rcd13ifvqej0","pricing_plan_id":"cebpf4jnsgd1na2vs0mg"},{"bike_id":"93d3af9d-39d6-4631-985b-a3fe2fe27467","system_id":"levelo_inurba_marseille","lat":43.25503,"lon":5.37648,"is_reserved":false,"is_disabled":false,"rental_uris":{"android":"levelo://app?vid=93d3af9d-39d6-4631-985b-a3fe2fe27467","ios":"levelo://app?vid=93d3af9d-39d6-4631-985b-a3fe2fe27467"},"vehicle_type_id":"4","last_reported":1738508950,"current_range_meters":28400,"station_id":"ce4bhh12rcd13ifvqff0","pricing_plan_id":"cebpf4jnsgd1na2vs0mg"},{"bike_id":"c8902182-a8b7-42f9-8e2b-fc0543656163","system_id":"levelo_inurba_marseille","lat":43.25007,"lon":5.38922,"is_reserved":false,"is_disabled":false,"rental_uris":{"android":"levelo://app?vid=c8902182-a8b7-42f9-8e2b-fc0543656163","ios":"levelo://app?vid=c8902182-a8b7-42f9-8e2b-fc0543656163"},"vehicle_type_id":"4","last_reported":1738508950,"current_range_meters":37600,"station_id":"ce4bhgp2rcd13ifvqfd0","pricing_plan_id":"cebpf4jnsgd1na2vs0mg"},{"bike_id":"1d26b639-4c95-49d5-89b6-b1335865bd4c","system_id":"levelo_inurba_marseille","lat":43.26023,"lon":5.37566,"is_reserved":false,"is_disabled":false,"rental_uris":{"android":"levelo://app?vid=1d26b639-4c95-49d5-89b6-b1335865bd4c","ios":"levelo://app?vid=1d26b639-4c95-49d5-89b6-b1335865bd4c"},"vehicle_type_id":"4","last_reported":1738508950,"current_range_meters":30400,"station_id":"ce4bhgh2rcd13ifvqfa0","pricing_plan_id":"cebpf4jnsgd1na2vs0mg"},{"bike_id":"32d9a329-7366-4eb8-8d55-73b5c99c70c3","system_id":"levelo_inurba_marseille","lat":43.232,"lon":5.35553,"is_reserved":false,"is_disabled":false,"rental_uris":{"android":"levelo://app?vid=32d9a329-7366-4eb8-8d55-73b5c99c70c3","ios":"levelo://app?vid=32d9a329-7366-4eb8-8d55-73b5c99c70c3"},"vehicle_type_id":"4","last_reported":1738508950,"current_range_meters":38800,"station_id":"ce4bhu92rcd13ifvqi70","pricing_plan_id":"cebpf4jnsgd1na2vs0mg"},{"bike_id":"22264ea7-42c9-425e-a29f-07e9fe3444e8","system_id":"levelo_inurba_marseille","lat":43.24828,"lon":5.37437,"is_reserved":false,"is_disabled":true,"rental_uris":{"android":"levelo://app?vid=22264ea7-42c9-425e-a29f-07e9fe3444e8","ios":"levelo://app?vid=22264ea7-42c9-425e-a29f-07e9fe3444e8"},"vehicle_type_id":"4","last_reported":1738508950,"current_range_meters":33200,"station_id":"ce4bhgh2rcd13ifvqfb0","pricing_plan_id":"cebpf4jnsgd1na2vs0mg"},{"bike_id":"ab2f74c7-063c-4c10-800d-018107c4c0c2","system_id":"levelo_inurba_marseille","lat":43.255756,"lon":5.382421,"is_reserved":false,"is_disabled":false,"rental_uris":{"android":"levelo://app?vid=ab2f74c7-063c-4c10-800d-018107c4c0c2","ios":"levelo://app?vid=ab2f74c7-063c-4c10-800d-018107c4c0c2"},"vehicle_type_id":"4","last_reported":1738508950,"current_range_meters":16800,"station_id":"ce4bhih2rcd13ifvqfs0","pricing_plan_id":"cebpf4jnsgd1na2vs0mg"},{"bike_id":"0a2fd205-d616-4064-aa75-d4d529957d90","system_id":"levelo_inurba_marseille","lat":43.23057,"lon":5.35474,"is_reserved":false,"is_disabled":false,"rental_uris":{"android":"levelo://app?vid=0a2fd205-d616-4064-aa75-d4d529957d90","ios":"levelo://app?vid=0a2fd205-d616-4064-aa75-d4d529957d90"},"vehicle_type_id":"4","last_reported":1738508950,"current_range_meters":10800,"station_id":"cpo3342slgdg3j2ifvpg","pricing_plan_id":"cebpf4jnsgd1na2vs0mg"},{"bike_id":"dec565bb-6657-4dfe-aa75-bed991fdeb83","system_id":"levelo_inurba_marseille","lat":43.31242,"lon":5.36901,"is_reserved":false,"is_disabled":false,"rental_uris":{"android":"levelo://app?vid=dec565bb-6657-4dfe-aa75-bed991fdeb83","ios":"levelo://app?vid=dec565bb-6657-4dfe-aa75-bed991fdeb83"},"vehicle_type_id":"4","last_reported":1738508950,"current_range_meters":36400,"station_id":"ce4bgl92rcd13ifvqbq0","pricing_plan_id":"cebpf4jnsgd1na2vs0mg"},{"bike_id":"aadb1f78-d572-4fcf-b124-2e1828b1c15d","system_id":"levelo_inurba_marseille","lat":43.28655,"lon":5.36344,"is_reserved":false,"is_disabled":false,"rental_uris":{"android":"levelo://app?vid=aadb1f78-d572-4fcf-b124-2e1828b1c15d","ios":"levelo://app?vid=aadb1f78-d572-4fcf-b124-2e1828b1c15d"},"vehicle_type_id":"4","last_reported":1738508950,"current_range_meters":24000,"station_id":"ce4bhah2rcd13ifvqej0","pricing_plan_id":"cebpf4jnsgd1na2vs0mg"},{"bike_id":"d04f30c0-72ae-4a7d-942f-008a71e95a0b","system_id":"levelo_inurba_marseille","lat":43.24809,"lon":5.37451,"is_reserved":false,"is_disabled":false,"rental_uris":{"android":"levelo://app?vid=d04f30c0-72ae-4a7d-942f-008a71e95a0b","ios":"levelo://app?vid=d04f30c0-72ae-4a7d-942f-008a71e95a0b"},"vehicle_type_id":"4","last_reported":1738508950,"current_range_meters":30800,"station_id":"ce4bhgh2rcd13ifvqfb0","pricing_plan_id":"cebpf4jnsgd1na2vs0mg"},{"bike_id":"96fbab0f-253b-4fe7-b4e7-56ea4a5de2c3","system_id":"levelo_inurba_marseille","lat":43.29853,"lon":5.36286,"is_reserved":false,"is_disabled":false,"rental_uris":{"android":"levelo://app?vid=96fbab0f-253b-4fe7-b4e7-56ea4a5de2c3","ios":"levelo://app?vid=96fbab0f-253b-4fe7-b4e7-56ea4a5de2c3"},"vehicle_type_id":"4","last_reported":1738508950,"current_range_meters":33600,"station_id":"ce4bgpp2rcd13ifvqc3g","pricing_plan_id":"cebpf4jnsgd1na2vs0mg"},{"bike_id":"49b7910c-c8c2-42e3-b2f1-b9dea77a3970","system_id":"levelo_inurba_marseille","lat":43.25109,"lon":5.40322,"is_reserved":false,"is_disabled":false,"rental_uris":{"android":"levelo://app?vid=49b7910c-c8c2-42e3-b2f1-b9dea77a3970","ios":"levelo://app?vid=49b7910c-c8c2-42e3-b2f1-b9dea77a3970"},"vehicle_type_id":"4","last_reported":1738508950,"current_range_meters":30800,"station_id":"ce4bhlh2rcd13ifvqgig","pricing_plan_id":"cebpf4jnsgd1na2vs0mg"},{"bike_id":"165a9f6e-1db8-4510-ab38-07c2df013a82","system_id":"levelo_inurba_marseille","lat":43.23149,"lon":5.43721,"is_reserved":false,"is_disabled":false,"rental_uris":{"android":"levelo://app?vid=165a9f6e-1db8-4510-ab38-07c2df013a82","ios":"levelo://app?vid=165a9f6e-1db8-4510-ab38-07c2df013a82"},"vehicle_type_id":"4","last_reported":1738508950,"current_range_meters":11600,"station_id":"ce4bhmp2rcd13ifvqgog","pricing_plan_id":"cebpf4jnsgd1na2vs0mg"},{"bike_id":"e4938ef9-7e9c-46dd-9b8f-69eb56a092db","system_id":"levelo_inurba_marseille","lat":43.28269,"lon":5.35071,"is_reserved":false,"is_disabled":false,"rental_uris":{"android":"levelo://app?vid=e4938ef9-7e9c-46dd-9b8f-69eb56a092db","ios":"levelo://app?vid=e4938ef9-7e9c-46dd-9b8f-69eb56a092db"},"vehicle_type_id":"4","last_reported":1738508950,"current_range_meters":38800,"station_id":"ce4bhbp2rcd13ifvqerg","pricing_plan_id":"cebpf4jnsgd1na2vs0mg"},{"bike_id":"f9c05556-bf5a-4bea-b1aa-920d71a969d8","system_id":"levelo_inurba_marseille","lat":43.280024,"lon":5.400201,"is_reserved":false,"is_disabled":false,"rental_uris":{"android":"levelo://app?vid=f9c05556-bf5a-4bea-b1aa-920d71a969d8","ios":"levelo://app?vid=f9c05556-bf5a-4bea-b1aa-920d71a969d8"},"vehicle_type_id":"4","last_reported":1738508950,"current_range_meters":38800,"station_id":"ce4bho92rcd13ifvqh4g","pricing_plan_id":"cebpf4jnsgd1na2vs0mg"},{"bike_id":"12d1d444-4d3a-4e30-8a60-be8b871a7a84","system_id":"levelo_inurba_marseille","lat":43.24807,"lon":5.37457,"is_reserved":false,"is_disabled":false,"rental_uris":{"android":"levelo://app?vid=12d1d444-4d3a-4e30-8a60-be8b871a7a84","ios":"levelo://app?vid=12d1d444-4d3a-4e30-8a60-be8b871a7a84"},"vehicle_type_id":"4","last_reported":1738508950,"current_range_meters":36000,"station_id":"ce4bhgh2rcd13ifvqfb0","pricing_plan_id":"cebpf4jnsgd1na2vs0mg"},{"bike_id":"72393c56-1f59-4517-9b3a-7cfa7c798b48","system_id":"levelo_inurba_marseille","lat":43.23198,"lon":5.35553,"is_reserved":false,"is_disabled":false,"rental_uris":{"android":"levelo://app?vid=72393c56-1f59-4517-9b3a-7cfa7c798b48","ios":"levelo://app?vid=72393c56-1f59-4517-9b3a-7cfa7c798b48"},"vehicle_type_id":"4","last_reported":1738508950,"current_range_meters":38800,"station_id":"ce4bhu92rcd13ifvqi70","pricing_plan_id":"cebpf4jnsgd1na2vs0mg"},{"bike_id":"836952c1-d476-4f7f-9fec-afb85920a82c","system_id":"levelo_inurba_marseille","lat":43.28269,"lon":5.35069,"is_reserved":false,"is_disabled":false,"rental_uris":{"android":"levelo://app?vid=836952c1-d476-4f7f-9fec-afb85920a82c","ios":"levelo://app?vid=836952c1-d476-4f7f-9fec-afb85920a82c"},"vehicle_type_id":"4","last_reported":1738508950,"current_range_meters":8000,"station_id":"ce4bhbp2rcd13ifvqerg","pricing_plan_id":"cebpf4jnsgd1na2vs0mg"},{"bike_id":"ae1f1e85-ec64-4dc1-ba5d-4214ac0bbd57","system_id":"levelo_inurba_marseille","lat":43.28602,"lon":5.3707,"is_reserved":false,"is_disabled":true,"rental_uris":{"android":"levelo://app?vid=ae1f1e85-ec64-4dc1-ba5d-4214ac0bbd57","ios":"levelo://app?vid=ae1f1e85-ec64-4dc1-ba5d-4214ac0bbd57"},"vehicle_type_id":"4","last_reported":1738508950,"current_range_meters":7200,"station_id":"","pricing_plan_id":"cebpf4jnsgd1na2vs0mg"},{"bike_id":"6337d338-3511-4993-ada0-12102998e834","system_id":"levelo_inurba_marseille","lat":43.23049,"lon":5.35493,"is_reserved":false,"is_disabled":false,"rental_uris":{"android":"levelo://app?vid=6337d338-3511-4993-ada0-12102998e834","ios":"levelo://app?vid=6337d338-3511-4993-ada0-12102998e834"},"vehicle_type_id":"4","last_reported":1738508950,"current_range_meters":6400,"station_id":"cpo3342slgdg3j2ifvpg","pricing_plan_id":"cebpf4jnsgd1na2vs0mg"},{"bike_id":"14cc98f8-07f7-4f8b-8123-ea4c7658a93a","system_id":"levelo_inurba_marseille","lat":43.27922,"lon":5.41212,"is_reserved":false,"is_disabled":false,"rental_uris":{"android":"levelo://app?vid=14cc98f8-07f7-4f8b-8123-ea4c7658a93a","ios":"levelo://app?vid=14cc98f8-07f7-4f8b-8123-ea4c7658a93a"},"vehicle_type_id":"4","last_reported":1738508950,"current_range_meters":14800,"station_id":"","pricing_plan_id":"cebpf4jnsgd1na2vs0mg"},{"bike_id":"2929de6e-bcde-4160-b618-bd81a9a367de","system_id":"levelo_inurba_marseille","lat":43.23187,"lon":5.35544,"is_reserved":false,"is_disabled":false,"rental_uris":{"android":"levelo://app?vid=2929de6e-bcde-4160-b618-bd81a9a367de","ios":"levelo://app?vid=2929de6e-bcde-4160-b618-bd81a9a367de"},"vehicle_type_id":"4","last_reported":1738508950,"current_range_meters":25200,"station_id":"ce4bhu92rcd13ifvqi70","pricing_plan_id":"cebpf4jnsgd1na2vs0mg"},{"bike_id":"a7366e5f-85e5-4b2b-94be-38732432eca2","system_id":"levelo_inurba_marseille","lat":43.32484,"lon":5.36559,"is_reserved":false,"is_disabled":false,"rental_uris":{"android":"levelo://app?vid=a7366e5f-85e5-4b2b-94be-38732432eca2","ios":"levelo://app?vid=a7366e5f-85e5-4b2b-94be-38732432eca2"},"vehicle_type_id":"4","last_reported":1738508950,"current_range_meters":38800,"station_id":"ce4bhs12rcd13ifvqhvg","pricing_plan_id":"cebpf4jnsgd1na2vs0mg"},{"bike_id":"3d81e4dc-2e29-4c49-b5dd-badbe5dc24b9","system_id":"levelo_inurba_marseille","lat":43.29005,"lon":5.3562,"is_reserved":false,"is_disabled":false,"rental_uris":{"android":"levelo://app?vid=3d81e4dc-2e29-4c49-b5dd-badbe5dc24b9","ios":"levelo://app?vid=3d81e4dc-2e29-4c49-b5dd-badbe5dc24b9"},"vehicle_type_id":"4","last_reported":1738508950,"current_range_meters":20800,"station_id":"ce4bhb92rcd13ifvqen0","pricing_plan_id":"cebpf4jnsgd1na2vs0mg"},{"bike_id":"ede78596-c383-4e1a-bc06-db42993062ff","system_id":"levelo_inurba_marseille","lat":43.26204,"lon":5.37446,"is_reserved":false,"is_disabled":false,"rental_uris":{"android":"levelo://app?vid=ede78596-c383-4e1a-bc06-db42993062ff","ios":"levelo://app?vid=ede78596-c383-4e1a-bc06-db42993062ff"},"vehicle_type_id":"4","last_reported":1738508950,"current_range_meters":38800,"station_id":"ce4bhgp2rcd13ifvqfc0","pricing_plan_id":"cebpf4jnsgd1na2vs0mg"},{"bike_id":"d05b2490-07a2-4e89-89b1-7c439efcec36","system_id":"levelo_inurba_marseille","lat":43.295775,"lon":5.399645,"is_reserved":false,"is_disabled":true,"rental_uris":{"android":"levelo://app?vid=d05b2490-07a2-4e89-89b1-7c439efcec36","ios":"levelo://app?vid=d05b2490-07a2-4e89-89b1-7c439efcec36"},"vehicle_type_id":"4","last_reported":1738508950,"current_range_meters":34000,"station_id":"ce4bh312rcd13ifvqdj0","pricing_plan_id":"cebpf4jnsgd1na2vs0mg"},{"bike_id":"1f212746-1340-43ae-9cf8-26eb24507165","system_id":"levelo_inurba_marseille","lat":43.31723,"lon":5.43715,"is_reserved":false,"is_disabled":false,"rental_uris":{"android":"levelo://app?vid=1f212746-1340-43ae-9cf8-26eb24507165","ios":"levelo://app?vid=1f212746-1340-43ae-9cf8-26eb24507165"},"vehicle_type_id":"4","last_reported":1738508950,"current_range_meters":38800,"station_id":"ce4bhp92rcd13ifvqhcg","pricing_plan_id":"cebpf4jnsgd1na2vs0mg"},{"bike_id":"539f3834-4ba7-42d6-9013-794d3005b2d9","system_id":"levelo_inurba_marseille","lat":43.30562,"lon":5.36525,"is_reserved":false,"is_disabled":false,"rental_uris":{"android":"levelo://app?vid=539f3834-4ba7-42d6-9013-794d3005b2d9","ios":"levelo://app?vid=539f3834-4ba7-42d6-9013-794d3005b2d9"},"vehicle_type_id":"4","last_reported":1738508950,"current_range_meters":36800,"station_id":"ce4bgs12rcd13ifvqcag","pricing_plan_id":"cebpf4jnsgd1na2vs0mg"},{"bike_id":"a1cf947f-412f-4f76-9e3a-7197e41499a7","system_id":"levelo_inurba_marseille","lat":43.26215,"lon":5.37444,"is_reserved":false,"is_disabled":false,"rental_uris":{"android":"levelo://app?vid=a1cf947f-412f-4f76-9e3a-7197e41499a7","ios":"levelo://app?vid=a1cf947f-412f-4f76-9e3a-7197e41499a7"},"vehicle_type_id":"4","last_reported":1738508950,"current_range_meters":6400,"station_id":"ce4bhgp2rcd13ifvqfc0","pricing_plan_id":"cebpf4jnsgd1na2vs0mg"},{"bike_id":"b1fd571c-e785-4fc7-9d16-3c2e86fe87de","system_id":"levelo_inurba_marseille","lat":43.27174,"lon":5.40992,"is_reserved":false,"is_disabled":true,"rental_uris":{"android":"levelo://app?vid=b1fd571c-e785-4fc7-9d16-3c2e86fe87de","ios":"levelo://app?vid=b1fd571c-e785-4fc7-9d16-3c2e86fe87de"},"vehicle_type_id":"4","last_reported":1738508950,"current_range_meters":32800,"station_id":"ce4bhl12rcd13ifvqgf0","pricing_plan_id":"cebpf4jnsgd1na2vs0mg"},{"bike_id":"83abad4c-009a-46c0-bd47-d99b4292867d","system_id":"levelo_inurba_marseille","lat":43.32461,"lon":5.45558,"is_reserved":false,"is_disabled":false,"rental_uris":{"android":"levelo://app?vid=83abad4c-009a-46c0-bd47-d99b4292867d","ios":"levelo://app?vid=83abad4c-009a-46c0-bd47-d99b4292867d"},"vehicle_type_id":"4","last_reported":1738508950,"current_range_meters":27600,"station_id":"","pricing_plan_id":"cebpf4jnsgd1na2vs0mg"},{"bike_id":"01141bec-3076-4aab-8329-f6850487b995","system_id":"levelo_inurba_marseille","lat":43.26038,"lon":5.37532,"is_reserved":false,"is_disabled":false,"rental_uris":{"android":"levelo://app?vid=01141bec-3076-4aab-8329-f6850487b995","ios":"levelo://app?vid=01141bec-3076-4aab-8329-f6850487b995"},"vehicle_type_id":"4","last_reported":1738508950,"current_range_meters":32800,"station_id":"ce4bhgh2rcd13ifvqfa0","pricing_plan_id":"cebpf4jnsgd1na2vs0mg"},{"bike_id":"0fb712ce-2e74-4bcf-bac6-1d0f2f06e4e5","system_id":"levelo_inurba_marseille","lat":43.28,"lon":5.39986,"is_reserved":false,"is_disabled":false,"rental_uris":{"android":"levelo://app?vid=0fb712ce-2e74-4bcf-bac6-1d0f2f06e4e5","ios":"levelo://app?vid=0fb712ce-2e74-4bcf-bac6-1d0f2f06e4e5"},"vehicle_type_id":"4","last_reported":1738508950,"current_range_meters":29600,"station_id":"ce4bho92rcd13ifvqh4g","pricing_plan_id":"cebpf4jnsgd1na2vs0mg"},