{"last_updated":1739881092,"ttl":60,"version":"2.2","data":{"bikes":[{"bike_id":"61e5420e-3877-430c-922a-6a5bddb79190","system_id":"levelo_inurba_marseille","lat":43.32661,"lon":5.40994,"is_reserved":false,"is_disabled":false,"rental_uris":{"android":"levelo://app?vid=61e5420e-3877-430c-922a-6a5bddb79190","ios":"levelo://app?vid=61e5420e-3877-430c-922a-6a5bddb79190"},"vehicle_type_id":"4","last_reported":1739881092,"current_range_meters":2800,"station_id":"ce4bhpp2rcd13ifvqhgg","pricing_plan_id":"cebpf4jnsgd1na2vs0mg"},{"bike_id":"54252a7c-5653-43b2-b4f1-43722b1aa404","system_id":"levelo_inurba_marseille","lat":43.25665,"lon":5.38277,"is_reserved":false,"is_disabled":false,"rental_uris":{"android":"levelo://app?vid=54252a7c-5653-43b2-b4f1-43722b1aa404","ios":"levelo://app?vid=54252a7c-5653-43b2-b4f1-43722b1aa404"},"vehicle_type_id":"4","last_reported":1739881092,"current_range_meters":2800,"station_id":"","pricing_plan_id":"cebpf4jnsgd1na2vs0mg"},{"bike_id":"c4916927-7d10-4eb6-bf80-df6fa900d439","system_id":"levelo_inurba_marseille","lat":43.29554,"lon":5.42302,"is_reserved":false,"is_disabled":true,"rental_uris":{"android":"levelo://app?vid=c4916927-7d10-4eb6-bf80-df6fa900d439","ios":"levelo://app?vid=c4916927-7d10-4eb6-bf80-df6fa900d439"},"vehicle_type_id":"4","last_reported":1739881092,"current_range_meters":3200,"station_id":"ce4bhph2rcd13ifvqhdg","pricing_plan_id":"cebpf4jnsgd1na2vs0mg"},{"bike_id":"bd4947ff-984a-40c3-8593-719a8be78879","system_id":"levelo_inurba_marseille","lat":43.22936,"lon":5.35384,"is_reserved":false,"is_disabled":false,"rental_uris":{"android":"levelo://app?vid=bd4947ff-984a-40c3-8593-719a8be78879","ios":"levelo://app?vid=bd4947ff-984a-40c3-8593-719a8be78879"},"vehicle_type_id":"4","last_reported":1739881092,"current_range_meters":3200,"station_id":"cpo3532slgdg3j2ikp40","pricing_plan_id":"cebpf4jnsgd1na2vs0mg"},{"bike_id":"ce61429a-686f-445d-80d9-4b10876ed4ef","system_id":"levelo_inurba_marseille","lat":43.337444,"lon":5.374475,"is_reserved":false,"is_disabled":true,"rental_uris":{"android":"levelo://app?vid=ce61429a-686f-445d-80d9-4b10876ed4ef","ios":"levelo://app?vid=ce61429a-686f-445d-80d9-4b10876ed4ef"},"vehicle_type_id":"4","last_reported":1739881092,"current_range_meters":3200,"station_id":"","pricing_plan_id":"cebpf4jnsgd1na2vs0mg"},{"bike_id":"5a4332ee-de56-4cb6-aa47-e9a6648423e0","system_id":"levelo_inurba_marseille","lat":43.29258,"lon":5.40915,"is_reserved":false,"is_disabled":false,"rental_uris":{"android":"levelo://app?vid=5a4332ee-de56-4cb6-aa47-e9a6648423e0","ios":"levelo://app?vid=5a4332ee-de56-4cb6-aa47-e9a6648423e0"},"vehicle_type_id":"4","last_reported":1739881092,"current_range_meters":4000,"station_id":"ce4bh192rcd13ifvqdc0","pricing_plan_id":"cebpf4jnsgd1na2vs0mg"},{"bike_id":"c06aa0e5-9150-47d2-8bae-396b7a393565","system_id":"levelo_inurba_marseille","lat":43.259167,"lon":5.408906,"is_reserved":false,"is_disabled":true,"rental_uris":{"android":"levelo://app?vid=c06aa0e5-9150-47d2-8bae-396b7a393565","ios":"levelo://app?vid=c06aa0e5-9150-47d2-8bae-396b7a393565"},"vehicle_type_id":"4","last_reported":1739881092,"current_range_meters":4000,"station_id":"ce4bhg12rcd13ifvqf60","pricing_plan_id":"cebpf4jnsgd1na2vs0mg"},{"bike_id":"4a3367e9-80cf-447d-ae78-02201a45d005","system_id":"levelo_inurba_marseille","lat":43.33724,"lon":5.39186,"is_reserved":false,"is_disabled":false,"rental_uris":{"android":"levelo://app?vid=4a3367e9-80cf-447d-ae78-02201a45d005","ios":"levelo://app?vid=4a3367e9-80cf-447d-ae78-02201a45d005"},"vehicle_type_id":"4","last_reported":1739881092,"current_range_meters":4400,"station_id":"ce4bhr92rcd13ifvqhsg","pricing_plan_id":"cebpf4jnsgd1na2vs0mg"},{"bike_id":"502b8a4b-b3df-4b16-8970-c8d552629eab","system_id":"levelo_inurba_marseille","lat":43.26951,"lon":5.40235,"is_reserved":false,"is_disabled":false,"rental_uris":{"android":"levelo://app?vid=502b8a4b-b3df-4b16-8970-c8d552629eab","ios":"levelo://app?vid=502b8a4b-b3df-4b16-8970-c8d552629eab"},"vehicle_type_id":"4","last_reported":1739881092,"current_range_meters":4400,"station_id":"cjm6bp8fraef2m0cb0m0","pricing_plan_id":"cebpf4jnsgd1na2vs0mg"},{"bike_id":"1d35ae83-3cde-4f52-823c-72bacb62b961","system_id":"levelo_inurba_marseille","lat":43.31729,"lon":5.40433,"is_reserved":false,"is_disabled":false,"rental_uris":{"android":"levelo://app?vid=1d35ae83-3cde-4f52-823c-72bacb62b961","ios":"levelo://app?vid=1d35ae83-3cde-4f52-823c-72bacb62b961"},"vehicle_type_id":"4","last_reported":1739881092,"current_range_meters":4400,"station_id":"ce4bh012rcd13ifvqd00","pricing_plan_id":"cebpf4jnsgd1na2vs0mg"},{"bike_id":"1609f241-33f8-4ebe-94d1-05e7d143f002","system_id":"levelo_inurba_marseille","lat":43.29267,"lon":5.38435,"is_reserved":false,"is_disabled":false,"rental_uris":{"android":"levelo://app?vid=1609f241-33f8-4ebe-94d1-05e7d143f002","ios":"levelo://app?vid=1609f241-33f8-4ebe-94d1-05e7d143f002"},"vehicle_type_id":"4","last_reported":1739881092,"current_range_meters":4800,"station_id":"ce4bh692rcd13ifvqea0","pricing_plan_id":"cebpf4jnsgd1na2vs0mg"},{"bike_id":"f34fd237-e1d0-40c1-87cc-fbbf14a20021","system_id":"levelo_inurba_marseille","lat":43.25937,"lon":5.40911,"is_reserved":false,"is_disabled":false,"rental_uris":{"android":"levelo://app?vid=f34fd237-e1d0-40c1-87cc-fbbf14a20021","ios":"levelo://app?vid=f34fd237-e1d0-40c1-87cc-fbbf14a20021"},"vehicle_type_id":"4","last_reported":1739881092,"current_range_meters":5600,"station_id":"","pricing_plan_id":"cebpf4jnsgd1na2vs0mg"},{"bike_id":"870c4024-39e9-4436-af7c-d6948b74c79b","system_id":"levelo_inurba_marseille","lat":43.28156,"lon":5.42638,"is_reserved":false,"is_disabled":false,"rental_uris":{"android":"levelo://app?vid=870c4024-39e9-4436-af7c-d6948b74c79b","ios":"levelo://app?vid=870c4024-39e9-4436-af7c-d6948b74c79b"},"vehicle_type_id":"4","last_reported":1739881092,"current_range_meters":5600,"station_id":"","pricing_plan_id":"cebpf4jnsgd1na2vs0mg"},{"bike_id":"99490785-3eeb-4f92-9d91-0ddec27d0873","system_id":"levelo_inurba_marseille","lat":43.24095,"lon":5.37732,"is_reserved":false,"is_disabled":false,"rental_uris":{"android":"levelo://app?vid=99490785-3eeb-4f92-9d91-0ddec27d0873","ios":"levelo://app?vid=99490785-3eeb-4f92-9d91-0ddec27d0873"},"vehicle_type_id":"4","last_reported":1739881092,"current_range_meters":5600,"station_id":"ce4bhnp2rcd13ifvqgvg","pricing_plan_id":"cebpf4jnsgd1na2vs0mg"},{"bike_id":"2b278cf2-594f-4230-8154-882e1df047f2","system_id":"levelo_inurba_marseille","lat":43.24076,"lon":5.37762,"is_reserved":false,"is_disabled":false,"rental_uris":{"android":"levelo://app?vid=2b278cf2-594f-4230-8154-882e1df047f2","ios":"levelo://app?vid=2b278cf2-594f-4230-8154-882e1df047f2"},"vehicle_type_id":"4","last_reported":1739881092,"current_range_meters":5600,"station_id":"ce4bhnp2rcd13ifvqgvg","pricing_plan_id":"cebpf4jnsgd1na2vs0mg"},{"bike_id":"836671b0-4a84-42ad-a44d-d620b9c85a3a","system_id":"levelo_inurba_marseille","lat":43.293036,"lon":5.374712,"is_reserved":false,"is_disabled":false,"rental_uris":{"android":"levelo://app?vid=836671b0-4a84-42ad-a44d-d620b9c85a3a","ios":"levelo://app?vid=836671b0-4a84-42ad-a44d-d620b9c85a3a"},"vehicle_type_id":"4","last_reported":1739881092,"current_range_meters":5600,"station_id":"ce4bgi12rcd13ifvqb70","pricing_plan_id":"cebpf4jnsgd1na2vs0mg"},{"bike_id":"2c0c5268-adfa-446e-998b-c8f413c72d6b","system_id":"levelo_inurba_marseille","lat":43.28422,"lon":5.35049,"is_reserved":false,"is_disabled":true,"rental_uris":{"android":"levelo://app?vid=2c0c5268-adfa-446e-998b-c8f413c72d6b","ios":"levelo://app?vid=2c0c5268-adfa-446e-998b-c8f413c72d6b"},"vehicle_type_id":"4","last_reported":1739881092,"current_range_meters":6000,"station_id":"ce4bhbh2rcd13ifvqepg","pricing_plan_id":"cebpf4jnsgd1na2vs0mg"},{"bike_id":"2e5e89c3-0e0e-4cca-b25a-7707cb6d7c5d","system_id":"levelo_inurba_marseille","lat":43.27674,"lon":5.40839,"is_reserved":false,"is_disabled":false,"rental_uris":{"android":"levelo://app?vid=2e5e89c3-0e0e-4cca-b25a-7707cb6d7c5d","ios":"levelo://app?vid=2e5e89c3-0e0e-4cca-b25a-7707cb6d7c5d"},"vehicle_type_id":"4","last_reported":1739881092,"current_range_meters":6400,"station_id":"","pricing_plan_id":"cebpf4jnsgd1na2vs0mg"},{"bike_id":"dcc5e4d0-d8bc-44ba-96bd-c2009e98dea4","system_id":"levelo_inurba_marseille","lat":43.2593,"lon":5.4088,"is_reserved":false,"is_disabled":false,"rental_uris":{"android":"levelo://app?vid=dcc5e4d0-d8bc-44ba-96bd-c2009e98dea4","ios":"levelo://app?vid=dcc5e4d0-d8bc-44ba-96bd-c2009e98dea4"},"vehicle_type_id":"4","last_reported":1739881092,"current_range_meters":6400,"station_id":"ce4bhm92rcd13ifvqglg","pricing_plan_id":"cebpf4jnsgd1na2vs0mg"},{"bike_id":"6f2b3b15-b81d-4b23-9ad9-b54cf1f9c8fc","system_id":"levelo_inurba_marseille","lat":43.32553,"lon":5.41508,"is_reserved":false,"is_disabled":false,"rental_uris":{"android":"levelo://app?vid=6f2b3b15-b81d-4b23-9ad9-b54cf1f9c8fc","ios":"levelo://app?vid=6f2b3b15-b81d-4b23-9ad9-b54cf1f9c8fc"},"vehicle_type_id":"4","last_reported":1739881092,"current_range_meters":6400,"station_id":"ce4bhq12rcd13ifvqhhg","pricing_plan_id":"cebpf4jnsgd1na2vs0mg"},{"bike_id":"c744b9c2-88ee-44d7-bd64-fa854ed98d13","system_id":"levelo_inurba_marseille","lat":43.29644,"lon":5.40587,"is_reserved":false,"is_disabled":false,"rental_uris":{"android":"levelo://app?vid=c744b9c2-88ee-44d7-bd64-fa854ed98d13","ios":"levelo://app?vid=c744b9c2-88ee-44d7-bd64-fa854ed98d13"},"vehicle_type_id":"4","last_reported":1739881092,"current_range_meters":6800,"station_id":"ce4bh0h2rcd13ifvqd60","pricing_plan_id":"cebpf4jnsgd1na2vs0mg"},{"bike_id":"afab49ad-42d9-44b9-a2ce-58f24294cb35","system_id":"levelo_inurba_marseille","lat":43.28855,"lon":5.39311,"is_reserved":false,"is_disabled":false,"rental_uris":{"android":"levelo://app?vid=afab49ad-42d9-44b9-a2ce-58f24294cb35","ios":"levelo://app?vid=afab49ad-42d9-44b9-a2ce-58f24294cb35"},"vehicle_type_id":"4","last_reported":1739881092,"current_range_meters":6800,"station_id":"ce4bh2p2rcd13ifvqdi0","pricing_plan_id":"cebpf4jnsgd1na2vs0mg"},{"bike_id":"3d44f9a9-8470-4c01-974a-625407d54e20","system_id":"levelo_inurba_marseille","lat":43.32482,"lon":5.36577,"is_reserved":false,"is_disabled":false,"rental_uris":{"android":"levelo://app?vid=3d44f9a9-8470-4c01-974a-625407d54e20","ios":"levelo://app?vid=3d44f9a9-8470-4c01-974a-625407d54e20"},"vehicle_type_id":"4","last_reported":1739881092,"current_range_meters":6800,"station_id":"ce4bhs12rcd13ifvqhvg","pricing_plan_id":"cebpf4jnsgd1na2vs0mg"},{"bike_id":"082899f2-db62-443b-9d51-62d93188a678","system_id":"levelo_inurba_marseille","lat":43.27175,"lon":5.4099,"is_reserved":false,"is_disabled":false,"rental_uris":{"android":"levelo://app?vid=082899f2-db62-443b-9d51-62d93188a678","ios":"levelo://app?vid=082899f2-db62-443b-9d51-62d93188a678"},"vehicle_type_id":"4","last_reported":1739881092,"current_range_meters":6800,"station_id":"ce4bhl12rcd13ifvqgf0","pricing_plan_id":"cebpf4jnsgd1na2vs0mg"},{"bike_id":"23956d5e-457a-41cf-b4c6-04eed1f4d6d4","system_id":"levelo_inurba_marseille","lat":43.259303,"lon":5.409027,"is_reserved":false,"is_disabled":false,"rental_uris":{"android":"levelo://app?vid=23956d5e-457a-41cf-b4c6-04eed1f4d6d4","ios":"levelo://app?vid=23956d5e-457a-41cf-b4c6-04eed1f4d6d4"},"vehicle_type_id":"4","last_reported":1739881092,"current_range_meters":6800,"station_id":"","pricing_plan_id":"cebpf4jnsgd1na2vs0mg"},{"bike_id":"34dc1391-a256-4af0-b6fe-18383869ac9a","system_id":"levelo_inurba_marseille","lat":43.24067,"lon":5.37753,"is_reserved":false,"is_disabled":false,"rental_uris":{"android":"levelo://app?vid=34dc1391-a256-4af0-b6fe-18383869ac9a","ios":"levelo://app?vid=34dc1391-a256-4af0-b6fe-18383869ac9a"},"vehicle_type_id":"4","last_reported":1739881092,"current_range_meters":6800,"station_id":"","pricing_plan_id":"cebpf4jnsgd1na2vs0mg"},{"bike_id":"490db982-aa2d-45d2-8613-17e8ec096719","system_id":"levelo_inurba_marseille","lat":43.29268,"lon":5.3844,"is_reserved":false,"is_disabled":false,"rental_uris":{"android":"levelo://app?vid=490db982-aa2d-45d2-8613-17e8ec096719","ios":"levelo://app?vid=490db982-aa2d-45d2-8613-17e8ec096719"},"vehicle_type_id":"4","last_reported":1739881092,"current_range_meters":6800,"station_id":"","pricing_plan_id":"cebpf4jnsgd1na2vs0mg"},{"bike_id":"98dafedc-f25b-409d-b3e2-803b47ffb900","system_id":"levelo_inurba_marseille","lat":43.24493,"lon":5.37255,"is_reserved":false,"is_disabled":false,"rental_uris":{"android":"levelo://app?vid=98dafedc-f25b-409d-b3e2-803b47ffb900","ios":"levelo://app?vid=98dafedc-f25b-409d-b3e2-803b47ffb900"},"vehicle_type_id":"4","last_reported":1739881092,"current_range_meters":6800,"station_id":"","pricing_plan_id":"cebpf4jnsgd1na2vs0mg"},{"bike_id":"430110be-e494-4d47-88fd-fb2b33b394ee","system_id":"levelo_inurba_marseille","lat":43.3303,"lon":5.39026,"is_reserved":false,"is_disabled":false,"rental_uris":{"android":"levelo://app?vid=430110be-e494-4d47-88fd-fb2b33b394ee","ios":"levelo://app?vid=430110be-e494-4d47-88fd-fb2b33b394ee"},"vehicle_type_id":"4","last_reported":1739881092,"current_range_meters":7200,"station_id":"ce4bhr92rcd13ifvqhrg","pricing_plan_id":"cebpf4jnsgd1na2vs0mg"},{"bike_id":"1441ab16-218e-4d90-b3a7-621633692bd3","system_id":"levelo_inurba_marseille","lat":43.25719,"lon":5.41122,"is_reserved":false,"is_disabled":false,"rental_uris":{"android":"levelo://app?vid=1441ab16-218e-4d90-b3a7-621633692bd3","ios":"levelo://app?vid=1441ab16-218e-4d90-b3a7-621633692bd3"},"vehicle_type_id":"4","last_reported":1739881092,"current_range_meters":7200,"station_id":"ce4bhkp2rcd13ifvqgd0","pricing_plan_id":"cebpf4jnsgd1na2vs0mg"},{"bike_id":"8dbe617a-73bb-43b1-955a-f0b57c2f6fa2","system_id":"levelo_inurba_marseille","lat":43.27376,"lon":5.36253,"is_reserved":false,"is_disabled":false,"rental_uris":{"android":"levelo://app?vid=8dbe617a-73bb-43b1-955a-f0b57c2f6fa2","ios":"levelo://app?vid=8dbe617a-73bb-43b1-955a-f0b57c2f6fa2"},"vehicle_type_id":"4","last_reported":1739881092,"current_range_meters":7200,"station_id":"ce4bhbh2rcd13ifvqeo0","pricing_plan_id":"cebpf4jnsgd1na2vs0mg"},{"bike_id":"2fc51c18-93da-4c7a-ae54-30bc1bf5f64d","system_id":"levelo_inurba_marseille","lat":43.2951,"lon":5.38198,"is_reserved":false,"is_disabled":true,"rental_uris":{"android":"levelo://app?vid=2fc51c18-93da-4c7a-ae54-30bc1bf5f64d","ios":"levelo://app?vid=2fc51c18-93da-4c7a-ae54-30bc1bf5f64d"},"vehicle_type_id":"4","last_reported":1739881092,"current_range_meters":7200,"station_id":"","pricing_plan_id":"cebpf4jnsgd1na2vs0mg"},{"bike_id":"efc81551-0111-403d-b9e4-a0041bf88ace","system_id":"levelo_inurba_marseille","lat":43.30953,"lon":5.39028,"is_reserved":false,"is_disabled":false,"rental_uris":{"android":"levelo://app?vid=efc81551-0111-403d-b9e4-a0041bf88ace","ios":"levelo://app?vid=efc81551-0111-403d-b9e4-a0041bf88ace"},"vehicle_type_id":"4","last_reported":1739881092,"current_range_meters":7200,"station_id":"ce4bgup2rcd13ifvqco0","pricing_plan_id":"cebpf4jnsgd1na2vs0mg"},{"bike_id":"55eb0a7c-6b29-484f-b637-0634ae3a25c8","system_id":"levelo_inurba_marseille","lat":43.25926,"lon":5.40871,"is_reserved":false,"is_disabled":false,"rental_uris":{"android":"levelo://app?vid=55eb0a7c-6b29-484f-b637-0634ae3a25c8","ios":"levelo://app?vid=55eb0a7c-6b29-484f-b637-0634ae3a25c8"},"vehicle_type_id":"4","last_reported":1739881092,"current_range_meters":8000,"station_id":"","pricing_plan_id":"cebpf4jnsgd1na2vs0mg"},{"bike_id":"24daba64-a19e-4f71-8127-0f17036d852c","system_id":"levelo_inurba_marseille","lat":43.30551,"lon":5.36706,"is_reserved":false,"is_disabled":true,"rental_uris":{"android":"levelo://app?vid=24daba64-a19e-4f71-8127-0f17036d852c","ios":"levelo://app?vid=24daba64-a19e-4f71-8127-0f17036d852c"},"vehicle_type_id":"4","last_reported":1739881092,"current_range_meters":8000,"station_id":"ce4bgrp2rcd13ifvqc9g","pricing_plan_id":"cebpf4jnsgd1na2vs0mg"},{"bike_id":"811901b7-6a39-4b98-9209-f363e05c2482","system_id":"levelo_inurba_marseille","lat":43.28148,"lon":5.42578,"is_reserved":false,"is_disabled":false,"rental_uris":{"android":"levelo://app?vid=811901b7-6a39-4b98-9209-f363e05c2482","ios":"levelo://app?vid=811901b7-6a39-4b98-9209-f363e05c2482"},"vehicle_type_id":"4","last_reported":1739881092,"current_range_meters":8000,"station_id":"ce4bhnh2rcd13ifvqgug","pricing_plan_id":"cebpf4jnsgd1na2vs0mg"},{"bike_id":"a0dfaaa5-2564-40a0-a720-c6022c8dbdf6","system_id":"levelo_inurba_marseille","lat":43.25502,"lon":5.37663,"is_reserved":false,"is_disabled":false,"rental_uris":{"android":"levelo://app?vid=a0dfaaa5-2564-40a0-a720-c6022c8dbdf6","ios":"levelo://app?vid=a0dfaaa5-2564-40a0-a720-c6022c8dbdf6"},"vehicle_type_id":"4","last_reported":1739881092,"current_range_meters":8400,"station_id":"ce4bhh12rcd13ifvqff0","pricing_plan_id":"cebpf4jnsgd1na2vs0mg"},{"bike_id":"9af8fbc4-7954-4d2d-bc5a-448c0fb9d26e","system_id":"levelo_inurba_marseille","lat":43.29621,"lon":5.37161,"is_reserved":false,"is_disabled":false,"rental_uris":{"android":"levelo://app?vid=9af8fbc4-7954-4d2d-bc5a-448c0fb9d26e","ios":"levelo://app?vid=9af8fbc4-7954-4d2d-bc5a-448c0fb9d26e"},"vehicle_type_id":"4","last_reported":1739881092,"current_range_meters":8800,"station_id":"ce4bgnh2rcd13ifvqc0g","pricing_plan_id":"cebpf4jnsgd1na2vs0mg"},{"bike_id":"8edd2fd8-1293-41ee-8d6f-3b2f2b027eab","system_id":"levelo_inurba_marseille","lat":43.24998,"lon":5.38934,"is_reserved":false,"is_disabled":false,"rental_uris":{"android":"levelo://app?vid=8edd2fd8-1293-41ee-8d6f-3b2f2b027eab","ios":"levelo://app?vid=8edd2fd8-1293-41ee-8d6f-3b2f2b027eab"},"vehicle_type_id":"4","last_reported":1739881092,"current_range_meters":8800,"station_id":"","pricing_plan_id":"cebpf4jnsgd1na2vs0mg"},{"bike_id":"948c60c0-4fde-41cf-82e2-330d114b3f47","system_id":"levelo_inurba_marseille","lat":43.29423,"lon":5.38619,"is_reserved":false,"is_disabled":false,"rental_uris":{"android":"levelo://app?vid=948c60c0-4fde-41cf-82e2-330d114b3f47","ios":"levelo://app?vid=948c60c0-4fde-41cf-82e2-330d114b3f47"},"vehicle_type_id":"4","last_reported":1739881092,"current_range_meters":8800,"station_id":"ce4bh2h2rcd13ifvqdh0","pricing_plan_id":"cebpf4jnsgd1na2vs0mg"},{"bike_id":"020f9db3-6048-4a83-8c59-4acc533112c8","system_id":"levelo_inurba_marseille","lat":43.28141,"lon":5.42651,"is_reserved":false,"is_disabled":false,"rental_uris":{"android":"levelo://app?vid=020f9db3-6048-4a83-8c59-4acc533112c8","ios":"levelo://app?vid=020f9db3-6048-4a83-8c59-4acc533112c8"},"vehicle_type_id":"4","last_reported":1739881092,"current_range_meters":8800,"station_id":"ce4bhnh2rcd13ifvqgug","pricing_plan_id":"cebpf4jnsgd1na2vs0mg"},{"bike_id":"4b22fc83-13db-4a38-91ac-4d377d119d83","system_id":"levelo_inurba_marseille","lat":43.26196,"lon":5.37372,"is_reserved":false,"is_disabled":false,"rental_uris":{"android":"levelo://app?vid=4b22fc83-13db-4a38-91ac-4d377d119d83","ios":"levelo://app?vid=4b22fc83-13db-4a38-91ac-4d377d119d83"},"vehicle_type_id":"4","last_reported":1739881092,"current_range_meters":8800,"station_id":"ce4bhgp2rcd13ifvqfc0","pricing_plan_id":"cebpf4jnsgd1na2vs0mg"},{"bike_id":"6528e792-6c2b-41ab-b102-37d30001a0e7","system_id":"levelo_inurba_marseille","lat":43.27237,"lon":5.40035,"is_reserved":false,"is_disabled":false,"rental_uris":{"android":"levelo://app?vid=6528e792-6c2b-41ab-b102-37d30001a0e7","ios":"levelo://app?vid=6528e792-6c2b-41ab-b102-37d30001a0e7"},"vehicle_type_id":"4","last_reported":1739881092,"current_range_meters":9200,"station_id":"","pricing_plan_id":"cebpf4jnsgd1na2vs0mg"},{"bike_id":"29322406-3fbd-407f-a1c2-c4da9bacb721","system_id":"levelo_inurba_marseille","lat":43.29166,"lon":5.37158,"is_reserved":false,"is_disabled":false,"rental_uris":{"android":"levelo://app?vid=29322406-3fbd-407f-a1c2-c4da9bacb721","ios":"levelo://app?vid=29322406-3fbd-407f-a1c2-c4da9bacb721"},"vehicle_type_id":"4","last_reported":1739881092,"current_range_meters":9200,"station_id":"ce4bha92rcd13ifvqeh0","pricing_plan_id":"cebpf4jnsgd1na2vs0mg"},{"bike_id":"43e58a6d-2a17-41bb-bd75-661bed22a62b","system_id":"levelo_inurba_marseille","lat":43.31197,"lon":5.38697,"is_reserved":false,"is_disabled":false,"rental_uris":{"android":"levelo://app?vid=43e58a6d-2a17-41bb-bd75-661bed22a62b","ios":"levelo://app?vid=43e58a6d-2a17-41bb-bd75-661bed22a62b"},"vehicle_type_id":"4","last_reported":1739881092,"current_range_meters":9200,"station_id":"","pricing_plan_id":"cebpf4jnsgd1na2vs0mg"},{"bike_id":"6c9aca34-e72a-4883-a33b-acb6325a1418","system_id":"levelo_inurba_marseille","lat":43.29654,"lon":5.406,"is_reserved":false,"is_disabled":false,"rental_uris":{"android":"levelo://app?vid=6c9aca34-e72a-4883-a33b-acb6325a1418","ios":"levelo://app?vid=6c9aca34-e72a-4883-a33b-acb6325a1418"},"vehicle_type_id":"4","last_reported":1739881092,"current_range_meters":9200,"station_id":"ce4bh0h2rcd13ifvqd60","pricing_plan_id":"cebpf4jnsgd1na2vs0mg"},{"bike_id":"09625a22-d446-4e59-8267-015f8bb79d9d","system_id":"levelo_inurba_marseille","lat":43.24079,"lon":5.37752,"is_reserved":false,"is_disabled":false,"rental_uris":{"android":"levelo://app?vid=09625a22-d446-4e59-8267-015f8bb79d9d","ios":"levelo://app?vid=09625a22-d446-4e59-8267-015f8bb79d9d"},"vehicle_type_id":"4","last_reported":1739881092,"current_range_meters":9200,"station_id":"ce4bhnp2rcd13ifvqgvg","pricing_plan_id":"cebpf4jnsgd1na2vs0mg"},{"bike_id":"6bb7ac37-d16c-4a25-b6eb-1bf8ca1b78d5","system_id":"levelo_inurba_marseille","lat":43.32548,"lon":5.41433,"is_reserved":false,"is_disabled":false,"rental_uris":{"android":"levelo://app?vid=6bb7ac37-d16c-4a25-b6eb-1bf8ca1b78d5","ios":"levelo://app?vid=6bb7ac37-d16c-4a25-b6eb-1bf8ca1b78d5"},"vehicle_type_id":"4","last_reported":1739881092,"current_range_meters":9200,"station_id":"ce4bhq12rcd13ifvqhhg","pricing_plan_id":"cebpf4jnsgd1na2vs0mg"},{"bike_id":"2fa7caa2-4d89-4383-babd-96f44fa588f6","system_id":"levelo_inurba_marseille","lat":43.23156,"lon":5.43729,"is_reserved":false,"is_disabled":false,"rental_uris":{"android":"levelo://app?vid=2fa7caa2-4d89-4383-babd-96f44fa588f6","ios":"levelo://app?vid=2fa7caa2-4d89-4383-babd-96f44fa588f6"},"vehicle_type_id":"4","last_reported":1739881092,"current_range_meters":9200,"station_id":"ce4bhmp2rcd13ifvqgog","pricing_plan_id":"cebpf4jnsgd1na2vs0mg"},{"bike_id":"5c5c89c9-6dd2-4b4f-80a1-c73c1f0c4919","system_id":"levelo_inurba_marseille","lat":43.30881,"lon":5.39628,"is_reserved":false,"is_disabled":false,"rental_uris":{"android":"levelo://app?vid=5c5c89c9-6dd2-4b4f-80a1-c73c1f0c4919","ios":"levelo://app?vid=5c5c89c9-6dd2-4b4f-80a1-c73c1f0c4919"},"vehicle_type_id":"4","last_reported":1739881092,"current_range_meters":9200,"station_id":"ce4bh012rcd13ifvqcv0","pricing_plan_id":"cebpf4jnsgd1na2vs0mg"},{"bike_id":"d809cf23-ec16-4959-8653-5a588cca4476","system_id":"levelo_inurba_marseille","lat":43.27667,"lon":5.38886,"is_reserved":false,"is_disabled":true,"rental_uris":{"android":"levelo://app?vid=d809cf23-ec16-4959-8653-5a588cca4476","ios":"levelo://app?vid=d809cf23-ec16-4959-8653-5a588cca4476"},"vehicle_type_id":"4","last_reported":1739881092,"current_range_meters":9600,"station_id":"","pricing_plan_id":"cebpf4jnsgd1na2vs0mg"},{"bike_id":"d0b80e7e-1b91-4b9a-b338-8f75dee4790a","system_id":"levelo_inurba_marseille","lat":43.25874,"lon":5.39882,"is_reserved":false,"is_disabled":false,"rental_uris":{"android":"levelo://app?vid=d0b80e7e-1b91-4b9a-b338-8f75dee4790a","ios":"levelo://app?vid=d0b80e7e-1b91-4b9a-b338-8f75dee4790a"},"vehicle_type_id":"4","last_reported":1739881092,"current_range_meters":9600,"station_id":"ce4bhl92rcd13ifvqghg","pricing_plan_id":"cebpf4jnsgd1na2vs0mg"},{"bike_id":"26a90b3b-2366-45f4-8aa6-34daff20b2c3","system_id":"levelo_inurba_marseille","lat":43.23338,"lon":5.40285,"is_reserved":false,"is_disabled":false,"rental_uris":{"android":"levelo://app?vid=26a90b3b-2366-45f4-8aa6-34daff20b2c3","ios":"levelo://app?vid=26a90b3b-2366-45f4-8aa6-34daff20b2c3"},"vehicle_type_id":"4","last_reported":1739881092,"current_range_meters":9600,"station_id":"","pricing_plan_id":"cebpf4jnsgd1na2vs0mg"},{"bike_id":"ae15c00c-5a08-4c2e-8269-6f391fdcf251","system_id":"levelo_inurba_marseille","lat":43.250913,"lon":5.39522,"is_reserved":false,"is_disabled":false,"rental_uris":{"android":"levelo://app?vid=ae15c00c-5a08-4c2e-8269-6f391fdcf251","ios":"levelo://app?vid=ae15c00c-5a08-4c2e-8269-6f391fdcf251"},"vehicle_type_id":"4","last_reported":1739881092,"current_range_meters":9600,"station_id":"","pricing_plan_id":"cebpf4jnsgd1na2vs0mg"},{"bike_id":"fc9896ce-1f52-403c-86a7-1678079c9523","system_id":"levelo_inurba_marseille","lat":43.28157,"lon":5.44229,"is_reserved":false,"is_disabled":false,"rental_uris":{"android":"levelo://app?vid=fc9896ce-1f52-403c-86a7-1678079c9523","ios":"levelo://app?vid=fc9896ce-1f52-403c-86a7-1678079c9523"},"vehicle_type_id":"4","last_reported":1739881092,"current_range_meters":9600,"station_id":"","pricing_plan_id":"cebpf4jnsgd1na2vs0mg"},{"bike_id":"b13d1d41-b0a2-47f8-8e3f-e543a5c00f20","system_id":"levelo_inurba_marseille","lat":43.24671,"lon":5.38154,"is_reserved":false,"is_disabled":false,"rental_uris":{"android":"levelo://app?vid=b13d1d41-b0a2-47f8-8e3f-e543a5c00f20","ios":"levelo://app?vid=b13d1d41-b0a2-47f8-8e3f-e543a5c00f20"},"vehicle_type_id":"4","last_reported":1739881092,"current_range_meters":10000,"station_id":"ce4bhih2rcd13ifvqfr0","pricing_plan_id":"cebpf4jnsgd1na2vs0mg"},{"bike_id":"9084f880-c05c-41d9-962e-1ab7add2848e","system_id":"levelo_inurba_marseille","lat":43.2408,"lon":5.37745,"is_reserved":false,"is_disabled":false,"rental_uris":{"android":"levelo://app?vid=9084f880-c05c-41d9-962e-1ab7add2848e","ios":"levelo://app?vid=9084f880-c05c-41d9-962e-1ab7add2848e"},"vehicle_type_id":"4","last_reported":1739881092,"current_range_meters":10000,"station_id":"ce4bhnp2rcd13ifvqgvg","pricing_plan_id":"cebpf4jnsgd1na2vs0mg"},{"bike_id":"4be0ffad-85e4-4453-a025-a7c29180a623","system_id":"levelo_inurba_marseille","lat":43.30888,"lon":5.39664,"is_reserved":false,"is_disabled":false,"rental_uris":{"android":"levelo://app?vid=4be0ffad-85e4-4453-a025-a7c29180a623","ios":"levelo://app?vid=4be0ffad-85e4-4453-a025-a7c29180a623"},"vehicle_type_id":"4","last_reported":1739881092,"current_range_meters":9600,"station_id":"ce4bh012rcd13ifvqcv0","pricing_plan_id":"cebpf4jnsgd1na2vs0mg"},{"bike_id":"2ac92b6d-f141-4c8f-80eb-b5281ca890fd","system_id":"levelo_inurba_marseille","lat":43.29987,"lon":5.37178,"is_reserved":false,"is_disabled":false,"rental_uris":{"android":"levelo://app?vid=2ac92b6d-f141-4c8f-80eb-b5281ca890fd","ios":"levelo://app?vid=2ac92b6d-f141-4c8f-80eb-b5281ca890fd"},"vehicle_type_id":"4","last_reported":1739881092,"current_range_meters":10800,"station_id":"ce4bgr92rcd13ifvqc7g","pricing_plan_id":"cebpf4jnsgd1na2vs0mg"},{"bike_id":"c750f6ed-e033-41bd-a3fb-76e7ec81ac30","system_id":"levelo_inurba_marseille","lat":43.25578,"lon":5.38222,"is_reserved":false,"is_disabled":false,"rental_uris":{"android":"levelo://app?vid=c750f6ed-e033-41bd-a3fb-76e7ec81ac30","ios":"levelo://app?vid=c750f6ed-e033-41bd-a3fb-76e7ec81ac30"},"vehicle_type_id":"4","last_reported":1739881092,"current_range_meters":10800,"station_id":"ce4bhih2rcd13ifvqfs0","pricing_plan_id":"cebpf4jnsgd1na2vs0mg"},{"bike_id":"7e1bcd16-719a-4da9-aa93-fa68923adaea","system_id":"levelo_inurba_marseille","lat":43.24074,"lon":5.37755,"is_reserved":false,"is_disabled":false,"rental_uris":{"android":"levelo://app?vid=7e1bcd16-719a-4da9-aa93-fa68923adaea","ios":"levelo://app?vid=7e1bcd16-719a-4da9-aa93-fa68923adaea"},"vehicle_type_id":"4","last_reported":1739881092,"current_range_meters":10800,"station_id":"ce4bhnp2rcd13ifvqgvg","pricing_plan_id":"cebpf4jnsgd1na2vs0mg"},{"bike_id":"d0787291-e429-4208-85a6-e34ee193a0c6","system_id":"levelo_inurba_marseille","lat":43.29045,"lon":5.35903,"is_reserved":false,"is_disabled":false,"rental_uris":{"android":"levelo://app?vid=d0787291-e429-4208-85a6-e34ee193a0c6","ios":"levelo://app?vid=d0787291-e429-4208-85a6-e34ee193a0c6"},"vehicle_type_id":"4","last_reported":1739881092,"current_range_meters":11200,"station_id":"ce4bha92rcd13ifvqeg0","pricing_plan_id":"cebpf4jnsgd1na2vs0mg"},{"bike_id":"b4f7951e-a8d9-4f42-b03f-b06ba82daa83","system_id":"levelo_inurba_marseille","lat":43.27185,"lon":5.41023,"is_reserved":false,"is_disabled":false,"rental_uris":{"android":"levelo://app?vid=b4f7951e-a8d9-4f42-b03f-b06ba82daa83","ios":"levelo://app?vid=b4f7951e-a8d9-4f42-b03f-b06ba82daa83"},"vehicle_type_id":"4","last_reported":1739881092,"current_range_meters":11200,"station_id":"ce4bhl12rcd13ifvqgf0","pricing_plan_id":"cebpf4jnsgd1na2vs0mg"},{"bike_id":"e57f9313-8443-49d5-820a-e3f0c205b6f2","system_id":"levelo_inurba_marseille","lat":43.24069,"lon":5.37753,"is_reserved":false,"is_disabled":false,"rental_uris":{"android":"levelo://app?vid=e57f9313-8443-49d5-820a-e3f0c205b6f2","ios":"levelo://app?vid=e57f9313-8443-49d5-820a-e3f0c205b6f2"},"vehicle_type_id":"4","last_reported":1739881092,"current_range_meters":11200,"station_id":"","pricing_plan_id":"cebpf4jnsgd1na2vs0mg"},{"bike_id":"cbea2534-6656-4920-bbc2-3ccb6f0e64cd","system_id":"levelo_inurba_marseille","lat":43.30544,"lon":5.36545,"is_reserved":false,"is_disabled":false,"rental_uris":{"android":"levelo://app?vid=cbea2534-6656-4920-bbc2-3ccb6f0e64cd","ios":"levelo://app?vid=cbea2534-6656-4920-bbc2-3ccb6f0e64cd"},"vehicle_type_id":"4","last_reported":1739881092,"current_range_meters":11600,"station_id":"ce4bgs12rcd13ifvqcag","pricing_plan_id":"cebpf4jnsgd1na2vs0mg"},{"bike_id":"cb8372d6-bad2-4555-89ad-5b495afb0b59","system_id":"levelo_inurba_marseille","lat":43.24822,"lon":5.37459,"is_reserved":false,"is_disabled":false,"rental_uris":{"android":"levelo://app?vid=cb8372d6-bad2-4555-89ad-5b495afb0b59","ios":"levelo://app?vid=cb8372d6-bad2-4555-89ad-5b495afb0b59"},"vehicle_type_id":"4","last_reported":1739881092,"current_range_meters":11600,"station_id":"ce4bhgh2rcd13ifvqfb0","pricing_plan_id":"cebpf4jnsgd1na2vs0mg"},{"bike_id":"bd3ab171-92af-48f9-a4eb-3cd73080ce8d","system_id":"levelo_inurba_marseille","lat":43.29236,"lon":5.40907,"is_reserved":false,"is_disabled":false,"rental_uris":{"android":"levelo://app?vid=bd3ab171-92af-48f9-a4eb-3cd73080ce8d","ios":"levelo://app?vid=bd3ab171-92af-48f9-a4eb-3cd73080ce8d"},"vehicle_type_id":"4","last_reported":1739881092,"current_range_meters":11600,"station_id":"ce4bh192rcd13ifvqdc0","pricing_plan_id":"cebpf4jnsgd1na2vs0mg"},{"bike_id":"eff0b890-0e69-406c-a9b6-0f893e8df4ea","system_id":"levelo_inurba_marseille","lat":43.30088,"lon":5.39079,"is_reserved":false,"is_disabled":false,"rental_uris":{"android":"levelo://app?vid=eff0b890-0e69-406c-a9b6-0f893e8df4ea","ios":"levelo://app?vid=eff0b890-0e69-406c-a9b6-0f893e8df4ea"},"vehicle_type_id":"4","last_reported":1739881092,"current_range_meters":11600,"station_id":"ce4bh192rcd13ifvqdb0","pricing_plan_id":"cebpf4jnsgd1na2vs0mg"},{"bike_id":"d0ba6d13-41ec-4455-bcbb-2f48ec30c435","system_id":"levelo_inurba_marseille","lat":43.28863,"lon":5.39299,"is_reserved":false,"is_disabled":false,"rental_uris":{"android":"levelo://app?vid=d0ba6d13-41ec-4455-bcbb-2f48ec30c435","ios":"levelo://app?vid=d0ba6d13-41ec-4455-bcbb-2f48ec30c435"},"vehicle_type_id":"4","last_reported":1739881092,"current_range_meters":12000,"station_id":"ce4bh2p2rcd13ifvqdi0","pricing_plan_id":"cebpf4jnsgd1na2vs0mg"},{"bike_id":"3eccfc18-51b1-4a32-9f00-dbe2668c8e61","system_id":"levelo_inurba_marseille","lat":43.32487,"lon":5.36578,"is_reserved":false,"is_disabled":false,"rental_uris":{"android":"levelo://app?vid=3eccfc18-51b1-4a32-9f00-dbe2668c8e61","ios":"levelo://app?vid=3eccfc18-51b1-4a32-9f00-dbe2668c8e61"},"vehicle_type_id":"4","last_reported":1739881092,"current_range_meters":12000,"station_id":"ce4bhs12rcd13ifvqhvg","pricing_plan_id":"cebpf4jnsgd1na2vs0mg"},{"bike_id":"a69fe923-bbbf-424c-834a-23b10868f7c7","system_id":"levelo_inurba_marseille","lat":43.30297,"lon":5.36883,"is_reserved":false,"is_disabled":false,"rental_uris":{"android":"levelo://app?vid=a69fe923-bbbf-424c-834a-23b10868f7c7","ios":"levelo://app?vid=a69fe923-bbbf-424c-834a-23b10868f7c7"},"vehicle_type_id":"4","last_reported":1739881092,"current_range_meters":12000,"station_id":"ce4bgqh2rcd13ifvqc5g","pricing_plan_id":"cebpf4jnsgd1na2vs0mg"},{"bike_id":"1f73d6b6-e66e-4833-bfa1-148a7786476b","system_id":"levelo_inurba_marseille","lat":43.24168,"lon":5.36395,"is_reserved":false,"is_disabled":false,"rental_uris":{"android":"levelo://app?vid=1f73d6b6-e66e-4833-bfa1-148a7786476b","ios":"levelo://app?vid=1f73d6b6-e66e-4833-bfa1-148a7786476b"},"vehicle_type_id":"4","last_reported":1739881092,"current_range_meters":12000,"station_id":"cpo36qri1sfpv3e86is0","pricing_plan_id":"cebpf4jnsgd1na2vs0mg"},{"bike_id":"ce4d7000-25b5-4b5c-9f16-89bd6e4c9780","system_id":"levelo_inurba_marseille","lat":43.30538,"lon":5.36522,"is_reserved":false,"is_disabled":false,"rental_uris":{"android":"levelo://app?vid=ce4d7000-25b5-4b5c-9f16-89bd6e4c9780","ios":"levelo://app?vid=ce4d7000-25b5-4b5c-9f16-89bd6e4c9780"},"vehicle_type_id":"4","last_reported":1739881092,"current_range_meters":12400,"station_id":"ce4bgs12rcd13ifvqcag","pricing_plan_id":"cebpf4jnsgd1na2vs0mg"},{"bike_id":"694680bb-b90d-4ded-917c-1467bce9ad9a","system_id":"levelo_inurba_marseille","lat":43.25564,"lon":5.38242,"is_reserved":false,"is_disabled":false,"rental_uris":{"android":"levelo://app?vid=694680bb-b90d-4ded-917c-1467bce9ad9a","ios":"levelo://app?vid=694680bb-b90d-4ded-917c-1467bce9ad9a"},"vehicle_type_id":"4","last_reported":1739881092,"current_range_meters":12400,"station_id":"ce4bhih2rcd13ifvqfs0","pricing_plan_id":"cebpf4jnsgd1na2vs0mg"},{"bike_id":"91bf3218-0a05-4226-acc9-b3131b7d5a8d","system_id":"levelo_inurba_marseille","lat":43.23965,"lon":5.36619,"is_reserved":false,"is_disabled":false,"rental_uris":{"android":"levelo://app?vid=91bf3218-0a05-4226-acc9-b3131b7d5a8d","ios":"levelo://app?vid=91bf3218-0a05-4226-acc9-b3131b7d5a8d"},"vehicle_type_id":"4","last_reported":1739881092,"current_range_meters":12400,"station_id":"ce4bhi12rcd13ifvqfp0","pricing_plan_id":"cebpf4jnsgd1na2vs0mg"},{"bike_id":"42c7cfa8-bce6-4834-be4f-e8fd7551245d","system_id":"levelo_inurba_marseille","lat":43.28621,"lon":5.42607,"is_reserved":false,"is_disabled":false,"rental_uris":{"android":"levelo://app?vid=42c7cfa8-bce6-4834-be4f-e8fd7551245d","ios":"levelo://app?vid=42c7cfa8-bce6-4834-be4f-e8fd7551245d"},"vehicle_type_id":"4","last_reported":1739881092,"current_range_meters":12400,"station_id":"","pricing_plan_id":"cebpf4jnsgd1na2vs0mg"},{"bike_id":"72cc0d3e-c2c3-4b8c-8154-405dd09f1fa3","system_id":"levelo_inurba_marseille","lat":43.23746,"lon":5.36435,"is_reserved":false,"is_disabled":false,"rental_uris":{"android":"levelo://app?vid=72cc0d3e-c2c3-4b8c-8154-405dd09f1fa3","ios":"levelo://app?vid=72cc0d3e-c2c3-4b8c-8154-405dd09f1fa3"},"vehicle_type_id":"4","last_reported":1739881092,"current_range_meters":12400,"station_id":"","pricing_plan_id":"cebpf4jnsgd1na2vs0mg"},{"bike_id":"61a09da3-817e-4fdb-bb9e-edd72332690e","system_id":"levelo_inurba_marseille","lat":43.28628,"lon":5.35103,"is_reserved":false,"is_disabled":false,"rental_uris":{"android":"levelo://app?vid=61a09da3-817e-4fdb-bb9e-edd72332690e","ios":"levelo://app?vid=61a09da3-817e-4fdb-bb9e-edd72332690e"},"vehicle_type_id":"4","last_reported":1739881092,"current_range_meters":12400,"station_id":"ce4bhch2rcd13ifvqeug","pricing_plan_id":"cebpf4jnsgd1na2vs0mg"},{"bike_id":"0abc1ab9-ba53-43c5-97f4-7846cddaf2b2","system_id":"levelo_inurba_marseille","lat":43.26216,"lon":5.37436,"is_reserved":false,"is_disabled":false,"rental_uris":{"android":"levelo://app?vid=0abc1ab9-ba53-43c5-97f4-7846cddaf2b2","ios":"levelo://app?vid=0abc1ab9-ba53-43c5-97f4-7846cddaf2b2"},"vehicle_type_id":"4","last_reported":1739881092,"current_range_meters":12400,"station_id":"","pricing_plan_id":"cebpf4jnsgd1na2vs0mg"},{"bike_id":"d25a22e0-7455-4513-99bc-951378f92f4b","system_id":"levelo_inurba_marseille","lat":43.26555,"lon":5.37285,"is_reserved":false,"is_disabled":false,"rental_uris":{"android":"levelo://app?vid=d25a22e0-7455-4513-99bc-951378f92f4b","ios":"levelo://app?vid=d25a22e0-7455-4513-99bc-951378f92f4b"},"vehicle_type_id":"4","last_reported":1739881092,"current_range_meters":12800,"station_id":"","pricing_plan_id":"cebpf4jnsgd1na2vs0mg"},{"bike_id":"39fc215e-0db6-4887-aaff-bcc3515a473f","system_id":"levelo_inurba_marseille","lat":43.3134,"lon":5.39698,"is_reserved":false,"is_disabled":false,"rental_uris":{"android":"levelo://app?vid=39fc215e-0db6-4887-aaff-bcc3515a473f","ios":"levelo://app?vid=39fc215e-0db6-4887-aaff-bcc3515a473f"},"vehicle_type_id":"4","last_reported":1739881092,"current_range_meters":13600,"station_id":"","pricing_plan_id":"cebpf4jnsgd1na2vs0mg"},{"bike_id":"9c37e5d8-91f5-4a64-8eca-b67a21a3955b","system_id":"levelo_inurba_marseille","lat":43.3042,"lon":5.41296,"is_reserved":false,"is_disabled":false,"rental_uris":{"android":"levelo://app?vid=9c37e5d8-91f5-4a64-8eca-b67a21a3955b","ios":"levelo://app?vid=9c37e5d8-91f5-4a64-8eca-b67a21a3955b"},"vehicle_type_id":"4","last_reported":1739881092,"current_range_meters":13600,"station_id":"ce4bhop2rcd13ifvqh8g","pricing_plan_id":"cebpf4jnsgd1na2vs0mg"},{"bike_id":"14311477-6ec0-4310-8732-61a600a44846","system_id":"levelo_inurba_marseille","lat":43.29655,"lon":5.40598,"is_reserved":false,"is_disabled":false,"rental_uris":{"android":"levelo://app?vid=14311477-6ec0-4310-8732-61a600a44846","ios":"levelo://app?vid=14311477-6ec0-4310-8732-61a600a44846"},"vehicle_type_id":"4","last_reported":1739881092,"current_range_meters":14000,"station_id":"ce4bh0h2rcd13ifvqd60","pricing_plan_id":"cebpf4jnsgd1na2vs0mg"},{"bike_id":"9f31a3d3-15b6-4440-a520-af4777319059","system_id":"levelo_inurba_marseille","lat":43.29894,"lon":5.39751,"is_reserved":false,"is_disabled":false,"rental_uris":{"android":"levelo://app?vid=9f31a3d3-15b6-4440-a520-af4777319059","ios":"levelo://app?vid=9f31a3d3-15b6-4440-a520-af4777319059"},"vehicle_type_id":"4","last_reported":1739881092,"current_range_meters":16800,"station_id":"ce4bh0h2rcd13ifvqd50","pricing_plan_id":"cebpf4jnsgd1na2vs0mg"},{"bike_id":"4abfb90c-6529-4999-9e67-6e786dd7141f","system_id":"levelo_inurba_marseille","lat":43.26201,"lon":5.37928,"is_reserved":false,"is_disabled":false,"rental_uris":{"android":"levelo://app?vid=4abfb90c-6529-4999-9e67-6e786dd7141f","ios":"levelo://app?vid=4abfb90c-6529-4999-9e67-6e786dd7141f"},"vehicle_type_id":"4","last_reported":1739881092,"current_range_meters":14000,"station_id":"ce4bhjp2rcd13ifvqg90","pricing_plan_id":"cebpf4jnsgd1na2vs0mg"},{"bike_id":"6c96a73f-ff01-463f-bd8c-14885ee904b6","system_id":"levelo_inurba_marseille","lat":43.29072,"lon":5.35731,"is_reserved":false,"is_disabled":false,"rental_uris":{"android":"levelo://app?vid=6c96a73f-ff01-463f-bd8c-14885ee904b6","ios":"levelo://app?vid=6c96a73f-ff01-463f-bd8c-14885ee904b6"},"vehicle_type_id":"4","last_reported":1739881092,"current_range_meters":14000,"station_id":"ce4bhb92rcd13ifvqen0","pricing_plan_id":"cebpf4jnsgd1na2vs0mg"},{"bike_id":"ccdd11d6-2d1a-4678-bae9-e7c9714d22a2","system_id":"levelo_inurba_marseille","lat":43.34147,"lon":5.40905,"is_reserved":false,"is_disabled":false,"rental_uris":{"android":"levelo://app?vid=ccdd11d6-2d1a-4678-bae9-e7c9714d22a2","ios":"levelo://app?vid=ccdd11d6-2d1a-4678-bae9-e7c9714d22a2"},"vehicle_type_id":"4","last_reported":1739881092,"current_range_meters":14000,"station_id":"ce4bhqh2rcd13ifvqhlg","pricing_plan_id":"cebpf4jnsgd1na2vs0mg"},{"bike_id":"07fe6db8-3e0f-4ec5-9495-554663445249","system_id":"levelo_inurba_marseille","lat":43.28857,"lon":5.35847,"is_reserved":false,"is_disabled":false,"rental_uris":{"android":"levelo://app?vid=07fe6db8-3e0f-4ec5-9495-554663445249","ios":"levelo://app?vid=07fe6db8-3e0f-4ec5-9495-554663445249"},"vehicle_type_id":"4","last_reported":1739881092,"current_range_meters":14400,"station_id":"ce4bhb12rcd13ifvqem0","pricing_plan_id":"cebpf4jnsgd1na2vs0mg"},{"bike_id":"c7a12a6d-264c-4134-9766-90b202f17d16","system_id":"levelo_inurba_marseille","lat":43.29279,"lon":5.36848,"is_reserved":false,"is_disabled":false,"rental_uris":{"android":"levelo://app?vid=c7a12a6d-264c-4134-9766-90b202f17d16","ios":"levelo://app?vid=c7a12a6d-264c-4134-9766-90b202f17d16"},"vehicle_type_id":"4","last_reported":1739881092,"current_range_meters":14400,"station_id":"","pricing_plan_id":"cebpf4jnsgd1na2vs0mg"},{"bike_id":"eeb0e5c1-4a28-400c-b9c6-9972d89f1911","system_id":"levelo_inurba_marseille","lat":43.29285,"lon":5.37429,"is_reserved":false,"is_disabled":false,"rental_uris":{"android":"levelo://app?vid=eeb0e5c1-4a28-400c-b9c6-9972d89f1911","ios":"levelo://app?vid=eeb0e5c1-4a28-400c-b9c6-9972d89f1911"},"vehicle_type_id":"4","last_reported":1739881092,"current_range_meters":14400,"station_id":"ce4bgi12rcd13ifvqb70","pricing_plan_id":"cebpf4jnsgd1na2vs0mg"},{"bike_id":"f916af0f-8714-4518-adb5-98f1d3b8485a","system_id":"levelo_inurba_marseille","lat":43.28129,"lon":5.37821,"is_reserved":false,"is_disabled":false,"rental_uris":{"android":"levelo://app?vid=f916af0f-8714-4518-adb5-98f1d3b8485a","ios":"levelo://app?vid=f916af0f-8714-4518-adb5-98f1d3b8485a"},"vehicle_type_id":"4","last_reported":1739881092,"current_range_meters":14400,"station_id":"ce4bha12rcd13ifvqee0","pricing_plan_id":"cebpf4jnsgd1na2vs0mg"},{"bike_id":"c046719e-1a20-47e5-8cc4-b446b979b3dc","system_id":"levelo_inurba_marseille","lat":43.30417,"lon":5.41295,"is_reserved":false,"is_disabled":false,"rental_uris":{"android":"levelo://app?vid=c046719e-1a20-47e5-8cc4-b446b979b3dc","ios":"levelo://app?vid=c046719e-1a20-47e5-8cc4-b446b979b3dc"},"vehicle_type_id":"4","last_reported":1739881092,"current_range_meters":14400,"station_id":"","pricing_plan_id":"cebpf4jnsgd1na2vs0mg"},{"bike_id":"6b0a6f24-186b-4cfd-8518-1ef79f201885","system_id":"levelo_inurba_marseille","lat":43.2963,"lon":5.37732,"is_reserved":false,"is_disabled":false,"rental_uris":{"android":"levelo://app?vid=6b0a6f24-186b-4cfd-8518-1ef79f201885","ios":"levelo://app?vid=6b0a6f24-186b-4cfd-8518-1ef79f201885"},"vehicle_type_id":"4","last_reported":1739881092,"current_range_meters":14800,"station_id":"ce4bgi92rcd13ifvqb90","pricing_plan_id":"cebpf4jnsgd1na2vs0mg"},{"bike_id":"fb5f22ff-2396-4087-a0fb-c0b12f026439","system_id":"levelo_inurba_marseille","lat":43.30307,"lon":5.36898,"is_reserved":false,"is_disabled":false,"rental_uris":{"android":"levelo://app?vid=fb5f22ff-2396-4087-a0fb-c0b12f026439","ios":"levelo://app?vid=fb5f22ff-2396-4087-a0fb-c0b12f026439"},"vehicle_type_id":"4","last_reported":1739881092,"current_range_meters":14800,"station_id":"ce4bgqh2rcd13ifvqc5g","pricing_plan_id":"cebpf4jnsgd1na2vs0mg"},{"bike_id":"ef36ea69-cd6e-4974-8daa-be595f290138","system_id":"levelo_inurba_marseille","lat":43.28934,"lon":5.36639,"is_reserved":false,"is_disabled":false,"rental_uris":{"android":"levelo://app?vid=ef36ea69-cd6e-4974-8daa-be595f290138","ios":"levelo://app?vid=ef36ea69-cd6e-4974-8daa-be595f290138"},"vehicle_type_id":"4","last_reported":1739881092,"current_range_meters":14800,"station_id":"ce4bhap2rcd13ifvqek0","pricing_plan_id":"cebpf4jnsgd1na2vs0mg"},{"bike_id":"06aa5fc9-9685-46ce-b13c-13c128b477d3","system_id":"levelo_inurba_marseille","lat":43.26221,"lon":5.37465,"is_reserved":false,"is_disabled":false,"rental_uris":{"android":"levelo://app?vid=06aa5fc9-9685-46ce-b13c-13c128b477d3","ios":"levelo://app?vid=06aa5fc9-9685-46ce-b13c-13c128b477d3"},"vehicle_type_id":"4","last_reported":1739881092,"current_range_meters":14800,"station_id":"ce4bhgp2rcd13ifvqfc0","pricing_plan_id":"cebpf4jnsgd1na2vs0mg"},{"bike_id":"082e3bbb-629d-4e65-adf3-d4ed60c37dde","system_id":"levelo_inurba_marseille","lat":43.28441,"lon":5.37517,"is_reserved":false,"is_disabled":false,"rental_uris":{"android":"levelo://app?vid=082e3bbb-629d-4e65-adf3-d4ed60c37dde","ios":"levelo://app?vid=082e3bbb-629d-4e65-adf3-d4ed60c37dde"},"vehicle_type_id":"4","last_reported":1739881092,"current_range_meters":14800,"station_id":"ce4bh412rcd13ifvqds0","pricing_plan_id":"cebpf4jnsgd1na2vs0mg"},{"bike_id":"e549cd00-d280-4ec2-9091-42e465274985","system_id":"levelo_inurba_marseille","lat":43.29265,"lon":5.40904,"is_reserved":false,"is_disabled":false,"rental_uris":{"android":"levelo://app?vid=e549cd00-d280-4ec2-9091-42e465274985","ios":"levelo://app?vid=e549cd00-d280-4ec2-9091-42e465274985"},"vehicle_type_id":"4","last_reported":1739881092,"current_range_meters":14800,"station_id":"ce4bh192rcd13ifvqdc0","pricing_plan_id":"cebpf4jnsgd1na2vs0mg"},{"bike_id":"d7a15df9-526d-44d9-9149-0a3ee440ee5b","system_id":"levelo_inurba_marseille","lat":43.22926,"lon":5.35376,"is_reserved":false,"is_disabled":false,"rental_uris":{"android":"levelo://app?vid=d7a15df9-526d-44d9-9149-0a3ee440ee5b","ios":"levelo://app?vid=d7a15df9-526d-44d9-9149-0a3ee440ee5b"},"vehicle_type_id":"4","last_reported":1739881092,"current_range_meters":15200,"station_id":"cpo3532slgdg3j2ikp40","pricing_plan_id":"cebpf4jnsgd1na2vs0mg"},{"bike_id":"87e4e3d9-887e-4f25-bf58-279367bc8327","system_id":"levelo_inurba_marseille","lat":43.30693,"lon":5.40109,"is_reserved":false,"is_disabled":true,"rental_uris":{"android":"levelo://app?vid=87e4e3d9-887e-4f25-bf58-279367bc8327","ios":"levelo://app?vid=87e4e3d9-887e-4f25-bf58-279367bc8327"},"vehicle_type_id":"4","last_reported":1739881092,"current_range_meters":15200,"station_id":"ce4bh112rcd13ifvqda0","pricing_plan_id":"cebpf4jnsgd1na2vs0mg"},{"bike_id":"736d7730-d07c-4fd7-ba31-8a94e4d29c58","system_id":"levelo_inurba_marseille","lat":43.27627,"lon":5.36101,"is_reserved":false,"is_disabled":false,"rental_uris":{"android":"levelo://app?vid=736d7730-d07c-4fd7-ba31-8a94e4d29c58","ios":"levelo://app?vid=736d7730-d07c-4fd7-ba31-8a94e4d29c58"},"vehicle_type_id":"4","last_reported":1739881092,"current_range_meters":15200,"station_id":"ce4bgj92rcd13ifvqbe0","pricing_plan_id":"cebpf4jnsgd1na2vs0mg"},{"bike_id":"e5447ae4-2106-44ae-9020-008285d92136","system_id":"levelo_inurba_marseille","lat":43.30201,"lon":5.37436,"is_reserved":false,"is_disabled":false,"rental_uris":{"android":"levelo://app?vid=e5447ae4-2106-44ae-9020-008285d92136","ios":"levelo://app?vid=e5447ae4-2106-44ae-9020-008285d92136"},"vehicle_type_id":"4","last_reported":1739881092,"current_range_meters":15200,"station_id":"ce4bgs92rcd13ifvqcc0","pricing_plan_id":"cebpf4jnsgd1na2vs0mg"},{"bike_id":"5ef690e9-64d7-44be-ac91-d01a5961d73c","system_id":"levelo_inurba_marseille","lat":43.26565,"lon":5.39026,"is_reserved":false,"is_disabled":false,"rental_uris":{"android":"levelo://app?vid=5ef690e9-64d7-44be-ac91-d01a5961d73c","ios":"levelo://app?vid=5ef690e9-64d7-44be-ac91-d01a5961d73c"},"vehicle_type_id":"4","last_reported":1739881092,"current_range_meters":15200,"station_id":"ce4bhe12rcd13ifvqf30","pricing_plan_id":"cebpf4jnsgd1na2vs0mg"},{"bike_id":"9a5c519a-7b8d-4746-82db-fa931e082a88","system_id":"levelo_inurba_marseille","lat":43.32366,"lon":5.38883,"is_reserved":false,"is_disabled":false,"rental_uris":{"android":"levelo://app?vid=9a5c519a-7b8d-4746-82db-fa931e082a88","ios":"levelo://app?vid=9a5c519a-7b8d-4746-82db-fa931e082a88"},"vehicle_type_id":"4","last_reported":1739881092,"current_range_meters":15200,"station_id":"ce4bhqp2rcd13ifvqhog","pricing_plan_id":"cebpf4jnsgd1na2vs0mg"},{"bike_id":"bb4e4ca4-eb80-4ef1-b14b-2571a3072fdd","system_id":"levelo_inurba_marseille","lat":43.23972,"lon":5.36611,"is_reserved":false,"is_disabled":false,"rental_uris":{"android":"levelo://app?vid=bb4e4ca4-eb80-4ef1-b14b-2571a3072fdd","ios":"levelo://app?vid=bb4e4ca4-eb80-4ef1-b14b-2571a3072fdd"},"vehicle_type_id":"4","last_reported":1739881092,"current_range_meters":15200,"station_id":"","pricing_plan_id":"cebpf4jnsgd1na2vs0mg"},{"bike_id":"9444f0b1-ee63-4c08-b4c3-16d111b6017a","system_id":"levelo_inurba_marseille","lat":43.25944,"lon":5.40902,"is_reserved":false,"is_disabled":false,"rental_uris":{"android":"levelo://app?vid=9444f0b1-ee63-4c08-b4c3-16d111b6017a","ios":"levelo://app?vid=9444f0b1-ee63-4c08-b4c3-16d111b6017a"},"vehicle_type_id":"4","last_reported":1739881092,"current_range_meters":15200,"station_id":"","pricing_plan_id":"cebpf4jnsgd1na2vs0mg"},{"bike_id":"8d13c36c-1f65-4def-98f4-ceabd4089207","system_id":"levelo_inurba_marseille","lat":43.29594,"lon":5.3811,"is_reserved":false,"is_disabled":false,"rental_uris":{"android":"levelo://app?vid=8d13c36c-1f65-4def-98f4-ceabd4089207","ios":"levelo://app?vid=8d13c36c-1f65-4def-98f4-ceabd4089207"},"vehicle_type_id":"4","last_reported":1739881092,"current_range_meters":15200,"station_id":"ce4bgl12rcd13ifvqbo0","pricing_plan_id":"cebpf4jnsgd1na2vs0mg"},{"bike_id":"fb5d34ef-b93b-40b7-8eaa-8f58d48a435b","system_id":"levelo_inurba_marseille","lat":43.23148,"lon":5.43709,"is_reserved":false,"is_disabled":false,"rental_uris":{"android":"levelo://app?vid=fb5d34ef-b93b-40b7-8eaa-8f58d48a435b","ios":"levelo://app?vid=fb5d34ef-b93b-40b7-8eaa-8f58d48a435b"},"vehicle_type_id":"4","last_reported":1739881092,"current_range_meters":15200,"station_id":"ce4bhmp2rcd13ifvqgog","pricing_plan_id":"cebpf4jnsgd1na2vs0mg"},{"bike_id":"8c1b6425-35d6-48a7-8fa6-960133ec665f","system_id":"levelo_inurba_marseille","lat":43.28161,"lon":5.42637,"is_reserved":false,"is_disabled":false,"rental_uris":{"android":"levelo://app?vid=8c1b6425-35d6-48a7-8fa6-960133ec665f","ios":"levelo://app?vid=8c1b6425-35d6-48a7-8fa6-960133ec665f"},"vehicle_type_id":"4","last_reported":1739881092,"current_range_meters":16000,"station_id":"ce4bhnh2rcd13ifvqgug","pricing_plan_id":"cebpf4jnsgd1na2vs0mg"},{"bike_id":"a26a99d1-68ce-48da-a3b0-615523c50419","system_id":"levelo_inurba_marseille","lat":43.2314,"lon":5.43727,"is_reserved":false,"is_disabled":false,"rental_uris":{"android":"levelo://app?vid=a26a99d1-68ce-48da-a3b0-615523c50419","ios":"levelo://app?vid=a26a99d1-68ce-48da-a3b0-615523c50419"},"vehicle_type_id":"4","last_reported":1739881092,"current_range_meters":16000,"station_id":"ce4bhmp2rcd13ifvqgog","pricing_plan_id":"cebpf4jnsgd1na2vs0mg"},{"bike_id":"6f2c6ac3-0fa9-4eb8-b23f-d4ee89b42a9e","system_id":"levelo_inurba_marseille","lat":43.24808,"lon":5.37456,"is_reserved":false,"is_disabled":false,"rental_uris":{"android":"levelo://app?vid=6f2c6ac3-0fa9-4eb8-b23f-d4ee89b42a9e","ios":"levelo://app?vid=6f2c6ac3-0fa9-4eb8-b23f-d4ee89b42a9e"},"vehicle_type_id":"4","last_reported":1739881092,"current_range_meters":16000,"station_id":"","pricing_plan_id":"cebpf4jnsgd1na2vs0mg"},{"bike_id":"b77c1893-238f-4416-a457-561ed559280e","system_id":"levelo_inurba_marseille","lat":43.29902,"lon":5.38142,"is_reserved":false,"is_disabled":false,"rental_uris":{"android":"levelo://app?vid=b77c1893-238f-4416-a457-561ed559280e","ios":"levelo://app?vid=b77c1893-238f-4416-a457-561ed559280e"},"vehicle_type_id":"4","last_reported":1739881092,"current_range_meters":16000,"station_id":"ce4bgj12rcd13ifvqbc0","pricing_plan_id":"cebpf4jnsgd1na2vs0mg"},{"bike_id":"ff073a9e-993a-43ed-a064-de82c2d90f6f","system_id":"levelo_inurba_marseille","lat":43.27217,"lon":5.39217,"is_reserved":false,"is_disabled":false,"rental_uris":{"android":"levelo://app?vid=ff073a9e-993a-43ed-a064-de82c2d90f6f","ios":"levelo://app?vid=ff073a9e-993a-43ed-a064-de82c2d90f6f"},"vehicle_type_id":"4","last_reported":1739881092,"current_range_meters":16000,"station_id":"ce4bhhp2rcd13ifvqfm0","pricing_plan_id":"cebpf4jnsgd1na2vs0mg"},{"bike_id":"25ea9eec-29d9-4063-8007-929ebb2d1ef2","system_id":"levelo_inurba_marseille","lat":43.25498,"lon":5.37651,"is_reserved":false,"is_disabled":false,"rental_uris":{"android":"levelo://app?vid=25ea9eec-29d9-4063-8007-929ebb2d1ef2","ios":"levelo://app?vid=25ea9eec-29d9-4063-8007-929ebb2d1ef2"},"vehicle_type_id":"4","last_reported":1739881092,"current_range_meters":16000,"station_id":"ce4bhh12rcd13ifvqff0","pricing_plan_id":"cebpf4jnsgd1na2vs0mg"},{"bike_id":"4bd64ff7-6c28-4df6-bd8a-e5a26782ea94","system_id":"levelo_inurba_marseille","lat":43.3229,"lon":5.38268,"is_reserved":false,"is_disabled":false,"rental_uris":{"android":"levelo://app?vid=4bd64ff7-6c28-4df6-bd8a-e5a26782ea94","ios":"levelo://app?vid=4bd64ff7-6c28-4df6-bd8a-e5a26782ea94"},"vehicle_type_id":"4","last_reported":1739881092,"current_range_meters":16000,"station_id":"ce4bhr12rcd13ifvqhqg","pricing_plan_id":"cebpf4jnsgd1na2vs0mg"},{"bike_id":"90017611-e2b1-401c-bcbf-f9d526ffc823","system_id":"levelo_inurba_marseille","lat":43.29354,"lon":5.38301,"is_reserved":false,"is_disabled":false,"rental_uris":{"android":"levelo://app?vid=90017611-e2b1-401c-bcbf-f9d526ffc823","ios":"levelo://app?vid=90017611-e2b1-401c-bcbf-f9d526ffc823"},"vehicle_type_id":"4","last_reported":1739881092,"current_range_meters":16000,"station_id":"","pricing_plan_id":"cebpf4jnsgd1na2vs0mg"},{"bike_id":"02cdf68d-c165-42cb-999b-fa1508a11d95","system_id":"levelo_inurba_marseille","lat":43.29802,"lon":5.38102,"is_reserved":false,"is_disabled":false,"rental_uris":{"android":"levelo://app?vid=02cdf68d-c165-42cb-999b-fa1508a11d95","ios":"levelo://app?vid=02cdf68d-c165-42cb-999b-fa1508a11d95"},"vehicle_type_id":"4","last_reported":1739881092,"current_range_meters":15200,"station_id":"ce4bgip2rcd13ifvqbb0","pricing_plan_id":"cebpf4jnsgd1na2vs0mg"},{"bike_id":"d1dec037-ee4c-4db9-a655-1087d8ee1f4f","system_id":"levelo_inurba_marseille","lat":43.28444,"lon":5.39175,"is_reserved":false,"is_disabled":true,"rental_uris":{"android":"levelo://app?vid=d1dec037-ee4c-4db9-a655-1087d8ee1f4f","ios":"levelo://app?vid=d1dec037-ee4c-4db9-a655-1087d8ee1f4f"},"vehicle_type_id":"4","last_reported":1739881092,"current_range_meters":16400,"station_id":"","pricing_plan_id":"cebpf4jnsgd1na2vs0mg"},{"bike_id":"3c4e5d2a-d3c3-45ef-a689-fa3e70405eb3","system_id":"levelo_inurba_marseille","lat":43.30916,"lon":5.36847,"is_reserved":false,"is_disabled":false,"rental_uris":{"android":"levelo://app?vid=3c4e5d2a-d3c3-45ef-a689-fa3e70405eb3","ios":"levelo://app?vid=3c4e5d2a-d3c3-45ef-a689-fa3e70405eb3"},"vehicle_type_id":"4","last_reported":1739881092,"current_range_meters":16400,"station_id":"ce4bgn92rcd13ifvqbvg","pricing_plan_id":"cebpf4jnsgd1na2vs0mg"},{"bike_id":"98e62db4-7bd1-40ef-8540-03a857899c68","system_id":"levelo_inurba_marseille","lat":43.27218,"lon":5.39195,"is_reserved":false,"is_disabled":false,"rental_uris":{"android":"levelo://app?vid=98e62db4-7bd1-40ef-8540-03a857899c68","ios":"levelo://app?vid=98e62db4-7bd1-40ef-8540-03a857899c68"},"vehicle_type_id":"4","last_reported":1739881092,"current_range_meters":16400,"station_id":"ce4bhhp2rcd13ifvqfm0","pricing_plan_id":"cebpf4jnsgd1na2vs0mg"},{"bike_id":"6982932c-8b58-44dc-b527-b718293a6b27","system_id":"levelo_inurba_marseille","lat":43.28187,"lon":5.42594,"is_reserved":false,"is_disabled":true,"rental_uris":{"android":"levelo://app?vid=6982932c-8b58-44dc-b527-b718293a6b27","ios":"levelo://app?vid=6982932c-8b58-44dc-b527-b718293a6b27"},"vehicle_type_id":"4","last_reported":1739881092,"current_range_meters":16400,"station_id":"ce4bhnh2rcd13ifvqgug","pricing_plan_id":"cebpf4jnsgd1na2vs0mg"},{"bike_id":"57be3f53-c4f4-4786-b668-381c41e92fed","system_id":"levelo_inurba_marseille","lat":43.30552,"lon":5.36569,"is_reserved":false,"is_disabled":false,"rental_uris":{"android":"levelo://app?vid=57be3f53-c4f4-4786-b668-381c41e92fed","ios":"levelo://app?vid=57be3f53-c4f4-4786-b668-381c41e92fed"},"vehicle_type_id":"4","last_reported":1739881092,"current_range_meters":16400,"station_id":"","pricing_plan_id":"cebpf4jnsgd1na2vs0mg"},{"bike_id":"397b80cf-cbf3-4f7e-9d00-ad56509053a2","system_id":"levelo_inurba_marseille","lat":43.29191,"lon":5.39785,"is_reserved":false,"is_disabled":false,"rental_uris":{"android":"levelo://app?vid=397b80cf-cbf3-4f7e-9d00-ad56509053a2","ios":"levelo://app?vid=397b80cf-cbf3-4f7e-9d00-ad56509053a2"},"vehicle_type_id":"4","last_reported":1739881092,"current_range_meters":16400,"station_id":"","pricing_plan_id":"cebpf4jnsgd1na2vs0mg"},{"bike_id":"b767874d-9791-4a28-ab5b-0f02c0b46b47","system_id":"levelo_inurba_marseille","lat":43.29286,"lon":5.37453,"is_reserved":false,"is_disabled":false,"rental_uris":{"android":"levelo://app?vid=b767874d-9791-4a28-ab5b-0f02c0b46b47","ios":"levelo://app?vid=b767874d-9791-4a28-ab5b-0f02c0b46b47"},"vehicle_type_id":"4","last_reported":1739881092,"current_range_meters":16000,"station_id":"ce4bgi12rcd13ifvqb70","pricing_plan_id":"cebpf4jnsgd1na2vs0mg"},{"bike_id":"de2366b4-ced3-4eb3-be98-713932791fba","system_id":"levelo_inurba_marseille","lat":43.28416,"lon":5.34979,"is_reserved":false,"is_disabled":false,"rental_uris":{"android":"levelo://app?vid=de2366b4-ced3-4eb3-be98-713932791fba","ios":"levelo://app?vid=de2366b4-ced3-4eb3-be98-713932791fba"},"vehicle_type_id":"4","last_reported":1739881092,"current_range_meters":16400,"station_id":"ce4bhbh2rcd13ifvqepg","pricing_plan_id":"cebpf4jnsgd1na2vs0mg"},{"bike_id":"695e2770-608f-4ea5-b074-b223fb811be9","system_id":"levelo_inurba_marseille","lat":43.30544,"lon":5.36541,"is_reserved":false,"is_disabled":false,"rental_uris":{"android":"levelo://app?vid=695e2770-608f-4ea5-b074-b223fb811be9","ios":"levelo://app?vid=695e2770-608f-4ea5-b074-b223fb811be9"},"vehicle_type_id":"4","last_reported":1739881092,"current_range_meters":16400,"station_id":"ce4bgs12rcd13ifvqcag","pricing_plan_id":"cebpf4jnsgd1na2vs0mg"},{"bike_id":"1d63a175-89ef-49ff-9ead-dfe9ed6c22cf","system_id":"levelo_inurba_marseille","lat":43.24681,"lon":5.3943,"is_reserved":false,"is_disabled":false,"rental_uris":{"android":"levelo://app?vid=1d63a175-89ef-49ff-9ead-dfe9ed6c22cf","ios":"levelo://app?vid=1d63a175-89ef-49ff-9ead-dfe9ed6c22cf"},"vehicle_type_id":"4","last_reported":1739881092,"current_range_meters":16800,"station_id":"","pricing_plan_id":"cebpf4jnsgd1na2vs0mg"},{"bike_id":"fc432441-9008-451e-966f-adab986ed6be","system_id":"levelo_inurba_marseille","lat":43.23183,"lon":5.39993,"is_reserved":false,"is_disabled":false,"rental_uris":{"android":"levelo://app?vid=fc432441-9008-451e-966f-adab986ed6be","ios":"levelo://app?vid=fc432441-9008-451e-966f-adab986ed6be"},"vehicle_type_id":"4","last_reported":1739881092,"current_range_meters":16800,"station_id":"","pricing_plan_id":"cebpf4jnsgd1na2vs0mg"},{"bike_id":"b879378f-9cee-458f-905a-cd7acea06f16","system_id":"levelo_inurba_marseille","lat":43.33026,"lon":5.39035,"is_reserved":false,"is_disabled":false,"rental_uris":{"android":"levelo://app?vid=b879378f-9cee-458f-905a-cd7acea06f16","ios":"levelo://app?vid=b879378f-9cee-458f-905a-cd7acea06f16"},"vehicle_type_id":"4","last_reported":1739881092,"current_range_meters":17200,"station_id":"ce4bhr92rcd13ifvqhrg","pricing_plan_id":"cebpf4jnsgd1na2vs0mg"},{"bike_id":"e46c70f9-e044-41df-8edd-ebd48600f215","system_id":"levelo_inurba_marseille","lat":43.28626,"lon":5.35085,"is_reserved":false,"is_disabled":false,"rental_uris":{"android":"levelo://app?vid=e46c70f9-e044-41df-8edd-ebd48600f215","ios":"levelo://app?vid=e46c70f9-e044-41df-8edd-ebd48600f215"},"vehicle_type_id":"4","last_reported":1739881092,"current_range_meters":17200,"station_id":"ce4bhch2rcd13ifvqeug","pricing_plan_id":"cebpf4jnsgd1na2vs0mg"},{"bike_id":"83245da5-65bf-4ce4-beda-95e4879d3ebb","system_id":"levelo_inurba_marseille","lat":43.28008,"lon":5.39993,"is_reserved":false,"is_disabled":false,"rental_uris":{"android":"levelo://app?vid=83245da5-65bf-4ce4-beda-95e4879d3ebb","ios":"levelo://app?vid=83245da5-65bf-4ce4-beda-95e4879d3ebb"},"vehicle_type_id":"4","last_reported":1739881092,"current_range_meters":17200,"station_id":"","pricing_plan_id":"cebpf4jnsgd1na2vs0mg"},{"bike_id":"cdb027a0-b875-4ada-92c3-2d2168720582","system_id":"levelo_inurba_marseille","lat":43.28286,"lon":5.35053,"is_reserved":false,"is_disabled":true,"rental_uris":{"android":"levelo://app?vid=cdb027a0-b875-4ada-92c3-2d2168720582","ios":"levelo://app?vid=cdb027a0-b875-4ada-92c3-2d2168720582"},"vehicle_type_id":"4","last_reported":1739881092,"current_range_meters":17200,"station_id":"ce4bhbp2rcd13ifvqerg","pricing_plan_id":"cebpf4jnsgd1na2vs0mg"},{"bike_id":"8aa51797-0b72-45de-8465-65360513f8a3","system_id":"levelo_inurba_marseille","lat":43.29619,"lon":5.40576,"is_reserved":false,"is_disabled":false,"rental_uris":{"android":"levelo://app?vid=8aa51797-0b72-45de-8465-65360513f8a3","ios":"levelo://app?vid=8aa51797-0b72-45de-8465-65360513f8a3"},"vehicle_type_id":"4","last_reported":1739881092,"current_range_meters":17200,"station_id":"ce4bh0h2rcd13ifvqd60","pricing_plan_id":"cebpf4jnsgd1na2vs0mg"},{"bike_id":"b7ee7074-0ed1-413c-95bf-29ca1f13818b","system_id":"levelo_inurba_marseille","lat":43.255806,"lon":5.382385,"is_reserved":false,"is_disabled":false,"rental_uris":{"android":"levelo://app?vid=b7ee7074-0ed1-413c-95bf-29ca1f13818b","ios":"levelo://app?vid=b7ee7074-0ed1-413c-95bf-29ca1f13818b"},"vehicle_type_id":"4","last_reported":1739881092,"current_range_meters":17600,"station_id":"ce4bhih2rcd13ifvqfs0","pricing_plan_id":"cebpf4jnsgd1na2vs0mg"},{"bike_id":"7a8dc522-de25-4e1d-9892-60ff9d52d5bf","system_id":"levelo_inurba_marseille","lat":43.31328,"lon":5.39699,"is_reserved":false,"is_disabled":false,"rental_uris":{"android":"levelo://app?vid=7a8dc522-de25-4e1d-9892-60ff9d52d5bf","ios":"levelo://app?vid=7a8dc522-de25-4e1d-9892-60ff9d52d5bf"},"vehicle_type_id":"4","last_reported":1739881092,"current_range_meters":17600,"station_id":"","pricing_plan_id":"cebpf4jnsgd1na2vs0mg"},{"bike_id":"baf6d894-ad10-49a9-b91a-24f60ad956f7","system_id":"levelo_inurba_marseille","lat":43.28976,"lon":5.4268,"is_reserved":false,"is_disabled":false,"rental_uris":{"android":"levelo://app?vid=baf6d894-ad10-49a9-b91a-24f60ad956f7","ios":"levelo://app?vid=baf6d894-ad10-49a9-b91a-24f60ad956f7"},"vehicle_type_id":"4","last_reported":1739881092,"current_range_meters":17600,"station_id":"","pricing_plan_id":"cebpf4jnsgd1na2vs0mg"},{"bike_id":"3a057b52-4c47-476b-927e-f322b0af127d","system_id":"levelo_inurba_marseille","lat":43.3031,"lon":5.36914,"is_reserved":false,"is_disabled":false,"rental_uris":{"android":"levelo://app?vid=3a057b52-4c47-476b-927e-f322b0af127d","ios":"levelo://app?vid=3a057b52-4c47-476b-927e-f322b0af127d"},"vehicle_type_id":"4","last_reported":1739881092,"current_range_meters":17600,"station_id":"ce4bgqh2rcd13ifvqc5g","pricing_plan_id":"cebpf4jnsgd1na2vs0mg"},{"bike_id":"57b85e3e-c368-41b1-a878-391172a348e1","system_id":"levelo_inurba_marseille","lat":43.28616,"lon":5.35105,"is_reserved":false,"is_disabled":false,"rental_uris":{"android":"levelo://app?vid=57b85e3e-c368-41b1-a878-391172a348e1","ios":"levelo://app?vid=57b85e3e-c368-41b1-a878-391172a348e1"},"vehicle_type_id":"4","last_reported":1739881092,"current_range_meters":18000,"station_id":"ce4bhch2rcd13ifvqeug","pricing_plan_id":"cebpf4jnsgd1na2vs0mg"},{"bike_id":"8ef923ec-a6f1-4090-bbdd-4450d03d8887","system_id":"levelo_inurba_marseille","lat":43.28857,"lon":5.3587,"is_reserved":false,"is_disabled":false,"rental_uris":{"android":"levelo://app?vid=8ef923ec-a6f1-4090-bbdd-4450d03d8887","ios":"levelo://app?vid=8ef923ec-a6f1-4090-bbdd-4450d03d8887"},"vehicle_type_id":"4","last_reported":1739881092,"current_range_meters":17600,"station_id":"ce4bhb12rcd13ifvqem0","pricing_plan_id":"cebpf4jnsgd1na2vs0mg"},{"bike_id":"eb715102-e1b0-444b-990c-d34ec49d64ad","system_id":"levelo_inurba_marseille","lat":43.2418,"lon":5.39725,"is_reserved":false,"is_disabled":false,"rental_uris":{"android":"levelo://app?vid=eb715102-e1b0-444b-990c-d34ec49d64ad","ios":"levelo://app?vid=eb715102-e1b0-444b-990c-d34ec49d64ad"},"vehicle_type_id":"4","last_reported":1739881092,"current_range_meters":18000,"station_id":"ce4bhn12rcd13ifvqgpg","pricing_plan_id":"cebpf4jnsgd1na2vs0mg"},{"bike_id":"e5f0864d-aae3-42d1-b10a-13ddbaf407b9","system_id":"levelo_inurba_marseille","lat":43.28461,"lon":5.35896,"is_reserved":false,"is_disabled":false,"rental_uris":{"android":"levelo://app?vid=e5f0864d-aae3-42d1-b10a-13ddbaf407b9","ios":"levelo://app?vid=e5f0864d-aae3-42d1-b10a-13ddbaf407b9"},"vehicle_type_id":"4","last_reported":1739881092,"current_range_meters":18000,"station_id":"ce4bhah2rcd13ifvqei0","pricing_plan_id":"cebpf4jnsgd1na2vs0mg"},{"bike_id":"c67fb496-8441-458a-af2d-8f07c087bdd0","system_id":"levelo_inurba_marseille","lat":43.24172,"lon":5.36426,"is_reserved":false,"is_disabled":true,"rental_uris":{"android":"levelo://app?vid=c67fb496-8441-458a-af2d-8f07c087bdd0","ios":"levelo://app?vid=c67fb496-8441-458a-af2d-8f07c087bdd0"},"vehicle_type_id":"4","last_reported":1739881092,"current_range_meters":18000,"station_id":"","pricing_plan_id":"cebpf4jnsgd1na2vs0mg"},{"bike_id":"db7f2d58-492d-4297-aa78-ce0ad99a0a74","system_id":"levelo_inurba_marseille","lat":43.2594,"lon":5.40891,"is_reserved":false,"is_disabled":false,"rental_uris":{"android":"levelo://app?vid=db7f2d58-492d-4297-aa78-ce0ad99a0a74","ios":"levelo://app?vid=db7f2d58-492d-4297-aa78-ce0ad99a0a74"},"vehicle_type_id":"4","last_reported":1739881092,"current_range_meters":18000,"station_id":"ce4bhb92rcd13ifvqen0","pricing_plan_id":"cebpf4jnsgd1na2vs0mg"},{"bike_id":"500159f6-01da-498b-8827-f99891067b84","system_id":"levelo_inurba_marseille","lat":43.29577,"lon":5.37513,"is_reserved":false,"is_disabled":false,"rental_uris":{"android":"levelo://app?vid=500159f6-01da-498b-8827-f99891067b84","ios":"levelo://app?vid=500159f6-01da-498b-8827-f99891067b84"},"vehicle_type_id":"4","last_reported":1739881092,"current_range_meters":17600,"station_id":"ce4bgh92rcd13ifvqb50","pricing_plan_id":"cebpf4jnsgd1na2vs0mg"},{"bike_id":"00bc5103-cfda-40e6-980a-9583466cec12","system_id":"levelo_inurba_marseille","lat":43.28836,"lon":5.39311,"is_reserved":false,"is_disabled":false,"rental_uris":{"android":"levelo://app?vid=00bc5103-cfda-40e6-980a-9583466cec12","ios":"levelo://app?vid=00bc5103-cfda-40e6-980a-9583466cec12"},"vehicle_type_id":"4","last_reported":1739881092,"current_range_meters":17600,"station_id":"ce4bh2p2rcd13ifvqdi0","pricing_plan_id":"cebpf4jnsgd1na2vs0mg"},{"bike_id":"22c1355e-1039-4fd9-8688-906435e4013c","system_id":"levelo_inurba_marseille","lat":43.23171,"lon":5.43724,"is_reserved":false,"is_disabled":false,"rental_uris":{"android":"levelo://app?vid=22c1355e-1039-4fd9-8688-906435e4013c","ios":"levelo://app?vid=22c1355e-1039-4fd9-8688-906435e4013c"},"vehicle_type_id":"4","last_reported":1739881092,"current_range_meters":18000,"station_id":"ce4bhmp2rcd13ifvqgog","pricing_plan_id":"cebpf4jnsgd1na2vs0mg"},{"bike_id":"572758ce-62f5-4849-b288-fda413023eea","system_id":"levelo_inurba_marseille","lat":43.29763,"lon":5.37102,"is_reserved":false,"is_disabled":false,"rental_uris":{"android":"levelo://app?vid=572758ce-62f5-4849-b288-fda413023eea","ios":"levelo://app?vid=572758ce-62f5-4849-b288-fda413023eea"},"vehicle_type_id":"4","last_reported":1739881092,"current_range_meters":18000,"station_id":"","pricing_plan_id":"cebpf4jnsgd1na2vs0mg"},{"bike_id":"fc971b16-bef3-4b6d-813c-ffc8ffa48842","system_id":"levelo_inurba_marseille","lat":43.2841,"lon":5.34986,"is_reserved":false,"is_disabled":true,"rental_uris":{"android":"levelo://app?vid=fc971b16-bef3-4b6d-813c-ffc8ffa48842","ios":"levelo://app?vid=fc971b16-bef3-4b6d-813c-ffc8ffa48842"},"vehicle_type_id":"4","last_reported":1739881092,"current_range_meters":18000,"station_id":"","pricing_plan_id":"cebpf4jnsgd1na2vs0mg"},{"bike_id":"ac230870-0df3-46a9-8510-62d4cc74a15c","system_id":"levelo_inurba_marseille","lat":43.23208,"lon":5.39961,"is_reserved":false,"is_disabled":false,"rental_uris":{"android":"levelo://app?vid=ac230870-0df3-46a9-8510-62d4cc74a15c","ios":"levelo://app?vid=ac230870-0df3-46a9-8510-62d4cc74a15c"},"vehicle_type_id":"4","last_reported":1739881092,"current_range_meters":18000,"station_id":"ce4bhn12rcd13ifvqgqg","pricing_plan_id":"cebpf4jnsgd1na2vs0mg"},{"bike_id":"03d274eb-e3a0-4b8a-8f2e-710c08e239b9","system_id":"levelo_inurba_marseille","lat":43.29426,"lon":5.38623,"is_reserved":false,"is_disabled":false,"rental_uris":{"android":"levelo://app?vid=03d274eb-e3a0-4b8a-8f2e-710c08e239b9","ios":"levelo://app?vid=03d274eb-e3a0-4b8a-8f2e-710c08e239b9"},"vehicle_type_id":"4","last_reported":1739881092,"current_range_meters":18000,"station_id":"","pricing_plan_id":"cebpf4jnsgd1na2vs0mg"},{"bike_id":"f77eb7d8-9434-4c05-861f-edd4244aaffc","system_id":"levelo_inurba_marseille","lat":43.25501,"lon":5.37655,"is_reserved":false,"is_disabled":false,"rental_uris":{"android":"levelo://app?vid=f77eb7d8-9434-4c05-861f-edd4244aaffc","ios":"levelo://app?vid=f77eb7d8-9434-4c05-861f-edd4244aaffc"},"vehicle_type_id":"4","last_reported":1739881092,"current_range_meters":18800,"station_id":"","pricing_plan_id":"cebpf4jnsgd1na2vs0mg"},{"bike_id":"d5f1d009-11de-4b1a-b1f4-812362df3e10","system_id":"levelo_inurba_marseille","lat":43.30144,"lon":5.39886,"is_reserved":false,"is_disabled":false,"rental_uris":{"android":"levelo://app?vid=d5f1d009-11de-4b1a-b1f4-812362df3e10","ios":"levelo://app?vid=d5f1d009-11de-4b1a-b1f4-812362df3e10"},"vehicle_type_id":"4","last_reported":1739881092,"current_range_meters":18800,"station_id":"ce4bh0h2rcd13ifvqd40","pricing_plan_id":"cebpf4jnsgd1na2vs0mg"},{"bike_id":"80c15e20-bc54-4576-a2cf-481d86974df1","system_id":"levelo_inurba_marseille","lat":43.23196,"lon":5.35545,"is_reserved":false,"is_disabled":false,"rental_uris":{"android":"levelo://app?vid=80c15e20-bc54-4576-a2cf-481d86974df1","ios":"levelo://app?vid=80c15e20-bc54-4576-a2cf-481d86974df1"},"vehicle_type_id":"4","last_reported":1739881092,"current_range_meters":18800,"station_id":"ce4bhu92rcd13ifvqi70","pricing_plan_id":"cebpf4jnsgd1na2vs0mg"},{"bike_id":"38c9f437-02d0-463a-a42d-8bc647a31926","system_id":"levelo_inurba_marseille","lat":43.23151,"lon":5.43723,"is_reserved":false,"is_disabled":false,"rental_uris":{"android":"levelo://app?vid=38c9f437-02d0-463a-a42d-8bc647a31926","ios":"levelo://app?vid=38c9f437-02d0-463a-a42d-8bc647a31926"},"vehicle_type_id":"4","last_reported":1739881092,"current_range_meters":18800,"station_id":"ce4bhmp2rcd13ifvqgog","pricing_plan_id":"cebpf4jnsgd1na2vs0mg"},{"bike_id":"d75534e2-9bc6-43b8-9a0d-fa650ae0b051","system_id":"levelo_inurba_marseille","lat":43.24064,"lon":5.37705,"is_reserved":false,"is_disabled":false,"rental_uris":{"android":"levelo://app?vid=d75534e2-9bc6-43b8-9a0d-fa650ae0b051","ios":"levelo://app?vid=d75534e2-9bc6-43b8-9a0d-fa650ae0b051"},"vehicle_type_id":"4","last_reported":1739881092,"current_range_meters":18800,"station_id":"ce4bhnp2rcd13ifvqgvg","pricing_plan_id":"cebpf4jnsgd1na2vs0mg"},{"bike_id":"22196579-be9e-4f2d-b2dd-94d1ef2f58bc","system_id":"levelo_inurba_marseille","lat":43.23165,"lon":5.4371,"is_reserved":false,"is_disabled":false,"rental_uris":{"android":"levelo://app?vid=22196579-be9e-4f2d-b2dd-94d1ef2f58bc","ios":"levelo://app?vid=22196579-be9e-4f2d-b2dd-94d1ef2f58bc"},"vehicle_type_id":"4","last_reported":1739881092,"current_range_meters":18800,"station_id":"ce4bhmp2rcd13ifvqgog","pricing_plan_id":"cebpf4jnsgd1na2vs0mg"},{"bike_id":"24dd12c1-4d8a-40c0-b521-a98d2d462c41","system_id":"levelo_inurba_marseille","lat":43.24163,"lon":5.36417,"is_reserved":false,"is_disabled":false,"rental_uris":{"android":"levelo://app?vid=24dd12c1-4d8a-40c0-b521-a98d2d462c41","ios":"levelo://app?vid=24dd12c1-4d8a-40c0-b521-a98d2d462c41"},"vehicle_type_id":"4","last_reported":1739881092,"current_range_meters":18800,"station_id":"","pricing_plan_id":"cebpf4jnsgd1na2vs0mg"},{"bike_id":"be59961e-616b-4c75-97c4-c082d5d8fd20","system_id":"levelo_inurba_marseille","lat":43.24174,"lon":5.39727,"is_reserved":false,"is_disabled":false,"rental_uris":{"android":"levelo://app?vid=be59961e-616b-4c75-97c4-c082d5d8fd20","ios":"levelo://app?vid=be59961e-616b-4c75-97c4-c082d5d8fd20"},"vehicle_type_id":"4","last_reported":1739881092,"current_range_meters":18800,"station_id":"ce4bhn12rcd13ifvqgpg","pricing_plan_id":"cebpf4jnsgd1na2vs0mg"},{"bike_id":"06a97cdd-c800-4290-ada9-e5014a73e198","system_id":"levelo_inurba_marseille","lat":43.30278,"lon":5.37707,"is_reserved":false,"is_disabled":false,"rental_uris":{"android":"levelo://app?vid=06a97cdd-c800-4290-ada9-e5014a73e198","ios":"levelo://app?vid=06a97cdd-c800-4290-ada9-e5014a73e198"},"vehicle_type_id":"4","last_reported":1739881092,"current_range_meters":17600,"station_id":"ce4bguh2rcd13ifvqcj0","pricing_plan_id":"cebpf4jnsgd1na2vs0mg"},{"bike_id":"1d9e2fff-2536-4bab-8766-65ea8ea9940e","system_id":"levelo_inurba_marseille","lat":43.28416,"lon":5.34984,"is_reserved":false,"is_disabled":false,"rental_uris":{"android":"levelo://app?vid=1d9e2fff-2536-4bab-8766-65ea8ea9940e","ios":"levelo://app?vid=1d9e2fff-2536-4bab-8766-65ea8ea9940e"},"vehicle_type_id":"4","last_reported":1739881092,"current_range_meters":18800,"station_id":"ce4bhbh2rcd13ifvqepg","pricing_plan_id":"cebpf4jnsgd1na2vs0mg"},{"bike_id":"dabcfda1-6693-45ca-8501-5d3cc1caa4b3","system_id":"levelo_inurba_marseille","lat":43.28846,"lon":5.39304,"is_reserved":false,"is_disabled":false,"rental_uris":{"android":"levelo://app?vid=dabcfda1-6693-45ca-8501-5d3cc1caa4b3","ios":"levelo://app?vid=dabcfda1-6693-45ca-8501-5d3cc1caa4b3"},"vehicle_type_id":"4","last_reported":1739881092,"current_range_meters":18800,"station_id":"ce4bh2p2rcd13ifvqdi0","pricing_plan_id":"cebpf4jnsgd1na2vs0mg"},{"bike_id":"311cd426-315d-4979-a110-88ae79c400f2","system_id":"levelo_inurba_marseille","lat":43.30308,"lon":5.39204,"is_reserved":false,"is_disabled":false,"rental_uris":{"android":"levelo://app?vid=311cd426-315d-4979-a110-88ae79c400f2","ios":"levelo://app?vid=311cd426-315d-4979-a110-88ae79c400f2"},"vehicle_type_id":"4","last_reported":1739881092,"current_range_meters":18800,"station_id":"ce4bgkh2rcd13ifvqbk0","pricing_plan_id":"cebpf4jnsgd1na2vs0mg"},{"bike_id":"aab56d93-547d-40cc-9ff6-b85d4684f798","system_id":"levelo_inurba_marseille","lat":43.23955,"lon":5.36635,"is_reserved":false,"is_disabled":false,"rental_uris":{"android":"levelo://app?vid=aab56d93-547d-40cc-9ff6-b85d4684f798","ios":"levelo://app?vid=aab56d93-547d-40cc-9ff6-b85d4684f798"},"vehicle_type_id":"4","last_reported":1739881092,"current_range_meters":19200,"station_id":"ce4bhi12rcd13ifvqfp0","pricing_plan_id":"cebpf4jnsgd1na2vs0mg"},{"bike_id":"f879a5bf-2870-4667-a871-a8396eb3d42e","system_id":"levelo_inurba_marseille","lat":43.27982,"lon":5.38736,"is_reserved":false,"is_disabled":false,"rental_uris":{"android":"levelo://app?vid=f879a5bf-2870-4667-a871-a8396eb3d42e","ios":"levelo://app?vid=f879a5bf-2870-4667-a871-a8396eb3d42e"},"vehicle_type_id":"4","last_reported":1739881092,"current_range_meters":19600,"station_id":"ce4bhg12rcd13ifvqf80","pricing_plan_id":"cebpf4jnsgd1na2vs0mg"},{"bike_id":"5f9ede52-c720-4107-a864-980fb2608395","system_id":"levelo_inurba_marseille","lat":43.24091,"lon":5.38672,"is_reserved":false,"is_disabled":false,"rental_uris":{"android":"levelo://app?vid=5f9ede52-c720-4107-a864-980fb2608395","ios":"levelo://app?vid=5f9ede52-c720-4107-a864-980fb2608395"},"vehicle_type_id":"4","last_reported":1739881092,"current_range_meters":19600,"station_id":"","pricing_plan_id":"cebpf4jnsgd1na2vs0mg"},{"bike_id":"57428e68-6178-4a63-998d-4f2eb2a0c995","system_id":"levelo_inurba_marseille","lat":43.24088,"lon":5.36225,"is_reserved":false,"is_disabled":false,"rental_uris":{"android":"levelo://app?vid=57428e68-6178-4a63-998d-4f2eb2a0c995","ios":"levelo://app?vid=57428e68-6178-4a63-998d-4f2eb2a0c995"},"vehicle_type_id":"4","last_reported":1739881092,"current_range_meters":19600,"station_id":"cpo36qri1sfpv3e86is0","pricing_plan_id":"cebpf4jnsgd1na2vs0mg"},{"bike_id":"7c789c15-7024-4219-855f-6dd2f9133c80","system_id":"levelo_inurba_marseille","lat":43.25001,"lon":5.38933,"is_reserved":false,"is_disabled":false,"rental_uris":{"android":"levelo://app?vid=7c789c15-7024-4219-855f-6dd2f9133c80","ios":"levelo://app?vid=7c789c15-7024-4219-855f-6dd2f9133c80"},"vehicle_type_id":"4","last_reported":1739881092,"current_range_meters":19600,"station_id":"","pricing_plan_id":"cebpf4jnsgd1na2vs0mg"},{"bike_id":"b768b1a6-dfb0-4283-bce3-5f90f2a7562b","system_id":"levelo_inurba_marseille","lat":43.32369,"lon":5.38884,"is_reserved":false,"is_disabled":false,"rental_uris":{"android":"levelo://app?vid=b768b1a6-dfb0-4283-bce3-5f90f2a7562b","ios":"levelo://app?vid=b768b1a6-dfb0-4283-bce3-5f90f2a7562b"},"vehicle_type_id":"4","last_reported":1739881092,"current_range_meters":19600,"station_id":"ce4bhqp2rcd13ifvqhog","pricing_plan_id":"cebpf4jnsgd1na2vs0mg"},{"bike_id":"79e0c8cb-87ef-460b-8597-c6acc38ba80f","system_id":"levelo_inurba_marseille","lat":43.30463,"lon":5.37896,"is_reserved":false,"is_disabled":false,"rental_uris":{"android":"levelo://app?vid=79e0c8cb-87ef-460b-8597-c6acc38ba80f","ios":"levelo://app?vid=79e0c8cb-87ef-460b-8597-c6acc38ba80f"},"vehicle_type_id":"4","last_reported":1739881092,"current_range_meters":19600,"station_id":"ce4bgup2rcd13ifvqcn0","pricing_plan_id":"cebpf4jnsgd1na2vs0mg"},{"bike_id":"11c049f6-310a-4659-92a3-719df9a45950","system_id":"levelo_inurba_marseille","lat":43.25946,"lon":5.40898,"is_reserved":false,"is_disabled":false,"rental_uris":{"android":"levelo://app?vid=11c049f6-310a-4659-92a3-719df9a45950","ios":"levelo://app?vid=11c049f6-310a-4659-92a3-719df9a45950"},"vehicle_type_id":"4","last_reported":1739881092,"current_range_meters":19600,"station_id":"","pricing_plan_id":"cebpf4jnsgd1na2vs0mg"},{"bike_id":"287a373e-bea2-48e6-af2b-2ff488e4d556","system_id":"levelo_inurba_marseille","lat":43.28983,"lon":5.37831,"is_reserved":false,"is_disabled":false,"rental_uris":{"android":"levelo://app?vid=287a373e-bea2-48e6-af2b-2ff488e4d556","ios":"levelo://app?vid=287a373e-bea2-48e6-af2b-2ff488e4d556"},"vehicle_type_id":"4","last_reported":1739881092,"current_range_meters":19600,"station_id":"ce4bh9p2rcd13ifvqed0","pricing_plan_id":"cebpf4jnsgd1na2vs0mg"},{"bike_id":"05e4de91-c1de-4f05-b417-123a570e1054","system_id":"levelo_inurba_marseille","lat":43.30886,"lon":5.39648,"is_reserved":false,"is_disabled":false,"rental_uris":{"android":"levelo://app?vid=05e4de91-c1de-4f05-b417-123a570e1054","ios":"levelo://app?vid=05e4de91-c1de-4f05-b417-123a570e1054"},"vehicle_type_id":"4","last_reported":1739881092,"current_range_meters":19600,"station_id":"ce4bh012rcd13ifvqcv0","pricing_plan_id":"cebpf4jnsgd1na2vs0mg"},{"bike_id":"dab4a374-65eb-476e-9a09-5fe35254e8e8","system_id":"levelo_inurba_marseille","lat":43.25488,"lon":5.37655,"is_reserved":false,"is_disabled":false,"rental_uris":{"android":"levelo://app?vid=dab4a374-65eb-476e-9a09-5fe35254e8e8","ios":"levelo://app?vid=dab4a374-65eb-476e-9a09-5fe35254e8e8"},"vehicle_type_id":"4","last_reported":1739881092,"current_range_meters":19600,"station_id":"ce4bhh12rcd13ifvqfg0","pricing_plan_id":"cebpf4jnsgd1na2vs0mg"},{"bike_id":"a48fac8d-fe25-4818-9e3b-f9402d6d552f","system_id":"levelo_inurba_marseille","lat":43.28622,"lon":5.35101,"is_reserved":false,"is_disabled":false,"rental_uris":{"android":"levelo://app?vid=a48fac8d-fe25-4818-9e3b-f9402d6d552f","ios":"levelo://app?vid=a48fac8d-fe25-4818-9e3b-f9402d6d552f"},"vehicle_type_id":"4","last_reported":1739881092,"current_range_meters":20000,"station_id":"ce4bhch2rcd13ifvqeug","pricing_plan_id":"cebpf4jnsgd1na2vs0mg"},{"bike_id":"5089bb88-a0cd-4434-a1a9-f3d5b67361c6","system_id":"levelo_inurba_marseille","lat":43.24388,"lon":5.38762,"is_reserved":false,"is_disabled":false,"rental_uris":{"android":"levelo://app?vid=5089bb88-a0cd-4434-a1a9-f3d5b67361c6","ios":"levelo://app?vid=5089bb88-a0cd-4434-a1a9-f3d5b67361c6"},"vehicle_type_id":"4","last_reported":1739881092,"current_range_meters":20000,"station_id":"","pricing_plan_id":"cebpf4jnsgd1na2vs0mg"},{"bike_id":"a0af3547-0f5a-4ee7-a39d-23ed992db956","system_id":"levelo_inurba_marseille","lat":43.23418,"lon":5.40452,"is_reserved":false,"is_disabled":false,"rental_uris":{"android":"levelo://app?vid=a0af3547-0f5a-4ee7-a39d-23ed992db956","ios":"levelo://app?vid=a0af3547-0f5a-4ee7-a39d-23ed992db956"},"vehicle_type_id":"4","last_reported":1739881092,"current_range_meters":20000,"station_id":"","pricing_plan_id":"cebpf4jnsgd1na2vs0mg"},{"bike_id":"7371a458-5614-4c34-a3ee-6e25fcfd9c7b","system_id":"levelo_inurba_marseille","lat":43.24645,"lon":5.38906,"is_reserved":false,"is_disabled":false,"rental_uris":{"android":"levelo://app?vid=7371a458-5614-4c34-a3ee-6e25fcfd9c7b","ios":"levelo://app?vid=7371a458-5614-4c34-a3ee-6e25fcfd9c7b"},"vehicle_type_id":"4","last_reported":1739881092,"current_range_meters":20000,"station_id":"ce4bhg12rcd13ifvqf60","pricing_plan_id":"cebpf4jnsgd1na2vs0mg"},{"bike_id":"a2e16cae-1497-4a0e-a68f-8dd7eead1348","system_id":"levelo_inurba_marseille","lat":43.29367,"lon":5.37843,"is_reserved":false,"is_disabled":false,"rental_uris":{"android":"levelo://app?vid=a2e16cae-1497-4a0e-a68f-8dd7eead1348","ios":"levelo://app?vid=a2e16cae-1497-4a0e-a68f-8dd7eead1348"},"vehicle_type_id":"4","last_reported":1739881092,"current_range_meters":20400,"station_id":"ce4bgjh2rcd13ifvqbf0","pricing_plan_id":"cebpf4jnsgd1na2vs0mg"},{"bike_id":"faa5627a-502d-4c4e-88a7-77f9ccde7751","system_id":"levelo_inurba_marseille","lat":43.32503,"lon":5.36568,"is_reserved":false,"is_disabled":false,"rental_uris":{"android":"levelo://app?vid=faa5627a-502d-4c4e-88a7-77f9ccde7751","ios":"levelo://app?vid=faa5627a-502d-4c4e-88a7-77f9ccde7751"},"vehicle_type_id":"4","last_reported":1739881092,"current_range_meters":20800,"station_id":"ce4bhs12rcd13ifvqhvg","pricing_plan_id":"cebpf4jnsgd1na2vs0mg"},{"bike_id":"b8ba712b-518c-4a7f-a696-736b03f0249b","system_id":"levelo_inurba_marseille","lat":43.29928,"lon":5.36536,"is_reserved":false,"is_disabled":false,"rental_uris":{"android":"levelo://app?vid=b8ba712b-518c-4a7f-a696-736b03f0249b","ios":"levelo://app?vid=b8ba712b-518c-4a7f-a696-736b03f0249b"},"vehicle_type_id":"4","last_reported":1739881092,"current_range_meters":20400,"station_id":"ce4bgm92rcd13ifvqbr0","pricing_plan_id":"cebpf4jnsgd1na2vs0mg"},{"bike_id":"ea04b844-ec9d-4baf-8c00-b1e5068c98d0","system_id":"levelo_inurba_marseille","lat":43.2942,"lon":5.38626,"is_reserved":false,"is_disabled":false,"rental_uris":{"android":"levelo://app?vid=ea04b844-ec9d-4baf-8c00-b1e5068c98d0","ios":"levelo://app?vid=ea04b844-ec9d-4baf-8c00-b1e5068c98d0"},"vehicle_type_id":"4","last_reported":1739881092,"current_range_meters":20000,"station_id":"ce4bh2h2rcd13ifvqdh0","pricing_plan_id":"cebpf4jnsgd1na2vs0mg"},{"bike_id":"e557d2d0-a733-4341-a615-f7e40fe78957","system_id":"levelo_inurba_marseille","lat":43.29896,"lon":5.4367,"is_reserved":false,"is_disabled":false,"rental_uris":{"android":"levelo://app?vid=e557d2d0-a733-4341-a615-f7e40fe78957","ios":"levelo://app?vid=e557d2d0-a733-4341-a615-f7e40fe78957"},"vehicle_type_id":"4","last_reported":1739881092,"current_range_meters":20000,"station_id":"ce4bhpp2rcd13ifvqhfg","pricing_plan_id":"cebpf4jnsgd1na2vs0mg"},{"bike_id":"d178d949-6121-485d-b193-b141d9751d63","system_id":"levelo_inurba_marseille","lat":43.28634,"lon":5.35111,"is_reserved":false,"is_disabled":false,"rental_uris":{"android":"levelo://app?vid=d178d949-6121-485d-b193-b141d9751d63","ios":"levelo://app?vid=d178d949-6121-485d-b193-b141d9751d63"},"vehicle_type_id":"4","last_reported":1739881092,"current_range_meters":20800,"station_id":"ce4bhch2rcd13ifvqeug","pricing_plan_id":"cebpf4jnsgd1na2vs0mg"},{"bike_id":"87cf6348-0235-4d50-9c3c-67e45e283b22","system_id":"levelo_inurba_marseille","lat":43.30599,"lon":5.39362,"is_reserved":false,"is_disabled":false,"rental_uris":{"android":"levelo://app?vid=87cf6348-0235-4d50-9c3c-67e45e283b22","ios":"levelo://app?vid=87cf6348-0235-4d50-9c3c-67e45e283b22"},"vehicle_type_id":"4","last_reported":1739881092,"current_range_meters":20400,"station_id":"ce4bh0p2rcd13ifvqd80","pricing_plan_id":"cebpf4jnsgd1na2vs0mg"},{"bike_id":"5428c4a6-2268-45c5-aff9-a5f8e308d92b","system_id":"levelo_inurba_marseille","lat":43.30895,"lon":5.3726,"is_reserved":false,"is_disabled":false,"rental_uris":{"android":"levelo://app?vid=5428c4a6-2268-45c5-aff9-a5f8e308d92b","ios":"levelo://app?vid=5428c4a6-2268-45c5-aff9-a5f8e308d92b"},"vehicle_type_id":"4","last_reported":1739881092,"current_range_meters":20800,"station_id":"ce4bguh2rcd13ifvqckg","pricing_plan_id":"cebpf4jnsgd1na2vs0mg"},{"bike_id":"3ca880fb-be5d-41b1-9e3c-19b59ea52225","system_id":"levelo_inurba_marseille","lat":43.25503,"lon":5.37644,"is_reserved":false,"is_disabled":false,"rental_uris":{"android":"levelo://app?vid=3ca880fb-be5d-41b1-9e3c-19b59ea52225","ios":"levelo://app?vid=3ca880fb-be5d-41b1-9e3c-19b59ea52225"},"vehicle_type_id":"4","last_reported":1739881092,"current_range_meters":20800,"station_id":"ce4bhh12rcd13ifvqff0","pricing_plan_id":"cebpf4jnsgd1na2vs0mg"},{"bike_id":"be4258c2-0815-478f-8286-39934ad15f3a","system_id":"levelo_inurba_marseille","lat":43.29614,"lon":5.38105,"is_reserved":false,"is_disabled":false,"rental_uris":{"android":"levelo://app?vid=be4258c2-0815-478f-8286-39934ad15f3a","ios":"levelo://app?vid=be4258c2-0815-478f-8286-39934ad15f3a"},"vehicle_type_id":"4","last_reported":1739881092,"current_range_meters":20800,"station_id":"ce4bgl12rcd13ifvqbo0","pricing_plan_id":"cebpf4jnsgd1na2vs0mg"},{"bike_id":"1b0e2acf-2198-42e8-9a48-5ecc96a35909","system_id":"levelo_inurba_marseille","lat":43.29929,"lon":5.38144,"is_reserved":false,"is_disabled":false,"rental_uris":{"android":"levelo://app?vid=1b0e2acf-2198-42e8-9a48-5ecc96a35909","ios":"levelo://app?vid=1b0e2acf-2198-42e8-9a48-5ecc96a35909"},"vehicle_type_id":"4","last_reported":1739881092,"current_range_meters":20800,"station_id":"ce4bgj12rcd13ifvqbc0","pricing_plan_id":"cebpf4jnsgd1na2vs0mg"},{"bike_id":"e9bba9f6-2460-4a3d-be9c-0ff8bbc8efca","system_id":"levelo_inurba_marseille","lat":43.301456,"lon":5.387836,"is_reserved":false,"is_disabled":false,"rental_uris":{"android":"levelo://app?vid=e9bba9f6-2460-4a3d-be9c-0ff8bbc8efca","ios":"levelo://app?vid=e9bba9f6-2460-4a3d-be9c-0ff8bbc8efca"},"vehicle_type_id":"4","last_reported":1739881092,"current_range_meters":20800,"station_id":"ce4bhmp2rcd13ifvqgog","pricing_plan_id":"cebpf4jnsgd1na2vs0mg"},{"bike_id":"24ae4e97-e7f0-436f-b21b-3ece91f960bf","system_id":"levelo_inurba_marseille","lat":43.24762,"lon":5.37439,"is_reserved":false,"is_disabled":false,"rental_uris":{"android":"levelo://app?vid=24ae4e97-e7f0-436f-b21b-3ece91f960bf","ios":"levelo://app?vid=24ae4e97-e7f0-436f-b21b-3ece91f960bf"},"vehicle_type_id":"4","last_reported":1739881092,"current_range_meters":20800,"station_id":"","pricing_plan_id":"cebpf4jnsgd1na2vs0mg"},{"bike_id":"5734cb76-6b9d-43a7-88da-0edab2e61acb","system_id":"levelo_inurba_marseille","lat":43.2893,"lon":5.36649,"is_reserved":false,"is_disabled":false,"rental_uris":{"android":"levelo://app?vid=5734cb76-6b9d-43a7-88da-0edab2e61acb","ios":"levelo://app?vid=5734cb76-6b9d-43a7-88da-0edab2e61acb"},"vehicle_type_id":"4","last_reported":1739881092,"current_range_meters":20800,"station_id":"ce4bhap2rcd13ifvqek0","pricing_plan_id":"cebpf4jnsgd1na2vs0mg"},{"bike_id":"ecbd6e29-5b86-41d0-a4bd-3518ee3bab53","system_id":"levelo_inurba_marseille","lat":43.24654,"lon":5.38894,"is_reserved":false,"is_disabled":false,"rental_uris":{"android":"levelo://app?vid=ecbd6e29-5b86-41d0-a4bd-3518ee3bab53","ios":"levelo://app?vid=ecbd6e29-5b86-41d0-a4bd-3518ee3bab53"},"vehicle_type_id":"4","last_reported":1739881092,"current_range_meters":21600,"station_id":"ce4bhg12rcd13ifvqf60","pricing_plan_id":"cebpf4jnsgd1na2vs0mg"},{"bike_id":"c1ddaba9-96e5-4265-b7eb-414248b43c03","system_id":"levelo_inurba_marseille","lat":43.33025,"lon":5.3904,"is_reserved":false,"is_disabled":false,"rental_uris":{"android":"levelo://app?vid=c1ddaba9-96e5-4265-b7eb-414248b43c03","ios":"levelo://app?vid=c1ddaba9-96e5-4265-b7eb-414248b43c03"},"vehicle_type_id":"4","last_reported":1739881092,"current_range_meters":21600,"station_id":"ce4bhr92rcd13ifvqhrg","pricing_plan_id":"cebpf4jnsgd1na2vs0mg"},{"bike_id":"77812fd5-82b3-40df-8e5b-c961ae3401c8","system_id":"levelo_inurba_marseille","lat":43.29787,"lon":5.39338,"is_reserved":false,"is_disabled":false,"rental_uris":{"android":"levelo://app?vid=77812fd5-82b3-40df-8e5b-c961ae3401c8","ios":"levelo://app?vid=77812fd5-82b3-40df-8e5b-c961ae3401c8"},"vehicle_type_id":"4","last_reported":1739881092,"current_range_meters":21600,"station_id":"chh1huq6cuj3fo74tm60","pricing_plan_id":"cebpf4jnsgd1na2vs0mg"},{"bike_id":"9d365055-48fa-4bdd-9e14-be8827a691d1","system_id":"levelo_inurba_marseille","lat":43.31347,"lon":5.39729,"is_reserved":false,"is_disabled":false,"rental_uris":{"android":"levelo://app?vid=9d365055-48fa-4bdd-9e14-be8827a691d1","ios":"levelo://app?vid=9d365055-48fa-4bdd-9e14-be8827a691d1"},"vehicle_type_id":"4","last_reported":1739881092,"current_range_meters":21600,"station_id":"","pricing_plan_id":"cebpf4jnsgd1na2vs0mg"},{"bike_id":"280d2f49-b560-403b-9126-f10d379607dc","system_id":"levelo_inurba_marseille","lat":43.3015,"lon":5.37414,"is_reserved":false,"is_disabled":false,"rental_uris":{"android":"levelo://app?vid=280d2f49-b560-403b-9126-f10d379607dc","ios":"levelo://app?vid=280d2f49-b560-403b-9126-f10d379607dc"},"vehicle_type_id":"4","last_reported":1739881092,"current_range_meters":21600,"station_id":"ce4bgs92rcd13ifvqcc0","pricing_plan_id":"cebpf4jnsgd1na2vs0mg"},{"bike_id":"f6602e77-e8fa-47d2-bb90-7755e9fb4975","system_id":"levelo_inurba_marseille","lat":43.270566,"lon":5.402655,"is_reserved":false,"is_disabled":false,"rental_uris":{"android":"levelo://app?vid=f6602e77-e8fa-47d2-bb90-7755e9fb4975","ios":"levelo://app?vid=f6602e77-e8fa-47d2-bb90-7755e9fb4975"},"vehicle_type_id":"4","last_reported":1739881092,"current_range_meters":21600,"station_id":"ce4bhk92rcd13ifvqgc0","pricing_plan_id":"cebpf4jnsgd1na2vs0mg"},{"bike_id":"3f3ab2d9-4fd0-4135-915c-73acb02d3f3c","system_id":"levelo_inurba_marseille","lat":43.306,"lon":5.39355,"is_reserved":false,"is_disabled":false,"rental_uris":{"android":"levelo://app?vid=3f3ab2d9-4fd0-4135-915c-73acb02d3f3c","ios":"levelo://app?vid=3f3ab2d9-4fd0-4135-915c-73acb02d3f3c"},"vehicle_type_id":"4","last_reported":1739881092,"current_range_meters":21600,"station_id":"ce4bh0p2rcd13ifvqd80","pricing_plan_id":"cebpf4jnsgd1na2vs0mg"},{"bike_id":"2e42c8c0-ec43-4b19-ace5-5011d2a7d30c","system_id":"levelo_inurba_marseille","lat":43.25584,"lon":5.38229,"is_reserved":false,"is_disabled":false,"rental_uris":{"android":"levelo://app?vid=2e42c8c0-ec43-4b19-ace5-5011d2a7d30c","ios":"levelo://app?vid=2e42c8c0-ec43-4b19-ace5-5011d2a7d30c"},"vehicle_type_id":"4","last_reported":1739881092,"current_range_meters":21600,"station_id":"ce4bhih2rcd13ifvqfs0","pricing_plan_id":"cebpf4jnsgd1na2vs0mg"},{"bike_id":"d20040a2-1a6e-4cbe-bb03-cd9c03b404f2","system_id":"levelo_inurba_marseille","lat":43.31725,"lon":5.42406,"is_reserved":false,"is_disabled":true,"rental_uris":{"android":"levelo://app?vid=d20040a2-1a6e-4cbe-bb03-cd9c03b404f2","ios":"levelo://app?vid=d20040a2-1a6e-4cbe-bb03-cd9c03b404f2"},"vehicle_type_id":"4","last_reported":1739881092,"current_range_meters":21600,"station_id":"ce4bhp92rcd13ifvqhbg","pricing_plan_id":"cebpf4jnsgd1na2vs0mg"},{"bike_id":"ae79134a-468c-43c2-8128-d8d2629322aa","system_id":"levelo_inurba_marseille","lat":43.28432,"lon":5.37501,"is_reserved":false,"is_disabled":false,"rental_uris":{"android":"levelo://app?vid=ae79134a-468c-43c2-8128-d8d2629322aa","ios":"levelo://app?vid=ae79134a-468c-43c2-8128-d8d2629322aa"},"vehicle_type_id":"4","last_reported":1739881092,"current_range_meters":22000,"station_id":"ce4bh412rcd13ifvqds0","pricing_plan_id":"cebpf4jnsgd1na2vs0mg"},{"bike_id":"da9a19f2-2028-4e60-9cce-7752d60ae428","system_id":"levelo_inurba_marseille","lat":43.244,"lon":5.371,"is_reserved":false,"is_disabled":false,"rental_uris":{"android":"levelo://app?vid=da9a19f2-2028-4e60-9cce-7752d60ae428","ios":"levelo://app?vid=da9a19f2-2028-4e60-9cce-7752d60ae428"},"vehicle_type_id":"4","last_reported":1739881092,"current_range_meters":22000,"station_id":"","pricing_plan_id":"cebpf4jnsgd1na2vs0mg"},{"bike_id":"84d13e52-68f9-4dc5-bc1b-afc409821b3d","system_id":"levelo_inurba_marseille","lat":43.26571,"lon":5.37291,"is_reserved":false,"is_disabled":false,"rental_uris":{"android":"levelo://app?vid=84d13e52-68f9-4dc5-bc1b-afc409821b3d","ios":"levelo://app?vid=84d13e52-68f9-4dc5-bc1b-afc409821b3d"},"vehicle_type_id":"4","last_reported":1739881092,"current_range_meters":22000,"station_id":"ce4bhg12rcd13ifvqf70","pricing_plan_id":"cebpf4jnsgd1na2vs0mg"},{"bike_id":"1f4bb896-5acf-40f6-95c6-d6a43c79a06a","system_id":"levelo_inurba_marseille","lat":43.28984,"lon":5.37827,"is_reserved":false,"is_disabled":false,"rental_uris":{"android":"levelo://app?vid=1f4bb896-5acf-40f6-95c6-d6a43c79a06a","ios":"levelo://app?vid=1f4bb896-5acf-40f6-95c6-d6a43c79a06a"},"vehicle_type_id":"4","last_reported":1739881092,"current_range_meters":21600,"station_id":"ce4bh9p2rcd13ifvqed0","pricing_plan_id":"cebpf4jnsgd1na2vs0mg"},{"bike_id":"0396d488-6aeb-466c-a9c4-e21e0acd72cb","system_id":"levelo_inurba_marseille","lat":43.32356,"lon":5.36758,"is_reserved":false,"is_disabled":false,"rental_uris":{"android":"levelo://app?vid=0396d488-6aeb-466c-a9c4-e21e0acd72cb","ios":"levelo://app?vid=0396d488-6aeb-466c-a9c4-e21e0acd72cb"},"vehicle_type_id":"4","last_reported":1739881092,"current_range_meters":22000,"station_id":"ce4bhsh2rcd13ifvqi2g","pricing_plan_id":"cebpf4jnsgd1na2vs0mg"},{"bike_id":"f27d8168-ce97-4050-849c-93fe5508d445","system_id":"levelo_inurba_marseille","lat":43.30955,"lon":5.39622,"is_reserved":false,"is_disabled":false,"rental_uris":{"android":"levelo://app?vid=f27d8168-ce97-4050-849c-93fe5508d445","ios":"levelo://app?vid=f27d8168-ce97-4050-849c-93fe5508d445"},"vehicle_type_id":"4","last_reported":1739881092,"current_range_meters":22400,"station_id":"","pricing_plan_id":"cebpf4jnsgd1na2vs0mg"},{"bike_id":"9e333677-a3fe-45de-8f88-45f32172071f","system_id":"levelo_inurba_marseille","lat":43.29789,"lon":5.39349,"is_reserved":false,"is_disabled":false,"rental_uris":{"android":"levelo://app?vid=9e333677-a3fe-45de-8f88-45f32172071f","ios":"levelo://app?vid=9e333677-a3fe-45de-8f88-45f32172071f"},"vehicle_type_id":"4","last_reported":1739881092,"current_range_meters":22400,"station_id":"chh1huq6cuj3fo74tm60","pricing_plan_id":"cebpf4jnsgd1na2vs0mg"},{"bike_id":"94ce4c1f-b676-43e1-9e28-ed9f6f6c8e2b","system_id":"levelo_inurba_marseille","lat":43.23627,"lon":5.39147,"is_reserved":false,"is_disabled":false,"rental_uris":{"android":"levelo://app?vid=94ce4c1f-b676-43e1-9e28-ed9f6f6c8e2b","ios":"levelo://app?vid=94ce4c1f-b676-43e1-9e28-ed9f6f6c8e2b"},"vehicle_type_id":"4","last_reported":1739881092,"current_range_meters":22400,"station_id":"","pricing_plan_id":"cebpf4jnsgd1na2vs0mg"},{"bike_id":"89b0891e-671e-4b94-b8a0-bc4cd38018bf","system_id":"levelo_inurba_marseille","lat":43.24167,"lon":5.36399,"is_reserved":false,"is_disabled":false,"rental_uris":{"android":"levelo://app?vid=89b0891e-671e-4b94-b8a0-bc4cd38018bf","ios":"levelo://app?vid=89b0891e-671e-4b94-b8a0-bc4cd38018bf"},"vehicle_type_id":"4","last_reported":1739881092,"current_range_meters":22400,"station_id":"","pricing_plan_id":"cebpf4jnsgd1na2vs0mg"},{"bike_id":"d6c03ea2-78ee-44db-9e90-d1f249dd261b","system_id":"levelo_inurba_marseille","lat":43.30153,"lon":5.39881,"is_reserved":false,"is_disabled":false,"rental_uris":{"android":"levelo://app?vid=d6c03ea2-78ee-44db-9e90-d1f249dd261b","ios":"levelo://app?vid=d6c03ea2-78ee-44db-9e90-d1f249dd261b"},"vehicle_type_id":"4","last_reported":1739881092,"current_range_meters":22400,"station_id":"ce4bh0h2rcd13ifvqd40","pricing_plan_id":"cebpf4jnsgd1na2vs0mg"},{"bike_id":"9529c501-417c-4d93-ac9c-b9dcf71a3cf0","system_id":"levelo_inurba_marseille","lat":43.30136,"lon":5.39859,"is_reserved":false,"is_disabled":false,"rental_uris":{"android":"levelo://app?vid=9529c501-417c-4d93-ac9c-b9dcf71a3cf0","ios":"levelo://app?vid=9529c501-417c-4d93-ac9c-b9dcf71a3cf0"},"vehicle_type_id":"4","last_reported":1739881092,"current_range_meters":22400,"station_id":"ce4bh0h2rcd13ifvqd40","pricing_plan_id":"cebpf4jnsgd1na2vs0mg"},{"bike_id":"dd51d49f-6ad8-4f08-b556-81ee6dfcb583","system_id":"levelo_inurba_marseille","lat":43.3054,"lon":5.36539,"is_reserved":false,"is_disabled":false,"rental_uris":{"android":"levelo://app?vid=dd51d49f-6ad8-4f08-b556-81ee6dfcb583","ios":"levelo://app?vid=dd51d49f-6ad8-4f08-b556-81ee6dfcb583"},"vehicle_type_id":"4","last_reported":1739881092,"current_range_meters":22400,"station_id":"ce4bgs12rcd13ifvqcag","pricing_plan_id":"cebpf4jnsgd1na2vs0mg"},{"bike_id":"d9102e21-6294-472e-8da2-16dfb746ec2b","system_id":"levelo_inurba_marseille","lat":43.28115,"lon":5.44589,"is_reserved":false,"is_disabled":false,"rental_uris":{"android":"levelo://app?vid=d9102e21-6294-472e-8da2-16dfb746ec2b","ios":"levelo://app?vid=d9102e21-6294-472e-8da2-16dfb746ec2b"},"vehicle_type_id":"4","last_reported":1739881092,"current_range_meters":22400,"station_id":"ce4bhnh2rcd13ifvqgtg","pricing_plan_id":"cebpf4jnsgd1na2vs0mg"},{"bike_id":"e5d5e368-6cf3-49c9-a43e-653a492e9e45","system_id":"levelo_inurba_marseille","lat":43.34204,"lon":5.37296,"is_reserved":false,"is_disabled":false,"rental_uris":{"android":"levelo://app?vid=e5d5e368-6cf3-49c9-a43e-653a492e9e45","ios":"levelo://app?vid=e5d5e368-6cf3-49c9-a43e-653a492e9e45"},"vehicle_type_id":"4","last_reported":1739881092,"current_range_meters":22800,"station_id":"","pricing_plan_id":"cebpf4jnsgd1na2vs0mg"},{"bike_id":"b3d77e87-a272-4116-9fe2-ed878a3c9216","system_id":"levelo_inurba_marseille","lat":43.27999,"lon":5.4165,"is_reserved":false,"is_disabled":false,"rental_uris":{"android":"levelo://app?vid=b3d77e87-a272-4116-9fe2-ed878a3c9216","ios":"levelo://app?vid=b3d77e87-a272-4116-9fe2-ed878a3c9216"},"vehicle_type_id":"4","last_reported":1739881092,"current_range_meters":22800,"station_id":"ce4bho12rcd13ifvqh1g","pricing_plan_id":"cebpf4jnsgd1na2vs0mg"},{"bike_id":"c204d79d-2708-4394-b7f7-eca8cdf756de","system_id":"levelo_inurba_marseille","lat":43.30316,"lon":5.369,"is_reserved":false,"is_disabled":false,"rental_uris":{"android":"levelo://app?vid=c204d79d-2708-4394-b7f7-eca8cdf756de","ios":"levelo://app?vid=c204d79d-2708-4394-b7f7-eca8cdf756de"},"vehicle_type_id":"4","last_reported":1739881092,"current_range_meters":22800,"station_id":"ce4bgqh2rcd13ifvqc5g","pricing_plan_id":"cebpf4jnsgd1na2vs0mg"},{"bike_id":"34d0692e-9df7-4c58-9c1c-340bd339e57e","system_id":"levelo_inurba_marseille","lat":43.29799,"lon":5.39343,"is_reserved":false,"is_disabled":false,"rental_uris":{"android":"levelo://app?vid=34d0692e-9df7-4c58-9c1c-340bd339e57e","ios":"levelo://app?vid=34d0692e-9df7-4c58-9c1c-340bd339e57e"},"vehicle_type_id":"4","last_reported":1739881092,"current_range_meters":22800,"station_id":"chh1huq6cuj3fo74tm60","pricing_plan_id":"cebpf4jnsgd1na2vs0mg"},{"bike_id":"731075f9-9d39-4c76-aeeb-63db11f53970","system_id":"levelo_inurba_marseille","lat":43.30922,"lon":5.4015,"is_reserved":false,"is_disabled":false,"rental_uris":{"android":"levelo://app?vid=731075f9-9d39-4c76-aeeb-63db11f53970","ios":"levelo://app?vid=731075f9-9d39-4c76-aeeb-63db11f53970"},"vehicle_type_id":"4","last_reported":1739881092,"current_range_meters":22800,"station_id":"","pricing_plan_id":"cebpf4jnsgd1na2vs0mg"},{"bike_id":"9019bfd6-ff04-4c4d-a6c2-f73a46274386","system_id":"levelo_inurba_marseille","lat":43.30137,"lon":5.3987,"is_reserved":false,"is_disabled":false,"rental_uris":{"android":"levelo://app?vid=9019bfd6-ff04-4c4d-a6c2-f73a46274386","ios":"levelo://app?vid=9019bfd6-ff04-4c4d-a6c2-f73a46274386"},"vehicle_type_id":"4","last_reported":1739881092,"current_range_meters":22800,"station_id":"ce4bh0h2rcd13ifvqd40","pricing_plan_id":"cebpf4jnsgd1na2vs0mg"},{"bike_id":"96c53659-0410-4ac7-9901-ba2962ad4fad","system_id":"levelo_inurba_marseille","lat":43.30604,"lon":5.39353,"is_reserved":false,"is_disabled":false,"rental_uris":{"android":"levelo://app?vid=96c53659-0410-4ac7-9901-ba2962ad4fad","ios":"levelo://app?vid=96c53659-0410-4ac7-9901-ba2962ad4fad"},"vehicle_type_id":"4","last_reported":1739881092,"current_range_meters":23200,"station_id":"","pricing_plan_id":"cebpf4jnsgd1na2vs0mg"},{"bike_id":"003c44c1-3cd5-48e6-afbd-3e395aa9e710","system_id":"levelo_inurba_marseille","lat":43.29899,"lon":5.43677,"is_reserved":false,"is_disabled":false,"rental_uris":{"android":"levelo://app?vid=003c44c1-3cd5-48e6-afbd-3e395aa9e710","ios":"levelo://app?vid=003c44c1-3cd5-48e6-afbd-3e395aa9e710"},"vehicle_type_id":"4","last_reported":1739881092,"current_range_meters":23200,"station_id":"ce4bhpp2rcd13ifvqhfg","pricing_plan_id":"cebpf4jnsgd1na2vs0mg"},