{"last_updated":1736521696,"ttl":60,"version":"2.2","data":{"bikes":[{"bike_id":"16565561-3952-4611-9f21-06e6d2a89056","system_id":"levelo_inurba_marseille","lat":43.28146,"lon":5.42633,"is_reserved":false,"is_disabled":false,"rental_uris":{"android":"levelo://app?vid=16565561-3952-4611-9f21-06e6d2a89056","ios":"levelo://app?vid=16565561-3952-4611-9f21-06e6d2a89056"},"vehicle_type_id":"4","last_reported":1736521696,"current_range_meters":38400,"station_id":"ce4bhnh2rcd13ifvqgug","pricing_plan_id":"cebpf4jnsgd1na2vs0mg"},{"bike_id":"9ff24b9e-60a3-48d4-8cde-0ae6dfde2dc8","system_id":"levelo_inurba_marseille","lat":43.330244,"lon":5.390363,"is_reserved":false,"is_disabled":false,"rental_uris":{"android":"levelo://app?vid=9ff24b9e-60a3-48d4-8cde-0ae6dfde2dc8","ios":"levelo://app?vid=9ff24b9e-60a3-48d4-8cde-0ae6dfde2dc8"},"vehicle_type_id":"4","last_reported":1736521696,"current_range_meters":33600,"station_id":"ce4bhr92rcd13ifvqhrg","pricing_plan_id":"cebpf4jnsgd1na2vs0mg"},{"bike_id":"6369c140-3323-465a-a3e4-b9f4b2637437","system_id":"levelo_inurba_marseille","lat":43.25937,"lon":5.40893,"is_reserved":false,"is_disabled":false,"rental_uris":{"android":"levelo://app?vid=6369c140-3323-465a-a3e4-b9f4b2637437","ios":"levelo://app?vid=6369c140-3323-465a-a3e4-b9f4b2637437"},"vehicle_type_id":"4","last_reported":1736521696,"current_range_meters":30000,"station_id":"ce4bhm92rcd13ifvqglg","pricing_plan_id":"cebpf4jnsgd1na2vs0mg"},{"bike_id":"6b3e4da5-765c-43be-9d90-3ccb5342f422","system_id":"levelo_inurba_marseille","lat":43.27056,"lon":5.40259,"is_reserved":false,"is_disabled":false,"rental_uris":{"android":"levelo://app?vid=6b3e4da5-765c-43be-9d90-3ccb5342f422","ios":"levelo://app?vid=6b3e4da5-765c-43be-9d90-3ccb5342f422"},"vehicle_type_id":"4","last_reported":1736521696,"current_range_meters":33200,"station_id":"ce4bhk92rcd13ifvqgc0","pricing_plan_id":"cebpf4jnsgd1na2vs0mg"},{"bike_id":"9d55a568-ad52-4c80-8178-03fae7519895","system_id":"levelo_inurba_marseille","lat":43.3112,"lon":5.3776,"is_reserved":false,"is_disabled":false,"rental_uris":{"android":"levelo://app?vid=9d55a568-ad52-4c80-8178-03fae7519895","ios":"levelo://app?vid=9d55a568-ad52-4c80-8178-03fae7519895"},"vehicle_type_id":"4","last_reported":1736521696,"current_range_meters":5600,"station_id":"ce4bgt92rcd13ifvqcg0","pricing_plan_id":"cebpf4jnsgd1na2vs0mg"},{"bike_id":"66cd34ca-4f4e-4e96-87b1-a42b4caf5f3f","system_id":"levelo_inurba_marseille","lat":43.24387,"lon":5.37057,"is_reserved":false,"is_disabled":false,"rental_uris":{"android":"levelo://app?vid=66cd34ca-4f4e-4e96-87b1-a42b4caf5f3f","ios":"levelo://app?vid=66cd34ca-4f4e-4e96-87b1-a42b4caf5f3f"},"vehicle_type_id":"4","last_reported":1736521696,"current_range_meters":30000,"station_id":"ce4bhhh2rcd13ifvqfk0","pricing_plan_id":"cebpf4jnsgd1na2vs0mg"},{"bike_id":"82f8c0fa-04ac-497a-8973-69aeab21069a","system_id":"levelo_inurba_marseille","lat":43.29417,"lon":5.38623,"is_reserved":false,"is_disabled":false,"rental_uris":{"android":"levelo://app?vid=82f8c0fa-04ac-497a-8973-69aeab21069a","ios":"levelo://app?vid=82f8c0fa-04ac-497a-8973-69aeab21069a"},"vehicle_type_id":"4","last_reported":1736521696,"current_range_meters":11200,"station_id":"ce4bh2h2rcd13ifvqdh0","pricing_plan_id":"cebpf4jnsgd1na2vs0mg"},{"bike_id":"12c7eb7a-0709-44a7-979c-b2b1fd26ee4c","system_id":"levelo_inurba_marseille","lat":43.29841,"lon":5.36263,"is_reserved":false,"is_disabled":false,"rental_uris":{"android":"levelo://app?vid=12c7eb7a-0709-44a7-979c-b2b1fd26ee4c","ios":"levelo://app?vid=12c7eb7a-0709-44a7-979c-b2b1fd26ee4c"},"vehicle_type_id":"4","last_reported":1736521696,"current_range_meters":36000,"station_id":"ce4bgpp2rcd13ifvqc3g","pricing_plan_id":"cebpf4jnsgd1na2vs0mg"},{"bike_id":"1e3d0eff-3ace-46ed-abeb-329fa622b392","system_id":"levelo_inurba_marseille","lat":43.30128,"lon":5.39864,"is_reserved":false,"is_disabled":false,"rental_uris":{"android":"levelo://app?vid=1e3d0eff-3ace-46ed-abeb-329fa622b392","ios":"levelo://app?vid=1e3d0eff-3ace-46ed-abeb-329fa622b392"},"vehicle_type_id":"4","last_reported":1736521696,"current_range_meters":30400,"station_id":"ce4bh0h2rcd13ifvqd40","pricing_plan_id":"cebpf4jnsgd1na2vs0mg"},{"bike_id":"d21c8617-aeea-4aae-8bb5-e72443614131","system_id":"levelo_inurba_marseille","lat":43.30315,"lon":5.36902,"is_reserved":false,"is_disabled":false,"rental_uris":{"android":"levelo://app?vid=d21c8617-aeea-4aae-8bb5-e72443614131","ios":"levelo://app?vid=d21c8617-aeea-4aae-8bb5-e72443614131"},"vehicle_type_id":"4","last_reported":1736521696,"current_range_meters":38000,"station_id":"ce4bgqh2rcd13ifvqc5g","pricing_plan_id":"cebpf4jnsgd1na2vs0mg"},{"bike_id":"bede01d0-1e08-44c9-9061-b0004f918f02","system_id":"levelo_inurba_marseille","lat":43.27417,"lon":5.39393,"is_reserved":false,"is_disabled":false,"rental_uris":{"android":"levelo://app?vid=bede01d0-1e08-44c9-9061-b0004f918f02","ios":"levelo://app?vid=bede01d0-1e08-44c9-9061-b0004f918f02"},"vehicle_type_id":"4","last_reported":1736521696,"current_range_meters":38000,"station_id":"ce4bhdp2rcd13ifvqf20","pricing_plan_id":"cebpf4jnsgd1na2vs0mg"},{"bike_id":"9b9f7a00-78fa-4c6e-9a55-5c7cdd99b601","system_id":"levelo_inurba_marseille","lat":43.28029,"lon":5.369445,"is_reserved":false,"is_disabled":false,"rental_uris":{"android":"levelo://app?vid=9b9f7a00-78fa-4c6e-9a55-5c7cdd99b601","ios":"levelo://app?vid=9b9f7a00-78fa-4c6e-9a55-5c7cdd99b601"},"vehicle_type_id":"4","last_reported":1736521696,"current_range_meters":38800,"station_id":"ce4bha12rcd13ifvqef0","pricing_plan_id":"cebpf4jnsgd1na2vs0mg"},{"bike_id":"c2a6f525-b529-4852-ac4e-ed04e407a8fd","system_id":"levelo_inurba_marseille","lat":43.29179,"lon":5.35799,"is_reserved":false,"is_disabled":false,"rental_uris":{"android":"levelo://app?vid=c2a6f525-b529-4852-ac4e-ed04e407a8fd","ios":"levelo://app?vid=c2a6f525-b529-4852-ac4e-ed04e407a8fd"},"vehicle_type_id":"4","last_reported":1736521696,"current_range_meters":24400,"station_id":"ce4bhb12rcd13ifvqel0","pricing_plan_id":"cebpf4jnsgd1na2vs0mg"},{"bike_id":"13b473bc-816f-467e-ae12-cfad637a890c","system_id":"levelo_inurba_marseille","lat":43.27425,"lon":5.39413,"is_reserved":false,"is_disabled":true,"rental_uris":{"android":"levelo://app?vid=13b473bc-816f-467e-ae12-cfad637a890c","ios":"levelo://app?vid=13b473bc-816f-467e-ae12-cfad637a890c"},"vehicle_type_id":"4","last_reported":1736521696,"current_range_meters":1600,"station_id":"ce4bhdp2rcd13ifvqf20","pricing_plan_id":"cebpf4jnsgd1na2vs0mg"},{"bike_id":"9663200d-36ab-4729-8cda-004fa798e53f","system_id":"levelo_inurba_marseille","lat":43.24076,"lon":5.37761,"is_reserved":false,"is_disabled":false,"rental_uris":{"android":"levelo://app?vid=9663200d-36ab-4729-8cda-004fa798e53f","ios":"levelo://app?vid=9663200d-36ab-4729-8cda-004fa798e53f"},"vehicle_type_id":"4","last_reported":1736521696,"current_range_meters":20800,"station_id":"ce4bhnp2rcd13ifvqgvg","pricing_plan_id":"cebpf4jnsgd1na2vs0mg"},{"bike_id":"004c2ac5-7f25-4e48-8a80-9a02537f6ba6","system_id":"levelo_inurba_marseille","lat":43.3212,"lon":5.3679,"is_reserved":false,"is_disabled":false,"rental_uris":{"android":"levelo://app?vid=004c2ac5-7f25-4e48-8a80-9a02537f6ba6","ios":"levelo://app?vid=004c2ac5-7f25-4e48-8a80-9a02537f6ba6"},"vehicle_type_id":"4","last_reported":1736521696,"current_range_meters":35600,"station_id":"ce4bhrh2rcd13ifvqhug","pricing_plan_id":"cebpf4jnsgd1na2vs0mg"},{"bike_id":"44c06cf5-53b4-4d6c-a76e-d21df06ce45b","system_id":"levelo_inurba_marseille","lat":43.26216,"lon":5.37436,"is_reserved":false,"is_disabled":false,"rental_uris":{"android":"levelo://app?vid=44c06cf5-53b4-4d6c-a76e-d21df06ce45b","ios":"levelo://app?vid=44c06cf5-53b4-4d6c-a76e-d21df06ce45b"},"vehicle_type_id":"4","last_reported":1736521696,"current_range_meters":31200,"station_id":"ce4bhgp2rcd13ifvqfc0","pricing_plan_id":"cebpf4jnsgd1na2vs0mg"},{"bike_id":"49d154ab-b066-4a04-b00a-22a27742a39e","system_id":"levelo_inurba_marseille","lat":43.24172,"lon":5.39739,"is_reserved":false,"is_disabled":false,"rental_uris":{"android":"levelo://app?vid=49d154ab-b066-4a04-b00a-22a27742a39e","ios":"levelo://app?vid=49d154ab-b066-4a04-b00a-22a27742a39e"},"vehicle_type_id":"4","last_reported":1736521696,"current_range_meters":39200,"station_id":"ce4bhn12rcd13ifvqgpg","pricing_plan_id":"cebpf4jnsgd1na2vs0mg"},{"bike_id":"9f35e75c-ba6d-4f8b-b521-eefbbebfb95e","system_id":"levelo_inurba_marseille","lat":43.24664,"lon":5.38168,"is_reserved":false,"is_disabled":false,"rental_uris":{"android":"levelo://app?vid=9f35e75c-ba6d-4f8b-b521-eefbbebfb95e","ios":"levelo://app?vid=9f35e75c-ba6d-4f8b-b521-eefbbebfb95e"},"vehicle_type_id":"4","last_reported":1736521696,"current_range_meters":16400,"station_id":"ce4bhih2rcd13ifvqfr0","pricing_plan_id":"cebpf4jnsgd1na2vs0mg"},{"bike_id":"ef2c07f0-aaed-428a-89fa-aa7d450dac8c","system_id":"levelo_inurba_marseille","lat":43.31083,"lon":5.424313,"is_reserved":false,"is_disabled":false,"rental_uris":{"android":"levelo://app?vid=ef2c07f0-aaed-428a-89fa-aa7d450dac8c","ios":"levelo://app?vid=ef2c07f0-aaed-428a-89fa-aa7d450dac8c"},"vehicle_type_id":"4","last_reported":1736521696,"current_range_meters":36000,"station_id":"ce4bhp92rcd13ifvqhag","pricing_plan_id":"cebpf4jnsgd1na2vs0mg"},{"bike_id":"a3d54df0-2c43-443d-9485-006249d55efe","system_id":"levelo_inurba_marseille","lat":43.284181,"lon":5.349817,"is_reserved":false,"is_disabled":false,"rental_uris":{"android":"levelo://app?vid=a3d54df0-2c43-443d-9485-006249d55efe","ios":"levelo://app?vid=a3d54df0-2c43-443d-9485-006249d55efe"},"vehicle_type_id":"4","last_reported":1736521696,"current_range_meters":13600,"station_id":"ce4bhbh2rcd13ifvqepg","pricing_plan_id":"cebpf4jnsgd1na2vs0mg"},{"bike_id":"bd23ba2f-bea5-46b2-ac92-163ad121c7de","system_id":"levelo_inurba_marseille","lat":43.28951,"lon":5.36645,"is_reserved":false,"is_disabled":false,"rental_uris":{"android":"levelo://app?vid=bd23ba2f-bea5-46b2-ac92-163ad121c7de","ios":"levelo://app?vid=bd23ba2f-bea5-46b2-ac92-163ad121c7de"},"vehicle_type_id":"4","last_reported":1736521696,"current_range_meters":16000,"station_id":"ce4bhap2rcd13ifvqek0","pricing_plan_id":"cebpf4jnsgd1na2vs0mg"},{"bike_id":"954155ec-29aa-4d2d-9847-fea14d9d940d","system_id":"levelo_inurba_marseille","lat":43.2407,"lon":5.37763,"is_reserved":false,"is_disabled":false,"rental_uris":{"android":"levelo://app?vid=954155ec-29aa-4d2d-9847-fea14d9d940d","ios":"levelo://app?vid=954155ec-29aa-4d2d-9847-fea14d9d940d"},"vehicle_type_id":"4","last_reported":1736521696,"current_range_meters":37600,"station_id":"ce4bhnp2rcd13ifvqgvg","pricing_plan_id":"cebpf4jnsgd1na2vs0mg"},{"bike_id":"efa1c9d3-070e-4887-8f2b-93c7f15b8662","system_id":"levelo_inurba_marseille","lat":43.30921,"lon":5.36932,"is_reserved":false,"is_disabled":false,"rental_uris":{"android":"levelo://app?vid=efa1c9d3-070e-4887-8f2b-93c7f15b8662","ios":"levelo://app?vid=efa1c9d3-070e-4887-8f2b-93c7f15b8662"},"vehicle_type_id":"4","last_reported":1736521696,"current_range_meters":36400,"station_id":"ce4bh2h2rcd13ifvqdh0","pricing_plan_id":"cebpf4jnsgd1na2vs0mg"},{"bike_id":"e8ff7f4e-0f3a-4dd0-b510-a53612ed56c9","system_id":"levelo_inurba_marseille","lat":43.27066,"lon":5.40273,"is_reserved":false,"is_disabled":false,"rental_uris":{"android":"levelo://app?vid=e8ff7f4e-0f3a-4dd0-b510-a53612ed56c9","ios":"levelo://app?vid=e8ff7f4e-0f3a-4dd0-b510-a53612ed56c9"},"vehicle_type_id":"4","last_reported":1736521696,"current_range_meters":22000,"station_id":"ce4bhk92rcd13ifvqgc0","pricing_plan_id":"cebpf4jnsgd1na2vs0mg"},{"bike_id":"b71e6509-8f5e-4841-938c-ce129439de84","system_id":"levelo_inurba_marseille","lat":43.2979,"lon":5.38072,"is_reserved":false,"is_disabled":false,"rental_uris":{"android":"levelo://app?vid=b71e6509-8f5e-4841-938c-ce129439de84","ios":"levelo://app?vid=b71e6509-8f5e-4841-938c-ce129439de84"},"vehicle_type_id":"4","last_reported":1736521696,"current_range_meters":20000,"station_id":"ce4bgip2rcd13ifvqbb0","pricing_plan_id":"cebpf4jnsgd1na2vs0mg"},{"bike_id":"40aa582d-815a-4ab4-b49f-d3b3d622ee04","system_id":"levelo_inurba_marseille","lat":43.23067,"lon":5.35482,"is_reserved":false,"is_disabled":false,"rental_uris":{"android":"levelo://app?vid=40aa582d-815a-4ab4-b49f-d3b3d622ee04","ios":"levelo://app?vid=40aa582d-815a-4ab4-b49f-d3b3d622ee04"},"vehicle_type_id":"4","last_reported":1736521696,"current_range_meters":8000,"station_id":"cpo3342slgdg3j2ifvpg","pricing_plan_id":"cebpf4jnsgd1na2vs0mg"},{"bike_id":"6b750947-fb43-40e2-9931-495446cc2b3f","system_id":"levelo_inurba_marseille","lat":43.22923,"lon":5.35382,"is_reserved":false,"is_disabled":true,"rental_uris":{"android":"levelo://app?vid=6b750947-fb43-40e2-9931-495446cc2b3f","ios":"levelo://app?vid=6b750947-fb43-40e2-9931-495446cc2b3f"},"vehicle_type_id":"4","last_reported":1736521696,"current_range_meters":0,"station_id":"cpo3532slgdg3j2ikp40","pricing_plan_id":"cebpf4jnsgd1na2vs0mg"},{"bike_id":"79195621-a3d8-4750-bafe-68914d6ba656","system_id":"levelo_inurba_marseille","lat":43.30575,"lon":5.36544,"is_reserved":false,"is_disabled":false,"rental_uris":{"android":"levelo://app?vid=79195621-a3d8-4750-bafe-68914d6ba656","ios":"levelo://app?vid=79195621-a3d8-4750-bafe-68914d6ba656"},"vehicle_type_id":"4","last_reported":1736521696,"current_range_meters":33600,"station_id":"ce4bgs12rcd13ifvqcag","pricing_plan_id":"cebpf4jnsgd1na2vs0mg"},{"bike_id":"a695196c-79fc-477c-ba43-5e8d0411f6ec","system_id":"levelo_inurba_marseille","lat":43.30211,"lon":5.39469,"is_reserved":false,"is_disabled":false,"rental_uris":{"android":"levelo://app?vid=a695196c-79fc-477c-ba43-5e8d0411f6ec","ios":"levelo://app?vid=a695196c-79fc-477c-ba43-5e8d0411f6ec"},"vehicle_type_id":"4","last_reported":1736521696,"current_range_meters":37600,"station_id":"ce4bh0p2rcd13ifvqd70","pricing_plan_id":"cebpf4jnsgd1na2vs0mg"},{"bike_id":"5b79b006-d7c3-4b04-9541-c9d77e2d63cb","system_id":"levelo_inurba_marseille","lat":43.31683,"lon":5.40366,"is_reserved":false,"is_disabled":true,"rental_uris":{"android":"levelo://app?vid=5b79b006-d7c3-4b04-9541-c9d77e2d63cb","ios":"levelo://app?vid=5b79b006-d7c3-4b04-9541-c9d77e2d63cb"},"vehicle_type_id":"4","last_reported":1736521696,"current_range_meters":16800,"station_id":"ce4bh012rcd13ifvqd00","pricing_plan_id":"cebpf4jnsgd1na2vs0mg"},{"bike_id":"1f5ef9f6-050f-4f79-a9ce-badba66ed461","system_id":"levelo_inurba_marseille","lat":43.28048,"lon":5.41114,"is_reserved":false,"is_disabled":false,"rental_uris":{"android":"levelo://app?vid=1f5ef9f6-050f-4f79-a9ce-badba66ed461","ios":"levelo://app?vid=1f5ef9f6-050f-4f79-a9ce-badba66ed461"},"vehicle_type_id":"4","last_reported":1736521696,"current_range_meters":24400,"station_id":"","pricing_plan_id":"cebpf4jnsgd1na2vs0mg"},{"bike_id":"4af16076-0c4c-4b77-bf13-a9dfad761f4a","system_id":"levelo_inurba_marseille","lat":43.26031,"lon":5.375546,"is_reserved":false,"is_disabled":false,"rental_uris":{"android":"levelo://app?vid=4af16076-0c4c-4b77-bf13-a9dfad761f4a","ios":"levelo://app?vid=4af16076-0c4c-4b77-bf13-a9dfad761f4a"},"vehicle_type_id":"4","last_reported":1736521696,"current_range_meters":35200,"station_id":"ce4bhgh2rcd13ifvqfa0","pricing_plan_id":"cebpf4jnsgd1na2vs0mg"},{"bike_id":"79da2544-1cc6-4479-aa5c-48161bc5839b","system_id":"levelo_inurba_marseille","lat":43.30426,"lon":5.39743,"is_reserved":false,"is_disabled":true,"rental_uris":{"android":"levelo://app?vid=79da2544-1cc6-4479-aa5c-48161bc5839b","ios":"levelo://app?vid=79da2544-1cc6-4479-aa5c-48161bc5839b"},"vehicle_type_id":"4","last_reported":1736521696,"current_range_meters":28400,"station_id":"ce4bh092rcd13ifvqd20","pricing_plan_id":"cebpf4jnsgd1na2vs0mg"},{"bike_id":"6d907632-b7a4-409f-98d5-031bae93ab87","system_id":"levelo_inurba_marseille","lat":43.23962,"lon":5.36637,"is_reserved":false,"is_disabled":false,"rental_uris":{"android":"levelo://app?vid=6d907632-b7a4-409f-98d5-031bae93ab87","ios":"levelo://app?vid=6d907632-b7a4-409f-98d5-031bae93ab87"},"vehicle_type_id":"4","last_reported":1736521696,"current_range_meters":38800,"station_id":"ce4bhi12rcd13ifvqfp0","pricing_plan_id":"cebpf4jnsgd1na2vs0mg"},{"bike_id":"a32b2dfc-af23-42dc-a0fd-205aa8242f3d","system_id":"levelo_inurba_marseille","lat":43.27567,"lon":5.38416,"is_reserved":false,"is_disabled":false,"rental_uris":{"android":"levelo://app?vid=a32b2dfc-af23-42dc-a0fd-205aa8242f3d","ios":"levelo://app?vid=a32b2dfc-af23-42dc-a0fd-205aa8242f3d"},"vehicle_type_id":"4","last_reported":1736521696,"current_range_meters":30000,"station_id":"ce4bhh92rcd13ifvqfi0","pricing_plan_id":"cebpf4jnsgd1na2vs0mg"},{"bike_id":"237b367f-69c6-422c-b184-44b6091e4d4e","system_id":"levelo_inurba_marseille","lat":43.23977,"lon":5.36628,"is_reserved":false,"is_disabled":false,"rental_uris":{"android":"levelo://app?vid=237b367f-69c6-422c-b184-44b6091e4d4e","ios":"levelo://app?vid=237b367f-69c6-422c-b184-44b6091e4d4e"},"vehicle_type_id":"4","last_reported":1736521696,"current_range_meters":27600,"station_id":"ce4bhi12rcd13ifvqfp0","pricing_plan_id":"cebpf4jnsgd1na2vs0mg"},{"bike_id":"e317371f-3cb8-4455-a218-71b01dcac120","system_id":"levelo_inurba_marseille","lat":43.29559,"lon":5.37497,"is_reserved":false,"is_disabled":false,"rental_uris":{"android":"levelo://app?vid=e317371f-3cb8-4455-a218-71b01dcac120","ios":"levelo://app?vid=e317371f-3cb8-4455-a218-71b01dcac120"},"vehicle_type_id":"4","last_reported":1736521696,"current_range_meters":33200,"station_id":"ce4bgh92rcd13ifvqb50","pricing_plan_id":"cebpf4jnsgd1na2vs0mg"},{"bike_id":"effc1ad2-81ea-450d-94d8-ec07ff8f2ba0","system_id":"levelo_inurba_marseille","lat":43.24543,"lon":5.3952,"is_reserved":false,"is_disabled":false,"rental_uris":{"android":"levelo://app?vid=effc1ad2-81ea-450d-94d8-ec07ff8f2ba0","ios":"levelo://app?vid=effc1ad2-81ea-450d-94d8-ec07ff8f2ba0"},"vehicle_type_id":"4","last_reported":1736521696,"current_range_meters":37600,"station_id":"ce4bhlp2rcd13ifvqgjg","pricing_plan_id":"cebpf4jnsgd1na2vs0mg"},{"bike_id":"1a40ff62-0131-462d-be64-1a90e6d3a38f","system_id":"levelo_inurba_marseille","lat":43.24074,"lon":5.37753,"is_reserved":false,"is_disabled":false,"rental_uris":{"android":"levelo://app?vid=1a40ff62-0131-462d-be64-1a90e6d3a38f","ios":"levelo://app?vid=1a40ff62-0131-462d-be64-1a90e6d3a38f"},"vehicle_type_id":"4","last_reported":1736521696,"current_range_meters":11600,"station_id":"ce4bhnp2rcd13ifvqgvg","pricing_plan_id":"cebpf4jnsgd1na2vs0mg"},{"bike_id":"b9dc92fc-dcef-4cdb-9a77-1bbdbb69d4e3","system_id":"levelo_inurba_marseille","lat":43.27842,"lon":5.39215,"is_reserved":false,"is_disabled":false,"rental_uris":{"android":"levelo://app?vid=b9dc92fc-dcef-4cdb-9a77-1bbdbb69d4e3","ios":"levelo://app?vid=b9dc92fc-dcef-4cdb-9a77-1bbdbb69d4e3"},"vehicle_type_id":"4","last_reported":1736521696,"current_range_meters":31200,"station_id":"ce4bhjp2rcd13ifvqga0","pricing_plan_id":"cebpf4jnsgd1na2vs0mg"},{"bike_id":"c7abeb44-8217-484e-bb70-10161fb311b5","system_id":"levelo_inurba_marseille","lat":43.27945,"lon":5.41039,"is_reserved":false,"is_disabled":false,"rental_uris":{"android":"levelo://app?vid=c7abeb44-8217-484e-bb70-10161fb311b5","ios":"levelo://app?vid=c7abeb44-8217-484e-bb70-10161fb311b5"},"vehicle_type_id":"4","last_reported":1736521696,"current_range_meters":30400,"station_id":"ce4bhnp2rcd13ifvqh0g","pricing_plan_id":"cebpf4jnsgd1na2vs0mg"},{"bike_id":"f8f038bf-963e-4cc7-92aa-d346a08a0d6a","system_id":"levelo_inurba_marseille","lat":43.27438,"lon":5.39409,"is_reserved":false,"is_disabled":false,"rental_uris":{"android":"levelo://app?vid=f8f038bf-963e-4cc7-92aa-d346a08a0d6a","ios":"levelo://app?vid=f8f038bf-963e-4cc7-92aa-d346a08a0d6a"},"vehicle_type_id":"4","last_reported":1736521696,"current_range_meters":38400,"station_id":"ce4bhdp2rcd13ifvqf20","pricing_plan_id":"cebpf4jnsgd1na2vs0mg"},{"bike_id":"dc7c3254-8743-46e0-83e6-a66225f60699","system_id":"levelo_inurba_marseille","lat":43.31199,"lon":5.36856,"is_reserved":false,"is_disabled":false,"rental_uris":{"android":"levelo://app?vid=dc7c3254-8743-46e0-83e6-a66225f60699","ios":"levelo://app?vid=dc7c3254-8743-46e0-83e6-a66225f60699"},"vehicle_type_id":"4","last_reported":1736521696,"current_range_meters":28800,"station_id":"ce4bgl92rcd13ifvqbq0","pricing_plan_id":"cebpf4jnsgd1na2vs0mg"},{"bike_id":"e3018c6c-8579-4c9e-bfc8-f53e9c5cae89","system_id":"levelo_inurba_marseille","lat":43.29977,"lon":5.3849,"is_reserved":false,"is_disabled":false,"rental_uris":{"android":"levelo://app?vid=e3018c6c-8579-4c9e-bfc8-f53e9c5cae89","ios":"levelo://app?vid=e3018c6c-8579-4c9e-bfc8-f53e9c5cae89"},"vehicle_type_id":"4","last_reported":1736521696,"current_range_meters":36400,"station_id":"ce4bgj92rcd13ifvqbd0","pricing_plan_id":"cebpf4jnsgd1na2vs0mg"},{"bike_id":"426ee80e-06b0-4d0f-86a5-ea8ad64aaa11","system_id":"levelo_inurba_marseille","lat":43.28925,"lon":5.43768,"is_reserved":false,"is_disabled":false,"rental_uris":{"android":"levelo://app?vid=426ee80e-06b0-4d0f-86a5-ea8ad64aaa11","ios":"levelo://app?vid=426ee80e-06b0-4d0f-86a5-ea8ad64aaa11"},"vehicle_type_id":"4","last_reported":1736521696,"current_range_meters":20800,"station_id":"","pricing_plan_id":"cebpf4jnsgd1na2vs0mg"},{"bike_id":"af635d4b-273e-45a9-930a-2c6a79415217","system_id":"levelo_inurba_marseille","lat":43.31219,"lon":5.36857,"is_reserved":false,"is_disabled":false,"rental_uris":{"android":"levelo://app?vid=af635d4b-273e-45a9-930a-2c6a79415217","ios":"levelo://app?vid=af635d4b-273e-45a9-930a-2c6a79415217"},"vehicle_type_id":"4","last_reported":1736521696,"current_range_meters":29600,"station_id":"ce4bgl92rcd13ifvqbq0","pricing_plan_id":"cebpf4jnsgd1na2vs0mg"},{"bike_id":"84f01af1-dfa7-4577-833a-b817d873c6e3","system_id":"levelo_inurba_marseille","lat":43.29579,"lon":5.36738,"is_reserved":false,"is_disabled":false,"rental_uris":{"android":"levelo://app?vid=84f01af1-dfa7-4577-833a-b817d873c6e3","ios":"levelo://app?vid=84f01af1-dfa7-4577-833a-b817d873c6e3"},"vehicle_type_id":"4","last_reported":1736521696,"current_range_meters":23200,"station_id":"ce4bgph2rcd13ifvqc2g","pricing_plan_id":"cebpf4jnsgd1na2vs0mg"},{"bike_id":"5ca61d7c-4cce-4318-abf1-81f79230ef6c","system_id":"levelo_inurba_marseille","lat":43.30992,"lon":5.37525,"is_reserved":false,"is_disabled":false,"rental_uris":{"android":"levelo://app?vid=5ca61d7c-4cce-4318-abf1-81f79230ef6c","ios":"levelo://app?vid=5ca61d7c-4cce-4318-abf1-81f79230ef6c"},"vehicle_type_id":"4","last_reported":1736521696,"current_range_meters":26000,"station_id":"","pricing_plan_id":"cebpf4jnsgd1na2vs0mg"},{"bike_id":"8eac2221-02c4-4e7e-afd9-65f62bda57a4","system_id":"levelo_inurba_marseille","lat":43.29196,"lon":5.39323,"is_reserved":false,"is_disabled":false,"rental_uris":{"android":"levelo://app?vid=8eac2221-02c4-4e7e-afd9-65f62bda57a4","ios":"levelo://app?vid=8eac2221-02c4-4e7e-afd9-65f62bda57a4"},"vehicle_type_id":"4","last_reported":1736521696,"current_range_meters":38400,"station_id":"ce4bh192rcd13ifvqdd0","pricing_plan_id":"cebpf4jnsgd1na2vs0mg"},{"bike_id":"f185570c-4bd9-4ae5-b4e8-b076c37c8e1f","system_id":"levelo_inurba_marseille","lat":43.29354,"lon":5.37845,"is_reserved":false,"is_disabled":false,"rental_uris":{"android":"levelo://app?vid=f185570c-4bd9-4ae5-b4e8-b076c37c8e1f","ios":"levelo://app?vid=f185570c-4bd9-4ae5-b4e8-b076c37c8e1f"},"vehicle_type_id":"4","last_reported":1736521696,"current_range_meters":2800,"station_id":"ce4bgjh2rcd13ifvqbf0","pricing_plan_id":"cebpf4jnsgd1na2vs0mg"},{"bike_id":"a8607ece-6ec2-41dd-9b5b-9637fdf504d9","system_id":"levelo_inurba_marseille","lat":43.27238,"lon":5.39106,"is_reserved":false,"is_disabled":false,"rental_uris":{"android":"levelo://app?vid=a8607ece-6ec2-41dd-9b5b-9637fdf504d9","ios":"levelo://app?vid=a8607ece-6ec2-41dd-9b5b-9637fdf504d9"},"vehicle_type_id":"4","last_reported":1736521696,"current_range_meters":39200,"station_id":"ce4bhhp2rcd13ifvqfm0","pricing_plan_id":"cebpf4jnsgd1na2vs0mg"},{"bike_id":"62dd21a1-19b6-409e-8eba-80c35218abba","system_id":"levelo_inurba_marseille","lat":43.31752,"lon":5.39014,"is_reserved":false,"is_disabled":false,"rental_uris":{"android":"levelo://app?vid=62dd21a1-19b6-409e-8eba-80c35218abba","ios":"levelo://app?vid=62dd21a1-19b6-409e-8eba-80c35218abba"},"vehicle_type_id":"4","last_reported":1736521696,"current_range_meters":26000,"station_id":"ce4bhqp2rcd13ifvqhng","pricing_plan_id":"cebpf4jnsgd1na2vs0mg"},{"bike_id":"8fa9b419-6548-4137-add1-4cc5cd26244c","system_id":"levelo_inurba_marseille","lat":43.29075,"lon":5.37164,"is_reserved":false,"is_disabled":false,"rental_uris":{"android":"levelo://app?vid=8fa9b419-6548-4137-add1-4cc5cd26244c","ios":"levelo://app?vid=8fa9b419-6548-4137-add1-4cc5cd26244c"},"vehicle_type_id":"4","last_reported":1736521696,"current_range_meters":32800,"station_id":"ce4bh5p2rcd13ifvqe4g","pricing_plan_id":"cebpf4jnsgd1na2vs0mg"},{"bike_id":"afe1dfde-0d60-4886-b6a1-cd2ad9b42bf7","system_id":"levelo_inurba_marseille","lat":43.32104,"lon":5.38043,"is_reserved":false,"is_disabled":false,"rental_uris":{"android":"levelo://app?vid=afe1dfde-0d60-4886-b6a1-cd2ad9b42bf7","ios":"levelo://app?vid=afe1dfde-0d60-4886-b6a1-cd2ad9b42bf7"},"vehicle_type_id":"4","last_reported":1736521696,"current_range_meters":29600,"station_id":"","pricing_plan_id":"cebpf4jnsgd1na2vs0mg"},{"bike_id":"2acd9ed5-63bb-408c-a254-c6692f4bcf40","system_id":"levelo_inurba_marseille","lat":43.25582,"lon":5.38232,"is_reserved":false,"is_disabled":false,"rental_uris":{"android":"levelo://app?vid=2acd9ed5-63bb-408c-a254-c6692f4bcf40","ios":"levelo://app?vid=2acd9ed5-63bb-408c-a254-c6692f4bcf40"},"vehicle_type_id":"4","last_reported":1736521696,"current_range_meters":11200,"station_id":"ce4bhih2rcd13ifvqfs0","pricing_plan_id":"cebpf4jnsgd1na2vs0mg"},{"bike_id":"bff44bb8-8b4e-46ca-b853-3e602104ec15","system_id":"levelo_inurba_marseille","lat":43.29312,"lon":5.37167,"is_reserved":false,"is_disabled":false,"rental_uris":{"android":"levelo://app?vid=bff44bb8-8b4e-46ca-b853-3e602104ec15","ios":"levelo://app?vid=bff44bb8-8b4e-46ca-b853-3e602104ec15"},"vehicle_type_id":"4","last_reported":1736521696,"current_range_meters":39200,"station_id":"ce4bgh92rcd13ifvqb40","pricing_plan_id":"cebpf4jnsgd1na2vs0mg"},{"bike_id":"80609ff8-7d7d-4ae2-9159-aea837c7c52b","system_id":"levelo_inurba_marseille","lat":43.23965,"lon":5.36626,"is_reserved":false,"is_disabled":false,"rental_uris":{"android":"levelo://app?vid=80609ff8-7d7d-4ae2-9159-aea837c7c52b","ios":"levelo://app?vid=80609ff8-7d7d-4ae2-9159-aea837c7c52b"},"vehicle_type_id":"4","last_reported":1736521696,"current_range_meters":16000,"station_id":"ce4bhi12rcd13ifvqfp0","pricing_plan_id":"cebpf4jnsgd1na2vs0mg"},{"bike_id":"c1f187e7-2ef7-4a0a-bdb8-e9896554a9e3","system_id":"levelo_inurba_marseille","lat":43.24172,"lon":5.39734,"is_reserved":false,"is_disabled":false,"rental_uris":{"android":"levelo://app?vid=c1f187e7-2ef7-4a0a-bdb8-e9896554a9e3","ios":"levelo://app?vid=c1f187e7-2ef7-4a0a-bdb8-e9896554a9e3"},"vehicle_type_id":"4","last_reported":1736521696,"current_range_meters":28400,"station_id":"ce4bhn12rcd13ifvqgpg","pricing_plan_id":"cebpf4jnsgd1na2vs0mg"},{"bike_id":"e2351fa8-b766-495e-a851-521b3a3069c3","system_id":"levelo_inurba_marseille","lat":43.28924,"lon":5.36645,"is_reserved":false,"is_disabled":false,"rental_uris":{"android":"levelo://app?vid=e2351fa8-b766-495e-a851-521b3a3069c3","ios":"levelo://app?vid=e2351fa8-b766-495e-a851-521b3a3069c3"},"vehicle_type_id":"4","last_reported":1736521696,"current_range_meters":38400,"station_id":"ce4bhap2rcd13ifvqek0","pricing_plan_id":"cebpf4jnsgd1na2vs0mg"},{"bike_id":"5edb9b21-4917-4f45-9961-6635931db922","system_id":"levelo_inurba_marseille","lat":43.22929,"lon":5.3538,"is_reserved":false,"is_disabled":false,"rental_uris":{"android":"levelo://app?vid=5edb9b21-4917-4f45-9961-6635931db922","ios":"levelo://app?vid=5edb9b21-4917-4f45-9961-6635931db922"},"vehicle_type_id":"4","last_reported":1736521696,"current_range_meters":39200,"station_id":"cpo3532slgdg3j2ikp40","pricing_plan_id":"cebpf4jnsgd1na2vs0mg"},{"bike_id":"6c16b955-c13c-49a6-a5bb-29559922d02c","system_id":"levelo_inurba_marseille","lat":43.23962,"lon":5.36635,"is_reserved":false,"is_disabled":false,"rental_uris":{"android":"levelo://app?vid=6c16b955-c13c-49a6-a5bb-29559922d02c","ios":"levelo://app?vid=6c16b955-c13c-49a6-a5bb-29559922d02c"},"vehicle_type_id":"4","last_reported":1736521696,"current_range_meters":24800,"station_id":"ce4bhi12rcd13ifvqfp0","pricing_plan_id":"cebpf4jnsgd1na2vs0mg"},{"bike_id":"acc57c46-0c06-4767-b429-edb19e5dc1a2","system_id":"levelo_inurba_marseille","lat":43.30143,"lon":5.39895,"is_reserved":false,"is_disabled":false,"rental_uris":{"android":"levelo://app?vid=acc57c46-0c06-4767-b429-edb19e5dc1a2","ios":"levelo://app?vid=acc57c46-0c06-4767-b429-edb19e5dc1a2"},"vehicle_type_id":"4","last_reported":1736521696,"current_range_meters":30800,"station_id":"ce4bh0h2rcd13ifvqd40","pricing_plan_id":"cebpf4jnsgd1na2vs0mg"},{"bike_id":"dd95b172-24fd-4056-9bb1-1ba37d74b460","system_id":"levelo_inurba_marseille","lat":43.2558,"lon":5.38233,"is_reserved":false,"is_disabled":false,"rental_uris":{"android":"levelo://app?vid=dd95b172-24fd-4056-9bb1-1ba37d74b460","ios":"levelo://app?vid=dd95b172-24fd-4056-9bb1-1ba37d74b460"},"vehicle_type_id":"4","last_reported":1736521696,"current_range_meters":16000,"station_id":"ce4bhih2rcd13ifvqfs0","pricing_plan_id":"cebpf4jnsgd1na2vs0mg"},{"bike_id":"9425d605-427a-4d86-9cb8-f42e5971d188","system_id":"levelo_inurba_marseille","lat":43.27194,"lon":5.39167,"is_reserved":false,"is_disabled":false,"rental_uris":{"android":"levelo://app?vid=9425d605-427a-4d86-9cb8-f42e5971d188","ios":"levelo://app?vid=9425d605-427a-4d86-9cb8-f42e5971d188"},"vehicle_type_id":"4","last_reported":1736521696,"current_range_meters":38400,"station_id":"ce4bhhp2rcd13ifvqfm0","pricing_plan_id":"cebpf4jnsgd1na2vs0mg"},{"bike_id":"e247b89a-68d3-4787-a893-22107163a77e","system_id":"levelo_inurba_marseille","lat":43.23195,"lon":5.39982,"is_reserved":false,"is_disabled":false,"rental_uris":{"android":"levelo://app?vid=e247b89a-68d3-4787-a893-22107163a77e","ios":"levelo://app?vid=e247b89a-68d3-4787-a893-22107163a77e"},"vehicle_type_id":"4","last_reported":1736521696,"current_range_meters":29600,"station_id":"ce4bhn12rcd13ifvqgqg","pricing_plan_id":"cebpf4jnsgd1na2vs0mg"},{"bike_id":"0aa71507-4891-4e48-a1cb-9580c9181892","system_id":"levelo_inurba_marseille","lat":43.31332,"lon":5.39686,"is_reserved":false,"is_disabled":false,"rental_uris":{"android":"levelo://app?vid=0aa71507-4891-4e48-a1cb-9580c9181892","ios":"levelo://app?vid=0aa71507-4891-4e48-a1cb-9580c9181892"},"vehicle_type_id":"4","last_reported":1736521696,"current_range_meters":10800,"station_id":"ce4bgvp2rcd13ifvqcu0","pricing_plan_id":"cebpf4jnsgd1na2vs0mg"},{"bike_id":"a1a982e7-e625-4dfa-991a-019bb63c806f","system_id":"levelo_inurba_marseille","lat":43.23988,"lon":5.36628,"is_reserved":false,"is_disabled":false,"rental_uris":{"android":"levelo://app?vid=a1a982e7-e625-4dfa-991a-019bb63c806f","ios":"levelo://app?vid=a1a982e7-e625-4dfa-991a-019bb63c806f"},"vehicle_type_id":"4","last_reported":1736521696,"current_range_meters":22800,"station_id":"ce4bhi12rcd13ifvqfp0","pricing_plan_id":"cebpf4jnsgd1na2vs0mg"},{"bike_id":"2b9f9611-d71b-4f9a-b814-a64ed7dfc055","system_id":"levelo_inurba_marseille","lat":43.25112,"lon":5.40322,"is_reserved":false,"is_disabled":true,"rental_uris":{"android":"levelo://app?vid=2b9f9611-d71b-4f9a-b814-a64ed7dfc055","ios":"levelo://app?vid=2b9f9611-d71b-4f9a-b814-a64ed7dfc055"},"vehicle_type_id":"4","last_reported":1736521696,"current_range_meters":0,"station_id":"ce4bhlh2rcd13ifvqgig","pricing_plan_id":"cebpf4jnsgd1na2vs0mg"},{"bike_id":"066fc890-cce1-4b7e-a941-320c51e991c9","system_id":"levelo_inurba_marseille","lat":43.23962,"lon":5.36626,"is_reserved":false,"is_disabled":false,"rental_uris":{"android":"levelo://app?vid=066fc890-cce1-4b7e-a941-320c51e991c9","ios":"levelo://app?vid=066fc890-cce1-4b7e-a941-320c51e991c9"},"vehicle_type_id":"4","last_reported":1736521696,"current_range_meters":25600,"station_id":"ce4bhi12rcd13ifvqfp0","pricing_plan_id":"cebpf4jnsgd1na2vs0mg"},{"bike_id":"e71db8cf-7b3c-485e-a8dd-487e8221434b","system_id":"levelo_inurba_marseille","lat":43.30551,"lon":5.36733,"is_reserved":false,"is_disabled":false,"rental_uris":{"android":"levelo://app?vid=e71db8cf-7b3c-485e-a8dd-487e8221434b","ios":"levelo://app?vid=e71db8cf-7b3c-485e-a8dd-487e8221434b"},"vehicle_type_id":"4","last_reported":1736521696,"current_range_meters":38800,"station_id":"ce4bgrp2rcd13ifvqc9g","pricing_plan_id":"cebpf4jnsgd1na2vs0mg"},{"bike_id":"db2bb327-84ca-49b3-a980-9c69d6ef41a2","system_id":"levelo_inurba_marseille","lat":43.23193,"lon":5.35559,"is_reserved":false,"is_disabled":false,"rental_uris":{"android":"levelo://app?vid=db2bb327-84ca-49b3-a980-9c69d6ef41a2","ios":"levelo://app?vid=db2bb327-84ca-49b3-a980-9c69d6ef41a2"},"vehicle_type_id":"4","last_reported":1736521696,"current_range_meters":38000,"station_id":"ce4bhu92rcd13ifvqi70","pricing_plan_id":"cebpf4jnsgd1na2vs0mg"},{"bike_id":"b1cd05bd-cc6d-452b-8b8c-f24ee7fb627f","system_id":"levelo_inurba_marseille","lat":43.25838,"lon":5.39435,"is_reserved":false,"is_disabled":false,"rental_uris":{"android":"levelo://app?vid=b1cd05bd-cc6d-452b-8b8c-f24ee7fb627f","ios":"levelo://app?vid=b1cd05bd-cc6d-452b-8b8c-f24ee7fb627f"},"vehicle_type_id":"4","last_reported":1736521696,"current_range_meters":36400,"station_id":"ce4bhip2rcd13ifvqft0","pricing_plan_id":"cebpf4jnsgd1na2vs0mg"},{"bike_id":"9d27d288-9638-4ffa-a41f-98c9e72676c0","system_id":"levelo_inurba_marseille","lat":43.2319,"lon":5.35559,"is_reserved":false,"is_disabled":false,"rental_uris":{"android":"levelo://app?vid=9d27d288-9638-4ffa-a41f-98c9e72676c0","ios":"levelo://app?vid=9d27d288-9638-4ffa-a41f-98c9e72676c0"},"vehicle_type_id":"4","last_reported":1736521696,"current_range_meters":8400,"station_id":"ce4bhu92rcd13ifvqi70","pricing_plan_id":"cebpf4jnsgd1na2vs0mg"},{"bike_id":"4f9797a2-da38-42f3-9e53-d0d3b5f6b7d1","system_id":"levelo_inurba_marseille","lat":43.29905,"lon":5.37475,"is_reserved":false,"is_disabled":false,"rental_uris":{"android":"levelo://app?vid=4f9797a2-da38-42f3-9e53-d0d3b5f6b7d1","ios":"levelo://app?vid=4f9797a2-da38-42f3-9e53-d0d3b5f6b7d1"},"vehicle_type_id":"4","last_reported":1736521696,"current_range_meters":29600,"station_id":"ce4bgjh2rcd13ifvqbg0","pricing_plan_id":"cebpf4jnsgd1na2vs0mg"},{"bike_id":"11585661-9606-4540-9904-4049c3c3dbe3","system_id":"levelo_inurba_marseille","lat":43.29675,"lon":5.37184,"is_reserved":false,"is_disabled":false,"rental_uris":{"android":"levelo://app?vid=11585661-9606-4540-9904-4049c3c3dbe3","ios":"levelo://app?vid=11585661-9606-4540-9904-4049c3c3dbe3"},"vehicle_type_id":"4","last_reported":1736521696,"current_range_meters":28800,"station_id":"ce4bgnh2rcd13ifvqc0g","pricing_plan_id":"cebpf4jnsgd1na2vs0mg"},{"bike_id":"14260f59-5e6c-465e-be91-94b0442db1da","system_id":"levelo_inurba_marseille","lat":43.27827,"lon":5.39199,"is_reserved":false,"is_disabled":false,"rental_uris":{"android":"levelo://app?vid=14260f59-5e6c-465e-be91-94b0442db1da","ios":"levelo://app?vid=14260f59-5e6c-465e-be91-94b0442db1da"},"vehicle_type_id":"4","last_reported":1736521696,"current_range_meters":38000,"station_id":"ce4bhjp2rcd13ifvqga0","pricing_plan_id":"cebpf4jnsgd1na2vs0mg"},{"bike_id":"dc92235e-7cb9-483e-9abf-4bb803613e62","system_id":"levelo_inurba_marseille","lat":43.29708,"lon":5.37701,"is_reserved":false,"is_disabled":false,"rental_uris":{"android":"levelo://app?vid=dc92235e-7cb9-483e-9abf-4bb803613e62","ios":"levelo://app?vid=dc92235e-7cb9-483e-9abf-4bb803613e62"},"vehicle_type_id":"4","last_reported":1736521696,"current_range_meters":18000,"station_id":"ce4bgkh2rcd13ifvqbl0","pricing_plan_id":"cebpf4jnsgd1na2vs0mg"},{"bike_id":"af9b5cb3-fb99-43dc-b90b-3dfba9b8350f","system_id":"levelo_inurba_marseille","lat":43.28135,"lon":5.42657,"is_reserved":false,"is_disabled":false,"rental_uris":{"android":"levelo://app?vid=af9b5cb3-fb99-43dc-b90b-3dfba9b8350f","ios":"levelo://app?vid=af9b5cb3-fb99-43dc-b90b-3dfba9b8350f"},"vehicle_type_id":"4","last_reported":1736521696,"current_range_meters":29600,"station_id":"ce4bhnh2rcd13ifvqgug","pricing_plan_id":"cebpf4jnsgd1na2vs0mg"},{"bike_id":"177de369-3397-42af-a917-385db222f5c9","system_id":"levelo_inurba_marseille","lat":43.28573,"lon":5.39504,"is_reserved":false,"is_disabled":false,"rental_uris":{"android":"levelo://app?vid=177de369-3397-42af-a917-385db222f5c9","ios":"levelo://app?vid=177de369-3397-42af-a917-385db222f5c9"},"vehicle_type_id":"4","last_reported":1736521696,"current_range_meters":14800,"station_id":"ce4bh292rcd13ifvqdg0","pricing_plan_id":"cebpf4jnsgd1na2vs0mg"},{"bike_id":"bc72b692-fa80-4572-afe8-0e7949eae868","system_id":"levelo_inurba_marseille","lat":43.33739,"lon":5.37436,"is_reserved":false,"is_disabled":false,"rental_uris":{"android":"levelo://app?vid=bc72b692-fa80-4572-afe8-0e7949eae868","ios":"levelo://app?vid=bc72b692-fa80-4572-afe8-0e7949eae868"},"vehicle_type_id":"4","last_reported":1736521696,"current_range_meters":27200,"station_id":"","pricing_plan_id":"cebpf4jnsgd1na2vs0mg"},{"bike_id":"b7a9af4a-f050-47c0-8298-26fae1024e10","system_id":"levelo_inurba_marseille","lat":43.26703,"lon":5.38257,"is_reserved":false,"is_disabled":false,"rental_uris":{"android":"levelo://app?vid=b7a9af4a-f050-47c0-8298-26fae1024e10","ios":"levelo://app?vid=b7a9af4a-f050-47c0-8298-26fae1024e10"},"vehicle_type_id":"4","last_reported":1736521696,"current_range_meters":39200,"station_id":"ce4bhg92rcd13ifvqf90","pricing_plan_id":"cebpf4jnsgd1na2vs0mg"},{"bike_id":"81f9c0df-891c-4a46-a39a-098c095c710d","system_id":"levelo_inurba_marseille","lat":43.27173,"lon":5.40991,"is_reserved":false,"is_disabled":false,"rental_uris":{"android":"levelo://app?vid=81f9c0df-891c-4a46-a39a-098c095c710d","ios":"levelo://app?vid=81f9c0df-891c-4a46-a39a-098c095c710d"},"vehicle_type_id":"4","last_reported":1736521696,"current_range_meters":5600,"station_id":"ce4bhl12rcd13ifvqgf0","pricing_plan_id":"cebpf4jnsgd1na2vs0mg"},{"bike_id":"825f53ce-ee85-45e7-b139-fd95388a67ef","system_id":"levelo_inurba_marseille","lat":43.29884,"lon":5.38903,"is_reserved":false,"is_disabled":false,"rental_uris":{"android":"levelo://app?vid=825f53ce-ee85-45e7-b139-fd95388a67ef","ios":"levelo://app?vid=825f53ce-ee85-45e7-b139-fd95388a67ef"},"vehicle_type_id":"4","last_reported":1736521696,"current_range_meters":28800,"station_id":"ce4bh392rcd13ifvqdl0","pricing_plan_id":"cebpf4jnsgd1na2vs0mg"},{"bike_id":"9ed1c0a7-5035-4dde-954f-378a0451f32a","system_id":"levelo_inurba_marseille","lat":43.23964,"lon":5.36636,"is_reserved":false,"is_disabled":false,"rental_uris":{"android":"levelo://app?vid=9ed1c0a7-5035-4dde-954f-378a0451f32a","ios":"levelo://app?vid=9ed1c0a7-5035-4dde-954f-378a0451f32a"},"vehicle_type_id":"4","last_reported":1736521696,"current_range_meters":38800,"station_id":"ce4bhi12rcd13ifvqfp0","pricing_plan_id":"cebpf4jnsgd1na2vs0mg"},{"bike_id":"b630439d-1cc1-462c-ad1e-b9dbabf938fa","system_id":"levelo_inurba_marseille","lat":43.27827,"lon":5.3921,"is_reserved":false,"is_disabled":false,"rental_uris":{"android":"levelo://app?vid=b630439d-1cc1-462c-ad1e-b9dbabf938fa","ios":"levelo://app?vid=b630439d-1cc1-462c-ad1e-b9dbabf938fa"},"vehicle_type_id":"4","last_reported":1736521696,"current_range_meters":30400,"station_id":"ce4bhjp2rcd13ifvqga0","pricing_plan_id":"cebpf4jnsgd1na2vs0mg"},{"bike_id":"e28483d1-4b50-47d3-8f68-bbbc48a67024","system_id":"levelo_inurba_marseille","lat":43.29079,"lon":5.37192,"is_reserved":false,"is_disabled":true,"rental_uris":{"android":"levelo://app?vid=e28483d1-4b50-47d3-8f68-bbbc48a67024","ios":"levelo://app?vid=e28483d1-4b50-47d3-8f68-bbbc48a67024"},"vehicle_type_id":"4","last_reported":1736521696,"current_range_meters":28400,"station_id":"ce4bh5p2rcd13ifvqe4g","pricing_plan_id":"cebpf4jnsgd1na2vs0mg"},{"bike_id":"af1d8654-7f66-4539-8667-313d56746f24","system_id":"levelo_inurba_marseille","lat":43.2509,"lon":5.39517,"is_reserved":false,"is_disabled":false,"rental_uris":{"android":"levelo://app?vid=af1d8654-7f66-4539-8667-313d56746f24","ios":"levelo://app?vid=af1d8654-7f66-4539-8667-313d56746f24"},"vehicle_type_id":"4","last_reported":1736521696,"current_range_meters":39200,"station_id":"ce4bhm12rcd13ifvqgkg","pricing_plan_id":"cebpf4jnsgd1na2vs0mg"},{"bike_id":"60271d0f-3a77-4626-8905-d712a41f6304","system_id":"levelo_inurba_marseille","lat":43.28458,"lon":5.35901,"is_reserved":false,"is_disabled":false,"rental_uris":{"android":"levelo://app?vid=60271d0f-3a77-4626-8905-d712a41f6304","ios":"levelo://app?vid=60271d0f-3a77-4626-8905-d712a41f6304"},"vehicle_type_id":"4","last_reported":1736521696,"current_range_meters":37600,"station_id":"ce4bhah2rcd13ifvqei0","pricing_plan_id":"cebpf4jnsgd1na2vs0mg"},{"bike_id":"ea85eaf0-fde0-43c4-b882-10e3bd598be8","system_id":"levelo_inurba_marseille","lat":43.25105,"lon":5.40326,"is_reserved":false,"is_disabled":true,"rental_uris":{"android":"levelo://app?vid=ea85eaf0-fde0-43c4-b882-10e3bd598be8","ios":"levelo://app?vid=ea85eaf0-fde0-43c4-b882-10e3bd598be8"},"vehicle_type_id":"4","last_reported":1736521696,"current_range_meters":10800,"station_id":"ce4bhlh2rcd13ifvqgig","pricing_plan_id":"cebpf4jnsgd1na2vs0mg"},{"bike_id":"ce3911f4-d940-41e3-a1b8-935c8c7794b9","system_id":"levelo_inurba_marseille","lat":43.29582,"lon":5.37498,"is_reserved":false,"is_disabled":true,"rental_uris":{"android":"levelo://app?vid=ce3911f4-d940-41e3-a1b8-935c8c7794b9","ios":"levelo://app?vid=ce3911f4-d940-41e3-a1b8-935c8c7794b9"},"vehicle_type_id":"4","last_reported":1736521696,"current_range_meters":0,"station_id":"ce4bgh92rcd13ifvqb50","pricing_plan_id":"cebpf4jnsgd1na2vs0mg"},{"bike_id":"7a0a8a69-615c-43f3-a001-073b74f4a57b","system_id":"levelo_inurba_marseille","lat":43.25583,"lon":5.38245,"is_reserved":false,"is_disabled":false,"rental_uris":{"android":"levelo://app?vid=7a0a8a69-615c-43f3-a001-073b74f4a57b","ios":"levelo://app?vid=7a0a8a69-615c-43f3-a001-073b74f4a57b"},"vehicle_type_id":"4","last_reported":1736521696,"current_range_meters":26800,"station_id":"ce4bhih2rcd13ifvqfs0","pricing_plan_id":"cebpf4jnsgd1na2vs0mg"},{"bike_id":"50feb37a-834e-41bf-a542-63d3cc1f179c","system_id":"levelo_inurba_marseille","lat":43.29898,"lon":5.38154,"is_reserved":false,"is_disabled":false,"rental_uris":{"android":"levelo://app?vid=50feb37a-834e-41bf-a542-63d3cc1f179c","ios":"levelo://app?vid=50feb37a-834e-41bf-a542-63d3cc1f179c"},"vehicle_type_id":"4","last_reported":1736521696,"current_range_meters":38800,"station_id":"ce4bgj12rcd13ifvqbc0","pricing_plan_id":"cebpf4jnsgd1na2vs0mg"},{"bike_id":"04b99ebe-7927-40e6-9554-a7aa6d8ff5da","system_id":"levelo_inurba_marseille","lat":43.33034,"lon":5.39044,"is_reserved":false,"is_disabled":false,"rental_uris":{"android":"levelo://app?vid=04b99ebe-7927-40e6-9554-a7aa6d8ff5da","ios":"levelo://app?vid=04b99ebe-7927-40e6-9554-a7aa6d8ff5da"},"vehicle_type_id":"4","last_reported":1736521696,"current_range_meters":39200,"station_id":"ce4bhr92rcd13ifvqhrg","pricing_plan_id":"cebpf4jnsgd1na2vs0mg"},{"bike_id":"ed64b1fe-3eec-4913-99d6-73929977a8cf","system_id":"levelo_inurba_marseille","lat":43.31186,"lon":5.38697,"is_reserved":false,"is_disabled":false,"rental_uris":{"android":"levelo://app?vid=ed64b1fe-3eec-4913-99d6-73929977a8cf","ios":"levelo://app?vid=ed64b1fe-3eec-4913-99d6-73929977a8cf"},"vehicle_type_id":"4","last_reported":1736521696,"current_range_meters":38000,"station_id":"ce4bgv12rcd13ifvqcp0","pricing_plan_id":"cebpf4jnsgd1na2vs0mg"},{"bike_id":"c2b8a791-4767-44a3-9397-adf2e01d4736","system_id":"levelo_inurba_marseille","lat":43.3117,"lon":5.38722,"is_reserved":false,"is_disabled":false,"rental_uris":{"android":"levelo://app?vid=c2b8a791-4767-44a3-9397-adf2e01d4736","ios":"levelo://app?vid=c2b8a791-4767-44a3-9397-adf2e01d4736"},"vehicle_type_id":"4","last_reported":1736521696,"current_range_meters":7200,"station_id":"ce4bgv12rcd13ifvqcp0","pricing_plan_id":"cebpf4jnsgd1na2vs0mg"},{"bike_id":"54471564-bd33-4455-b850-4f293cdf3987","system_id":"levelo_inurba_marseille","lat":43.23076,"lon":5.3549,"is_reserved":false,"is_disabled":false,"rental_uris":{"android":"levelo://app?vid=54471564-bd33-4455-b850-4f293cdf3987","ios":"levelo://app?vid=54471564-bd33-4455-b850-4f293cdf3987"},"vehicle_type_id":"4","last_reported":1736521696,"current_range_meters":12000,"station_id":"cpo3342slgdg3j2ifvpg","pricing_plan_id":"cebpf4jnsgd1na2vs0mg"},{"bike_id":"71e570f6-1bdf-4c49-ac3c-9ac53bfae001","system_id":"levelo_inurba_marseille","lat":43.30334,"lon":5.40432,"is_reserved":false,"is_disabled":false,"rental_uris":{"android":"levelo://app?vid=71e570f6-1bdf-4c49-ac3c-9ac53bfae001","ios":"levelo://app?vid=71e570f6-1bdf-4c49-ac3c-9ac53bfae001"},"vehicle_type_id":"4","last_reported":1736521696,"current_range_meters":38800,"station_id":"ce4bh012rcd13ifvqd10","pricing_plan_id":"cebpf4jnsgd1na2vs0mg"},{"bike_id":"ceb92aec-d98c-4169-9bda-16d3f42a8ac3","system_id":"levelo_inurba_marseille","lat":43.31077,"lon":5.4244,"is_reserved":false,"is_disabled":false,"rental_uris":{"android":"levelo://app?vid=ceb92aec-d98c-4169-9bda-16d3f42a8ac3","ios":"levelo://app?vid=ceb92aec-d98c-4169-9bda-16d3f42a8ac3"},"vehicle_type_id":"4","last_reported":1736521696,"current_range_meters":39200,"station_id":"ce4bhp92rcd13ifvqhag","pricing_plan_id":"cebpf4jnsgd1na2vs0mg"},{"bike_id":"30b538c9-d8c4-4791-b7ba-52a876a5a70e","system_id":"levelo_inurba_marseille","lat":43.2909,"lon":5.3815,"is_reserved":false,"is_disabled":false,"rental_uris":{"android":"levelo://app?vid=30b538c9-d8c4-4791-b7ba-52a876a5a70e","ios":"levelo://app?vid=30b538c9-d8c4-4791-b7ba-52a876a5a70e"},"vehicle_type_id":"4","last_reported":1736521696,"current_range_meters":17200,"station_id":"ce4bh512rcd13ifvqe2g","pricing_plan_id":"cebpf4jnsgd1na2vs0mg"},{"bike_id":"3e702ead-451e-446d-a786-ee12def68bbb","system_id":"levelo_inurba_marseille","lat":43.31024,"lon":5.38527,"is_reserved":false,"is_disabled":false,"rental_uris":{"android":"levelo://app?vid=3e702ead-451e-446d-a786-ee12def68bbb","ios":"levelo://app?vid=3e702ead-451e-446d-a786-ee12def68bbb"},"vehicle_type_id":"4","last_reported":1736521696,"current_range_meters":38000,"station_id":"ce4bgv12rcd13ifvqcp0","pricing_plan_id":"cebpf4jnsgd1na2vs0mg"},{"bike_id":"5297b66f-0e55-4ec8-88f8-4daa23208aa8","system_id":"levelo_inurba_marseille","lat":43.2985,"lon":5.3627,"is_reserved":false,"is_disabled":false,"rental_uris":{"android":"levelo://app?vid=5297b66f-0e55-4ec8-88f8-4daa23208aa8","ios":"levelo://app?vid=5297b66f-0e55-4ec8-88f8-4daa23208aa8"},"vehicle_type_id":"4","last_reported":1736521696,"current_range_meters":38800,"station_id":"ce4bgpp2rcd13ifvqc3g","pricing_plan_id":"cebpf4jnsgd1na2vs0mg"},{"bike_id":"5fa2e3a5-e832-42e6-a5a6-81071c6ff0f0","system_id":"levelo_inurba_marseille","lat":43.28457,"lon":5.35885,"is_reserved":false,"is_disabled":false,"rental_uris":{"android":"levelo://app?vid=5fa2e3a5-e832-42e6-a5a6-81071c6ff0f0","ios":"levelo://app?vid=5fa2e3a5-e832-42e6-a5a6-81071c6ff0f0"},"vehicle_type_id":"4","last_reported":1736521696,"current_range_meters":22800,"station_id":"ce4bhah2rcd13ifvqei0","pricing_plan_id":"cebpf4jnsgd1na2vs0mg"},{"bike_id":"bb09aba3-e725-4db5-9d0b-860b910730c7","system_id":"levelo_inurba_marseille","lat":43.31328,"lon":5.39702,"is_reserved":false,"is_disabled":true,"rental_uris":{"android":"levelo://app?vid=bb09aba3-e725-4db5-9d0b-860b910730c7","ios":"levelo://app?vid=bb09aba3-e725-4db5-9d0b-860b910730c7"},"vehicle_type_id":"4","last_reported":1736521696,"current_range_meters":6000,"station_id":"ce4bgvp2rcd13ifvqcu0","pricing_plan_id":"cebpf4jnsgd1na2vs0mg"},{"bike_id":"c0a472c1-c188-44e6-bb32-ed0f78a35c7b","system_id":"levelo_inurba_marseille","lat":43.27065,"lon":5.40242,"is_reserved":false,"is_disabled":false,"rental_uris":{"android":"levelo://app?vid=c0a472c1-c188-44e6-bb32-ed0f78a35c7b","ios":"levelo://app?vid=c0a472c1-c188-44e6-bb32-ed0f78a35c7b"},"vehicle_type_id":"4","last_reported":1736521696,"current_range_meters":38400,"station_id":"ce4bhk92rcd13ifvqgc0","pricing_plan_id":"cebpf4jnsgd1na2vs0mg"},{"bike_id":"d78fb722-4717-4d02-9dea-c67805d18fee","system_id":"levelo_inurba_marseille","lat":43.24391,"lon":5.37065,"is_reserved":false,"is_disabled":false,"rental_uris":{"android":"levelo://app?vid=d78fb722-4717-4d02-9dea-c67805d18fee","ios":"levelo://app?vid=d78fb722-4717-4d02-9dea-c67805d18fee"},"vehicle_type_id":"4","last_reported":1736521696,"current_range_meters":38000,"station_id":"ce4bhhh2rcd13ifvqfk0","pricing_plan_id":"cebpf4jnsgd1na2vs0mg"},{"bike_id":"36bcb34c-1437-4a12-aadd-22767eb342ef","system_id":"levelo_inurba_marseille","lat":43.28678,"lon":5.38667,"is_reserved":false,"is_disabled":false,"rental_uris":{"android":"levelo://app?vid=36bcb34c-1437-4a12-aadd-22767eb342ef","ios":"levelo://app?vid=36bcb34c-1437-4a12-aadd-22767eb342ef"},"vehicle_type_id":"4","last_reported":1736521696,"current_range_meters":38000,"station_id":"ce4bh492rcd13ifvqdug","pricing_plan_id":"cebpf4jnsgd1na2vs0mg"},{"bike_id":"3cffd001-e67f-4274-b011-23c24e3fd4b9","system_id":"levelo_inurba_marseille","lat":43.29417,"lon":5.3863,"is_reserved":false,"is_disabled":false,"rental_uris":{"android":"levelo://app?vid=3cffd001-e67f-4274-b011-23c24e3fd4b9","ios":"levelo://app?vid=3cffd001-e67f-4274-b011-23c24e3fd4b9"},"vehicle_type_id":"4","last_reported":1736521696,"current_range_meters":31200,"station_id":"ce4bh2h2rcd13ifvqdh0","pricing_plan_id":"cebpf4jnsgd1na2vs0mg"},{"bike_id":"f966dc48-73ce-43da-aa37-5e732c8259bb","system_id":"levelo_inurba_marseille","lat":43.27917,"lon":5.39579,"is_reserved":false,"is_disabled":false,"rental_uris":{"android":"levelo://app?vid=f966dc48-73ce-43da-aa37-5e732c8259bb","ios":"levelo://app?vid=f966dc48-73ce-43da-aa37-5e732c8259bb"},"vehicle_type_id":"4","last_reported":1736521696,"current_range_meters":3600,"station_id":"ce4bhf92rcd13ifvqf40","pricing_plan_id":"cebpf4jnsgd1na2vs0mg"},{"bike_id":"3b3bbdef-cf1f-4962-a04c-d6c97fef1de0","system_id":"levelo_inurba_marseille","lat":43.32368,"lon":5.38887,"is_reserved":false,"is_disabled":false,"rental_uris":{"android":"levelo://app?vid=3b3bbdef-cf1f-4962-a04c-d6c97fef1de0","ios":"levelo://app?vid=3b3bbdef-cf1f-4962-a04c-d6c97fef1de0"},"vehicle_type_id":"4","last_reported":1736521696,"current_range_meters":17200,"station_id":"ce4bhqp2rcd13ifvqhog","pricing_plan_id":"cebpf4jnsgd1na2vs0mg"},{"bike_id":"cd4f5b94-1c19-40a9-9adb-d82a92598708","system_id":"levelo_inurba_marseille","lat":43.305385,"lon":5.365467,"is_reserved":false,"is_disabled":false,"rental_uris":{"android":"levelo://app?vid=cd4f5b94-1c19-40a9-9adb-d82a92598708","ios":"levelo://app?vid=cd4f5b94-1c19-40a9-9adb-d82a92598708"},"vehicle_type_id":"4","last_reported":1736521696,"current_range_meters":38800,"station_id":"ce4bgs12rcd13ifvqcag","pricing_plan_id":"cebpf4jnsgd1na2vs0mg"},{"bike_id":"d4b9ec52-492e-41b6-8dae-be3aec56cf81","system_id":"levelo_inurba_marseille","lat":43.28603,"lon":5.3509,"is_reserved":false,"is_disabled":false,"rental_uris":{"android":"levelo://app?vid=d4b9ec52-492e-41b6-8dae-be3aec56cf81","ios":"levelo://app?vid=d4b9ec52-492e-41b6-8dae-be3aec56cf81"},"vehicle_type_id":"4","last_reported":1736521696,"current_range_meters":9600,"station_id":"ce4bhch2rcd13ifvqeug","pricing_plan_id":"cebpf4jnsgd1na2vs0mg"},{"bike_id":"458c3d58-e6a5-4d1a-8df2-05d9cb3e0072","system_id":"levelo_inurba_marseille","lat":43.25585,"lon":5.38233,"is_reserved":false,"is_disabled":false,"rental_uris":{"android":"levelo://app?vid=458c3d58-e6a5-4d1a-8df2-05d9cb3e0072","ios":"levelo://app?vid=458c3d58-e6a5-4d1a-8df2-05d9cb3e0072"},"vehicle_type_id":"4","last_reported":1736521696,"current_range_meters":16400,"station_id":"ce4bhih2rcd13ifvqfs0","pricing_plan_id":"cebpf4jnsgd1na2vs0mg"},{"bike_id":"10f7d31a-ef8d-4e8a-acbf-8aa9a8c72143","system_id":"levelo_inurba_marseille","lat":43.24403,"lon":5.37066,"is_reserved":false,"is_disabled":false,"rental_uris":{"android":"levelo://app?vid=10f7d31a-ef8d-4e8a-acbf-8aa9a8c72143","ios":"levelo://app?vid=10f7d31a-ef8d-4e8a-acbf-8aa9a8c72143"},"vehicle_type_id":"4","last_reported":1736521696,"current_range_meters":23200,"station_id":"ce4bhhh2rcd13ifvqfk0","pricing_plan_id":"cebpf4jnsgd1na2vs0mg"},{"bike_id":"5c539520-0a78-4967-94fc-2d5b4c66e4a4","system_id":"levelo_inurba_marseille","lat":43.2893,"lon":5.38385,"is_reserved":false,"is_disabled":false,"rental_uris":{"android":"levelo://app?vid=5c539520-0a78-4967-94fc-2d5b4c66e4a4","ios":"levelo://app?vid=5c539520-0a78-4967-94fc-2d5b4c66e4a4"},"vehicle_type_id":"4","last_reported":1736521696,"current_range_meters":37600,"station_id":"ce4bh612rcd13ifvqe6g","pricing_plan_id":"cebpf4jnsgd1na2vs0mg"},{"bike_id":"d645f25f-864e-4d1d-ad24-71daf8410f98","system_id":"levelo_inurba_marseille","lat":43.28463,"lon":5.38414,"is_reserved":false,"is_disabled":false,"rental_uris":{"android":"levelo://app?vid=d645f25f-864e-4d1d-ad24-71daf8410f98","ios":"levelo://app?vid=d645f25f-864e-4d1d-ad24-71daf8410f98"},"vehicle_type_id":"4","last_reported":1736521696,"current_range_meters":38000,"station_id":"ce4bh512rcd13ifvqe3g","pricing_plan_id":"cebpf4jnsgd1na2vs0mg"},{"bike_id":"96f09216-8806-4f0e-908d-6ebe96172e03","system_id":"levelo_inurba_marseille","lat":43.27993,"lon":5.41669,"is_reserved":false,"is_disabled":false,"rental_uris":{"android":"levelo://app?vid=96f09216-8806-4f0e-908d-6ebe96172e03","ios":"levelo://app?vid=96f09216-8806-4f0e-908d-6ebe96172e03"},"vehicle_type_id":"4","last_reported":1736521696,"current_range_meters":6000,"station_id":"ce4bho12rcd13ifvqh1g","pricing_plan_id":"cebpf4jnsgd1na2vs0mg"},{"bike_id":"246f7ffd-32ba-49f6-b610-fe0902b78f4b","system_id":"levelo_inurba_marseille","lat":43.29302,"lon":5.37159,"is_reserved":false,"is_disabled":false,"rental_uris":{"android":"levelo://app?vid=246f7ffd-32ba-49f6-b610-fe0902b78f4b","ios":"levelo://app?vid=246f7ffd-32ba-49f6-b610-fe0902b78f4b"},"vehicle_type_id":"4","last_reported":1736521696,"current_range_meters":30000,"station_id":"ce4bgh92rcd13ifvqb40","pricing_plan_id":"cebpf4jnsgd1na2vs0mg"},{"bike_id":"81e650fb-946f-4e41-a04f-8169232bb99d","system_id":"levelo_inurba_marseille","lat":43.23197,"lon":5.39989,"is_reserved":false,"is_disabled":false,"rental_uris":{"android":"levelo://app?vid=81e650fb-946f-4e41-a04f-8169232bb99d","ios":"levelo://app?vid=81e650fb-946f-4e41-a04f-8169232bb99d"},"vehicle_type_id":"4","last_reported":1736521696,"current_range_meters":25600,"station_id":"ce4bhn12rcd13ifvqgqg","pricing_plan_id":"cebpf4jnsgd1na2vs0mg"},{"bike_id":"c150f8af-fc8f-4eb5-ac98-0b06dadf4ce0","system_id":"levelo_inurba_marseille","lat":43.25576,"lon":5.38238,"is_reserved":false,"is_disabled":false,"rental_uris":{"android":"levelo://app?vid=c150f8af-fc8f-4eb5-ac98-0b06dadf4ce0","ios":"levelo://app?vid=c150f8af-fc8f-4eb5-ac98-0b06dadf4ce0"},"vehicle_type_id":"4","last_reported":1736521696,"current_range_meters":33200,"station_id":"ce4bhih2rcd13ifvqfs0","pricing_plan_id":"cebpf4jnsgd1na2vs0mg"},{"bike_id":"83b954cb-b1cd-4e51-b5e1-c2bfd0e62ed1","system_id":"levelo_inurba_marseille","lat":43.28844,"lon":5.39352,"is_reserved":false,"is_disabled":false,"rental_uris":{"android":"levelo://app?vid=83b954cb-b1cd-4e51-b5e1-c2bfd0e62ed1","ios":"levelo://app?vid=83b954cb-b1cd-4e51-b5e1-c2bfd0e62ed1"},"vehicle_type_id":"4","last_reported":1736521696,"current_range_meters":22000,"station_id":"ce4bh2p2rcd13ifvqdi0","pricing_plan_id":"cebpf4jnsgd1na2vs0mg"},{"bike_id":"2699aa44-e054-4052-825f-54a662a06c6e","system_id":"levelo_inurba_marseille","lat":43.23167,"lon":5.39983,"is_reserved":false,"is_disabled":false,"rental_uris":{"android":"levelo://app?vid=2699aa44-e054-4052-825f-54a662a06c6e","ios":"levelo://app?vid=2699aa44-e054-4052-825f-54a662a06c6e"},"vehicle_type_id":"4","last_reported":1736521696,"current_range_meters":35600,"station_id":"ce4bhn12rcd13ifvqgqg","pricing_plan_id":"cebpf4jnsgd1na2vs0mg"},{"bike_id":"4eea0f9a-8371-44e1-8ec2-1b8667eafdd9","system_id":"levelo_inurba_marseille","lat":43.28615,"lon":5.35109,"is_reserved":false,"is_disabled":true,"rental_uris":{"android":"levelo://app?vid=4eea0f9a-8371-44e1-8ec2-1b8667eafdd9","ios":"levelo://app?vid=4eea0f9a-8371-44e1-8ec2-1b8667eafdd9"},"vehicle_type_id":"4","last_reported":1736521696,"current_range_meters":0,"station_id":"ce4bhch2rcd13ifvqeug","pricing_plan_id":"cebpf4jnsgd1na2vs0mg"},{"bike_id":"183b5686-c780-4f75-80d7-6849f6c5573b","system_id":"levelo_inurba_marseille","lat":43.30812,"lon":5.38139,"is_reserved":false,"is_disabled":false,"rental_uris":{"android":"levelo://app?vid=183b5686-c780-4f75-80d7-6849f6c5573b","ios":"levelo://app?vid=183b5686-c780-4f75-80d7-6849f6c5573b"},"vehicle_type_id":"4","last_reported":1736521696,"current_range_meters":38800,"station_id":"ce4bgt12rcd13ifvqce0","pricing_plan_id":"cebpf4jnsgd1na2vs0mg"},{"bike_id":"30653996-9326-4bca-864c-21ac92f61041","system_id":"levelo_inurba_marseille","lat":43.24638,"lon":5.38901,"is_reserved":false,"is_disabled":false,"rental_uris":{"android":"levelo://app?vid=30653996-9326-4bca-864c-21ac92f61041","ios":"levelo://app?vid=30653996-9326-4bca-864c-21ac92f61041"},"vehicle_type_id":"4","last_reported":1736521696,"current_range_meters":37600,"station_id":"ce4bhg12rcd13ifvqf60","pricing_plan_id":"cebpf4jnsgd1na2vs0mg"},{"bike_id":"d3e10827-29dc-456a-95f9-479f74aa36f6","system_id":"levelo_inurba_marseille","lat":43.29851,"lon":5.36269,"is_reserved":false,"is_disabled":false,"rental_uris":{"android":"levelo://app?vid=d3e10827-29dc-456a-95f9-479f74aa36f6","ios":"levelo://app?vid=d3e10827-29dc-456a-95f9-479f74aa36f6"},"vehicle_type_id":"4","last_reported":1736521696,"current_range_meters":38800,"station_id":"ce4bgpp2rcd13ifvqc3g","pricing_plan_id":"cebpf4jnsgd1na2vs0mg"},{"bike_id":"2f8ad459-3412-488c-8718-46949f130497","system_id":"levelo_inurba_marseille","lat":43.24401,"lon":5.37048,"is_reserved":false,"is_disabled":false,"rental_uris":{"android":"levelo://app?vid=2f8ad459-3412-488c-8718-46949f130497","ios":"levelo://app?vid=2f8ad459-3412-488c-8718-46949f130497"},"vehicle_type_id":"4","last_reported":1736521696,"current_range_meters":31200,"station_id":"ce4bhhh2rcd13ifvqfk0","pricing_plan_id":"cebpf4jnsgd1na2vs0mg"},{"bike_id":"408554f9-e938-4c8d-b712-51774be7b111","system_id":"levelo_inurba_marseille","lat":43.30553,"lon":5.36523,"is_reserved":false,"is_disabled":false,"rental_uris":{"android":"levelo://app?vid=408554f9-e938-4c8d-b712-51774be7b111","ios":"levelo://app?vid=408554f9-e938-4c8d-b712-51774be7b111"},"vehicle_type_id":"4","last_reported":1736521696,"current_range_meters":39200,"station_id":"ce4bgs12rcd13ifvqcag","pricing_plan_id":"cebpf4jnsgd1na2vs0mg"},{"bike_id":"cffdbb96-5acd-4130-9896-e23d0afde4e8","system_id":"levelo_inurba_marseille","lat":43.27566,"lon":5.38432,"is_reserved":false,"is_disabled":false,"rental_uris":{"android":"levelo://app?vid=cffdbb96-5acd-4130-9896-e23d0afde4e8","ios":"levelo://app?vid=cffdbb96-5acd-4130-9896-e23d0afde4e8"},"vehicle_type_id":"4","last_reported":1736521696,"current_range_meters":32800,"station_id":"ce4bhh92rcd13ifvqfi0","pricing_plan_id":"cebpf4jnsgd1na2vs0mg"},{"bike_id":"7b521ce6-875a-4cbb-9fae-a6ba6a0ba13b","system_id":"levelo_inurba_marseille","lat":43.28153,"lon":5.42639,"is_reserved":false,"is_disabled":false,"rental_uris":{"android":"levelo://app?vid=7b521ce6-875a-4cbb-9fae-a6ba6a0ba13b","ios":"levelo://app?vid=7b521ce6-875a-4cbb-9fae-a6ba6a0ba13b"},"vehicle_type_id":"4","last_reported":1736521696,"current_range_meters":36800,"station_id":"ce4bhnh2rcd13ifvqgug","pricing_plan_id":"cebpf4jnsgd1na2vs0mg"},{"bike_id":"04c144bb-885d-4367-8bc8-e2ccfca26ca3","system_id":"levelo_inurba_marseille","lat":43.31289,"lon":5.39546,"is_reserved":false,"is_disabled":true,"rental_uris":{"android":"levelo://app?vid=04c144bb-885d-4367-8bc8-e2ccfca26ca3","ios":"levelo://app?vid=04c144bb-885d-4367-8bc8-e2ccfca26ca3"},"vehicle_type_id":"4","last_reported":1736521696,"current_range_meters":25600,"station_id":"ce4bgvp2rcd13ifvqcu0","pricing_plan_id":"cebpf4jnsgd1na2vs0mg"},{"bike_id":"fc1057d4-90a1-4917-8219-50abd6b84da3","system_id":"levelo_inurba_marseille","lat":43.3213,"lon":5.36774,"is_reserved":false,"is_disabled":false,"rental_uris":{"android":"levelo://app?vid=fc1057d4-90a1-4917-8219-50abd6b84da3","ios":"levelo://app?vid=fc1057d4-90a1-4917-8219-50abd6b84da3"},"vehicle_type_id":"4","last_reported":1736521696,"current_range_meters":22800,"station_id":"ce4bhrh2rcd13ifvqhug","pricing_plan_id":"cebpf4jnsgd1na2vs0mg"},{"bike_id":"653e7b82-2103-4a89-afd9-6fc1f6568385","system_id":"levelo_inurba_marseille","lat":43.26572,"lon":5.39011,"is_reserved":false,"is_disabled":false,"rental_uris":{"android":"levelo://app?vid=653e7b82-2103-4a89-afd9-6fc1f6568385","ios":"levelo://app?vid=653e7b82-2103-4a89-afd9-6fc1f6568385"},"vehicle_type_id":"4","last_reported":1736521696,"current_range_meters":33600,"station_id":"ce4bhe12rcd13ifvqf30","pricing_plan_id":"cebpf4jnsgd1na2vs0mg"},{"bike_id":"7475f743-fa68-4b23-ab37-60e01b01184f","system_id":"levelo_inurba_marseille","lat":43.321106,"lon":5.367833,"is_reserved":false,"is_disabled":false,"rental_uris":{"android":"levelo://app?vid=7475f743-fa68-4b23-ab37-60e01b01184f","ios":"levelo://app?vid=7475f743-fa68-4b23-ab37-60e01b01184f"},"vehicle_type_id":"4","last_reported":1736521696,"current_range_meters":31200,"station_id":"ce4bhrh2rcd13ifvqhug","pricing_plan_id":"cebpf4jnsgd1na2vs0mg"},{"bike_id":"39e8b8db-a45b-47ac-924f-708d2b3bef9a","system_id":"levelo_inurba_marseille","lat":43.28625,"lon":5.3511,"is_reserved":false,"is_disabled":false,"rental_uris":{"android":"levelo://app?vid=39e8b8db-a45b-47ac-924f-708d2b3bef9a","ios":"levelo://app?vid=39e8b8db-a45b-47ac-924f-708d2b3bef9a"},"vehicle_type_id":"4","last_reported":1736521696,"current_range_meters":18000,"station_id":"ce4bhch2rcd13ifvqeug","pricing_plan_id":"cebpf4jnsgd1na2vs0mg"},{"bike_id":"eabc58ec-7dbb-4de5-aac1-fc9b2ad056f2","system_id":"levelo_inurba_marseille","lat":43.29323,"lon":5.40268,"is_reserved":false,"is_disabled":false,"rental_uris":{"android":"levelo://app?vid=eabc58ec-7dbb-4de5-aac1-fc9b2ad056f2","ios":"levelo://app?vid=eabc58ec-7dbb-4de5-aac1-fc9b2ad056f2"},"vehicle_type_id":"4","last_reported":1736521696,"current_range_meters":31200,"station_id":"ce4bh312rcd13ifvqdk0","pricing_plan_id":"cebpf4jnsgd1na2vs0mg"},{"bike_id":"7ef069b1-82d0-4f96-9e76-7212b2022e78","system_id":"levelo_inurba_marseille","lat":43.27456,"lon":5.39421,"is_reserved":false,"is_disabled":false,"rental_uris":{"android":"levelo://app?vid=7ef069b1-82d0-4f96-9e76-7212b2022e78","ios":"levelo://app?vid=7ef069b1-82d0-4f96-9e76-7212b2022e78"},"vehicle_type_id":"4","last_reported":1736521696,"current_range_meters":38800,"station_id":"ce4bhdp2rcd13ifvqf20","pricing_plan_id":"cebpf4jnsgd1na2vs0mg"},{"bike_id":"0615edb5-484f-4422-be48-09cdc2ddcd47","system_id":"levelo_inurba_marseille","lat":43.24179,"lon":5.39724,"is_reserved":false,"is_disabled":false,"rental_uris":{"android":"levelo://app?vid=0615edb5-484f-4422-be48-09cdc2ddcd47","ios":"levelo://app?vid=0615edb5-484f-4422-be48-09cdc2ddcd47"},"vehicle_type_id":"4","last_reported":1736521696,"current_range_meters":38800,"station_id":"ce4bhn12rcd13ifvqgpg","pricing_plan_id":"cebpf4jnsgd1na2vs0mg"},{"bike_id":"e2544aba-a350-44bf-ba9f-d261b2f4eb98","system_id":"levelo_inurba_marseille","lat":43.27949,"lon":5.41053,"is_reserved":false,"is_disabled":true,"rental_uris":{"android":"levelo://app?vid=e2544aba-a350-44bf-ba9f-d261b2f4eb98","ios":"levelo://app?vid=e2544aba-a350-44bf-ba9f-d261b2f4eb98"},"vehicle_type_id":"4","last_reported":1736521696,"current_range_meters":1600,"station_id":"ce4bhnp2rcd13ifvqh0g","pricing_plan_id":"cebpf4jnsgd1na2vs0mg"},{"bike_id":"2eb264c8-1e8d-4f17-a831-3cda07857865","system_id":"levelo_inurba_marseille","lat":43.321,"lon":5.36773,"is_reserved":false,"is_disabled":false,"rental_uris":{"android":"levelo://app?vid=2eb264c8-1e8d-4f17-a831-3cda07857865","ios":"levelo://app?vid=2eb264c8-1e8d-4f17-a831-3cda07857865"},"vehicle_type_id":"4","last_reported":1736521696,"current_range_meters":34000,"station_id":"ce4bhrh2rcd13ifvqhug","pricing_plan_id":"cebpf4jnsgd1na2vs0mg"},{"bike_id":"0d684914-d55c-447b-a269-bb2affa18f83","system_id":"levelo_inurba_marseille","lat":43.28917,"lon":5.3838,"is_reserved":false,"is_disabled":false,"rental_uris":{"android":"levelo://app?vid=0d684914-d55c-447b-a269-bb2affa18f83","ios":"levelo://app?vid=0d684914-d55c-447b-a269-bb2affa18f83"},"vehicle_type_id":"4","last_reported":1736521696,"current_range_meters":38800,"station_id":"ce4bh612rcd13ifvqe6g","pricing_plan_id":"cebpf4jnsgd1na2vs0mg"},{"bike_id":"1e2223a2-c032-49e7-8dbf-982df86a0520","system_id":"levelo_inurba_marseille","lat":43.22939,"lon":5.35378,"is_reserved":false,"is_disabled":false,"rental_uris":{"android":"levelo://app?vid=1e2223a2-c032-49e7-8dbf-982df86a0520","ios":"levelo://app?vid=1e2223a2-c032-49e7-8dbf-982df86a0520"},"vehicle_type_id":"4","last_reported":1736521696,"current_range_meters":32000,"station_id":"cpo3532slgdg3j2ikp40","pricing_plan_id":"cebpf4jnsgd1na2vs0mg"},{"bike_id":"027a053a-b7bd-4a0d-8309-e9ee15ccbeae","system_id":"levelo_inurba_marseille","lat":43.28443,"lon":5.39188,"is_reserved":false,"is_disabled":false,"rental_uris":{"android":"levelo://app?vid=027a053a-b7bd-4a0d-8309-e9ee15ccbeae","ios":"levelo://app?vid=027a053a-b7bd-4a0d-8309-e9ee15ccbeae"},"vehicle_type_id":"4","last_reported":1736521696,"current_range_meters":39200,"station_id":"ce4bhoh2rcd13ifvqh5g","pricing_plan_id":"cebpf4jnsgd1na2vs0mg"},{"bike_id":"145cfbb0-a64d-4e6e-9f48-a8948b305dc3","system_id":"levelo_inurba_marseille","lat":43.30507,"lon":5.36597,"is_reserved":false,"is_disabled":false,"rental_uris":{"android":"levelo://app?vid=145cfbb0-a64d-4e6e-9f48-a8948b305dc3","ios":"levelo://app?vid=145cfbb0-a64d-4e6e-9f48-a8948b305dc3"},"vehicle_type_id":"4","last_reported":1736521696,"current_range_meters":29600,"station_id":"ce4bgs12rcd13ifvqcag","pricing_plan_id":"cebpf4jnsgd1na2vs0mg"},{"bike_id":"816c2567-570f-4dea-94a5-cee630be949a","system_id":"levelo_inurba_marseille","lat":43.25598,"lon":5.3824,"is_reserved":false,"is_disabled":true,"rental_uris":{"android":"levelo://app?vid=816c2567-570f-4dea-94a5-cee630be949a","ios":"levelo://app?vid=816c2567-570f-4dea-94a5-cee630be949a"},"vehicle_type_id":"4","last_reported":1736521696,"current_range_meters":37600,"station_id":"ce4bhih2rcd13ifvqfs0","pricing_plan_id":"cebpf4jnsgd1na2vs0mg"},{"bike_id":"be8a233f-ad85-41b2-af03-bfa1e3033438","system_id":"levelo_inurba_marseille","lat":43.23197,"lon":5.35548,"is_reserved":false,"is_disabled":false,"rental_uris":{"android":"levelo://app?vid=be8a233f-ad85-41b2-af03-bfa1e3033438","ios":"levelo://app?vid=be8a233f-ad85-41b2-af03-bfa1e3033438"},"vehicle_type_id":"4","last_reported":1736521696,"current_range_meters":24400,"station_id":"ce4bhu92rcd13ifvqi70","pricing_plan_id":"cebpf4jnsgd1na2vs0mg"},{"bike_id":"d7284d59-0fa0-4e55-88c3-9102035d8a99","system_id":"levelo_inurba_marseille","lat":43.30247,"lon":5.40046,"is_reserved":false,"is_disabled":true,"rental_uris":{"android":"levelo://app?vid=d7284d59-0fa0-4e55-88c3-9102035d8a99","ios":"levelo://app?vid=d7284d59-0fa0-4e55-88c3-9102035d8a99"},"vehicle_type_id":"4","last_reported":1736521696,"current_range_meters":14000,"station_id":"ce4bgvh2rcd13ifvqcs0","pricing_plan_id":"cebpf4jnsgd1na2vs0mg"},{"bike_id":"7bb4200c-0eac-4cc7-b9b4-f818cea789e3","system_id":"levelo_inurba_marseille","lat":43.29608,"lon":5.37714,"is_reserved":false,"is_disabled":false,"rental_uris":{"android":"levelo://app?vid=7bb4200c-0eac-4cc7-b9b4-f818cea789e3","ios":"levelo://app?vid=7bb4200c-0eac-4cc7-b9b4-f818cea789e3"},"vehicle_type_id":"4","last_reported":1736521696,"current_range_meters":32000,"station_id":"ce4bgi92rcd13ifvqb90","pricing_plan_id":"cebpf4jnsgd1na2vs0mg"},{"bike_id":"5db1f91b-c9d2-495c-9c66-666b6eb5442d","system_id":"levelo_inurba_marseille","lat":43.31219,"lon":5.36853,"is_reserved":false,"is_disabled":false,"rental_uris":{"android":"levelo://app?vid=5db1f91b-c9d2-495c-9c66-666b6eb5442d","ios":"levelo://app?vid=5db1f91b-c9d2-495c-9c66-666b6eb5442d"},"vehicle_type_id":"4","last_reported":1736521696,"current_range_meters":16400,"station_id":"ce4bgl92rcd13ifvqbq0","pricing_plan_id":"cebpf4jnsgd1na2vs0mg"},{"bike_id":"401ff55f-764c-4de4-a59d-3b941aac169a","system_id":"levelo_inurba_marseille","lat":43.26068,"lon":5.39396,"is_reserved":false,"is_disabled":false,"rental_uris":{"android":"levelo://app?vid=401ff55f-764c-4de4-a59d-3b941aac169a","ios":"levelo://app?vid=401ff55f-764c-4de4-a59d-3b941aac169a"},"vehicle_type_id":"4","last_reported":1736521696,"current_range_meters":9200,"station_id":"ce4bhh92rcd13ifvqfj0","pricing_plan_id":"cebpf4jnsgd1na2vs0mg"},{"bike_id":"4a4cc57a-9f55-4ba1-b681-fde36b475ae9","system_id":"levelo_inurba_marseille","lat":43.28152,"lon":5.40438,"is_reserved":false,"is_disabled":false,"rental_uris":{"android":"levelo://app?vid=4a4cc57a-9f55-4ba1-b681-fde36b475ae9","ios":"levelo://app?vid=4a4cc57a-9f55-4ba1-b681-fde36b475ae9"},"vehicle_type_id":"4","last_reported":1736521696,"current_range_meters":8800,"station_id":"ce4bh3p2rcd13ifvqdq0","pricing_plan_id":"cebpf4jnsgd1na2vs0mg"},{"bike_id":"99e85b08-d6e2-42ae-bb04-13a328e5bf77","system_id":"levelo_inurba_marseille","lat":43.29047,"lon":5.39969,"is_reserved":false,"is_disabled":false,"rental_uris":{"android":"levelo://app?vid=99e85b08-d6e2-42ae-bb04-13a328e5bf77","ios":"levelo://app?vid=99e85b08-d6e2-42ae-bb04-13a328e5bf77"},"vehicle_type_id":"4","last_reported":1736521696,"current_range_meters":7200,"station_id":"ce4bh392rcd13ifvqdm0","pricing_plan_id":"cebpf4jnsgd1na2vs0mg"},{"bike_id":"0751221b-37bf-4486-a78f-e3467767c553","system_id":"levelo_inurba_marseille","lat":43.25603,"lon":5.38222,"is_reserved":false,"is_disabled":false,"rental_uris":{"android":"levelo://app?vid=0751221b-37bf-4486-a78f-e3467767c553","ios":"levelo://app?vid=0751221b-37bf-4486-a78f-e3467767c553"},"vehicle_type_id":"4","last_reported":1736521696,"current_range_meters":39200,"station_id":"ce4bhih2rcd13ifvqfs0","pricing_plan_id":"cebpf4jnsgd1na2vs0mg"},{"bike_id":"ad480116-0bc3-416a-8b7c-87a526f228e4","system_id":"levelo_inurba_marseille","lat":43.30313,"lon":5.36896,"is_reserved":false,"is_disabled":false,"rental_uris":{"android":"levelo://app?vid=ad480116-0bc3-416a-8b7c-87a526f228e4","ios":"levelo://app?vid=ad480116-0bc3-416a-8b7c-87a526f228e4"},"vehicle_type_id":"4","last_reported":1736521696,"current_range_meters":36400,"station_id":"ce4bgqh2rcd13ifvqc5g","pricing_plan_id":"cebpf4jnsgd1na2vs0mg"},{"bike_id":"ca72bb38-6596-47b1-91c2-1d6f232cb29d","system_id":"levelo_inurba_marseille","lat":43.27371,"lon":5.36257,"is_reserved":false,"is_disabled":false,"rental_uris":{"android":"levelo://app?vid=ca72bb38-6596-47b1-91c2-1d6f232cb29d","ios":"levelo://app?vid=ca72bb38-6596-47b1-91c2-1d6f232cb29d"},"vehicle_type_id":"4","last_reported":1736521696,"current_range_meters":39200,"station_id":"ce4bhbh2rcd13ifvqeo0","pricing_plan_id":"cebpf4jnsgd1na2vs0mg"},{"bike_id":"fc9288ed-9da0-4c7f-9aba-d64070cdbf51","system_id":"levelo_inurba_marseille","lat":43.23155,"lon":5.43716,"is_reserved":false,"is_disabled":false,"rental_uris":{"android":"levelo://app?vid=fc9288ed-9da0-4c7f-9aba-d64070cdbf51","ios":"levelo://app?vid=fc9288ed-9da0-4c7f-9aba-d64070cdbf51"},"vehicle_type_id":"4","last_reported":1736521696,"current_range_meters":37600,"station_id":"ce4bhmp2rcd13ifvqgog","pricing_plan_id":"cebpf4jnsgd1na2vs0mg"},{"bike_id":"2131771f-f41e-4a79-a293-c2063d60f666","system_id":"levelo_inurba_marseille","lat":43.28866,"lon":5.39265,"is_reserved":false,"is_disabled":true,"rental_uris":{"android":"levelo://app?vid=2131771f-f41e-4a79-a293-c2063d60f666","ios":"levelo://app?vid=2131771f-f41e-4a79-a293-c2063d60f666"},"vehicle_type_id":"4","last_reported":1736521696,"current_range_meters":2000,"station_id":"ce4bh2p2rcd13ifvqdi0","pricing_plan_id":"cebpf4jnsgd1na2vs0mg"},{"bike_id":"ad28bd53-1c8c-44ea-9a1c-1e5a5b2498fe","system_id":"levelo_inurba_marseille","lat":43.24174,"lon":5.36381,"is_reserved":false,"is_disabled":false,"rental_uris":{"android":"levelo://app?vid=ad28bd53-1c8c-44ea-9a1c-1e5a5b2498fe","ios":"levelo://app?vid=ad28bd53-1c8c-44ea-9a1c-1e5a5b2498fe"},"vehicle_type_id":"4","last_reported":1736521696,"current_range_meters":9600,"station_id":"cpo36qri1sfpv3e86is0","pricing_plan_id":"cebpf4jnsgd1na2vs0mg"},{"bike_id":"c8559636-ab0d-4253-8c84-7d0aca5be30e","system_id":"levelo_inurba_marseille","lat":43.27174,"lon":5.40996,"is_reserved":false,"is_disabled":false,"rental_uris":{"android":"levelo://app?vid=c8559636-ab0d-4253-8c84-7d0aca5be30e","ios":"levelo://app?vid=c8559636-ab0d-4253-8c84-7d0aca5be30e"},"vehicle_type_id":"4","last_reported":1736521696,"current_range_meters":36800,"station_id":"ce4bhl12rcd13ifvqgf0","pricing_plan_id":"cebpf4jnsgd1na2vs0mg"},{"bike_id":"9925e152-4b93-4b2b-8190-bf4cc12e630b","system_id":"levelo_inurba_marseille","lat":43.29032,"lon":5.37559,"is_reserved":false,"is_disabled":false,"rental_uris":{"android":"levelo://app?vid=9925e152-4b93-4b2b-8190-bf4cc12e630b","ios":"levelo://app?vid=9925e152-4b93-4b2b-8190-bf4cc12e630b"},"vehicle_type_id":"4","last_reported":1736521696,"current_range_meters":30800,"station_id":"ce4bh692rcd13ifvqe90","pricing_plan_id":"cebpf4jnsgd1na2vs0mg"},{"bike_id":"46ff57f7-c73d-46f5-a0ac-4f6f51741e06","system_id":"levelo_inurba_marseille","lat":43.29962,"lon":5.38503,"is_reserved":false,"is_disabled":false,"rental_uris":{"android":"levelo://app?vid=46ff57f7-c73d-46f5-a0ac-4f6f51741e06","ios":"levelo://app?vid=46ff57f7-c73d-46f5-a0ac-4f6f51741e06"},"vehicle_type_id":"4","last_reported":1736521696,"current_range_meters":33600,"station_id":"ce4bgj92rcd13ifvqbd0","pricing_plan_id":"cebpf4jnsgd1na2vs0mg"},{"bike_id":"1344733a-1870-4993-8643-641d307a3826","system_id":"levelo_inurba_marseille","lat":43.26782,"lon":5.39417,"is_reserved":false,"is_disabled":false,"rental_uris":{"android":"levelo://app?vid=1344733a-1870-4993-8643-641d307a3826","ios":"levelo://app?vid=1344733a-1870-4993-8643-641d307a3826"},"vehicle_type_id":"4","last_reported":1736521696,"current_range_meters":37600,"station_id":"ce4bhh12rcd13ifvqfg0","pricing_plan_id":"cebpf4jnsgd1na2vs0mg"},{"bike_id":"69ea6861-6744-4b57-ada8-860992e0de1f","system_id":"levelo_inurba_marseille","lat":43.31162,"lon":5.38712,"is_reserved":false,"is_disabled":false,"rental_uris":{"android":"levelo://app?vid=69ea6861-6744-4b57-ada8-860992e0de1f","ios":"levelo://app?vid=69ea6861-6744-4b57-ada8-860992e0de1f"},"vehicle_type_id":"4","last_reported":1736521696,"current_range_meters":28000,"station_id":"ce4bgv12rcd13ifvqcp0","pricing_plan_id":"cebpf4jnsgd1na2vs0mg"},{"bike_id":"9c431a99-0e97-4f27-aff9-66040a5e2700","system_id":"levelo_inurba_marseille","lat":43.30154,"lon":5.3808,"is_reserved":false,"is_disabled":false,"rental_uris":{"android":"levelo://app?vid=9c431a99-0e97-4f27-aff9-66040a5e2700","ios":"levelo://app?vid=9c431a99-0e97-4f27-aff9-66040a5e2700"},"vehicle_type_id":"4","last_reported":1736521696,"current_range_meters":7200,"station_id":"ce4bgjp2rcd13ifvqbh0","pricing_plan_id":"cebpf4jnsgd1na2vs0mg"},{"bike_id":"b8acbba0-a715-4ced-a2aa-0517db10ac9d","system_id":"levelo_inurba_marseille","lat":43.22932,"lon":5.35359,"is_reserved":false,"is_disabled":true,"rental_uris":{"android":"levelo://app?vid=b8acbba0-a715-4ced-a2aa-0517db10ac9d","ios":"levelo://app?vid=b8acbba0-a715-4ced-a2aa-0517db10ac9d"},"vehicle_type_id":"4","last_reported":1736521696,"current_range_meters":8000,"station_id":"cpo3532slgdg3j2ikp40","pricing_plan_id":"cebpf4jnsgd1na2vs0mg"},{"bike_id":"60746ec5-f322-442a-a951-a6a7ef203d24","system_id":"levelo_inurba_marseille","lat":43.249963,"lon":5.389329,"is_reserved":false,"is_disabled":false,"rental_uris":{"android":"levelo://app?vid=60746ec5-f322-442a-a951-a6a7ef203d24","ios":"levelo://app?vid=60746ec5-f322-442a-a951-a6a7ef203d24"},"vehicle_type_id":"4","last_reported":1736521696,"current_range_meters":22000,"station_id":"ce4bhgp2rcd13ifvqfd0","pricing_plan_id":"cebpf4jnsgd1na2vs0mg"},{"bike_id":"4dd77391-1e79-47be-8d0c-a08b22aded6a","system_id":"levelo_inurba_marseille","lat":43.25498,"lon":5.3765,"is_reserved":false,"is_disabled":false,"rental_uris":{"android":"levelo://app?vid=4dd77391-1e79-47be-8d0c-a08b22aded6a","ios":"levelo://app?vid=4dd77391-1e79-47be-8d0c-a08b22aded6a"},"vehicle_type_id":"4","last_reported":1736521696,"current_range_meters":27200,"station_id":"ce4bhh12rcd13ifvqff0","pricing_plan_id":"cebpf4jnsgd1na2vs0mg"},{"bike_id":"ad113f76-a766-497a-90be-d1902352af36","system_id":"levelo_inurba_marseille","lat":43.32108,"lon":5.3678,"is_reserved":false,"is_disabled":false,"rental_uris":{"android":"levelo://app?vid=ad113f76-a766-497a-90be-d1902352af36","ios":"levelo://app?vid=ad113f76-a766-497a-90be-d1902352af36"},"vehicle_type_id":"4","last_reported":1736521696,"current_range_meters":38000,"station_id":"ce4bhrh2rcd13ifvqhug","pricing_plan_id":"cebpf4jnsgd1na2vs0mg"},{"bike_id":"492eaeaa-12ec-45d5-becd-2f0b35e16c8d","system_id":"levelo_inurba_marseille","lat":43.24165,"lon":5.36395,"is_reserved":false,"is_disabled":false,"rental_uris":{"android":"levelo://app?vid=492eaeaa-12ec-45d5-becd-2f0b35e16c8d","ios":"levelo://app?vid=492eaeaa-12ec-45d5-becd-2f0b35e16c8d"},"vehicle_type_id":"4","last_reported":1736521696,"current_range_meters":13600,"station_id":"cpo36qri1sfpv3e86is0","pricing_plan_id":"cebpf4jnsgd1na2vs0mg"},{"bike_id":"c24acec0-6bdb-481b-a76d-4123aadeac35","system_id":"levelo_inurba_marseille","lat":43.290951,"lon":5.381719,"is_reserved":false,"is_disabled":false,"rental_uris":{"android":"levelo://app?vid=c24acec0-6bdb-481b-a76d-4123aadeac35","ios":"levelo://app?vid=c24acec0-6bdb-481b-a76d-4123aadeac35"},"vehicle_type_id":"4","last_reported":1736521696,"current_range_meters":33200,"station_id":"ce4bh512rcd13ifvqe2g","pricing_plan_id":"cebpf4jnsgd1na2vs0mg"},{"bike_id":"377730c6-0336-4c78-9c46-cdee41ff19a9","system_id":"levelo_inurba_marseille","lat":43.27992,"lon":5.41166,"is_reserved":false,"is_disabled":false,"rental_uris":{"android":"levelo://app?vid=377730c6-0336-4c78-9c46-cdee41ff19a9","ios":"levelo://app?vid=377730c6-0336-4c78-9c46-cdee41ff19a9"},"vehicle_type_id":"4","last_reported":1736521696,"current_range_meters":6000,"station_id":"","pricing_plan_id":"cebpf4jnsgd1na2vs0mg"},{"bike_id":"c90d1336-07f9-4b85-a89b-f0513cdd170d","system_id":"levelo_inurba_marseille","lat":43.30572,"lon":5.3654,"is_reserved":false,"is_disabled":false,"rental_uris":{"android":"levelo://app?vid=c90d1336-07f9-4b85-a89b-f0513cdd170d","ios":"levelo://app?vid=c90d1336-07f9-4b85-a89b-f0513cdd170d"},"vehicle_type_id":"4","last_reported":1736521696,"current_range_meters":28800,"station_id":"ce4bgs12rcd13ifvqcag","pricing_plan_id":"cebpf4jnsgd1na2vs0mg"},{"bike_id":"69689a84-aa34-48e6-8abf-e56354e3d93c","system_id":"levelo_inurba_marseille","lat":43.29525,"lon":5.37504,"is_reserved":false,"is_disabled":true,"rental_uris":{"android":"levelo://app?vid=69689a84-aa34-48e6-8abf-e56354e3d93c","ios":"levelo://app?vid=69689a84-aa34-48e6-8abf-e56354e3d93c"},"vehicle_type_id":"4","last_reported":1736521696,"current_range_meters":34000,"station_id":"ce4bgkp2rcd13ifvqbmg","pricing_plan_id":"cebpf4jnsgd1na2vs0mg"},{"bike_id":"266859f2-18fe-482a-8c9f-5bdad982c716","system_id":"levelo_inurba_marseille","lat":43.280507,"lon":5.411117,"is_reserved":false,"is_disabled":false,"rental_uris":{"android":"levelo://app?vid=266859f2-18fe-482a-8c9f-5bdad982c716","ios":"levelo://app?vid=266859f2-18fe-482a-8c9f-5bdad982c716"},"vehicle_type_id":"4","last_reported":1736521696,"current_range_meters":3600,"station_id":"","pricing_plan_id":"cebpf4jnsgd1na2vs0mg"},{"bike_id":"a134ed48-3d04-4fb3-80af-23b5de8a4aef","system_id":"levelo_inurba_marseille","lat":43.31898,"lon":5.40731,"is_reserved":false,"is_disabled":false,"rental_uris":{"android":"levelo://app?vid=a134ed48-3d04-4fb3-80af-23b5de8a4aef","ios":"levelo://app?vid=a134ed48-3d04-4fb3-80af-23b5de8a4aef"},"vehicle_type_id":"4","last_reported":1736521696,"current_range_meters":8000,"station_id":"ce4bhq12rcd13ifvqhig","pricing_plan_id":"cebpf4jnsgd1na2vs0mg"},{"bike_id":"73aa5087-f471-497b-96f6-2ea0a9f90c62","system_id":"levelo_inurba_marseille","lat":43.29574,"lon":5.37516,"is_reserved":false,"is_disabled":true,"rental_uris":{"android":"levelo://app?vid=73aa5087-f471-497b-96f6-2ea0a9f90c62","ios":"levelo://app?vid=73aa5087-f471-497b-96f6-2ea0a9f90c62"},"vehicle_type_id":"4","last_reported":1736521696,"current_range_meters":1600,"station_id":"ce4bgh92rcd13ifvqb50","pricing_plan_id":"cebpf4jnsgd1na2vs0mg"},{"bike_id":"8d5fbb50-35af-43f3-86d1-b199e0213a08","system_id":"levelo_inurba_marseille","lat":43.26694,"lon":5.38276,"is_reserved":false,"is_disabled":false,"rental_uris":{"android":"levelo://app?vid=8d5fbb50-35af-43f3-86d1-b199e0213a08","ios":"levelo://app?vid=8d5fbb50-35af-43f3-86d1-b199e0213a08"},"vehicle_type_id":"4","last_reported":1736521696,"current_range_meters":6400,"station_id":"ce4bhg92rcd13ifvqf90","pricing_plan_id":"cebpf4jnsgd1na2vs0mg"},{"bike_id":"2f4fe0b4-572b-40cd-a8eb-cd3d72b0f0dc","system_id":"levelo_inurba_marseille","lat":43.31331,"lon":5.39693,"is_reserved":false,"is_disabled":false,"rental_uris":{"android":"levelo://app?vid=2f4fe0b4-572b-40cd-a8eb-cd3d72b0f0dc","ios":"levelo://app?vid=2f4fe0b4-572b-40cd-a8eb-cd3d72b0f0dc"},"vehicle_type_id":"4","last_reported":1736521696,"current_range_meters":17600,"station_id":"ce4bgvp2rcd13ifvqcu0","pricing_plan_id":"cebpf4jnsgd1na2vs0mg"},{"bike_id":"79d4d31b-e814-4db1-9d24-013e65778338","system_id":"levelo_inurba_marseille","lat":43.2617,"lon":5.37466,"is_reserved":false,"is_disabled":false,"rental_uris":{"android":"levelo://app?vid=79d4d31b-e814-4db1-9d24-013e65778338","ios":"levelo://app?vid=79d4d31b-e814-4db1-9d24-013e65778338"},"vehicle_type_id":"4","last_reported":1736521696,"current_range_meters":22000,"station_id":"ce4bhgp2rcd13ifvqfc0","pricing_plan_id":"cebpf4jnsgd1na2vs0mg"},{"bike_id":"dfe5ac90-1956-4d6d-9dc7-57f0d8dc50a5","system_id":"levelo_inurba_marseille","lat":43.29794,"lon":5.38108,"is_reserved":false,"is_disabled":false,"rental_uris":{"android":"levelo://app?vid=dfe5ac90-1956-4d6d-9dc7-57f0d8dc50a5","ios":"levelo://app?vid=dfe5ac90-1956-4d6d-9dc7-57f0d8dc50a5"},"vehicle_type_id":"4","last_reported":1736521696,"current_range_meters":34800,"station_id":"ce4bgip2rcd13ifvqbb0","pricing_plan_id":"cebpf4jnsgd1na2vs0mg"},{"bike_id":"f95a3f6e-e375-4dc4-9d6e-2ae8c5602a90","system_id":"levelo_inurba_marseille","lat":43.28645,"lon":5.35138,"is_reserved":false,"is_disabled":false,"rental_uris":{"android":"levelo://app?vid=f95a3f6e-e375-4dc4-9d6e-2ae8c5602a90","ios":"levelo://app?vid=f95a3f6e-e375-4dc4-9d6e-2ae8c5602a90"},"vehicle_type_id":"4","last_reported":1736521696,"current_range_meters":24800,"station_id":"ce4bhch2rcd13ifvqeug","pricing_plan_id":"cebpf4jnsgd1na2vs0mg"},{"bike_id":"bceda76b-7eb8-491f-a170-13b4ba74011a","system_id":"levelo_inurba_marseille","lat":43.29593,"lon":5.38117,"is_reserved":false,"is_disabled":false,"rental_uris":{"android":"levelo://app?vid=bceda76b-7eb8-491f-a170-13b4ba74011a","ios":"levelo://app?vid=bceda76b-7eb8-491f-a170-13b4ba74011a"},"vehicle_type_id":"4","last_reported":1736521696,"current_range_meters":38800,"station_id":"ce4bgl12rcd13ifvqbo0","pricing_plan_id":"cebpf4jnsgd1na2vs0mg"},{"bike_id":"017eef80-ebc7-46d5-8d0a-aa8a9dbb05cd","system_id":"levelo_inurba_marseille","lat":43.29213,"lon":5.36054,"is_reserved":false,"is_disabled":false,"rental_uris":{"android":"levelo://app?vid=017eef80-ebc7-46d5-8d0a-aa8a9dbb05cd","ios":"levelo://app?vid=017eef80-ebc7-46d5-8d0a-aa8a9dbb05cd"},"vehicle_type_id":"4","last_reported":1736521696,"current_range_meters":33600,"station_id":"ce4bhbh2rcd13ifvqeqg","pricing_plan_id":"cebpf4jnsgd1na2vs0mg"},{"bike_id":"64acc912-9a8b-4201-aad3-842bf089bce4","system_id":"levelo_inurba_marseille","lat":43.3133,"lon":5.39706,"is_reserved":false,"is_disabled":false,"rental_uris":{"android":"levelo://app?vid=64acc912-9a8b-4201-aad3-842bf089bce4","ios":"levelo://app?vid=64acc912-9a8b-4201-aad3-842bf089bce4"},"vehicle_type_id":"4","last_reported":1736521696,"current_range_meters":14400,"station_id":"ce4bgvp2rcd13ifvqcu0","pricing_plan_id":"cebpf4jnsgd1na2vs0mg"},{"bike_id":"3a9366c6-502a-444b-b374-6877acc3af2b","system_id":"levelo_inurba_marseille","lat":43.3172,"lon":5.42382,"is_reserved":false,"is_disabled":false,"rental_uris":{"android":"levelo://app?vid=3a9366c6-502a-444b-b374-6877acc3af2b","ios":"levelo://app?vid=3a9366c6-502a-444b-b374-6877acc3af2b"},"vehicle_type_id":"4","last_reported":1736521696,"current_range_meters":6000,"station_id":"ce4bhp92rcd13ifvqhbg","pricing_plan_id":"cebpf4jnsgd1na2vs0mg"},{"bike_id":"fa13c2ee-7838-41d7-9228-ae3f8138ebea","system_id":"levelo_inurba_marseille","lat":43.26946,"lon":5.38924,"is_reserved":false,"is_disabled":false,"rental_uris":{"android":"levelo://app?vid=fa13c2ee-7838-41d7-9228-ae3f8138ebea","ios":"levelo://app?vid=fa13c2ee-7838-41d7-9228-ae3f8138ebea"},"vehicle_type_id":"4","last_reported":1736521696,"current_range_meters":38000,"station_id":"ce4bhhh2rcd13ifvqfl0","pricing_plan_id":"cebpf4jnsgd1na2vs0mg"},{"bike_id":"f8bb305b-2233-4218-ac58-4c4649a6c9b1","system_id":"levelo_inurba_marseille","lat":43.28874,"lon":5.3942,"is_reserved":false,"is_disabled":false,"rental_uris":{"android":"levelo://app?vid=f8bb305b-2233-4218-ac58-4c4649a6c9b1","ios":"levelo://app?vid=f8bb305b-2233-4218-ac58-4c4649a6c9b1"},"vehicle_type_id":"4","last_reported":1736521696,"current_range_meters":10000,"station_id":"ce4bh2p2rcd13ifvqdi0","pricing_plan_id":"cebpf4jnsgd1na2vs0mg"},{"bike_id":"24f515b3-81f3-4d6f-ae7d-b430ec0e88f5","system_id":"levelo_inurba_marseille","lat":43.28851,"lon":5.39326,"is_reserved":false,"is_disabled":false,"rental_uris":{"android":"levelo://app?vid=24f515b3-81f3-4d6f-ae7d-b430ec0e88f5","ios":"levelo://app?vid=24f515b3-81f3-4d6f-ae7d-b430ec0e88f5"},"vehicle_type_id":"4","last_reported":1736521696,"current_range_meters":38800,"station_id":"ce4bh2p2rcd13ifvqdi0","pricing_plan_id":"cebpf4jnsgd1na2vs0mg"},{"bike_id":"cc3333d3-c973-40b7-aad0-06fecebaeab0","system_id":"levelo_inurba_marseille","lat":43.30181,"lon":5.36615,"is_reserved":false,"is_disabled":false,"rental_uris":{"android":"levelo://app?vid=cc3333d3-c973-40b7-aad0-06fecebaeab0","ios":"levelo://app?vid=cc3333d3-c973-40b7-aad0-06fecebaeab0"},"vehicle_type_id":"4","last_reported":1736521696,"current_range_meters":28000,"station_id":"ce4bgrh2rcd13ifvqc8g","pricing_plan_id":"cebpf4jnsgd1na2vs0mg"},{"bike_id":"ca2450e7-5c66-4bdc-b528-943118702b91","system_id":"levelo_inurba_marseille","lat":43.33728,"lon":5.39184,"is_reserved":false,"is_disabled":false,"rental_uris":{"android":"levelo://app?vid=ca2450e7-5c66-4bdc-b528-943118702b91","ios":"levelo://app?vid=ca2450e7-5c66-4bdc-b528-943118702b91"},"vehicle_type_id":"4","last_reported":1736521696,"current_range_meters":39200,"station_id":"ce4bhr92rcd13ifvqhsg","pricing_plan_id":"cebpf4jnsgd1na2vs0mg"},{"bike_id":"be97934a-efd5-43dc-a20c-fded1b4a0387","system_id":"levelo_inurba_marseille","lat":43.2396,"lon":5.3664,"is_reserved":false,"is_disabled":false,"rental_uris":{"android":"levelo://app?vid=be97934a-efd5-43dc-a20c-fded1b4a0387","ios":"levelo://app?vid=be97934a-efd5-43dc-a20c-fded1b4a0387"},"vehicle_type_id":"4","last_reported":1736521696,"current_range_meters":10000,"station_id":"ce4bhi12rcd13ifvqfp0","pricing_plan_id":"cebpf4jnsgd1na2vs0mg"},{"bike_id":"d5f7e953-050c-4cea-99af-495b991331e3","system_id":"levelo_inurba_marseille","lat":43.31765,"lon":5.37573,"is_reserved":false,"is_disabled":false,"rental_uris":{"android":"levelo://app?vid=d5f7e953-050c-4cea-99af-495b991331e3","ios":"levelo://app?vid=d5f7e953-050c-4cea-99af-495b991331e3"},"vehicle_type_id":"4","last_reported":1736521696,"current_range_meters":38800,"station_id":"","pricing_plan_id":"cebpf4jnsgd1na2vs0mg"},{"bike_id":"921f7bce-db66-47d0-a237-43d20d2a6e4d","system_id":"levelo_inurba_marseille","lat":43.305967,"lon":5.372243,"is_reserved":false,"is_disabled":false,"rental_uris":{"android":"levelo://app?vid=921f7bce-db66-47d0-a237-43d20d2a6e4d","ios":"levelo://app?vid=921f7bce-db66-47d0-a237-43d20d2a6e4d"},"vehicle_type_id":"4","last_reported":1736521696,"current_range_meters":38000,"station_id":"ce4bgqh2rcd13ifvqc4g","pricing_plan_id":"cebpf4jnsgd1na2vs0mg"},{"bike_id":"b8b20791-769b-4b6e-87b9-43e72f4133b6","system_id":"levelo_inurba_marseille","lat":43.29039,"lon":5.39963,"is_reserved":false,"is_disabled":false,"rental_uris":{"android":"levelo://app?vid=b8b20791-769b-4b6e-87b9-43e72f4133b6","ios":"levelo://app?vid=b8b20791-769b-4b6e-87b9-43e72f4133b6"},"vehicle_type_id":"4","last_reported":1736521696,"current_range_meters":25200,"station_id":"ce4bh392rcd13ifvqdm0","pricing_plan_id":"cebpf4jnsgd1na2vs0mg"},{"bike_id":"a1164a90-2dc8-4478-8d43-814a6b95fb9e","system_id":"levelo_inurba_marseille","lat":43.3378,"lon":5.37469,"is_reserved":false,"is_disabled":false,"rental_uris":{"android":"levelo://app?vid=a1164a90-2dc8-4478-8d43-814a6b95fb9e","ios":"levelo://app?vid=a1164a90-2dc8-4478-8d43-814a6b95fb9e"},"vehicle_type_id":"4","last_reported":1736521696,"current_range_meters":38400,"station_id":"","pricing_plan_id":"cebpf4jnsgd1na2vs0mg"},{"bike_id":"545dc71a-d34b-4108-9699-bffefc67d26e","system_id":"levelo_inurba_marseille","lat":43.32289,"lon":5.38269,"is_reserved":false,"is_disabled":false,"rental_uris":{"android":"levelo://app?vid=545dc71a-d34b-4108-9699-bffefc67d26e","ios":"levelo://app?vid=545dc71a-d34b-4108-9699-bffefc67d26e"},"vehicle_type_id":"4","last_reported":1736521696,"current_range_meters":39200,"station_id":"ce4bhr12rcd13ifvqhqg","pricing_plan_id":"cebpf4jnsgd1na2vs0mg"},{"bike_id":"f4acce8a-dae1-4878-8795-c6b151d3c7c0","system_id":"levelo_inurba_marseille","lat":43.28673,"lon":5.36356,"is_reserved":false,"is_disabled":false,"rental_uris":{"android":"levelo://app?vid=f4acce8a-dae1-4878-8795-c6b151d3c7c0","ios":"levelo://app?vid=f4acce8a-dae1-4878-8795-c6b151d3c7c0"},"vehicle_type_id":"4","last_reported":1736521696,"current_range_meters":32800,"station_id":"ce4bhah2rcd13ifvqej0","pricing_plan_id":"cebpf4jnsgd1na2vs0mg"},{"bike_id":"122c24a5-2303-4b05-a2eb-945976a79baf","system_id":"levelo_inurba_marseille","lat":43.27204,"lon":5.3918,"is_reserved":false,"is_disabled":false,"rental_uris":{"android":"levelo://app?vid=122c24a5-2303-4b05-a2eb-945976a79baf","ios":"levelo://app?vid=122c24a5-2303-4b05-a2eb-945976a79baf"},"vehicle_type_id":"4","last_reported":1736521696,"current_range_meters":34000,"station_id":"ce4bhhp2rcd13ifvqfm0","pricing_plan_id":"cebpf4jnsgd1na2vs0mg"},{"bike_id":"7f823dd5-f0f6-4e1e-9e25-469fe62fb6b4","system_id":"levelo_inurba_marseille","lat":43.29308,"lon":5.37188,"is_reserved":false,"is_disabled":false,"rental_uris":{"android":"levelo://app?vid=7f823dd5-f0f6-4e1e-9e25-469fe62fb6b4","ios":"levelo://app?vid=7f823dd5-f0f6-4e1e-9e25-469fe62fb6b4"},"vehicle_type_id":"4","last_reported":1736521696,"current_range_meters":33600,"station_id":"ce4bgh92rcd13ifvqb40","pricing_plan_id":"cebpf4jnsgd1na2vs0mg"},{"bike_id":"6fdecff2-2545-405f-8c66-4d246590b289","system_id":"levelo_inurba_marseille","lat":43.24158,"lon":5.36405,"is_reserved":false,"is_disabled":false,"rental_uris":{"android":"levelo://app?vid=6fdecff2-2545-405f-8c66-4d246590b289","ios":"levelo://app?vid=6fdecff2-2545-405f-8c66-4d246590b289"},"vehicle_type_id":"4","last_reported":1736521696,"current_range_meters":14000,"station_id":"cpo36qri1sfpv3e86is0","pricing_plan_id":"cebpf4jnsgd1na2vs0mg"},{"bike_id":"b72bd1d7-4c39-4e5e-97aa-5aa72c212ff4","system_id":"levelo_inurba_marseille","lat":43.2511,"lon":5.39529,"is_reserved":false,"is_disabled":false,"rental_uris":{"android":"levelo://app?vid=b72bd1d7-4c39-4e5e-97aa-5aa72c212ff4","ios":"levelo://app?vid=b72bd1d7-4c39-4e5e-97aa-5aa72c212ff4"},"vehicle_type_id":"4","last_reported":1736521696,"current_range_meters":38800,"station_id":"ce4bhm12rcd13ifvqgkg","pricing_plan_id":"cebpf4jnsgd1na2vs0mg"},{"bike_id":"39f4e598-04fa-4ccd-a187-f40c372e05c5","system_id":"levelo_inurba_marseille","lat":43.28163,"lon":5.42655,"is_reserved":false,"is_disabled":false,"rental_uris":{"android":"levelo://app?vid=39f4e598-04fa-4ccd-a187-f40c372e05c5","ios":"levelo://app?vid=39f4e598-04fa-4ccd-a187-f40c372e05c5"},"vehicle_type_id":"4","last_reported":1736521696,"current_range_meters":27600,"station_id":"ce4bhnh2rcd13ifvqgug","pricing_plan_id":"cebpf4jnsgd1na2vs0mg"},{"bike_id":"d40d9428-a2fe-4f4e-a58b-7e600af87521","system_id":"levelo_inurba_marseille","lat":43.26056,"lon":5.39399,"is_reserved":false,"is_disabled":false,"rental_uris":{"android":"levelo://app?vid=d40d9428-a2fe-4f4e-a58b-7e600af87521","ios":"levelo://app?vid=d40d9428-a2fe-4f4e-a58b-7e600af87521"},"vehicle_type_id":"4","last_reported":1736521696,"current_range_meters":4400,"station_id":"ce4bhh92rcd13ifvqfj0","pricing_plan_id":"cebpf4jnsgd1na2vs0mg"},{"bike_id":"2aee590e-ad0d-44c4-a44d-b8f28f22de10","system_id":"levelo_inurba_marseille","lat":43.25111,"lon":5.40324,"is_reserved":false,"is_disabled":false,"rental_uris":{"android":"levelo://app?vid=2aee590e-ad0d-44c4-a44d-b8f28f22de10","ios":"levelo://app?vid=2aee590e-ad0d-44c4-a44d-b8f28f22de10"},"vehicle_type_id":"4","last_reported":1736521696,"current_range_meters":16000,"station_id":"ce4bhlh2rcd13ifvqgig","pricing_plan_id":"cebpf4jnsgd1na2vs0mg"},{"bike_id":"e0129bc2-34a5-44c5-b096-070c8fb3edc5","system_id":"levelo_inurba_marseille","lat":43.28083,"lon":5.39656,"is_reserved":false,"is_disabled":false,"rental_uris":{"android":"levelo://app?vid=e0129bc2-34a5-44c5-b096-070c8fb3edc5","ios":"levelo://app?vid=e0129bc2-34a5-44c5-b096-070c8fb3edc5"},"vehicle_type_id":"4","last_reported":1736521696,"current_range_meters":18800,"station_id":"ce4bho12rcd13ifvqh2g","pricing_plan_id":"cebpf4jnsgd1na2vs0mg"},{"bike_id":"eabaf27b-72f2-4249-9a2c-a32234730eb2","system_id":"levelo_inurba_marseille","lat":43.30737,"lon":5.37879,"is_reserved":false,"is_disabled":false,"rental_uris":{"android":"levelo://app?vid=eabaf27b-72f2-4249-9a2c-a32234730eb2","ios":"levelo://app?vid=eabaf27b-72f2-4249-9a2c-a32234730eb2"},"vehicle_type_id":"4","last_reported":1736521696,"current_range_meters":6400,"station_id":"","pricing_plan_id":"cebpf4jnsgd1na2vs0mg"},{"bike_id":"c19ac43c-25c8-47c2-9551-7bb58b5b5508","system_id":"levelo_inurba_marseille","lat":43.337561,"lon":5.374573,"is_reserved":false,"is_disabled":false,"rental_uris":{"android":"levelo://app?vid=c19ac43c-25c8-47c2-9551-7bb58b5b5508","ios":"levelo://app?vid=c19ac43c-25c8-47c2-9551-7bb58b5b5508"},"vehicle_type_id":"4","last_reported":1736521696,"current_range_meters":38000,"station_id":"","pricing_plan_id":"cebpf4jnsgd1na2vs0mg"},{"bike_id":"126aab9f-f92e-4f8a-8877-bb3bc3d4289d","system_id":"levelo_inurba_marseille","lat":43.28623,"lon":5.3511,"is_reserved":false,"is_disabled":false,"rental_uris":{"android":"levelo://app?vid=126aab9f-f92e-4f8a-8877-bb3bc3d4289d","ios":"levelo://app?vid=126aab9f-f92e-4f8a-8877-bb3bc3d4289d"},"vehicle_type_id":"4","last_reported":1736521696,"current_range_meters":24800,"station_id":"ce4bhch2rcd13ifvqeug","pricing_plan_id":"cebpf4jnsgd1na2vs0mg"},{"bike_id":"8ccd6866-4b52-470b-9b00-0c0be44a73ce","system_id":"levelo_inurba_marseille","lat":43.28947,"lon":5.38394,"is_reserved":false,"is_disabled":false,"rental_uris":{"android":"levelo://app?vid=8ccd6866-4b52-470b-9b00-0c0be44a73ce","ios":"levelo://app?vid=8ccd6866-4b52-470b-9b00-0c0be44a73ce"},"vehicle_type_id":"4","last_reported":1736521696,"current_range_meters":38800,"station_id":"ce4bh612rcd13ifvqe6g","pricing_plan_id":"cebpf4jnsgd1na2vs0mg"},{"bike_id":"d39ef709-eae2-459c-8113-13d46c97ab08","system_id":"levelo_inurba_marseille","lat":43.29262,"lon":5.38434,"is_reserved":false,"is_disabled":false,"rental_uris":{"android":"levelo://app?vid=d39ef709-eae2-459c-8113-13d46c97ab08","ios":"levelo://app?vid=d39ef709-eae2-459c-8113-13d46c97ab08"},"vehicle_type_id":"4","last_reported":1736521696,"current_range_meters":6000,"station_id":"ce4bh692rcd13ifvqea0","pricing_plan_id":"cebpf4jnsgd1na2vs0mg"},{"bike_id":"b0d66df1-2b6e-4bea-8fa5-c00fde2949c2","system_id":"levelo_inurba_marseille","lat":43.28455,"lon":5.35896,"is_reserved":false,"is_disabled":true,"rental_uris":{"android":"levelo://app?vid=b0d66df1-2b6e-4bea-8fa5-c00fde2949c2","ios":"levelo://app?vid=b0d66df1-2b6e-4bea-8fa5-c00fde2949c2"},"vehicle_type_id":"4","last_reported":1736521696,"current_range_meters":16000,"station_id":"ce4bhah2rcd13ifvqei0","pricing_plan_id":"cebpf4jnsgd1na2vs0mg"},{"bike_id":"31c5a65d-19bb-49f4-a10f-43ee6b8a1557","system_id":"levelo_inurba_marseille","lat":43.32357,"lon":5.36741,"is_reserved":false,"is_disabled":false,"rental_uris":{"android":"levelo://app?vid=31c5a65d-19bb-49f4-a10f-43ee6b8a1557","ios":"levelo://app?vid=31c5a65d-19bb-49f4-a10f-43ee6b8a1557"},"vehicle_type_id":"4","last_reported":1736521696,"current_range_meters":38800,"station_id":"ce4bhsh2rcd13ifvqi2g","pricing_plan_id":"cebpf4jnsgd1na2vs0mg"},{"bike_id":"918d76b3-fa86-4850-a3eb-66a88dad6c95","system_id":"levelo_inurba_marseille","lat":43.3031,"lon":5.36898,"is_reserved":false,"is_disabled":false,"rental_uris":{"android":"levelo://app?vid=918d76b3-fa86-4850-a3eb-66a88dad6c95","ios":"levelo://app?vid=918d76b3-fa86-4850-a3eb-66a88dad6c95"},"vehicle_type_id":"4","last_reported":1736521696,"current_range_meters":22400,"station_id":"ce4bgqh2rcd13ifvqc5g","pricing_plan_id":"cebpf4jnsgd1na2vs0mg"},{"bike_id":"c3c81383-16bf-4557-bd78-13ea006987bd","system_id":"levelo_inurba_marseille","lat":43.28081,"lon":5.39661,"is_reserved":false,"is_disabled":false,"rental_uris":{"android":"levelo://app?vid=c3c81383-16bf-4557-bd78-13ea006987bd","ios":"levelo://app?vid=c3c81383-16bf-4557-bd78-13ea006987bd"},"vehicle_type_id":"4","last_reported":1736521696,"current_range_meters":26000,"station_id":"ce4bho12rcd13ifvqh2g","pricing_plan_id":"cebpf4jnsgd1na2vs0mg"},{"bike_id":"f5c67da8-58dd-46ad-93c7-72bb8305b8d1","system_id":"levelo_inurba_marseille","lat":43.2981,"lon":5.3809,"is_reserved":false,"is_disabled":false,"rental_uris":{"android":"levelo://app?vid=f5c67da8-58dd-46ad-93c7-72bb8305b8d1","ios":"levelo://app?vid=f5c67da8-58dd-46ad-93c7-72bb8305b8d1"},"vehicle_type_id":"4","last_reported":1736521696,"current_range_meters":12400,"station_id":"ce4bgt92rcd13ifvqcg0","pricing_plan_id":"cebpf4jnsgd1na2vs0mg"},{"bike_id":"dd204406-24c9-4178-8628-ca5582ae9c35","system_id":"levelo_inurba_marseille","lat":43.25596,"lon":5.38228,"is_reserved":false,"is_disabled":true,"rental_uris":{"android":"levelo://app?vid=dd204406-24c9-4178-8628-ca5582ae9c35","ios":"levelo://app?vid=dd204406-24c9-4178-8628-ca5582ae9c35"},"vehicle_type_id":"4","last_reported":1736521696,"current_range_meters":31200,"station_id":"ce4bhih2rcd13ifvqfs0","pricing_plan_id":"cebpf4jnsgd1na2vs0mg"},{"bike_id":"c4b24244-d070-44d1-adae-dd164cf54bc7","system_id":"levelo_inurba_marseille","lat":43.28046,"lon":5.36946,"is_reserved":false,"is_disabled":false,"rental_uris":{"android":"levelo://app?vid=c4b24244-d070-44d1-adae-dd164cf54bc7","ios":"levelo://app?vid=c4b24244-d070-44d1-adae-dd164cf54bc7"},"vehicle_type_id":"4","last_reported":1736521696,"current_range_meters":12400,"station_id":"ce4bha12rcd13ifvqef0","pricing_plan_id":"cebpf4jnsgd1na2vs0mg"},{"bike_id":"26bbf495-47b3-400d-9336-5df2219c5f28","system_id":"levelo_inurba_marseille","lat":43.33754,"lon":5.37469,"is_reserved":false,"is_disabled":false,"rental_uris":{"android":"levelo://app?vid=26bbf495-47b3-400d-9336-5df2219c5f28","ios":"levelo://app?vid=26bbf495-47b3-400d-9336-5df2219c5f28"},"vehicle_type_id":"4","last_reported":1736521696,"current_range_meters":37600,"station_id":"","pricing_plan_id":"cebpf4jnsgd1na2vs0mg"},{"bike_id":"d01da416-0e19-43f9-a277-c49efd9be90d","system_id":"levelo_inurba_marseille","lat":43.293735,"lon":5.37842,"is_reserved":false,"is_disabled":false,"rental_uris":{"android":"levelo://app?vid=d01da416-0e19-43f9-a277-c49efd9be90d","ios":"levelo://app?vid=d01da416-0e19-43f9-a277-c49efd9be90d"},"vehicle_type_id":"4","last_reported":1736521696,"current_range_meters":14000,"station_id":"ce4bgjh2rcd13ifvqbf0","pricing_plan_id":"cebpf4jnsgd1na2vs0mg"},