{"last_updated":1778837814,"ttl":60,"version":"2.2","data":{"bikes":[{"bike_id":"21630f77-eda1-40f0-8566-04dd068e8503","system_id":"levelo_inurba_marseille","lat":43.33556,"lon":5.37478,"is_reserved":false,"is_disabled":false,"rental_uris":{"android":"levelo://app?vid=21630f77-eda1-40f0-8566-04dd068e8503","ios":"levelo://app?vid=21630f77-eda1-40f0-8566-04dd068e8503"},"vehicle_type_id":"4","last_reported":1778837814,"current_range_meters":2800,"station_id":"st_d46tts09ee8s73dlu43g","pricing_plan_id":"cebpf4jnsgd1na2vs0mg"},{"bike_id":"0851f791-575d-4580-b469-9a5c98e28a8c","system_id":"levelo_inurba_marseille","lat":43.29133,"lon":5.42442,"is_reserved":false,"is_disabled":false,"rental_uris":{"android":"levelo://app?vid=0851f791-575d-4580-b469-9a5c98e28a8c","ios":"levelo://app?vid=0851f791-575d-4580-b469-9a5c98e28a8c"},"vehicle_type_id":"4","last_reported":1778837814,"current_range_meters":2800,"station_id":"","pricing_plan_id":"cebpf4jnsgd1na2vs0mg"},{"bike_id":"4dcf14ec-cf96-4758-9f4d-76c49962a174","system_id":"levelo_inurba_marseille","lat":43.3054,"lon":5.36692,"is_reserved":false,"is_disabled":false,"rental_uris":{"android":"levelo://app?vid=4dcf14ec-cf96-4758-9f4d-76c49962a174","ios":"levelo://app?vid=4dcf14ec-cf96-4758-9f4d-76c49962a174"},"vehicle_type_id":"4","last_reported":1778837814,"current_range_meters":2800,"station_id":"ce4bgrp2rcd13ifvqc9g","pricing_plan_id":"cebpf4jnsgd1na2vs0mg"},{"bike_id":"88c0458d-410d-486d-8514-53ff65f224d5","system_id":"levelo_inurba_marseille","lat":43.2621,"lon":5.37446,"is_reserved":false,"is_disabled":false,"rental_uris":{"android":"levelo://app?vid=88c0458d-410d-486d-8514-53ff65f224d5","ios":"levelo://app?vid=88c0458d-410d-486d-8514-53ff65f224d5"},"vehicle_type_id":"4","last_reported":1778837814,"current_range_meters":2800,"station_id":"ce4bhgp2rcd13ifvqfc0","pricing_plan_id":"cebpf4jnsgd1na2vs0mg"},{"bike_id":"1e376547-28d1-4c71-ad38-dccc2473beb9","system_id":"levelo_inurba_marseille","lat":43.28498,"lon":5.48391,"is_reserved":false,"is_disabled":false,"rental_uris":{"android":"levelo://app?vid=1e376547-28d1-4c71-ad38-dccc2473beb9","ios":"levelo://app?vid=1e376547-28d1-4c71-ad38-dccc2473beb9"},"vehicle_type_id":"4","last_reported":1778837814,"current_range_meters":2800,"station_id":"st_d3svhcjqgbts73a3dn0g","pricing_plan_id":"cebpf4jnsgd1na2vs0mg"},{"bike_id":"98b8c707-3182-45a1-a1de-136ca92c35af","system_id":"levelo_inurba_marseille","lat":43.29711,"lon":5.366048,"is_reserved":false,"is_disabled":false,"rental_uris":{"android":"levelo://app?vid=98b8c707-3182-45a1-a1de-136ca92c35af","ios":"levelo://app?vid=98b8c707-3182-45a1-a1de-136ca92c35af"},"vehicle_type_id":"4","last_reported":1778837814,"current_range_meters":2800,"station_id":"ce4bgn12rcd13ifvqbt0","pricing_plan_id":"cebpf4jnsgd1na2vs0mg"},{"bike_id":"5e8620f7-476d-479d-b824-0ee8299b38df","system_id":"levelo_inurba_marseille","lat":43.31222,"lon":5.37824,"is_reserved":false,"is_disabled":false,"rental_uris":{"android":"levelo://app?vid=5e8620f7-476d-479d-b824-0ee8299b38df","ios":"levelo://app?vid=5e8620f7-476d-479d-b824-0ee8299b38df"},"vehicle_type_id":"4","last_reported":1778837814,"current_range_meters":3200,"station_id":"","pricing_plan_id":"cebpf4jnsgd1na2vs0mg"},{"bike_id":"4020dd0c-01ce-4494-844b-244bfc2850f4","system_id":"levelo_inurba_marseille","lat":43.30577,"lon":5.36743,"is_reserved":false,"is_disabled":false,"rental_uris":{"android":"levelo://app?vid=4020dd0c-01ce-4494-844b-244bfc2850f4","ios":"levelo://app?vid=4020dd0c-01ce-4494-844b-244bfc2850f4"},"vehicle_type_id":"4","last_reported":1778837814,"current_range_meters":3200,"station_id":"ce4bgrp2rcd13ifvqc9g","pricing_plan_id":"cebpf4jnsgd1na2vs0mg"},{"bike_id":"2650c4ac-9838-4acd-8676-9e8484c31ad1","system_id":"levelo_inurba_marseille","lat":43.29782,"lon":5.37099,"is_reserved":false,"is_disabled":false,"rental_uris":{"android":"levelo://app?vid=2650c4ac-9838-4acd-8676-9e8484c31ad1","ios":"levelo://app?vid=2650c4ac-9838-4acd-8676-9e8484c31ad1"},"vehicle_type_id":"4","last_reported":1778837814,"current_range_meters":3200,"station_id":"ce4bgop2rcd13ifvqc1g","pricing_plan_id":"cebpf4jnsgd1na2vs0mg"},{"bike_id":"50ecd2a5-280a-4059-9de9-3aee985c1f30","system_id":"levelo_inurba_marseille","lat":43.31705,"lon":5.37781,"is_reserved":false,"is_disabled":false,"rental_uris":{"android":"levelo://app?vid=50ecd2a5-280a-4059-9de9-3aee985c1f30","ios":"levelo://app?vid=50ecd2a5-280a-4059-9de9-3aee985c1f30"},"vehicle_type_id":"4","last_reported":1778837814,"current_range_meters":3200,"station_id":"ce4bgth2rcd13ifvqch0","pricing_plan_id":"cebpf4jnsgd1na2vs0mg"},{"bike_id":"33b84942-cf5f-4afa-869d-950d91a6d306","system_id":"levelo_inurba_marseille","lat":43.28613,"lon":5.38611,"is_reserved":false,"is_disabled":false,"rental_uris":{"android":"levelo://app?vid=33b84942-cf5f-4afa-869d-950d91a6d306","ios":"levelo://app?vid=33b84942-cf5f-4afa-869d-950d91a6d306"},"vehicle_type_id":"4","last_reported":1778837814,"current_range_meters":3200,"station_id":"","pricing_plan_id":"cebpf4jnsgd1na2vs0mg"},{"bike_id":"3d616266-f7ce-4293-9258-2d97cddf53d9","system_id":"levelo_inurba_marseille","lat":43.27915,"lon":5.39587,"is_reserved":false,"is_disabled":false,"rental_uris":{"android":"levelo://app?vid=3d616266-f7ce-4293-9258-2d97cddf53d9","ios":"levelo://app?vid=3d616266-f7ce-4293-9258-2d97cddf53d9"},"vehicle_type_id":"4","last_reported":1778837814,"current_range_meters":3200,"station_id":"ce4bhf92rcd13ifvqf40","pricing_plan_id":"cebpf4jnsgd1na2vs0mg"},{"bike_id":"6e5dfbd9-c03a-40ed-aedc-3c2f2a1d6845","system_id":"levelo_inurba_marseille","lat":43.23692,"lon":5.3994,"is_reserved":false,"is_disabled":false,"rental_uris":{"android":"levelo://app?vid=6e5dfbd9-c03a-40ed-aedc-3c2f2a1d6845","ios":"levelo://app?vid=6e5dfbd9-c03a-40ed-aedc-3c2f2a1d6845"},"vehicle_type_id":"4","last_reported":1778837814,"current_range_meters":3200,"station_id":"","pricing_plan_id":"cebpf4jnsgd1na2vs0mg"},{"bike_id":"28fdca1f-a9b5-462e-969d-51cee30bf548","system_id":"levelo_inurba_marseille","lat":43.29275,"lon":5.40926,"is_reserved":false,"is_disabled":false,"rental_uris":{"android":"levelo://app?vid=28fdca1f-a9b5-462e-969d-51cee30bf548","ios":"levelo://app?vid=28fdca1f-a9b5-462e-969d-51cee30bf548"},"vehicle_type_id":"4","last_reported":1778837814,"current_range_meters":3600,"station_id":"ce4bh192rcd13ifvqdc0","pricing_plan_id":"cebpf4jnsgd1na2vs0mg"},{"bike_id":"36171f44-6e4b-499c-9f3d-272981e78653","system_id":"levelo_inurba_marseille","lat":43.2622,"lon":5.37451,"is_reserved":false,"is_disabled":false,"rental_uris":{"android":"levelo://app?vid=36171f44-6e4b-499c-9f3d-272981e78653","ios":"levelo://app?vid=36171f44-6e4b-499c-9f3d-272981e78653"},"vehicle_type_id":"4","last_reported":1778837814,"current_range_meters":3600,"station_id":"ce4bhgp2rcd13ifvqfc0","pricing_plan_id":"cebpf4jnsgd1na2vs0mg"},{"bike_id":"600ae21f-84ee-4e17-83e0-645ec9d8a39d","system_id":"levelo_inurba_marseille","lat":43.26392,"lon":5.40954,"is_reserved":false,"is_disabled":false,"rental_uris":{"android":"levelo://app?vid=600ae21f-84ee-4e17-83e0-645ec9d8a39d","ios":"levelo://app?vid=600ae21f-84ee-4e17-83e0-645ec9d8a39d"},"vehicle_type_id":"4","last_reported":1778837814,"current_range_meters":3600,"station_id":"st_d4e5ca6na9uc73bfl5fg","pricing_plan_id":"cebpf4jnsgd1na2vs0mg"},{"bike_id":"ca95b3eb-7375-418e-a8dc-823f6c73de8d","system_id":"levelo_inurba_marseille","lat":43.296,"lon":5.38109,"is_reserved":false,"is_disabled":false,"rental_uris":{"android":"levelo://app?vid=ca95b3eb-7375-418e-a8dc-823f6c73de8d","ios":"levelo://app?vid=ca95b3eb-7375-418e-a8dc-823f6c73de8d"},"vehicle_type_id":"4","last_reported":1778837814,"current_range_meters":3600,"station_id":"ce4bgl12rcd13ifvqbo0","pricing_plan_id":"cebpf4jnsgd1na2vs0mg"},{"bike_id":"7b771d45-cdc5-4a89-9d03-7fc6389e6f50","system_id":"levelo_inurba_marseille","lat":43.29613,"lon":5.37157,"is_reserved":false,"is_disabled":false,"rental_uris":{"android":"levelo://app?vid=7b771d45-cdc5-4a89-9d03-7fc6389e6f50","ios":"levelo://app?vid=7b771d45-cdc5-4a89-9d03-7fc6389e6f50"},"vehicle_type_id":"4","last_reported":1778837814,"current_range_meters":3600,"station_id":"ce4bgnh2rcd13ifvqc0g","pricing_plan_id":"cebpf4jnsgd1na2vs0mg"},{"bike_id":"8b1a5088-1d38-4514-8b57-325ca8670dbe","system_id":"levelo_inurba_marseille","lat":43.26228,"lon":5.38778,"is_reserved":false,"is_disabled":false,"rental_uris":{"android":"levelo://app?vid=8b1a5088-1d38-4514-8b57-325ca8670dbe","ios":"levelo://app?vid=8b1a5088-1d38-4514-8b57-325ca8670dbe"},"vehicle_type_id":"4","last_reported":1778837814,"current_range_meters":3600,"station_id":"","pricing_plan_id":"cebpf4jnsgd1na2vs0mg"},{"bike_id":"b06e1bda-e59f-423b-9caf-1f463bac74d5","system_id":"levelo_inurba_marseille","lat":43.316879,"lon":5.404735,"is_reserved":false,"is_disabled":false,"rental_uris":{"android":"levelo://app?vid=b06e1bda-e59f-423b-9caf-1f463bac74d5","ios":"levelo://app?vid=b06e1bda-e59f-423b-9caf-1f463bac74d5"},"vehicle_type_id":"4","last_reported":1778837814,"current_range_meters":3600,"station_id":"ce4bh012rcd13ifvqd00","pricing_plan_id":"cebpf4jnsgd1na2vs0mg"},{"bike_id":"07901982-752d-4b1b-a3d8-7d8ebd2d57d5","system_id":"levelo_inurba_marseille","lat":43.31932,"lon":5.36804,"is_reserved":false,"is_disabled":false,"rental_uris":{"android":"levelo://app?vid=07901982-752d-4b1b-a3d8-7d8ebd2d57d5","ios":"levelo://app?vid=07901982-752d-4b1b-a3d8-7d8ebd2d57d5"},"vehicle_type_id":"4","last_reported":1778837814,"current_range_meters":3600,"station_id":"st_d6o2h0d0559c73evc1b0","pricing_plan_id":"cebpf4jnsgd1na2vs0mg"},{"bike_id":"b8b0b6d6-a24a-4a04-85ce-462a48e52c32","system_id":"levelo_inurba_marseille","lat":43.24181,"lon":5.39724,"is_reserved":false,"is_disabled":false,"rental_uris":{"android":"levelo://app?vid=b8b0b6d6-a24a-4a04-85ce-462a48e52c32","ios":"levelo://app?vid=b8b0b6d6-a24a-4a04-85ce-462a48e52c32"},"vehicle_type_id":"4","last_reported":1778837814,"current_range_meters":4000,"station_id":"ce4bhn12rcd13ifvqgpg","pricing_plan_id":"cebpf4jnsgd1na2vs0mg"},{"bike_id":"a0e29106-a123-43d6-a61f-4fc0dc481341","system_id":"levelo_inurba_marseille","lat":43.29708,"lon":5.36601,"is_reserved":false,"is_disabled":false,"rental_uris":{"android":"levelo://app?vid=a0e29106-a123-43d6-a61f-4fc0dc481341","ios":"levelo://app?vid=a0e29106-a123-43d6-a61f-4fc0dc481341"},"vehicle_type_id":"4","last_reported":1778837814,"current_range_meters":4000,"station_id":"ce4bgn12rcd13ifvqbt0","pricing_plan_id":"cebpf4jnsgd1na2vs0mg"},{"bike_id":"f319d43d-d58c-4aac-9f61-b07539060c76","system_id":"levelo_inurba_marseille","lat":43.33218,"lon":5.43052,"is_reserved":false,"is_disabled":false,"rental_uris":{"android":"levelo://app?vid=f319d43d-d58c-4aac-9f61-b07539060c76","ios":"levelo://app?vid=f319d43d-d58c-4aac-9f61-b07539060c76"},"vehicle_type_id":"4","last_reported":1778837814,"current_range_meters":4000,"station_id":"","pricing_plan_id":"cebpf4jnsgd1na2vs0mg"},{"bike_id":"67f28ee8-75fd-440e-847b-c03a6f3c146e","system_id":"levelo_inurba_marseille","lat":43.2522,"lon":5.37449,"is_reserved":false,"is_disabled":false,"rental_uris":{"android":"levelo://app?vid=67f28ee8-75fd-440e-847b-c03a6f3c146e","ios":"levelo://app?vid=67f28ee8-75fd-440e-847b-c03a6f3c146e"},"vehicle_type_id":"4","last_reported":1778837814,"current_range_meters":4000,"station_id":"","pricing_plan_id":"cebpf4jnsgd1na2vs0mg"},{"bike_id":"8e8da42d-03bd-4b9b-97b5-52713d72ebe4","system_id":"levelo_inurba_marseille","lat":43.32104,"lon":5.36781,"is_reserved":false,"is_disabled":false,"rental_uris":{"android":"levelo://app?vid=8e8da42d-03bd-4b9b-97b5-52713d72ebe4","ios":"levelo://app?vid=8e8da42d-03bd-4b9b-97b5-52713d72ebe4"},"vehicle_type_id":"4","last_reported":1778837814,"current_range_meters":4000,"station_id":"ce4bhrh2rcd13ifvqhug","pricing_plan_id":"cebpf4jnsgd1na2vs0mg"},{"bike_id":"adbf12b3-53d1-4ffe-a1fa-9f39328f066b","system_id":"levelo_inurba_marseille","lat":43.288572,"lon":5.358535,"is_reserved":false,"is_disabled":false,"rental_uris":{"android":"levelo://app?vid=adbf12b3-53d1-4ffe-a1fa-9f39328f066b","ios":"levelo://app?vid=adbf12b3-53d1-4ffe-a1fa-9f39328f066b"},"vehicle_type_id":"4","last_reported":1778837814,"current_range_meters":4000,"station_id":"ce4bhb12rcd13ifvqem0","pricing_plan_id":"cebpf4jnsgd1na2vs0mg"},{"bike_id":"375c7b51-4a17-4a41-8b43-89968701ebde","system_id":"levelo_inurba_marseille","lat":43.29979,"lon":5.37175,"is_reserved":false,"is_disabled":false,"rental_uris":{"android":"levelo://app?vid=375c7b51-4a17-4a41-8b43-89968701ebde","ios":"levelo://app?vid=375c7b51-4a17-4a41-8b43-89968701ebde"},"vehicle_type_id":"4","last_reported":1778837814,"current_range_meters":4400,"station_id":"ce4bgr92rcd13ifvqc7g","pricing_plan_id":"cebpf4jnsgd1na2vs0mg"},{"bike_id":"56ebb272-f35a-4495-95fc-289a89d13fb2","system_id":"levelo_inurba_marseille","lat":43.30801,"lon":5.38152,"is_reserved":false,"is_disabled":false,"rental_uris":{"android":"levelo://app?vid=56ebb272-f35a-4495-95fc-289a89d13fb2","ios":"levelo://app?vid=56ebb272-f35a-4495-95fc-289a89d13fb2"},"vehicle_type_id":"4","last_reported":1778837814,"current_range_meters":4400,"station_id":"ce4bgt12rcd13ifvqce0","pricing_plan_id":"cebpf4jnsgd1na2vs0mg"},{"bike_id":"cc829911-e80c-4481-8d7a-714b6e680c0c","system_id":"levelo_inurba_marseille","lat":43.30362,"lon":5.36892,"is_reserved":false,"is_disabled":false,"rental_uris":{"android":"levelo://app?vid=cc829911-e80c-4481-8d7a-714b6e680c0c","ios":"levelo://app?vid=cc829911-e80c-4481-8d7a-714b6e680c0c"},"vehicle_type_id":"4","last_reported":1778837814,"current_range_meters":4400,"station_id":"","pricing_plan_id":"cebpf4jnsgd1na2vs0mg"},{"bike_id":"f5e8d085-0bd0-40db-958c-eda5fc60abc3","system_id":"levelo_inurba_marseille","lat":43.26231,"lon":5.38767,"is_reserved":false,"is_disabled":false,"rental_uris":{"android":"levelo://app?vid=f5e8d085-0bd0-40db-958c-eda5fc60abc3","ios":"levelo://app?vid=f5e8d085-0bd0-40db-958c-eda5fc60abc3"},"vehicle_type_id":"4","last_reported":1778837814,"current_range_meters":4400,"station_id":"","pricing_plan_id":"cebpf4jnsgd1na2vs0mg"},{"bike_id":"28a488cd-0b4e-4672-b81a-1347f852b3c0","system_id":"levelo_inurba_marseille","lat":43.29915,"lon":5.4366,"is_reserved":false,"is_disabled":false,"rental_uris":{"android":"levelo://app?vid=28a488cd-0b4e-4672-b81a-1347f852b3c0","ios":"levelo://app?vid=28a488cd-0b4e-4672-b81a-1347f852b3c0"},"vehicle_type_id":"4","last_reported":1778837814,"current_range_meters":4400,"station_id":"ce4bhpp2rcd13ifvqhfg","pricing_plan_id":"cebpf4jnsgd1na2vs0mg"},{"bike_id":"a3154ee9-1d03-48fc-a23b-b15aad6df825","system_id":"levelo_inurba_marseille","lat":43.28439,"lon":5.39176,"is_reserved":false,"is_disabled":false,"rental_uris":{"android":"levelo://app?vid=a3154ee9-1d03-48fc-a23b-b15aad6df825","ios":"levelo://app?vid=a3154ee9-1d03-48fc-a23b-b15aad6df825"},"vehicle_type_id":"4","last_reported":1778837814,"current_range_meters":4400,"station_id":"ce4bhoh2rcd13ifvqh5g","pricing_plan_id":"cebpf4jnsgd1na2vs0mg"},{"bike_id":"12fc783a-5743-49f1-a8aa-4c1155b53891","system_id":"levelo_inurba_marseille","lat":43.24477,"lon":5.42475,"is_reserved":false,"is_disabled":false,"rental_uris":{"android":"levelo://app?vid=12fc783a-5743-49f1-a8aa-4c1155b53891","ios":"levelo://app?vid=12fc783a-5743-49f1-a8aa-4c1155b53891"},"vehicle_type_id":"4","last_reported":1778837814,"current_range_meters":4800,"station_id":"","pricing_plan_id":"cebpf4jnsgd1na2vs0mg"},{"bike_id":"f0dfe750-6a85-4630-8635-ed2adbbe38ba","system_id":"levelo_inurba_marseille","lat":43.31383,"lon":5.36636,"is_reserved":false,"is_disabled":false,"rental_uris":{"android":"levelo://app?vid=f0dfe750-6a85-4630-8635-ed2adbbe38ba","ios":"levelo://app?vid=f0dfe750-6a85-4630-8635-ed2adbbe38ba"},"vehicle_type_id":"4","last_reported":1778837814,"current_range_meters":4800,"station_id":"ce4bgr92rcd13ifvqc6g","pricing_plan_id":"cebpf4jnsgd1na2vs0mg"},{"bike_id":"6e45b7ea-c9e7-480c-8b3c-a1dcee9e3192","system_id":"levelo_inurba_marseille","lat":43.27816,"lon":5.40714,"is_reserved":false,"is_disabled":false,"rental_uris":{"android":"levelo://app?vid=6e45b7ea-c9e7-480c-8b3c-a1dcee9e3192","ios":"levelo://app?vid=6e45b7ea-c9e7-480c-8b3c-a1dcee9e3192"},"vehicle_type_id":"4","last_reported":1778837814,"current_range_meters":4800,"station_id":"ce4bhnh2rcd13ifvqgtg","pricing_plan_id":"cebpf4jnsgd1na2vs0mg"},{"bike_id":"3f1d41fb-5ea3-497d-af2e-396473f58897","system_id":"levelo_inurba_marseille","lat":43.24083,"lon":5.37762,"is_reserved":false,"is_disabled":false,"rental_uris":{"android":"levelo://app?vid=3f1d41fb-5ea3-497d-af2e-396473f58897","ios":"levelo://app?vid=3f1d41fb-5ea3-497d-af2e-396473f58897"},"vehicle_type_id":"4","last_reported":1778837814,"current_range_meters":4800,"station_id":"ce4bhnp2rcd13ifvqgvg","pricing_plan_id":"cebpf4jnsgd1na2vs0mg"},{"bike_id":"8729db00-a1d9-4736-9fca-f79003d2e8fc","system_id":"levelo_inurba_marseille","lat":43.28552,"lon":5.44081,"is_reserved":false,"is_disabled":false,"rental_uris":{"android":"levelo://app?vid=8729db00-a1d9-4736-9fca-f79003d2e8fc","ios":"levelo://app?vid=8729db00-a1d9-4736-9fca-f79003d2e8fc"},"vehicle_type_id":"4","last_reported":1778837814,"current_range_meters":4800,"station_id":"st_d3j3df2ikq2c7380ej80","pricing_plan_id":"cebpf4jnsgd1na2vs0mg"},{"bike_id":"3417cf8f-8380-49cf-9b96-8708c600b7b9","system_id":"levelo_inurba_marseille","lat":43.29877,"lon":5.38914,"is_reserved":false,"is_disabled":true,"rental_uris":{"android":"levelo://app?vid=3417cf8f-8380-49cf-9b96-8708c600b7b9","ios":"levelo://app?vid=3417cf8f-8380-49cf-9b96-8708c600b7b9"},"vehicle_type_id":"4","last_reported":1778837814,"current_range_meters":4800,"station_id":"ce4bh392rcd13ifvqdl0","pricing_plan_id":"cebpf4jnsgd1na2vs0mg"},{"bike_id":"45fb856e-b671-4da3-93ae-8747965c910b","system_id":"levelo_inurba_marseille","lat":43.25331,"lon":5.42137,"is_reserved":false,"is_disabled":false,"rental_uris":{"android":"levelo://app?vid=45fb856e-b671-4da3-93ae-8747965c910b","ios":"levelo://app?vid=45fb856e-b671-4da3-93ae-8747965c910b"},"vehicle_type_id":"4","last_reported":1778837814,"current_range_meters":4800,"station_id":"st_d2m65c5bi1j21697t3ng","pricing_plan_id":"cebpf4jnsgd1na2vs0mg"},{"bike_id":"8c86a52e-0f78-4cb5-9502-6a0f1460eb2f","system_id":"levelo_inurba_marseille","lat":43.30379,"lon":5.42474,"is_reserved":false,"is_disabled":false,"rental_uris":{"android":"levelo://app?vid=8c86a52e-0f78-4cb5-9502-6a0f1460eb2f","ios":"levelo://app?vid=8c86a52e-0f78-4cb5-9502-6a0f1460eb2f"},"vehicle_type_id":"4","last_reported":1778837814,"current_range_meters":4800,"station_id":"ce4bhoh2rcd13ifvqh6g","pricing_plan_id":"cebpf4jnsgd1na2vs0mg"},{"bike_id":"04d3d691-3e5e-41ed-a448-313897978df0","system_id":"levelo_inurba_marseille","lat":43.31096,"lon":5.37071,"is_reserved":false,"is_disabled":false,"rental_uris":{"android":"levelo://app?vid=04d3d691-3e5e-41ed-a448-313897978df0","ios":"levelo://app?vid=04d3d691-3e5e-41ed-a448-313897978df0"},"vehicle_type_id":"4","last_reported":1778837814,"current_range_meters":4800,"station_id":"st_d4kl2rp97mjs73e7tdfg","pricing_plan_id":"cebpf4jnsgd1na2vs0mg"},{"bike_id":"d3d8f467-a8e9-4613-8875-f061744acc3a","system_id":"levelo_inurba_marseille","lat":43.292958,"lon":5.374643,"is_reserved":false,"is_disabled":false,"rental_uris":{"android":"levelo://app?vid=d3d8f467-a8e9-4613-8875-f061744acc3a","ios":"levelo://app?vid=d3d8f467-a8e9-4613-8875-f061744acc3a"},"vehicle_type_id":"4","last_reported":1778837814,"current_range_meters":4800,"station_id":"ce4bgi12rcd13ifvqb70","pricing_plan_id":"cebpf4jnsgd1na2vs0mg"},{"bike_id":"a2a00526-33a2-4133-9639-1bf79490a021","system_id":"levelo_inurba_marseille","lat":43.33154,"lon":5.40691,"is_reserved":false,"is_disabled":false,"rental_uris":{"android":"levelo://app?vid=a2a00526-33a2-4133-9639-1bf79490a021","ios":"levelo://app?vid=a2a00526-33a2-4133-9639-1bf79490a021"},"vehicle_type_id":"4","last_reported":1778837814,"current_range_meters":4800,"station_id":"","pricing_plan_id":"cebpf4jnsgd1na2vs0mg"},{"bike_id":"c59ef67e-59cb-436e-be93-b110e102b5eb","system_id":"levelo_inurba_marseille","lat":43.28701,"lon":5.46673,"is_reserved":false,"is_disabled":false,"rental_uris":{"android":"levelo://app?vid=c59ef67e-59cb-436e-be93-b110e102b5eb","ios":"levelo://app?vid=c59ef67e-59cb-436e-be93-b110e102b5eb"},"vehicle_type_id":"4","last_reported":1778837814,"current_range_meters":5600,"station_id":"st_d6tc3vkotcvc738tfjhg","pricing_plan_id":"cebpf4jnsgd1na2vs0mg"},{"bike_id":"9fcf9d8d-238f-4a11-b40c-4c58f8f84b59","system_id":"levelo_inurba_marseille","lat":43.23135,"lon":5.43702,"is_reserved":false,"is_disabled":false,"rental_uris":{"android":"levelo://app?vid=9fcf9d8d-238f-4a11-b40c-4c58f8f84b59","ios":"levelo://app?vid=9fcf9d8d-238f-4a11-b40c-4c58f8f84b59"},"vehicle_type_id":"4","last_reported":1778837814,"current_range_meters":5600,"station_id":"ce4bhmp2rcd13ifvqgog","pricing_plan_id":"cebpf4jnsgd1na2vs0mg"},{"bike_id":"48330455-0d49-4a17-bfd5-3dcd5509879a","system_id":"levelo_inurba_marseille","lat":43.29844,"lon":5.36268,"is_reserved":false,"is_disabled":false,"rental_uris":{"android":"levelo://app?vid=48330455-0d49-4a17-bfd5-3dcd5509879a","ios":"levelo://app?vid=48330455-0d49-4a17-bfd5-3dcd5509879a"},"vehicle_type_id":"4","last_reported":1778837814,"current_range_meters":5600,"station_id":"ce4bgpp2rcd13ifvqc3g","pricing_plan_id":"cebpf4jnsgd1na2vs0mg"},{"bike_id":"17874f6c-4d54-44c9-8cdc-701aa7b888c6","system_id":"levelo_inurba_marseille","lat":43.29573,"lon":5.37506,"is_reserved":false,"is_disabled":false,"rental_uris":{"android":"levelo://app?vid=17874f6c-4d54-44c9-8cdc-701aa7b888c6","ios":"levelo://app?vid=17874f6c-4d54-44c9-8cdc-701aa7b888c6"},"vehicle_type_id":"4","last_reported":1778837814,"current_range_meters":5600,"station_id":"ce4bgh92rcd13ifvqb50","pricing_plan_id":"cebpf4jnsgd1na2vs0mg"},{"bike_id":"6eb91164-b57f-4098-b7cf-66e449988b6b","system_id":"levelo_inurba_marseille","lat":43.29765,"lon":5.37107,"is_reserved":false,"is_disabled":false,"rental_uris":{"android":"levelo://app?vid=6eb91164-b57f-4098-b7cf-66e449988b6b","ios":"levelo://app?vid=6eb91164-b57f-4098-b7cf-66e449988b6b"},"vehicle_type_id":"4","last_reported":1778837814,"current_range_meters":5600,"station_id":"ce4bgop2rcd13ifvqc1g","pricing_plan_id":"cebpf4jnsgd1na2vs0mg"},{"bike_id":"aad9f584-de40-4638-8e27-42078febf3bb","system_id":"levelo_inurba_marseille","lat":43.31991,"lon":5.38149,"is_reserved":false,"is_disabled":false,"rental_uris":{"android":"levelo://app?vid=aad9f584-de40-4638-8e27-42078febf3bb","ios":"levelo://app?vid=aad9f584-de40-4638-8e27-42078febf3bb"},"vehicle_type_id":"4","last_reported":1778837814,"current_range_meters":5600,"station_id":"ce4bhr12rcd13ifvqhpg","pricing_plan_id":"cebpf4jnsgd1na2vs0mg"},{"bike_id":"4c08e552-05b3-492e-9965-80ac08a5dda5","system_id":"levelo_inurba_marseille","lat":43.27575,"lon":5.39545,"is_reserved":false,"is_disabled":false,"rental_uris":{"android":"levelo://app?vid=4c08e552-05b3-492e-9965-80ac08a5dda5","ios":"levelo://app?vid=4c08e552-05b3-492e-9965-80ac08a5dda5"},"vehicle_type_id":"4","last_reported":1778837814,"current_range_meters":5600,"station_id":"","pricing_plan_id":"cebpf4jnsgd1na2vs0mg"},{"bike_id":"fa68234e-76b9-482b-8003-0ee351215c1e","system_id":"levelo_inurba_marseille","lat":43.27424,"lon":5.39405,"is_reserved":false,"is_disabled":false,"rental_uris":{"android":"levelo://app?vid=fa68234e-76b9-482b-8003-0ee351215c1e","ios":"levelo://app?vid=fa68234e-76b9-482b-8003-0ee351215c1e"},"vehicle_type_id":"4","last_reported":1778837814,"current_range_meters":5600,"station_id":"ce4bhdp2rcd13ifvqf20","pricing_plan_id":"cebpf4jnsgd1na2vs0mg"},{"bike_id":"7f9e6364-0f57-4a9d-a5c2-0c82f69d6a37","system_id":"levelo_inurba_marseille","lat":43.23893,"lon":5.37435,"is_reserved":false,"is_disabled":false,"rental_uris":{"android":"levelo://app?vid=7f9e6364-0f57-4a9d-a5c2-0c82f69d6a37","ios":"levelo://app?vid=7f9e6364-0f57-4a9d-a5c2-0c82f69d6a37"},"vehicle_type_id":"4","last_reported":1778837814,"current_range_meters":5600,"station_id":"st_d6sm7csbq4hs73f8fpjg","pricing_plan_id":"cebpf4jnsgd1na2vs0mg"},{"bike_id":"781caba9-8a1d-492f-8f32-6bb508d561ff","system_id":"levelo_inurba_marseille","lat":43.28695,"lon":5.42681,"is_reserved":false,"is_disabled":false,"rental_uris":{"android":"levelo://app?vid=781caba9-8a1d-492f-8f32-6bb508d561ff","ios":"levelo://app?vid=781caba9-8a1d-492f-8f32-6bb508d561ff"},"vehicle_type_id":"4","last_reported":1778837814,"current_range_meters":5600,"station_id":"","pricing_plan_id":"cebpf4jnsgd1na2vs0mg"},{"bike_id":"c62b18ba-aa48-40db-a1b4-06b99deae7f5","system_id":"levelo_inurba_marseille","lat":43.27969,"lon":5.38701,"is_reserved":false,"is_disabled":false,"rental_uris":{"android":"levelo://app?vid=c62b18ba-aa48-40db-a1b4-06b99deae7f5","ios":"levelo://app?vid=c62b18ba-aa48-40db-a1b4-06b99deae7f5"},"vehicle_type_id":"4","last_reported":1778837814,"current_range_meters":6000,"station_id":"ce4bhg12rcd13ifvqf80","pricing_plan_id":"cebpf4jnsgd1na2vs0mg"},{"bike_id":"b38dace1-3746-40b2-9ec4-02c6534a12fc","system_id":"levelo_inurba_marseille","lat":43.28358,"lon":5.38648,"is_reserved":false,"is_disabled":false,"rental_uris":{"android":"levelo://app?vid=b38dace1-3746-40b2-9ec4-02c6534a12fc","ios":"levelo://app?vid=b38dace1-3746-40b2-9ec4-02c6534a12fc"},"vehicle_type_id":"4","last_reported":1778837814,"current_range_meters":6000,"station_id":"ce4bh492rcd13ifvqdvg","pricing_plan_id":"cebpf4jnsgd1na2vs0mg"},{"bike_id":"51f2aac7-f9be-4b98-a404-4dc10e7dae1c","system_id":"levelo_inurba_marseille","lat":43.29857,"lon":5.36277,"is_reserved":false,"is_disabled":false,"rental_uris":{"android":"levelo://app?vid=51f2aac7-f9be-4b98-a404-4dc10e7dae1c","ios":"levelo://app?vid=51f2aac7-f9be-4b98-a404-4dc10e7dae1c"},"vehicle_type_id":"4","last_reported":1778837814,"current_range_meters":6000,"station_id":"ce4bgpp2rcd13ifvqc3g","pricing_plan_id":"cebpf4jnsgd1na2vs0mg"},{"bike_id":"1eb023d9-3940-463e-88a9-23da17dd518d","system_id":"levelo_inurba_marseille","lat":43.24655,"lon":5.38166,"is_reserved":false,"is_disabled":false,"rental_uris":{"android":"levelo://app?vid=1eb023d9-3940-463e-88a9-23da17dd518d","ios":"levelo://app?vid=1eb023d9-3940-463e-88a9-23da17dd518d"},"vehicle_type_id":"4","last_reported":1778837814,"current_range_meters":6000,"station_id":"ce4bhih2rcd13ifvqfr0","pricing_plan_id":"cebpf4jnsgd1na2vs0mg"},{"bike_id":"3770903e-9831-4a06-8226-646ab042500a","system_id":"levelo_inurba_marseille","lat":43.28532,"lon":5.44107,"is_reserved":false,"is_disabled":false,"rental_uris":{"android":"levelo://app?vid=3770903e-9831-4a06-8226-646ab042500a","ios":"levelo://app?vid=3770903e-9831-4a06-8226-646ab042500a"},"vehicle_type_id":"4","last_reported":1778837814,"current_range_meters":6000,"station_id":"st_d3j3df2ikq2c7380ej80","pricing_plan_id":"cebpf4jnsgd1na2vs0mg"},{"bike_id":"131f3538-34e9-42c8-bfbb-f081f9c96caa","system_id":"levelo_inurba_marseille","lat":43.26489,"lon":5.39542,"is_reserved":false,"is_disabled":false,"rental_uris":{"android":"levelo://app?vid=131f3538-34e9-42c8-bfbb-f081f9c96caa","ios":"levelo://app?vid=131f3538-34e9-42c8-bfbb-f081f9c96caa"},"vehicle_type_id":"4","last_reported":1778837814,"current_range_meters":6000,"station_id":"ce4bhi12rcd13ifvqfq0","pricing_plan_id":"cebpf4jnsgd1na2vs0mg"},{"bike_id":"d46792ac-f5ff-4481-98df-fd0ffbee973c","system_id":"levelo_inurba_marseille","lat":43.29055,"lon":5.39911,"is_reserved":false,"is_disabled":true,"rental_uris":{"android":"levelo://app?vid=d46792ac-f5ff-4481-98df-fd0ffbee973c","ios":"levelo://app?vid=d46792ac-f5ff-4481-98df-fd0ffbee973c"},"vehicle_type_id":"4","last_reported":1778837814,"current_range_meters":6000,"station_id":"ce4bh392rcd13ifvqdm0","pricing_plan_id":"cebpf4jnsgd1na2vs0mg"},{"bike_id":"83289ec7-c40d-44b4-a41c-7687cabb1084","system_id":"levelo_inurba_marseille","lat":43.30555,"lon":5.36686,"is_reserved":false,"is_disabled":false,"rental_uris":{"android":"levelo://app?vid=83289ec7-c40d-44b4-a41c-7687cabb1084","ios":"levelo://app?vid=83289ec7-c40d-44b4-a41c-7687cabb1084"},"vehicle_type_id":"4","last_reported":1778837814,"current_range_meters":6000,"station_id":"ce4bgrp2rcd13ifvqc9g","pricing_plan_id":"cebpf4jnsgd1na2vs0mg"},{"bike_id":"cc04516f-f494-4331-91cb-da798bac4ff4","system_id":"levelo_inurba_marseille","lat":43.292616,"lon":5.37625,"is_reserved":false,"is_disabled":false,"rental_uris":{"android":"levelo://app?vid=cc04516f-f494-4331-91cb-da798bac4ff4","ios":"levelo://app?vid=cc04516f-f494-4331-91cb-da798bac4ff4"},"vehicle_type_id":"4","last_reported":1778837814,"current_range_meters":6400,"station_id":"ce4bgi12rcd13ifvqb80","pricing_plan_id":"cebpf4jnsgd1na2vs0mg"},{"bike_id":"99d016b5-db26-43a2-b902-f07852d3d0a2","system_id":"levelo_inurba_marseille","lat":43.23102,"lon":5.43666,"is_reserved":false,"is_disabled":false,"rental_uris":{"android":"levelo://app?vid=99d016b5-db26-43a2-b902-f07852d3d0a2","ios":"levelo://app?vid=99d016b5-db26-43a2-b902-f07852d3d0a2"},"vehicle_type_id":"4","last_reported":1778837814,"current_range_meters":6400,"station_id":"","pricing_plan_id":"cebpf4jnsgd1na2vs0mg"},{"bike_id":"39481e13-fb19-40b9-9611-cd35a8bf33b1","system_id":"levelo_inurba_marseille","lat":43.2752,"lon":5.41557,"is_reserved":false,"is_disabled":false,"rental_uris":{"android":"levelo://app?vid=39481e13-fb19-40b9-9611-cd35a8bf33b1","ios":"levelo://app?vid=39481e13-fb19-40b9-9611-cd35a8bf33b1"},"vehicle_type_id":"4","last_reported":1778837814,"current_range_meters":6400,"station_id":"st_d6im8g6chgec73a5pndg","pricing_plan_id":"cebpf4jnsgd1na2vs0mg"},{"bike_id":"dac5ec21-a4a8-4834-bde7-8173664c35ee","system_id":"levelo_inurba_marseille","lat":43.24802,"lon":5.37453,"is_reserved":false,"is_disabled":false,"rental_uris":{"android":"levelo://app?vid=dac5ec21-a4a8-4834-bde7-8173664c35ee","ios":"levelo://app?vid=dac5ec21-a4a8-4834-bde7-8173664c35ee"},"vehicle_type_id":"4","last_reported":1778837814,"current_range_meters":6400,"station_id":"ce4bhgh2rcd13ifvqfb0","pricing_plan_id":"cebpf4jnsgd1na2vs0mg"},{"bike_id":"e2ce1f63-0d73-4c38-b80b-527dbbe87d12","system_id":"levelo_inurba_marseille","lat":43.26214,"lon":5.37452,"is_reserved":false,"is_disabled":false,"rental_uris":{"android":"levelo://app?vid=e2ce1f63-0d73-4c38-b80b-527dbbe87d12","ios":"levelo://app?vid=e2ce1f63-0d73-4c38-b80b-527dbbe87d12"},"vehicle_type_id":"4","last_reported":1778837814,"current_range_meters":6400,"station_id":"ce4bhgp2rcd13ifvqfc0","pricing_plan_id":"cebpf4jnsgd1na2vs0mg"},{"bike_id":"f5f79339-f7bf-4874-a985-2850d221bb5f","system_id":"levelo_inurba_marseille","lat":43.33543,"lon":5.37463,"is_reserved":false,"is_disabled":false,"rental_uris":{"android":"levelo://app?vid=f5f79339-f7bf-4874-a985-2850d221bb5f","ios":"levelo://app?vid=f5f79339-f7bf-4874-a985-2850d221bb5f"},"vehicle_type_id":"4","last_reported":1778837814,"current_range_meters":6400,"station_id":"st_d46tts09ee8s73dlu43g","pricing_plan_id":"cebpf4jnsgd1na2vs0mg"},{"bike_id":"a88bc9ae-d88b-46fc-8169-6fe5eb0d8652","system_id":"levelo_inurba_marseille","lat":43.28479,"lon":5.48397,"is_reserved":false,"is_disabled":false,"rental_uris":{"android":"levelo://app?vid=a88bc9ae-d88b-46fc-8169-6fe5eb0d8652","ios":"levelo://app?vid=a88bc9ae-d88b-46fc-8169-6fe5eb0d8652"},"vehicle_type_id":"4","last_reported":1778837814,"current_range_meters":6400,"station_id":"","pricing_plan_id":"cebpf4jnsgd1na2vs0mg"},{"bike_id":"511c1b75-28d0-408e-8090-dcf02c519f9c","system_id":"levelo_inurba_marseille","lat":43.30529,"lon":5.36464,"is_reserved":false,"is_disabled":false,"rental_uris":{"android":"levelo://app?vid=511c1b75-28d0-408e-8090-dcf02c519f9c","ios":"levelo://app?vid=511c1b75-28d0-408e-8090-dcf02c519f9c"},"vehicle_type_id":"4","last_reported":1778837814,"current_range_meters":6400,"station_id":"","pricing_plan_id":"cebpf4jnsgd1na2vs0mg"},{"bike_id":"98b788f6-0955-4fd7-8e5b-9bd841faaf5e","system_id":"levelo_inurba_marseille","lat":43.33536,"lon":5.37477,"is_reserved":false,"is_disabled":false,"rental_uris":{"android":"levelo://app?vid=98b788f6-0955-4fd7-8e5b-9bd841faaf5e","ios":"levelo://app?vid=98b788f6-0955-4fd7-8e5b-9bd841faaf5e"},"vehicle_type_id":"4","last_reported":1778837814,"current_range_meters":6400,"station_id":"st_d46tts09ee8s73dlu43g","pricing_plan_id":"cebpf4jnsgd1na2vs0mg"},{"bike_id":"5b1799ed-9c0f-4958-aa4f-4cf925b69cad","system_id":"levelo_inurba_marseille","lat":43.25335,"lon":5.42172,"is_reserved":false,"is_disabled":false,"rental_uris":{"android":"levelo://app?vid=5b1799ed-9c0f-4958-aa4f-4cf925b69cad","ios":"levelo://app?vid=5b1799ed-9c0f-4958-aa4f-4cf925b69cad"},"vehicle_type_id":"4","last_reported":1778837814,"current_range_meters":6400,"station_id":"st_d2m65c5bi1j21697t3ng","pricing_plan_id":"cebpf4jnsgd1na2vs0mg"},{"bike_id":"69ee6bed-5601-48fd-a542-34b0427c1ca0","system_id":"levelo_inurba_marseille","lat":43.25644,"lon":5.38523,"is_reserved":false,"is_disabled":false,"rental_uris":{"android":"levelo://app?vid=69ee6bed-5601-48fd-a542-34b0427c1ca0","ios":"levelo://app?vid=69ee6bed-5601-48fd-a542-34b0427c1ca0"},"vehicle_type_id":"4","last_reported":1778837814,"current_range_meters":6800,"station_id":"","pricing_plan_id":"cebpf4jnsgd1na2vs0mg"},{"bike_id":"c5fa3b16-6a1d-48ed-90c5-0d892f974715","system_id":"levelo_inurba_marseille","lat":43.29757,"lon":5.362,"is_reserved":false,"is_disabled":false,"rental_uris":{"android":"levelo://app?vid=c5fa3b16-6a1d-48ed-90c5-0d892f974715","ios":"levelo://app?vid=c5fa3b16-6a1d-48ed-90c5-0d892f974715"},"vehicle_type_id":"4","last_reported":1778837814,"current_range_meters":6800,"station_id":"","pricing_plan_id":"cebpf4jnsgd1na2vs0mg"},{"bike_id":"f081dad8-e43c-45df-a012-7144fff947d7","system_id":"levelo_inurba_marseille","lat":43.28669,"lon":5.35133,"is_reserved":false,"is_disabled":false,"rental_uris":{"android":"levelo://app?vid=f081dad8-e43c-45df-a012-7144fff947d7","ios":"levelo://app?vid=f081dad8-e43c-45df-a012-7144fff947d7"},"vehicle_type_id":"4","last_reported":1778837814,"current_range_meters":6800,"station_id":"","pricing_plan_id":"cebpf4jnsgd1na2vs0mg"},{"bike_id":"fa59a2f1-3a57-4d10-8122-2871d8480ac9","system_id":"levelo_inurba_marseille","lat":43.27919,"lon":5.39223,"is_reserved":false,"is_disabled":false,"rental_uris":{"android":"levelo://app?vid=fa59a2f1-3a57-4d10-8122-2871d8480ac9","ios":"levelo://app?vid=fa59a2f1-3a57-4d10-8122-2871d8480ac9"},"vehicle_type_id":"4","last_reported":1778837814,"current_range_meters":6800,"station_id":"","pricing_plan_id":"cebpf4jnsgd1na2vs0mg"},{"bike_id":"f2517e7b-dbd0-47fa-a361-76ee32e4ad3e","system_id":"levelo_inurba_marseille","lat":43.285389,"lon":5.440995,"is_reserved":false,"is_disabled":false,"rental_uris":{"android":"levelo://app?vid=f2517e7b-dbd0-47fa-a361-76ee32e4ad3e","ios":"levelo://app?vid=f2517e7b-dbd0-47fa-a361-76ee32e4ad3e"},"vehicle_type_id":"4","last_reported":1778837814,"current_range_meters":6800,"station_id":"st_d3j3df2ikq2c7380ej80","pricing_plan_id":"cebpf4jnsgd1na2vs0mg"},{"bike_id":"6781e20d-9c92-4673-9b14-64fa816bd9f0","system_id":"levelo_inurba_marseille","lat":43.26595,"lon":5.37239,"is_reserved":false,"is_disabled":false,"rental_uris":{"android":"levelo://app?vid=6781e20d-9c92-4673-9b14-64fa816bd9f0","ios":"levelo://app?vid=6781e20d-9c92-4673-9b14-64fa816bd9f0"},"vehicle_type_id":"4","last_reported":1778837814,"current_range_meters":6800,"station_id":"ce4bhg12rcd13ifvqf70","pricing_plan_id":"cebpf4jnsgd1na2vs0mg"},{"bike_id":"824ef9b0-4b09-45b5-b34a-37d98013db94","system_id":"levelo_inurba_marseille","lat":43.31727,"lon":5.42389,"is_reserved":false,"is_disabled":false,"rental_uris":{"android":"levelo://app?vid=824ef9b0-4b09-45b5-b34a-37d98013db94","ios":"levelo://app?vid=824ef9b0-4b09-45b5-b34a-37d98013db94"},"vehicle_type_id":"4","last_reported":1778837814,"current_range_meters":6800,"station_id":"ce4bhp92rcd13ifvqhbg","pricing_plan_id":"cebpf4jnsgd1na2vs0mg"},{"bike_id":"0def443d-9170-403b-9a2c-00de64d6f603","system_id":"levelo_inurba_marseille","lat":43.28488,"lon":5.38568,"is_reserved":false,"is_disabled":false,"rental_uris":{"android":"levelo://app?vid=0def443d-9170-403b-9a2c-00de64d6f603","ios":"levelo://app?vid=0def443d-9170-403b-9a2c-00de64d6f603"},"vehicle_type_id":"4","last_reported":1778837814,"current_range_meters":6800,"station_id":"ce4bh8p2rcd13ifvqeb0","pricing_plan_id":"cebpf4jnsgd1na2vs0mg"},{"bike_id":"a0e1de9b-c8c9-4704-bf82-35f196db8fe0","system_id":"levelo_inurba_marseille","lat":43.28147,"lon":5.42641,"is_reserved":false,"is_disabled":false,"rental_uris":{"android":"levelo://app?vid=a0e1de9b-c8c9-4704-bf82-35f196db8fe0","ios":"levelo://app?vid=a0e1de9b-c8c9-4704-bf82-35f196db8fe0"},"vehicle_type_id":"4","last_reported":1778837814,"current_range_meters":6800,"station_id":"ce4bhnh2rcd13ifvqgug","pricing_plan_id":"cebpf4jnsgd1na2vs0mg"},{"bike_id":"409c3b3b-a922-4e30-9f80-abcbec3d38d4","system_id":"levelo_inurba_marseille","lat":43.29563,"lon":5.38726,"is_reserved":false,"is_disabled":false,"rental_uris":{"android":"levelo://app?vid=409c3b3b-a922-4e30-9f80-abcbec3d38d4","ios":"levelo://app?vid=409c3b3b-a922-4e30-9f80-abcbec3d38d4"},"vehicle_type_id":"4","last_reported":1778837814,"current_range_meters":6800,"station_id":"","pricing_plan_id":"cebpf4jnsgd1na2vs0mg"},{"bike_id":"487f5b2a-e05f-4486-a861-37010242d8f5","system_id":"levelo_inurba_marseille","lat":43.28531,"lon":5.44105,"is_reserved":false,"is_disabled":false,"rental_uris":{"android":"levelo://app?vid=487f5b2a-e05f-4486-a861-37010242d8f5","ios":"levelo://app?vid=487f5b2a-e05f-4486-a861-37010242d8f5"},"vehicle_type_id":"4","last_reported":1778837814,"current_range_meters":6800,"station_id":"st_d3j3df2ikq2c7380ej80","pricing_plan_id":"cebpf4jnsgd1na2vs0mg"},{"bike_id":"aba71d30-9e88-4cdf-b330-0766ff359c7c","system_id":"levelo_inurba_marseille","lat":43.29737,"lon":5.37694,"is_reserved":false,"is_disabled":false,"rental_uris":{"android":"levelo://app?vid=aba71d30-9e88-4cdf-b330-0766ff359c7c","ios":"levelo://app?vid=aba71d30-9e88-4cdf-b330-0766ff359c7c"},"vehicle_type_id":"4","last_reported":1778837814,"current_range_meters":6800,"station_id":"","pricing_plan_id":"cebpf4jnsgd1na2vs0mg"},{"bike_id":"b942de8b-7ed7-423c-b5f5-c55a01482354","system_id":"levelo_inurba_marseille","lat":43.30348,"lon":5.36862,"is_reserved":false,"is_disabled":false,"rental_uris":{"android":"levelo://app?vid=b942de8b-7ed7-423c-b5f5-c55a01482354","ios":"levelo://app?vid=b942de8b-7ed7-423c-b5f5-c55a01482354"},"vehicle_type_id":"4","last_reported":1778837814,"current_range_meters":6800,"station_id":"","pricing_plan_id":"cebpf4jnsgd1na2vs0mg"},{"bike_id":"4d1adb8b-faa6-4c2e-8fbc-936628286a75","system_id":"levelo_inurba_marseille","lat":43.26373,"lon":5.40317,"is_reserved":false,"is_disabled":false,"rental_uris":{"android":"levelo://app?vid=4d1adb8b-faa6-4c2e-8fbc-936628286a75","ios":"levelo://app?vid=4d1adb8b-faa6-4c2e-8fbc-936628286a75"},"vehicle_type_id":"4","last_reported":1778837814,"current_range_meters":6800,"station_id":"","pricing_plan_id":"cebpf4jnsgd1na2vs0mg"},{"bike_id":"d7e97781-7864-4d48-a10e-e09d15b1fad1","system_id":"levelo_inurba_marseille","lat":43.29633,"lon":5.38015,"is_reserved":false,"is_disabled":false,"rental_uris":{"android":"levelo://app?vid=d7e97781-7864-4d48-a10e-e09d15b1fad1","ios":"levelo://app?vid=d7e97781-7864-4d48-a10e-e09d15b1fad1"},"vehicle_type_id":"4","last_reported":1778837814,"current_range_meters":6800,"station_id":"","pricing_plan_id":"cebpf4jnsgd1na2vs0mg"},{"bike_id":"9275dd93-ac1a-4e6e-ba50-f59f37d5eacf","system_id":"levelo_inurba_marseille","lat":43.24497,"lon":5.42529,"is_reserved":false,"is_disabled":false,"rental_uris":{"android":"levelo://app?vid=9275dd93-ac1a-4e6e-ba50-f59f37d5eacf","ios":"levelo://app?vid=9275dd93-ac1a-4e6e-ba50-f59f37d5eacf"},"vehicle_type_id":"4","last_reported":1778837814,"current_range_meters":6800,"station_id":"st_d4a3vfp97mjs738cd8kg","pricing_plan_id":"cebpf4jnsgd1na2vs0mg"},{"bike_id":"482a2a17-8a00-4365-8c58-9a63bb7ef2e4","system_id":"levelo_inurba_marseille","lat":43.29946,"lon":5.36547,"is_reserved":false,"is_disabled":false,"rental_uris":{"android":"levelo://app?vid=482a2a17-8a00-4365-8c58-9a63bb7ef2e4","ios":"levelo://app?vid=482a2a17-8a00-4365-8c58-9a63bb7ef2e4"},"vehicle_type_id":"4","last_reported":1778837814,"current_range_meters":7200,"station_id":"ce4bgm92rcd13ifvqbr0","pricing_plan_id":"cebpf4jnsgd1na2vs0mg"},{"bike_id":"e5a6e1db-3fc8-4136-9437-e55e33690bc7","system_id":"levelo_inurba_marseille","lat":43.30359,"lon":5.41884,"is_reserved":false,"is_disabled":false,"rental_uris":{"android":"levelo://app?vid=e5a6e1db-3fc8-4136-9437-e55e33690bc7","ios":"levelo://app?vid=e5a6e1db-3fc8-4136-9437-e55e33690bc7"},"vehicle_type_id":"4","last_reported":1778837814,"current_range_meters":7200,"station_id":"ce4bhop2rcd13ifvqh7g","pricing_plan_id":"cebpf4jnsgd1na2vs0mg"},{"bike_id":"969c4699-084e-4b36-b743-54cfb1a323ba","system_id":"levelo_inurba_marseille","lat":43.317476,"lon":5.390214,"is_reserved":false,"is_disabled":false,"rental_uris":{"android":"levelo://app?vid=969c4699-084e-4b36-b743-54cfb1a323ba","ios":"levelo://app?vid=969c4699-084e-4b36-b743-54cfb1a323ba"},"vehicle_type_id":"4","last_reported":1778837814,"current_range_meters":7200,"station_id":"ce4bhqp2rcd13ifvqhng","pricing_plan_id":"cebpf4jnsgd1na2vs0mg"},{"bike_id":"992593cf-8c58-433c-b2f5-8a671b870530","system_id":"levelo_inurba_marseille","lat":43.28928,"lon":5.36212,"is_reserved":false,"is_disabled":false,"rental_uris":{"android":"levelo://app?vid=992593cf-8c58-433c-b2f5-8a671b870530","ios":"levelo://app?vid=992593cf-8c58-433c-b2f5-8a671b870530"},"vehicle_type_id":"4","last_reported":1778837814,"current_range_meters":7200,"station_id":"ce4bhc92rcd13ifvqetg","pricing_plan_id":"cebpf4jnsgd1na2vs0mg"},{"bike_id":"daf89c1a-ac46-4a29-a9a8-75dba19355f0","system_id":"levelo_inurba_marseille","lat":43.24396,"lon":5.37064,"is_reserved":false,"is_disabled":false,"rental_uris":{"android":"levelo://app?vid=daf89c1a-ac46-4a29-a9a8-75dba19355f0","ios":"levelo://app?vid=daf89c1a-ac46-4a29-a9a8-75dba19355f0"},"vehicle_type_id":"4","last_reported":1778837814,"current_range_meters":7200,"station_id":"ce4bhhh2rcd13ifvqfk0","pricing_plan_id":"cebpf4jnsgd1na2vs0mg"},{"bike_id":"5420a1a0-7f23-48f7-93ac-03a7d47fb6c2","system_id":"levelo_inurba_marseille","lat":43.239581,"lon":5.36628,"is_reserved":false,"is_disabled":false,"rental_uris":{"android":"levelo://app?vid=5420a1a0-7f23-48f7-93ac-03a7d47fb6c2","ios":"levelo://app?vid=5420a1a0-7f23-48f7-93ac-03a7d47fb6c2"},"vehicle_type_id":"4","last_reported":1778837814,"current_range_meters":7200,"station_id":"ce4bhi12rcd13ifvqfp0","pricing_plan_id":"cebpf4jnsgd1na2vs0mg"},{"bike_id":"f6256870-c4dd-4b62-b17e-01ae8d80757a","system_id":"levelo_inurba_marseille","lat":43.26226,"lon":5.38769,"is_reserved":false,"is_disabled":false,"rental_uris":{"android":"levelo://app?vid=f6256870-c4dd-4b62-b17e-01ae8d80757a","ios":"levelo://app?vid=f6256870-c4dd-4b62-b17e-01ae8d80757a"},"vehicle_type_id":"4","last_reported":1778837814,"current_range_meters":7200,"station_id":"","pricing_plan_id":"cebpf4jnsgd1na2vs0mg"},{"bike_id":"93b51037-cf16-46af-9f1a-0b17e1c0d358","system_id":"levelo_inurba_marseille","lat":43.28487,"lon":5.38576,"is_reserved":false,"is_disabled":false,"rental_uris":{"android":"levelo://app?vid=93b51037-cf16-46af-9f1a-0b17e1c0d358","ios":"levelo://app?vid=93b51037-cf16-46af-9f1a-0b17e1c0d358"},"vehicle_type_id":"4","last_reported":1778837814,"current_range_meters":7200,"station_id":"ce4bh8p2rcd13ifvqeb0","pricing_plan_id":"cebpf4jnsgd1na2vs0mg"},{"bike_id":"5ba8c5ab-b1f5-4198-bf91-f42bd73afa01","system_id":"levelo_inurba_marseille","lat":43.27853,"lon":5.40708,"is_reserved":false,"is_disabled":false,"rental_uris":{"android":"levelo://app?vid=5ba8c5ab-b1f5-4198-bf91-f42bd73afa01","ios":"levelo://app?vid=5ba8c5ab-b1f5-4198-bf91-f42bd73afa01"},"vehicle_type_id":"4","last_reported":1778837814,"current_range_meters":7200,"station_id":"ce4bhnh2rcd13ifvqgtg","pricing_plan_id":"cebpf4jnsgd1na2vs0mg"},{"bike_id":"3cdb0195-4f96-4947-92dd-52d1afc71788","system_id":"levelo_inurba_marseille","lat":43.22559,"lon":5.41643,"is_reserved":false,"is_disabled":false,"rental_uris":{"android":"levelo://app?vid=3cdb0195-4f96-4947-92dd-52d1afc71788","ios":"levelo://app?vid=3cdb0195-4f96-4947-92dd-52d1afc71788"},"vehicle_type_id":"4","last_reported":1778837814,"current_range_meters":7200,"station_id":"st_d2o4gvlbi1j2169b742g","pricing_plan_id":"cebpf4jnsgd1na2vs0mg"},{"bike_id":"4fdbacde-dba6-437d-b981-00d156d8fe78","system_id":"levelo_inurba_marseille","lat":43.30154,"lon":5.38081,"is_reserved":false,"is_disabled":false,"rental_uris":{"android":"levelo://app?vid=4fdbacde-dba6-437d-b981-00d156d8fe78","ios":"levelo://app?vid=4fdbacde-dba6-437d-b981-00d156d8fe78"},"vehicle_type_id":"4","last_reported":1778837814,"current_range_meters":7200,"station_id":"ce4bgjp2rcd13ifvqbh0","pricing_plan_id":"cebpf4jnsgd1na2vs0mg"},{"bike_id":"bf16a156-ee2a-4113-8429-a8223397107f","system_id":"levelo_inurba_marseille","lat":43.29584,"lon":5.374911,"is_reserved":false,"is_disabled":false,"rental_uris":{"android":"levelo://app?vid=bf16a156-ee2a-4113-8429-a8223397107f","ios":"levelo://app?vid=bf16a156-ee2a-4113-8429-a8223397107f"},"vehicle_type_id":"4","last_reported":1778837814,"current_range_meters":7200,"station_id":"ce4bgh92rcd13ifvqb50","pricing_plan_id":"cebpf4jnsgd1na2vs0mg"},{"bike_id":"e5342490-485a-4302-a5b2-800cb8c2300e","system_id":"levelo_inurba_marseille","lat":43.29972,"lon":5.38675,"is_reserved":false,"is_disabled":false,"rental_uris":{"android":"levelo://app?vid=e5342490-485a-4302-a5b2-800cb8c2300e","ios":"levelo://app?vid=e5342490-485a-4302-a5b2-800cb8c2300e"},"vehicle_type_id":"4","last_reported":1778837814,"current_range_meters":7200,"station_id":"","pricing_plan_id":"cebpf4jnsgd1na2vs0mg"},{"bike_id":"dcb505ac-4cc6-4f11-8d3d-d28754416324","system_id":"levelo_inurba_marseille","lat":43.28424,"lon":5.34987,"is_reserved":false,"is_disabled":false,"rental_uris":{"android":"levelo://app?vid=dcb505ac-4cc6-4f11-8d3d-d28754416324","ios":"levelo://app?vid=dcb505ac-4cc6-4f11-8d3d-d28754416324"},"vehicle_type_id":"4","last_reported":1778837814,"current_range_meters":7200,"station_id":"ce4bhbh2rcd13ifvqepg","pricing_plan_id":"cebpf4jnsgd1na2vs0mg"},{"bike_id":"05f8847b-34fa-4e08-8f9b-ea047754d4e8","system_id":"levelo_inurba_marseille","lat":43.29693,"lon":5.36639,"is_reserved":false,"is_disabled":false,"rental_uris":{"android":"levelo://app?vid=05f8847b-34fa-4e08-8f9b-ea047754d4e8","ios":"levelo://app?vid=05f8847b-34fa-4e08-8f9b-ea047754d4e8"},"vehicle_type_id":"4","last_reported":1778837814,"current_range_meters":7200,"station_id":"ce4bgn12rcd13ifvqbt0","pricing_plan_id":"cebpf4jnsgd1na2vs0mg"},{"bike_id":"2b7b4933-8829-463c-a55e-f6264c1ec7c1","system_id":"levelo_inurba_marseille","lat":43.28721,"lon":5.46675,"is_reserved":false,"is_disabled":false,"rental_uris":{"android":"levelo://app?vid=2b7b4933-8829-463c-a55e-f6264c1ec7c1","ios":"levelo://app?vid=2b7b4933-8829-463c-a55e-f6264c1ec7c1"},"vehicle_type_id":"4","last_reported":1778837814,"current_range_meters":7200,"station_id":"st_d6tc3vkotcvc738tfjhg","pricing_plan_id":"cebpf4jnsgd1na2vs0mg"},{"bike_id":"7d5e3739-999a-4364-94f6-8925c1422467","system_id":"levelo_inurba_marseille","lat":43.24079,"lon":5.3775,"is_reserved":false,"is_disabled":false,"rental_uris":{"android":"levelo://app?vid=7d5e3739-999a-4364-94f6-8925c1422467","ios":"levelo://app?vid=7d5e3739-999a-4364-94f6-8925c1422467"},"vehicle_type_id":"4","last_reported":1778837814,"current_range_meters":8000,"station_id":"ce4bhnp2rcd13ifvqgvg","pricing_plan_id":"cebpf4jnsgd1na2vs0mg"},{"bike_id":"ce145e05-5cad-469c-8e77-c3d22f4f1c58","system_id":"levelo_inurba_marseille","lat":43.30459,"lon":5.37904,"is_reserved":false,"is_disabled":false,"rental_uris":{"android":"levelo://app?vid=ce145e05-5cad-469c-8e77-c3d22f4f1c58","ios":"levelo://app?vid=ce145e05-5cad-469c-8e77-c3d22f4f1c58"},"vehicle_type_id":"4","last_reported":1778837814,"current_range_meters":8000,"station_id":"ce4bgup2rcd13ifvqcn0","pricing_plan_id":"cebpf4jnsgd1na2vs0mg"},{"bike_id":"53d89b78-fbfa-4765-86e4-2d5e25a39c79","system_id":"levelo_inurba_marseille","lat":43.24809,"lon":5.37414,"is_reserved":false,"is_disabled":false,"rental_uris":{"android":"levelo://app?vid=53d89b78-fbfa-4765-86e4-2d5e25a39c79","ios":"levelo://app?vid=53d89b78-fbfa-4765-86e4-2d5e25a39c79"},"vehicle_type_id":"4","last_reported":1778837814,"current_range_meters":8000,"station_id":"ce4bhgh2rcd13ifvqfb0","pricing_plan_id":"cebpf4jnsgd1na2vs0mg"},{"bike_id":"0ae4343c-ae62-4d36-a82a-1c301793282f","system_id":"levelo_inurba_marseille","lat":43.30375,"lon":5.42481,"is_reserved":false,"is_disabled":false,"rental_uris":{"android":"levelo://app?vid=0ae4343c-ae62-4d36-a82a-1c301793282f","ios":"levelo://app?vid=0ae4343c-ae62-4d36-a82a-1c301793282f"},"vehicle_type_id":"4","last_reported":1778837814,"current_range_meters":8000,"station_id":"ce4bhoh2rcd13ifvqh6g","pricing_plan_id":"cebpf4jnsgd1na2vs0mg"},{"bike_id":"bde9888f-9b59-42e7-a131-a0b960621f11","system_id":"levelo_inurba_marseille","lat":43.23793,"lon":5.36603,"is_reserved":false,"is_disabled":false,"rental_uris":{"android":"levelo://app?vid=bde9888f-9b59-42e7-a131-a0b960621f11","ios":"levelo://app?vid=bde9888f-9b59-42e7-a131-a0b960621f11"},"vehicle_type_id":"4","last_reported":1778837814,"current_range_meters":8000,"station_id":"st_d3nk18o9ro0c73en2l3g","pricing_plan_id":"cebpf4jnsgd1na2vs0mg"},{"bike_id":"5b0ee32a-a2ec-43aa-bbc3-282ccee7cdc0","system_id":"levelo_inurba_marseille","lat":43.337444,"lon":5.374475,"is_reserved":false,"is_disabled":true,"rental_uris":{"android":"levelo://app?vid=5b0ee32a-a2ec-43aa-bbc3-282ccee7cdc0","ios":"levelo://app?vid=5b0ee32a-a2ec-43aa-bbc3-282ccee7cdc0"},"vehicle_type_id":"4","last_reported":1778837814,"current_range_meters":8000,"station_id":"","pricing_plan_id":"cebpf4jnsgd1na2vs0mg"},{"bike_id":"efbbd875-07fc-4e92-b74f-8812d2aded92","system_id":"levelo_inurba_marseille","lat":43.29519,"lon":5.37489,"is_reserved":false,"is_disabled":false,"rental_uris":{"android":"levelo://app?vid=efbbd875-07fc-4e92-b74f-8812d2aded92","ios":"levelo://app?vid=efbbd875-07fc-4e92-b74f-8812d2aded92"},"vehicle_type_id":"4","last_reported":1778837814,"current_range_meters":8000,"station_id":"ce4bgkp2rcd13ifvqbmg","pricing_plan_id":"cebpf4jnsgd1na2vs0mg"},{"bike_id":"496cfd2a-05b4-4779-bc7f-5abb7ba16959","system_id":"levelo_inurba_marseille","lat":43.28207,"lon":5.39061,"is_reserved":false,"is_disabled":false,"rental_uris":{"android":"levelo://app?vid=496cfd2a-05b4-4779-bc7f-5abb7ba16959","ios":"levelo://app?vid=496cfd2a-05b4-4779-bc7f-5abb7ba16959"},"vehicle_type_id":"4","last_reported":1778837814,"current_range_meters":8000,"station_id":"ce4bhn92rcd13ifvqgsg","pricing_plan_id":"cebpf4jnsgd1na2vs0mg"},{"bike_id":"aacdad64-a862-4132-8565-d2120e3fda67","system_id":"levelo_inurba_marseille","lat":43.31319,"lon":5.40177,"is_reserved":false,"is_disabled":false,"rental_uris":{"android":"levelo://app?vid=aacdad64-a862-4132-8565-d2120e3fda67","ios":"levelo://app?vid=aacdad64-a862-4132-8565-d2120e3fda67"},"vehicle_type_id":"4","last_reported":1778837814,"current_range_meters":8000,"station_id":"","pricing_plan_id":"cebpf4jnsgd1na2vs0mg"},{"bike_id":"67509237-a276-4de2-b6b5-9f2d2f4f56f5","system_id":"levelo_inurba_marseille","lat":43.28411,"lon":5.37533,"is_reserved":false,"is_disabled":false,"rental_uris":{"android":"levelo://app?vid=67509237-a276-4de2-b6b5-9f2d2f4f56f5","ios":"levelo://app?vid=67509237-a276-4de2-b6b5-9f2d2f4f56f5"},"vehicle_type_id":"4","last_reported":1778837814,"current_range_meters":8000,"station_id":"ce4bh412rcd13ifvqds0","pricing_plan_id":"cebpf4jnsgd1na2vs0mg"},{"bike_id":"1902f9f2-9ba8-46c0-bacf-8cac75c83ba5","system_id":"levelo_inurba_marseille","lat":43.31274,"lon":5.36745,"is_reserved":false,"is_disabled":false,"rental_uris":{"android":"levelo://app?vid=1902f9f2-9ba8-46c0-bacf-8cac75c83ba5","ios":"levelo://app?vid=1902f9f2-9ba8-46c0-bacf-8cac75c83ba5"},"vehicle_type_id":"4","last_reported":1778837814,"current_range_meters":8000,"station_id":"","pricing_plan_id":"cebpf4jnsgd1na2vs0mg"},{"bike_id":"0ee7e7d5-d25e-446f-bfb7-9c213be9c8fc","system_id":"levelo_inurba_marseille","lat":43.23971,"lon":5.36628,"is_reserved":false,"is_disabled":false,"rental_uris":{"android":"levelo://app?vid=0ee7e7d5-d25e-446f-bfb7-9c213be9c8fc","ios":"levelo://app?vid=0ee7e7d5-d25e-446f-bfb7-9c213be9c8fc"},"vehicle_type_id":"4","last_reported":1778837814,"current_range_meters":8000,"station_id":"ce4bhi12rcd13ifvqfp0","pricing_plan_id":"cebpf4jnsgd1na2vs0mg"},{"bike_id":"6b379858-4a6b-45a0-96f4-19512c9626ea","system_id":"levelo_inurba_marseille","lat":43.23194,"lon":5.40009,"is_reserved":false,"is_disabled":false,"rental_uris":{"android":"levelo://app?vid=6b379858-4a6b-45a0-96f4-19512c9626ea","ios":"levelo://app?vid=6b379858-4a6b-45a0-96f4-19512c9626ea"},"vehicle_type_id":"4","last_reported":1778837814,"current_range_meters":8000,"station_id":"ce4bhn12rcd13ifvqgqg","pricing_plan_id":"cebpf4jnsgd1na2vs0mg"},{"bike_id":"38779e31-4a24-4b4f-b86f-2d3fc08c246c","system_id":"levelo_inurba_marseille","lat":43.22546,"lon":5.34897,"is_reserved":false,"is_disabled":false,"rental_uris":{"android":"levelo://app?vid=38779e31-4a24-4b4f-b86f-2d3fc08c246c","ios":"levelo://app?vid=38779e31-4a24-4b4f-b86f-2d3fc08c246c"},"vehicle_type_id":"4","last_reported":1778837814,"current_range_meters":8000,"station_id":"st_cvj5dfep6f1abm77gieg","pricing_plan_id":"cebpf4jnsgd1na2vs0mg"},{"bike_id":"d014c6a1-bf63-4e95-b925-abf179d4f59f","system_id":"levelo_inurba_marseille","lat":43.27386,"lon":5.43543,"is_reserved":false,"is_disabled":false,"rental_uris":{"android":"levelo://app?vid=d014c6a1-bf63-4e95-b925-abf179d4f59f","ios":"levelo://app?vid=d014c6a1-bf63-4e95-b925-abf179d4f59f"},"vehicle_type_id":"4","last_reported":1778837814,"current_range_meters":8000,"station_id":"","pricing_plan_id":"cebpf4jnsgd1na2vs0mg"},{"bike_id":"f5d041f2-f8be-47c7-8d27-e8d0c9c12413","system_id":"levelo_inurba_marseille","lat":43.30879,"lon":5.39651,"is_reserved":false,"is_disabled":false,"rental_uris":{"android":"levelo://app?vid=f5d041f2-f8be-47c7-8d27-e8d0c9c12413","ios":"levelo://app?vid=f5d041f2-f8be-47c7-8d27-e8d0c9c12413"},"vehicle_type_id":"4","last_reported":1778837814,"current_range_meters":8000,"station_id":"ce4bh012rcd13ifvqcv0","pricing_plan_id":"cebpf4jnsgd1na2vs0mg"},{"bike_id":"ab5d2c88-2225-4484-b022-e013d40ae356","system_id":"levelo_inurba_marseille","lat":43.27361,"lon":5.36252,"is_reserved":false,"is_disabled":false,"rental_uris":{"android":"levelo://app?vid=ab5d2c88-2225-4484-b022-e013d40ae356","ios":"levelo://app?vid=ab5d2c88-2225-4484-b022-e013d40ae356"},"vehicle_type_id":"4","last_reported":1778837814,"current_range_meters":8000,"station_id":"ce4bhbh2rcd13ifvqeo0","pricing_plan_id":"cebpf4jnsgd1na2vs0mg"},{"bike_id":"c3f69da5-ea53-4e70-85ba-49c3a2453410","system_id":"levelo_inurba_marseille","lat":43.28717,"lon":5.37947,"is_reserved":false,"is_disabled":false,"rental_uris":{"android":"levelo://app?vid=c3f69da5-ea53-4e70-85ba-49c3a2453410","ios":"levelo://app?vid=c3f69da5-ea53-4e70-85ba-49c3a2453410"},"vehicle_type_id":"4","last_reported":1778837814,"current_range_meters":8000,"station_id":"ce4bh9p2rcd13ifvqec0","pricing_plan_id":"cebpf4jnsgd1na2vs0mg"},{"bike_id":"7721e457-13f9-4d25-8803-7e0bf53167c3","system_id":"levelo_inurba_marseille","lat":43.29063,"lon":5.35878,"is_reserved":false,"is_disabled":false,"rental_uris":{"android":"levelo://app?vid=7721e457-13f9-4d25-8803-7e0bf53167c3","ios":"levelo://app?vid=7721e457-13f9-4d25-8803-7e0bf53167c3"},"vehicle_type_id":"4","last_reported":1778837814,"current_range_meters":8000,"station_id":"ce4bha92rcd13ifvqeg0","pricing_plan_id":"cebpf4jnsgd1na2vs0mg"},{"bike_id":"245034ef-13bc-42be-8840-165da39a6c37","system_id":"levelo_inurba_marseille","lat":43.31712,"lon":5.37742,"is_reserved":false,"is_disabled":false,"rental_uris":{"android":"levelo://app?vid=245034ef-13bc-42be-8840-165da39a6c37","ios":"levelo://app?vid=245034ef-13bc-42be-8840-165da39a6c37"},"vehicle_type_id":"4","last_reported":1778837814,"current_range_meters":8000,"station_id":"ce4bgth2rcd13ifvqch0","pricing_plan_id":"cebpf4jnsgd1na2vs0mg"},{"bike_id":"af20cc9b-d3fb-4902-b77a-283d964c8cb8","system_id":"levelo_inurba_marseille","lat":43.28703,"lon":5.46682,"is_reserved":false,"is_disabled":false,"rental_uris":{"android":"levelo://app?vid=af20cc9b-d3fb-4902-b77a-283d964c8cb8","ios":"levelo://app?vid=af20cc9b-d3fb-4902-b77a-283d964c8cb8"},"vehicle_type_id":"4","last_reported":1778837814,"current_range_meters":8000,"station_id":"st_d6tc3vkotcvc738tfjhg","pricing_plan_id":"cebpf4jnsgd1na2vs0mg"},{"bike_id":"8501f3f3-9528-4986-b8c4-c8f14c21984e","system_id":"levelo_inurba_marseille","lat":43.30496,"lon":5.37902,"is_reserved":false,"is_disabled":false,"rental_uris":{"android":"levelo://app?vid=8501f3f3-9528-4986-b8c4-c8f14c21984e","ios":"levelo://app?vid=8501f3f3-9528-4986-b8c4-c8f14c21984e"},"vehicle_type_id":"4","last_reported":1778837814,"current_range_meters":8000,"station_id":"ce4bgup2rcd13ifvqcn0","pricing_plan_id":"cebpf4jnsgd1na2vs0mg"},{"bike_id":"2dad678a-eba2-49e6-88bf-98c3fc40e9cc","system_id":"levelo_inurba_marseille","lat":43.24074,"lon":5.37747,"is_reserved":false,"is_disabled":false,"rental_uris":{"android":"levelo://app?vid=2dad678a-eba2-49e6-88bf-98c3fc40e9cc","ios":"levelo://app?vid=2dad678a-eba2-49e6-88bf-98c3fc40e9cc"},"vehicle_type_id":"4","last_reported":1778837814,"current_range_meters":8000,"station_id":"ce4bhnp2rcd13ifvqgvg","pricing_plan_id":"cebpf4jnsgd1na2vs0mg"},{"bike_id":"351d03f6-8167-4d74-8510-d39590cd1ca4","system_id":"levelo_inurba_marseille","lat":43.29606,"lon":5.37681,"is_reserved":false,"is_disabled":false,"rental_uris":{"android":"levelo://app?vid=351d03f6-8167-4d74-8510-d39590cd1ca4","ios":"levelo://app?vid=351d03f6-8167-4d74-8510-d39590cd1ca4"},"vehicle_type_id":"4","last_reported":1778837814,"current_range_meters":8400,"station_id":"ce4bgi92rcd13ifvqb90","pricing_plan_id":"cebpf4jnsgd1na2vs0mg"},{"bike_id":"f829f4b9-58d1-45a6-9014-d64b4b0b3b6f","system_id":"levelo_inurba_marseille","lat":43.29174,"lon":5.37135,"is_reserved":false,"is_disabled":false,"rental_uris":{"android":"levelo://app?vid=f829f4b9-58d1-45a6-9014-d64b4b0b3b6f","ios":"levelo://app?vid=f829f4b9-58d1-45a6-9014-d64b4b0b3b6f"},"vehicle_type_id":"4","last_reported":1778837814,"current_range_meters":8400,"station_id":"ce4bha92rcd13ifvqeh0","pricing_plan_id":"cebpf4jnsgd1na2vs0mg"},{"bike_id":"9b2021d8-c5d8-448d-a392-8636bb8f2d73","system_id":"levelo_inurba_marseille","lat":43.25506,"lon":5.37632,"is_reserved":false,"is_disabled":false,"rental_uris":{"android":"levelo://app?vid=9b2021d8-c5d8-448d-a392-8636bb8f2d73","ios":"levelo://app?vid=9b2021d8-c5d8-448d-a392-8636bb8f2d73"},"vehicle_type_id":"4","last_reported":1778837814,"current_range_meters":8400,"station_id":"ce4bhh12rcd13ifvqff0","pricing_plan_id":"cebpf4jnsgd1na2vs0mg"},{"bike_id":"41245f3e-8502-4c14-9b14-d511a01ed938","system_id":"levelo_inurba_marseille","lat":43.28586,"lon":5.37024,"is_reserved":false,"is_disabled":false,"rental_uris":{"android":"levelo://app?vid=41245f3e-8502-4c14-9b14-d511a01ed938","ios":"levelo://app?vid=41245f3e-8502-4c14-9b14-d511a01ed938"},"vehicle_type_id":"4","last_reported":1778837814,"current_range_meters":8400,"station_id":"ce4bht12rcd13ifvqi60","pricing_plan_id":"cebpf4jnsgd1na2vs0mg"},{"bike_id":"e0b16637-3ef6-48f5-a000-6d4a4719dd04","system_id":"levelo_inurba_marseille","lat":43.26184,"lon":5.37399,"is_reserved":false,"is_disabled":false,"rental_uris":{"android":"levelo://app?vid=e0b16637-3ef6-48f5-a000-6d4a4719dd04","ios":"levelo://app?vid=e0b16637-3ef6-48f5-a000-6d4a4719dd04"},"vehicle_type_id":"4","last_reported":1778837814,"current_range_meters":8400,"station_id":"ce4bhgp2rcd13ifvqfc0","pricing_plan_id":"cebpf4jnsgd1na2vs0mg"},{"bike_id":"542d668d-94a3-43d7-8122-dc170ac76fcb","system_id":"levelo_inurba_marseille","lat":43.24475,"lon":5.42531,"is_reserved":false,"is_disabled":false,"rental_uris":{"android":"levelo://app?vid=542d668d-94a3-43d7-8122-dc170ac76fcb","ios":"levelo://app?vid=542d668d-94a3-43d7-8122-dc170ac76fcb"},"vehicle_type_id":"4","last_reported":1778837814,"current_range_meters":8400,"station_id":"st_d4a3vfp97mjs738cd8kg","pricing_plan_id":"cebpf4jnsgd1na2vs0mg"},{"bike_id":"629c8398-e7aa-4e70-a959-f02bb344d2f8","system_id":"levelo_inurba_marseille","lat":43.29799,"lon":5.38088,"is_reserved":false,"is_disabled":false,"rental_uris":{"android":"levelo://app?vid=629c8398-e7aa-4e70-a959-f02bb344d2f8","ios":"levelo://app?vid=629c8398-e7aa-4e70-a959-f02bb344d2f8"},"vehicle_type_id":"4","last_reported":1778837814,"current_range_meters":8400,"station_id":"ce4bgip2rcd13ifvqbb0","pricing_plan_id":"cebpf4jnsgd1na2vs0mg"},{"bike_id":"51664d14-16b2-48cc-bb95-c2f0a523d053","system_id":"levelo_inurba_marseille","lat":43.2999,"lon":5.43065,"is_reserved":false,"is_disabled":false,"rental_uris":{"android":"levelo://app?vid=51664d14-16b2-48cc-bb95-c2f0a523d053","ios":"levelo://app?vid=51664d14-16b2-48cc-bb95-c2f0a523d053"},"vehicle_type_id":"4","last_reported":1778837814,"current_range_meters":8400,"station_id":"","pricing_plan_id":"cebpf4jnsgd1na2vs0mg"},{"bike_id":"5fb2702e-ddb4-4bfc-9173-e5d371dcb492","system_id":"levelo_inurba_marseille","lat":43.2862,"lon":5.35109,"is_reserved":false,"is_disabled":false,"rental_uris":{"android":"levelo://app?vid=5fb2702e-ddb4-4bfc-9173-e5d371dcb492","ios":"levelo://app?vid=5fb2702e-ddb4-4bfc-9173-e5d371dcb492"},"vehicle_type_id":"4","last_reported":1778837814,"current_range_meters":8400,"station_id":"ce4bhch2rcd13ifvqeug","pricing_plan_id":"cebpf4jnsgd1na2vs0mg"},{"bike_id":"5086b699-3dcc-4806-b878-78b08fee24d3","system_id":"levelo_inurba_marseille","lat":43.3106,"lon":5.37093,"is_reserved":false,"is_disabled":false,"rental_uris":{"android":"levelo://app?vid=5086b699-3dcc-4806-b878-78b08fee24d3","ios":"levelo://app?vid=5086b699-3dcc-4806-b878-78b08fee24d3"},"vehicle_type_id":"4","last_reported":1778837814,"current_range_meters":8400,"station_id":"","pricing_plan_id":"cebpf4jnsgd1na2vs0mg"},{"bike_id":"cf7b705c-7a37-4054-aa6c-b54b5684440f","system_id":"levelo_inurba_marseille","lat":43.23134,"lon":5.43715,"is_reserved":false,"is_disabled":false,"rental_uris":{"android":"levelo://app?vid=cf7b705c-7a37-4054-aa6c-b54b5684440f","ios":"levelo://app?vid=cf7b705c-7a37-4054-aa6c-b54b5684440f"},"vehicle_type_id":"4","last_reported":1778837814,"current_range_meters":8400,"station_id":"ce4bhmp2rcd13ifvqgog","pricing_plan_id":"cebpf4jnsgd1na2vs0mg"},{"bike_id":"2be2dfbb-5fc9-4d40-99ae-8f0a1bd0747d","system_id":"levelo_inurba_marseille","lat":43.22563,"lon":5.41631,"is_reserved":false,"is_disabled":false,"rental_uris":{"android":"levelo://app?vid=2be2dfbb-5fc9-4d40-99ae-8f0a1bd0747d","ios":"levelo://app?vid=2be2dfbb-5fc9-4d40-99ae-8f0a1bd0747d"},"vehicle_type_id":"4","last_reported":1778837814,"current_range_meters":8400,"station_id":"st_d2o4gvlbi1j2169b742g","pricing_plan_id":"cebpf4jnsgd1na2vs0mg"},{"bike_id":"14f10cf8-3c1f-4ae3-ac40-bc26c23ae538","system_id":"levelo_inurba_marseille","lat":43.24683,"lon":5.39397,"is_reserved":false,"is_disabled":false,"rental_uris":{"android":"levelo://app?vid=14f10cf8-3c1f-4ae3-ac40-bc26c23ae538","ios":"levelo://app?vid=14f10cf8-3c1f-4ae3-ac40-bc26c23ae538"},"vehicle_type_id":"4","last_reported":1778837814,"current_range_meters":8400,"station_id":"","pricing_plan_id":"cebpf4jnsgd1na2vs0mg"},{"bike_id":"a0d1f212-f397-4d2a-a9f6-e72cad93a290","system_id":"levelo_inurba_marseille","lat":43.217411,"lon":5.346036,"is_reserved":false,"is_disabled":false,"rental_uris":{"android":"levelo://app?vid=a0d1f212-f397-4d2a-a9f6-e72cad93a290","ios":"levelo://app?vid=a0d1f212-f397-4d2a-a9f6-e72cad93a290"},"vehicle_type_id":"4","last_reported":1778837814,"current_range_meters":8400,"station_id":"st_cvj6r9ubvosntc0bgbag","pricing_plan_id":"cebpf4jnsgd1na2vs0mg"},{"bike_id":"7ebf473e-f649-4ecb-867e-1b7fd3d928c7","system_id":"levelo_inurba_marseille","lat":43.26374,"lon":5.41074,"is_reserved":false,"is_disabled":false,"rental_uris":{"android":"levelo://app?vid=7ebf473e-f649-4ecb-867e-1b7fd3d928c7","ios":"levelo://app?vid=7ebf473e-f649-4ecb-867e-1b7fd3d928c7"},"vehicle_type_id":"4","last_reported":1778837814,"current_range_meters":8400,"station_id":"st_d4e5ca6na9uc73bfl5fg","pricing_plan_id":"cebpf4jnsgd1na2vs0mg"},{"bike_id":"b37f2aa5-3333-4154-82f1-6e0ee09645dc","system_id":"levelo_inurba_marseille","lat":43.28671,"lon":5.38673,"is_reserved":false,"is_disabled":false,"rental_uris":{"android":"levelo://app?vid=b37f2aa5-3333-4154-82f1-6e0ee09645dc","ios":"levelo://app?vid=b37f2aa5-3333-4154-82f1-6e0ee09645dc"},"vehicle_type_id":"4","last_reported":1778837814,"current_range_meters":8400,"station_id":"ce4bh492rcd13ifvqdug","pricing_plan_id":"cebpf4jnsgd1na2vs0mg"},{"bike_id":"b92da105-00ff-46b1-bd98-22771d6da483","system_id":"levelo_inurba_marseille","lat":43.24333,"lon":5.38431,"is_reserved":false,"is_disabled":false,"rental_uris":{"android":"levelo://app?vid=b92da105-00ff-46b1-bd98-22771d6da483","ios":"levelo://app?vid=b92da105-00ff-46b1-bd98-22771d6da483"},"vehicle_type_id":"4","last_reported":1778837814,"current_range_meters":8400,"station_id":"","pricing_plan_id":"cebpf4jnsgd1na2vs0mg"},{"bike_id":"071b32cd-efb7-4b19-8868-73a0bba63276","system_id":"levelo_inurba_marseille","lat":43.248,"lon":5.37423,"is_reserved":false,"is_disabled":false,"rental_uris":{"android":"levelo://app?vid=071b32cd-efb7-4b19-8868-73a0bba63276","ios":"levelo://app?vid=071b32cd-efb7-4b19-8868-73a0bba63276"},"vehicle_type_id":"4","last_reported":1778837814,"current_range_meters":8800,"station_id":"ce4bhgh2rcd13ifvqfb0","pricing_plan_id":"cebpf4jnsgd1na2vs0mg"},{"bike_id":"bcc7cd70-09d4-41be-81e8-50abbfd58e27","system_id":"levelo_inurba_marseille","lat":43.25572,"lon":5.38235,"is_reserved":false,"is_disabled":false,"rental_uris":{"android":"levelo://app?vid=bcc7cd70-09d4-41be-81e8-50abbfd58e27","ios":"levelo://app?vid=bcc7cd70-09d4-41be-81e8-50abbfd58e27"},"vehicle_type_id":"4","last_reported":1778837814,"current_range_meters":8800,"station_id":"ce4bhih2rcd13ifvqfs0","pricing_plan_id":"cebpf4jnsgd1na2vs0mg"},{"bike_id":"57994975-12a1-47b9-b7a4-294051fd1507","system_id":"levelo_inurba_marseille","lat":43.24967,"lon":5.40495,"is_reserved":false,"is_disabled":false,"rental_uris":{"android":"levelo://app?vid=57994975-12a1-47b9-b7a4-294051fd1507","ios":"levelo://app?vid=57994975-12a1-47b9-b7a4-294051fd1507"},"vehicle_type_id":"4","last_reported":1778837814,"current_range_meters":8800,"station_id":"st_d2ngiaodas8pm72gd1h0","pricing_plan_id":"cebpf4jnsgd1na2vs0mg"},{"bike_id":"38fc785a-2ebc-4589-b06a-f39de7ae450c","system_id":"levelo_inurba_marseille","lat":43.30967,"lon":5.39008,"is_reserved":false,"is_disabled":false,"rental_uris":{"android":"levelo://app?vid=38fc785a-2ebc-4589-b06a-f39de7ae450c","ios":"levelo://app?vid=38fc785a-2ebc-4589-b06a-f39de7ae450c"},"vehicle_type_id":"4","last_reported":1778837814,"current_range_meters":8800,"station_id":"ce4bgup2rcd13ifvqco0","pricing_plan_id":"cebpf4jnsgd1na2vs0mg"},{"bike_id":"27704a09-2a84-4e44-8cae-7a34ca42d9c1","system_id":"levelo_inurba_marseille","lat":43.26665,"lon":5.37236,"is_reserved":false,"is_disabled":false,"rental_uris":{"android":"levelo://app?vid=27704a09-2a84-4e44-8cae-7a34ca42d9c1","ios":"levelo://app?vid=27704a09-2a84-4e44-8cae-7a34ca42d9c1"},"vehicle_type_id":"4","last_reported":1778837814,"current_range_meters":8800,"station_id":"","pricing_plan_id":"cebpf4jnsgd1na2vs0mg"},{"bike_id":"b4d0e6d7-e2cd-4b75-b36b-379025a92ede","system_id":"levelo_inurba_marseille","lat":43.31066,"lon":5.37174,"is_reserved":false,"is_disabled":false,"rental_uris":{"android":"levelo://app?vid=b4d0e6d7-e2cd-4b75-b36b-379025a92ede","ios":"levelo://app?vid=b4d0e6d7-e2cd-4b75-b36b-379025a92ede"},"vehicle_type_id":"4","last_reported":1778837814,"current_range_meters":8800,"station_id":"st_d4kl2rp97mjs73e7tdfg","pricing_plan_id":"cebpf4jnsgd1na2vs0mg"},{"bike_id":"63d65d42-3911-40ae-ad92-0b8fba9c9805","system_id":"levelo_inurba_marseille","lat":43.24071,"lon":5.37753,"is_reserved":false,"is_disabled":false,"rental_uris":{"android":"levelo://app?vid=63d65d42-3911-40ae-ad92-0b8fba9c9805","ios":"levelo://app?vid=63d65d42-3911-40ae-ad92-0b8fba9c9805"},"vehicle_type_id":"4","last_reported":1778837814,"current_range_meters":8800,"station_id":"ce4bhnp2rcd13ifvqgvg","pricing_plan_id":"cebpf4jnsgd1na2vs0mg"},{"bike_id":"43fd08e9-8801-41b6-946e-6e125f9fb580","system_id":"levelo_inurba_marseille","lat":43.28433,"lon":5.3497,"is_reserved":false,"is_disabled":false,"rental_uris":{"android":"levelo://app?vid=43fd08e9-8801-41b6-946e-6e125f9fb580","ios":"levelo://app?vid=43fd08e9-8801-41b6-946e-6e125f9fb580"},"vehicle_type_id":"4","last_reported":1778837814,"current_range_meters":8800,"station_id":"ce4bhbh2rcd13ifvqepg","pricing_plan_id":"cebpf4jnsgd1na2vs0mg"},{"bike_id":"6d5fa48d-f372-4e49-91b4-cafec1cf1617","system_id":"levelo_inurba_marseille","lat":43.25331,"lon":5.42154,"is_reserved":false,"is_disabled":false,"rental_uris":{"android":"levelo://app?vid=6d5fa48d-f372-4e49-91b4-cafec1cf1617","ios":"levelo://app?vid=6d5fa48d-f372-4e49-91b4-cafec1cf1617"},"vehicle_type_id":"4","last_reported":1778837814,"current_range_meters":8800,"station_id":"st_d2m65c5bi1j21697t3ng","pricing_plan_id":"cebpf4jnsgd1na2vs0mg"},{"bike_id":"85700384-7ed5-481f-8383-977a4a484f3a","system_id":"levelo_inurba_marseille","lat":43.26394,"lon":5.38752,"is_reserved":false,"is_disabled":false,"rental_uris":{"android":"levelo://app?vid=85700384-7ed5-481f-8383-977a4a484f3a","ios":"levelo://app?vid=85700384-7ed5-481f-8383-977a4a484f3a"},"vehicle_type_id":"4","last_reported":1778837814,"current_range_meters":8800,"station_id":"","pricing_plan_id":"cebpf4jnsgd1na2vs0mg"},{"bike_id":"cefbeb11-85b7-46b3-85c6-aca7465c0a67","system_id":"levelo_inurba_marseille","lat":43.28206,"lon":5.39092,"is_reserved":false,"is_disabled":false,"rental_uris":{"android":"levelo://app?vid=cefbeb11-85b7-46b3-85c6-aca7465c0a67","ios":"levelo://app?vid=cefbeb11-85b7-46b3-85c6-aca7465c0a67"},"vehicle_type_id":"4","last_reported":1778837814,"current_range_meters":8800,"station_id":"ce4bhn92rcd13ifvqgsg","pricing_plan_id":"cebpf4jnsgd1na2vs0mg"},{"bike_id":"8e5a079e-98c5-4804-bc13-f15e181290ce","system_id":"levelo_inurba_marseille","lat":43.31714,"lon":5.42413,"is_reserved":false,"is_disabled":false,"rental_uris":{"android":"levelo://app?vid=8e5a079e-98c5-4804-bc13-f15e181290ce","ios":"levelo://app?vid=8e5a079e-98c5-4804-bc13-f15e181290ce"},"vehicle_type_id":"4","last_reported":1778837814,"current_range_meters":8800,"station_id":"ce4bhp92rcd13ifvqhbg","pricing_plan_id":"cebpf4jnsgd1na2vs0mg"},{"bike_id":"b23ef223-d9c2-447f-8dca-d10522088e10","system_id":"levelo_inurba_marseille","lat":43.32035,"lon":5.41569,"is_reserved":false,"is_disabled":false,"rental_uris":{"android":"levelo://app?vid=b23ef223-d9c2-447f-8dca-d10522088e10","ios":"levelo://app?vid=b23ef223-d9c2-447f-8dca-d10522088e10"},"vehicle_type_id":"4","last_reported":1778837814,"current_range_meters":8800,"station_id":"ce4bhq92rcd13ifvqhkg","pricing_plan_id":"cebpf4jnsgd1na2vs0mg"},{"bike_id":"d74d3f33-a8dc-4d72-b28b-2cf586e298d3","system_id":"levelo_inurba_marseille","lat":43.28542,"lon":5.44092,"is_reserved":false,"is_disabled":false,"rental_uris":{"android":"levelo://app?vid=d74d3f33-a8dc-4d72-b28b-2cf586e298d3","ios":"levelo://app?vid=d74d3f33-a8dc-4d72-b28b-2cf586e298d3"},"vehicle_type_id":"4","last_reported":1778837814,"current_range_meters":8800,"station_id":"st_d3j3df2ikq2c7380ej80","pricing_plan_id":"cebpf4jnsgd1na2vs0mg"},{"bike_id":"c0cfd3d3-466f-48d3-8921-1e72b828172f","system_id":"levelo_inurba_marseille","lat":43.24465,"lon":5.42533,"is_reserved":false,"is_disabled":false,"rental_uris":{"android":"levelo://app?vid=c0cfd3d3-466f-48d3-8921-1e72b828172f","ios":"levelo://app?vid=c0cfd3d3-466f-48d3-8921-1e72b828172f"},"vehicle_type_id":"4","last_reported":1778837814,"current_range_meters":8800,"station_id":"st_d4a3vfp97mjs738cd8kg","pricing_plan_id":"cebpf4jnsgd1na2vs0mg"},{"bike_id":"5ae22d3d-4254-4f03-8775-0533e3c8d48a","system_id":"levelo_inurba_marseille","lat":43.24198,"lon":5.3972,"is_reserved":false,"is_disabled":true,"rental_uris":{"android":"levelo://app?vid=5ae22d3d-4254-4f03-8775-0533e3c8d48a","ios":"levelo://app?vid=5ae22d3d-4254-4f03-8775-0533e3c8d48a"},"vehicle_type_id":"4","last_reported":1778837814,"current_range_meters":8800,"station_id":"ce4bhn12rcd13ifvqgpg","pricing_plan_id":"cebpf4jnsgd1na2vs0mg"},{"bike_id":"e7a0aaf7-0db1-4b6d-948e-d3cea63d5b54","system_id":"levelo_inurba_marseille","lat":43.29485,"lon":5.43293,"is_reserved":false,"is_disabled":false,"rental_uris":{"android":"levelo://app?vid=e7a0aaf7-0db1-4b6d-948e-d3cea63d5b54","ios":"levelo://app?vid=e7a0aaf7-0db1-4b6d-948e-d3cea63d5b54"},"vehicle_type_id":"4","last_reported":1778837814,"current_range_meters":8800,"station_id":"st_d3j5ugp08ojc73fj9d10","pricing_plan_id":"cebpf4jnsgd1na2vs0mg"},{"bike_id":"ae8fa2b0-20b7-4fc2-9abd-8d58c9ea6e73","system_id":"levelo_inurba_marseille","lat":43.288494,"lon":5.393064,"is_reserved":false,"is_disabled":false,"rental_uris":{"android":"levelo://app?vid=ae8fa2b0-20b7-4fc2-9abd-8d58c9ea6e73","ios":"levelo://app?vid=ae8fa2b0-20b7-4fc2-9abd-8d58c9ea6e73"},"vehicle_type_id":"4","last_reported":1778837814,"current_range_meters":9200,"station_id":"ce4bh2p2rcd13ifvqdi0","pricing_plan_id":"cebpf4jnsgd1na2vs0mg"},{"bike_id":"3f31eb34-2034-48e0-acfb-781783e4399a","system_id":"levelo_inurba_marseille","lat":43.30537,"lon":5.36533,"is_reserved":false,"is_disabled":false,"rental_uris":{"android":"levelo://app?vid=3f31eb34-2034-48e0-acfb-781783e4399a","ios":"levelo://app?vid=3f31eb34-2034-48e0-acfb-781783e4399a"},"vehicle_type_id":"4","last_reported":1778837814,"current_range_meters":9200,"station_id":"ce4bgs12rcd13ifvqcag","pricing_plan_id":"cebpf4jnsgd1na2vs0mg"},{"bike_id":"52972f2e-95ed-4903-86b8-869d695f1926","system_id":"levelo_inurba_marseille","lat":43.32115,"lon":5.36761,"is_reserved":false,"is_disabled":false,"rental_uris":{"android":"levelo://app?vid=52972f2e-95ed-4903-86b8-869d695f1926","ios":"levelo://app?vid=52972f2e-95ed-4903-86b8-869d695f1926"},"vehicle_type_id":"4","last_reported":1778837814,"current_range_meters":9200,"station_id":"ce4bhrh2rcd13ifvqhug","pricing_plan_id":"cebpf4jnsgd1na2vs0mg"},{"bike_id":"2ad17d08-f228-43c1-ac27-af9161d7c098","system_id":"levelo_inurba_marseille","lat":43.28153,"lon":5.42619,"is_reserved":false,"is_disabled":false,"rental_uris":{"android":"levelo://app?vid=2ad17d08-f228-43c1-ac27-af9161d7c098","ios":"levelo://app?vid=2ad17d08-f228-43c1-ac27-af9161d7c098"},"vehicle_type_id":"4","last_reported":1778837814,"current_range_meters":9200,"station_id":"ce4bhnh2rcd13ifvqgug","pricing_plan_id":"cebpf4jnsgd1na2vs0mg"},{"bike_id":"e67e22a8-6457-4f9e-bc59-73176d5337bc","system_id":"levelo_inurba_marseille","lat":43.26213,"lon":5.37439,"is_reserved":false,"is_disabled":false,"rental_uris":{"android":"levelo://app?vid=e67e22a8-6457-4f9e-bc59-73176d5337bc","ios":"levelo://app?vid=e67e22a8-6457-4f9e-bc59-73176d5337bc"},"vehicle_type_id":"4","last_reported":1778837814,"current_range_meters":9200,"station_id":"ce4bhgp2rcd13ifvqfc0","pricing_plan_id":"cebpf4jnsgd1na2vs0mg"},{"bike_id":"7431b36d-8bc3-49c1-a3f5-0bb52d6b8fc5","system_id":"levelo_inurba_marseille","lat":43.2973,"lon":5.37685,"is_reserved":false,"is_disabled":false,"rental_uris":{"android":"levelo://app?vid=7431b36d-8bc3-49c1-a3f5-0bb52d6b8fc5","ios":"levelo://app?vid=7431b36d-8bc3-49c1-a3f5-0bb52d6b8fc5"},"vehicle_type_id":"4","last_reported":1778837814,"current_range_meters":9200,"station_id":"ce4bgkh2rcd13ifvqbl0","pricing_plan_id":"cebpf4jnsgd1na2vs0mg"},{"bike_id":"fe0ac0da-2ff6-45c6-a6ca-c142552ce3a0","system_id":"levelo_inurba_marseille","lat":43.26574,"lon":5.38999,"is_reserved":false,"is_disabled":false,"rental_uris":{"android":"levelo://app?vid=fe0ac0da-2ff6-45c6-a6ca-c142552ce3a0","ios":"levelo://app?vid=fe0ac0da-2ff6-45c6-a6ca-c142552ce3a0"},"vehicle_type_id":"4","last_reported":1778837814,"current_range_meters":9200,"station_id":"ce4bhe12rcd13ifvqf30","pricing_plan_id":"cebpf4jnsgd1na2vs0mg"},{"bike_id":"7a5f1542-f3fc-4f86-8018-781a948f1b90","system_id":"levelo_inurba_marseille","lat":43.2592,"lon":5.39897,"is_reserved":false,"is_disabled":false,"rental_uris":{"android":"levelo://app?vid=7a5f1542-f3fc-4f86-8018-781a948f1b90","ios":"levelo://app?vid=7a5f1542-f3fc-4f86-8018-781a948f1b90"},"vehicle_type_id":"4","last_reported":1778837814,"current_range_meters":9200,"station_id":"","pricing_plan_id":"cebpf4jnsgd1na2vs0mg"},{"bike_id":"fdb1420c-8cba-495e-8621-8fdd81cc0df7","system_id":"levelo_inurba_marseille","lat":43.27984,"lon":5.41648,"is_reserved":false,"is_disabled":false,"rental_uris":{"android":"levelo://app?vid=fdb1420c-8cba-495e-8621-8fdd81cc0df7","ios":"levelo://app?vid=fdb1420c-8cba-495e-8621-8fdd81cc0df7"},"vehicle_type_id":"4","last_reported":1778837814,"current_range_meters":9200,"station_id":"ce4bho12rcd13ifvqh1g","pricing_plan_id":"cebpf4jnsgd1na2vs0mg"},{"bike_id":"e159c4b9-6700-4fa7-bb02-c7e0de94a1a8","system_id":"levelo_inurba_marseille","lat":43.22564,"lon":5.41635,"is_reserved":false,"is_disabled":false,"rental_uris":{"android":"levelo://app?vid=e159c4b9-6700-4fa7-bb02-c7e0de94a1a8","ios":"levelo://app?vid=e159c4b9-6700-4fa7-bb02-c7e0de94a1a8"},"vehicle_type_id":"4","last_reported":1778837814,"current_range_meters":9200,"station_id":"st_d2o4gvlbi1j2169b742g","pricing_plan_id":"cebpf4jnsgd1na2vs0mg"},{"bike_id":"8f2ffae8-9918-467c-9501-6ac8a4d598f0","system_id":"levelo_inurba_marseille","lat":43.24592,"lon":5.40247,"is_reserved":false,"is_disabled":false,"rental_uris":{"android":"levelo://app?vid=8f2ffae8-9918-467c-9501-6ac8a4d598f0","ios":"levelo://app?vid=8f2ffae8-9918-467c-9501-6ac8a4d598f0"},"vehicle_type_id":"4","last_reported":1778837814,"current_range_meters":9200,"station_id":"","pricing_plan_id":"cebpf4jnsgd1na2vs0mg"},{"bike_id":"ea00ca07-7443-4180-9c35-5c1c2dd062cc","system_id":"levelo_inurba_marseille","lat":43.31892,"lon":5.36817,"is_reserved":false,"is_disabled":false,"rental_uris":{"android":"levelo://app?vid=ea00ca07-7443-4180-9c35-5c1c2dd062cc","ios":"levelo://app?vid=ea00ca07-7443-4180-9c35-5c1c2dd062cc"},"vehicle_type_id":"4","last_reported":1778837814,"current_range_meters":9200,"station_id":"st_d6o2h0d0559c73evc1b0","pricing_plan_id":"cebpf4jnsgd1na2vs0mg"},{"bike_id":"9328bcd0-7dba-429b-800d-2edec12305de","system_id":"levelo_inurba_marseille","lat":43.24496,"lon":5.42566,"is_reserved":false,"is_disabled":false,"rental_uris":{"android":"levelo://app?vid=9328bcd0-7dba-429b-800d-2edec12305de","ios":"levelo://app?vid=9328bcd0-7dba-429b-800d-2edec12305de"},"vehicle_type_id":"4","last_reported":1778837814,"current_range_meters":9200,"station_id":"st_d4a3vfp97mjs738cd8kg","pricing_plan_id":"cebpf4jnsgd1na2vs0mg"},{"bike_id":"23b590b0-a987-4af4-8c92-1da489628f7a","system_id":"levelo_inurba_marseille","lat":43.31724,"lon":5.4239,"is_reserved":false,"is_disabled":false,"rental_uris":{"android":"levelo://app?vid=23b590b0-a987-4af4-8c92-1da489628f7a","ios":"levelo://app?vid=23b590b0-a987-4af4-8c92-1da489628f7a"},"vehicle_type_id":"4","last_reported":1778837814,"current_range_meters":9200,"station_id":"ce4bhp92rcd13ifvqhbg","pricing_plan_id":"cebpf4jnsgd1na2vs0mg"},{"bike_id":"a3ed24cd-43c6-4870-9354-bd0423e0c33c","system_id":"levelo_inurba_marseille","lat":43.26549,"lon":5.37271,"is_reserved":false,"is_disabled":false,"rental_uris":{"android":"levelo://app?vid=a3ed24cd-43c6-4870-9354-bd0423e0c33c","ios":"levelo://app?vid=a3ed24cd-43c6-4870-9354-bd0423e0c33c"},"vehicle_type_id":"4","last_reported":1778837814,"current_range_meters":9200,"station_id":"ce4bhg12rcd13ifvqf70","pricing_plan_id":"cebpf4jnsgd1na2vs0mg"},{"bike_id":"95905f44-0304-4488-bbde-0604c4131f99","system_id":"levelo_inurba_marseille","lat":43.22562,"lon":5.41628,"is_reserved":false,"is_disabled":false,"rental_uris":{"android":"levelo://app?vid=95905f44-0304-4488-bbde-0604c4131f99","ios":"levelo://app?vid=95905f44-0304-4488-bbde-0604c4131f99"},"vehicle_type_id":"4","last_reported":1778837814,"current_range_meters":9600,"station_id":"st_d2o4gvlbi1j2169b742g","pricing_plan_id":"cebpf4jnsgd1na2vs0mg"},{"bike_id":"239bfd9b-219c-4f52-9cf5-37dc4ebececc","system_id":"levelo_inurba_marseille","lat":43.33754,"lon":5.37506,"is_reserved":false,"is_disabled":false,"rental_uris":{"android":"levelo://app?vid=239bfd9b-219c-4f52-9cf5-37dc4ebececc","ios":"levelo://app?vid=239bfd9b-219c-4f52-9cf5-37dc4ebececc"},"vehicle_type_id":"4","last_reported":1778837814,"current_range_meters":9600,"station_id":"","pricing_plan_id":"cebpf4jnsgd1na2vs0mg"},{"bike_id":"ef1ce0d2-6465-48a6-a5fb-6ca2d328d102","system_id":"levelo_inurba_marseille","lat":43.27524,"lon":5.41553,"is_reserved":false,"is_disabled":false,"rental_uris":{"android":"levelo://app?vid=ef1ce0d2-6465-48a6-a5fb-6ca2d328d102","ios":"levelo://app?vid=ef1ce0d2-6465-48a6-a5fb-6ca2d328d102"},"vehicle_type_id":"4","last_reported":1778837814,"current_range_meters":9600,"station_id":"st_d6im8g6chgec73a5pndg","pricing_plan_id":"cebpf4jnsgd1na2vs0mg"},{"bike_id":"f7dfc745-d667-4d44-b7e7-a953b16da362","system_id":"levelo_inurba_marseille","lat":43.24165,"lon":5.36418,"is_reserved":false,"is_disabled":false,"rental_uris":{"android":"levelo://app?vid=f7dfc745-d667-4d44-b7e7-a953b16da362","ios":"levelo://app?vid=f7dfc745-d667-4d44-b7e7-a953b16da362"},"vehicle_type_id":"4","last_reported":1778837814,"current_range_meters":9600,"station_id":"cpo36qri1sfpv3e86is0","pricing_plan_id":"cebpf4jnsgd1na2vs0mg"},{"bike_id":"24f270e3-6a33-4c20-91d1-50cadf27be12","system_id":"levelo_inurba_marseille","lat":43.2653,"lon":5.37311,"is_reserved":false,"is_disabled":false,"rental_uris":{"android":"levelo://app?vid=24f270e3-6a33-4c20-91d1-50cadf27be12","ios":"levelo://app?vid=24f270e3-6a33-4c20-91d1-50cadf27be12"},"vehicle_type_id":"4","last_reported":1778837814,"current_range_meters":9600,"station_id":"ce4bhg12rcd13ifvqf70","pricing_plan_id":"cebpf4jnsgd1na2vs0mg"},{"bike_id":"bfd11179-4fd5-4554-adf0-a80a1fbdd46b","system_id":"levelo_inurba_marseille","lat":43.23908,"lon":5.37448,"is_reserved":false,"is_disabled":true,"rental_uris":{"android":"levelo://app?vid=bfd11179-4fd5-4554-adf0-a80a1fbdd46b","ios":"levelo://app?vid=bfd11179-4fd5-4554-adf0-a80a1fbdd46b"},"vehicle_type_id":"4","last_reported":1778837814,"current_range_meters":9600,"station_id":"st_d6sm7csbq4hs73f8fpjg","pricing_plan_id":"cebpf4jnsgd1na2vs0mg"},{"bike_id":"4317bcc5-f02f-4560-9706-2ad76d92adf0","system_id":"levelo_inurba_marseille","lat":43.29746,"lon":5.3768,"is_reserved":false,"is_disabled":false,"rental_uris":{"android":"levelo://app?vid=4317bcc5-f02f-4560-9706-2ad76d92adf0","ios":"levelo://app?vid=4317bcc5-f02f-4560-9706-2ad76d92adf0"},"vehicle_type_id":"4","last_reported":1778837814,"current_range_meters":9600,"station_id":"ce4bgkh2rcd13ifvqbl0","pricing_plan_id":"cebpf4jnsgd1na2vs0mg"},{"bike_id":"22821d03-9a9a-4a93-855b-675be2e2cc53","system_id":"levelo_inurba_marseille","lat":43.26059,"lon":5.37547,"is_reserved":false,"is_disabled":false,"rental_uris":{"android":"levelo://app?vid=22821d03-9a9a-4a93-855b-675be2e2cc53","ios":"levelo://app?vid=22821d03-9a9a-4a93-855b-675be2e2cc53"},"vehicle_type_id":"4","last_reported":1778837814,"current_range_meters":9600,"station_id":"ce4bhgh2rcd13ifvqfa0","pricing_plan_id":"cebpf4jnsgd1na2vs0mg"},{"bike_id":"dfd68af3-72fc-44e8-bf65-e79ba86f7484","system_id":"levelo_inurba_marseille","lat":43.28405,"lon":5.37516,"is_reserved":false,"is_disabled":false,"rental_uris":{"android":"levelo://app?vid=dfd68af3-72fc-44e8-bf65-e79ba86f7484","ios":"levelo://app?vid=dfd68af3-72fc-44e8-bf65-e79ba86f7484"},"vehicle_type_id":"4","last_reported":1778837814,"current_range_meters":9600,"station_id":"ce4bh412rcd13ifvqds0","pricing_plan_id":"cebpf4jnsgd1na2vs0mg"},{"bike_id":"e0e7175a-ff35-41e3-a2cc-efe2d4f94384","system_id":"levelo_inurba_marseille","lat":43.26203,"lon":5.37434,"is_reserved":false,"is_disabled":false,"rental_uris":{"android":"levelo://app?vid=e0e7175a-ff35-41e3-a2cc-efe2d4f94384","ios":"levelo://app?vid=e0e7175a-ff35-41e3-a2cc-efe2d4f94384"},"vehicle_type_id":"4","last_reported":1778837814,"current_range_meters":9600,"station_id":"ce4bhgp2rcd13ifvqfc0","pricing_plan_id":"cebpf4jnsgd1na2vs0mg"},{"bike_id":"d773df71-430d-420d-b0c5-ebb43f708dc9","system_id":"levelo_inurba_marseille","lat":43.32487,"lon":5.38261,"is_reserved":false,"is_disabled":false,"rental_uris":{"android":"levelo://app?vid=d773df71-430d-420d-b0c5-ebb43f708dc9","ios":"levelo://app?vid=d773df71-430d-420d-b0c5-ebb43f708dc9"},"vehicle_type_id":"4","last_reported":1778837814,"current_range_meters":9600,"station_id":"st_d4asgbiv49dc73anf9m0","pricing_plan_id":"cebpf4jnsgd1na2vs0mg"},{"bike_id":"d99de872-07d2-419e-8f9f-ccc076cbff44","system_id":"levelo_inurba_marseille","lat":43.29504,"lon":5.37568,"is_reserved":false,"is_disabled":false,"rental_uris":{"android":"levelo://app?vid=d99de872-07d2-419e-8f9f-ccc076cbff44","ios":"levelo://app?vid=d99de872-07d2-419e-8f9f-ccc076cbff44"},"vehicle_type_id":"4","last_reported":1778837814,"current_range_meters":9600,"station_id":"","pricing_plan_id":"cebpf4jnsgd1na2vs0mg"},{"bike_id":"d73b29aa-4c6e-4a2d-96e7-6cb7201818f5","system_id":"levelo_inurba_marseille","lat":43.33549,"lon":5.37462,"is_reserved":false,"is_disabled":false,"rental_uris":{"android":"levelo://app?vid=d73b29aa-4c6e-4a2d-96e7-6cb7201818f5","ios":"levelo://app?vid=d73b29aa-4c6e-4a2d-96e7-6cb7201818f5"},"vehicle_type_id":"4","last_reported":1778837814,"current_range_meters":9600,"station_id":"st_d46tts09ee8s73dlu43g","pricing_plan_id":"cebpf4jnsgd1na2vs0mg"},{"bike_id":"ad0c2d80-dc3f-4b68-a850-c13a1207fc48","system_id":"levelo_inurba_marseille","lat":43.30753,"lon":5.39364,"is_reserved":false,"is_disabled":false,"rental_uris":{"android":"levelo://app?vid=ad0c2d80-dc3f-4b68-a850-c13a1207fc48","ios":"levelo://app?vid=ad0c2d80-dc3f-4b68-a850-c13a1207fc48"},"vehicle_type_id":"4","last_reported":1778837814,"current_range_meters":9600,"station_id":"","pricing_plan_id":"cebpf4jnsgd1na2vs0mg"},{"bike_id":"04459aba-1735-4bef-8acc-fa4c0327a66e","system_id":"levelo_inurba_marseille","lat":43.31753,"lon":5.39025,"is_reserved":false,"is_disabled":false,"rental_uris":{"android":"levelo://app?vid=04459aba-1735-4bef-8acc-fa4c0327a66e","ios":"levelo://app?vid=04459aba-1735-4bef-8acc-fa4c0327a66e"},"vehicle_type_id":"4","last_reported":1778837814,"current_range_meters":9600,"station_id":"ce4bhqp2rcd13ifvqhng","pricing_plan_id":"cebpf4jnsgd1na2vs0mg"},{"bike_id":"14dd5302-4f2d-4d64-a78b-c9fc3ca12ebd","system_id":"levelo_inurba_marseille","lat":43.24387,"lon":5.37041,"is_reserved":false,"is_disabled":false,"rental_uris":{"android":"levelo://app?vid=14dd5302-4f2d-4d64-a78b-c9fc3ca12ebd","ios":"levelo://app?vid=14dd5302-4f2d-4d64-a78b-c9fc3ca12ebd"},"vehicle_type_id":"4","last_reported":1778837814,"current_range_meters":9600,"station_id":"ce4bhhh2rcd13ifvqfk0","pricing_plan_id":"cebpf4jnsgd1na2vs0mg"},{"bike_id":"bc7bd5ff-8b3e-4811-8590-c45182048463","system_id":"levelo_inurba_marseille","lat":43.21717,"lon":5.34611,"is_reserved":false,"is_disabled":false,"rental_uris":{"android":"levelo://app?vid=bc7bd5ff-8b3e-4811-8590-c45182048463","ios":"levelo://app?vid=bc7bd5ff-8b3e-4811-8590-c45182048463"},"vehicle_type_id":"4","last_reported":1778837814,"current_range_meters":9600,"station_id":"st_cvj6r9ubvosntc0bgbag","pricing_plan_id":"cebpf4jnsgd1na2vs0mg"},{"bike_id":"42779844-0336-4bec-91a7-ebe8a8a3b3bf","system_id":"levelo_inurba_marseille","lat":43.29986,"lon":5.3672,"is_reserved":false,"is_disabled":false,"rental_uris":{"android":"levelo://app?vid=42779844-0336-4bec-91a7-ebe8a8a3b3bf","ios":"levelo://app?vid=42779844-0336-4bec-91a7-ebe8a8a3b3bf"},"vehicle_type_id":"4","last_reported":1778837814,"current_range_meters":9600,"station_id":"","pricing_plan_id":"cebpf4jnsgd1na2vs0mg"},{"bike_id":"33a37efd-6d74-4429-8f7f-dcfcbbbf92c5","system_id":"levelo_inurba_marseille","lat":43.3245,"lon":5.37461,"is_reserved":false,"is_disabled":false,"rental_uris":{"android":"levelo://app?vid=33a37efd-6d74-4429-8f7f-dcfcbbbf92c5","ios":"levelo://app?vid=33a37efd-6d74-4429-8f7f-dcfcbbbf92c5"},"vehicle_type_id":"4","last_reported":1778837814,"current_range_meters":9600,"station_id":"","pricing_plan_id":"cebpf4jnsgd1na2vs0mg"},{"bike_id":"3540b8b0-d18f-4664-8623-5b151a0918c6","system_id":"levelo_inurba_marseille","lat":43.298,"lon":5.38102,"is_reserved":false,"is_disabled":false,"rental_uris":{"android":"levelo://app?vid=3540b8b0-d18f-4664-8623-5b151a0918c6","ios":"levelo://app?vid=3540b8b0-d18f-4664-8623-5b151a0918c6"},"vehicle_type_id":"4","last_reported":1778837814,"current_range_meters":9600,"station_id":"ce4bgip2rcd13ifvqbb0","pricing_plan_id":"cebpf4jnsgd1na2vs0mg"},{"bike_id":"74d7b4e4-6a5e-436e-8a35-b6f635725567","system_id":"levelo_inurba_marseille","lat":43.29905,"lon":5.42097,"is_reserved":false,"is_disabled":false,"rental_uris":{"android":"levelo://app?vid=74d7b4e4-6a5e-436e-8a35-b6f635725567","ios":"levelo://app?vid=74d7b4e4-6a5e-436e-8a35-b6f635725567"},"vehicle_type_id":"4","last_reported":1778837814,"current_range_meters":10000,"station_id":"st_d6tc004otcvc738tfe70","pricing_plan_id":"cebpf4jnsgd1na2vs0mg"},{"bike_id":"7688d36e-d295-4cfe-b88c-e7a9915c650f","system_id":"levelo_inurba_marseille","lat":43.29722,"lon":5.36572,"is_reserved":false,"is_disabled":false,"rental_uris":{"android":"levelo://app?vid=7688d36e-d295-4cfe-b88c-e7a9915c650f","ios":"levelo://app?vid=7688d36e-d295-4cfe-b88c-e7a9915c650f"},"vehicle_type_id":"4","last_reported":1778837814,"current_range_meters":10000,"station_id":"ce4bgn12rcd13ifvqbt0","pricing_plan_id":"cebpf4jnsgd1na2vs0mg"},{"bike_id":"cdc82f72-dfeb-45b4-8228-4c5fe8513458","system_id":"levelo_inurba_marseille","lat":43.24836,"lon":5.3743,"is_reserved":false,"is_disabled":false,"rental_uris":{"android":"levelo://app?vid=cdc82f72-dfeb-45b4-8228-4c5fe8513458","ios":"levelo://app?vid=cdc82f72-dfeb-45b4-8228-4c5fe8513458"},"vehicle_type_id":"4","last_reported":1778837814,"current_range_meters":10000,"station_id":"","pricing_plan_id":"cebpf4jnsgd1na2vs0mg"},{"bike_id":"8470cd27-3877-483d-b11f-17473fb9a6cc","system_id":"levelo_inurba_marseille","lat":43.30774,"lon":5.38522,"is_reserved":false,"is_disabled":false,"rental_uris":{"android":"levelo://app?vid=8470cd27-3877-483d-b11f-17473fb9a6cc","ios":"levelo://app?vid=8470cd27-3877-483d-b11f-17473fb9a6cc"},"vehicle_type_id":"4","last_reported":1778837814,"current_range_meters":10000,"station_id":"","pricing_plan_id":"cebpf4jnsgd1na2vs0mg"},{"bike_id":"2f10ac9c-be5e-4086-bf95-596b2364fb83","system_id":"levelo_inurba_marseille","lat":43.2621,"lon":5.3744,"is_reserved":false,"is_disabled":false,"rental_uris":{"android":"levelo://app?vid=2f10ac9c-be5e-4086-bf95-596b2364fb83","ios":"levelo://app?vid=2f10ac9c-be5e-4086-bf95-596b2364fb83"},"vehicle_type_id":"4","last_reported":1778837814,"current_range_meters":10000,"station_id":"ce4bhgp2rcd13ifvqfc0","pricing_plan_id":"cebpf4jnsgd1na2vs0mg"},{"bike_id":"a6bb7888-91bb-40cd-b9fa-60fb8864c270","system_id":"levelo_inurba_marseille","lat":43.28487,"lon":5.38413,"is_reserved":false,"is_disabled":false,"rental_uris":{"android":"levelo://app?vid=a6bb7888-91bb-40cd-b9fa-60fb8864c270","ios":"levelo://app?vid=a6bb7888-91bb-40cd-b9fa-60fb8864c270"},"vehicle_type_id":"4","last_reported":1778837814,"current_range_meters":10000,"station_id":"ce4bh512rcd13ifvqe3g","pricing_plan_id":"cebpf4jnsgd1na2vs0mg"},{"bike_id":"7516c7be-19ff-4315-98c4-9366c802d4a2","system_id":"levelo_inurba_marseille","lat":43.26563,"lon":5.39017,"is_reserved":false,"is_disabled":true,"rental_uris":{"android":"levelo://app?vid=7516c7be-19ff-4315-98c4-9366c802d4a2","ios":"levelo://app?vid=7516c7be-19ff-4315-98c4-9366c802d4a2"},"vehicle_type_id":"4","last_reported":1778837814,"current_range_meters":10000,"station_id":"ce4bhe12rcd13ifvqf30","pricing_plan_id":"cebpf4jnsgd1na2vs0mg"},{"bike_id":"3ab36f64-e4e8-410f-ae94-39e3960a7b16","system_id":"levelo_inurba_marseille","lat":43.27569,"lon":5.38382,"is_reserved":false,"is_disabled":false,"rental_uris":{"android":"levelo://app?vid=3ab36f64-e4e8-410f-ae94-39e3960a7b16","ios":"levelo://app?vid=3ab36f64-e4e8-410f-ae94-39e3960a7b16"},"vehicle_type_id":"4","last_reported":1778837814,"current_range_meters":10000,"station_id":"ce4bhh92rcd13ifvqfi0","pricing_plan_id":"cebpf4jnsgd1na2vs0mg"},{"bike_id":"5310be46-282c-4e08-8b14-738313140dae","system_id":"levelo_inurba_marseille","lat":43.26225,"lon":5.38762,"is_reserved":false,"is_disabled":false,"rental_uris":{"android":"levelo://app?vid=5310be46-282c-4e08-8b14-738313140dae","ios":"levelo://app?vid=5310be46-282c-4e08-8b14-738313140dae"},"vehicle_type_id":"4","last_reported":1778837814,"current_range_meters":10000,"station_id":"","pricing_plan_id":"cebpf4jnsgd1na2vs0mg"},{"bike_id":"e1a86b9d-3f1e-40bb-b3c7-f9db62ca3664","system_id":"levelo_inurba_marseille","lat":43.28704,"lon":5.46674,"is_reserved":false,"is_disabled":false,"rental_uris":{"android":"levelo://app?vid=e1a86b9d-3f1e-40bb-b3c7-f9db62ca3664","ios":"levelo://app?vid=e1a86b9d-3f1e-40bb-b3c7-f9db62ca3664"},"vehicle_type_id":"4","last_reported":1778837814,"current_range_meters":10000,"station_id":"st_d6tc3vkotcvc738tfjhg","pricing_plan_id":"cebpf4jnsgd1na2vs0mg"},{"bike_id":"33442761-731d-4135-9445-c95619738b79","system_id":"levelo_inurba_marseille","lat":43.33539,"lon":5.37461,"is_reserved":false,"is_disabled":false,"rental_uris":{"android":"levelo://app?vid=33442761-731d-4135-9445-c95619738b79","ios":"levelo://app?vid=33442761-731d-4135-9445-c95619738b79"},"vehicle_type_id":"4","last_reported":1778837814,"current_range_meters":10000,"station_id":"st_d46tts09ee8s73dlu43g","pricing_plan_id":"cebpf4jnsgd1na2vs0mg"},{"bike_id":"e5abcdbb-f480-479b-b3f2-4934b2359228","system_id":"levelo_inurba_marseille","lat":43.31928,"lon":5.368,"is_reserved":false,"is_disabled":false,"rental_uris":{"android":"levelo://app?vid=e5abcdbb-f480-479b-b3f2-4934b2359228","ios":"levelo://app?vid=e5abcdbb-f480-479b-b3f2-4934b2359228"},"vehicle_type_id":"4","last_reported":1778837814,"current_range_meters":10000,"station_id":"st_d6o2h0d0559c73evc1b0","pricing_plan_id":"cebpf4jnsgd1na2vs0mg"},{"bike_id":"5a6fda31-336c-47f4-af34-9a30da250216","system_id":"levelo_inurba_marseille","lat":43.26085,"lon":5.39366,"is_reserved":false,"is_disabled":false,"rental_uris":{"android":"levelo://app?vid=5a6fda31-336c-47f4-af34-9a30da250216","ios":"levelo://app?vid=5a6fda31-336c-47f4-af34-9a30da250216"},"vehicle_type_id":"4","last_reported":1778837814,"current_range_meters":10000,"station_id":"ce4bhh92rcd13ifvqfj0","pricing_plan_id":"cebpf4jnsgd1na2vs0mg"},{"bike_id":"b1435665-e816-46e2-a198-668cdfb5717a","system_id":"levelo_inurba_marseille","lat":43.29371,"lon":5.37825,"is_reserved":false,"is_disabled":false,"rental_uris":{"android":"levelo://app?vid=b1435665-e816-46e2-a198-668cdfb5717a","ios":"levelo://app?vid=b1435665-e816-46e2-a198-668cdfb5717a"},"vehicle_type_id":"4","last_reported":1778837814,"current_range_meters":10000,"station_id":"ce4bgjh2rcd13ifvqbf0","pricing_plan_id":"cebpf4jnsgd1na2vs0mg"},{"bike_id":"8c7bf64a-bedb-4780-8d54-f5363f10efb4","system_id":"levelo_inurba_marseille","lat":43.23893,"lon":5.37441,"is_reserved":false,"is_disabled":false,"rental_uris":{"android":"levelo://app?vid=8c7bf64a-bedb-4780-8d54-f5363f10efb4","ios":"levelo://app?vid=8c7bf64a-bedb-4780-8d54-f5363f10efb4"},"vehicle_type_id":"4","last_reported":1778837814,"current_range_meters":10000,"station_id":"st_d6sm7csbq4hs73f8fpjg","pricing_plan_id":"cebpf4jnsgd1na2vs0mg"},{"bike_id":"9f2e56cd-7f03-4cb1-8829-47ea6c5266c5","system_id":"levelo_inurba_marseille","lat":43.28663,"lon":5.38729,"is_reserved":false,"is_disabled":false,"rental_uris":{"android":"levelo://app?vid=9f2e56cd-7f03-4cb1-8829-47ea6c5266c5","ios":"levelo://app?vid=9f2e56cd-7f03-4cb1-8829-47ea6c5266c5"},"vehicle_type_id":"4","last_reported":1778837814,"current_range_meters":10000,"station_id":"ce4bh492rcd13ifvqdug","pricing_plan_id":"cebpf4jnsgd1na2vs0mg"},{"bike_id":"7f76950a-8145-4e50-a23d-149cffd9c8e0","system_id":"levelo_inurba_marseille","lat":43.308,"lon":5.38167,"is_reserved":false,"is_disabled":false,"rental_uris":{"android":"levelo://app?vid=7f76950a-8145-4e50-a23d-149cffd9c8e0","ios":"levelo://app?vid=7f76950a-8145-4e50-a23d-149cffd9c8e0"},"vehicle_type_id":"4","last_reported":1778837814,"current_range_meters":10000,"station_id":"ce4bgt12rcd13ifvqce0","pricing_plan_id":"cebpf4jnsgd1na2vs0mg"},{"bike_id":"3c7d3f14-a964-41d8-a1ab-8b10e9d6bf63","system_id":"levelo_inurba_marseille","lat":43.3253,"lon":5.41455,"is_reserved":false,"is_disabled":false,"rental_uris":{"android":"levelo://app?vid=3c7d3f14-a964-41d8-a1ab-8b10e9d6bf63","ios":"levelo://app?vid=3c7d3f14-a964-41d8-a1ab-8b10e9d6bf63"},"vehicle_type_id":"4","last_reported":1778837814,"current_range_meters":10000,"station_id":"ce4bhq12rcd13ifvqhhg","pricing_plan_id":"cebpf4jnsgd1na2vs0mg"},{"bike_id":"51167915-6efa-401b-9c71-c6d60e6593da","system_id":"levelo_inurba_marseille","lat":43.30337,"lon":5.37899,"is_reserved":false,"is_disabled":false,"rental_uris":{"android":"levelo://app?vid=51167915-6efa-401b-9c71-c6d60e6593da","ios":"levelo://app?vid=51167915-6efa-401b-9c71-c6d60e6593da"},"vehicle_type_id":"4","last_reported":1778837814,"current_range_meters":10800,"station_id":"","pricing_plan_id":"cebpf4jnsgd1na2vs0mg"},{"bike_id":"fece6ae8-f6fa-4db2-8964-3048bdb0f064","system_id":"levelo_inurba_marseille","lat":43.309484,"lon":5.390285,"is_reserved":false,"is_disabled":false,"rental_uris":{"android":"levelo://app?vid=fece6ae8-f6fa-4db2-8964-3048bdb0f064","ios":"levelo://app?vid=fece6ae8-f6fa-4db2-8964-3048bdb0f064"},"vehicle_type_id":"4","last_reported":1778837814,"current_range_meters":10800,"station_id":"ce4bgup2rcd13ifvqco0","pricing_plan_id":"cebpf4jnsgd1na2vs0mg"},{"bike_id":"79d71523-a99c-4bd1-91c9-5f0ac0019f7e","system_id":"levelo_inurba_marseille","lat":43.33635,"lon":5.36289,"is_reserved":false,"is_disabled":false,"rental_uris":{"android":"levelo://app?vid=79d71523-a99c-4bd1-91c9-5f0ac0019f7e","ios":"levelo://app?vid=79d71523-a99c-4bd1-91c9-5f0ac0019f7e"},"vehicle_type_id":"4","last_reported":1778837814,"current_range_meters":10800,"station_id":"","pricing_plan_id":"cebpf4jnsgd1na2vs0mg"},{"bike_id":"1694672b-0a25-4c76-81b3-574487bdfda5","system_id":"levelo_inurba_marseille","lat":43.2815,"lon":5.4265,"is_reserved":false,"is_disabled":false,"rental_uris":{"android":"levelo://app?vid=1694672b-0a25-4c76-81b3-574487bdfda5","ios":"levelo://app?vid=1694672b-0a25-4c76-81b3-574487bdfda5"},"vehicle_type_id":"4","last_reported":1778837814,"current_range_meters":10800,"station_id":"ce4bhnh2rcd13ifvqgug","pricing_plan_id":"cebpf4jnsgd1na2vs0mg"},{"bike_id":"e7727770-80fd-4cca-b640-ae13d67eb001","system_id":"levelo_inurba_marseille","lat":43.25514,"lon":5.37663,"is_reserved":false,"is_disabled":false,"rental_uris":{"android":"levelo://app?vid=e7727770-80fd-4cca-b640-ae13d67eb001","ios":"levelo://app?vid=e7727770-80fd-4cca-b640-ae13d67eb001"},"vehicle_type_id":"4","last_reported":1778837814,"current_range_meters":10800,"station_id":"ce4bhh12rcd13ifvqff0","pricing_plan_id":"cebpf4jnsgd1na2vs0mg"},{"bike_id":"51d9c8ff-2303-47e0-aec7-ee05d77d996a","system_id":"levelo_inurba_marseille","lat":43.27642,"lon":5.41388,"is_reserved":false,"is_disabled":false,"rental_uris":{"android":"levelo://app?vid=51d9c8ff-2303-47e0-aec7-ee05d77d996a","ios":"levelo://app?vid=51d9c8ff-2303-47e0-aec7-ee05d77d996a"},"vehicle_type_id":"4","last_reported":1778837814,"current_range_meters":10800,"station_id":"","pricing_plan_id":"cebpf4jnsgd1na2vs0mg"},{"bike_id":"b8742b7d-b47c-45b6-a5fb-f9a703c6802f","system_id":"levelo_inurba_marseille","lat":43.33561,"lon":5.37459,"is_reserved":false,"is_disabled":false,"rental_uris":{"android":"levelo://app?vid=b8742b7d-b47c-45b6-a5fb-f9a703c6802f","ios":"levelo://app?vid=b8742b7d-b47c-45b6-a5fb-f9a703c6802f"},"vehicle_type_id":"4","last_reported":1778837814,"current_range_meters":10800,"station_id":"st_d46tts09ee8s73dlu43g","pricing_plan_id":"cebpf4jnsgd1na2vs0mg"},