{"last_updated":1752174481,"ttl":60,"version":"2.2","data":{"bikes":[{"bike_id":"cd20cfea-2f2f-444d-a882-a49b6cf370eb","system_id":"levelo_inurba_marseille","lat":43.337444,"lon":5.374475,"is_reserved":false,"is_disabled":true,"rental_uris":{"android":"levelo://app?vid=cd20cfea-2f2f-444d-a882-a49b6cf370eb","ios":"levelo://app?vid=cd20cfea-2f2f-444d-a882-a49b6cf370eb"},"vehicle_type_id":"4","last_reported":1752174481,"current_range_meters":0,"station_id":"","pricing_plan_id":"cebpf4jnsgd1na2vs0mg"},{"bike_id":"3da29fb8-fc97-44c6-b9ac-31dd456b2fd4","system_id":"levelo_inurba_marseille","lat":43.33771,"lon":5.37424,"is_reserved":false,"is_disabled":true,"rental_uris":{"android":"levelo://app?vid=3da29fb8-fc97-44c6-b9ac-31dd456b2fd4","ios":"levelo://app?vid=3da29fb8-fc97-44c6-b9ac-31dd456b2fd4"},"vehicle_type_id":"4","last_reported":1752174481,"current_range_meters":0,"station_id":"","pricing_plan_id":"cebpf4jnsgd1na2vs0mg"},{"bike_id":"01861ad8-a8d7-4be6-816e-651927c87584","system_id":"levelo_inurba_marseille","lat":43.33751,"lon":5.37456,"is_reserved":false,"is_disabled":true,"rental_uris":{"android":"levelo://app?vid=01861ad8-a8d7-4be6-816e-651927c87584","ios":"levelo://app?vid=01861ad8-a8d7-4be6-816e-651927c87584"},"vehicle_type_id":"4","last_reported":1752174481,"current_range_meters":0,"station_id":"","pricing_plan_id":"cebpf4jnsgd1na2vs0mg"},{"bike_id":"37f2becd-23f9-4f13-a711-38b8024eeec7","system_id":"levelo_inurba_marseille","lat":43.33768,"lon":5.37516,"is_reserved":false,"is_disabled":true,"rental_uris":{"android":"levelo://app?vid=37f2becd-23f9-4f13-a711-38b8024eeec7","ios":"levelo://app?vid=37f2becd-23f9-4f13-a711-38b8024eeec7"},"vehicle_type_id":"4","last_reported":1752174481,"current_range_meters":0,"station_id":"","pricing_plan_id":"cebpf4jnsgd1na2vs0mg"},{"bike_id":"9a852270-0fab-4d54-a5c6-b47407a13a84","system_id":"levelo_inurba_marseille","lat":43.30297,"lon":5.39206,"is_reserved":false,"is_disabled":true,"rental_uris":{"android":"levelo://app?vid=9a852270-0fab-4d54-a5c6-b47407a13a84","ios":"levelo://app?vid=9a852270-0fab-4d54-a5c6-b47407a13a84"},"vehicle_type_id":"4","last_reported":1752174481,"current_range_meters":0,"station_id":"ce4bgkh2rcd13ifvqbk0","pricing_plan_id":"cebpf4jnsgd1na2vs0mg"},{"bike_id":"8b1d043b-2f99-4426-8919-5b70615e8f02","system_id":"levelo_inurba_marseille","lat":43.30189,"lon":5.36599,"is_reserved":false,"is_disabled":true,"rental_uris":{"android":"levelo://app?vid=8b1d043b-2f99-4426-8919-5b70615e8f02","ios":"levelo://app?vid=8b1d043b-2f99-4426-8919-5b70615e8f02"},"vehicle_type_id":"4","last_reported":1752174481,"current_range_meters":0,"station_id":"ce4bgrh2rcd13ifvqc8g","pricing_plan_id":"cebpf4jnsgd1na2vs0mg"},{"bike_id":"b1355d02-ab92-4802-841a-416a2052734a","system_id":"levelo_inurba_marseille","lat":43.26202,"lon":5.37472,"is_reserved":false,"is_disabled":true,"rental_uris":{"android":"levelo://app?vid=b1355d02-ab92-4802-841a-416a2052734a","ios":"levelo://app?vid=b1355d02-ab92-4802-841a-416a2052734a"},"vehicle_type_id":"4","last_reported":1752174481,"current_range_meters":0,"station_id":"ce4bhgp2rcd13ifvqfc0","pricing_plan_id":"cebpf4jnsgd1na2vs0mg"},{"bike_id":"fd253d23-20da-405b-9198-c84d57bedb11","system_id":"levelo_inurba_marseille","lat":43.26203,"lon":5.37933,"is_reserved":false,"is_disabled":true,"rental_uris":{"android":"levelo://app?vid=fd253d23-20da-405b-9198-c84d57bedb11","ios":"levelo://app?vid=fd253d23-20da-405b-9198-c84d57bedb11"},"vehicle_type_id":"4","last_reported":1752174481,"current_range_meters":0,"station_id":"ce4bhjp2rcd13ifvqg90","pricing_plan_id":"cebpf4jnsgd1na2vs0mg"},{"bike_id":"cb6dc15e-db5c-4417-b117-e08b13af5724","system_id":"levelo_inurba_marseille","lat":43.2781,"lon":5.40704,"is_reserved":false,"is_disabled":true,"rental_uris":{"android":"levelo://app?vid=cb6dc15e-db5c-4417-b117-e08b13af5724","ios":"levelo://app?vid=cb6dc15e-db5c-4417-b117-e08b13af5724"},"vehicle_type_id":"4","last_reported":1752174481,"current_range_meters":0,"station_id":"ce4bhnh2rcd13ifvqgtg","pricing_plan_id":"cebpf4jnsgd1na2vs0mg"},{"bike_id":"50d29d87-be07-4be0-8b6b-4da41d4d3fab","system_id":"levelo_inurba_marseille","lat":43.310908,"lon":5.424259,"is_reserved":false,"is_disabled":true,"rental_uris":{"android":"levelo://app?vid=50d29d87-be07-4be0-8b6b-4da41d4d3fab","ios":"levelo://app?vid=50d29d87-be07-4be0-8b6b-4da41d4d3fab"},"vehicle_type_id":"4","last_reported":1752174481,"current_range_meters":0,"station_id":"ce4bhp92rcd13ifvqhag","pricing_plan_id":"cebpf4jnsgd1na2vs0mg"},{"bike_id":"f8055bd1-c1e5-4907-8744-a735299e7daa","system_id":"levelo_inurba_marseille","lat":43.29845,"lon":5.36277,"is_reserved":false,"is_disabled":true,"rental_uris":{"android":"levelo://app?vid=f8055bd1-c1e5-4907-8744-a735299e7daa","ios":"levelo://app?vid=f8055bd1-c1e5-4907-8744-a735299e7daa"},"vehicle_type_id":"4","last_reported":1752174481,"current_range_meters":400,"station_id":"ce4bgpp2rcd13ifvqc3g","pricing_plan_id":"cebpf4jnsgd1na2vs0mg"},{"bike_id":"355a17f6-27ea-42d8-9955-347b50e7f0e8","system_id":"levelo_inurba_marseille","lat":43.25506,"lon":5.37639,"is_reserved":false,"is_disabled":true,"rental_uris":{"android":"levelo://app?vid=355a17f6-27ea-42d8-9955-347b50e7f0e8","ios":"levelo://app?vid=355a17f6-27ea-42d8-9955-347b50e7f0e8"},"vehicle_type_id":"4","last_reported":1752174481,"current_range_meters":800,"station_id":"ce4bhh12rcd13ifvqff0","pricing_plan_id":"cebpf4jnsgd1na2vs0mg"},{"bike_id":"fe557580-7d40-428c-bab9-732dac0da7f1","system_id":"levelo_inurba_marseille","lat":43.21185,"lon":5.35008,"is_reserved":false,"is_disabled":true,"rental_uris":{"android":"levelo://app?vid=fe557580-7d40-428c-bab9-732dac0da7f1","ios":"levelo://app?vid=fe557580-7d40-428c-bab9-732dac0da7f1"},"vehicle_type_id":"4","last_reported":1752174481,"current_range_meters":1200,"station_id":"","pricing_plan_id":"cebpf4jnsgd1na2vs0mg"},{"bike_id":"888522e3-39b6-4ff3-ad74-ff6c6f771157","system_id":"levelo_inurba_marseille","lat":43.29492,"lon":5.40259,"is_reserved":false,"is_disabled":true,"rental_uris":{"android":"levelo://app?vid=888522e3-39b6-4ff3-ad74-ff6c6f771157","ios":"levelo://app?vid=888522e3-39b6-4ff3-ad74-ff6c6f771157"},"vehicle_type_id":"4","last_reported":1752174481,"current_range_meters":1200,"station_id":"","pricing_plan_id":"cebpf4jnsgd1na2vs0mg"},{"bike_id":"667e806d-9d21-459e-9a43-3abed7d274da","system_id":"levelo_inurba_marseille","lat":43.2892,"lon":5.3841,"is_reserved":false,"is_disabled":true,"rental_uris":{"android":"levelo://app?vid=667e806d-9d21-459e-9a43-3abed7d274da","ios":"levelo://app?vid=667e806d-9d21-459e-9a43-3abed7d274da"},"vehicle_type_id":"4","last_reported":1752174481,"current_range_meters":1200,"station_id":"ce4bh612rcd13ifvqe6g","pricing_plan_id":"cebpf4jnsgd1na2vs0mg"},{"bike_id":"b48615ab-573c-41fb-ae0f-2f1ff969e9d2","system_id":"levelo_inurba_marseille","lat":43.26209,"lon":5.37444,"is_reserved":false,"is_disabled":true,"rental_uris":{"android":"levelo://app?vid=b48615ab-573c-41fb-ae0f-2f1ff969e9d2","ios":"levelo://app?vid=b48615ab-573c-41fb-ae0f-2f1ff969e9d2"},"vehicle_type_id":"4","last_reported":1752174481,"current_range_meters":1200,"station_id":"ce4bhgp2rcd13ifvqfc0","pricing_plan_id":"cebpf4jnsgd1na2vs0mg"},{"bike_id":"71c2991d-4c93-4a58-bda8-499f8e187abd","system_id":"levelo_inurba_marseille","lat":43.282638,"lon":5.350618,"is_reserved":false,"is_disabled":true,"rental_uris":{"android":"levelo://app?vid=71c2991d-4c93-4a58-bda8-499f8e187abd","ios":"levelo://app?vid=71c2991d-4c93-4a58-bda8-499f8e187abd"},"vehicle_type_id":"4","last_reported":1752174481,"current_range_meters":2000,"station_id":"","pricing_plan_id":"cebpf4jnsgd1na2vs0mg"},{"bike_id":"7fc4c279-533d-4354-9b82-7a4075e421d4","system_id":"levelo_inurba_marseille","lat":43.26232,"lon":5.40449,"is_reserved":false,"is_disabled":false,"rental_uris":{"android":"levelo://app?vid=7fc4c279-533d-4354-9b82-7a4075e421d4","ios":"levelo://app?vid=7fc4c279-533d-4354-9b82-7a4075e421d4"},"vehicle_type_id":"4","last_reported":1752174481,"current_range_meters":2800,"station_id":"ce4bhmh2rcd13ifvqgmg","pricing_plan_id":"cebpf4jnsgd1na2vs0mg"},{"bike_id":"5fa92df5-3744-405c-89c7-4a30f522e77b","system_id":"levelo_inurba_marseille","lat":43.32336,"lon":5.40625,"is_reserved":false,"is_disabled":false,"rental_uris":{"android":"levelo://app?vid=5fa92df5-3744-405c-89c7-4a30f522e77b","ios":"levelo://app?vid=5fa92df5-3744-405c-89c7-4a30f522e77b"},"vehicle_type_id":"4","last_reported":1752174481,"current_range_meters":2800,"station_id":"ce4bhq92rcd13ifvqhjg","pricing_plan_id":"cebpf4jnsgd1na2vs0mg"},{"bike_id":"328a2126-c338-484d-b0b2-85a381405780","system_id":"levelo_inurba_marseille","lat":43.31067,"lon":5.38349,"is_reserved":false,"is_disabled":false,"rental_uris":{"android":"levelo://app?vid=328a2126-c338-484d-b0b2-85a381405780","ios":"levelo://app?vid=328a2126-c338-484d-b0b2-85a381405780"},"vehicle_type_id":"4","last_reported":1752174481,"current_range_meters":3200,"station_id":"ce4bgv92rcd13ifvqcr0","pricing_plan_id":"cebpf4jnsgd1na2vs0mg"},{"bike_id":"e6fe6f8f-47e9-44f8-ae85-05cb2cef1410","system_id":"levelo_inurba_marseille","lat":43.27839,"lon":5.39214,"is_reserved":false,"is_disabled":false,"rental_uris":{"android":"levelo://app?vid=e6fe6f8f-47e9-44f8-ae85-05cb2cef1410","ios":"levelo://app?vid=e6fe6f8f-47e9-44f8-ae85-05cb2cef1410"},"vehicle_type_id":"4","last_reported":1752174481,"current_range_meters":3200,"station_id":"ce4bhjp2rcd13ifvqga0","pricing_plan_id":"cebpf4jnsgd1na2vs0mg"},{"bike_id":"9070bf91-ef1e-4f94-8400-a21e1622452d","system_id":"levelo_inurba_marseille","lat":43.29066,"lon":5.37169,"is_reserved":false,"is_disabled":false,"rental_uris":{"android":"levelo://app?vid=9070bf91-ef1e-4f94-8400-a21e1622452d","ios":"levelo://app?vid=9070bf91-ef1e-4f94-8400-a21e1622452d"},"vehicle_type_id":"4","last_reported":1752174481,"current_range_meters":3600,"station_id":"ce4bh5p2rcd13ifvqe4g","pricing_plan_id":"cebpf4jnsgd1na2vs0mg"},{"bike_id":"da891b99-c9c8-4e3c-abf6-245fe800bad8","system_id":"levelo_inurba_marseille","lat":43.29955,"lon":5.41318,"is_reserved":false,"is_disabled":false,"rental_uris":{"android":"levelo://app?vid=da891b99-c9c8-4e3c-abf6-245fe800bad8","ios":"levelo://app?vid=da891b99-c9c8-4e3c-abf6-245fe800bad8"},"vehicle_type_id":"4","last_reported":1752174481,"current_range_meters":3600,"station_id":"ce4bhp12rcd13ifvqh9g","pricing_plan_id":"cebpf4jnsgd1na2vs0mg"},{"bike_id":"507e1d0d-c995-4dce-9cda-e050da589bff","system_id":"levelo_inurba_marseille","lat":43.28905,"lon":5.3664,"is_reserved":false,"is_disabled":false,"rental_uris":{"android":"levelo://app?vid=507e1d0d-c995-4dce-9cda-e050da589bff","ios":"levelo://app?vid=507e1d0d-c995-4dce-9cda-e050da589bff"},"vehicle_type_id":"4","last_reported":1752174481,"current_range_meters":4400,"station_id":"","pricing_plan_id":"cebpf4jnsgd1na2vs0mg"},{"bike_id":"f7075726-1e09-40bf-bef6-924ee6d28205","system_id":"levelo_inurba_marseille","lat":43.295278,"lon":5.386546,"is_reserved":false,"is_disabled":false,"rental_uris":{"android":"levelo://app?vid=f7075726-1e09-40bf-bef6-924ee6d28205","ios":"levelo://app?vid=f7075726-1e09-40bf-bef6-924ee6d28205"},"vehicle_type_id":"4","last_reported":1752174481,"current_range_meters":4400,"station_id":"ce4bgg92rcd13ifvqb30","pricing_plan_id":"cebpf4jnsgd1na2vs0mg"},{"bike_id":"82d70c1e-8916-4950-8565-797774ffadea","system_id":"levelo_inurba_marseille","lat":43.26029,"lon":5.37547,"is_reserved":false,"is_disabled":false,"rental_uris":{"android":"levelo://app?vid=82d70c1e-8916-4950-8565-797774ffadea","ios":"levelo://app?vid=82d70c1e-8916-4950-8565-797774ffadea"},"vehicle_type_id":"4","last_reported":1752174481,"current_range_meters":4400,"station_id":"ce4bhgh2rcd13ifvqfa0","pricing_plan_id":"cebpf4jnsgd1na2vs0mg"},{"bike_id":"c95c1e26-23d6-4726-ad29-d3741afee08f","system_id":"levelo_inurba_marseille","lat":43.28705,"lon":5.37385,"is_reserved":false,"is_disabled":false,"rental_uris":{"android":"levelo://app?vid=c95c1e26-23d6-4726-ad29-d3741afee08f","ios":"levelo://app?vid=c95c1e26-23d6-4726-ad29-d3741afee08f"},"vehicle_type_id":"4","last_reported":1752174481,"current_range_meters":4800,"station_id":"ce4bh3p2rcd13ifvqdq0","pricing_plan_id":"cebpf4jnsgd1na2vs0mg"},{"bike_id":"ba5d7c34-4f6d-4699-86df-0952e6c7f5f5","system_id":"levelo_inurba_marseille","lat":43.261787,"lon":5.374589,"is_reserved":false,"is_disabled":false,"rental_uris":{"android":"levelo://app?vid=ba5d7c34-4f6d-4699-86df-0952e6c7f5f5","ios":"levelo://app?vid=ba5d7c34-4f6d-4699-86df-0952e6c7f5f5"},"vehicle_type_id":"4","last_reported":1752174481,"current_range_meters":4800,"station_id":"ce4bhgp2rcd13ifvqfc0","pricing_plan_id":"cebpf4jnsgd1na2vs0mg"},{"bike_id":"159fe00e-1605-4a3a-a906-ef8dcd52b1db","system_id":"levelo_inurba_marseille","lat":43.30861,"lon":5.37288,"is_reserved":false,"is_disabled":false,"rental_uris":{"android":"levelo://app?vid=159fe00e-1605-4a3a-a906-ef8dcd52b1db","ios":"levelo://app?vid=159fe00e-1605-4a3a-a906-ef8dcd52b1db"},"vehicle_type_id":"4","last_reported":1752174481,"current_range_meters":5600,"station_id":"","pricing_plan_id":"cebpf4jnsgd1na2vs0mg"},{"bike_id":"04270967-6240-4181-8c29-f03fe275bcac","system_id":"levelo_inurba_marseille","lat":43.302136,"lon":5.39466,"is_reserved":false,"is_disabled":false,"rental_uris":{"android":"levelo://app?vid=04270967-6240-4181-8c29-f03fe275bcac","ios":"levelo://app?vid=04270967-6240-4181-8c29-f03fe275bcac"},"vehicle_type_id":"4","last_reported":1752174481,"current_range_meters":6000,"station_id":"ce4bh0p2rcd13ifvqd70","pricing_plan_id":"cebpf4jnsgd1na2vs0mg"},{"bike_id":"ccc7983a-0ead-4edb-b90e-961dbcc18830","system_id":"levelo_inurba_marseille","lat":43.28683,"lon":5.38664,"is_reserved":false,"is_disabled":false,"rental_uris":{"android":"levelo://app?vid=ccc7983a-0ead-4edb-b90e-961dbcc18830","ios":"levelo://app?vid=ccc7983a-0ead-4edb-b90e-961dbcc18830"},"vehicle_type_id":"4","last_reported":1752174481,"current_range_meters":6000,"station_id":"ce4bh492rcd13ifvqdug","pricing_plan_id":"cebpf4jnsgd1na2vs0mg"},{"bike_id":"bec589a3-5747-4275-8e40-870d3f1ca6d1","system_id":"levelo_inurba_marseille","lat":43.28703,"lon":5.39972,"is_reserved":false,"is_disabled":false,"rental_uris":{"android":"levelo://app?vid=bec589a3-5747-4275-8e40-870d3f1ca6d1","ios":"levelo://app?vid=bec589a3-5747-4275-8e40-870d3f1ca6d1"},"vehicle_type_id":"4","last_reported":1752174481,"current_range_meters":6000,"station_id":"ce4bho92rcd13ifvqh3g","pricing_plan_id":"cebpf4jnsgd1na2vs0mg"},{"bike_id":"2028e66c-bebd-4494-955a-46578a250da4","system_id":"levelo_inurba_marseille","lat":43.3116,"lon":5.38719,"is_reserved":false,"is_disabled":false,"rental_uris":{"android":"levelo://app?vid=2028e66c-bebd-4494-955a-46578a250da4","ios":"levelo://app?vid=2028e66c-bebd-4494-955a-46578a250da4"},"vehicle_type_id":"4","last_reported":1752174481,"current_range_meters":6400,"station_id":"ce4bgv12rcd13ifvqcp0","pricing_plan_id":"cebpf4jnsgd1na2vs0mg"},{"bike_id":"a39578ff-27a1-4836-83f6-b2bd59609fc9","system_id":"levelo_inurba_marseille","lat":43.29526,"lon":5.39035,"is_reserved":false,"is_disabled":false,"rental_uris":{"android":"levelo://app?vid=a39578ff-27a1-4836-83f6-b2bd59609fc9","ios":"levelo://app?vid=a39578ff-27a1-4836-83f6-b2bd59609fc9"},"vehicle_type_id":"4","last_reported":1752174481,"current_range_meters":6400,"station_id":"ce4bh3p2rcd13ifvqdp0","pricing_plan_id":"cebpf4jnsgd1na2vs0mg"},{"bike_id":"3372e8a7-32e1-479e-a218-f078e87aae85","system_id":"levelo_inurba_marseille","lat":43.29027,"lon":5.38648,"is_reserved":false,"is_disabled":false,"rental_uris":{"android":"levelo://app?vid=3372e8a7-32e1-479e-a218-f078e87aae85","ios":"levelo://app?vid=3372e8a7-32e1-479e-a218-f078e87aae85"},"vehicle_type_id":"4","last_reported":1752174481,"current_range_meters":6400,"station_id":"ce4bh4p2rcd13ifvqe0g","pricing_plan_id":"cebpf4jnsgd1na2vs0mg"},{"bike_id":"62f794b1-946c-4d58-a02c-725acc12351c","system_id":"levelo_inurba_marseille","lat":43.28269,"lon":5.35053,"is_reserved":false,"is_disabled":false,"rental_uris":{"android":"levelo://app?vid=62f794b1-946c-4d58-a02c-725acc12351c","ios":"levelo://app?vid=62f794b1-946c-4d58-a02c-725acc12351c"},"vehicle_type_id":"4","last_reported":1752174481,"current_range_meters":6400,"station_id":"ce4bhbp2rcd13ifvqerg","pricing_plan_id":"cebpf4jnsgd1na2vs0mg"},{"bike_id":"6908ff5b-7380-4762-8832-c1b2793db57f","system_id":"levelo_inurba_marseille","lat":43.25498,"lon":5.37652,"is_reserved":false,"is_disabled":false,"rental_uris":{"android":"levelo://app?vid=6908ff5b-7380-4762-8832-c1b2793db57f","ios":"levelo://app?vid=6908ff5b-7380-4762-8832-c1b2793db57f"},"vehicle_type_id":"4","last_reported":1752174481,"current_range_meters":6400,"station_id":"ce4bhh12rcd13ifvqff0","pricing_plan_id":"cebpf4jnsgd1na2vs0mg"},{"bike_id":"d0e8b069-7a88-4273-9a95-6ef2ee047c43","system_id":"levelo_inurba_marseille","lat":43.29307,"lon":5.37453,"is_reserved":false,"is_disabled":false,"rental_uris":{"android":"levelo://app?vid=d0e8b069-7a88-4273-9a95-6ef2ee047c43","ios":"levelo://app?vid=d0e8b069-7a88-4273-9a95-6ef2ee047c43"},"vehicle_type_id":"4","last_reported":1752174481,"current_range_meters":6800,"station_id":"ce4bgi12rcd13ifvqb70","pricing_plan_id":"cebpf4jnsgd1na2vs0mg"},{"bike_id":"1484b58f-adba-4017-a064-fe7f75e00fce","system_id":"levelo_inurba_marseille","lat":43.31326,"lon":5.3969,"is_reserved":false,"is_disabled":false,"rental_uris":{"android":"levelo://app?vid=1484b58f-adba-4017-a064-fe7f75e00fce","ios":"levelo://app?vid=1484b58f-adba-4017-a064-fe7f75e00fce"},"vehicle_type_id":"4","last_reported":1752174481,"current_range_meters":6800,"station_id":"ce4bgvp2rcd13ifvqcu0","pricing_plan_id":"cebpf4jnsgd1na2vs0mg"},{"bike_id":"5d4fdbc7-93d9-43b0-a50c-b4dea4c9f84c","system_id":"levelo_inurba_marseille","lat":43.28413,"lon":5.34978,"is_reserved":false,"is_disabled":false,"rental_uris":{"android":"levelo://app?vid=5d4fdbc7-93d9-43b0-a50c-b4dea4c9f84c","ios":"levelo://app?vid=5d4fdbc7-93d9-43b0-a50c-b4dea4c9f84c"},"vehicle_type_id":"4","last_reported":1752174481,"current_range_meters":6800,"station_id":"ce4bhbh2rcd13ifvqepg","pricing_plan_id":"cebpf4jnsgd1na2vs0mg"},{"bike_id":"97a260d1-a4ed-467d-ab48-17e5085247f5","system_id":"levelo_inurba_marseille","lat":43.31082,"lon":5.38354,"is_reserved":false,"is_disabled":false,"rental_uris":{"android":"levelo://app?vid=97a260d1-a4ed-467d-ab48-17e5085247f5","ios":"levelo://app?vid=97a260d1-a4ed-467d-ab48-17e5085247f5"},"vehicle_type_id":"4","last_reported":1752174481,"current_range_meters":7200,"station_id":"ce4bgv92rcd13ifvqcr0","pricing_plan_id":"cebpf4jnsgd1na2vs0mg"},{"bike_id":"ad46e930-18ce-459e-a921-a2ff0331efee","system_id":"levelo_inurba_marseille","lat":43.30319,"lon":5.40429,"is_reserved":false,"is_disabled":false,"rental_uris":{"android":"levelo://app?vid=ad46e930-18ce-459e-a921-a2ff0331efee","ios":"levelo://app?vid=ad46e930-18ce-459e-a921-a2ff0331efee"},"vehicle_type_id":"4","last_reported":1752174481,"current_range_meters":7200,"station_id":"ce4bh012rcd13ifvqd10","pricing_plan_id":"cebpf4jnsgd1na2vs0mg"},{"bike_id":"75c1ce51-73e6-457c-9de1-0c49f0c2dde4","system_id":"levelo_inurba_marseille","lat":43.255056,"lon":5.376497,"is_reserved":false,"is_disabled":false,"rental_uris":{"android":"levelo://app?vid=75c1ce51-73e6-457c-9de1-0c49f0c2dde4","ios":"levelo://app?vid=75c1ce51-73e6-457c-9de1-0c49f0c2dde4"},"vehicle_type_id":"4","last_reported":1752174481,"current_range_meters":7200,"station_id":"ce4bhh12rcd13ifvqff0","pricing_plan_id":"cebpf4jnsgd1na2vs0mg"},{"bike_id":"b0651168-94fa-4ec2-b887-db41f31c0106","system_id":"levelo_inurba_marseille","lat":43.33026,"lon":5.38339,"is_reserved":false,"is_disabled":false,"rental_uris":{"android":"levelo://app?vid=b0651168-94fa-4ec2-b887-db41f31c0106","ios":"levelo://app?vid=b0651168-94fa-4ec2-b887-db41f31c0106"},"vehicle_type_id":"4","last_reported":1752174481,"current_range_meters":8000,"station_id":"","pricing_plan_id":"cebpf4jnsgd1na2vs0mg"},{"bike_id":"b1f3b288-7e09-4ee2-8ad2-84a7f7460e4a","system_id":"levelo_inurba_marseille","lat":43.30254,"lon":5.40067,"is_reserved":false,"is_disabled":false,"rental_uris":{"android":"levelo://app?vid=b1f3b288-7e09-4ee2-8ad2-84a7f7460e4a","ios":"levelo://app?vid=b1f3b288-7e09-4ee2-8ad2-84a7f7460e4a"},"vehicle_type_id":"4","last_reported":1752174481,"current_range_meters":8000,"station_id":"ce4bgvh2rcd13ifvqcs0","pricing_plan_id":"cebpf4jnsgd1na2vs0mg"},{"bike_id":"ec41b1a7-b36b-4bf1-8029-04815e647951","system_id":"levelo_inurba_marseille","lat":43.299025,"lon":5.38136,"is_reserved":false,"is_disabled":false,"rental_uris":{"android":"levelo://app?vid=ec41b1a7-b36b-4bf1-8029-04815e647951","ios":"levelo://app?vid=ec41b1a7-b36b-4bf1-8029-04815e647951"},"vehicle_type_id":"4","last_reported":1752174481,"current_range_meters":8400,"station_id":"ce4bgj12rcd13ifvqbc0","pricing_plan_id":"cebpf4jnsgd1na2vs0mg"},{"bike_id":"4421cd59-00ef-4100-a6a1-cbd9140dd30f","system_id":"levelo_inurba_marseille","lat":43.30637,"lon":5.40077,"is_reserved":false,"is_disabled":false,"rental_uris":{"android":"levelo://app?vid=4421cd59-00ef-4100-a6a1-cbd9140dd30f","ios":"levelo://app?vid=4421cd59-00ef-4100-a6a1-cbd9140dd30f"},"vehicle_type_id":"4","last_reported":1752174481,"current_range_meters":8400,"station_id":"ce4bh112rcd13ifvqda0","pricing_plan_id":"cebpf4jnsgd1na2vs0mg"},{"bike_id":"e86f96e5-f2aa-4d72-829c-c868b674b3a0","system_id":"levelo_inurba_marseille","lat":43.23139,"lon":5.43676,"is_reserved":false,"is_disabled":false,"rental_uris":{"android":"levelo://app?vid=e86f96e5-f2aa-4d72-829c-c868b674b3a0","ios":"levelo://app?vid=e86f96e5-f2aa-4d72-829c-c868b674b3a0"},"vehicle_type_id":"4","last_reported":1752174481,"current_range_meters":8400,"station_id":"ce4bhmp2rcd13ifvqgog","pricing_plan_id":"cebpf4jnsgd1na2vs0mg"},{"bike_id":"ba480b1d-fbef-4d54-9bb0-c2fa8b787212","system_id":"levelo_inurba_marseille","lat":43.21185,"lon":5.3507,"is_reserved":false,"is_disabled":false,"rental_uris":{"android":"levelo://app?vid=ba480b1d-fbef-4d54-9bb0-c2fa8b787212","ios":"levelo://app?vid=ba480b1d-fbef-4d54-9bb0-c2fa8b787212"},"vehicle_type_id":"4","last_reported":1752174481,"current_range_meters":8400,"station_id":"st_cvj6sg6p6f1abm77japg","pricing_plan_id":"cebpf4jnsgd1na2vs0mg"},{"bike_id":"054355d6-001f-479c-a1e6-9568d8474476","system_id":"levelo_inurba_marseille","lat":43.29307,"lon":5.37172,"is_reserved":false,"is_disabled":false,"rental_uris":{"android":"levelo://app?vid=054355d6-001f-479c-a1e6-9568d8474476","ios":"levelo://app?vid=054355d6-001f-479c-a1e6-9568d8474476"},"vehicle_type_id":"4","last_reported":1752174481,"current_range_meters":8800,"station_id":"ce4bgh92rcd13ifvqb40","pricing_plan_id":"cebpf4jnsgd1na2vs0mg"},{"bike_id":"3fea8800-da96-43ef-94b1-03167a104331","system_id":"levelo_inurba_marseille","lat":43.303437,"lon":5.386025,"is_reserved":false,"is_disabled":false,"rental_uris":{"android":"levelo://app?vid=3fea8800-da96-43ef-94b1-03167a104331","ios":"levelo://app?vid=3fea8800-da96-43ef-94b1-03167a104331"},"vehicle_type_id":"4","last_reported":1752174481,"current_range_meters":8800,"station_id":"ce4bgs92rcd13ifvqcc0","pricing_plan_id":"cebpf4jnsgd1na2vs0mg"},{"bike_id":"21ae54b9-7375-4101-b8a7-bff9d6e1fa32","system_id":"levelo_inurba_marseille","lat":43.30003,"lon":5.37606,"is_reserved":false,"is_disabled":false,"rental_uris":{"android":"levelo://app?vid=21ae54b9-7375-4101-b8a7-bff9d6e1fa32","ios":"levelo://app?vid=21ae54b9-7375-4101-b8a7-bff9d6e1fa32"},"vehicle_type_id":"4","last_reported":1752174481,"current_range_meters":9200,"station_id":"","pricing_plan_id":"cebpf4jnsgd1na2vs0mg"},{"bike_id":"376179c5-94aa-434c-b0fd-e2860ebd1e61","system_id":"levelo_inurba_marseille","lat":43.29004,"lon":5.35609,"is_reserved":false,"is_disabled":false,"rental_uris":{"android":"levelo://app?vid=376179c5-94aa-434c-b0fd-e2860ebd1e61","ios":"levelo://app?vid=376179c5-94aa-434c-b0fd-e2860ebd1e61"},"vehicle_type_id":"4","last_reported":1752174481,"current_range_meters":9200,"station_id":"ce4bhb92rcd13ifvqen0","pricing_plan_id":"cebpf4jnsgd1na2vs0mg"},{"bike_id":"2f27b8b7-c5b1-47f0-823d-de2de611de21","system_id":"levelo_inurba_marseille","lat":43.29003,"lon":5.35613,"is_reserved":false,"is_disabled":false,"rental_uris":{"android":"levelo://app?vid=2f27b8b7-c5b1-47f0-823d-de2de611de21","ios":"levelo://app?vid=2f27b8b7-c5b1-47f0-823d-de2de611de21"},"vehicle_type_id":"4","last_reported":1752174481,"current_range_meters":9200,"station_id":"ce4bhb92rcd13ifvqen0","pricing_plan_id":"cebpf4jnsgd1na2vs0mg"},{"bike_id":"993f1c0d-8afc-4381-ae18-d8d534716fce","system_id":"levelo_inurba_marseille","lat":43.28416,"lon":5.34987,"is_reserved":false,"is_disabled":false,"rental_uris":{"android":"levelo://app?vid=993f1c0d-8afc-4381-ae18-d8d534716fce","ios":"levelo://app?vid=993f1c0d-8afc-4381-ae18-d8d534716fce"},"vehicle_type_id":"4","last_reported":1752174481,"current_range_meters":9200,"station_id":"ce4bhbh2rcd13ifvqepg","pricing_plan_id":"cebpf4jnsgd1na2vs0mg"},{"bike_id":"c887d9c8-a70f-465a-bc71-8d2afec5de7a","system_id":"levelo_inurba_marseille","lat":43.28406,"lon":5.3497,"is_reserved":false,"is_disabled":false,"rental_uris":{"android":"levelo://app?vid=c887d9c8-a70f-465a-bc71-8d2afec5de7a","ios":"levelo://app?vid=c887d9c8-a70f-465a-bc71-8d2afec5de7a"},"vehicle_type_id":"4","last_reported":1752174481,"current_range_meters":9200,"station_id":"ce4bhbh2rcd13ifvqepg","pricing_plan_id":"cebpf4jnsgd1na2vs0mg"},{"bike_id":"56c06933-7b74-48ca-a11b-e8bafb8a11d2","system_id":"levelo_inurba_marseille","lat":43.28437,"lon":5.34979,"is_reserved":false,"is_disabled":false,"rental_uris":{"android":"levelo://app?vid=56c06933-7b74-48ca-a11b-e8bafb8a11d2","ios":"levelo://app?vid=56c06933-7b74-48ca-a11b-e8bafb8a11d2"},"vehicle_type_id":"4","last_reported":1752174481,"current_range_meters":9200,"station_id":"ce4bhbh2rcd13ifvqepg","pricing_plan_id":"cebpf4jnsgd1na2vs0mg"},{"bike_id":"4c6ef796-60d4-4d1f-a375-e07e240b927c","system_id":"levelo_inurba_marseille","lat":43.28447,"lon":5.39203,"is_reserved":false,"is_disabled":false,"rental_uris":{"android":"levelo://app?vid=4c6ef796-60d4-4d1f-a375-e07e240b927c","ios":"levelo://app?vid=4c6ef796-60d4-4d1f-a375-e07e240b927c"},"vehicle_type_id":"4","last_reported":1752174481,"current_range_meters":9200,"station_id":"ce4bhoh2rcd13ifvqh5g","pricing_plan_id":"cebpf4jnsgd1na2vs0mg"},{"bike_id":"6e5c2657-ccb8-4153-8b94-2143bc427a03","system_id":"levelo_inurba_marseille","lat":43.22502,"lon":5.34777,"is_reserved":false,"is_disabled":false,"rental_uris":{"android":"levelo://app?vid=6e5c2657-ccb8-4153-8b94-2143bc427a03","ios":"levelo://app?vid=6e5c2657-ccb8-4153-8b94-2143bc427a03"},"vehicle_type_id":"4","last_reported":1752174481,"current_range_meters":9200,"station_id":"st_cvj5dfep6f1abm77gieg","pricing_plan_id":"cebpf4jnsgd1na2vs0mg"},{"bike_id":"b757ffbb-2b71-4330-9f60-5f8a9d46d16e","system_id":"levelo_inurba_marseille","lat":43.296543,"lon":5.371068,"is_reserved":false,"is_disabled":false,"rental_uris":{"android":"levelo://app?vid=b757ffbb-2b71-4330-9f60-5f8a9d46d16e","ios":"levelo://app?vid=b757ffbb-2b71-4330-9f60-5f8a9d46d16e"},"vehicle_type_id":"4","last_reported":1752174481,"current_range_meters":9600,"station_id":"","pricing_plan_id":"cebpf4jnsgd1na2vs0mg"},{"bike_id":"b2caa530-bb19-4cc6-a6bd-61e3e1d7432e","system_id":"levelo_inurba_marseille","lat":43.33763,"lon":5.37461,"is_reserved":false,"is_disabled":false,"rental_uris":{"android":"levelo://app?vid=b2caa530-bb19-4cc6-a6bd-61e3e1d7432e","ios":"levelo://app?vid=b2caa530-bb19-4cc6-a6bd-61e3e1d7432e"},"vehicle_type_id":"4","last_reported":1752174481,"current_range_meters":9600,"station_id":"","pricing_plan_id":"cebpf4jnsgd1na2vs0mg"},{"bike_id":"83caaf0d-b918-4b8a-83e5-fb6a9ff083fb","system_id":"levelo_inurba_marseille","lat":43.29459,"lon":5.37461,"is_reserved":false,"is_disabled":false,"rental_uris":{"android":"levelo://app?vid=83caaf0d-b918-4b8a-83e5-fb6a9ff083fb","ios":"levelo://app?vid=83caaf0d-b918-4b8a-83e5-fb6a9ff083fb"},"vehicle_type_id":"4","last_reported":1752174481,"current_range_meters":9600,"station_id":"","pricing_plan_id":"cebpf4jnsgd1na2vs0mg"},{"bike_id":"6ef5f3ea-45a5-4129-a8bc-9005968550f8","system_id":"levelo_inurba_marseille","lat":43.30441,"lon":5.36819,"is_reserved":false,"is_disabled":false,"rental_uris":{"android":"levelo://app?vid=6ef5f3ea-45a5-4129-a8bc-9005968550f8","ios":"levelo://app?vid=6ef5f3ea-45a5-4129-a8bc-9005968550f8"},"vehicle_type_id":"4","last_reported":1752174481,"current_range_meters":9600,"station_id":"","pricing_plan_id":"cebpf4jnsgd1na2vs0mg"},{"bike_id":"3afe5864-aa12-436e-ae42-0a8732df9faa","system_id":"levelo_inurba_marseille","lat":43.28411,"lon":5.34985,"is_reserved":false,"is_disabled":false,"rental_uris":{"android":"levelo://app?vid=3afe5864-aa12-436e-ae42-0a8732df9faa","ios":"levelo://app?vid=3afe5864-aa12-436e-ae42-0a8732df9faa"},"vehicle_type_id":"4","last_reported":1752174481,"current_range_meters":9600,"station_id":"ce4bhbh2rcd13ifvqepg","pricing_plan_id":"cebpf4jnsgd1na2vs0mg"},{"bike_id":"cbcbce64-bd9a-4d0f-b9ea-a4fc6135e14e","system_id":"levelo_inurba_marseille","lat":43.28263,"lon":5.35061,"is_reserved":false,"is_disabled":false,"rental_uris":{"android":"levelo://app?vid=cbcbce64-bd9a-4d0f-b9ea-a4fc6135e14e","ios":"levelo://app?vid=cbcbce64-bd9a-4d0f-b9ea-a4fc6135e14e"},"vehicle_type_id":"4","last_reported":1752174481,"current_range_meters":9600,"station_id":"ce4bhbp2rcd13ifvqerg","pricing_plan_id":"cebpf4jnsgd1na2vs0mg"},{"bike_id":"833f97ec-e704-4051-ab3b-2e9eb58f71d0","system_id":"levelo_inurba_marseille","lat":43.30253,"lon":5.37538,"is_reserved":false,"is_disabled":false,"rental_uris":{"android":"levelo://app?vid=833f97ec-e704-4051-ab3b-2e9eb58f71d0","ios":"levelo://app?vid=833f97ec-e704-4051-ab3b-2e9eb58f71d0"},"vehicle_type_id":"4","last_reported":1752174481,"current_range_meters":10000,"station_id":"","pricing_plan_id":"cebpf4jnsgd1na2vs0mg"},{"bike_id":"102328e8-8ac7-4feb-96d7-89d9e334c9ce","system_id":"levelo_inurba_marseille","lat":43.29912,"lon":5.3814,"is_reserved":false,"is_disabled":false,"rental_uris":{"android":"levelo://app?vid=102328e8-8ac7-4feb-96d7-89d9e334c9ce","ios":"levelo://app?vid=102328e8-8ac7-4feb-96d7-89d9e334c9ce"},"vehicle_type_id":"4","last_reported":1752174481,"current_range_meters":10000,"station_id":"ce4bgj12rcd13ifvqbc0","pricing_plan_id":"cebpf4jnsgd1na2vs0mg"},{"bike_id":"051e4d81-7ebf-4304-8d7c-7acb25a25457","system_id":"levelo_inurba_marseille","lat":43.290058,"lon":5.356104,"is_reserved":false,"is_disabled":false,"rental_uris":{"android":"levelo://app?vid=051e4d81-7ebf-4304-8d7c-7acb25a25457","ios":"levelo://app?vid=051e4d81-7ebf-4304-8d7c-7acb25a25457"},"vehicle_type_id":"4","last_reported":1752174481,"current_range_meters":10000,"station_id":"ce4bhb92rcd13ifvqen0","pricing_plan_id":"cebpf4jnsgd1na2vs0mg"},{"bike_id":"52810e48-ccc0-47e3-964a-9771ebcb6c5a","system_id":"levelo_inurba_marseille","lat":43.28408,"lon":5.34968,"is_reserved":false,"is_disabled":false,"rental_uris":{"android":"levelo://app?vid=52810e48-ccc0-47e3-964a-9771ebcb6c5a","ios":"levelo://app?vid=52810e48-ccc0-47e3-964a-9771ebcb6c5a"},"vehicle_type_id":"4","last_reported":1752174481,"current_range_meters":10000,"station_id":"ce4bhbh2rcd13ifvqepg","pricing_plan_id":"cebpf4jnsgd1na2vs0mg"},{"bike_id":"af5f2d13-a59b-4a57-a272-e84f7525f466","system_id":"levelo_inurba_marseille","lat":43.28268,"lon":5.35079,"is_reserved":false,"is_disabled":false,"rental_uris":{"android":"levelo://app?vid=af5f2d13-a59b-4a57-a272-e84f7525f466","ios":"levelo://app?vid=af5f2d13-a59b-4a57-a272-e84f7525f466"},"vehicle_type_id":"4","last_reported":1752174481,"current_range_meters":10000,"station_id":"ce4bhbp2rcd13ifvqerg","pricing_plan_id":"cebpf4jnsgd1na2vs0mg"},{"bike_id":"75b3246f-c6c5-4cb4-b582-95e731cbb8b9","system_id":"levelo_inurba_marseille","lat":43.28623,"lon":5.35099,"is_reserved":false,"is_disabled":false,"rental_uris":{"android":"levelo://app?vid=75b3246f-c6c5-4cb4-b582-95e731cbb8b9","ios":"levelo://app?vid=75b3246f-c6c5-4cb4-b582-95e731cbb8b9"},"vehicle_type_id":"4","last_reported":1752174481,"current_range_meters":10000,"station_id":"ce4bhch2rcd13ifvqeug","pricing_plan_id":"cebpf4jnsgd1na2vs0mg"},{"bike_id":"f7022e5d-d7f9-49b7-9f44-948a84ae2652","system_id":"levelo_inurba_marseille","lat":43.29597,"lon":5.38095,"is_reserved":false,"is_disabled":false,"rental_uris":{"android":"levelo://app?vid=f7022e5d-d7f9-49b7-9f44-948a84ae2652","ios":"levelo://app?vid=f7022e5d-d7f9-49b7-9f44-948a84ae2652"},"vehicle_type_id":"4","last_reported":1752174481,"current_range_meters":10800,"station_id":"ce4bgl12rcd13ifvqbo0","pricing_plan_id":"cebpf4jnsgd1na2vs0mg"},{"bike_id":"c538927e-abb5-46b7-9bcf-5ace777b59ff","system_id":"levelo_inurba_marseille","lat":43.30951,"lon":5.39033,"is_reserved":false,"is_disabled":false,"rental_uris":{"android":"levelo://app?vid=c538927e-abb5-46b7-9bcf-5ace777b59ff","ios":"levelo://app?vid=c538927e-abb5-46b7-9bcf-5ace777b59ff"},"vehicle_type_id":"4","last_reported":1752174481,"current_range_meters":10800,"station_id":"ce4bgup2rcd13ifvqco0","pricing_plan_id":"cebpf4jnsgd1na2vs0mg"},{"bike_id":"c28d0697-c74b-4039-ae94-6e0666ae724a","system_id":"levelo_inurba_marseille","lat":43.29198,"lon":5.35808,"is_reserved":false,"is_disabled":false,"rental_uris":{"android":"levelo://app?vid=c28d0697-c74b-4039-ae94-6e0666ae724a","ios":"levelo://app?vid=c28d0697-c74b-4039-ae94-6e0666ae724a"},"vehicle_type_id":"4","last_reported":1752174481,"current_range_meters":10800,"station_id":"ce4bhb12rcd13ifvqel0","pricing_plan_id":"cebpf4jnsgd1na2vs0mg"},{"bike_id":"1ad842b8-0cc2-4d3e-b52a-74013a0908e3","system_id":"levelo_inurba_marseille","lat":43.27381,"lon":5.36251,"is_reserved":false,"is_disabled":false,"rental_uris":{"android":"levelo://app?vid=1ad842b8-0cc2-4d3e-b52a-74013a0908e3","ios":"levelo://app?vid=1ad842b8-0cc2-4d3e-b52a-74013a0908e3"},"vehicle_type_id":"4","last_reported":1752174481,"current_range_meters":10800,"station_id":"ce4bhbh2rcd13ifvqeo0","pricing_plan_id":"cebpf4jnsgd1na2vs0mg"},{"bike_id":"02351574-7065-476d-b003-eede6cf9ed77","system_id":"levelo_inurba_marseille","lat":43.2693,"lon":5.38916,"is_reserved":false,"is_disabled":false,"rental_uris":{"android":"levelo://app?vid=02351574-7065-476d-b003-eede6cf9ed77","ios":"levelo://app?vid=02351574-7065-476d-b003-eede6cf9ed77"},"vehicle_type_id":"4","last_reported":1752174481,"current_range_meters":10800,"station_id":"ce4bhhh2rcd13ifvqfl0","pricing_plan_id":"cebpf4jnsgd1na2vs0mg"},{"bike_id":"3e9bf0ba-20ef-4d1d-8346-6d7b9775dbd9","system_id":"levelo_inurba_marseille","lat":43.28413,"lon":5.34966,"is_reserved":false,"is_disabled":false,"rental_uris":{"android":"levelo://app?vid=3e9bf0ba-20ef-4d1d-8346-6d7b9775dbd9","ios":"levelo://app?vid=3e9bf0ba-20ef-4d1d-8346-6d7b9775dbd9"},"vehicle_type_id":"4","last_reported":1752174481,"current_range_meters":11200,"station_id":"ce4bhbh2rcd13ifvqepg","pricing_plan_id":"cebpf4jnsgd1na2vs0mg"},{"bike_id":"f9ee97f3-793a-4037-86cc-dfe626a501ba","system_id":"levelo_inurba_marseille","lat":43.28426,"lon":5.34984,"is_reserved":false,"is_disabled":false,"rental_uris":{"android":"levelo://app?vid=f9ee97f3-793a-4037-86cc-dfe626a501ba","ios":"levelo://app?vid=f9ee97f3-793a-4037-86cc-dfe626a501ba"},"vehicle_type_id":"4","last_reported":1752174481,"current_range_meters":11200,"station_id":"ce4bhbh2rcd13ifvqepg","pricing_plan_id":"cebpf4jnsgd1na2vs0mg"},{"bike_id":"1b536b30-9d8f-4c6c-b51f-2550a4ca59bc","system_id":"levelo_inurba_marseille","lat":43.265526,"lon":5.372873,"is_reserved":false,"is_disabled":false,"rental_uris":{"android":"levelo://app?vid=1b536b30-9d8f-4c6c-b51f-2550a4ca59bc","ios":"levelo://app?vid=1b536b30-9d8f-4c6c-b51f-2550a4ca59bc"},"vehicle_type_id":"4","last_reported":1752174481,"current_range_meters":11200,"station_id":"ce4bhg12rcd13ifvqf70","pricing_plan_id":"cebpf4jnsgd1na2vs0mg"},{"bike_id":"5d4b63da-10ce-44dd-805e-e0dc735517d0","system_id":"levelo_inurba_marseille","lat":43.28609,"lon":5.37064,"is_reserved":false,"is_disabled":false,"rental_uris":{"android":"levelo://app?vid=5d4b63da-10ce-44dd-805e-e0dc735517d0","ios":"levelo://app?vid=5d4b63da-10ce-44dd-805e-e0dc735517d0"},"vehicle_type_id":"4","last_reported":1752174481,"current_range_meters":11200,"station_id":"ce4bht12rcd13ifvqi60","pricing_plan_id":"cebpf4jnsgd1na2vs0mg"},{"bike_id":"808a8c1b-32a0-4320-ad49-f41934e02ee9","system_id":"levelo_inurba_marseille","lat":43.29305,"lon":5.37466,"is_reserved":false,"is_disabled":false,"rental_uris":{"android":"levelo://app?vid=808a8c1b-32a0-4320-ad49-f41934e02ee9","ios":"levelo://app?vid=808a8c1b-32a0-4320-ad49-f41934e02ee9"},"vehicle_type_id":"4","last_reported":1752174481,"current_range_meters":11600,"station_id":"ce4bgi12rcd13ifvqb70","pricing_plan_id":"cebpf4jnsgd1na2vs0mg"},{"bike_id":"3d96e96b-e1d8-4c0b-9d7b-66a0c8d86d69","system_id":"levelo_inurba_marseille","lat":43.29533,"lon":5.38541,"is_reserved":false,"is_disabled":false,"rental_uris":{"android":"levelo://app?vid=3d96e96b-e1d8-4c0b-9d7b-66a0c8d86d69","ios":"levelo://app?vid=3d96e96b-e1d8-4c0b-9d7b-66a0c8d86d69"},"vehicle_type_id":"4","last_reported":1752174481,"current_range_meters":11600,"station_id":"ce4bgih2rcd13ifvqba0","pricing_plan_id":"cebpf4jnsgd1na2vs0mg"},{"bike_id":"73fc7984-12e3-4bae-9195-8440a99a0ee7","system_id":"levelo_inurba_marseille","lat":43.28617,"lon":5.35104,"is_reserved":false,"is_disabled":false,"rental_uris":{"android":"levelo://app?vid=73fc7984-12e3-4bae-9195-8440a99a0ee7","ios":"levelo://app?vid=73fc7984-12e3-4bae-9195-8440a99a0ee7"},"vehicle_type_id":"4","last_reported":1752174481,"current_range_meters":12000,"station_id":"ce4bhch2rcd13ifvqeug","pricing_plan_id":"cebpf4jnsgd1na2vs0mg"},{"bike_id":"b758c025-73ed-4a72-ad84-8bd0eb3ba794","system_id":"levelo_inurba_marseille","lat":43.32657,"lon":5.40995,"is_reserved":false,"is_disabled":false,"rental_uris":{"android":"levelo://app?vid=b758c025-73ed-4a72-ad84-8bd0eb3ba794","ios":"levelo://app?vid=b758c025-73ed-4a72-ad84-8bd0eb3ba794"},"vehicle_type_id":"4","last_reported":1752174481,"current_range_meters":12000,"station_id":"ce4bhpp2rcd13ifvqhgg","pricing_plan_id":"cebpf4jnsgd1na2vs0mg"},{"bike_id":"feaa7e3a-cbe4-4489-be11-8a12d7eec173","system_id":"levelo_inurba_marseille","lat":43.25221,"lon":5.42441,"is_reserved":false,"is_disabled":false,"rental_uris":{"android":"levelo://app?vid=feaa7e3a-cbe4-4489-be11-8a12d7eec173","ios":"levelo://app?vid=feaa7e3a-cbe4-4489-be11-8a12d7eec173"},"vehicle_type_id":"4","last_reported":1752174481,"current_range_meters":12400,"station_id":"","pricing_plan_id":"cebpf4jnsgd1na2vs0mg"},{"bike_id":"5854595f-48e1-43e2-bb71-867f69ab2a58","system_id":"levelo_inurba_marseille","lat":43.26934,"lon":5.38928,"is_reserved":false,"is_disabled":false,"rental_uris":{"android":"levelo://app?vid=5854595f-48e1-43e2-bb71-867f69ab2a58","ios":"levelo://app?vid=5854595f-48e1-43e2-bb71-867f69ab2a58"},"vehicle_type_id":"4","last_reported":1752174481,"current_range_meters":12400,"station_id":"ce4bhhh2rcd13ifvqfl0","pricing_plan_id":"cebpf4jnsgd1na2vs0mg"},{"bike_id":"d6c235db-2b10-4f3e-903d-7859934f7a40","system_id":"levelo_inurba_marseille","lat":43.262054,"lon":5.379238,"is_reserved":false,"is_disabled":false,"rental_uris":{"android":"levelo://app?vid=d6c235db-2b10-4f3e-903d-7859934f7a40","ios":"levelo://app?vid=d6c235db-2b10-4f3e-903d-7859934f7a40"},"vehicle_type_id":"4","last_reported":1752174481,"current_range_meters":12400,"station_id":"ce4bhjp2rcd13ifvqg90","pricing_plan_id":"cebpf4jnsgd1na2vs0mg"},{"bike_id":"0040a493-04bf-48d2-b063-184010bab65d","system_id":"levelo_inurba_marseille","lat":43.280003,"lon":5.400037,"is_reserved":false,"is_disabled":false,"rental_uris":{"android":"levelo://app?vid=0040a493-04bf-48d2-b063-184010bab65d","ios":"levelo://app?vid=0040a493-04bf-48d2-b063-184010bab65d"},"vehicle_type_id":"4","last_reported":1752174481,"current_range_meters":12400,"station_id":"ce4bho92rcd13ifvqh4g","pricing_plan_id":"cebpf4jnsgd1na2vs0mg"},{"bike_id":"de010bc4-5e98-41bd-aed3-9094f259cc5a","system_id":"levelo_inurba_marseille","lat":43.24166,"lon":5.36391,"is_reserved":false,"is_disabled":false,"rental_uris":{"android":"levelo://app?vid=de010bc4-5e98-41bd-aed3-9094f259cc5a","ios":"levelo://app?vid=de010bc4-5e98-41bd-aed3-9094f259cc5a"},"vehicle_type_id":"4","last_reported":1752174481,"current_range_meters":12400,"station_id":"cpo36qri1sfpv3e86is0","pricing_plan_id":"cebpf4jnsgd1na2vs0mg"},{"bike_id":"d6c31952-2ba1-4aaa-8ac6-df214607add1","system_id":"levelo_inurba_marseille","lat":43.29533,"lon":5.38545,"is_reserved":false,"is_disabled":false,"rental_uris":{"android":"levelo://app?vid=d6c31952-2ba1-4aaa-8ac6-df214607add1","ios":"levelo://app?vid=d6c31952-2ba1-4aaa-8ac6-df214607add1"},"vehicle_type_id":"4","last_reported":1752174481,"current_range_meters":12800,"station_id":"ce4bgih2rcd13ifvqba0","pricing_plan_id":"cebpf4jnsgd1na2vs0mg"},{"bike_id":"9e84f726-bca4-4be5-89aa-118290d5b915","system_id":"levelo_inurba_marseille","lat":43.313603,"lon":5.384953,"is_reserved":false,"is_disabled":false,"rental_uris":{"android":"levelo://app?vid=9e84f726-bca4-4be5-89aa-118290d5b915","ios":"levelo://app?vid=9e84f726-bca4-4be5-89aa-118290d5b915"},"vehicle_type_id":"4","last_reported":1752174481,"current_range_meters":12800,"station_id":"ce4bgt92rcd13ifvqcf0","pricing_plan_id":"cebpf4jnsgd1na2vs0mg"},{"bike_id":"b561e6f5-3cb5-4e20-b799-eb58407fb41d","system_id":"levelo_inurba_marseille","lat":43.28415,"lon":5.34973,"is_reserved":false,"is_disabled":false,"rental_uris":{"android":"levelo://app?vid=b561e6f5-3cb5-4e20-b799-eb58407fb41d","ios":"levelo://app?vid=b561e6f5-3cb5-4e20-b799-eb58407fb41d"},"vehicle_type_id":"4","last_reported":1752174481,"current_range_meters":12800,"station_id":"ce4bhbh2rcd13ifvqepg","pricing_plan_id":"cebpf4jnsgd1na2vs0mg"},{"bike_id":"9ae8456a-f70a-4ad4-9d9a-de568831cfed","system_id":"levelo_inurba_marseille","lat":43.26033,"lon":5.37547,"is_reserved":false,"is_disabled":false,"rental_uris":{"android":"levelo://app?vid=9ae8456a-f70a-4ad4-9d9a-de568831cfed","ios":"levelo://app?vid=9ae8456a-f70a-4ad4-9d9a-de568831cfed"},"vehicle_type_id":"4","last_reported":1752174481,"current_range_meters":12800,"station_id":"ce4bhgh2rcd13ifvqfa0","pricing_plan_id":"cebpf4jnsgd1na2vs0mg"},{"bike_id":"d4fef870-f3df-418c-b45a-632453acc9ad","system_id":"levelo_inurba_marseille","lat":43.22505,"lon":5.34767,"is_reserved":false,"is_disabled":false,"rental_uris":{"android":"levelo://app?vid=d4fef870-f3df-418c-b45a-632453acc9ad","ios":"levelo://app?vid=d4fef870-f3df-418c-b45a-632453acc9ad"},"vehicle_type_id":"4","last_reported":1752174481,"current_range_meters":12800,"station_id":"st_cvj5dfep6f1abm77gieg","pricing_plan_id":"cebpf4jnsgd1na2vs0mg"},{"bike_id":"f373e4a8-33e3-4f72-ae8e-e7ab386910f4","system_id":"levelo_inurba_marseille","lat":43.22545,"lon":5.3477,"is_reserved":false,"is_disabled":false,"rental_uris":{"android":"levelo://app?vid=f373e4a8-33e3-4f72-ae8e-e7ab386910f4","ios":"levelo://app?vid=f373e4a8-33e3-4f72-ae8e-e7ab386910f4"},"vehicle_type_id":"4","last_reported":1752174481,"current_range_meters":13600,"station_id":"","pricing_plan_id":"cebpf4jnsgd1na2vs0mg"},{"bike_id":"d738154a-b7a8-47ee-b4de-b37e92312c88","system_id":"levelo_inurba_marseille","lat":43.26177,"lon":5.37049,"is_reserved":false,"is_disabled":false,"rental_uris":{"android":"levelo://app?vid=d738154a-b7a8-47ee-b4de-b37e92312c88","ios":"levelo://app?vid=d738154a-b7a8-47ee-b4de-b37e92312c88"},"vehicle_type_id":"4","last_reported":1752174481,"current_range_meters":13600,"station_id":"","pricing_plan_id":"cebpf4jnsgd1na2vs0mg"},{"bike_id":"22f06b3d-571c-4dbf-aa0e-42e57ba6979a","system_id":"levelo_inurba_marseille","lat":43.29165,"lon":5.37157,"is_reserved":false,"is_disabled":false,"rental_uris":{"android":"levelo://app?vid=22f06b3d-571c-4dbf-aa0e-42e57ba6979a","ios":"levelo://app?vid=22f06b3d-571c-4dbf-aa0e-42e57ba6979a"},"vehicle_type_id":"4","last_reported":1752174481,"current_range_meters":13600,"station_id":"ce4bha92rcd13ifvqeh0","pricing_plan_id":"cebpf4jnsgd1na2vs0mg"},{"bike_id":"5e652fbf-2930-4f54-b983-f14790f50846","system_id":"levelo_inurba_marseille","lat":43.27393,"lon":5.36247,"is_reserved":false,"is_disabled":false,"rental_uris":{"android":"levelo://app?vid=5e652fbf-2930-4f54-b983-f14790f50846","ios":"levelo://app?vid=5e652fbf-2930-4f54-b983-f14790f50846"},"vehicle_type_id":"4","last_reported":1752174481,"current_range_meters":13600,"station_id":"ce4bhbh2rcd13ifvqeo0","pricing_plan_id":"cebpf4jnsgd1na2vs0mg"},{"bike_id":"1ab27111-3e85-4d56-a8e2-7e01fb7651eb","system_id":"levelo_inurba_marseille","lat":43.27897,"lon":5.38022,"is_reserved":false,"is_disabled":false,"rental_uris":{"android":"levelo://app?vid=1ab27111-3e85-4d56-a8e2-7e01fb7651eb","ios":"levelo://app?vid=1ab27111-3e85-4d56-a8e2-7e01fb7651eb"},"vehicle_type_id":"4","last_reported":1752174481,"current_range_meters":13600,"station_id":"ce4bhf92rcd13ifvqf50","pricing_plan_id":"cebpf4jnsgd1na2vs0mg"},{"bike_id":"5e3de7c8-3182-4a73-8e5c-d4ae2028ef6e","system_id":"levelo_inurba_marseille","lat":43.21749,"lon":5.34602,"is_reserved":false,"is_disabled":false,"rental_uris":{"android":"levelo://app?vid=5e3de7c8-3182-4a73-8e5c-d4ae2028ef6e","ios":"levelo://app?vid=5e3de7c8-3182-4a73-8e5c-d4ae2028ef6e"},"vehicle_type_id":"4","last_reported":1752174481,"current_range_meters":14000,"station_id":"","pricing_plan_id":"cebpf4jnsgd1na2vs0mg"},{"bike_id":"a6efe942-c07a-47e0-b6da-8359e0163c83","system_id":"levelo_inurba_marseille","lat":43.28993,"lon":5.35608,"is_reserved":false,"is_disabled":false,"rental_uris":{"android":"levelo://app?vid=a6efe942-c07a-47e0-b6da-8359e0163c83","ios":"levelo://app?vid=a6efe942-c07a-47e0-b6da-8359e0163c83"},"vehicle_type_id":"4","last_reported":1752174481,"current_range_meters":14000,"station_id":"ce4bhb92rcd13ifvqen0","pricing_plan_id":"cebpf4jnsgd1na2vs0mg"},{"bike_id":"119b7eed-1582-4766-b484-107798ee8de6","system_id":"levelo_inurba_marseille","lat":43.28406,"lon":5.3498,"is_reserved":false,"is_disabled":false,"rental_uris":{"android":"levelo://app?vid=119b7eed-1582-4766-b484-107798ee8de6","ios":"levelo://app?vid=119b7eed-1582-4766-b484-107798ee8de6"},"vehicle_type_id":"4","last_reported":1752174481,"current_range_meters":14000,"station_id":"ce4bhbh2rcd13ifvqepg","pricing_plan_id":"cebpf4jnsgd1na2vs0mg"},{"bike_id":"d0a95ac6-4aa1-4c5c-88cd-26deee9c8de2","system_id":"levelo_inurba_marseille","lat":43.249726,"lon":5.396244,"is_reserved":false,"is_disabled":false,"rental_uris":{"android":"levelo://app?vid=d0a95ac6-4aa1-4c5c-88cd-26deee9c8de2","ios":"levelo://app?vid=d0a95ac6-4aa1-4c5c-88cd-26deee9c8de2"},"vehicle_type_id":"4","last_reported":1752174481,"current_range_meters":14000,"station_id":"ce4bhg12rcd13ifvqf60","pricing_plan_id":"cebpf4jnsgd1na2vs0mg"},{"bike_id":"9f5e74ce-2459-4c6f-a171-f6d1e8a1ed83","system_id":"levelo_inurba_marseille","lat":43.31862,"lon":5.37581,"is_reserved":false,"is_disabled":false,"rental_uris":{"android":"levelo://app?vid=9f5e74ce-2459-4c6f-a171-f6d1e8a1ed83","ios":"levelo://app?vid=9f5e74ce-2459-4c6f-a171-f6d1e8a1ed83"},"vehicle_type_id":"4","last_reported":1752174481,"current_range_meters":14400,"station_id":"","pricing_plan_id":"cebpf4jnsgd1na2vs0mg"},{"bike_id":"e720f59b-54a6-401e-8bdc-09db484315b1","system_id":"levelo_inurba_marseille","lat":43.30463,"lon":5.37899,"is_reserved":false,"is_disabled":false,"rental_uris":{"android":"levelo://app?vid=e720f59b-54a6-401e-8bdc-09db484315b1","ios":"levelo://app?vid=e720f59b-54a6-401e-8bdc-09db484315b1"},"vehicle_type_id":"4","last_reported":1752174481,"current_range_meters":14400,"station_id":"ce4bgup2rcd13ifvqcn0","pricing_plan_id":"cebpf4jnsgd1na2vs0mg"},{"bike_id":"bbc610cb-61c3-4016-8028-779e5fc3e5c2","system_id":"levelo_inurba_marseille","lat":43.2903,"lon":5.38648,"is_reserved":false,"is_disabled":false,"rental_uris":{"android":"levelo://app?vid=bbc610cb-61c3-4016-8028-779e5fc3e5c2","ios":"levelo://app?vid=bbc610cb-61c3-4016-8028-779e5fc3e5c2"},"vehicle_type_id":"4","last_reported":1752174481,"current_range_meters":14400,"station_id":"ce4bh4p2rcd13ifvqe0g","pricing_plan_id":"cebpf4jnsgd1na2vs0mg"},{"bike_id":"f4d8afa1-8f4d-42c0-b795-8a2d2ea9a8de","system_id":"levelo_inurba_marseille","lat":43.27819,"lon":5.40678,"is_reserved":false,"is_disabled":false,"rental_uris":{"android":"levelo://app?vid=f4d8afa1-8f4d-42c0-b795-8a2d2ea9a8de","ios":"levelo://app?vid=f4d8afa1-8f4d-42c0-b795-8a2d2ea9a8de"},"vehicle_type_id":"4","last_reported":1752174481,"current_range_meters":14400,"station_id":"ce4bhnh2rcd13ifvqgtg","pricing_plan_id":"cebpf4jnsgd1na2vs0mg"},{"bike_id":"4e209b0c-855f-4b51-8120-2faef8673853","system_id":"levelo_inurba_marseille","lat":43.30614,"lon":5.36898,"is_reserved":false,"is_disabled":false,"rental_uris":{"android":"levelo://app?vid=4e209b0c-855f-4b51-8120-2faef8673853","ios":"levelo://app?vid=4e209b0c-855f-4b51-8120-2faef8673853"},"vehicle_type_id":"4","last_reported":1752174481,"current_range_meters":14800,"station_id":"","pricing_plan_id":"cebpf4jnsgd1na2vs0mg"},{"bike_id":"f1a4650c-cdce-4a45-82de-6c619a4f2b15","system_id":"levelo_inurba_marseille","lat":43.30141,"lon":5.38059,"is_reserved":false,"is_disabled":false,"rental_uris":{"android":"levelo://app?vid=f1a4650c-cdce-4a45-82de-6c619a4f2b15","ios":"levelo://app?vid=f1a4650c-cdce-4a45-82de-6c619a4f2b15"},"vehicle_type_id":"4","last_reported":1752174481,"current_range_meters":14800,"station_id":"ce4bgjp2rcd13ifvqbh0","pricing_plan_id":"cebpf4jnsgd1na2vs0mg"},{"bike_id":"04148f14-4cd8-42b8-8416-c87a9d5cb2a7","system_id":"levelo_inurba_marseille","lat":43.2842,"lon":5.34996,"is_reserved":false,"is_disabled":false,"rental_uris":{"android":"levelo://app?vid=04148f14-4cd8-42b8-8416-c87a9d5cb2a7","ios":"levelo://app?vid=04148f14-4cd8-42b8-8416-c87a9d5cb2a7"},"vehicle_type_id":"4","last_reported":1752174481,"current_range_meters":14800,"station_id":"ce4bhbh2rcd13ifvqepg","pricing_plan_id":"cebpf4jnsgd1na2vs0mg"},{"bike_id":"cd75a637-cb44-4860-80c5-72a0738ab912","system_id":"levelo_inurba_marseille","lat":43.28256,"lon":5.3504,"is_reserved":false,"is_disabled":false,"rental_uris":{"android":"levelo://app?vid=cd75a637-cb44-4860-80c5-72a0738ab912","ios":"levelo://app?vid=cd75a637-cb44-4860-80c5-72a0738ab912"},"vehicle_type_id":"4","last_reported":1752174481,"current_range_meters":14800,"station_id":"ce4bhbp2rcd13ifvqerg","pricing_plan_id":"cebpf4jnsgd1na2vs0mg"},{"bike_id":"1ef8c9da-64e0-45be-91c7-aae7458ed9bb","system_id":"levelo_inurba_marseille","lat":43.29274,"lon":5.3684,"is_reserved":false,"is_disabled":false,"rental_uris":{"android":"levelo://app?vid=1ef8c9da-64e0-45be-91c7-aae7458ed9bb","ios":"levelo://app?vid=1ef8c9da-64e0-45be-91c7-aae7458ed9bb"},"vehicle_type_id":"4","last_reported":1752174481,"current_range_meters":14800,"station_id":"ce4bhbp2rcd13ifvqesg","pricing_plan_id":"cebpf4jnsgd1na2vs0mg"},{"bike_id":"3bcfcea9-db06-4e8e-a7e9-7ec63fc20fc7","system_id":"levelo_inurba_marseille","lat":43.25496,"lon":5.37647,"is_reserved":false,"is_disabled":false,"rental_uris":{"android":"levelo://app?vid=3bcfcea9-db06-4e8e-a7e9-7ec63fc20fc7","ios":"levelo://app?vid=3bcfcea9-db06-4e8e-a7e9-7ec63fc20fc7"},"vehicle_type_id":"4","last_reported":1752174481,"current_range_meters":14800,"station_id":"ce4bhh12rcd13ifvqff0","pricing_plan_id":"cebpf4jnsgd1na2vs0mg"},{"bike_id":"cb0890e8-3c02-4962-99e3-73812f6ce8d5","system_id":"levelo_inurba_marseille","lat":43.2956,"lon":5.42292,"is_reserved":false,"is_disabled":false,"rental_uris":{"android":"levelo://app?vid=cb0890e8-3c02-4962-99e3-73812f6ce8d5","ios":"levelo://app?vid=cb0890e8-3c02-4962-99e3-73812f6ce8d5"},"vehicle_type_id":"4","last_reported":1752174481,"current_range_meters":14800,"station_id":"ce4bhph2rcd13ifvqhdg","pricing_plan_id":"cebpf4jnsgd1na2vs0mg"},{"bike_id":"73fe94e8-74f9-41f0-85e9-7d8c52adf2fc","system_id":"levelo_inurba_marseille","lat":43.21272,"lon":5.35282,"is_reserved":false,"is_disabled":false,"rental_uris":{"android":"levelo://app?vid=73fe94e8-74f9-41f0-85e9-7d8c52adf2fc","ios":"levelo://app?vid=73fe94e8-74f9-41f0-85e9-7d8c52adf2fc"},"vehicle_type_id":"4","last_reported":1752174481,"current_range_meters":15200,"station_id":"","pricing_plan_id":"cebpf4jnsgd1na2vs0mg"},{"bike_id":"8330a68f-2f6e-4337-9657-35d7d87c04ca","system_id":"levelo_inurba_marseille","lat":43.25451,"lon":5.37946,"is_reserved":false,"is_disabled":false,"rental_uris":{"android":"levelo://app?vid=8330a68f-2f6e-4337-9657-35d7d87c04ca","ios":"levelo://app?vid=8330a68f-2f6e-4337-9657-35d7d87c04ca"},"vehicle_type_id":"4","last_reported":1752174481,"current_range_meters":15200,"station_id":"","pricing_plan_id":"cebpf4jnsgd1na2vs0mg"},{"bike_id":"570bda4f-e685-4706-91b4-c0b0b956a657","system_id":"levelo_inurba_marseille","lat":43.28929,"lon":5.38406,"is_reserved":false,"is_disabled":false,"rental_uris":{"android":"levelo://app?vid=570bda4f-e685-4706-91b4-c0b0b956a657","ios":"levelo://app?vid=570bda4f-e685-4706-91b4-c0b0b956a657"},"vehicle_type_id":"4","last_reported":1752174481,"current_range_meters":15200,"station_id":"ce4bh612rcd13ifvqe6g","pricing_plan_id":"cebpf4jnsgd1na2vs0mg"},{"bike_id":"d283545b-38d0-48fd-b43e-bdc543057dfd","system_id":"levelo_inurba_marseille","lat":43.27377,"lon":5.36257,"is_reserved":false,"is_disabled":false,"rental_uris":{"android":"levelo://app?vid=d283545b-38d0-48fd-b43e-bdc543057dfd","ios":"levelo://app?vid=d283545b-38d0-48fd-b43e-bdc543057dfd"},"vehicle_type_id":"4","last_reported":1752174481,"current_range_meters":15200,"station_id":"ce4bhbh2rcd13ifvqeo0","pricing_plan_id":"cebpf4jnsgd1na2vs0mg"},{"bike_id":"fa87fcb5-aacb-41a1-a789-0296bbd02085","system_id":"levelo_inurba_marseille","lat":43.2458,"lon":5.373761,"is_reserved":false,"is_disabled":false,"rental_uris":{"android":"levelo://app?vid=fa87fcb5-aacb-41a1-a789-0296bbd02085","ios":"levelo://app?vid=fa87fcb5-aacb-41a1-a789-0296bbd02085"},"vehicle_type_id":"4","last_reported":1752174481,"current_range_meters":16000,"station_id":"","pricing_plan_id":"cebpf4jnsgd1na2vs0mg"},{"bike_id":"1412ed3a-df2a-4acd-899a-72f39d3418cc","system_id":"levelo_inurba_marseille","lat":43.273821,"lon":5.362561,"is_reserved":false,"is_disabled":false,"rental_uris":{"android":"levelo://app?vid=1412ed3a-df2a-4acd-899a-72f39d3418cc","ios":"levelo://app?vid=1412ed3a-df2a-4acd-899a-72f39d3418cc"},"vehicle_type_id":"4","last_reported":1752174481,"current_range_meters":16000,"station_id":"","pricing_plan_id":"cebpf4jnsgd1na2vs0mg"},{"bike_id":"a8d705c3-566b-4501-b867-c1a877836a46","system_id":"levelo_inurba_marseille","lat":43.29844,"lon":5.36275,"is_reserved":false,"is_disabled":false,"rental_uris":{"android":"levelo://app?vid=a8d705c3-566b-4501-b867-c1a877836a46","ios":"levelo://app?vid=a8d705c3-566b-4501-b867-c1a877836a46"},"vehicle_type_id":"4","last_reported":1752174481,"current_range_meters":16000,"station_id":"ce4bgpp2rcd13ifvqc3g","pricing_plan_id":"cebpf4jnsgd1na2vs0mg"},{"bike_id":"d211d42d-ebe8-4c4b-923b-748326ac0adb","system_id":"levelo_inurba_marseille","lat":43.29437,"lon":5.38645,"is_reserved":false,"is_disabled":false,"rental_uris":{"android":"levelo://app?vid=d211d42d-ebe8-4c4b-923b-748326ac0adb","ios":"levelo://app?vid=d211d42d-ebe8-4c4b-923b-748326ac0adb"},"vehicle_type_id":"4","last_reported":1752174481,"current_range_meters":16000,"station_id":"ce4bh2h2rcd13ifvqdh0","pricing_plan_id":"cebpf4jnsgd1na2vs0mg"},{"bike_id":"15ab90ec-56d6-4852-abe6-f4c7ffe49d82","system_id":"levelo_inurba_marseille","lat":43.28274,"lon":5.35076,"is_reserved":false,"is_disabled":false,"rental_uris":{"android":"levelo://app?vid=15ab90ec-56d6-4852-abe6-f4c7ffe49d82","ios":"levelo://app?vid=15ab90ec-56d6-4852-abe6-f4c7ffe49d82"},"vehicle_type_id":"4","last_reported":1752174481,"current_range_meters":16000,"station_id":"ce4bhbp2rcd13ifvqerg","pricing_plan_id":"cebpf4jnsgd1na2vs0mg"},{"bike_id":"6994c34f-7b9e-4588-9c5d-f80e030067a1","system_id":"levelo_inurba_marseille","lat":43.32369,"lon":5.38873,"is_reserved":false,"is_disabled":false,"rental_uris":{"android":"levelo://app?vid=6994c34f-7b9e-4588-9c5d-f80e030067a1","ios":"levelo://app?vid=6994c34f-7b9e-4588-9c5d-f80e030067a1"},"vehicle_type_id":"4","last_reported":1752174481,"current_range_meters":16000,"station_id":"ce4bhqp2rcd13ifvqhog","pricing_plan_id":"cebpf4jnsgd1na2vs0mg"},{"bike_id":"ee1ac907-8623-4d00-ac01-d41dd90be9fe","system_id":"levelo_inurba_marseille","lat":43.2119,"lon":5.35057,"is_reserved":false,"is_disabled":false,"rental_uris":{"android":"levelo://app?vid=ee1ac907-8623-4d00-ac01-d41dd90be9fe","ios":"levelo://app?vid=ee1ac907-8623-4d00-ac01-d41dd90be9fe"},"vehicle_type_id":"4","last_reported":1752174481,"current_range_meters":16000,"station_id":"st_cvj6sg6p6f1abm77japg","pricing_plan_id":"cebpf4jnsgd1na2vs0mg"},{"bike_id":"a5a6c2c1-2d48-4581-8647-6eab6c0bbb54","system_id":"levelo_inurba_marseille","lat":43.26313,"lon":5.37382,"is_reserved":false,"is_disabled":false,"rental_uris":{"android":"levelo://app?vid=a5a6c2c1-2d48-4581-8647-6eab6c0bbb54","ios":"levelo://app?vid=a5a6c2c1-2d48-4581-8647-6eab6c0bbb54"},"vehicle_type_id":"4","last_reported":1752174481,"current_range_meters":16400,"station_id":"","pricing_plan_id":"cebpf4jnsgd1na2vs0mg"},{"bike_id":"c7bc0b85-c966-4913-8908-15a71d65944b","system_id":"levelo_inurba_marseille","lat":43.35445,"lon":5.35713,"is_reserved":false,"is_disabled":false,"rental_uris":{"android":"levelo://app?vid=c7bc0b85-c966-4913-8908-15a71d65944b","ios":"levelo://app?vid=c7bc0b85-c966-4913-8908-15a71d65944b"},"vehicle_type_id":"4","last_reported":1752174481,"current_range_meters":16400,"station_id":"","pricing_plan_id":"cebpf4jnsgd1na2vs0mg"},{"bike_id":"24b17f7b-dff1-4936-b27a-7c2c6813a894","system_id":"levelo_inurba_marseille","lat":43.24577,"lon":5.3736,"is_reserved":false,"is_disabled":false,"rental_uris":{"android":"levelo://app?vid=24b17f7b-dff1-4936-b27a-7c2c6813a894","ios":"levelo://app?vid=24b17f7b-dff1-4936-b27a-7c2c6813a894"},"vehicle_type_id":"4","last_reported":1752174481,"current_range_meters":16400,"station_id":"","pricing_plan_id":"cebpf4jnsgd1na2vs0mg"},{"bike_id":"bcb5093d-72d2-421e-92d3-1be69245626d","system_id":"levelo_inurba_marseille","lat":43.282756,"lon":5.350723,"is_reserved":false,"is_disabled":false,"rental_uris":{"android":"levelo://app?vid=bcb5093d-72d2-421e-92d3-1be69245626d","ios":"levelo://app?vid=bcb5093d-72d2-421e-92d3-1be69245626d"},"vehicle_type_id":"4","last_reported":1752174481,"current_range_meters":16400,"station_id":"ce4bhbp2rcd13ifvqerg","pricing_plan_id":"cebpf4jnsgd1na2vs0mg"},{"bike_id":"0a16c66a-7288-4189-89da-61950214bfa0","system_id":"levelo_inurba_marseille","lat":43.292755,"lon":5.368431,"is_reserved":false,"is_disabled":false,"rental_uris":{"android":"levelo://app?vid=0a16c66a-7288-4189-89da-61950214bfa0","ios":"levelo://app?vid=0a16c66a-7288-4189-89da-61950214bfa0"},"vehicle_type_id":"4","last_reported":1752174481,"current_range_meters":16400,"station_id":"ce4bhbp2rcd13ifvqesg","pricing_plan_id":"cebpf4jnsgd1na2vs0mg"},{"bike_id":"667c09ea-c263-45c6-970e-66a91712704c","system_id":"levelo_inurba_marseille","lat":43.26548,"lon":5.37276,"is_reserved":false,"is_disabled":false,"rental_uris":{"android":"levelo://app?vid=667c09ea-c263-45c6-970e-66a91712704c","ios":"levelo://app?vid=667c09ea-c263-45c6-970e-66a91712704c"},"vehicle_type_id":"4","last_reported":1752174481,"current_range_meters":16400,"station_id":"ce4bhg12rcd13ifvqf70","pricing_plan_id":"cebpf4jnsgd1na2vs0mg"},{"bike_id":"a3de34e6-d647-4b2a-bb10-610642056870","system_id":"levelo_inurba_marseille","lat":43.30481,"lon":5.37895,"is_reserved":false,"is_disabled":false,"rental_uris":{"android":"levelo://app?vid=a3de34e6-d647-4b2a-bb10-610642056870","ios":"levelo://app?vid=a3de34e6-d647-4b2a-bb10-610642056870"},"vehicle_type_id":"4","last_reported":1752174481,"current_range_meters":16800,"station_id":"ce4bgup2rcd13ifvqcn0","pricing_plan_id":"cebpf4jnsgd1na2vs0mg"},{"bike_id":"6c436b36-960f-4ef5-9b55-d6b5371855ce","system_id":"levelo_inurba_marseille","lat":43.28406,"lon":5.34976,"is_reserved":false,"is_disabled":false,"rental_uris":{"android":"levelo://app?vid=6c436b36-960f-4ef5-9b55-d6b5371855ce","ios":"levelo://app?vid=6c436b36-960f-4ef5-9b55-d6b5371855ce"},"vehicle_type_id":"4","last_reported":1752174481,"current_range_meters":16800,"station_id":"ce4bhbh2rcd13ifvqepg","pricing_plan_id":"cebpf4jnsgd1na2vs0mg"},{"bike_id":"2aaad0ac-253a-434e-a4ce-92edbde19c37","system_id":"levelo_inurba_marseille","lat":43.26044,"lon":5.37528,"is_reserved":false,"is_disabled":false,"rental_uris":{"android":"levelo://app?vid=2aaad0ac-253a-434e-a4ce-92edbde19c37","ios":"levelo://app?vid=2aaad0ac-253a-434e-a4ce-92edbde19c37"},"vehicle_type_id":"4","last_reported":1752174481,"current_range_meters":16800,"station_id":"ce4bhgh2rcd13ifvqfa0","pricing_plan_id":"cebpf4jnsgd1na2vs0mg"},{"bike_id":"8f89e4f3-495a-4317-bd6d-37a19186d65b","system_id":"levelo_inurba_marseille","lat":43.33717,"lon":5.39189,"is_reserved":false,"is_disabled":false,"rental_uris":{"android":"levelo://app?vid=8f89e4f3-495a-4317-bd6d-37a19186d65b","ios":"levelo://app?vid=8f89e4f3-495a-4317-bd6d-37a19186d65b"},"vehicle_type_id":"4","last_reported":1752174481,"current_range_meters":16800,"station_id":"ce4bhr92rcd13ifvqhsg","pricing_plan_id":"cebpf4jnsgd1na2vs0mg"},{"bike_id":"9b8d88ed-6470-44a5-bbbe-5ed7e95c1cb7","system_id":"levelo_inurba_marseille","lat":43.24176,"lon":5.36373,"is_reserved":false,"is_disabled":false,"rental_uris":{"android":"levelo://app?vid=9b8d88ed-6470-44a5-bbbe-5ed7e95c1cb7","ios":"levelo://app?vid=9b8d88ed-6470-44a5-bbbe-5ed7e95c1cb7"},"vehicle_type_id":"4","last_reported":1752174481,"current_range_meters":16800,"station_id":"cpo36qri1sfpv3e86is0","pricing_plan_id":"cebpf4jnsgd1na2vs0mg"},{"bike_id":"6737467a-fe5d-470c-a191-2df05ebbb3bb","system_id":"levelo_inurba_marseille","lat":43.22506,"lon":5.34763,"is_reserved":false,"is_disabled":false,"rental_uris":{"android":"levelo://app?vid=6737467a-fe5d-470c-a191-2df05ebbb3bb","ios":"levelo://app?vid=6737467a-fe5d-470c-a191-2df05ebbb3bb"},"vehicle_type_id":"4","last_reported":1752174481,"current_range_meters":16800,"station_id":"st_cvj5dfep6f1abm77gieg","pricing_plan_id":"cebpf4jnsgd1na2vs0mg"},{"bike_id":"a27c01d4-977b-4bc7-a2ef-e89407d4dbd5","system_id":"levelo_inurba_marseille","lat":43.3107,"lon":5.38372,"is_reserved":false,"is_disabled":false,"rental_uris":{"android":"levelo://app?vid=a27c01d4-977b-4bc7-a2ef-e89407d4dbd5","ios":"levelo://app?vid=a27c01d4-977b-4bc7-a2ef-e89407d4dbd5"},"vehicle_type_id":"4","last_reported":1752174481,"current_range_meters":17200,"station_id":"ce4bgv92rcd13ifvqcr0","pricing_plan_id":"cebpf4jnsgd1na2vs0mg"},{"bike_id":"a5261600-9255-42e2-b637-5a80bb2b2650","system_id":"levelo_inurba_marseille","lat":43.29529,"lon":5.39029,"is_reserved":false,"is_disabled":false,"rental_uris":{"android":"levelo://app?vid=a5261600-9255-42e2-b637-5a80bb2b2650","ios":"levelo://app?vid=a5261600-9255-42e2-b637-5a80bb2b2650"},"vehicle_type_id":"4","last_reported":1752174481,"current_range_meters":17200,"station_id":"ce4bh3p2rcd13ifvqdp0","pricing_plan_id":"cebpf4jnsgd1na2vs0mg"},{"bike_id":"96493667-9202-4d3c-ad4d-311823444d22","system_id":"levelo_inurba_marseille","lat":43.27368,"lon":5.36236,"is_reserved":false,"is_disabled":false,"rental_uris":{"android":"levelo://app?vid=96493667-9202-4d3c-ad4d-311823444d22","ios":"levelo://app?vid=96493667-9202-4d3c-ad4d-311823444d22"},"vehicle_type_id":"4","last_reported":1752174481,"current_range_meters":17200,"station_id":"ce4bhbh2rcd13ifvqeo0","pricing_plan_id":"cebpf4jnsgd1na2vs0mg"},{"bike_id":"f622bfc3-b539-4648-b79f-31e7dc6b48f1","system_id":"levelo_inurba_marseille","lat":43.29274,"lon":5.36841,"is_reserved":false,"is_disabled":false,"rental_uris":{"android":"levelo://app?vid=f622bfc3-b539-4648-b79f-31e7dc6b48f1","ios":"levelo://app?vid=f622bfc3-b539-4648-b79f-31e7dc6b48f1"},"vehicle_type_id":"4","last_reported":1752174481,"current_range_meters":17200,"station_id":"ce4bhbp2rcd13ifvqesg","pricing_plan_id":"cebpf4jnsgd1na2vs0mg"},{"bike_id":"bb5f6e14-9798-4952-af04-7c292094af51","system_id":"levelo_inurba_marseille","lat":43.28615,"lon":5.35096,"is_reserved":false,"is_disabled":false,"rental_uris":{"android":"levelo://app?vid=bb5f6e14-9798-4952-af04-7c292094af51","ios":"levelo://app?vid=bb5f6e14-9798-4952-af04-7c292094af51"},"vehicle_type_id":"4","last_reported":1752174481,"current_range_meters":17200,"station_id":"ce4bhch2rcd13ifvqeug","pricing_plan_id":"cebpf4jnsgd1na2vs0mg"},{"bike_id":"c3c5b26c-e834-4db6-994b-52abb31f20f1","system_id":"levelo_inurba_marseille","lat":43.240744,"lon":5.377544,"is_reserved":false,"is_disabled":false,"rental_uris":{"android":"levelo://app?vid=c3c5b26c-e834-4db6-994b-52abb31f20f1","ios":"levelo://app?vid=c3c5b26c-e834-4db6-994b-52abb31f20f1"},"vehicle_type_id":"4","last_reported":1752174481,"current_range_meters":17200,"station_id":"ce4bhnp2rcd13ifvqgvg","pricing_plan_id":"cebpf4jnsgd1na2vs0mg"},{"bike_id":"8a7370c0-03bc-4058-a679-333b3310b8db","system_id":"levelo_inurba_marseille","lat":43.29556,"lon":5.4229,"is_reserved":false,"is_disabled":false,"rental_uris":{"android":"levelo://app?vid=8a7370c0-03bc-4058-a679-333b3310b8db","ios":"levelo://app?vid=8a7370c0-03bc-4058-a679-333b3310b8db"},"vehicle_type_id":"4","last_reported":1752174481,"current_range_meters":17200,"station_id":"ce4bhph2rcd13ifvqhdg","pricing_plan_id":"cebpf4jnsgd1na2vs0mg"},{"bike_id":"29a0a180-d29f-4a4e-a71b-d1d9d42cb217","system_id":"levelo_inurba_marseille","lat":43.21199,"lon":5.35096,"is_reserved":false,"is_disabled":false,"rental_uris":{"android":"levelo://app?vid=29a0a180-d29f-4a4e-a71b-d1d9d42cb217","ios":"levelo://app?vid=29a0a180-d29f-4a4e-a71b-d1d9d42cb217"},"vehicle_type_id":"4","last_reported":1752174481,"current_range_meters":17200,"station_id":"st_cvj6sg6p6f1abm77japg","pricing_plan_id":"cebpf4jnsgd1na2vs0mg"},{"bike_id":"c1a2a69e-9bf5-4849-b55f-6847b98c70a7","system_id":"levelo_inurba_marseille","lat":43.28262,"lon":5.35059,"is_reserved":false,"is_disabled":false,"rental_uris":{"android":"levelo://app?vid=c1a2a69e-9bf5-4849-b55f-6847b98c70a7","ios":"levelo://app?vid=c1a2a69e-9bf5-4849-b55f-6847b98c70a7"},"vehicle_type_id":"4","last_reported":1752174481,"current_range_meters":17600,"station_id":"","pricing_plan_id":"cebpf4jnsgd1na2vs0mg"},{"bike_id":"595e9351-a7ce-45de-8995-771f7d9fe86e","system_id":"levelo_inurba_marseille","lat":43.309243,"lon":5.378088,"is_reserved":false,"is_disabled":false,"rental_uris":{"android":"levelo://app?vid=595e9351-a7ce-45de-8995-771f7d9fe86e","ios":"levelo://app?vid=595e9351-a7ce-45de-8995-771f7d9fe86e"},"vehicle_type_id":"4","last_reported":1752174481,"current_range_meters":17600,"station_id":"","pricing_plan_id":"cebpf4jnsgd1na2vs0mg"},{"bike_id":"a3d2739a-f745-4b9f-8033-6afef72cd8a1","system_id":"levelo_inurba_marseille","lat":43.286963,"lon":5.37383,"is_reserved":false,"is_disabled":false,"rental_uris":{"android":"levelo://app?vid=a3d2739a-f745-4b9f-8033-6afef72cd8a1","ios":"levelo://app?vid=a3d2739a-f745-4b9f-8033-6afef72cd8a1"},"vehicle_type_id":"4","last_reported":1752174481,"current_range_meters":17600,"station_id":"ce4bh3p2rcd13ifvqdq0","pricing_plan_id":"cebpf4jnsgd1na2vs0mg"},{"bike_id":"76184d21-3c87-4dcd-bc39-1d5462b7187f","system_id":"levelo_inurba_marseille","lat":43.27374,"lon":5.36251,"is_reserved":false,"is_disabled":false,"rental_uris":{"android":"levelo://app?vid=76184d21-3c87-4dcd-bc39-1d5462b7187f","ios":"levelo://app?vid=76184d21-3c87-4dcd-bc39-1d5462b7187f"},"vehicle_type_id":"4","last_reported":1752174481,"current_range_meters":17600,"station_id":"ce4bhbh2rcd13ifvqeo0","pricing_plan_id":"cebpf4jnsgd1na2vs0mg"},{"bike_id":"41afca09-a512-4843-94c2-596db98db4ec","system_id":"levelo_inurba_marseille","lat":43.27373,"lon":5.36258,"is_reserved":false,"is_disabled":false,"rental_uris":{"android":"levelo://app?vid=41afca09-a512-4843-94c2-596db98db4ec","ios":"levelo://app?vid=41afca09-a512-4843-94c2-596db98db4ec"},"vehicle_type_id":"4","last_reported":1752174481,"current_range_meters":17600,"station_id":"ce4bhbh2rcd13ifvqeo0","pricing_plan_id":"cebpf4jnsgd1na2vs0mg"},{"bike_id":"d33cbabe-8724-4b7d-a873-a5476968f7d3","system_id":"levelo_inurba_marseille","lat":43.28417,"lon":5.34976,"is_reserved":false,"is_disabled":false,"rental_uris":{"android":"levelo://app?vid=d33cbabe-8724-4b7d-a873-a5476968f7d3","ios":"levelo://app?vid=d33cbabe-8724-4b7d-a873-a5476968f7d3"},"vehicle_type_id":"4","last_reported":1752174481,"current_range_meters":17600,"station_id":"ce4bhbh2rcd13ifvqepg","pricing_plan_id":"cebpf4jnsgd1na2vs0mg"},{"bike_id":"8a87d126-7081-40d3-970c-6975ed1bc78e","system_id":"levelo_inurba_marseille","lat":43.2321,"lon":5.35581,"is_reserved":false,"is_disabled":false,"rental_uris":{"android":"levelo://app?vid=8a87d126-7081-40d3-970c-6975ed1bc78e","ios":"levelo://app?vid=8a87d126-7081-40d3-970c-6975ed1bc78e"},"vehicle_type_id":"4","last_reported":1752174481,"current_range_meters":17600,"station_id":"ce4bhu92rcd13ifvqi70","pricing_plan_id":"cebpf4jnsgd1na2vs0mg"},{"bike_id":"5423e7d5-07f9-4264-9d42-219884898d7f","system_id":"levelo_inurba_marseille","lat":43.241714,"lon":5.363882,"is_reserved":false,"is_disabled":false,"rental_uris":{"android":"levelo://app?vid=5423e7d5-07f9-4264-9d42-219884898d7f","ios":"levelo://app?vid=5423e7d5-07f9-4264-9d42-219884898d7f"},"vehicle_type_id":"4","last_reported":1752174481,"current_range_meters":17600,"station_id":"cpo36qri1sfpv3e86is0","pricing_plan_id":"cebpf4jnsgd1na2vs0mg"},{"bike_id":"8b440aeb-3c8b-4650-9f24-9c9b62dd74de","system_id":"levelo_inurba_marseille","lat":43.21214,"lon":5.35062,"is_reserved":false,"is_disabled":false,"rental_uris":{"android":"levelo://app?vid=8b440aeb-3c8b-4650-9f24-9c9b62dd74de","ios":"levelo://app?vid=8b440aeb-3c8b-4650-9f24-9c9b62dd74de"},"vehicle_type_id":"4","last_reported":1752174481,"current_range_meters":17600,"station_id":"st_cvj6sg6p6f1abm77japg","pricing_plan_id":"cebpf4jnsgd1na2vs0mg"},{"bike_id":"eb4cf76f-b0c6-441b-823a-117ef8d33a09","system_id":"levelo_inurba_marseille","lat":43.29532,"lon":5.38544,"is_reserved":false,"is_disabled":false,"rental_uris":{"android":"levelo://app?vid=eb4cf76f-b0c6-441b-823a-117ef8d33a09","ios":"levelo://app?vid=eb4cf76f-b0c6-441b-823a-117ef8d33a09"},"vehicle_type_id":"4","last_reported":1752174481,"current_range_meters":18000,"station_id":"ce4bgih2rcd13ifvqba0","pricing_plan_id":"cebpf4jnsgd1na2vs0mg"},{"bike_id":"032094f6-f8a9-4604-a3b5-4000c84cbcdc","system_id":"levelo_inurba_marseille","lat":43.30324,"lon":5.40431,"is_reserved":false,"is_disabled":false,"rental_uris":{"android":"levelo://app?vid=032094f6-f8a9-4604-a3b5-4000c84cbcdc","ios":"levelo://app?vid=032094f6-f8a9-4604-a3b5-4000c84cbcdc"},"vehicle_type_id":"4","last_reported":1752174481,"current_range_meters":18000,"station_id":"ce4bh012rcd13ifvqd10","pricing_plan_id":"cebpf4jnsgd1na2vs0mg"},{"bike_id":"74b56b5c-7101-429d-bd50-fa33a326ffc2","system_id":"levelo_inurba_marseille","lat":43.28414,"lon":5.34986,"is_reserved":false,"is_disabled":false,"rental_uris":{"android":"levelo://app?vid=74b56b5c-7101-429d-bd50-fa33a326ffc2","ios":"levelo://app?vid=74b56b5c-7101-429d-bd50-fa33a326ffc2"},"vehicle_type_id":"4","last_reported":1752174481,"current_range_meters":18000,"station_id":"ce4bhbh2rcd13ifvqepg","pricing_plan_id":"cebpf4jnsgd1na2vs0mg"},{"bike_id":"e3a75ee9-c614-467b-8cc2-f813bcef2ab1","system_id":"levelo_inurba_marseille","lat":43.33743,"lon":5.3919,"is_reserved":false,"is_disabled":false,"rental_uris":{"android":"levelo://app?vid=e3a75ee9-c614-467b-8cc2-f813bcef2ab1","ios":"levelo://app?vid=e3a75ee9-c614-467b-8cc2-f813bcef2ab1"},"vehicle_type_id":"4","last_reported":1752174481,"current_range_meters":18000,"station_id":"ce4bhr92rcd13ifvqhsg","pricing_plan_id":"cebpf4jnsgd1na2vs0mg"},{"bike_id":"4518e2ba-5581-4445-b885-748b2c6d1894","system_id":"levelo_inurba_marseille","lat":43.28612,"lon":5.37062,"is_reserved":false,"is_disabled":false,"rental_uris":{"android":"levelo://app?vid=4518e2ba-5581-4445-b885-748b2c6d1894","ios":"levelo://app?vid=4518e2ba-5581-4445-b885-748b2c6d1894"},"vehicle_type_id":"4","last_reported":1752174481,"current_range_meters":18000,"station_id":"ce4bht12rcd13ifvqi60","pricing_plan_id":"cebpf4jnsgd1na2vs0mg"},{"bike_id":"bd69f1e7-b901-41a0-b2c9-aee4bd027443","system_id":"levelo_inurba_marseille","lat":43.21189,"lon":5.35056,"is_reserved":false,"is_disabled":false,"rental_uris":{"android":"levelo://app?vid=bd69f1e7-b901-41a0-b2c9-aee4bd027443","ios":"levelo://app?vid=bd69f1e7-b901-41a0-b2c9-aee4bd027443"},"vehicle_type_id":"4","last_reported":1752174481,"current_range_meters":18000,"station_id":"st_cvj6sg6p6f1abm77japg","pricing_plan_id":"cebpf4jnsgd1na2vs0mg"},{"bike_id":"96f82260-718a-4e3a-9802-28ac9d732e83","system_id":"levelo_inurba_marseille","lat":43.26161,"lon":5.37468,"is_reserved":false,"is_disabled":false,"rental_uris":{"android":"levelo://app?vid=96f82260-718a-4e3a-9802-28ac9d732e83","ios":"levelo://app?vid=96f82260-718a-4e3a-9802-28ac9d732e83"},"vehicle_type_id":"4","last_reported":1752174481,"current_range_meters":18800,"station_id":"","pricing_plan_id":"cebpf4jnsgd1na2vs0mg"},{"bike_id":"cb8db05c-7ef4-4fcf-b321-cdc13d7cccad","system_id":"levelo_inurba_marseille","lat":43.29086,"lon":5.35566,"is_reserved":false,"is_disabled":false,"rental_uris":{"android":"levelo://app?vid=cb8db05c-7ef4-4fcf-b321-cdc13d7cccad","ios":"levelo://app?vid=cb8db05c-7ef4-4fcf-b321-cdc13d7cccad"},"vehicle_type_id":"4","last_reported":1752174481,"current_range_meters":18800,"station_id":"","pricing_plan_id":"cebpf4jnsgd1na2vs0mg"},{"bike_id":"3978bae7-4453-43a5-b556-a41bfd3bd5a4","system_id":"levelo_inurba_marseille","lat":43.28933,"lon":5.36627,"is_reserved":false,"is_disabled":false,"rental_uris":{"android":"levelo://app?vid=3978bae7-4453-43a5-b556-a41bfd3bd5a4","ios":"levelo://app?vid=3978bae7-4453-43a5-b556-a41bfd3bd5a4"},"vehicle_type_id":"4","last_reported":1752174481,"current_range_meters":18800,"station_id":"ce4bhap2rcd13ifvqek0","pricing_plan_id":"cebpf4jnsgd1na2vs0mg"},{"bike_id":"9fca92a7-4425-49cb-95c7-cdac4cfc0880","system_id":"levelo_inurba_marseille","lat":43.28941,"lon":5.36631,"is_reserved":false,"is_disabled":false,"rental_uris":{"android":"levelo://app?vid=9fca92a7-4425-49cb-95c7-cdac4cfc0880","ios":"levelo://app?vid=9fca92a7-4425-49cb-95c7-cdac4cfc0880"},"vehicle_type_id":"4","last_reported":1752174481,"current_range_meters":18800,"station_id":"ce4bhap2rcd13ifvqek0","pricing_plan_id":"cebpf4jnsgd1na2vs0mg"},{"bike_id":"0c5fa442-c00e-48a4-8d03-29c07aabf9b8","system_id":"levelo_inurba_marseille","lat":43.2863,"lon":5.35073,"is_reserved":false,"is_disabled":false,"rental_uris":{"android":"levelo://app?vid=0c5fa442-c00e-48a4-8d03-29c07aabf9b8","ios":"levelo://app?vid=0c5fa442-c00e-48a4-8d03-29c07aabf9b8"},"vehicle_type_id":"4","last_reported":1752174481,"current_range_meters":18800,"station_id":"ce4bhch2rcd13ifvqeug","pricing_plan_id":"cebpf4jnsgd1na2vs0mg"},{"bike_id":"479b69d4-3376-4ae6-bc74-41dcf16b0474","system_id":"levelo_inurba_marseille","lat":43.22506,"lon":5.34781,"is_reserved":false,"is_disabled":false,"rental_uris":{"android":"levelo://app?vid=479b69d4-3376-4ae6-bc74-41dcf16b0474","ios":"levelo://app?vid=479b69d4-3376-4ae6-bc74-41dcf16b0474"},"vehicle_type_id":"4","last_reported":1752174481,"current_range_meters":18800,"station_id":"st_cvj5dfep6f1abm77gieg","pricing_plan_id":"cebpf4jnsgd1na2vs0mg"},{"bike_id":"449cd995-a771-4444-99a5-37d819f2f616","system_id":"levelo_inurba_marseille","lat":43.309583,"lon":5.379739,"is_reserved":false,"is_disabled":false,"rental_uris":{"android":"levelo://app?vid=449cd995-a771-4444-99a5-37d819f2f616","ios":"levelo://app?vid=449cd995-a771-4444-99a5-37d819f2f616"},"vehicle_type_id":"4","last_reported":1752174481,"current_range_meters":19200,"station_id":"ce4bgt12rcd13ifvqce0","pricing_plan_id":"cebpf4jnsgd1na2vs0mg"},{"bike_id":"0a3a35e2-dcbf-41d0-8718-c387a6f0eaef","system_id":"levelo_inurba_marseille","lat":43.29255,"lon":5.40914,"is_reserved":false,"is_disabled":false,"rental_uris":{"android":"levelo://app?vid=0a3a35e2-dcbf-41d0-8718-c387a6f0eaef","ios":"levelo://app?vid=0a3a35e2-dcbf-41d0-8718-c387a6f0eaef"},"vehicle_type_id":"4","last_reported":1752174481,"current_range_meters":19200,"station_id":"ce4bh192rcd13ifvqdc0","pricing_plan_id":"cebpf4jnsgd1na2vs0mg"},{"bike_id":"ede4da05-bb6f-4406-9f26-54cb79203e61","system_id":"levelo_inurba_marseille","lat":43.29203,"lon":5.3933,"is_reserved":false,"is_disabled":false,"rental_uris":{"android":"levelo://app?vid=ede4da05-bb6f-4406-9f26-54cb79203e61","ios":"levelo://app?vid=ede4da05-bb6f-4406-9f26-54cb79203e61"},"vehicle_type_id":"4","last_reported":1752174481,"current_range_meters":19200,"station_id":"ce4bh192rcd13ifvqdd0","pricing_plan_id":"cebpf4jnsgd1na2vs0mg"},{"bike_id":"d051ddb8-c4ce-4517-b5dd-9f610b6d2d37","system_id":"levelo_inurba_marseille","lat":43.27907,"lon":5.38007,"is_reserved":false,"is_disabled":false,"rental_uris":{"android":"levelo://app?vid=d051ddb8-c4ce-4517-b5dd-9f610b6d2d37","ios":"levelo://app?vid=d051ddb8-c4ce-4517-b5dd-9f610b6d2d37"},"vehicle_type_id":"4","last_reported":1752174481,"current_range_meters":19200,"station_id":"ce4bhf92rcd13ifvqf50","pricing_plan_id":"cebpf4jnsgd1na2vs0mg"},{"bike_id":"7c7034fd-107d-4dc3-a500-b58c762d64f0","system_id":"levelo_inurba_marseille","lat":43.2406,"lon":5.37736,"is_reserved":false,"is_disabled":false,"rental_uris":{"android":"levelo://app?vid=7c7034fd-107d-4dc3-a500-b58c762d64f0","ios":"levelo://app?vid=7c7034fd-107d-4dc3-a500-b58c762d64f0"},"vehicle_type_id":"4","last_reported":1752174481,"current_range_meters":19200,"station_id":"ce4bhnp2rcd13ifvqgvg","pricing_plan_id":"cebpf4jnsgd1na2vs0mg"},{"bike_id":"ecec5a70-47e2-4076-ac88-b63310387724","system_id":"levelo_inurba_marseille","lat":43.21746,"lon":5.34607,"is_reserved":false,"is_disabled":false,"rental_uris":{"android":"levelo://app?vid=ecec5a70-47e2-4076-ac88-b63310387724","ios":"levelo://app?vid=ecec5a70-47e2-4076-ac88-b63310387724"},"vehicle_type_id":"4","last_reported":1752174481,"current_range_meters":19200,"station_id":"st_cvj6r9ubvosntc0bgbag","pricing_plan_id":"cebpf4jnsgd1na2vs0mg"},{"bike_id":"dafa5a87-b26d-4379-9a6b-1f02133b78a6","system_id":"levelo_inurba_marseille","lat":43.21193,"lon":5.35067,"is_reserved":false,"is_disabled":false,"rental_uris":{"android":"levelo://app?vid=dafa5a87-b26d-4379-9a6b-1f02133b78a6","ios":"levelo://app?vid=dafa5a87-b26d-4379-9a6b-1f02133b78a6"},"vehicle_type_id":"4","last_reported":1752174481,"current_range_meters":19200,"station_id":"st_cvj6sg6p6f1abm77japg","pricing_plan_id":"cebpf4jnsgd1na2vs0mg"},{"bike_id":"43b90c82-97e0-4fa7-8b67-2448f07d529e","system_id":"levelo_inurba_marseille","lat":43.21189,"lon":5.35071,"is_reserved":false,"is_disabled":false,"rental_uris":{"android":"levelo://app?vid=43b90c82-97e0-4fa7-8b67-2448f07d529e","ios":"levelo://app?vid=43b90c82-97e0-4fa7-8b67-2448f07d529e"},"vehicle_type_id":"4","last_reported":1752174481,"current_range_meters":19600,"station_id":"","pricing_plan_id":"cebpf4jnsgd1na2vs0mg"},{"bike_id":"7b5cd6ce-df57-4328-854d-cb2d1407ab18","system_id":"levelo_inurba_marseille","lat":43.33075,"lon":5.39033,"is_reserved":false,"is_disabled":false,"rental_uris":{"android":"levelo://app?vid=7b5cd6ce-df57-4328-854d-cb2d1407ab18","ios":"levelo://app?vid=7b5cd6ce-df57-4328-854d-cb2d1407ab18"},"vehicle_type_id":"4","last_reported":1752174481,"current_range_meters":19600,"station_id":"","pricing_plan_id":"cebpf4jnsgd1na2vs0mg"},{"bike_id":"e546b10d-ff07-4fcb-ba2c-0819cd942750","system_id":"levelo_inurba_marseille","lat":43.29977,"lon":5.3849,"is_reserved":false,"is_disabled":false,"rental_uris":{"android":"levelo://app?vid=e546b10d-ff07-4fcb-ba2c-0819cd942750","ios":"levelo://app?vid=e546b10d-ff07-4fcb-ba2c-0819cd942750"},"vehicle_type_id":"4","last_reported":1752174481,"current_range_meters":19600,"station_id":"ce4bgj92rcd13ifvqbd0","pricing_plan_id":"cebpf4jnsgd1na2vs0mg"},{"bike_id":"dfa6582f-0d8a-4c25-abf8-37adb7d47e0e","system_id":"levelo_inurba_marseille","lat":43.2925,"lon":5.38386,"is_reserved":false,"is_disabled":false,"rental_uris":{"android":"levelo://app?vid=dfa6582f-0d8a-4c25-abf8-37adb7d47e0e","ios":"levelo://app?vid=dfa6582f-0d8a-4c25-abf8-37adb7d47e0e"},"vehicle_type_id":"4","last_reported":1752174481,"current_range_meters":19600,"station_id":"ce4bh692rcd13ifvqea0","pricing_plan_id":"cebpf4jnsgd1na2vs0mg"},{"bike_id":"24a98626-1eb1-4ed5-bd2e-fafce47cf9b2","system_id":"levelo_inurba_marseille","lat":43.289978,"lon":5.356136,"is_reserved":false,"is_disabled":false,"rental_uris":{"android":"levelo://app?vid=24a98626-1eb1-4ed5-bd2e-fafce47cf9b2","ios":"levelo://app?vid=24a98626-1eb1-4ed5-bd2e-fafce47cf9b2"},"vehicle_type_id":"4","last_reported":1752174481,"current_range_meters":19600,"station_id":"ce4bhb92rcd13ifvqen0","pricing_plan_id":"cebpf4jnsgd1na2vs0mg"},{"bike_id":"cd0db069-a7fa-4c85-b822-14eda541dcdf","system_id":"levelo_inurba_marseille","lat":43.28448,"lon":5.34983,"is_reserved":false,"is_disabled":false,"rental_uris":{"android":"levelo://app?vid=cd0db069-a7fa-4c85-b822-14eda541dcdf","ios":"levelo://app?vid=cd0db069-a7fa-4c85-b822-14eda541dcdf"},"vehicle_type_id":"4","last_reported":1752174481,"current_range_meters":19600,"station_id":"ce4bhbh2rcd13ifvqepg","pricing_plan_id":"cebpf4jnsgd1na2vs0mg"},{"bike_id":"37b84a38-055a-4a6e-a56a-8ff3d0c1b2ec","system_id":"levelo_inurba_marseille","lat":43.21195,"lon":5.3508,"is_reserved":false,"is_disabled":false,"rental_uris":{"android":"levelo://app?vid=37b84a38-055a-4a6e-a56a-8ff3d0c1b2ec","ios":"levelo://app?vid=37b84a38-055a-4a6e-a56a-8ff3d0c1b2ec"},"vehicle_type_id":"4","last_reported":1752174481,"current_range_meters":19600,"station_id":"st_cvj6sg6p6f1abm77japg","pricing_plan_id":"cebpf4jnsgd1na2vs0mg"},{"bike_id":"52bbed55-bb43-4609-aa14-ca80dd09df26","system_id":"levelo_inurba_marseille","lat":43.33748,"lon":5.37481,"is_reserved":false,"is_disabled":false,"rental_uris":{"android":"levelo://app?vid=52bbed55-bb43-4609-aa14-ca80dd09df26","ios":"levelo://app?vid=52bbed55-bb43-4609-aa14-ca80dd09df26"},"vehicle_type_id":"4","last_reported":1752174481,"current_range_meters":20000,"station_id":"","pricing_plan_id":"cebpf4jnsgd1na2vs0mg"},{"bike_id":"63386621-0597-4134-99bf-8c6226cd183e","system_id":"levelo_inurba_marseille","lat":43.31065,"lon":5.40091,"is_reserved":false,"is_disabled":false,"rental_uris":{"android":"levelo://app?vid=63386621-0597-4134-99bf-8c6226cd183e","ios":"levelo://app?vid=63386621-0597-4134-99bf-8c6226cd183e"},"vehicle_type_id":"4","last_reported":1752174481,"current_range_meters":20000,"station_id":"","pricing_plan_id":"cebpf4jnsgd1na2vs0mg"},{"bike_id":"df94f5e2-89e5-42ef-91e0-9854ebcf637f","system_id":"levelo_inurba_marseille","lat":43.29532,"lon":5.38529,"is_reserved":false,"is_disabled":false,"rental_uris":{"android":"levelo://app?vid=df94f5e2-89e5-42ef-91e0-9854ebcf637f","ios":"levelo://app?vid=df94f5e2-89e5-42ef-91e0-9854ebcf637f"},"vehicle_type_id":"4","last_reported":1752174481,"current_range_meters":20000,"station_id":"ce4bgih2rcd13ifvqba0","pricing_plan_id":"cebpf4jnsgd1na2vs0mg"},{"bike_id":"a7f206db-dff6-40b5-b01c-ef5daaefa333","system_id":"levelo_inurba_marseille","lat":43.30428,"lon":5.38879,"is_reserved":false,"is_disabled":false,"rental_uris":{"android":"levelo://app?vid=a7f206db-dff6-40b5-b01c-ef5daaefa333","ios":"levelo://app?vid=a7f206db-dff6-40b5-b01c-ef5daaefa333"},"vehicle_type_id":"4","last_reported":1752174481,"current_range_meters":20000,"station_id":"ce4bgk12rcd13ifvqbi0","pricing_plan_id":"cebpf4jnsgd1na2vs0mg"},{"bike_id":"b494d4c2-32a5-46eb-b6e0-5614e2462b49","system_id":"levelo_inurba_marseille","lat":43.3033,"lon":5.40441,"is_reserved":false,"is_disabled":false,"rental_uris":{"android":"levelo://app?vid=b494d4c2-32a5-46eb-b6e0-5614e2462b49","ios":"levelo://app?vid=b494d4c2-32a5-46eb-b6e0-5614e2462b49"},"vehicle_type_id":"4","last_reported":1752174481,"current_range_meters":20000,"station_id":"ce4bh012rcd13ifvqd10","pricing_plan_id":"cebpf4jnsgd1na2vs0mg"},{"bike_id":"fe178ab9-ac92-4edc-9519-c2aae190c250","system_id":"levelo_inurba_marseille","lat":43.28705,"lon":5.37395,"is_reserved":false,"is_disabled":false,"rental_uris":{"android":"levelo://app?vid=fe178ab9-ac92-4edc-9519-c2aae190c250","ios":"levelo://app?vid=fe178ab9-ac92-4edc-9519-c2aae190c250"},"vehicle_type_id":"4","last_reported":1752174481,"current_range_meters":20000,"station_id":"ce4bh3p2rcd13ifvqdq0","pricing_plan_id":"cebpf4jnsgd1na2vs0mg"},{"bike_id":"00dc09d9-9698-4a45-9eaa-d8eca2a55a99","system_id":"levelo_inurba_marseille","lat":43.29206,"lon":5.35776,"is_reserved":false,"is_disabled":false,"rental_uris":{"android":"levelo://app?vid=00dc09d9-9698-4a45-9eaa-d8eca2a55a99","ios":"levelo://app?vid=00dc09d9-9698-4a45-9eaa-d8eca2a55a99"},"vehicle_type_id":"4","last_reported":1752174481,"current_range_meters":20000,"station_id":"ce4bhb12rcd13ifvqel0","pricing_plan_id":"cebpf4jnsgd1na2vs0mg"},{"bike_id":"68826ec1-2d41-4bb5-a405-afb62c7d1197","system_id":"levelo_inurba_marseille","lat":43.28422,"lon":5.34981,"is_reserved":false,"is_disabled":false,"rental_uris":{"android":"levelo://app?vid=68826ec1-2d41-4bb5-a405-afb62c7d1197","ios":"levelo://app?vid=68826ec1-2d41-4bb5-a405-afb62c7d1197"},"vehicle_type_id":"4","last_reported":1752174481,"current_range_meters":20000,"station_id":"ce4bhbh2rcd13ifvqepg","pricing_plan_id":"cebpf4jnsgd1na2vs0mg"},{"bike_id":"a3fa42f8-9557-4a49-8ca7-00a642b00456","system_id":"levelo_inurba_marseille","lat":43.28418,"lon":5.349864,"is_reserved":false,"is_disabled":false,"rental_uris":{"android":"levelo://app?vid=a3fa42f8-9557-4a49-8ca7-00a642b00456","ios":"levelo://app?vid=a3fa42f8-9557-4a49-8ca7-00a642b00456"},"vehicle_type_id":"4","last_reported":1752174481,"current_range_meters":20400,"station_id":"","pricing_plan_id":"cebpf4jnsgd1na2vs0mg"},{"bike_id":"5f9facdb-d1e1-40e1-8ceb-766e4b9ac193","system_id":"levelo_inurba_marseille","lat":43.21754,"lon":5.345992,"is_reserved":false,"is_disabled":false,"rental_uris":{"android":"levelo://app?vid=5f9facdb-d1e1-40e1-8ceb-766e4b9ac193","ios":"levelo://app?vid=5f9facdb-d1e1-40e1-8ceb-766e4b9ac193"},"vehicle_type_id":"4","last_reported":1752174481,"current_range_meters":20400,"station_id":"","pricing_plan_id":"cebpf4jnsgd1na2vs0mg"},{"bike_id":"b3982d5a-a27e-44d2-bba2-f1a427f3311d","system_id":"levelo_inurba_marseille","lat":43.29407,"lon":5.38615,"is_reserved":false,"is_disabled":false,"rental_uris":{"android":"levelo://app?vid=b3982d5a-a27e-44d2-bba2-f1a427f3311d","ios":"levelo://app?vid=b3982d5a-a27e-44d2-bba2-f1a427f3311d"},"vehicle_type_id":"4","last_reported":1752174481,"current_range_meters":20400,"station_id":"ce4bh2h2rcd13ifvqdh0","pricing_plan_id":"cebpf4jnsgd1na2vs0mg"},{"bike_id":"5e8e2973-8562-414c-a2a7-f651670dd623","system_id":"levelo_inurba_marseille","lat":43.2842,"lon":5.34978,"is_reserved":false,"is_disabled":false,"rental_uris":{"android":"levelo://app?vid=5e8e2973-8562-414c-a2a7-f651670dd623","ios":"levelo://app?vid=5e8e2973-8562-414c-a2a7-f651670dd623"},"vehicle_type_id":"4","last_reported":1752174481,"current_range_meters":20400,"station_id":"ce4bhbh2rcd13ifvqepg","pricing_plan_id":"cebpf4jnsgd1na2vs0mg"},{"bike_id":"dbba3321-20c7-4989-a7b5-ea9ab2c4b3e8","system_id":"levelo_inurba_marseille","lat":43.261935,"lon":5.374477,"is_reserved":false,"is_disabled":false,"rental_uris":{"android":"levelo://app?vid=dbba3321-20c7-4989-a7b5-ea9ab2c4b3e8","ios":"levelo://app?vid=dbba3321-20c7-4989-a7b5-ea9ab2c4b3e8"},"vehicle_type_id":"4","last_reported":1752174481,"current_range_meters":20400,"station_id":"ce4bhgp2rcd13ifvqfc0","pricing_plan_id":"cebpf4jnsgd1na2vs0mg"},{"bike_id":"8f1dfd80-f852-4430-8955-754138879fcc","system_id":"levelo_inurba_marseille","lat":43.23964,"lon":5.36635,"is_reserved":false,"is_disabled":false,"rental_uris":{"android":"levelo://app?vid=8f1dfd80-f852-4430-8955-754138879fcc","ios":"levelo://app?vid=8f1dfd80-f852-4430-8955-754138879fcc"},"vehicle_type_id":"4","last_reported":1752174481,"current_range_meters":20400,"station_id":"ce4bhi12rcd13ifvqfp0","pricing_plan_id":"cebpf4jnsgd1na2vs0mg"},{"bike_id":"6008315e-1f21-4d1b-8275-f2e34dd27c69","system_id":"levelo_inurba_marseille","lat":43.27997,"lon":5.40008,"is_reserved":false,"is_disabled":false,"rental_uris":{"android":"levelo://app?vid=6008315e-1f21-4d1b-8275-f2e34dd27c69","ios":"levelo://app?vid=6008315e-1f21-4d1b-8275-f2e34dd27c69"},"vehicle_type_id":"4","last_reported":1752174481,"current_range_meters":20400,"station_id":"ce4bho92rcd13ifvqh4g","pricing_plan_id":"cebpf4jnsgd1na2vs0mg"},{"bike_id":"50a157d9-2025-49a4-8651-be34baba50f2","system_id":"levelo_inurba_marseille","lat":43.2861,"lon":5.37061,"is_reserved":false,"is_disabled":false,"rental_uris":{"android":"levelo://app?vid=50a157d9-2025-49a4-8651-be34baba50f2","ios":"levelo://app?vid=50a157d9-2025-49a4-8651-be34baba50f2"},"vehicle_type_id":"4","last_reported":1752174481,"current_range_meters":20400,"station_id":"ce4bht12rcd13ifvqi60","pricing_plan_id":"cebpf4jnsgd1na2vs0mg"},{"bike_id":"52e17cb9-3244-4eaa-8702-0add62e2a730","system_id":"levelo_inurba_marseille","lat":43.23191,"lon":5.35545,"is_reserved":false,"is_disabled":false,"rental_uris":{"android":"levelo://app?vid=52e17cb9-3244-4eaa-8702-0add62e2a730","ios":"levelo://app?vid=52e17cb9-3244-4eaa-8702-0add62e2a730"},"vehicle_type_id":"4","last_reported":1752174481,"current_range_meters":20400,"station_id":"ce4bhu92rcd13ifvqi70","pricing_plan_id":"cebpf4jnsgd1na2vs0mg"},{"bike_id":"65f7b344-580c-4020-b456-9fb3f5363124","system_id":"levelo_inurba_marseille","lat":43.292972,"lon":5.374488,"is_reserved":false,"is_disabled":false,"rental_uris":{"android":"levelo://app?vid=65f7b344-580c-4020-b456-9fb3f5363124","ios":"levelo://app?vid=65f7b344-580c-4020-b456-9fb3f5363124"},"vehicle_type_id":"4","last_reported":1752174481,"current_range_meters":20800,"station_id":"ce4bgi12rcd13ifvqb70","pricing_plan_id":"cebpf4jnsgd1na2vs0mg"},{"bike_id":"ec8f48e0-76ec-477e-a3d5-c18a3450aaa6","system_id":"levelo_inurba_marseille","lat":43.27615,"lon":5.36091,"is_reserved":false,"is_disabled":false,"rental_uris":{"android":"levelo://app?vid=ec8f48e0-76ec-477e-a3d5-c18a3450aaa6","ios":"levelo://app?vid=ec8f48e0-76ec-477e-a3d5-c18a3450aaa6"},"vehicle_type_id":"4","last_reported":1752174481,"current_range_meters":20800,"station_id":"ce4bgj92rcd13ifvqbe0","pricing_plan_id":"cebpf4jnsgd1na2vs0mg"},{"bike_id":"9300a395-dcdd-4011-9307-c478aba81443","system_id":"levelo_inurba_marseille","lat":43.30313,"lon":5.36901,"is_reserved":false,"is_disabled":false,"rental_uris":{"android":"levelo://app?vid=9300a395-dcdd-4011-9307-c478aba81443","ios":"levelo://app?vid=9300a395-dcdd-4011-9307-c478aba81443"},"vehicle_type_id":"4","last_reported":1752174481,"current_range_meters":20800,"station_id":"ce4bgqh2rcd13ifvqc5g","pricing_plan_id":"cebpf4jnsgd1na2vs0mg"},{"bike_id":"bfa3637c-3ae2-4aa3-904a-7b5cd30079dc","system_id":"levelo_inurba_marseille","lat":43.27384,"lon":5.36249,"is_reserved":false,"is_disabled":false,"rental_uris":{"android":"levelo://app?vid=bfa3637c-3ae2-4aa3-904a-7b5cd30079dc","ios":"levelo://app?vid=bfa3637c-3ae2-4aa3-904a-7b5cd30079dc"},"vehicle_type_id":"4","last_reported":1752174481,"current_range_meters":20800,"station_id":"ce4bhbh2rcd13ifvqeo0","pricing_plan_id":"cebpf4jnsgd1na2vs0mg"},{"bike_id":"55bcf02c-3f89-47e0-849a-228ed65fa950","system_id":"levelo_inurba_marseille","lat":43.28271,"lon":5.35073,"is_reserved":false,"is_disabled":false,"rental_uris":{"android":"levelo://app?vid=55bcf02c-3f89-47e0-849a-228ed65fa950","ios":"levelo://app?vid=55bcf02c-3f89-47e0-849a-228ed65fa950"},"vehicle_type_id":"4","last_reported":1752174481,"current_range_meters":20800,"station_id":"ce4bhbp2rcd13ifvqerg","pricing_plan_id":"cebpf4jnsgd1na2vs0mg"},{"bike_id":"fc993eb4-44df-46fa-87aa-53aec88d1f9a","system_id":"levelo_inurba_marseille","lat":43.23968,"lon":5.36633,"is_reserved":false,"is_disabled":false,"rental_uris":{"android":"levelo://app?vid=fc993eb4-44df-46fa-87aa-53aec88d1f9a","ios":"levelo://app?vid=fc993eb4-44df-46fa-87aa-53aec88d1f9a"},"vehicle_type_id":"4","last_reported":1752174481,"current_range_meters":20800,"station_id":"ce4bhi12rcd13ifvqfp0","pricing_plan_id":"cebpf4jnsgd1na2vs0mg"},{"bike_id":"66e4d2b5-e046-4a4f-9f40-e19fb55d30b4","system_id":"levelo_inurba_marseille","lat":43.295561,"lon":5.422904,"is_reserved":false,"is_disabled":false,"rental_uris":{"android":"levelo://app?vid=66e4d2b5-e046-4a4f-9f40-e19fb55d30b4","ios":"levelo://app?vid=66e4d2b5-e046-4a4f-9f40-e19fb55d30b4"},"vehicle_type_id":"4","last_reported":1752174481,"current_range_meters":20800,"station_id":"ce4bhph2rcd13ifvqhdg","pricing_plan_id":"cebpf4jnsgd1na2vs0mg"},{"bike_id":"9d0d85e3-ee19-452d-93c5-fbfc98a09acf","system_id":"levelo_inurba_marseille","lat":43.29499,"lon":5.43856,"is_reserved":false,"is_disabled":false,"rental_uris":{"android":"levelo://app?vid=9d0d85e3-ee19-452d-93c5-fbfc98a09acf","ios":"levelo://app?vid=9d0d85e3-ee19-452d-93c5-fbfc98a09acf"},"vehicle_type_id":"4","last_reported":1752174481,"current_range_meters":21600,"station_id":"","pricing_plan_id":"cebpf4jnsgd1na2vs0mg"},{"bike_id":"09a25384-3661-420f-ba41-e78c8db93775","system_id":"levelo_inurba_marseille","lat":43.29533,"lon":5.38538,"is_reserved":false,"is_disabled":false,"rental_uris":{"android":"levelo://app?vid=09a25384-3661-420f-ba41-e78c8db93775","ios":"levelo://app?vid=09a25384-3661-420f-ba41-e78c8db93775"},"vehicle_type_id":"4","last_reported":1752174481,"current_range_meters":21600,"station_id":"ce4bgih2rcd13ifvqba0","pricing_plan_id":"cebpf4jnsgd1na2vs0mg"},{"bike_id":"dda45dfe-ea84-443e-98db-40b8c9c69a28","system_id":"levelo_inurba_marseille","lat":43.29599,"lon":5.38101,"is_reserved":false,"is_disabled":false,"rental_uris":{"android":"levelo://app?vid=dda45dfe-ea84-443e-98db-40b8c9c69a28","ios":"levelo://app?vid=dda45dfe-ea84-443e-98db-40b8c9c69a28"},"vehicle_type_id":"4","last_reported":1752174481,"current_range_meters":21600,"station_id":"ce4bgl12rcd13ifvqbo0","pricing_plan_id":"cebpf4jnsgd1na2vs0mg"},{"bike_id":"8b97dbbf-9d94-486c-8248-22cdc1c78e72","system_id":"levelo_inurba_marseille","lat":43.30637,"lon":5.40076,"is_reserved":false,"is_disabled":false,"rental_uris":{"android":"levelo://app?vid=8b97dbbf-9d94-486c-8248-22cdc1c78e72","ios":"levelo://app?vid=8b97dbbf-9d94-486c-8248-22cdc1c78e72"},"vehicle_type_id":"4","last_reported":1752174481,"current_range_meters":21600,"station_id":"ce4bh112rcd13ifvqda0","pricing_plan_id":"cebpf4jnsgd1na2vs0mg"},{"bike_id":"e7652180-1f99-4ccc-b483-7324c807dd21","system_id":"levelo_inurba_marseille","lat":43.29189,"lon":5.35799,"is_reserved":false,"is_disabled":false,"rental_uris":{"android":"levelo://app?vid=e7652180-1f99-4ccc-b483-7324c807dd21","ios":"levelo://app?vid=e7652180-1f99-4ccc-b483-7324c807dd21"},"vehicle_type_id":"4","last_reported":1752174481,"current_range_meters":21600,"station_id":"ce4bhb12rcd13ifvqel0","pricing_plan_id":"cebpf4jnsgd1na2vs0mg"},{"bike_id":"d4cc46c9-7942-4ef6-af48-50d62af9ba0b","system_id":"levelo_inurba_marseille","lat":43.27426,"lon":5.39411,"is_reserved":false,"is_disabled":false,"rental_uris":{"android":"levelo://app?vid=d4cc46c9-7942-4ef6-af48-50d62af9ba0b","ios":"levelo://app?vid=d4cc46c9-7942-4ef6-af48-50d62af9ba0b"},"vehicle_type_id":"4","last_reported":1752174481,"current_range_meters":21600,"station_id":"ce4bhdp2rcd13ifvqf20","pricing_plan_id":"cebpf4jnsgd1na2vs0mg"},{"bike_id":"33ac2659-cac5-44a3-8d2a-4fcea3f9cfcb","system_id":"levelo_inurba_marseille","lat":43.26562,"lon":5.37286,"is_reserved":false,"is_disabled":false,"rental_uris":{"android":"levelo://app?vid=33ac2659-cac5-44a3-8d2a-4fcea3f9cfcb","ios":"levelo://app?vid=33ac2659-cac5-44a3-8d2a-4fcea3f9cfcb"},"vehicle_type_id":"4","last_reported":1752174481,"current_range_meters":21600,"station_id":"ce4bhg12rcd13ifvqf70","pricing_plan_id":"cebpf4jnsgd1na2vs0mg"},{"bike_id":"ee84aee7-ec1e-4bef-991f-4ee4f6df6c30","system_id":"levelo_inurba_marseille","lat":43.25491,"lon":5.37645,"is_reserved":false,"is_disabled":false,"rental_uris":{"android":"levelo://app?vid=ee84aee7-ec1e-4bef-991f-4ee4f6df6c30","ios":"levelo://app?vid=ee84aee7-ec1e-4bef-991f-4ee4f6df6c30"},"vehicle_type_id":"4","last_reported":1752174481,"current_range_meters":21600,"station_id":"ce4bhh12rcd13ifvqff0","pricing_plan_id":"cebpf4jnsgd1na2vs0mg"},{"bike_id":"452e8211-4f44-45d0-814a-3e9e25b8c44e","system_id":"levelo_inurba_marseille","lat":43.211912,"lon":5.350721,"is_reserved":false,"is_disabled":false,"rental_uris":{"android":"levelo://app?vid=452e8211-4f44-45d0-814a-3e9e25b8c44e","ios":"levelo://app?vid=452e8211-4f44-45d0-814a-3e9e25b8c44e"},"vehicle_type_id":"4","last_reported":1752174481,"current_range_meters":21600,"station_id":"st_cvj6sg6p6f1abm77japg","pricing_plan_id":"cebpf4jnsgd1na2vs0mg"},{"bike_id":"e86ba8c9-208d-482c-a826-4c100938472a","system_id":"levelo_inurba_marseille","lat":43.211861,"lon":5.350706,"is_reserved":false,"is_disabled":false,"rental_uris":{"android":"levelo://app?vid=e86ba8c9-208d-482c-a826-4c100938472a","ios":"levelo://app?vid=e86ba8c9-208d-482c-a826-4c100938472a"},"vehicle_type_id":"4","last_reported":1752174481,"current_range_meters":21600,"station_id":"st_cvj6sg6p6f1abm77japg","pricing_plan_id":"cebpf4jnsgd1na2vs0mg"},{"bike_id":"172864d4-4b9e-42e2-8f66-f78a69673f25","system_id":"levelo_inurba_marseille","lat":43.30889,"lon":5.39656,"is_reserved":false,"is_disabled":false,"rental_uris":{"android":"levelo://app?vid=172864d4-4b9e-42e2-8f66-f78a69673f25","ios":"levelo://app?vid=172864d4-4b9e-42e2-8f66-f78a69673f25"},"vehicle_type_id":"4","last_reported":1752174481,"current_range_meters":22000,"station_id":"ce4bh012rcd13ifvqcv0","pricing_plan_id":"cebpf4jnsgd1na2vs0mg"},{"bike_id":"3017c35d-bfbb-4c72-8360-319af7f62483","system_id":"levelo_inurba_marseille","lat":43.28248,"lon":5.35044,"is_reserved":false,"is_disabled":false,"rental_uris":{"android":"levelo://app?vid=3017c35d-bfbb-4c72-8360-319af7f62483","ios":"levelo://app?vid=3017c35d-bfbb-4c72-8360-319af7f62483"},"vehicle_type_id":"4","last_reported":1752174481,"current_range_meters":22000,"station_id":"ce4bhbp2rcd13ifvqerg","pricing_plan_id":"cebpf4jnsgd1na2vs0mg"},{"bike_id":"d5e6942e-9cf0-4099-ab46-48b215cc6d5e","system_id":"levelo_inurba_marseille","lat":43.28268,"lon":5.35033,"is_reserved":false,"is_disabled":false,"rental_uris":{"android":"levelo://app?vid=d5e6942e-9cf0-4099-ab46-48b215cc6d5e","ios":"levelo://app?vid=d5e6942e-9cf0-4099-ab46-48b215cc6d5e"},"vehicle_type_id":"4","last_reported":1752174481,"current_range_meters":22000,"station_id":"ce4bhbp2rcd13ifvqerg","pricing_plan_id":"cebpf4jnsgd1na2vs0mg"},{"bike_id":"1db99b97-c918-4639-92b5-23071d663463","system_id":"levelo_inurba_marseille","lat":43.28624,"lon":5.35094,"is_reserved":false,"is_disabled":false,"rental_uris":{"android":"levelo://app?vid=1db99b97-c918-4639-92b5-23071d663463","ios":"levelo://app?vid=1db99b97-c918-4639-92b5-23071d663463"},"vehicle_type_id":"4","last_reported":1752174481,"current_range_meters":22000,"station_id":"ce4bhch2rcd13ifvqeug","pricing_plan_id":"cebpf4jnsgd1na2vs0mg"},{"bike_id":"97ee5d65-d07a-43f4-a13b-75a938afb5d7","system_id":"levelo_inurba_marseille","lat":43.26192,"lon":5.37452,"is_reserved":false,"is_disabled":false,"rental_uris":{"android":"levelo://app?vid=97ee5d65-d07a-43f4-a13b-75a938afb5d7","ios":"levelo://app?vid=97ee5d65-d07a-43f4-a13b-75a938afb5d7"},"vehicle_type_id":"4","last_reported":1752174481,"current_range_meters":22000,"station_id":"ce4bhgp2rcd13ifvqfc0","pricing_plan_id":"cebpf4jnsgd1na2vs0mg"},{"bike_id":"39438dbc-87f6-42fd-8e4b-472a9231b8ee","system_id":"levelo_inurba_marseille","lat":43.26189,"lon":5.37444,"is_reserved":false,"is_disabled":false,"rental_uris":{"android":"levelo://app?vid=39438dbc-87f6-42fd-8e4b-472a9231b8ee","ios":"levelo://app?vid=39438dbc-87f6-42fd-8e4b-472a9231b8ee"},"vehicle_type_id":"4","last_reported":1752174481,"current_range_meters":22000,"station_id":"ce4bhgp2rcd13ifvqfc0","pricing_plan_id":"cebpf4jnsgd1na2vs0mg"},