{"last_updated":1704215193,"ttl":30,"version":"2.2","data":{"bikes":[{"bike_id":"a490774e-4545-4557-8c16-f29d5896cf2c","system_id":"levelo_inurba_marseille","lat":43.31341,"lon":5.367098,"is_reserved":false,"is_disabled":false,"rental_uris":{"android":"levelo://app?vid=a490774e-4545-4557-8c16-f29d5896cf2c","ios":"levelo://app?vid=a490774e-4545-4557-8c16-f29d5896cf2c"},"vehicle_type_id":"4","last_reported":1704215194,"current_range_meters":17600,"station_id":"ce4bgr92rcd13ifvqc6g","pricing_plan_id":"free"},{"bike_id":"3ffc8943-b7c6-4e24-96c6-c62f97e44c10","system_id":"levelo_inurba_marseille","lat":43.309039,"lon":5.371797,"is_reserved":false,"is_disabled":false,"rental_uris":{"android":"levelo://app?vid=3ffc8943-b7c6-4e24-96c6-c62f97e44c10","ios":"levelo://app?vid=3ffc8943-b7c6-4e24-96c6-c62f97e44c10"},"vehicle_type_id":"4","last_reported":1704215194,"current_range_meters":25200,"station_id":"ce4bguh2rcd13ifvqckg","pricing_plan_id":"free"},{"bike_id":"77bf0df8-3b2d-4df8-adb6-d3579fa61c03","system_id":"levelo_inurba_marseille","lat":43.305368,"lon":5.367343,"is_reserved":false,"is_disabled":false,"rental_uris":{"android":"levelo://app?vid=77bf0df8-3b2d-4df8-adb6-d3579fa61c03","ios":"levelo://app?vid=77bf0df8-3b2d-4df8-adb6-d3579fa61c03"},"vehicle_type_id":"4","last_reported":1704215194,"current_range_meters":19600,"station_id":"ce4bgrp2rcd13ifvqc9g","pricing_plan_id":"free"},{"bike_id":"a66f2a21-af1b-4ca9-8e8b-914adca5e3df","system_id":"levelo_inurba_marseille","lat":43.305712,"lon":5.365641,"is_reserved":false,"is_disabled":false,"rental_uris":{"android":"levelo://app?vid=a66f2a21-af1b-4ca9-8e8b-914adca5e3df","ios":"levelo://app?vid=a66f2a21-af1b-4ca9-8e8b-914adca5e3df"},"vehicle_type_id":"4","last_reported":1704215194,"current_range_meters":21600,"station_id":"ce4bgs12rcd13ifvqcag","pricing_plan_id":"free"},{"bike_id":"8d322b88-c0a9-4010-b561-0427d12d3156","system_id":"levelo_inurba_marseille","lat":43.305368,"lon":5.367343,"is_reserved":false,"is_disabled":false,"rental_uris":{"android":"levelo://app?vid=8d322b88-c0a9-4010-b561-0427d12d3156","ios":"levelo://app?vid=8d322b88-c0a9-4010-b561-0427d12d3156"},"vehicle_type_id":"4","last_reported":1704215194,"current_range_meters":7600,"station_id":"ce4bgrp2rcd13ifvqc9g","pricing_plan_id":"free"},{"bike_id":"25af9e1c-886c-4f64-92f2-5ca68e46ae4a","system_id":"levelo_inurba_marseille","lat":43.31722,"lon":5.37668,"is_reserved":false,"is_disabled":false,"rental_uris":{"android":"levelo://app?vid=25af9e1c-886c-4f64-92f2-5ca68e46ae4a","ios":"levelo://app?vid=25af9e1c-886c-4f64-92f2-5ca68e46ae4a"},"vehicle_type_id":"4","last_reported":1704215194,"current_range_meters":13600,"station_id":"","pricing_plan_id":"free"},{"bike_id":"fda865ec-3f75-4f64-9f03-d7d64edceca3","system_id":"levelo_inurba_marseille","lat":43.30856,"lon":5.37745,"is_reserved":false,"is_disabled":false,"rental_uris":{"android":"levelo://app?vid=fda865ec-3f75-4f64-9f03-d7d64edceca3","ios":"levelo://app?vid=fda865ec-3f75-4f64-9f03-d7d64edceca3"},"vehicle_type_id":"4","last_reported":1704215194,"current_range_meters":0,"station_id":"","pricing_plan_id":"free"},{"bike_id":"57d94392-11db-447a-9f4d-d7f87f2f0aa4","system_id":"levelo_inurba_marseille","lat":43.31019,"lon":5.3791,"is_reserved":false,"is_disabled":false,"rental_uris":{"android":"levelo://app?vid=57d94392-11db-447a-9f4d-d7f87f2f0aa4","ios":"levelo://app?vid=57d94392-11db-447a-9f4d-d7f87f2f0aa4"},"vehicle_type_id":"4","last_reported":1704215194,"current_range_meters":29200,"station_id":"","pricing_plan_id":"free"},{"bike_id":"7b2072a0-9074-452b-a7a3-2827c77be082","system_id":"levelo_inurba_marseille","lat":43.30304,"lon":5.368987,"is_reserved":false,"is_disabled":false,"rental_uris":{"android":"levelo://app?vid=7b2072a0-9074-452b-a7a3-2827c77be082","ios":"levelo://app?vid=7b2072a0-9074-452b-a7a3-2827c77be082"},"vehicle_type_id":"4","last_reported":1704215194,"current_range_meters":3200,"station_id":"ce4bgqh2rcd13ifvqc5g","pricing_plan_id":"free"},{"bike_id":"f2814b9f-d1cb-4e38-984a-7744720c8fb1","system_id":"levelo_inurba_marseille","lat":43.301939,"lon":5.366286,"is_reserved":false,"is_disabled":false,"rental_uris":{"android":"levelo://app?vid=f2814b9f-d1cb-4e38-984a-7744720c8fb1","ios":"levelo://app?vid=f2814b9f-d1cb-4e38-984a-7744720c8fb1"},"vehicle_type_id":"4","last_reported":1704215194,"current_range_meters":22800,"station_id":"ce4bgrh2rcd13ifvqc8g","pricing_plan_id":"free"},{"bike_id":"9715e336-b2f2-4666-8e1c-1b982e6b1d27","system_id":"levelo_inurba_marseille","lat":43.311722,"lon":5.387247,"is_reserved":false,"is_disabled":false,"rental_uris":{"android":"levelo://app?vid=9715e336-b2f2-4666-8e1c-1b982e6b1d27","ios":"levelo://app?vid=9715e336-b2f2-4666-8e1c-1b982e6b1d27"},"vehicle_type_id":"4","last_reported":1704215194,"current_range_meters":18000,"station_id":"ce4bgv12rcd13ifvqcp0","pricing_plan_id":"free"},{"bike_id":"5377074b-30e2-4d67-825b-9deb3b1dbed3","system_id":"levelo_inurba_marseille","lat":43.304708,"lon":5.379039,"is_reserved":false,"is_disabled":false,"rental_uris":{"android":"levelo://app?vid=5377074b-30e2-4d67-825b-9deb3b1dbed3","ios":"levelo://app?vid=5377074b-30e2-4d67-825b-9deb3b1dbed3"},"vehicle_type_id":"4","last_reported":1704215194,"current_range_meters":10400,"station_id":"","pricing_plan_id":"free"},{"bike_id":"072f1425-6373-4b0f-891a-99a6505137ee","system_id":"levelo_inurba_marseille","lat":43.319935,"lon":5.381699,"is_reserved":false,"is_disabled":false,"rental_uris":{"android":"levelo://app?vid=072f1425-6373-4b0f-891a-99a6505137ee","ios":"levelo://app?vid=072f1425-6373-4b0f-891a-99a6505137ee"},"vehicle_type_id":"4","last_reported":1704215194,"current_range_meters":27200,"station_id":"ce4bhr12rcd13ifvqhpg","pricing_plan_id":"free"},{"bike_id":"17504bde-947a-4cd6-98b3-9a4c66aca99b","system_id":"levelo_inurba_marseille","lat":43.313827,"lon":5.385007,"is_reserved":false,"is_disabled":false,"rental_uris":{"android":"levelo://app?vid=17504bde-947a-4cd6-98b3-9a4c66aca99b","ios":"levelo://app?vid=17504bde-947a-4cd6-98b3-9a4c66aca99b"},"vehicle_type_id":"4","last_reported":1704215194,"current_range_meters":20400,"station_id":"ce4bgt92rcd13ifvqcf0","pricing_plan_id":"free"},{"bike_id":"51f410c6-3f1c-44f7-89d7-d9f7d1eb75dc","system_id":"levelo_inurba_marseille","lat":43.299222,"lon":5.365554,"is_reserved":false,"is_disabled":false,"rental_uris":{"android":"levelo://app?vid=51f410c6-3f1c-44f7-89d7-d9f7d1eb75dc","ios":"levelo://app?vid=51f410c6-3f1c-44f7-89d7-d9f7d1eb75dc"},"vehicle_type_id":"4","last_reported":1704215194,"current_range_meters":16000,"station_id":"ce4bgm92rcd13ifvqbr0","pricing_plan_id":"free"},{"bike_id":"a08071a4-130f-4e33-94af-95fb7595f724","system_id":"levelo_inurba_marseille","lat":43.299222,"lon":5.365554,"is_reserved":false,"is_disabled":false,"rental_uris":{"android":"levelo://app?vid=a08071a4-130f-4e33-94af-95fb7595f724","ios":"levelo://app?vid=a08071a4-130f-4e33-94af-95fb7595f724"},"vehicle_type_id":"4","last_reported":1704215194,"current_range_meters":19200,"station_id":"ce4bgm92rcd13ifvqbr0","pricing_plan_id":"free"},{"bike_id":"c4dd0fc8-deef-41e7-b27c-22966b31197e","system_id":"levelo_inurba_marseille","lat":43.298433,"lon":5.362774,"is_reserved":false,"is_disabled":false,"rental_uris":{"android":"levelo://app?vid=c4dd0fc8-deef-41e7-b27c-22966b31197e","ios":"levelo://app?vid=c4dd0fc8-deef-41e7-b27c-22966b31197e"},"vehicle_type_id":"4","last_reported":1704215194,"current_range_meters":23200,"station_id":"ce4bgpp2rcd13ifvqc3g","pricing_plan_id":"free"},{"bike_id":"640504ed-5d89-42b1-96e5-72a894ea8728","system_id":"levelo_inurba_marseille","lat":43.298433,"lon":5.362774,"is_reserved":false,"is_disabled":false,"rental_uris":{"android":"levelo://app?vid=640504ed-5d89-42b1-96e5-72a894ea8728","ios":"levelo://app?vid=640504ed-5d89-42b1-96e5-72a894ea8728"},"vehicle_type_id":"4","last_reported":1704215194,"current_range_meters":23600,"station_id":"ce4bgpp2rcd13ifvqc3g","pricing_plan_id":"free"},{"bike_id":"37696bdd-42d5-479e-94d3-822dd3333695","system_id":"levelo_inurba_marseille","lat":43.305364,"lon":5.384119,"is_reserved":false,"is_disabled":false,"rental_uris":{"android":"levelo://app?vid=37696bdd-42d5-479e-94d3-822dd3333695","ios":"levelo://app?vid=37696bdd-42d5-479e-94d3-822dd3333695"},"vehicle_type_id":"4","last_reported":1704215194,"current_range_meters":20400,"station_id":"ce4bgg92rcd13ifvqb30","pricing_plan_id":"free"},{"bike_id":"1b856ef0-6dca-46f2-9a62-a8fd85bd0ee4","system_id":"levelo_inurba_marseille","lat":43.311722,"lon":5.387247,"is_reserved":false,"is_disabled":false,"rental_uris":{"android":"levelo://app?vid=1b856ef0-6dca-46f2-9a62-a8fd85bd0ee4","ios":"levelo://app?vid=1b856ef0-6dca-46f2-9a62-a8fd85bd0ee4"},"vehicle_type_id":"4","last_reported":1704215194,"current_range_meters":16400,"station_id":"ce4bgv12rcd13ifvqcp0","pricing_plan_id":"free"},{"bike_id":"62000ad0-b3e5-4320-9083-f7f68a5d33bf","system_id":"levelo_inurba_marseille","lat":43.322872,"lon":5.382756,"is_reserved":false,"is_disabled":false,"rental_uris":{"android":"levelo://app?vid=62000ad0-b3e5-4320-9083-f7f68a5d33bf","ios":"levelo://app?vid=62000ad0-b3e5-4320-9083-f7f68a5d33bf"},"vehicle_type_id":"4","last_reported":1704215194,"current_range_meters":17200,"station_id":"ce4bhr12rcd13ifvqhqg","pricing_plan_id":"free"},{"bike_id":"39231833-0af7-425f-821c-c4ece02bc731","system_id":"levelo_inurba_marseille","lat":43.297774,"lon":5.370875,"is_reserved":false,"is_disabled":false,"rental_uris":{"android":"levelo://app?vid=39231833-0af7-425f-821c-c4ece02bc731","ios":"levelo://app?vid=39231833-0af7-425f-821c-c4ece02bc731"},"vehicle_type_id":"4","last_reported":1704215194,"current_range_meters":20400,"station_id":"ce4bgop2rcd13ifvqc1g","pricing_plan_id":"free"},{"bike_id":"259f598a-32de-4939-b332-be8b5ecd0e80","system_id":"levelo_inurba_marseille","lat":43.297794,"lon":5.370888,"is_reserved":false,"is_disabled":false,"rental_uris":{"android":"levelo://app?vid=259f598a-32de-4939-b332-be8b5ecd0e80","ios":"levelo://app?vid=259f598a-32de-4939-b332-be8b5ecd0e80"},"vehicle_type_id":"4","last_reported":1704215194,"current_range_meters":18400,"station_id":"ce4bgop2rcd13ifvqc1g","pricing_plan_id":"free"},{"bike_id":"8752a032-5a63-4551-8b69-590b5f45408e","system_id":"levelo_inurba_marseille","lat":43.322872,"lon":5.382756,"is_reserved":false,"is_disabled":false,"rental_uris":{"android":"levelo://app?vid=8752a032-5a63-4551-8b69-590b5f45408e","ios":"levelo://app?vid=8752a032-5a63-4551-8b69-590b5f45408e"},"vehicle_type_id":"4","last_reported":1704215194,"current_range_meters":24800,"station_id":"ce4bhr12rcd13ifvqhqg","pricing_plan_id":"free"},{"bike_id":"81228dc5-8d84-4761-857e-0ec17fe26191","system_id":"levelo_inurba_marseille","lat":43.311722,"lon":5.387247,"is_reserved":false,"is_disabled":false,"rental_uris":{"android":"levelo://app?vid=81228dc5-8d84-4761-857e-0ec17fe26191","ios":"levelo://app?vid=81228dc5-8d84-4761-857e-0ec17fe26191"},"vehicle_type_id":"4","last_reported":1704215194,"current_range_meters":20800,"station_id":"ce4bgv12rcd13ifvqcp0","pricing_plan_id":"free"},{"bike_id":"370cccf7-c9ba-46c2-819b-c8e8cacc4c21","system_id":"levelo_inurba_marseille","lat":43.3277,"lon":5.37458,"is_reserved":false,"is_disabled":false,"rental_uris":{"android":"levelo://app?vid=370cccf7-c9ba-46c2-819b-c8e8cacc4c21","ios":"levelo://app?vid=370cccf7-c9ba-46c2-819b-c8e8cacc4c21"},"vehicle_type_id":"4","last_reported":1704215194,"current_range_meters":8000,"station_id":"","pricing_plan_id":"free"},{"bike_id":"0583be3a-8d44-4b6b-b3fb-7b86cc269f57","system_id":"levelo_inurba_marseille","lat":43.2968,"lon":5.37291,"is_reserved":false,"is_disabled":false,"rental_uris":{"android":"levelo://app?vid=0583be3a-8d44-4b6b-b3fb-7b86cc269f57","ios":"levelo://app?vid=0583be3a-8d44-4b6b-b3fb-7b86cc269f57"},"vehicle_type_id":"4","last_reported":1704215194,"current_range_meters":25600,"station_id":"ce4bgk12rcd13ifvqbj0","pricing_plan_id":"free"},{"bike_id":"90e4d58c-4a98-4d65-b014-b366feeb855a","system_id":"levelo_inurba_marseille","lat":43.309589,"lon":5.390258,"is_reserved":false,"is_disabled":false,"rental_uris":{"android":"levelo://app?vid=90e4d58c-4a98-4d65-b014-b366feeb855a","ios":"levelo://app?vid=90e4d58c-4a98-4d65-b014-b366feeb855a"},"vehicle_type_id":"4","last_reported":1704215194,"current_range_meters":6000,"station_id":"ce4bgup2rcd13ifvqco0","pricing_plan_id":"free"},{"bike_id":"04966e43-1d5a-4ffa-a2d5-cacce5cd1340","system_id":"levelo_inurba_marseille","lat":43.309589,"lon":5.390258,"is_reserved":false,"is_disabled":false,"rental_uris":{"android":"levelo://app?vid=04966e43-1d5a-4ffa-a2d5-cacce5cd1340","ios":"levelo://app?vid=04966e43-1d5a-4ffa-a2d5-cacce5cd1340"},"vehicle_type_id":"4","last_reported":1704215194,"current_range_meters":1200,"station_id":"ce4bgup2rcd13ifvqco0","pricing_plan_id":"free"},{"bike_id":"de97d463-a5d4-4d4c-a973-3f1ffc6047c7","system_id":"levelo_inurba_marseille","lat":43.309589,"lon":5.390258,"is_reserved":false,"is_disabled":false,"rental_uris":{"android":"levelo://app?vid=de97d463-a5d4-4d4c-a973-3f1ffc6047c7","ios":"levelo://app?vid=de97d463-a5d4-4d4c-a973-3f1ffc6047c7"},"vehicle_type_id":"4","last_reported":1704215194,"current_range_meters":25200,"station_id":"ce4bgup2rcd13ifvqco0","pricing_plan_id":"free"},{"bike_id":"0eb73cc6-5f0c-4ec4-a733-5a219c159f57","system_id":"levelo_inurba_marseille","lat":43.317557,"lon":5.390173,"is_reserved":false,"is_disabled":false,"rental_uris":{"android":"levelo://app?vid=0eb73cc6-5f0c-4ec4-a733-5a219c159f57","ios":"levelo://app?vid=0eb73cc6-5f0c-4ec4-a733-5a219c159f57"},"vehicle_type_id":"4","last_reported":1704215194,"current_range_meters":22800,"station_id":"ce4bhqp2rcd13ifvqhng","pricing_plan_id":"free"},{"bike_id":"d60802d6-4f47-444a-b234-883690eec05b","system_id":"levelo_inurba_marseille","lat":43.33062,"lon":5.3627,"is_reserved":false,"is_disabled":false,"rental_uris":{"android":"levelo://app?vid=d60802d6-4f47-444a-b234-883690eec05b","ios":"levelo://app?vid=d60802d6-4f47-444a-b234-883690eec05b"},"vehicle_type_id":"4","last_reported":1704215194,"current_range_meters":15200,"station_id":"","pricing_plan_id":"free"},{"bike_id":"f67b4ce4-0c9c-4cd2-b119-b472dfee5204","system_id":"levelo_inurba_marseille","lat":43.29538,"lon":5.375,"is_reserved":false,"is_disabled":false,"rental_uris":{"android":"levelo://app?vid=f67b4ce4-0c9c-4cd2-b119-b472dfee5204","ios":"levelo://app?vid=f67b4ce4-0c9c-4cd2-b119-b472dfee5204"},"vehicle_type_id":"4","last_reported":1704215194,"current_range_meters":21200,"station_id":"ce4bgi92rcd13ifvqb90","pricing_plan_id":"free"},{"bike_id":"7119845d-00aa-4d9f-be8c-fc97d41f1380","system_id":"levelo_inurba_marseille","lat":43.297594,"lon":5.381134,"is_reserved":false,"is_disabled":false,"rental_uris":{"android":"levelo://app?vid=7119845d-00aa-4d9f-be8c-fc97d41f1380","ios":"levelo://app?vid=7119845d-00aa-4d9f-be8c-fc97d41f1380"},"vehicle_type_id":"4","last_reported":1704215194,"current_range_meters":3600,"station_id":"ce4bgip2rcd13ifvqbb0","pricing_plan_id":"free"},{"bike_id":"89eb7995-63f9-4c75-a0fc-820f34ae9baa","system_id":"levelo_inurba_marseille","lat":43.299724,"lon":5.384848,"is_reserved":false,"is_disabled":false,"rental_uris":{"android":"levelo://app?vid=89eb7995-63f9-4c75-a0fc-820f34ae9baa","ios":"levelo://app?vid=89eb7995-63f9-4c75-a0fc-820f34ae9baa"},"vehicle_type_id":"4","last_reported":1704215194,"current_range_meters":27600,"station_id":"ce4bgj92rcd13ifvqbd0","pricing_plan_id":"free"},{"bike_id":"44061cec-4799-42d0-a072-922cb8eaf357","system_id":"levelo_inurba_marseille","lat":43.299717,"lon":5.384845,"is_reserved":false,"is_disabled":false,"rental_uris":{"android":"levelo://app?vid=44061cec-4799-42d0-a072-922cb8eaf357","ios":"levelo://app?vid=44061cec-4799-42d0-a072-922cb8eaf357"},"vehicle_type_id":"4","last_reported":1704215194,"current_range_meters":17600,"station_id":"ce4bgj92rcd13ifvqbd0","pricing_plan_id":"free"},{"bike_id":"4874e97e-15fc-442d-987e-12f59c7da007","system_id":"levelo_inurba_marseille","lat":43.29975,"lon":5.38491,"is_reserved":false,"is_disabled":false,"rental_uris":{"android":"levelo://app?vid=4874e97e-15fc-442d-987e-12f59c7da007","ios":"levelo://app?vid=4874e97e-15fc-442d-987e-12f59c7da007"},"vehicle_type_id":"4","last_reported":1704215194,"current_range_meters":0,"station_id":"ce4bgj92rcd13ifvqbd0","pricing_plan_id":"free"},{"bike_id":"baddd035-5d52-47a0-9e2e-7fe7955cd166","system_id":"levelo_inurba_marseille","lat":43.309076,"lon":5.368465,"is_reserved":false,"is_disabled":false,"rental_uris":{"android":"levelo://app?vid=baddd035-5d52-47a0-9e2e-7fe7955cd166","ios":"levelo://app?vid=baddd035-5d52-47a0-9e2e-7fe7955cd166"},"vehicle_type_id":"4","last_reported":1704215194,"current_range_meters":18800,"station_id":"ce4bgn92rcd13ifvqbvg","pricing_plan_id":"free"},{"bike_id":"6e1cfaf3-c919-4223-a34d-ab2a56b53bd4","system_id":"levelo_inurba_marseille","lat":43.32367,"lon":5.388836,"is_reserved":false,"is_disabled":false,"rental_uris":{"android":"levelo://app?vid=6e1cfaf3-c919-4223-a34d-ab2a56b53bd4","ios":"levelo://app?vid=6e1cfaf3-c919-4223-a34d-ab2a56b53bd4"},"vehicle_type_id":"4","last_reported":1704215194,"current_range_meters":0,"station_id":"ce4bhqp2rcd13ifvqhog","pricing_plan_id":"free"},{"bike_id":"5d3d79af-5aff-4606-a7cb-e593e0179f48","system_id":"levelo_inurba_marseille","lat":43.32367,"lon":5.388836,"is_reserved":false,"is_disabled":false,"rental_uris":{"android":"levelo://app?vid=5d3d79af-5aff-4606-a7cb-e593e0179f48","ios":"levelo://app?vid=5d3d79af-5aff-4606-a7cb-e593e0179f48"},"vehicle_type_id":"4","last_reported":1704215194,"current_range_meters":4400,"station_id":"ce4bhqp2rcd13ifvqhog","pricing_plan_id":"free"},{"bike_id":"31f7d37c-d42b-49ab-b127-a8c55a96d152","system_id":"levelo_inurba_marseille","lat":43.32367,"lon":5.388836,"is_reserved":false,"is_disabled":false,"rental_uris":{"android":"levelo://app?vid=31f7d37c-d42b-49ab-b127-a8c55a96d152","ios":"levelo://app?vid=31f7d37c-d42b-49ab-b127-a8c55a96d152"},"vehicle_type_id":"4","last_reported":1704215194,"current_range_meters":13200,"station_id":"ce4bhqp2rcd13ifvqhog","pricing_plan_id":"free"},{"bike_id":"0585f0e5-6100-4931-ad90-7f10bf8953c2","system_id":"levelo_inurba_marseille","lat":43.29602,"lon":5.381084,"is_reserved":false,"is_disabled":false,"rental_uris":{"android":"levelo://app?vid=0585f0e5-6100-4931-ad90-7f10bf8953c2","ios":"levelo://app?vid=0585f0e5-6100-4931-ad90-7f10bf8953c2"},"vehicle_type_id":"4","last_reported":1704215194,"current_range_meters":22800,"station_id":"ce4bgl12rcd13ifvqbo0","pricing_plan_id":"free"},{"bike_id":"0ed8f850-1f8d-44e6-b0c4-ef5ddd307800","system_id":"levelo_inurba_marseille","lat":43.29601,"lon":5.381084,"is_reserved":false,"is_disabled":false,"rental_uris":{"android":"levelo://app?vid=0ed8f850-1f8d-44e6-b0c4-ef5ddd307800","ios":"levelo://app?vid=0ed8f850-1f8d-44e6-b0c4-ef5ddd307800"},"vehicle_type_id":"4","last_reported":1704215194,"current_range_meters":12400,"station_id":"ce4bgl12rcd13ifvqbo0","pricing_plan_id":"free"},{"bike_id":"b722fdff-9a1f-448e-8801-e445169836c0","system_id":"levelo_inurba_marseille","lat":43.29602,"lon":5.381084,"is_reserved":false,"is_disabled":false,"rental_uris":{"android":"levelo://app?vid=b722fdff-9a1f-448e-8801-e445169836c0","ios":"levelo://app?vid=b722fdff-9a1f-448e-8801-e445169836c0"},"vehicle_type_id":"4","last_reported":1704215194,"current_range_meters":15600,"station_id":"ce4bgl12rcd13ifvqbo0","pricing_plan_id":"free"},{"bike_id":"a794faf7-ff33-4da2-af82-12808cb2cdc3","system_id":"levelo_inurba_marseille","lat":43.292749,"lon":5.368402,"is_reserved":false,"is_disabled":false,"rental_uris":{"android":"levelo://app?vid=a794faf7-ff33-4da2-af82-12808cb2cdc3","ios":"levelo://app?vid=a794faf7-ff33-4da2-af82-12808cb2cdc3"},"vehicle_type_id":"4","last_reported":1704215194,"current_range_meters":2800,"station_id":"ce4bhbp2rcd13ifvqesg","pricing_plan_id":"free"},{"bike_id":"0947a360-7c8d-494a-a405-50e02d7ee6d1","system_id":"levelo_inurba_marseille","lat":43.292749,"lon":5.368402,"is_reserved":false,"is_disabled":false,"rental_uris":{"android":"levelo://app?vid=0947a360-7c8d-494a-a405-50e02d7ee6d1","ios":"levelo://app?vid=0947a360-7c8d-494a-a405-50e02d7ee6d1"},"vehicle_type_id":"4","last_reported":1704215194,"current_range_meters":9600,"station_id":"ce4bhbp2rcd13ifvqesg","pricing_plan_id":"free"},{"bike_id":"a55577d6-7e4d-4aa5-9e28-0d522ca62619","system_id":"levelo_inurba_marseille","lat":43.292749,"lon":5.368398,"is_reserved":false,"is_disabled":false,"rental_uris":{"android":"levelo://app?vid=a55577d6-7e4d-4aa5-9e28-0d522ca62619","ios":"levelo://app?vid=a55577d6-7e4d-4aa5-9e28-0d522ca62619"},"vehicle_type_id":"4","last_reported":1704215194,"current_range_meters":16400,"station_id":"ce4bhbp2rcd13ifvqesg","pricing_plan_id":"free"},{"bike_id":"11605902-eb28-40c2-8573-72439dd2144e","system_id":"levelo_inurba_marseille","lat":43.293009,"lon":5.374584,"is_reserved":false,"is_disabled":false,"rental_uris":{"android":"levelo://app?vid=11605902-eb28-40c2-8573-72439dd2144e","ios":"levelo://app?vid=11605902-eb28-40c2-8573-72439dd2144e"},"vehicle_type_id":"4","last_reported":1704215194,"current_range_meters":6000,"station_id":"ce4bgi12rcd13ifvqb70","pricing_plan_id":"free"},{"bike_id":"1dd5a3ef-d93a-4d23-b418-361dc457044e","system_id":"levelo_inurba_marseille","lat":43.305994,"lon":5.393687,"is_reserved":false,"is_disabled":false,"rental_uris":{"android":"levelo://app?vid=1dd5a3ef-d93a-4d23-b418-361dc457044e","ios":"levelo://app?vid=1dd5a3ef-d93a-4d23-b418-361dc457044e"},"vehicle_type_id":"4","last_reported":1704215194,"current_range_meters":31200,"station_id":"ce4bh0p2rcd13ifvqd80","pricing_plan_id":"free"},{"bike_id":"607a1a61-2feb-445a-97ed-c34248a89383","system_id":"levelo_inurba_marseille","lat":43.303002,"lon":5.392142,"is_reserved":false,"is_disabled":false,"rental_uris":{"android":"levelo://app?vid=607a1a61-2feb-445a-97ed-c34248a89383","ios":"levelo://app?vid=607a1a61-2feb-445a-97ed-c34248a89383"},"vehicle_type_id":"4","last_reported":1704215194,"current_range_meters":27200,"station_id":"ce4bgkh2rcd13ifvqbk0","pricing_plan_id":"free"},{"bike_id":"38280e10-e5ae-41c6-907c-9cd8a12a059c","system_id":"levelo_inurba_marseille","lat":43.303,"lon":5.39214,"is_reserved":false,"is_disabled":false,"rental_uris":{"android":"levelo://app?vid=38280e10-e5ae-41c6-907c-9cd8a12a059c","ios":"levelo://app?vid=38280e10-e5ae-41c6-907c-9cd8a12a059c"},"vehicle_type_id":"4","last_reported":1704215194,"current_range_meters":25600,"station_id":"ce4bgkh2rcd13ifvqbk0","pricing_plan_id":"free"},{"bike_id":"1972a213-4469-49af-9ad7-408fb23a517f","system_id":"levelo_inurba_marseille","lat":43.291675,"lon":5.371583,"is_reserved":false,"is_disabled":false,"rental_uris":{"android":"levelo://app?vid=1972a213-4469-49af-9ad7-408fb23a517f","ios":"levelo://app?vid=1972a213-4469-49af-9ad7-408fb23a517f"},"vehicle_type_id":"4","last_reported":1704215194,"current_range_meters":26800,"station_id":"ce4bha92rcd13ifvqeh0","pricing_plan_id":"free"},{"bike_id":"d5b20798-a193-4ead-8a2b-0aec8cb8d045","system_id":"levelo_inurba_marseille","lat":43.291671,"lon":5.371575,"is_reserved":false,"is_disabled":false,"rental_uris":{"android":"levelo://app?vid=d5b20798-a193-4ead-8a2b-0aec8cb8d045","ios":"levelo://app?vid=d5b20798-a193-4ead-8a2b-0aec8cb8d045"},"vehicle_type_id":"4","last_reported":1704215194,"current_range_meters":26800,"station_id":"ce4bha92rcd13ifvqeh0","pricing_plan_id":"free"},{"bike_id":"52f3e613-64d4-42d6-b698-9e71563a5f03","system_id":"levelo_inurba_marseille","lat":43.298767,"lon":5.389293,"is_reserved":false,"is_disabled":false,"rental_uris":{"android":"levelo://app?vid=52f3e613-64d4-42d6-b698-9e71563a5f03","ios":"levelo://app?vid=52f3e613-64d4-42d6-b698-9e71563a5f03"},"vehicle_type_id":"4","last_reported":1704215194,"current_range_meters":0,"station_id":"","pricing_plan_id":"free"},{"bike_id":"6a81b50f-ae4b-4c12-a481-44b003323491","system_id":"levelo_inurba_marseille","lat":43.312943,"lon":5.396793,"is_reserved":false,"is_disabled":false,"rental_uris":{"android":"levelo://app?vid=6a81b50f-ae4b-4c12-a481-44b003323491","ios":"levelo://app?vid=6a81b50f-ae4b-4c12-a481-44b003323491"},"vehicle_type_id":"4","last_reported":1704215194,"current_range_meters":17600,"station_id":"ce4bgvp2rcd13ifvqcu0","pricing_plan_id":"free"},{"bike_id":"e4e844d6-79b8-48c9-8846-de353e605d92","system_id":"levelo_inurba_marseille","lat":43.313291,"lon":5.396838,"is_reserved":false,"is_disabled":false,"rental_uris":{"android":"levelo://app?vid=e4e844d6-79b8-48c9-8846-de353e605d92","ios":"levelo://app?vid=e4e844d6-79b8-48c9-8846-de353e605d92"},"vehicle_type_id":"4","last_reported":1704215194,"current_range_meters":16000,"station_id":"ce4bgvp2rcd13ifvqcu0","pricing_plan_id":"free"},{"bike_id":"fb616bcf-c2aa-4fde-8df9-8d420717f47f","system_id":"levelo_inurba_marseille","lat":43.309038,"lon":5.396546,"is_reserved":false,"is_disabled":false,"rental_uris":{"android":"levelo://app?vid=fb616bcf-c2aa-4fde-8df9-8d420717f47f","ios":"levelo://app?vid=fb616bcf-c2aa-4fde-8df9-8d420717f47f"},"vehicle_type_id":"4","last_reported":1704215194,"current_range_meters":23600,"station_id":"ce4bh012rcd13ifvqcv0","pricing_plan_id":"free"},{"bike_id":"08adc7c4-1617-4851-94df-023186760bca","system_id":"levelo_inurba_marseille","lat":43.29529,"lon":5.385581,"is_reserved":false,"is_disabled":false,"rental_uris":{"android":"levelo://app?vid=08adc7c4-1617-4851-94df-023186760bca","ios":"levelo://app?vid=08adc7c4-1617-4851-94df-023186760bca"},"vehicle_type_id":"4","last_reported":1704215194,"current_range_meters":15600,"station_id":"ce4bgih2rcd13ifvqba0","pricing_plan_id":"free"},{"bike_id":"f57704d0-6e27-4a9c-bf3c-67ab8cc78384","system_id":"levelo_inurba_marseille","lat":43.29529,"lon":5.385581,"is_reserved":false,"is_disabled":false,"rental_uris":{"android":"levelo://app?vid=f57704d0-6e27-4a9c-bf3c-67ab8cc78384","ios":"levelo://app?vid=f57704d0-6e27-4a9c-bf3c-67ab8cc78384"},"vehicle_type_id":"4","last_reported":1704215194,"current_range_meters":7200,"station_id":"ce4bgih2rcd13ifvqba0","pricing_plan_id":"free"},{"bike_id":"a23ebb14-0a92-4f86-b4af-2c7b063a72e7","system_id":"levelo_inurba_marseille","lat":43.29529,"lon":5.385581,"is_reserved":false,"is_disabled":false,"rental_uris":{"android":"levelo://app?vid=a23ebb14-0a92-4f86-b4af-2c7b063a72e7","ios":"levelo://app?vid=a23ebb14-0a92-4f86-b4af-2c7b063a72e7"},"vehicle_type_id":"4","last_reported":1704215194,"current_range_meters":26000,"station_id":"ce4bgih2rcd13ifvqba0","pricing_plan_id":"free"},{"bike_id":"2296ecdc-aa99-4ef5-a3f4-071decf320da","system_id":"levelo_inurba_marseille","lat":43.29529,"lon":5.385581,"is_reserved":false,"is_disabled":false,"rental_uris":{"android":"levelo://app?vid=2296ecdc-aa99-4ef5-a3f4-071decf320da","ios":"levelo://app?vid=2296ecdc-aa99-4ef5-a3f4-071decf320da"},"vehicle_type_id":"4","last_reported":1704215194,"current_range_meters":15200,"station_id":"ce4bgih2rcd13ifvqba0","pricing_plan_id":"free"},{"bike_id":"68f8fc88-9bbf-4843-94ab-3d5c21c11f4b","system_id":"levelo_inurba_marseille","lat":43.29529,"lon":5.385581,"is_reserved":false,"is_disabled":false,"rental_uris":{"android":"levelo://app?vid=68f8fc88-9bbf-4843-94ab-3d5c21c11f4b","ios":"levelo://app?vid=68f8fc88-9bbf-4843-94ab-3d5c21c11f4b"},"vehicle_type_id":"4","last_reported":1704215194,"current_range_meters":0,"station_id":"ce4bgih2rcd13ifvqba0","pricing_plan_id":"free"},{"bike_id":"16a245fb-2d6d-4d7c-b356-2e4f8f930edc","system_id":"levelo_inurba_marseille","lat":43.29529,"lon":5.385581,"is_reserved":false,"is_disabled":false,"rental_uris":{"android":"levelo://app?vid=16a245fb-2d6d-4d7c-b356-2e4f8f930edc","ios":"levelo://app?vid=16a245fb-2d6d-4d7c-b356-2e4f8f930edc"},"vehicle_type_id":"4","last_reported":1704215194,"current_range_meters":1600,"station_id":"ce4bgih2rcd13ifvqba0","pricing_plan_id":"free"},{"bike_id":"e3310acb-0ed0-4012-9913-a78853d24758","system_id":"levelo_inurba_marseille","lat":43.29529,"lon":5.385581,"is_reserved":false,"is_disabled":false,"rental_uris":{"android":"levelo://app?vid=e3310acb-0ed0-4012-9913-a78853d24758","ios":"levelo://app?vid=e3310acb-0ed0-4012-9913-a78853d24758"},"vehicle_type_id":"4","last_reported":1704215194,"current_range_meters":4000,"station_id":"ce4bgih2rcd13ifvqba0","pricing_plan_id":"free"},{"bike_id":"42f709e7-b965-49ad-a599-239ab8cf0722","system_id":"levelo_inurba_marseille","lat":43.29066,"lon":5.37159,"is_reserved":false,"is_disabled":false,"rental_uris":{"android":"levelo://app?vid=42f709e7-b965-49ad-a599-239ab8cf0722","ios":"levelo://app?vid=42f709e7-b965-49ad-a599-239ab8cf0722"},"vehicle_type_id":"4","last_reported":1704215194,"current_range_meters":0,"station_id":"ce4bh5p2rcd13ifvqe4g","pricing_plan_id":"free"},{"bike_id":"a5fe7474-1f83-4a35-ab42-64bd6a23b0b6","system_id":"levelo_inurba_marseille","lat":43.290631,"lon":5.359244,"is_reserved":false,"is_disabled":false,"rental_uris":{"android":"levelo://app?vid=a5fe7474-1f83-4a35-ab42-64bd6a23b0b6","ios":"levelo://app?vid=a5fe7474-1f83-4a35-ab42-64bd6a23b0b6"},"vehicle_type_id":"4","last_reported":1704215194,"current_range_meters":3200,"station_id":"ce4bha92rcd13ifvqeg0","pricing_plan_id":"free"},{"bike_id":"a3f16aa7-937e-4326-be61-94820f1710ca","system_id":"levelo_inurba_marseille","lat":43.302008,"lon":5.394694,"is_reserved":false,"is_disabled":false,"rental_uris":{"android":"levelo://app?vid=a3f16aa7-937e-4326-be61-94820f1710ca","ios":"levelo://app?vid=a3f16aa7-937e-4326-be61-94820f1710ca"},"vehicle_type_id":"4","last_reported":1704215194,"current_range_meters":26400,"station_id":"ce4bh0p2rcd13ifvqd70","pricing_plan_id":"free"},{"bike_id":"7419530c-1f58-412a-b1b7-8aeea1ff8899","system_id":"levelo_inurba_marseille","lat":43.294162,"lon":5.386292,"is_reserved":false,"is_disabled":false,"rental_uris":{"android":"levelo://app?vid=7419530c-1f58-412a-b1b7-8aeea1ff8899","ios":"levelo://app?vid=7419530c-1f58-412a-b1b7-8aeea1ff8899"},"vehicle_type_id":"4","last_reported":1704215194,"current_range_meters":15200,"station_id":"ce4bh2h2rcd13ifvqdh0","pricing_plan_id":"free"},{"bike_id":"69e563f2-da1f-41a3-a718-6c9f01af7965","system_id":"levelo_inurba_marseille","lat":43.294162,"lon":5.386292,"is_reserved":false,"is_disabled":false,"rental_uris":{"android":"levelo://app?vid=69e563f2-da1f-41a3-a718-6c9f01af7965","ios":"levelo://app?vid=69e563f2-da1f-41a3-a718-6c9f01af7965"},"vehicle_type_id":"4","last_reported":1704215194,"current_range_meters":8800,"station_id":"ce4bh2h2rcd13ifvqdh0","pricing_plan_id":"free"},{"bike_id":"c6df2a2a-d4c6-464d-8eee-37dbc65dd007","system_id":"levelo_inurba_marseille","lat":43.294162,"lon":5.386292,"is_reserved":false,"is_disabled":false,"rental_uris":{"android":"levelo://app?vid=c6df2a2a-d4c6-464d-8eee-37dbc65dd007","ios":"levelo://app?vid=c6df2a2a-d4c6-464d-8eee-37dbc65dd007"},"vehicle_type_id":"4","last_reported":1704215194,"current_range_meters":20400,"station_id":"ce4bh2h2rcd13ifvqdh0","pricing_plan_id":"free"},{"bike_id":"0377a5e0-2b87-4e1e-973e-eeefb11d80b7","system_id":"levelo_inurba_marseille","lat":43.294162,"lon":5.386292,"is_reserved":false,"is_disabled":false,"rental_uris":{"android":"levelo://app?vid=0377a5e0-2b87-4e1e-973e-eeefb11d80b7","ios":"levelo://app?vid=0377a5e0-2b87-4e1e-973e-eeefb11d80b7"},"vehicle_type_id":"4","last_reported":1704215194,"current_range_meters":18800,"station_id":"ce4bh2h2rcd13ifvqdh0","pricing_plan_id":"free"},{"bike_id":"5e5c5b01-2548-421d-92eb-adc55354eb05","system_id":"levelo_inurba_marseille","lat":43.28929,"lon":5.36634,"is_reserved":false,"is_disabled":false,"rental_uris":{"android":"levelo://app?vid=5e5c5b01-2548-421d-92eb-adc55354eb05","ios":"levelo://app?vid=5e5c5b01-2548-421d-92eb-adc55354eb05"},"vehicle_type_id":"4","last_reported":1704215194,"current_range_meters":0,"station_id":"ce4bhap2rcd13ifvqek0","pricing_plan_id":"free"},{"bike_id":"9d3969ed-e28c-41ea-9eb2-1d6e0c4b70b7","system_id":"levelo_inurba_marseille","lat":43.29783,"lon":5.39335,"is_reserved":false,"is_disabled":false,"rental_uris":{"android":"levelo://app?vid=9d3969ed-e28c-41ea-9eb2-1d6e0c4b70b7","ios":"levelo://app?vid=9d3969ed-e28c-41ea-9eb2-1d6e0c4b70b7"},"vehicle_type_id":"4","last_reported":1704215194,"current_range_meters":25600,"station_id":"chh1huq6cuj3fo74tm60","pricing_plan_id":"free"},{"bike_id":"97e6d302-d8ae-4cd9-b1e3-8e1fdbb047dd","system_id":"levelo_inurba_marseille","lat":43.29792,"lon":5.39345,"is_reserved":false,"is_disabled":false,"rental_uris":{"android":"levelo://app?vid=97e6d302-d8ae-4cd9-b1e3-8e1fdbb047dd","ios":"levelo://app?vid=97e6d302-d8ae-4cd9-b1e3-8e1fdbb047dd"},"vehicle_type_id":"4","last_reported":1704215194,"current_range_meters":21600,"station_id":"chh1huq6cuj3fo74tm60","pricing_plan_id":"free"},{"bike_id":"d5ac8ca8-d49b-4867-a3ef-fc4ee1210e7c","system_id":"levelo_inurba_marseille","lat":43.297783,"lon":5.393427,"is_reserved":false,"is_disabled":false,"rental_uris":{"android":"levelo://app?vid=d5ac8ca8-d49b-4867-a3ef-fc4ee1210e7c","ios":"levelo://app?vid=d5ac8ca8-d49b-4867-a3ef-fc4ee1210e7c"},"vehicle_type_id":"4","last_reported":1704215194,"current_range_meters":30000,"station_id":"chh1huq6cuj3fo74tm60","pricing_plan_id":"free"},{"bike_id":"8eb362dc-920d-44bb-9a53-b9762d730ac7","system_id":"levelo_inurba_marseille","lat":43.289741,"lon":5.378306,"is_reserved":false,"is_disabled":false,"rental_uris":{"android":"levelo://app?vid=8eb362dc-920d-44bb-9a53-b9762d730ac7","ios":"levelo://app?vid=8eb362dc-920d-44bb-9a53-b9762d730ac7"},"vehicle_type_id":"4","last_reported":1704215194,"current_range_meters":26000,"station_id":"ce4bh9p2rcd13ifvqed0","pricing_plan_id":"free"},{"bike_id":"4c325280-66f3-4d15-9ee2-0781302f912f","system_id":"levelo_inurba_marseille","lat":43.290094,"lon":5.381264,"is_reserved":false,"is_disabled":false,"rental_uris":{"android":"levelo://app?vid=4c325280-66f3-4d15-9ee2-0781302f912f","ios":"levelo://app?vid=4c325280-66f3-4d15-9ee2-0781302f912f"},"vehicle_type_id":"4","last_reported":1704215194,"current_range_meters":22000,"station_id":"ce4bh4p2rcd13ifvqe1g","pricing_plan_id":"free"},{"bike_id":"b1b92fbd-1051-46cd-934d-c00ddb44f606","system_id":"levelo_inurba_marseille","lat":43.28856,"lon":5.358371,"is_reserved":false,"is_disabled":false,"rental_uris":{"android":"levelo://app?vid=b1b92fbd-1051-46cd-934d-c00ddb44f606","ios":"levelo://app?vid=b1b92fbd-1051-46cd-934d-c00ddb44f606"},"vehicle_type_id":"4","last_reported":1704215194,"current_range_meters":18400,"station_id":"ce4bhb12rcd13ifvqem0","pricing_plan_id":"free"},{"bike_id":"6a9f212a-9bc1-49d5-aae6-d9f1bccaec06","system_id":"levelo_inurba_marseille","lat":43.290995,"lon":5.381361,"is_reserved":false,"is_disabled":false,"rental_uris":{"android":"levelo://app?vid=6a9f212a-9bc1-49d5-aae6-d9f1bccaec06","ios":"levelo://app?vid=6a9f212a-9bc1-49d5-aae6-d9f1bccaec06"},"vehicle_type_id":"4","last_reported":1704215194,"current_range_meters":10000,"station_id":"ce4bh512rcd13ifvqe2g","pricing_plan_id":"free"},{"bike_id":"775bebf0-60dd-4589-9959-186588d50ea9","system_id":"levelo_inurba_marseille","lat":43.312609,"lon":5.401662,"is_reserved":false,"is_disabled":false,"rental_uris":{"android":"levelo://app?vid=775bebf0-60dd-4589-9959-186588d50ea9","ios":"levelo://app?vid=775bebf0-60dd-4589-9959-186588d50ea9"},"vehicle_type_id":"4","last_reported":1704215194,"current_range_meters":0,"station_id":"ce4bh092rcd13ifvqd30","pricing_plan_id":"free"},{"bike_id":"1b55c50c-04c6-490e-ba7b-7b95b41dd60f","system_id":"levelo_inurba_marseille","lat":43.3375,"lon":5.37462,"is_reserved":false,"is_disabled":false,"rental_uris":{"android":"levelo://app?vid=1b55c50c-04c6-490e-ba7b-7b95b41dd60f","ios":"levelo://app?vid=1b55c50c-04c6-490e-ba7b-7b95b41dd60f"},"vehicle_type_id":"4","last_reported":1704215194,"current_range_meters":30800,"station_id":"","pricing_plan_id":"free"},{"bike_id":"3aa0a38d-9011-4299-81a0-f8da45091b9e","system_id":"levelo_inurba_marseille","lat":43.304606,"lon":5.379026,"is_reserved":false,"is_disabled":false,"rental_uris":{"android":"levelo://app?vid=3aa0a38d-9011-4299-81a0-f8da45091b9e","ios":"levelo://app?vid=3aa0a38d-9011-4299-81a0-f8da45091b9e"},"vehicle_type_id":"4","last_reported":1704215194,"current_range_meters":14800,"station_id":"ce4bgup2rcd13ifvqcn0","pricing_plan_id":"free"},{"bike_id":"7bff5d96-c9da-413f-9076-7fbeec946e12","system_id":"levelo_inurba_marseille","lat":43.33757,"lon":5.37467,"is_reserved":false,"is_disabled":false,"rental_uris":{"android":"levelo://app?vid=7bff5d96-c9da-413f-9076-7fbeec946e12","ios":"levelo://app?vid=7bff5d96-c9da-413f-9076-7fbeec946e12"},"vehicle_type_id":"4","last_reported":1704215194,"current_range_meters":26400,"station_id":"","pricing_plan_id":"free"},{"bike_id":"1c86c5a0-cffc-4faa-94a1-6cf5f93206ea","system_id":"levelo_inurba_marseille","lat":43.337605,"lon":5.374572,"is_reserved":false,"is_disabled":false,"rental_uris":{"android":"levelo://app?vid=1c86c5a0-cffc-4faa-94a1-6cf5f93206ea","ios":"levelo://app?vid=1c86c5a0-cffc-4faa-94a1-6cf5f93206ea"},"vehicle_type_id":"4","last_reported":1704215194,"current_range_meters":5600,"station_id":"","pricing_plan_id":"free"},{"bike_id":"6f661ba7-67ae-4117-93f7-f4d4027f44db","system_id":"levelo_inurba_marseille","lat":43.306412,"lon":5.401035,"is_reserved":false,"is_disabled":false,"rental_uris":{"android":"levelo://app?vid=6f661ba7-67ae-4117-93f7-f4d4027f44db","ios":"levelo://app?vid=6f661ba7-67ae-4117-93f7-f4d4027f44db"},"vehicle_type_id":"4","last_reported":1704215194,"current_range_meters":2000,"station_id":"ce4bh112rcd13ifvqda0","pricing_plan_id":"free"},{"bike_id":"46bcbd8a-0b5f-4b89-aac9-34812a85cd49","system_id":"levelo_inurba_marseille","lat":43.337681,"lon":5.374847,"is_reserved":false,"is_disabled":false,"rental_uris":{"android":"levelo://app?vid=46bcbd8a-0b5f-4b89-aac9-34812a85cd49","ios":"levelo://app?vid=46bcbd8a-0b5f-4b89-aac9-34812a85cd49"},"vehicle_type_id":"4","last_reported":1704215194,"current_range_meters":14400,"station_id":"","pricing_plan_id":"free"},{"bike_id":"2698b1cc-9d8f-4af1-9d41-a07e93bd5755","system_id":"levelo_inurba_marseille","lat":43.33767,"lon":5.37497,"is_reserved":false,"is_disabled":false,"rental_uris":{"android":"levelo://app?vid=2698b1cc-9d8f-4af1-9d41-a07e93bd5755","ios":"levelo://app?vid=2698b1cc-9d8f-4af1-9d41-a07e93bd5755"},"vehicle_type_id":"4","last_reported":1704215194,"current_range_meters":28400,"station_id":"","pricing_plan_id":"free"},{"bike_id":"ec6259dd-7c9b-429f-82ca-4bd1ed5efcca","system_id":"levelo_inurba_marseille","lat":43.301117,"lon":5.398795,"is_reserved":false,"is_disabled":false,"rental_uris":{"android":"levelo://app?vid=ec6259dd-7c9b-429f-82ca-4bd1ed5efcca","ios":"levelo://app?vid=ec6259dd-7c9b-429f-82ca-4bd1ed5efcca"},"vehicle_type_id":"4","last_reported":1704215194,"current_range_meters":2400,"station_id":"ce4bh0h2rcd13ifvqd40","pricing_plan_id":"free"},{"bike_id":"42f16c7e-6e41-4ffc-b919-b3b4e3164d44","system_id":"levelo_inurba_marseille","lat":43.298681,"lon":5.397225,"is_reserved":false,"is_disabled":false,"rental_uris":{"android":"levelo://app?vid=42f16c7e-6e41-4ffc-b919-b3b4e3164d44","ios":"levelo://app?vid=42f16c7e-6e41-4ffc-b919-b3b4e3164d44"},"vehicle_type_id":"4","last_reported":1704215194,"current_range_meters":22000,"station_id":"ce4bh0h2rcd13ifvqd50","pricing_plan_id":"free"},{"bike_id":"8dff69a9-813d-4170-b967-3520d061f6ea","system_id":"levelo_inurba_marseille","lat":43.298681,"lon":5.397225,"is_reserved":false,"is_disabled":false,"rental_uris":{"android":"levelo://app?vid=8dff69a9-813d-4170-b967-3520d061f6ea","ios":"levelo://app?vid=8dff69a9-813d-4170-b967-3520d061f6ea"},"vehicle_type_id":"4","last_reported":1704215194,"current_range_meters":28000,"station_id":"ce4bh0h2rcd13ifvqd50","pricing_plan_id":"free"},{"bike_id":"32502a64-c4c0-456b-869e-562220d8b1b8","system_id":"levelo_inurba_marseille","lat":43.298681,"lon":5.397225,"is_reserved":false,"is_disabled":false,"rental_uris":{"android":"levelo://app?vid=32502a64-c4c0-456b-869e-562220d8b1b8","ios":"levelo://app?vid=32502a64-c4c0-456b-869e-562220d8b1b8"},"vehicle_type_id":"4","last_reported":1704215194,"current_range_meters":29600,"station_id":"ce4bh0h2rcd13ifvqd50","pricing_plan_id":"free"},{"bike_id":"02428823-25bc-42fc-ad2c-77b6833fb56f","system_id":"levelo_inurba_marseille","lat":43.286593,"lon":5.363346,"is_reserved":false,"is_disabled":false,"rental_uris":{"android":"levelo://app?vid=02428823-25bc-42fc-ad2c-77b6833fb56f","ios":"levelo://app?vid=02428823-25bc-42fc-ad2c-77b6833fb56f"},"vehicle_type_id":"4","last_reported":1704215194,"current_range_meters":13600,"station_id":"ce4bhah2rcd13ifvqej0","pricing_plan_id":"free"},{"bike_id":"8a9c26db-c47e-4444-8be8-d550c5eb9567","system_id":"levelo_inurba_marseille","lat":43.298681,"lon":5.397225,"is_reserved":false,"is_disabled":false,"rental_uris":{"android":"levelo://app?vid=8a9c26db-c47e-4444-8be8-d550c5eb9567","ios":"levelo://app?vid=8a9c26db-c47e-4444-8be8-d550c5eb9567"},"vehicle_type_id":"4","last_reported":1704215194,"current_range_meters":22800,"station_id":"ce4bh0h2rcd13ifvqd50","pricing_plan_id":"free"},{"bike_id":"3b95575b-8dbc-4519-90eb-3792b7f1bb30","system_id":"levelo_inurba_marseille","lat":43.286591,"lon":5.363346,"is_reserved":false,"is_disabled":false,"rental_uris":{"android":"levelo://app?vid=3b95575b-8dbc-4519-90eb-3792b7f1bb30","ios":"levelo://app?vid=3b95575b-8dbc-4519-90eb-3792b7f1bb30"},"vehicle_type_id":"4","last_reported":1704215194,"current_range_meters":16000,"station_id":"ce4bhah2rcd13ifvqej0","pricing_plan_id":"free"},{"bike_id":"eb842dec-411e-41a3-a7d7-fd7eed852330","system_id":"levelo_inurba_marseille","lat":43.295196,"lon":5.39397,"is_reserved":false,"is_disabled":false,"rental_uris":{"android":"levelo://app?vid=eb842dec-411e-41a3-a7d7-fd7eed852330","ios":"levelo://app?vid=eb842dec-411e-41a3-a7d7-fd7eed852330"},"vehicle_type_id":"4","last_reported":1704215194,"current_range_meters":12800,"station_id":"ce4bh292rcd13ifvqdf0","pricing_plan_id":"free"},{"bike_id":"a8eea028-7bab-4f45-a438-513536a36293","system_id":"levelo_inurba_marseille","lat":43.286961,"lon":5.373785,"is_reserved":false,"is_disabled":false,"rental_uris":{"android":"levelo://app?vid=a8eea028-7bab-4f45-a438-513536a36293","ios":"levelo://app?vid=a8eea028-7bab-4f45-a438-513536a36293"},"vehicle_type_id":"4","last_reported":1704215194,"current_range_meters":18000,"station_id":"ce4bh3p2rcd13ifvqdq0","pricing_plan_id":"free"},{"bike_id":"fcda894a-f250-4171-ae8d-0f888cf1113f","system_id":"levelo_inurba_marseille","lat":43.295196,"lon":5.39397,"is_reserved":false,"is_disabled":false,"rental_uris":{"android":"levelo://app?vid=fcda894a-f250-4171-ae8d-0f888cf1113f","ios":"levelo://app?vid=fcda894a-f250-4171-ae8d-0f888cf1113f"},"vehicle_type_id":"4","last_reported":1704215194,"current_range_meters":20800,"station_id":"ce4bh292rcd13ifvqdf0","pricing_plan_id":"free"},{"bike_id":"6c43509e-bee5-44aa-b077-2e1105e368ee","system_id":"levelo_inurba_marseille","lat":43.290345,"lon":5.38646,"is_reserved":false,"is_disabled":false,"rental_uris":{"android":"levelo://app?vid=6c43509e-bee5-44aa-b077-2e1105e368ee","ios":"levelo://app?vid=6c43509e-bee5-44aa-b077-2e1105e368ee"},"vehicle_type_id":"4","last_reported":1704215194,"current_range_meters":21200,"station_id":"ce4bh4p2rcd13ifvqe0g","pricing_plan_id":"free"},{"bike_id":"4c9bee6e-7f67-4e33-9bdf-2ad46096a165","system_id":"levelo_inurba_marseille","lat":43.290345,"lon":5.38646,"is_reserved":false,"is_disabled":false,"rental_uris":{"android":"levelo://app?vid=4c9bee6e-7f67-4e33-9bdf-2ad46096a165","ios":"levelo://app?vid=4c9bee6e-7f67-4e33-9bdf-2ad46096a165"},"vehicle_type_id":"4","last_reported":1704215194,"current_range_meters":11200,"station_id":"ce4bh4p2rcd13ifvqe0g","pricing_plan_id":"free"},{"bike_id":"cff99989-7a5b-4916-8697-374cef598689","system_id":"levelo_inurba_marseille","lat":43.290345,"lon":5.38646,"is_reserved":false,"is_disabled":false,"rental_uris":{"android":"levelo://app?vid=cff99989-7a5b-4916-8697-374cef598689","ios":"levelo://app?vid=cff99989-7a5b-4916-8697-374cef598689"},"vehicle_type_id":"4","last_reported":1704215194,"current_range_meters":25200,"station_id":"ce4bh4p2rcd13ifvqe0g","pricing_plan_id":"free"},{"bike_id":"5f741429-ba1c-4b3f-b947-c2f5de1ddb89","system_id":"levelo_inurba_marseille","lat":43.286039,"lon":5.370679,"is_reserved":false,"is_disabled":false,"rental_uris":{"android":"levelo://app?vid=5f741429-ba1c-4b3f-b947-c2f5de1ddb89","ios":"levelo://app?vid=5f741429-ba1c-4b3f-b947-c2f5de1ddb89"},"vehicle_type_id":"4","last_reported":1704215194,"current_range_meters":30800,"station_id":"ce4bht12rcd13ifvqi60","pricing_plan_id":"free"},{"bike_id":"c7134eaa-0fb1-41e1-9ab1-56157aa44816","system_id":"levelo_inurba_marseille","lat":43.286039,"lon":5.370679,"is_reserved":false,"is_disabled":false,"rental_uris":{"android":"levelo://app?vid=c7134eaa-0fb1-41e1-9ab1-56157aa44816","ios":"levelo://app?vid=c7134eaa-0fb1-41e1-9ab1-56157aa44816"},"vehicle_type_id":"4","last_reported":1704215194,"current_range_meters":18800,"station_id":"ce4bht12rcd13ifvqi60","pricing_plan_id":"free"},{"bike_id":"c1e86d6c-2c7f-4147-b49b-66cdaab00bac","system_id":"levelo_inurba_marseille","lat":43.287185,"lon":5.379373,"is_reserved":false,"is_disabled":false,"rental_uris":{"android":"levelo://app?vid=c1e86d6c-2c7f-4147-b49b-66cdaab00bac","ios":"levelo://app?vid=c1e86d6c-2c7f-4147-b49b-66cdaab00bac"},"vehicle_type_id":"4","last_reported":1704215194,"current_range_meters":22800,"station_id":"ce4bh9p2rcd13ifvqec0","pricing_plan_id":"free"},{"bike_id":"9b0c9e9e-977c-43ca-8676-217c423ef706","system_id":"levelo_inurba_marseille","lat":43.316916,"lon":5.404642,"is_reserved":false,"is_disabled":false,"rental_uris":{"android":"levelo://app?vid=9b0c9e9e-977c-43ca-8676-217c423ef706","ios":"levelo://app?vid=9b0c9e9e-977c-43ca-8676-217c423ef706"},"vehicle_type_id":"4","last_reported":1704215194,"current_range_meters":27200,"station_id":"ce4bh012rcd13ifvqd00","pricing_plan_id":"free"},{"bike_id":"fe9d9231-9266-42cd-b245-ed8ea3c0bdbb","system_id":"levelo_inurba_marseille","lat":43.31689,"lon":5.40466,"is_reserved":false,"is_disabled":false,"rental_uris":{"android":"levelo://app?vid=fe9d9231-9266-42cd-b245-ed8ea3c0bdbb","ios":"levelo://app?vid=fe9d9231-9266-42cd-b245-ed8ea3c0bdbb"},"vehicle_type_id":"4","last_reported":1704215194,"current_range_meters":19200,"station_id":"ce4bh012rcd13ifvqd00","pricing_plan_id":"free"},{"bike_id":"6f237f0d-f09c-4d8f-9275-d67b9aa71628","system_id":"levelo_inurba_marseille","lat":43.31685,"lon":5.40469,"is_reserved":false,"is_disabled":false,"rental_uris":{"android":"levelo://app?vid=6f237f0d-f09c-4d8f-9275-d67b9aa71628","ios":"levelo://app?vid=6f237f0d-f09c-4d8f-9275-d67b9aa71628"},"vehicle_type_id":"4","last_reported":1704215194,"current_range_meters":7600,"station_id":"ce4bh012rcd13ifvqd00","pricing_plan_id":"free"},{"bike_id":"1a31a5bd-fdb9-4a0a-8873-edd9884a3c1b","system_id":"levelo_inurba_marseille","lat":43.31686,"lon":5.40472,"is_reserved":false,"is_disabled":false,"rental_uris":{"android":"levelo://app?vid=1a31a5bd-fdb9-4a0a-8873-edd9884a3c1b","ios":"levelo://app?vid=1a31a5bd-fdb9-4a0a-8873-edd9884a3c1b"},"vehicle_type_id":"4","last_reported":1704215194,"current_range_meters":24400,"station_id":"ce4bh012rcd13ifvqd00","pricing_plan_id":"free"},{"bike_id":"7630d77c-ac04-4c93-83c5-347d8d464ac3","system_id":"levelo_inurba_marseille","lat":43.316821,"lon":5.404737,"is_reserved":false,"is_disabled":false,"rental_uris":{"android":"levelo://app?vid=7630d77c-ac04-4c93-83c5-347d8d464ac3","ios":"levelo://app?vid=7630d77c-ac04-4c93-83c5-347d8d464ac3"},"vehicle_type_id":"4","last_reported":1704215194,"current_range_meters":14000,"station_id":"ce4bh012rcd13ifvqd00","pricing_plan_id":"free"},{"bike_id":"dca674ff-649f-41cd-b049-4f58c102ee8f","system_id":"levelo_inurba_marseille","lat":43.316821,"lon":5.404737,"is_reserved":false,"is_disabled":false,"rental_uris":{"android":"levelo://app?vid=dca674ff-649f-41cd-b049-4f58c102ee8f","ios":"levelo://app?vid=dca674ff-649f-41cd-b049-4f58c102ee8f"},"vehicle_type_id":"4","last_reported":1704215194,"current_range_meters":15600,"station_id":"ce4bh012rcd13ifvqd00","pricing_plan_id":"free"},{"bike_id":"1a3ab528-3a04-4d9f-b6fe-4091400b2ca0","system_id":"levelo_inurba_marseille","lat":43.29217,"lon":5.39327,"is_reserved":false,"is_disabled":false,"rental_uris":{"android":"levelo://app?vid=1a3ab528-3a04-4d9f-b6fe-4091400b2ca0","ios":"levelo://app?vid=1a3ab528-3a04-4d9f-b6fe-4091400b2ca0"},"vehicle_type_id":"4","last_reported":1704215194,"current_range_meters":28000,"station_id":"ce4bh192rcd13ifvqdd0","pricing_plan_id":"free"},{"bike_id":"fcfd2a2c-9ef4-4799-82b7-d911d6a8d660","system_id":"levelo_inurba_marseille","lat":43.29195,"lon":5.39317,"is_reserved":false,"is_disabled":false,"rental_uris":{"android":"levelo://app?vid=fcfd2a2c-9ef4-4799-82b7-d911d6a8d660","ios":"levelo://app?vid=fcfd2a2c-9ef4-4799-82b7-d911d6a8d660"},"vehicle_type_id":"4","last_reported":1704215194,"current_range_meters":12400,"station_id":"ce4bh192rcd13ifvqdd0","pricing_plan_id":"free"},{"bike_id":"abace315-6082-4262-a5db-c4d6eb4108d6","system_id":"levelo_inurba_marseille","lat":43.29198,"lon":5.39329,"is_reserved":false,"is_disabled":false,"rental_uris":{"android":"levelo://app?vid=abace315-6082-4262-a5db-c4d6eb4108d6","ios":"levelo://app?vid=abace315-6082-4262-a5db-c4d6eb4108d6"},"vehicle_type_id":"4","last_reported":1704215194,"current_range_meters":6400,"station_id":"ce4bh192rcd13ifvqdd0","pricing_plan_id":"free"},{"bike_id":"56a63065-4223-4a17-aa54-3d68e4d8589d","system_id":"levelo_inurba_marseille","lat":43.284534,"lon":5.358662,"is_reserved":false,"is_disabled":false,"rental_uris":{"android":"levelo://app?vid=56a63065-4223-4a17-aa54-3d68e4d8589d","ios":"levelo://app?vid=56a63065-4223-4a17-aa54-3d68e4d8589d"},"vehicle_type_id":"4","last_reported":1704215194,"current_range_meters":23200,"station_id":"ce4bhah2rcd13ifvqei0","pricing_plan_id":"free"},{"bike_id":"4be29f09-39da-46a0-8aa2-d5b4db454c49","system_id":"levelo_inurba_marseille","lat":43.294314,"lon":5.397498,"is_reserved":false,"is_disabled":false,"rental_uris":{"android":"levelo://app?vid=4be29f09-39da-46a0-8aa2-d5b4db454c49","ios":"levelo://app?vid=4be29f09-39da-46a0-8aa2-d5b4db454c49"},"vehicle_type_id":"4","last_reported":1704215194,"current_range_meters":24000,"station_id":"ce4bh3h2rcd13ifvqdo0","pricing_plan_id":"free"},{"bike_id":"45ffd9f5-7b16-460c-a84f-f09cd48e84c1","system_id":"levelo_inurba_marseille","lat":43.294314,"lon":5.397498,"is_reserved":false,"is_disabled":false,"rental_uris":{"android":"levelo://app?vid=45ffd9f5-7b16-460c-a84f-f09cd48e84c1","ios":"levelo://app?vid=45ffd9f5-7b16-460c-a84f-f09cd48e84c1"},"vehicle_type_id":"4","last_reported":1704215194,"current_range_meters":24000,"station_id":"ce4bh3h2rcd13ifvqdo0","pricing_plan_id":"free"},{"bike_id":"198b03a6-0350-47db-b014-8668c58cf8b6","system_id":"levelo_inurba_marseille","lat":43.28624,"lon":5.35107,"is_reserved":false,"is_disabled":false,"rental_uris":{"android":"levelo://app?vid=198b03a6-0350-47db-b014-8668c58cf8b6","ios":"levelo://app?vid=198b03a6-0350-47db-b014-8668c58cf8b6"},"vehicle_type_id":"4","last_reported":1704215194,"current_range_meters":16800,"station_id":"ce4bhch2rcd13ifvqeug","pricing_plan_id":"free"},{"bike_id":"ea452d59-fd7c-4ca4-b54a-c5822bee293c","system_id":"levelo_inurba_marseille","lat":43.285856,"lon":5.350771,"is_reserved":false,"is_disabled":false,"rental_uris":{"android":"levelo://app?vid=ea452d59-fd7c-4ca4-b54a-c5822bee293c","ios":"levelo://app?vid=ea452d59-fd7c-4ca4-b54a-c5822bee293c"},"vehicle_type_id":"4","last_reported":1704215194,"current_range_meters":23200,"station_id":"ce4bhch2rcd13ifvqeug","pricing_plan_id":"free"},{"bike_id":"da83c696-1560-46ef-849a-744338060e2d","system_id":"levelo_inurba_marseille","lat":43.28618,"lon":5.35104,"is_reserved":false,"is_disabled":false,"rental_uris":{"android":"levelo://app?vid=da83c696-1560-46ef-849a-744338060e2d","ios":"levelo://app?vid=da83c696-1560-46ef-849a-744338060e2d"},"vehicle_type_id":"4","last_reported":1704215194,"current_range_meters":24800,"station_id":"ce4bhch2rcd13ifvqeug","pricing_plan_id":"free"},{"bike_id":"bc3b2dea-6094-46e3-ba1f-789fbaf8b479","system_id":"levelo_inurba_marseille","lat":43.285856,"lon":5.350771,"is_reserved":false,"is_disabled":false,"rental_uris":{"android":"levelo://app?vid=bc3b2dea-6094-46e3-ba1f-789fbaf8b479","ios":"levelo://app?vid=bc3b2dea-6094-46e3-ba1f-789fbaf8b479"},"vehicle_type_id":"4","last_reported":1704215194,"current_range_meters":18800,"station_id":"ce4bhch2rcd13ifvqeug","pricing_plan_id":"free"},{"bike_id":"48e908df-9ca7-4c39-be98-5f1da33c5b54","system_id":"levelo_inurba_marseille","lat":43.285856,"lon":5.350771,"is_reserved":false,"is_disabled":false,"rental_uris":{"android":"levelo://app?vid=48e908df-9ca7-4c39-be98-5f1da33c5b54","ios":"levelo://app?vid=48e908df-9ca7-4c39-be98-5f1da33c5b54"},"vehicle_type_id":"4","last_reported":1704215194,"current_range_meters":30000,"station_id":"ce4bhch2rcd13ifvqeug","pricing_plan_id":"free"},{"bike_id":"9423f118-3264-4b78-9939-2290b8c63632","system_id":"levelo_inurba_marseille","lat":43.285856,"lon":5.350771,"is_reserved":false,"is_disabled":false,"rental_uris":{"android":"levelo://app?vid=9423f118-3264-4b78-9939-2290b8c63632","ios":"levelo://app?vid=9423f118-3264-4b78-9939-2290b8c63632"},"vehicle_type_id":"4","last_reported":1704215194,"current_range_meters":31200,"station_id":"ce4bhch2rcd13ifvqeug","pricing_plan_id":"free"},{"bike_id":"0910de52-5434-4dfa-9d45-44f92d480b3e","system_id":"levelo_inurba_marseille","lat":43.283998,"lon":5.375062,"is_reserved":false,"is_disabled":false,"rental_uris":{"android":"levelo://app?vid=0910de52-5434-4dfa-9d45-44f92d480b3e","ios":"levelo://app?vid=0910de52-5434-4dfa-9d45-44f92d480b3e"},"vehicle_type_id":"4","last_reported":1704215194,"current_range_meters":21600,"station_id":"ce4bh412rcd13ifvqds0","pricing_plan_id":"free"},{"bike_id":"f1da2cfb-7139-4c7c-948a-01d06d1154d1","system_id":"levelo_inurba_marseille","lat":43.295713,"lon":5.399639,"is_reserved":false,"is_disabled":false,"rental_uris":{"android":"levelo://app?vid=f1da2cfb-7139-4c7c-948a-01d06d1154d1","ios":"levelo://app?vid=f1da2cfb-7139-4c7c-948a-01d06d1154d1"},"vehicle_type_id":"4","last_reported":1704215194,"current_range_meters":14400,"station_id":"ce4bh312rcd13ifvqdj0","pricing_plan_id":"free"},{"bike_id":"acf17b22-238f-41e8-9d2c-4b2b46330113","system_id":"levelo_inurba_marseille","lat":43.286595,"lon":5.386795,"is_reserved":false,"is_disabled":false,"rental_uris":{"android":"levelo://app?vid=acf17b22-238f-41e8-9d2c-4b2b46330113","ios":"levelo://app?vid=acf17b22-238f-41e8-9d2c-4b2b46330113"},"vehicle_type_id":"4","last_reported":1704215194,"current_range_meters":16400,"station_id":"ce4bh492rcd13ifvqdug","pricing_plan_id":"free"},{"bike_id":"78635e7c-6d4d-44a8-8d79-c0ae5f625d69","system_id":"levelo_inurba_marseille","lat":43.286595,"lon":5.386795,"is_reserved":false,"is_disabled":false,"rental_uris":{"android":"levelo://app?vid=78635e7c-6d4d-44a8-8d79-c0ae5f625d69","ios":"levelo://app?vid=78635e7c-6d4d-44a8-8d79-c0ae5f625d69"},"vehicle_type_id":"4","last_reported":1704215194,"current_range_meters":27600,"station_id":"ce4bh492rcd13ifvqdug","pricing_plan_id":"free"},{"bike_id":"418c9bec-696b-4e24-bc6f-0c5a633bd156","system_id":"levelo_inurba_marseille","lat":43.286595,"lon":5.386795,"is_reserved":false,"is_disabled":false,"rental_uris":{"android":"levelo://app?vid=418c9bec-696b-4e24-bc6f-0c5a633bd156","ios":"levelo://app?vid=418c9bec-696b-4e24-bc6f-0c5a633bd156"},"vehicle_type_id":"4","last_reported":1704215194,"current_range_meters":27200,"station_id":"ce4bh492rcd13ifvqdug","pricing_plan_id":"free"},{"bike_id":"07b0f9d7-1a85-4fc0-aa1a-1d5860169b97","system_id":"levelo_inurba_marseille","lat":43.284462,"lon":5.392121,"is_reserved":false,"is_disabled":false,"rental_uris":{"android":"levelo://app?vid=07b0f9d7-1a85-4fc0-aa1a-1d5860169b97","ios":"levelo://app?vid=07b0f9d7-1a85-4fc0-aa1a-1d5860169b97"},"vehicle_type_id":"4","last_reported":1704215194,"current_range_meters":16800,"station_id":"ce4bhoh2rcd13ifvqh5g","pricing_plan_id":"free"},{"bike_id":"3bc1d0bd-ab2e-4500-8615-2742c8291fec","system_id":"levelo_inurba_marseille","lat":43.319179,"lon":5.407725,"is_reserved":false,"is_disabled":false,"rental_uris":{"android":"levelo://app?vid=3bc1d0bd-ab2e-4500-8615-2742c8291fec","ios":"levelo://app?vid=3bc1d0bd-ab2e-4500-8615-2742c8291fec"},"vehicle_type_id":"4","last_reported":1704215194,"current_range_meters":18800,"station_id":"ce4bhq12rcd13ifvqhig","pricing_plan_id":"free"},{"bike_id":"11b7c9ea-3b70-4dc9-8ac1-57201e1fbf39","system_id":"levelo_inurba_marseille","lat":43.286667,"lon":5.38672,"is_reserved":false,"is_disabled":false,"rental_uris":{"android":"levelo://app?vid=11b7c9ea-3b70-4dc9-8ac1-57201e1fbf39","ios":"levelo://app?vid=11b7c9ea-3b70-4dc9-8ac1-57201e1fbf39"},"vehicle_type_id":"4","last_reported":1704215194,"current_range_meters":27200,"station_id":"ce4bh492rcd13ifvqdug","pricing_plan_id":"free"},{"bike_id":"1860c054-e673-4084-804e-8832a59aeb53","system_id":"levelo_inurba_marseille","lat":43.33727,"lon":5.3918,"is_reserved":false,"is_disabled":false,"rental_uris":{"android":"levelo://app?vid=1860c054-e673-4084-804e-8832a59aeb53","ios":"levelo://app?vid=1860c054-e673-4084-804e-8832a59aeb53"},"vehicle_type_id":"4","last_reported":1704215194,"current_range_meters":23200,"station_id":"ce4bhr92rcd13ifvqhsg","pricing_plan_id":"free"},{"bike_id":"f38d7302-1d50-43dc-a25d-fca4fb84faed","system_id":"levelo_inurba_marseille","lat":43.323464,"lon":5.406297,"is_reserved":false,"is_disabled":false,"rental_uris":{"android":"levelo://app?vid=f38d7302-1d50-43dc-a25d-fca4fb84faed","ios":"levelo://app?vid=f38d7302-1d50-43dc-a25d-fca4fb84faed"},"vehicle_type_id":"4","last_reported":1704215194,"current_range_meters":26400,"station_id":"ce4bhq92rcd13ifvqhjg","pricing_plan_id":"free"},{"bike_id":"b12e41e3-5262-4965-86f7-a3e15f2f998d","system_id":"levelo_inurba_marseille","lat":43.297946,"lon":5.404063,"is_reserved":false,"is_disabled":false,"rental_uris":{"android":"levelo://app?vid=b12e41e3-5262-4965-86f7-a3e15f2f998d","ios":"levelo://app?vid=b12e41e3-5262-4965-86f7-a3e15f2f998d"},"vehicle_type_id":"4","last_reported":1704215194,"current_range_meters":17600,"station_id":"ce4bh112rcd13ifvqd90","pricing_plan_id":"free"},{"bike_id":"3d58e7d8-cbc8-49f7-a1b3-d2d4c7fd0cc2","system_id":"levelo_inurba_marseille","lat":43.283494,"lon":5.380945,"is_reserved":false,"is_disabled":false,"rental_uris":{"android":"levelo://app?vid=3d58e7d8-cbc8-49f7-a1b3-d2d4c7fd0cc2","ios":"levelo://app?vid=3d58e7d8-cbc8-49f7-a1b3-d2d4c7fd0cc2"},"vehicle_type_id":"4","last_reported":1704215194,"current_range_meters":12000,"station_id":"ce4bh412rcd13ifvqdr0","pricing_plan_id":"free"},{"bike_id":"d47be017-008d-4f3c-b113-7f8fbc487644","system_id":"levelo_inurba_marseille","lat":43.283494,"lon":5.380945,"is_reserved":false,"is_disabled":false,"rental_uris":{"android":"levelo://app?vid=d47be017-008d-4f3c-b113-7f8fbc487644","ios":"levelo://app?vid=d47be017-008d-4f3c-b113-7f8fbc487644"},"vehicle_type_id":"4","last_reported":1704215194,"current_range_meters":15200,"station_id":"ce4bh412rcd13ifvqdr0","pricing_plan_id":"free"},{"bike_id":"023d0e2b-e2ed-4398-9ad4-0149d5bc9a36","system_id":"levelo_inurba_marseille","lat":43.284219,"lon":5.3497,"is_reserved":false,"is_disabled":false,"rental_uris":{"android":"levelo://app?vid=023d0e2b-e2ed-4398-9ad4-0149d5bc9a36","ios":"levelo://app?vid=023d0e2b-e2ed-4398-9ad4-0149d5bc9a36"},"vehicle_type_id":"4","last_reported":1704215194,"current_range_meters":15600,"station_id":"ce4bhbh2rcd13ifvqepg","pricing_plan_id":"free"},{"bike_id":"085d4b1f-3602-4e5c-9bb9-a3e506a6dd45","system_id":"levelo_inurba_marseille","lat":43.283502,"lon":5.386471,"is_reserved":false,"is_disabled":false,"rental_uris":{"android":"levelo://app?vid=085d4b1f-3602-4e5c-9bb9-a3e506a6dd45","ios":"levelo://app?vid=085d4b1f-3602-4e5c-9bb9-a3e506a6dd45"},"vehicle_type_id":"4","last_reported":1704215194,"current_range_meters":22000,"station_id":"ce4bh492rcd13ifvqdvg","pricing_plan_id":"free"},{"bike_id":"56c1105d-9bac-4e47-9c92-44289fbbbde2","system_id":"levelo_inurba_marseille","lat":43.280382,"lon":5.369291,"is_reserved":false,"is_disabled":false,"rental_uris":{"android":"levelo://app?vid=56c1105d-9bac-4e47-9c92-44289fbbbde2","ios":"levelo://app?vid=56c1105d-9bac-4e47-9c92-44289fbbbde2"},"vehicle_type_id":"4","last_reported":1704215194,"current_range_meters":24800,"station_id":"ce4bha12rcd13ifvqef0","pricing_plan_id":"free"},{"bike_id":"239a8e5f-f579-495b-9ab7-a1cfb775889f","system_id":"levelo_inurba_marseille","lat":43.281044,"lon":5.378308,"is_reserved":false,"is_disabled":false,"rental_uris":{"android":"levelo://app?vid=239a8e5f-f579-495b-9ab7-a1cfb775889f","ios":"levelo://app?vid=239a8e5f-f579-495b-9ab7-a1cfb775889f"},"vehicle_type_id":"4","last_reported":1704215194,"current_range_meters":21200,"station_id":"ce4bha12rcd13ifvqee0","pricing_plan_id":"free"},{"bike_id":"7a4134c3-dd47-41af-a019-93623a90dede","system_id":"levelo_inurba_marseille","lat":43.296263,"lon":5.40601,"is_reserved":false,"is_disabled":false,"rental_uris":{"android":"levelo://app?vid=7a4134c3-dd47-41af-a019-93623a90dede","ios":"levelo://app?vid=7a4134c3-dd47-41af-a019-93623a90dede"},"vehicle_type_id":"4","last_reported":1704215194,"current_range_meters":10000,"station_id":"ce4bh0h2rcd13ifvqd60","pricing_plan_id":"free"},{"bike_id":"37a54aa1-6d8e-4f23-accf-b976f0c9f1af","system_id":"levelo_inurba_marseille","lat":43.281044,"lon":5.378308,"is_reserved":false,"is_disabled":false,"rental_uris":{"android":"levelo://app?vid=37a54aa1-6d8e-4f23-accf-b976f0c9f1af","ios":"levelo://app?vid=37a54aa1-6d8e-4f23-accf-b976f0c9f1af"},"vehicle_type_id":"4","last_reported":1704215194,"current_range_meters":30400,"station_id":"ce4bha12rcd13ifvqee0","pricing_plan_id":"free"},{"bike_id":"20cd6e8d-5a1d-4842-bfc9-d701a6f6eca1","system_id":"levelo_inurba_marseille","lat":43.284462,"lon":5.392121,"is_reserved":false,"is_disabled":false,"rental_uris":{"android":"levelo://app?vid=20cd6e8d-5a1d-4842-bfc9-d701a6f6eca1","ios":"levelo://app?vid=20cd6e8d-5a1d-4842-bfc9-d701a6f6eca1"},"vehicle_type_id":"4","last_reported":1704215194,"current_range_meters":16400,"station_id":"ce4bhoh2rcd13ifvqh5g","pricing_plan_id":"free"},{"bike_id":"5bbfc9cf-a797-4dc9-abe6-c7a02b68db20","system_id":"levelo_inurba_marseille","lat":43.284462,"lon":5.392121,"is_reserved":false,"is_disabled":false,"rental_uris":{"android":"levelo://app?vid=5bbfc9cf-a797-4dc9-abe6-c7a02b68db20","ios":"levelo://app?vid=5bbfc9cf-a797-4dc9-abe6-c7a02b68db20"},"vehicle_type_id":"4","last_reported":1704215194,"current_range_meters":4000,"station_id":"ce4bhoh2rcd13ifvqh5g","pricing_plan_id":"free"},{"bike_id":"7871ae4f-93f2-45c4-8d9f-380c191a8888","system_id":"levelo_inurba_marseille","lat":43.285742,"lon":5.395004,"is_reserved":false,"is_disabled":false,"rental_uris":{"android":"levelo://app?vid=7871ae4f-93f2-45c4-8d9f-380c191a8888","ios":"levelo://app?vid=7871ae4f-93f2-45c4-8d9f-380c191a8888"},"vehicle_type_id":"4","last_reported":1704215194,"current_range_meters":30400,"station_id":"ce4bh292rcd13ifvqdg0","pricing_plan_id":"free"},{"bike_id":"b2d47e27-8ad4-40f8-94a5-51558d9c1ca6","system_id":"levelo_inurba_marseille","lat":43.30415,"lon":5.41283,"is_reserved":false,"is_disabled":false,"rental_uris":{"android":"levelo://app?vid=b2d47e27-8ad4-40f8-94a5-51558d9c1ca6","ios":"levelo://app?vid=b2d47e27-8ad4-40f8-94a5-51558d9c1ca6"},"vehicle_type_id":"4","last_reported":1704215194,"current_range_meters":22000,"station_id":"ce4bhop2rcd13ifvqh8g","pricing_plan_id":"free"},{"bike_id":"1701dfb7-5b83-4e73-958d-dcf903185e15","system_id":"levelo_inurba_marseille","lat":43.304188,"lon":5.412904,"is_reserved":false,"is_disabled":false,"rental_uris":{"android":"levelo://app?vid=1701dfb7-5b83-4e73-958d-dcf903185e15","ios":"levelo://app?vid=1701dfb7-5b83-4e73-958d-dcf903185e15"},"vehicle_type_id":"4","last_reported":1704215194,"current_range_meters":29200,"station_id":"ce4bhop2rcd13ifvqh8g","pricing_plan_id":"free"},{"bike_id":"02061927-eb3a-4cec-98ca-d87c82afe76f","system_id":"levelo_inurba_marseille","lat":43.304188,"lon":5.412904,"is_reserved":false,"is_disabled":false,"rental_uris":{"android":"levelo://app?vid=02061927-eb3a-4cec-98ca-d87c82afe76f","ios":"levelo://app?vid=02061927-eb3a-4cec-98ca-d87c82afe76f"},"vehicle_type_id":"4","last_reported":1704215194,"current_range_meters":20400,"station_id":"ce4bhop2rcd13ifvqh8g","pricing_plan_id":"free"},{"bike_id":"249acaa2-4e10-4340-9808-b9a721925c9d","system_id":"levelo_inurba_marseille","lat":43.287154,"lon":5.399979,"is_reserved":false,"is_disabled":false,"rental_uris":{"android":"levelo://app?vid=249acaa2-4e10-4340-9808-b9a721925c9d","ios":"levelo://app?vid=249acaa2-4e10-4340-9808-b9a721925c9d"},"vehicle_type_id":"4","last_reported":1704215194,"current_range_meters":20000,"station_id":"ce4bho92rcd13ifvqh3g","pricing_plan_id":"free"},{"bike_id":"9be2d78a-6a47-4089-9408-853089ccd451","system_id":"levelo_inurba_marseille","lat":43.287154,"lon":5.399979,"is_reserved":false,"is_disabled":false,"rental_uris":{"android":"levelo://app?vid=9be2d78a-6a47-4089-9408-853089ccd451","ios":"levelo://app?vid=9be2d78a-6a47-4089-9408-853089ccd451"},"vehicle_type_id":"4","last_reported":1704215194,"current_range_meters":16800,"station_id":"ce4bho92rcd13ifvqh3g","pricing_plan_id":"free"},{"bike_id":"1dae1fe4-bb5c-4a79-b2b6-24eb076a4ff6","system_id":"levelo_inurba_marseille","lat":43.320045,"lon":5.415046,"is_reserved":false,"is_disabled":false,"rental_uris":{"android":"levelo://app?vid=1dae1fe4-bb5c-4a79-b2b6-24eb076a4ff6","ios":"levelo://app?vid=1dae1fe4-bb5c-4a79-b2b6-24eb076a4ff6"},"vehicle_type_id":"4","last_reported":1704215194,"current_range_meters":16000,"station_id":"ce4bhq92rcd13ifvqhkg","pricing_plan_id":"free"},{"bike_id":"f2eb0e46-d2dd-491d-8e47-77bc796a559c","system_id":"levelo_inurba_marseille","lat":43.279742,"lon":5.38744,"is_reserved":false,"is_disabled":false,"rental_uris":{"android":"levelo://app?vid=f2eb0e46-d2dd-491d-8e47-77bc796a559c","ios":"levelo://app?vid=f2eb0e46-d2dd-491d-8e47-77bc796a559c"},"vehicle_type_id":"4","last_reported":1704215194,"current_range_meters":2400,"station_id":"ce4bhg12rcd13ifvqf80","pricing_plan_id":"free"},{"bike_id":"6e6658d0-c148-4e77-885a-818b2a313fca","system_id":"levelo_inurba_marseille","lat":43.320547,"lon":5.41547,"is_reserved":false,"is_disabled":false,"rental_uris":{"android":"levelo://app?vid=6e6658d0-c148-4e77-885a-818b2a313fca","ios":"levelo://app?vid=6e6658d0-c148-4e77-885a-818b2a313fca"},"vehicle_type_id":"4","last_reported":1704215194,"current_range_meters":29200,"station_id":"ce4bhq92rcd13ifvqhkg","pricing_plan_id":"free"},{"bike_id":"933eda99-7624-42f6-b781-844a7e28204a","system_id":"levelo_inurba_marseille","lat":43.279742,"lon":5.38744,"is_reserved":false,"is_disabled":false,"rental_uris":{"android":"levelo://app?vid=933eda99-7624-42f6-b781-844a7e28204a","ios":"levelo://app?vid=933eda99-7624-42f6-b781-844a7e28204a"},"vehicle_type_id":"4","last_reported":1704215194,"current_range_meters":12000,"station_id":"ce4bhg12rcd13ifvqf80","pricing_plan_id":"free"},{"bike_id":"27faae58-fcb2-4169-a868-498dc7e14ada","system_id":"levelo_inurba_marseille","lat":43.320045,"lon":5.415046,"is_reserved":false,"is_disabled":false,"rental_uris":{"android":"levelo://app?vid=27faae58-fcb2-4169-a868-498dc7e14ada","ios":"levelo://app?vid=27faae58-fcb2-4169-a868-498dc7e14ada"},"vehicle_type_id":"4","last_reported":1704215194,"current_range_meters":26000,"station_id":"ce4bhq92rcd13ifvqhkg","pricing_plan_id":"free"},{"bike_id":"192acfed-48f7-4dfc-bf02-1c657bbaf291","system_id":"levelo_inurba_marseille","lat":43.284793,"lon":5.384113,"is_reserved":false,"is_disabled":false,"rental_uris":{"android":"levelo://app?vid=192acfed-48f7-4dfc-bf02-1c657bbaf291","ios":"levelo://app?vid=192acfed-48f7-4dfc-bf02-1c657bbaf291"},"vehicle_type_id":"4","last_reported":1704215194,"current_range_meters":11200,"station_id":"ce4bh512rcd13ifvqe3g","pricing_plan_id":"free"},{"bike_id":"90c32ba2-47e1-4364-9be5-8d005ab3b3da","system_id":"levelo_inurba_marseille","lat":43.276179,"lon":5.361009,"is_reserved":false,"is_disabled":false,"rental_uris":{"android":"levelo://app?vid=90c32ba2-47e1-4364-9be5-8d005ab3b3da","ios":"levelo://app?vid=90c32ba2-47e1-4364-9be5-8d005ab3b3da"},"vehicle_type_id":"4","last_reported":1704215194,"current_range_meters":0,"station_id":"ce4bgj92rcd13ifvqbe0","pricing_plan_id":"free"},{"bike_id":"2f07b6ec-cb19-4393-848e-201add03b747","system_id":"levelo_inurba_marseille","lat":43.280784,"lon":5.396622,"is_reserved":false,"is_disabled":false,"rental_uris":{"android":"levelo://app?vid=2f07b6ec-cb19-4393-848e-201add03b747","ios":"levelo://app?vid=2f07b6ec-cb19-4393-848e-201add03b747"},"vehicle_type_id":"4","last_reported":1704215194,"current_range_meters":12400,"station_id":"ce4bho12rcd13ifvqh2g","pricing_plan_id":"free"},{"bike_id":"b13ce715-afe3-4955-a7e8-d85c9743f75a","system_id":"levelo_inurba_marseille","lat":43.303837,"lon":5.418724,"is_reserved":false,"is_disabled":false,"rental_uris":{"android":"levelo://app?vid=b13ce715-afe3-4955-a7e8-d85c9743f75a","ios":"levelo://app?vid=b13ce715-afe3-4955-a7e8-d85c9743f75a"},"vehicle_type_id":"4","last_reported":1704215194,"current_range_meters":29200,"station_id":"ce4bhop2rcd13ifvqh7g","pricing_plan_id":"free"},{"bike_id":"a444d6e2-8b2f-4c06-a832-f8458cd681a6","system_id":"levelo_inurba_marseille","lat":43.336134,"lon":5.410341,"is_reserved":false,"is_disabled":false,"rental_uris":{"android":"levelo://app?vid=a444d6e2-8b2f-4c06-a832-f8458cd681a6","ios":"levelo://app?vid=a444d6e2-8b2f-4c06-a832-f8458cd681a6"},"vehicle_type_id":"4","last_reported":1704215194,"current_range_meters":28400,"station_id":"ce4bhqh2rcd13ifvqhmg","pricing_plan_id":"free"},{"bike_id":"2774f0d0-ce20-4035-bcbf-3fc04f618288","system_id":"levelo_inurba_marseille","lat":43.279975,"lon":5.40009,"is_reserved":false,"is_disabled":false,"rental_uris":{"android":"levelo://app?vid=2774f0d0-ce20-4035-bcbf-3fc04f618288","ios":"levelo://app?vid=2774f0d0-ce20-4035-bcbf-3fc04f618288"},"vehicle_type_id":"4","last_reported":1704215194,"current_range_meters":30000,"station_id":"ce4bho92rcd13ifvqh4g","pricing_plan_id":"free"},{"bike_id":"5e3452d0-bbc8-463b-8852-ec98e809d5a0","system_id":"levelo_inurba_marseille","lat":43.317121,"lon":5.423936,"is_reserved":false,"is_disabled":false,"rental_uris":{"android":"levelo://app?vid=5e3452d0-bbc8-463b-8852-ec98e809d5a0","ios":"levelo://app?vid=5e3452d0-bbc8-463b-8852-ec98e809d5a0"},"vehicle_type_id":"4","last_reported":1704215194,"current_range_meters":31200,"station_id":"ce4bhp92rcd13ifvqhbg","pricing_plan_id":"free"},{"bike_id":"c2f050c8-5829-4d0e-9d3b-560f9daeb30d","system_id":"levelo_inurba_marseille","lat":43.31081,"lon":5.42427,"is_reserved":false,"is_disabled":false,"rental_uris":{"android":"levelo://app?vid=c2f050c8-5829-4d0e-9d3b-560f9daeb30d","ios":"levelo://app?vid=c2f050c8-5829-4d0e-9d3b-560f9daeb30d"},"vehicle_type_id":"4","last_reported":1704215194,"current_range_meters":31200,"station_id":"ce4bhp92rcd13ifvqhag","pricing_plan_id":"free"},{"bike_id":"4760841b-4fd7-4b7d-aef3-782de75b0909","system_id":"levelo_inurba_marseille","lat":43.317121,"lon":5.423936,"is_reserved":false,"is_disabled":false,"rental_uris":{"android":"levelo://app?vid=4760841b-4fd7-4b7d-aef3-782de75b0909","ios":"levelo://app?vid=4760841b-4fd7-4b7d-aef3-782de75b0909"},"vehicle_type_id":"4","last_reported":1704215194,"current_range_meters":21200,"station_id":"ce4bhp92rcd13ifvqhbg","pricing_plan_id":"free"},{"bike_id":"f3e351f0-7ca3-497e-a450-69da3118abd7","system_id":"levelo_inurba_marseille","lat":43.317147,"lon":5.424068,"is_reserved":false,"is_disabled":false,"rental_uris":{"android":"levelo://app?vid=f3e351f0-7ca3-497e-a450-69da3118abd7","ios":"levelo://app?vid=f3e351f0-7ca3-497e-a450-69da3118abd7"},"vehicle_type_id":"4","last_reported":1704215194,"current_range_meters":24000,"station_id":"ce4bhp92rcd13ifvqhbg","pricing_plan_id":"free"},{"bike_id":"631dbf73-7707-4210-bb68-6471796fccb3","system_id":"levelo_inurba_marseille","lat":43.31085,"lon":5.42433,"is_reserved":false,"is_disabled":false,"rental_uris":{"android":"levelo://app?vid=631dbf73-7707-4210-bb68-6471796fccb3","ios":"levelo://app?vid=631dbf73-7707-4210-bb68-6471796fccb3"},"vehicle_type_id":"4","last_reported":1704215194,"current_range_meters":31200,"station_id":"ce4bhp92rcd13ifvqhag","pricing_plan_id":"free"},{"bike_id":"27069f3d-7d0a-4623-9f37-1f04f341a2d7","system_id":"levelo_inurba_marseille","lat":43.31083,"lon":5.42433,"is_reserved":false,"is_disabled":false,"rental_uris":{"android":"levelo://app?vid=27069f3d-7d0a-4623-9f37-1f04f341a2d7","ios":"levelo://app?vid=27069f3d-7d0a-4623-9f37-1f04f341a2d7"},"vehicle_type_id":"4","last_reported":1704215194,"current_range_meters":16000,"station_id":"ce4bhp92rcd13ifvqhag","pricing_plan_id":"free"},{"bike_id":"47f8cb60-186e-4e83-96aa-050d47af2974","system_id":"levelo_inurba_marseille","lat":43.3414,"lon":5.408977,"is_reserved":false,"is_disabled":false,"rental_uris":{"android":"levelo://app?vid=47f8cb60-186e-4e83-96aa-050d47af2974","ios":"levelo://app?vid=47f8cb60-186e-4e83-96aa-050d47af2974"},"vehicle_type_id":"4","last_reported":1704215194,"current_range_meters":11600,"station_id":"ce4bhqh2rcd13ifvqhlg","pricing_plan_id":"free"},{"bike_id":"16332610-6d03-4244-a9d6-f27236f43554","system_id":"levelo_inurba_marseille","lat":43.340804,"lon":5.410219,"is_reserved":false,"is_disabled":false,"rental_uris":{"android":"levelo://app?vid=16332610-6d03-4244-a9d6-f27236f43554","ios":"levelo://app?vid=16332610-6d03-4244-a9d6-f27236f43554"},"vehicle_type_id":"4","last_reported":1704215194,"current_range_meters":24800,"station_id":"ce4bhqh2rcd13ifvqhlg","pricing_plan_id":"free"},{"bike_id":"d7a0f436-4a10-430d-9dfa-fb613b9a9e9c","system_id":"levelo_inurba_marseille","lat":43.340804,"lon":5.410219,"is_reserved":false,"is_disabled":false,"rental_uris":{"android":"levelo://app?vid=d7a0f436-4a10-430d-9dfa-fb613b9a9e9c","ios":"levelo://app?vid=d7a0f436-4a10-430d-9dfa-fb613b9a9e9c"},"vehicle_type_id":"4","last_reported":1704215194,"current_range_meters":20000,"station_id":"ce4bhqh2rcd13ifvqhlg","pricing_plan_id":"free"},{"bike_id":"829270fc-7e0f-40df-9de0-40c381f35986","system_id":"levelo_inurba_marseille","lat":43.273125,"lon":5.390731,"is_reserved":false,"is_disabled":false,"rental_uris":{"android":"levelo://app?vid=829270fc-7e0f-40df-9de0-40c381f35986","ios":"levelo://app?vid=829270fc-7e0f-40df-9de0-40c381f35986"},"vehicle_type_id":"4","last_reported":1704215194,"current_range_meters":15600,"station_id":"ce4bhgp2rcd13ifvqfe0","pricing_plan_id":"free"},{"bike_id":"06ffa434-5d66-4e6e-8612-d321a802d2d1","system_id":"levelo_inurba_marseille","lat":43.273129,"lon":5.390725,"is_reserved":false,"is_disabled":false,"rental_uris":{"android":"levelo://app?vid=06ffa434-5d66-4e6e-8612-d321a802d2d1","ios":"levelo://app?vid=06ffa434-5d66-4e6e-8612-d321a802d2d1"},"vehicle_type_id":"4","last_reported":1704215194,"current_range_meters":20400,"station_id":"ce4bhgp2rcd13ifvqfe0","pricing_plan_id":"free"},{"bike_id":"788f8a87-f057-41ba-b280-a60fc17a53df","system_id":"levelo_inurba_marseille","lat":43.274103,"lon":5.394016,"is_reserved":false,"is_disabled":false,"rental_uris":{"android":"levelo://app?vid=788f8a87-f057-41ba-b280-a60fc17a53df","ios":"levelo://app?vid=788f8a87-f057-41ba-b280-a60fc17a53df"},"vehicle_type_id":"4","last_reported":1704215194,"current_range_meters":26800,"station_id":"ce4bhdp2rcd13ifvqf20","pricing_plan_id":"free"},{"bike_id":"5cc0f249-268c-4f85-9665-4a9787f488b1","system_id":"levelo_inurba_marseille","lat":43.274099,"lon":5.394019,"is_reserved":false,"is_disabled":false,"rental_uris":{"android":"levelo://app?vid=5cc0f249-268c-4f85-9665-4a9787f488b1","ios":"levelo://app?vid=5cc0f249-268c-4f85-9665-4a9787f488b1"},"vehicle_type_id":"4","last_reported":1704215194,"current_range_meters":21200,"station_id":"ce4bhdp2rcd13ifvqf20","pricing_plan_id":"free"},{"bike_id":"2ea63b5f-5611-4e23-a9e5-5bdc3150234e","system_id":"levelo_inurba_marseille","lat":43.295511,"lon":5.422926,"is_reserved":false,"is_disabled":false,"rental_uris":{"android":"levelo://app?vid=2ea63b5f-5611-4e23-a9e5-5bdc3150234e","ios":"levelo://app?vid=2ea63b5f-5611-4e23-a9e5-5bdc3150234e"},"vehicle_type_id":"4","last_reported":1704215194,"current_range_meters":17200,"station_id":"ce4bhph2rcd13ifvqhdg","pricing_plan_id":"free"},{"bike_id":"0981adf6-92c5-4e1b-820e-2802de113eaa","system_id":"levelo_inurba_marseille","lat":43.27103,"lon":5.38952,"is_reserved":false,"is_disabled":false,"rental_uris":{"android":"levelo://app?vid=0981adf6-92c5-4e1b-820e-2802de113eaa","ios":"levelo://app?vid=0981adf6-92c5-4e1b-820e-2802de113eaa"},"vehicle_type_id":"4","last_reported":1704215194,"current_range_meters":23600,"station_id":"","pricing_plan_id":"free"},{"bike_id":"2cb61212-3359-4842-8658-b4b49c63f72c","system_id":"levelo_inurba_marseille","lat":43.278128,"lon":5.407195,"is_reserved":false,"is_disabled":false,"rental_uris":{"android":"levelo://app?vid=2cb61212-3359-4842-8658-b4b49c63f72c","ios":"levelo://app?vid=2cb61212-3359-4842-8658-b4b49c63f72c"},"vehicle_type_id":"4","last_reported":1704215194,"current_range_meters":29600,"station_id":"ce4bhnh2rcd13ifvqgtg","pricing_plan_id":"free"},{"bike_id":"c431d47a-a926-4e34-b365-c94c254b4f13","system_id":"levelo_inurba_marseille","lat":43.269467,"lon":5.386439,"is_reserved":false,"is_disabled":false,"rental_uris":{"android":"levelo://app?vid=c431d47a-a926-4e34-b365-c94c254b4f13","ios":"levelo://app?vid=c431d47a-a926-4e34-b365-c94c254b4f13"},"vehicle_type_id":"4","last_reported":1704215194,"current_range_meters":22800,"station_id":"ce4bhh92rcd13ifvqfh0","pricing_plan_id":"free"},{"bike_id":"b6c45ef2-9691-485f-8179-10fa71486c8a","system_id":"levelo_inurba_marseille","lat":43.279465,"lon":5.410561,"is_reserved":false,"is_disabled":false,"rental_uris":{"android":"levelo://app?vid=b6c45ef2-9691-485f-8179-10fa71486c8a","ios":"levelo://app?vid=b6c45ef2-9691-485f-8179-10fa71486c8a"},"vehicle_type_id":"4","last_reported":1704215194,"current_range_meters":25200,"station_id":"ce4bhnp2rcd13ifvqh0g","pricing_plan_id":"free"},{"bike_id":"9330153e-64f6-4ee9-a869-aa9ca216a65f","system_id":"levelo_inurba_marseille","lat":43.279465,"lon":5.410561,"is_reserved":false,"is_disabled":false,"rental_uris":{"android":"levelo://app?vid=9330153e-64f6-4ee9-a869-aa9ca216a65f","ios":"levelo://app?vid=9330153e-64f6-4ee9-a869-aa9ca216a65f"},"vehicle_type_id":"4","last_reported":1704215194,"current_range_meters":27600,"station_id":"ce4bhnp2rcd13ifvqh0g","pricing_plan_id":"free"},{"bike_id":"311ad92f-d5ba-419f-bfdd-b31627b40f3c","system_id":"levelo_inurba_marseille","lat":43.26559,"lon":5.37281,"is_reserved":false,"is_disabled":false,"rental_uris":{"android":"levelo://app?vid=311ad92f-d5ba-419f-bfdd-b31627b40f3c","ios":"levelo://app?vid=311ad92f-d5ba-419f-bfdd-b31627b40f3c"},"vehicle_type_id":"4","last_reported":1704215194,"current_range_meters":20800,"station_id":"ce4bhg12rcd13ifvqf70","pricing_plan_id":"free"},{"bike_id":"cd6f2f3e-9585-43f5-b881-381b3bdf7910","system_id":"levelo_inurba_marseille","lat":43.26559,"lon":5.37282,"is_reserved":false,"is_disabled":false,"rental_uris":{"android":"levelo://app?vid=cd6f2f3e-9585-43f5-b881-381b3bdf7910","ios":"levelo://app?vid=cd6f2f3e-9585-43f5-b881-381b3bdf7910"},"vehicle_type_id":"4","last_reported":1704215194,"current_range_meters":29600,"station_id":"ce4bhg12rcd13ifvqf70","pricing_plan_id":"free"},{"bike_id":"ae524c9a-a06d-4180-b98e-d3a2739d38c3","system_id":"levelo_inurba_marseille","lat":43.26681,"lon":5.382694,"is_reserved":false,"is_disabled":false,"rental_uris":{"android":"levelo://app?vid=ae524c9a-a06d-4180-b98e-d3a2739d38c3","ios":"levelo://app?vid=ae524c9a-a06d-4180-b98e-d3a2739d38c3"},"vehicle_type_id":"4","last_reported":1704215194,"current_range_meters":11600,"station_id":"ce4bhg92rcd13ifvqf90","pricing_plan_id":"free"},{"bike_id":"c5583a46-f991-4c88-bcbd-49c79089cb81","system_id":"levelo_inurba_marseille","lat":43.26558,"lon":5.37283,"is_reserved":false,"is_disabled":false,"rental_uris":{"android":"levelo://app?vid=c5583a46-f991-4c88-bcbd-49c79089cb81","ios":"levelo://app?vid=c5583a46-f991-4c88-bcbd-49c79089cb81"},"vehicle_type_id":"4","last_reported":1704215194,"current_range_meters":23200,"station_id":"ce4bhg12rcd13ifvqf70","pricing_plan_id":"free"},{"bike_id":"7c3c75f3-2f79-4900-bc2d-1b5579762775","system_id":"levelo_inurba_marseille","lat":43.265714,"lon":5.372891,"is_reserved":false,"is_disabled":false,"rental_uris":{"android":"levelo://app?vid=7c3c75f3-2f79-4900-bc2d-1b5579762775","ios":"levelo://app?vid=7c3c75f3-2f79-4900-bc2d-1b5579762775"},"vehicle_type_id":"4","last_reported":1704215194,"current_range_meters":31200,"station_id":"ce4bhg12rcd13ifvqf70","pricing_plan_id":"free"},{"bike_id":"5247d2e6-58e2-4e05-be30-42c4c7f83778","system_id":"levelo_inurba_marseille","lat":43.26557,"lon":5.37282,"is_reserved":false,"is_disabled":false,"rental_uris":{"android":"levelo://app?vid=5247d2e6-58e2-4e05-be30-42c4c7f83778","ios":"levelo://app?vid=5247d2e6-58e2-4e05-be30-42c4c7f83778"},"vehicle_type_id":"4","last_reported":1704215194,"current_range_meters":30400,"station_id":"ce4bhg12rcd13ifvqf70","pricing_plan_id":"free"},{"bike_id":"2c9b8f30-e007-4d80-b81d-c49d909fc04d","system_id":"levelo_inurba_marseille","lat":43.26557,"lon":5.37286,"is_reserved":false,"is_disabled":false,"rental_uris":{"android":"levelo://app?vid=2c9b8f30-e007-4d80-b81d-c49d909fc04d","ios":"levelo://app?vid=2c9b8f30-e007-4d80-b81d-c49d909fc04d"},"vehicle_type_id":"4","last_reported":1704215194,"current_range_meters":16400,"station_id":"ce4bhg12rcd13ifvqf70","pricing_plan_id":"free"},{"bike_id":"e14bc4a6-c07b-47be-b599-c1b9be32a9dc","system_id":"levelo_inurba_marseille","lat":43.26555,"lon":5.37285,"is_reserved":false,"is_disabled":false,"rental_uris":{"android":"levelo://app?vid=e14bc4a6-c07b-47be-b599-c1b9be32a9dc","ios":"levelo://app?vid=e14bc4a6-c07b-47be-b599-c1b9be32a9dc"},"vehicle_type_id":"4","last_reported":1704215194,"current_range_meters":30800,"station_id":"ce4bhg12rcd13ifvqf70","pricing_plan_id":"free"},{"bike_id":"e7eddb2f-e2c9-47ad-b39a-faa09ae6cda1","system_id":"levelo_inurba_marseille","lat":43.26552,"lon":5.37282,"is_reserved":false,"is_disabled":false,"rental_uris":{"android":"levelo://app?vid=e7eddb2f-e2c9-47ad-b39a-faa09ae6cda1","ios":"levelo://app?vid=e7eddb2f-e2c9-47ad-b39a-faa09ae6cda1"},"vehicle_type_id":"4","last_reported":1704215194,"current_range_meters":31200,"station_id":"ce4bhg12rcd13ifvqf70","pricing_plan_id":"free"},{"bike_id":"aa8a99d9-ccca-48a5-96b2-d9810a541f20","system_id":"levelo_inurba_marseille","lat":43.27996,"lon":5.416624,"is_reserved":false,"is_disabled":false,"rental_uris":{"android":"levelo://app?vid=aa8a99d9-ccca-48a5-96b2-d9810a541f20","ios":"levelo://app?vid=aa8a99d9-ccca-48a5-96b2-d9810a541f20"},"vehicle_type_id":"4","last_reported":1704215194,"current_range_meters":22800,"station_id":"ce4bho12rcd13ifvqh1g","pricing_plan_id":"free"},{"bike_id":"2bdf59be-e0b9-40da-b6af-abd96991b40d","system_id":"levelo_inurba_marseille","lat":43.27996,"lon":5.416624,"is_reserved":false,"is_disabled":false,"rental_uris":{"android":"levelo://app?vid=2bdf59be-e0b9-40da-b6af-abd96991b40d","ios":"levelo://app?vid=2bdf59be-e0b9-40da-b6af-abd96991b40d"},"vehicle_type_id":"4","last_reported":1704215194,"current_range_meters":10400,"station_id":"ce4bho12rcd13ifvqh1g","pricing_plan_id":"free"},{"bike_id":"963974ce-5870-4af8-84f2-0dc3b0fc534c","system_id":"levelo_inurba_marseille","lat":43.27996,"lon":5.416624,"is_reserved":false,"is_disabled":false,"rental_uris":{"android":"levelo://app?vid=963974ce-5870-4af8-84f2-0dc3b0fc534c","ios":"levelo://app?vid=963974ce-5870-4af8-84f2-0dc3b0fc534c"},"vehicle_type_id":"4","last_reported":1704215194,"current_range_meters":16400,"station_id":"ce4bho12rcd13ifvqh1g","pricing_plan_id":"free"},{"bike_id":"4069870e-f5e8-4bfb-b990-bd0741967933","system_id":"levelo_inurba_marseille","lat":43.27996,"lon":5.416624,"is_reserved":false,"is_disabled":false,"rental_uris":{"android":"levelo://app?vid=4069870e-f5e8-4bfb-b990-bd0741967933","ios":"levelo://app?vid=4069870e-f5e8-4bfb-b990-bd0741967933"},"vehicle_type_id":"4","last_reported":1704215194,"current_range_meters":30000,"station_id":"ce4bho12rcd13ifvqh1g","pricing_plan_id":"free"},{"bike_id":"7552dc67-1782-4263-8825-10c5b00b31be","system_id":"levelo_inurba_marseille","lat":43.27993,"lon":5.41667,"is_reserved":false,"is_disabled":false,"rental_uris":{"android":"levelo://app?vid=7552dc67-1782-4263-8825-10c5b00b31be","ios":"levelo://app?vid=7552dc67-1782-4263-8825-10c5b00b31be"},"vehicle_type_id":"4","last_reported":1704215194,"current_range_meters":28400,"station_id":"ce4bho12rcd13ifvqh1g","pricing_plan_id":"free"},{"bike_id":"6d56746b-555d-485f-9bc0-520c69e5e465","system_id":"levelo_inurba_marseille","lat":43.2799,"lon":5.41666,"is_reserved":false,"is_disabled":false,"rental_uris":{"android":"levelo://app?vid=6d56746b-555d-485f-9bc0-520c69e5e465","ios":"levelo://app?vid=6d56746b-555d-485f-9bc0-520c69e5e465"},"vehicle_type_id":"4","last_reported":1704215194,"current_range_meters":31200,"station_id":"ce4bho12rcd13ifvqh1g","pricing_plan_id":"free"},{"bike_id":"4e7b82a4-f271-4a72-bdbd-460d1cfbd58d","system_id":"levelo_inurba_marseille","lat":43.27181,"lon":5.404997,"is_reserved":false,"is_disabled":false,"rental_uris":{"android":"levelo://app?vid=4e7b82a4-f271-4a72-bdbd-460d1cfbd58d","ios":"levelo://app?vid=4e7b82a4-f271-4a72-bdbd-460d1cfbd58d"},"vehicle_type_id":"4","last_reported":1704215194,"current_range_meters":5600,"station_id":"","pricing_plan_id":"free"},{"bike_id":"460910cc-aef6-4f7e-be46-c5e79eaea7ec","system_id":"levelo_inurba_marseille","lat":43.308051,"lon":5.43527,"is_reserved":false,"is_disabled":false,"rental_uris":{"android":"levelo://app?vid=460910cc-aef6-4f7e-be46-c5e79eaea7ec","ios":"levelo://app?vid=460910cc-aef6-4f7e-be46-c5e79eaea7ec"},"vehicle_type_id":"4","last_reported":1704215194,"current_range_meters":14000,"station_id":"ce4bhph2rcd13ifvqheg","pricing_plan_id":"free"},{"bike_id":"4acdea58-b679-4180-9812-65bb718e8387","system_id":"levelo_inurba_marseille","lat":43.308051,"lon":5.43527,"is_reserved":false,"is_disabled":false,"rental_uris":{"android":"levelo://app?vid=4acdea58-b679-4180-9812-65bb718e8387","ios":"levelo://app?vid=4acdea58-b679-4180-9812-65bb718e8387"},"vehicle_type_id":"4","last_reported":1704215194,"current_range_meters":31200,"station_id":"ce4bhph2rcd13ifvqheg","pricing_plan_id":"free"},{"bike_id":"dac5ea74-92f7-462e-b536-31f322bb01c0","system_id":"levelo_inurba_marseille","lat":43.331893,"lon":5.431791,"is_reserved":false,"is_disabled":false,"rental_uris":{"android":"levelo://app?vid=dac5ea74-92f7-462e-b536-31f322bb01c0","ios":"levelo://app?vid=dac5ea74-92f7-462e-b536-31f322bb01c0"},"vehicle_type_id":"4","last_reported":1704215194,"current_range_meters":2800,"station_id":"","pricing_plan_id":"free"},{"bike_id":"8b82b1cf-cc0b-4e34-8e40-4482dc662c49","system_id":"levelo_inurba_marseille","lat":43.26185,"lon":5.37446,"is_reserved":false,"is_disabled":false,"rental_uris":{"android":"levelo://app?vid=8b82b1cf-cc0b-4e34-8e40-4482dc662c49","ios":"levelo://app?vid=8b82b1cf-cc0b-4e34-8e40-4482dc662c49"},"vehicle_type_id":"4","last_reported":1704215194,"current_range_meters":0,"station_id":"ce4bhgp2rcd13ifvqfc0","pricing_plan_id":"free"},{"bike_id":"6a9d119b-3b47-43fd-978f-8e074adbc90a","system_id":"levelo_inurba_marseille","lat":43.317104,"lon":5.436818,"is_reserved":false,"is_disabled":false,"rental_uris":{"android":"levelo://app?vid=6a9d119b-3b47-43fd-978f-8e074adbc90a","ios":"levelo://app?vid=6a9d119b-3b47-43fd-978f-8e074adbc90a"},"vehicle_type_id":"4","last_reported":1704215194,"current_range_meters":29600,"station_id":"ce4bhp92rcd13ifvqhcg","pricing_plan_id":"free"},{"bike_id":"8e62e469-3383-4b1b-900e-4e54b7147643","system_id":"levelo_inurba_marseille","lat":43.271388,"lon":5.409269,"is_reserved":false,"is_disabled":false,"rental_uris":{"android":"levelo://app?vid=8e62e469-3383-4b1b-900e-4e54b7147643","ios":"levelo://app?vid=8e62e469-3383-4b1b-900e-4e54b7147643"},"vehicle_type_id":"4","last_reported":1704215194,"current_range_meters":20400,"station_id":"ce4bhl12rcd13ifvqgf0","pricing_plan_id":"free"},{"bike_id":"f2ff20d9-dcf3-42aa-a825-60c83579f7bd","system_id":"levelo_inurba_marseille","lat":43.271368,"lon":5.40928,"is_reserved":false,"is_disabled":false,"rental_uris":{"android":"levelo://app?vid=f2ff20d9-dcf3-42aa-a825-60c83579f7bd","ios":"levelo://app?vid=f2ff20d9-dcf3-42aa-a825-60c83579f7bd"},"vehicle_type_id":"4","last_reported":1704215194,"current_range_meters":30000,"station_id":"ce4bhl12rcd13ifvqgf0","pricing_plan_id":"free"},{"bike_id":"731d1d64-4595-4ff8-9472-5253b6aa8bfd","system_id":"levelo_inurba_marseille","lat":43.267959,"lon":5.402685,"is_reserved":false,"is_disabled":false,"rental_uris":{"android":"levelo://app?vid=731d1d64-4595-4ff8-9472-5253b6aa8bfd","ios":"levelo://app?vid=731d1d64-4595-4ff8-9472-5253b6aa8bfd"},"vehicle_type_id":"4","last_reported":1704215194,"current_range_meters":22400,"station_id":"ce501612rcd8frsf0b60","pricing_plan_id":"free"},{"bike_id":"50c51303-4125-4045-aa21-332542ac74f4","system_id":"levelo_inurba_marseille","lat":43.2651,"lon":5.39469,"is_reserved":false,"is_disabled":false,"rental_uris":{"android":"levelo://app?vid=50c51303-4125-4045-aa21-332542ac74f4","ios":"levelo://app?vid=50c51303-4125-4045-aa21-332542ac74f4"},"vehicle_type_id":"4","last_reported":1704215194,"current_range_meters":30000,"station_id":"ce4bhi12rcd13ifvqfq0","pricing_plan_id":"free"},{"bike_id":"f359195f-f069-42a0-b818-68741f0dae01","system_id":"levelo_inurba_marseille","lat":43.29898,"lon":5.4366,"is_reserved":false,"is_disabled":false,"rental_uris":{"android":"levelo://app?vid=f359195f-f069-42a0-b818-68741f0dae01","ios":"levelo://app?vid=f359195f-f069-42a0-b818-68741f0dae01"},"vehicle_type_id":"4","last_reported":1704215194,"current_range_meters":26400,"station_id":"ce4bhpp2rcd13ifvqhfg","pricing_plan_id":"free"},{"bike_id":"9e79ebbd-8b93-4b65-ab2b-5fb82f1c880a","system_id":"levelo_inurba_marseille","lat":43.29893,"lon":5.43659,"is_reserved":false,"is_disabled":false,"rental_uris":{"android":"levelo://app?vid=9e79ebbd-8b93-4b65-ab2b-5fb82f1c880a","ios":"levelo://app?vid=9e79ebbd-8b93-4b65-ab2b-5fb82f1c880a"},"vehicle_type_id":"4","last_reported":1704215194,"current_range_meters":31200,"station_id":"ce4bhpp2rcd13ifvqhfg","pricing_plan_id":"free"},{"bike_id":"ec17f12b-76f2-4e38-bdf0-2f3dcd905333","system_id":"levelo_inurba_marseille","lat":43.29891,"lon":5.43661,"is_reserved":false,"is_disabled":false,"rental_uris":{"android":"levelo://app?vid=ec17f12b-76f2-4e38-bdf0-2f3dcd905333","ios":"levelo://app?vid=ec17f12b-76f2-4e38-bdf0-2f3dcd905333"},"vehicle_type_id":"4","last_reported":1704215194,"current_range_meters":25200,"station_id":"ce4bhpp2rcd13ifvqhfg","pricing_plan_id":"free"},{"bike_id":"8f11ba04-eec0-4df9-96e8-fe3b5f598f50","system_id":"levelo_inurba_marseille","lat":43.28153,"lon":5.42639,"is_reserved":false,"is_disabled":false,"rental_uris":{"android":"levelo://app?vid=8f11ba04-eec0-4df9-96e8-fe3b5f598f50","ios":"levelo://app?vid=8f11ba04-eec0-4df9-96e8-fe3b5f598f50"},"vehicle_type_id":"4","last_reported":1704215194,"current_range_meters":20000,"station_id":"ce4bhnh2rcd13ifvqgug","pricing_plan_id":"free"},{"bike_id":"5a04ea17-eb41-4e08-b828-ac0858829f65","system_id":"levelo_inurba_marseille","lat":43.28153,"lon":5.42641,"is_reserved":false,"is_disabled":false,"rental_uris":{"android":"levelo://app?vid=5a04ea17-eb41-4e08-b828-ac0858829f65","ios":"levelo://app?vid=5a04ea17-eb41-4e08-b828-ac0858829f65"},"vehicle_type_id":"4","last_reported":1704215194,"current_range_meters":13200,"station_id":"ce4bhnh2rcd13ifvqgug","pricing_plan_id":"free"},{"bike_id":"20f457aa-21b0-4254-bd2f-8b6f31ce302e","system_id":"levelo_inurba_marseille","lat":43.281548,"lon":5.42643,"is_reserved":false,"is_disabled":false,"rental_uris":{"android":"levelo://app?vid=20f457aa-21b0-4254-bd2f-8b6f31ce302e","ios":"levelo://app?vid=20f457aa-21b0-4254-bd2f-8b6f31ce302e"},"vehicle_type_id":"4","last_reported":1704215194,"current_range_meters":31200,"station_id":"ce4bhnh2rcd13ifvqgug","pricing_plan_id":"free"},{"bike_id":"0c9c47f8-ac4e-48f1-87ca-aa54f5cdaa65","system_id":"levelo_inurba_marseille","lat":43.281548,"lon":5.42643,"is_reserved":false,"is_disabled":false,"rental_uris":{"android":"levelo://app?vid=0c9c47f8-ac4e-48f1-87ca-aa54f5cdaa65","ios":"levelo://app?vid=0c9c47f8-ac4e-48f1-87ca-aa54f5cdaa65"},"vehicle_type_id":"4","last_reported":1704215194,"current_range_meters":31200,"station_id":"ce4bhnh2rcd13ifvqgug","pricing_plan_id":"free"},{"bike_id":"239866bf-d593-439b-8f00-008a123dffd7","system_id":"levelo_inurba_marseille","lat":43.281548,"lon":5.42643,"is_reserved":false,"is_disabled":false,"rental_uris":{"android":"levelo://app?vid=239866bf-d593-439b-8f00-008a123dffd7","ios":"levelo://app?vid=239866bf-d593-439b-8f00-008a123dffd7"},"vehicle_type_id":"4","last_reported":1704215194,"current_range_meters":31200,"station_id":"ce4bhnh2rcd13ifvqgug","pricing_plan_id":"free"},{"bike_id":"e52aaa14-8646-4ffa-88a9-854626f32d2c","system_id":"levelo_inurba_marseille","lat":43.281548,"lon":5.42643,"is_reserved":false,"is_disabled":false,"rental_uris":{"android":"levelo://app?vid=e52aaa14-8646-4ffa-88a9-854626f32d2c","ios":"levelo://app?vid=e52aaa14-8646-4ffa-88a9-854626f32d2c"},"vehicle_type_id":"4","last_reported":1704215194,"current_range_meters":15600,"station_id":"ce4bhnh2rcd13ifvqgug","pricing_plan_id":"free"},{"bike_id":"9803a2ff-4a9f-4d11-8237-50a45128584b","system_id":"levelo_inurba_marseille","lat":43.2607,"lon":5.393983,"is_reserved":false,"is_disabled":false,"rental_uris":{"android":"levelo://app?vid=9803a2ff-4a9f-4d11-8237-50a45128584b","ios":"levelo://app?vid=9803a2ff-4a9f-4d11-8237-50a45128584b"},"vehicle_type_id":"4","last_reported":1704215194,"current_range_meters":22400,"station_id":"ce4bhh92rcd13ifvqfj0","pricing_plan_id":"free"},{"bike_id":"ce05ea0a-4dac-4baa-a5e8-566f9adfcf0f","system_id":"levelo_inurba_marseille","lat":43.2607,"lon":5.393983,"is_reserved":false,"is_disabled":false,"rental_uris":{"android":"levelo://app?vid=ce05ea0a-4dac-4baa-a5e8-566f9adfcf0f","ios":"levelo://app?vid=ce05ea0a-4dac-4baa-a5e8-566f9adfcf0f"},"vehicle_type_id":"4","last_reported":1704215194,"current_range_meters":19600,"station_id":"ce4bhh92rcd13ifvqfj0","pricing_plan_id":"free"},{"bike_id":"70105b46-39e2-4330-9382-4a81507f153e","system_id":"levelo_inurba_marseille","lat":43.275028,"lon":5.424534,"is_reserved":false,"is_disabled":false,"rental_uris":{"android":"levelo://app?vid=70105b46-39e2-4330-9382-4a81507f153e","ios":"levelo://app?vid=70105b46-39e2-4330-9382-4a81507f153e"},"vehicle_type_id":"4","last_reported":1704215194,"current_range_meters":17200,"station_id":"ce4bhn92rcd13ifvqgrg","pricing_plan_id":"free"},{"bike_id":"c6e1d669-4b40-4bf6-a5f7-2ef90ad928f9","system_id":"levelo_inurba_marseille","lat":43.27494,"lon":5.42456,"is_reserved":false,"is_disabled":false,"rental_uris":{"android":"levelo://app?vid=c6e1d669-4b40-4bf6-a5f7-2ef90ad928f9","ios":"levelo://app?vid=c6e1d669-4b40-4bf6-a5f7-2ef90ad928f9"},"vehicle_type_id":"4","last_reported":1704215194,"current_range_meters":26800,"station_id":"ce4bhn92rcd13ifvqgrg","pricing_plan_id":"free"},{"bike_id":"a2a46214-73fb-45c5-a0cd-bb65ea390506","system_id":"levelo_inurba_marseille","lat":43.255756,"lon":5.382303,"is_reserved":false,"is_disabled":false,"rental_uris":{"android":"levelo://app?vid=a2a46214-73fb-45c5-a0cd-bb65ea390506","ios":"levelo://app?vid=a2a46214-73fb-45c5-a0cd-bb65ea390506"},"vehicle_type_id":"4","last_reported":1704215194,"current_range_meters":23200,"station_id":"ce4bhih2rcd13ifvqfs0","pricing_plan_id":"free"},{"bike_id":"37462185-44b5-43d0-8c9b-802ad1fe15f1","system_id":"levelo_inurba_marseille","lat":43.255756,"lon":5.382303,"is_reserved":false,"is_disabled":false,"rental_uris":{"android":"levelo://app?vid=37462185-44b5-43d0-8c9b-802ad1fe15f1","ios":"levelo://app?vid=37462185-44b5-43d0-8c9b-802ad1fe15f1"},"vehicle_type_id":"4","last_reported":1704215194,"current_range_meters":22800,"station_id":"ce4bhih2rcd13ifvqfs0","pricing_plan_id":"free"},{"bike_id":"1706d3f0-43a0-4f62-a31c-69ef47ade829","system_id":"levelo_inurba_marseille","lat":43.255756,"lon":5.382303,"is_reserved":false,"is_disabled":false,"rental_uris":{"android":"levelo://app?vid=1706d3f0-43a0-4f62-a31c-69ef47ade829","ios":"levelo://app?vid=1706d3f0-43a0-4f62-a31c-69ef47ade829"},"vehicle_type_id":"4","last_reported":1704215194,"current_range_meters":4000,"station_id":"ce4bhih2rcd13ifvqfs0","pricing_plan_id":"free"},{"bike_id":"ba5707e4-6bfe-433f-81a4-d6b6c19b740f","system_id":"levelo_inurba_marseille","lat":43.258224,"lon":5.394369,"is_reserved":false,"is_disabled":false,"rental_uris":{"android":"levelo://app?vid=ba5707e4-6bfe-433f-81a4-d6b6c19b740f","ios":"levelo://app?vid=ba5707e4-6bfe-433f-81a4-d6b6c19b740f"},"vehicle_type_id":"4","last_reported":1704215194,"current_range_meters":15200,"station_id":"ce4bhip2rcd13ifvqft0","pricing_plan_id":"free"},{"bike_id":"3f2646ea-5937-44ac-a247-2e4133f33e44","system_id":"levelo_inurba_marseille","lat":43.254921,"lon":5.376584,"is_reserved":false,"is_disabled":false,"rental_uris":{"android":"levelo://app?vid=3f2646ea-5937-44ac-a247-2e4133f33e44","ios":"levelo://app?vid=3f2646ea-5937-44ac-a247-2e4133f33e44"},"vehicle_type_id":"4","last_reported":1704215194,"current_range_meters":0,"station_id":"","pricing_plan_id":"free"},{"bike_id":"ac1bce3e-3015-4d23-b5b9-a8c436d589bd","system_id":"levelo_inurba_marseille","lat":43.270721,"lon":5.422764,"is_reserved":false,"is_disabled":false,"rental_uris":{"android":"levelo://app?vid=ac1bce3e-3015-4d23-b5b9-a8c436d589bd","ios":"levelo://app?vid=ac1bce3e-3015-4d23-b5b9-a8c436d589bd"},"vehicle_type_id":"4","last_reported":1704215194,"current_range_meters":25600,"station_id":"ce4bhk92rcd13ifvqgb0","pricing_plan_id":"free"},{"bike_id":"7e29c524-1d4e-4a96-9e5f-d20ba6b4c8d8","system_id":"levelo_inurba_marseille","lat":43.257079,"lon":5.411051,"is_reserved":false,"is_disabled":false,"rental_uris":{"android":"levelo://app?vid=7e29c524-1d4e-4a96-9e5f-d20ba6b4c8d8","ios":"levelo://app?vid=7e29c524-1d4e-4a96-9e5f-d20ba6b4c8d8"},"vehicle_type_id":"4","last_reported":1704215194,"current_range_meters":30000,"station_id":"ce4bhkp2rcd13ifvqgd0","pricing_plan_id":"free"},{"bike_id":"4625d59c-b38b-4053-a965-0f6d38b2e83a","system_id":"levelo_inurba_marseille","lat":43.25002,"lon":5.3889,"is_reserved":false,"is_disabled":false,"rental_uris":{"android":"levelo://app?vid=4625d59c-b38b-4053-a965-0f6d38b2e83a","ios":"levelo://app?vid=4625d59c-b38b-4053-a965-0f6d38b2e83a"},"vehicle_type_id":"4","last_reported":1704215194,"current_range_meters":28400,"station_id":"ce4bhgp2rcd13ifvqfd0","pricing_plan_id":"free"},{"bike_id":"50258841-9207-4ee1-8738-8234e7be5213","system_id":"levelo_inurba_marseille","lat":43.24806,"lon":5.37452,"is_reserved":false,"is_disabled":false,"rental_uris":{"android":"levelo://app?vid=50258841-9207-4ee1-8738-8234e7be5213","ios":"levelo://app?vid=50258841-9207-4ee1-8738-8234e7be5213"},"vehicle_type_id":"4","last_reported":1704215194,"current_range_meters":28800,"station_id":"ce4bhgh2rcd13ifvqfb0","pricing_plan_id":"free"},{"bike_id":"098959f4-dd1c-4885-87be-3ef20403cfe7","system_id":"levelo_inurba_marseille","lat":43.250966,"lon":5.395186,"is_reserved":false,"is_disabled":false,"rental_uris":{"android":"levelo://app?vid=098959f4-dd1c-4885-87be-3ef20403cfe7","ios":"levelo://app?vid=098959f4-dd1c-4885-87be-3ef20403cfe7"},"vehicle_type_id":"4","last_reported":1704215194,"current_range_meters":25200,"station_id":"ce4bhm12rcd13ifvqgkg","pricing_plan_id":"free"},{"bike_id":"dfa9de95-b372-4663-90b9-e807404d3a82","system_id":"levelo_inurba_marseille","lat":43.250966,"lon":5.395186,"is_reserved":false,"is_disabled":false,"rental_uris":{"android":"levelo://app?vid=dfa9de95-b372-4663-90b9-e807404d3a82","ios":"levelo://app?vid=dfa9de95-b372-4663-90b9-e807404d3a82"},