{"last_updated":1728119444,"ttl":60,"version":"2.2","data":{"bikes":[{"bike_id":"7b5918c9-286b-4a5d-8c11-f495ad5c7f7a","system_id":"levelo_inurba_marseille","lat":43.30796,"lon":5.43517,"is_reserved":false,"is_disabled":false,"rental_uris":{"android":"levelo://app?vid=7b5918c9-286b-4a5d-8c11-f495ad5c7f7a","ios":"levelo://app?vid=7b5918c9-286b-4a5d-8c11-f495ad5c7f7a"},"vehicle_type_id":"4","last_reported":1728119445,"current_range_meters":8800,"station_id":"ce4bhph2rcd13ifvqheg","pricing_plan_id":"cebpf4jnsgd1na2vs0mg"},{"bike_id":"e4b84675-a2ef-4a08-972b-c8ccf50cd9f9","system_id":"levelo_inurba_marseille","lat":43.23191,"lon":5.39984,"is_reserved":false,"is_disabled":false,"rental_uris":{"android":"levelo://app?vid=e4b84675-a2ef-4a08-972b-c8ccf50cd9f9","ios":"levelo://app?vid=e4b84675-a2ef-4a08-972b-c8ccf50cd9f9"},"vehicle_type_id":"4","last_reported":1728119445,"current_range_meters":24000,"station_id":"ce4bhn12rcd13ifvqgqg","pricing_plan_id":"cebpf4jnsgd1na2vs0mg"},{"bike_id":"f4595530-d232-414f-97eb-1f8005c70977","system_id":"levelo_inurba_marseille","lat":43.32354,"lon":5.38881,"is_reserved":false,"is_disabled":false,"rental_uris":{"android":"levelo://app?vid=f4595530-d232-414f-97eb-1f8005c70977","ios":"levelo://app?vid=f4595530-d232-414f-97eb-1f8005c70977"},"vehicle_type_id":"4","last_reported":1728119445,"current_range_meters":38400,"station_id":"ce4bhqp2rcd13ifvqhog","pricing_plan_id":"cebpf4jnsgd1na2vs0mg"},{"bike_id":"a56c66a8-2c2c-450d-99ae-17d6eaa42433","system_id":"levelo_inurba_marseille","lat":43.24388,"lon":5.37053,"is_reserved":false,"is_disabled":false,"rental_uris":{"android":"levelo://app?vid=a56c66a8-2c2c-450d-99ae-17d6eaa42433","ios":"levelo://app?vid=a56c66a8-2c2c-450d-99ae-17d6eaa42433"},"vehicle_type_id":"4","last_reported":1728119445,"current_range_meters":38000,"station_id":"ce4bhhh2rcd13ifvqfk0","pricing_plan_id":"cebpf4jnsgd1na2vs0mg"},{"bike_id":"5e9cb80f-bd7b-40ad-864b-a9c73b8cd1c2","system_id":"levelo_inurba_marseille","lat":43.29518,"lon":5.37511,"is_reserved":false,"is_disabled":false,"rental_uris":{"android":"levelo://app?vid=5e9cb80f-bd7b-40ad-864b-a9c73b8cd1c2","ios":"levelo://app?vid=5e9cb80f-bd7b-40ad-864b-a9c73b8cd1c2"},"vehicle_type_id":"4","last_reported":1728119445,"current_range_meters":25200,"station_id":"ce4bgkp2rcd13ifvqbmg","pricing_plan_id":"cebpf4jnsgd1na2vs0mg"},{"bike_id":"74c7d066-3397-4384-9159-7995f69e0cb0","system_id":"levelo_inurba_marseille","lat":43.25864,"lon":5.39921,"is_reserved":false,"is_disabled":false,"rental_uris":{"android":"levelo://app?vid=74c7d066-3397-4384-9159-7995f69e0cb0","ios":"levelo://app?vid=74c7d066-3397-4384-9159-7995f69e0cb0"},"vehicle_type_id":"4","last_reported":1728119445,"current_range_meters":7200,"station_id":"ce4bhl92rcd13ifvqghg","pricing_plan_id":"cebpf4jnsgd1na2vs0mg"},{"bike_id":"756088e4-bd38-4606-aa6f-cbbf1461af00","system_id":"levelo_inurba_marseille","lat":43.22936,"lon":5.35379,"is_reserved":false,"is_disabled":false,"rental_uris":{"android":"levelo://app?vid=756088e4-bd38-4606-aa6f-cbbf1461af00","ios":"levelo://app?vid=756088e4-bd38-4606-aa6f-cbbf1461af00"},"vehicle_type_id":"4","last_reported":1728119445,"current_range_meters":8400,"station_id":"cpo3532slgdg3j2ikp40","pricing_plan_id":"cebpf4jnsgd1na2vs0mg"},{"bike_id":"469e4615-69fd-4f50-ab75-3a5649cbabf7","system_id":"levelo_inurba_marseille","lat":43.308,"lon":5.43524,"is_reserved":false,"is_disabled":false,"rental_uris":{"android":"levelo://app?vid=469e4615-69fd-4f50-ab75-3a5649cbabf7","ios":"levelo://app?vid=469e4615-69fd-4f50-ab75-3a5649cbabf7"},"vehicle_type_id":"4","last_reported":1728119445,"current_range_meters":12800,"station_id":"ce4bhph2rcd13ifvqheg","pricing_plan_id":"cebpf4jnsgd1na2vs0mg"},{"bike_id":"9c99d38b-31a2-45cc-a6bc-f2518fb35e7e","system_id":"levelo_inurba_marseille","lat":43.30465,"lon":5.37909,"is_reserved":false,"is_disabled":false,"rental_uris":{"android":"levelo://app?vid=9c99d38b-31a2-45cc-a6bc-f2518fb35e7e","ios":"levelo://app?vid=9c99d38b-31a2-45cc-a6bc-f2518fb35e7e"},"vehicle_type_id":"4","last_reported":1728119445,"current_range_meters":2000,"station_id":"ce4bgup2rcd13ifvqcn0","pricing_plan_id":"cebpf4jnsgd1na2vs0mg"},{"bike_id":"b533c485-8de5-4435-9b8a-7bede3d5f21f","system_id":"levelo_inurba_marseille","lat":43.311201,"lon":5.377655,"is_reserved":false,"is_disabled":false,"rental_uris":{"android":"levelo://app?vid=b533c485-8de5-4435-9b8a-7bede3d5f21f","ios":"levelo://app?vid=b533c485-8de5-4435-9b8a-7bede3d5f21f"},"vehicle_type_id":"4","last_reported":1728119445,"current_range_meters":38000,"station_id":"ce4bgt92rcd13ifvqcg0","pricing_plan_id":"cebpf4jnsgd1na2vs0mg"},{"bike_id":"0ab460f8-b4be-4e2d-adf0-6c100fcce9a9","system_id":"levelo_inurba_marseille","lat":43.24069,"lon":5.37765,"is_reserved":false,"is_disabled":false,"rental_uris":{"android":"levelo://app?vid=0ab460f8-b4be-4e2d-adf0-6c100fcce9a9","ios":"levelo://app?vid=0ab460f8-b4be-4e2d-adf0-6c100fcce9a9"},"vehicle_type_id":"4","last_reported":1728119445,"current_range_meters":30400,"station_id":"ce4bhnp2rcd13ifvqgvg","pricing_plan_id":"cebpf4jnsgd1na2vs0mg"},{"bike_id":"b0d97aa1-e55a-4e57-88a6-c275a37985b3","system_id":"levelo_inurba_marseille","lat":43.26555,"lon":5.37283,"is_reserved":false,"is_disabled":false,"rental_uris":{"android":"levelo://app?vid=b0d97aa1-e55a-4e57-88a6-c275a37985b3","ios":"levelo://app?vid=b0d97aa1-e55a-4e57-88a6-c275a37985b3"},"vehicle_type_id":"4","last_reported":1728119445,"current_range_meters":31200,"station_id":"ce4bhg12rcd13ifvqf70","pricing_plan_id":"cebpf4jnsgd1na2vs0mg"},{"bike_id":"62579b87-c0be-4c6b-be32-53b21d58109b","system_id":"levelo_inurba_marseille","lat":43.28477,"lon":5.38404,"is_reserved":false,"is_disabled":false,"rental_uris":{"android":"levelo://app?vid=62579b87-c0be-4c6b-be32-53b21d58109b","ios":"levelo://app?vid=62579b87-c0be-4c6b-be32-53b21d58109b"},"vehicle_type_id":"4","last_reported":1728119445,"current_range_meters":38400,"station_id":"ce4bh512rcd13ifvqe3g","pricing_plan_id":"cebpf4jnsgd1na2vs0mg"},{"bike_id":"75c11a35-cfae-4448-a2d2-5a11ea686149","system_id":"levelo_inurba_marseille","lat":43.28941,"lon":5.39624,"is_reserved":false,"is_disabled":false,"rental_uris":{"android":"levelo://app?vid=75c11a35-cfae-4448-a2d2-5a11ea686149","ios":"levelo://app?vid=75c11a35-cfae-4448-a2d2-5a11ea686149"},"vehicle_type_id":"4","last_reported":1728119445,"current_range_meters":32400,"station_id":"ce4bh3h2rcd13ifvqdn0","pricing_plan_id":"cebpf4jnsgd1na2vs0mg"},{"bike_id":"e5e68093-094e-4829-99bd-03efe9686e84","system_id":"levelo_inurba_marseille","lat":43.31332,"lon":5.39693,"is_reserved":false,"is_disabled":false,"rental_uris":{"android":"levelo://app?vid=e5e68093-094e-4829-99bd-03efe9686e84","ios":"levelo://app?vid=e5e68093-094e-4829-99bd-03efe9686e84"},"vehicle_type_id":"4","last_reported":1728119445,"current_range_meters":32400,"station_id":"ce4bgvp2rcd13ifvqcu0","pricing_plan_id":"cebpf4jnsgd1na2vs0mg"},{"bike_id":"1ae114a6-eca6-494d-bdd3-7c41c6e78c5b","system_id":"levelo_inurba_marseille","lat":43.30906,"lon":5.36839,"is_reserved":false,"is_disabled":false,"rental_uris":{"android":"levelo://app?vid=1ae114a6-eca6-494d-bdd3-7c41c6e78c5b","ios":"levelo://app?vid=1ae114a6-eca6-494d-bdd3-7c41c6e78c5b"},"vehicle_type_id":"4","last_reported":1728119445,"current_range_meters":36800,"station_id":"ce4bgn92rcd13ifvqbvg","pricing_plan_id":"cebpf4jnsgd1na2vs0mg"},{"bike_id":"37042c1b-99f0-4379-a7d0-0b6867cdb669","system_id":"levelo_inurba_marseille","lat":43.23178,"lon":5.3998,"is_reserved":false,"is_disabled":false,"rental_uris":{"android":"levelo://app?vid=37042c1b-99f0-4379-a7d0-0b6867cdb669","ios":"levelo://app?vid=37042c1b-99f0-4379-a7d0-0b6867cdb669"},"vehicle_type_id":"4","last_reported":1728119445,"current_range_meters":38800,"station_id":"ce4bhn12rcd13ifvqgqg","pricing_plan_id":"cebpf4jnsgd1na2vs0mg"},{"bike_id":"f1fe347c-b70c-4efc-ae78-8a8e7d5c7755","system_id":"levelo_inurba_marseille","lat":43.30887,"lon":5.39644,"is_reserved":false,"is_disabled":false,"rental_uris":{"android":"levelo://app?vid=f1fe347c-b70c-4efc-ae78-8a8e7d5c7755","ios":"levelo://app?vid=f1fe347c-b70c-4efc-ae78-8a8e7d5c7755"},"vehicle_type_id":"4","last_reported":1728119445,"current_range_meters":38800,"station_id":"ce4bh012rcd13ifvqcv0","pricing_plan_id":"cebpf4jnsgd1na2vs0mg"},{"bike_id":"83fdffe5-fb75-468f-a30f-63177c855805","system_id":"levelo_inurba_marseille","lat":43.26565,"lon":5.39015,"is_reserved":false,"is_disabled":false,"rental_uris":{"android":"levelo://app?vid=83fdffe5-fb75-468f-a30f-63177c855805","ios":"levelo://app?vid=83fdffe5-fb75-468f-a30f-63177c855805"},"vehicle_type_id":"4","last_reported":1728119445,"current_range_meters":30000,"station_id":"ce4bhe12rcd13ifvqf30","pricing_plan_id":"cebpf4jnsgd1na2vs0mg"},{"bike_id":"3b228f85-5537-4a3f-b6a2-1fa5c2fde2e3","system_id":"levelo_inurba_marseille","lat":43.2558,"lon":5.38227,"is_reserved":false,"is_disabled":false,"rental_uris":{"android":"levelo://app?vid=3b228f85-5537-4a3f-b6a2-1fa5c2fde2e3","ios":"levelo://app?vid=3b228f85-5537-4a3f-b6a2-1fa5c2fde2e3"},"vehicle_type_id":"4","last_reported":1728119445,"current_range_meters":36400,"station_id":"ce4bhih2rcd13ifvqfs0","pricing_plan_id":"cebpf4jnsgd1na2vs0mg"},{"bike_id":"0dc8198c-8784-429a-9654-bc3e6d0ff90b","system_id":"levelo_inurba_marseille","lat":43.23965,"lon":5.36627,"is_reserved":false,"is_disabled":false,"rental_uris":{"android":"levelo://app?vid=0dc8198c-8784-429a-9654-bc3e6d0ff90b","ios":"levelo://app?vid=0dc8198c-8784-429a-9654-bc3e6d0ff90b"},"vehicle_type_id":"4","last_reported":1728119445,"current_range_meters":17200,"station_id":"ce4bhi12rcd13ifvqfp0","pricing_plan_id":"cebpf4jnsgd1na2vs0mg"},{"bike_id":"55897030-1bf3-4100-83a2-48af501c9f42","system_id":"levelo_inurba_marseille","lat":43.29309,"lon":5.37181,"is_reserved":false,"is_disabled":false,"rental_uris":{"android":"levelo://app?vid=55897030-1bf3-4100-83a2-48af501c9f42","ios":"levelo://app?vid=55897030-1bf3-4100-83a2-48af501c9f42"},"vehicle_type_id":"4","last_reported":1728119445,"current_range_meters":38800,"station_id":"ce4bgh92rcd13ifvqb40","pricing_plan_id":"cebpf4jnsgd1na2vs0mg"},{"bike_id":"69b2ab72-6eb7-403d-85c7-be72aa2ab82b","system_id":"levelo_inurba_marseille","lat":43.30073,"lon":5.40029,"is_reserved":false,"is_disabled":false,"rental_uris":{"android":"levelo://app?vid=69b2ab72-6eb7-403d-85c7-be72aa2ab82b","ios":"levelo://app?vid=69b2ab72-6eb7-403d-85c7-be72aa2ab82b"},"vehicle_type_id":"4","last_reported":1728119445,"current_range_meters":18000,"station_id":"","pricing_plan_id":"cebpf4jnsgd1na2vs0mg"},{"bike_id":"f5f37440-7c58-4b9a-9465-b57ed1b30587","system_id":"levelo_inurba_marseille","lat":43.25827,"lon":5.39433,"is_reserved":false,"is_disabled":false,"rental_uris":{"android":"levelo://app?vid=f5f37440-7c58-4b9a-9465-b57ed1b30587","ios":"levelo://app?vid=f5f37440-7c58-4b9a-9465-b57ed1b30587"},"vehicle_type_id":"4","last_reported":1728119445,"current_range_meters":38800,"station_id":"ce4bhip2rcd13ifvqft0","pricing_plan_id":"cebpf4jnsgd1na2vs0mg"},{"bike_id":"73a24e0e-e6db-43a8-bdc3-253983d48aa8","system_id":"levelo_inurba_marseille","lat":43.25586,"lon":5.38232,"is_reserved":false,"is_disabled":false,"rental_uris":{"android":"levelo://app?vid=73a24e0e-e6db-43a8-bdc3-253983d48aa8","ios":"levelo://app?vid=73a24e0e-e6db-43a8-bdc3-253983d48aa8"},"vehicle_type_id":"4","last_reported":1728119445,"current_range_meters":39200,"station_id":"ce4bhih2rcd13ifvqfs0","pricing_plan_id":"cebpf4jnsgd1na2vs0mg"},{"bike_id":"2ee470a2-f6fc-41c4-9ed0-be15e787887a","system_id":"levelo_inurba_marseille","lat":43.23967,"lon":5.36634,"is_reserved":false,"is_disabled":false,"rental_uris":{"android":"levelo://app?vid=2ee470a2-f6fc-41c4-9ed0-be15e787887a","ios":"levelo://app?vid=2ee470a2-f6fc-41c4-9ed0-be15e787887a"},"vehicle_type_id":"4","last_reported":1728119445,"current_range_meters":39200,"station_id":"ce4bhi12rcd13ifvqfp0","pricing_plan_id":"cebpf4jnsgd1na2vs0mg"},{"bike_id":"e6b2df58-b4a0-4aec-933d-a62e42f34d34","system_id":"levelo_inurba_marseille","lat":43.33719,"lon":5.39201,"is_reserved":false,"is_disabled":false,"rental_uris":{"android":"levelo://app?vid=e6b2df58-b4a0-4aec-933d-a62e42f34d34","ios":"levelo://app?vid=e6b2df58-b4a0-4aec-933d-a62e42f34d34"},"vehicle_type_id":"4","last_reported":1728119445,"current_range_meters":14000,"station_id":"ce4bhr92rcd13ifvqhsg","pricing_plan_id":"cebpf4jnsgd1na2vs0mg"},{"bike_id":"a20defd8-4cf4-4093-aed2-596ba3be1d30","system_id":"levelo_inurba_marseille","lat":43.24071,"lon":5.37764,"is_reserved":false,"is_disabled":false,"rental_uris":{"android":"levelo://app?vid=a20defd8-4cf4-4093-aed2-596ba3be1d30","ios":"levelo://app?vid=a20defd8-4cf4-4093-aed2-596ba3be1d30"},"vehicle_type_id":"4","last_reported":1728119445,"current_range_meters":20800,"station_id":"ce4bhnp2rcd13ifvqgvg","pricing_plan_id":"cebpf4jnsgd1na2vs0mg"},{"bike_id":"1622c62b-20ed-43b2-a8d0-b02098367a11","system_id":"levelo_inurba_marseille","lat":43.261993,"lon":5.379343,"is_reserved":false,"is_disabled":false,"rental_uris":{"android":"levelo://app?vid=1622c62b-20ed-43b2-a8d0-b02098367a11","ios":"levelo://app?vid=1622c62b-20ed-43b2-a8d0-b02098367a11"},"vehicle_type_id":"4","last_reported":1728119445,"current_range_meters":39200,"station_id":"ce4bhjp2rcd13ifvqg90","pricing_plan_id":"cebpf4jnsgd1na2vs0mg"},{"bike_id":"d77938b7-ff1e-465c-a8b9-4b07085a5cc9","system_id":"levelo_inurba_marseille","lat":43.23062,"lon":5.35488,"is_reserved":false,"is_disabled":false,"rental_uris":{"android":"levelo://app?vid=d77938b7-ff1e-465c-a8b9-4b07085a5cc9","ios":"levelo://app?vid=d77938b7-ff1e-465c-a8b9-4b07085a5cc9"},"vehicle_type_id":"4","last_reported":1728119445,"current_range_meters":13600,"station_id":"cpo3342slgdg3j2ifvpg","pricing_plan_id":"cebpf4jnsgd1na2vs0mg"},{"bike_id":"852457a1-813f-46b8-bb13-232384e208e9","system_id":"levelo_inurba_marseille","lat":43.3378,"lon":5.37425,"is_reserved":false,"is_disabled":false,"rental_uris":{"android":"levelo://app?vid=852457a1-813f-46b8-bb13-232384e208e9","ios":"levelo://app?vid=852457a1-813f-46b8-bb13-232384e208e9"},"vehicle_type_id":"4","last_reported":1728119445,"current_range_meters":34800,"station_id":"","pricing_plan_id":"cebpf4jnsgd1na2vs0mg"},{"bike_id":"0d79ef91-e03a-4511-b960-a6f350f28d65","system_id":"levelo_inurba_marseille","lat":43.23062,"lon":5.35491,"is_reserved":false,"is_disabled":false,"rental_uris":{"android":"levelo://app?vid=0d79ef91-e03a-4511-b960-a6f350f28d65","ios":"levelo://app?vid=0d79ef91-e03a-4511-b960-a6f350f28d65"},"vehicle_type_id":"4","last_reported":1728119445,"current_range_meters":20000,"station_id":"cpo3342slgdg3j2ifvpg","pricing_plan_id":"cebpf4jnsgd1na2vs0mg"},{"bike_id":"9b18cf93-c198-45f5-b6a7-cf89d02d2117","system_id":"levelo_inurba_marseille","lat":43.28264,"lon":5.35073,"is_reserved":false,"is_disabled":false,"rental_uris":{"android":"levelo://app?vid=9b18cf93-c198-45f5-b6a7-cf89d02d2117","ios":"levelo://app?vid=9b18cf93-c198-45f5-b6a7-cf89d02d2117"},"vehicle_type_id":"4","last_reported":1728119445,"current_range_meters":16000,"station_id":"ce4bhbp2rcd13ifvqerg","pricing_plan_id":"cebpf4jnsgd1na2vs0mg"},{"bike_id":"93e7a1d7-0a56-46b8-9ec0-c65ea48c64b3","system_id":"levelo_inurba_marseille","lat":43.30465,"lon":5.37911,"is_reserved":false,"is_disabled":false,"rental_uris":{"android":"levelo://app?vid=93e7a1d7-0a56-46b8-9ec0-c65ea48c64b3","ios":"levelo://app?vid=93e7a1d7-0a56-46b8-9ec0-c65ea48c64b3"},"vehicle_type_id":"4","last_reported":1728119445,"current_range_meters":34000,"station_id":"ce4bgup2rcd13ifvqcn0","pricing_plan_id":"cebpf4jnsgd1na2vs0mg"},{"bike_id":"052b5055-f8da-4599-8741-bc620dc24bc8","system_id":"levelo_inurba_marseille","lat":43.27373,"lon":5.36248,"is_reserved":false,"is_disabled":false,"rental_uris":{"android":"levelo://app?vid=052b5055-f8da-4599-8741-bc620dc24bc8","ios":"levelo://app?vid=052b5055-f8da-4599-8741-bc620dc24bc8"},"vehicle_type_id":"4","last_reported":1728119445,"current_range_meters":38000,"station_id":"ce4bhbh2rcd13ifvqeo0","pricing_plan_id":"cebpf4jnsgd1na2vs0mg"},{"bike_id":"54d09a39-e79d-434c-8a05-a8f2660c6a94","system_id":"levelo_inurba_marseille","lat":43.29902,"lon":5.43673,"is_reserved":false,"is_disabled":false,"rental_uris":{"android":"levelo://app?vid=54d09a39-e79d-434c-8a05-a8f2660c6a94","ios":"levelo://app?vid=54d09a39-e79d-434c-8a05-a8f2660c6a94"},"vehicle_type_id":"4","last_reported":1728119445,"current_range_meters":12000,"station_id":"ce4bhpp2rcd13ifvqhfg","pricing_plan_id":"cebpf4jnsgd1na2vs0mg"},{"bike_id":"e88589c2-9daf-4f7c-9d5a-36ecf8f63f21","system_id":"levelo_inurba_marseille","lat":43.3266,"lon":5.40983,"is_reserved":false,"is_disabled":false,"rental_uris":{"android":"levelo://app?vid=e88589c2-9daf-4f7c-9d5a-36ecf8f63f21","ios":"levelo://app?vid=e88589c2-9daf-4f7c-9d5a-36ecf8f63f21"},"vehicle_type_id":"4","last_reported":1728119445,"current_range_meters":37600,"station_id":"ce4bhpp2rcd13ifvqhgg","pricing_plan_id":"cebpf4jnsgd1na2vs0mg"},{"bike_id":"36bb2c6f-7f12-4e31-98ee-a17e5ebb44aa","system_id":"levelo_inurba_marseille","lat":43.29587,"lon":5.36733,"is_reserved":false,"is_disabled":false,"rental_uris":{"android":"levelo://app?vid=36bb2c6f-7f12-4e31-98ee-a17e5ebb44aa","ios":"levelo://app?vid=36bb2c6f-7f12-4e31-98ee-a17e5ebb44aa"},"vehicle_type_id":"4","last_reported":1728119445,"current_range_meters":34800,"station_id":"ce4bgph2rcd13ifvqc2g","pricing_plan_id":"cebpf4jnsgd1na2vs0mg"},{"bike_id":"f2d97acb-1d32-4e87-8374-8721d7c706d1","system_id":"levelo_inurba_marseille","lat":43.26061,"lon":5.39397,"is_reserved":false,"is_disabled":false,"rental_uris":{"android":"levelo://app?vid=f2d97acb-1d32-4e87-8374-8721d7c706d1","ios":"levelo://app?vid=f2d97acb-1d32-4e87-8374-8721d7c706d1"},"vehicle_type_id":"4","last_reported":1728119445,"current_range_meters":28800,"station_id":"ce4bhh92rcd13ifvqfj0","pricing_plan_id":"cebpf4jnsgd1na2vs0mg"},{"bike_id":"e58cd69b-6df5-4dfd-9113-9904cf6e07c3","system_id":"levelo_inurba_marseille","lat":43.24388,"lon":5.37059,"is_reserved":false,"is_disabled":false,"rental_uris":{"android":"levelo://app?vid=e58cd69b-6df5-4dfd-9113-9904cf6e07c3","ios":"levelo://app?vid=e58cd69b-6df5-4dfd-9113-9904cf6e07c3"},"vehicle_type_id":"4","last_reported":1728119445,"current_range_meters":30800,"station_id":"ce4bhhh2rcd13ifvqfk0","pricing_plan_id":"cebpf4jnsgd1na2vs0mg"},{"bike_id":"de59a9fc-b97f-4713-a607-8410087dc39b","system_id":"levelo_inurba_marseille","lat":43.28616,"lon":5.35102,"is_reserved":false,"is_disabled":false,"rental_uris":{"android":"levelo://app?vid=de59a9fc-b97f-4713-a607-8410087dc39b","ios":"levelo://app?vid=de59a9fc-b97f-4713-a607-8410087dc39b"},"vehicle_type_id":"4","last_reported":1728119445,"current_range_meters":31200,"station_id":"ce4bhch2rcd13ifvqeug","pricing_plan_id":"cebpf4jnsgd1na2vs0mg"},{"bike_id":"53497cc8-4e72-453c-8f30-f134533a1e1d","system_id":"levelo_inurba_marseille","lat":43.31686,"lon":5.4047,"is_reserved":false,"is_disabled":false,"rental_uris":{"android":"levelo://app?vid=53497cc8-4e72-453c-8f30-f134533a1e1d","ios":"levelo://app?vid=53497cc8-4e72-453c-8f30-f134533a1e1d"},"vehicle_type_id":"4","last_reported":1728119445,"current_range_meters":27200,"station_id":"ce4bh012rcd13ifvqd00","pricing_plan_id":"cebpf4jnsgd1na2vs0mg"},{"bike_id":"a2757abc-4224-428a-a673-690954ea5d2d","system_id":"levelo_inurba_marseille","lat":43.25003,"lon":5.38183,"is_reserved":false,"is_disabled":false,"rental_uris":{"android":"levelo://app?vid=a2757abc-4224-428a-a673-690954ea5d2d","ios":"levelo://app?vid=a2757abc-4224-428a-a673-690954ea5d2d"},"vehicle_type_id":"4","last_reported":1728119445,"current_range_meters":22400,"station_id":"","pricing_plan_id":"cebpf4jnsgd1na2vs0mg"},{"bike_id":"308ae973-a71c-45c1-9a03-b73643f01e25","system_id":"levelo_inurba_marseille","lat":43.3171,"lon":5.43706,"is_reserved":false,"is_disabled":false,"rental_uris":{"android":"levelo://app?vid=308ae973-a71c-45c1-9a03-b73643f01e25","ios":"levelo://app?vid=308ae973-a71c-45c1-9a03-b73643f01e25"},"vehicle_type_id":"4","last_reported":1728119445,"current_range_meters":24400,"station_id":"ce4bhp92rcd13ifvqhcg","pricing_plan_id":"cebpf4jnsgd1na2vs0mg"},{"bike_id":"7f9615d8-3abe-410d-a5b7-ed566d4cff7a","system_id":"levelo_inurba_marseille","lat":43.26564,"lon":5.39012,"is_reserved":false,"is_disabled":false,"rental_uris":{"android":"levelo://app?vid=7f9615d8-3abe-410d-a5b7-ed566d4cff7a","ios":"levelo://app?vid=7f9615d8-3abe-410d-a5b7-ed566d4cff7a"},"vehicle_type_id":"4","last_reported":1728119445,"current_range_meters":23200,"station_id":"ce4bhe12rcd13ifvqf30","pricing_plan_id":"cebpf4jnsgd1na2vs0mg"},{"bike_id":"fbcdcca2-a6d3-4fa5-9301-6aad51a8a2cc","system_id":"levelo_inurba_marseille","lat":43.25931,"lon":5.40906,"is_reserved":false,"is_disabled":false,"rental_uris":{"android":"levelo://app?vid=fbcdcca2-a6d3-4fa5-9301-6aad51a8a2cc","ios":"levelo://app?vid=fbcdcca2-a6d3-4fa5-9301-6aad51a8a2cc"},"vehicle_type_id":"4","last_reported":1728119445,"current_range_meters":36800,"station_id":"ce4bhm92rcd13ifvqglg","pricing_plan_id":"cebpf4jnsgd1na2vs0mg"},{"bike_id":"1b594013-10a1-45f5-b800-a8e42c9ad8cb","system_id":"levelo_inurba_marseille","lat":43.28151,"lon":5.42647,"is_reserved":false,"is_disabled":false,"rental_uris":{"android":"levelo://app?vid=1b594013-10a1-45f5-b800-a8e42c9ad8cb","ios":"levelo://app?vid=1b594013-10a1-45f5-b800-a8e42c9ad8cb"},"vehicle_type_id":"4","last_reported":1728119445,"current_range_meters":38800,"station_id":"ce4bhnh2rcd13ifvqgug","pricing_plan_id":"cebpf4jnsgd1na2vs0mg"},{"bike_id":"5a8a29b7-ae61-41d0-9edc-7d2c7389fd73","system_id":"levelo_inurba_marseille","lat":43.28614,"lon":5.35101,"is_reserved":false,"is_disabled":false,"rental_uris":{"android":"levelo://app?vid=5a8a29b7-ae61-41d0-9edc-7d2c7389fd73","ios":"levelo://app?vid=5a8a29b7-ae61-41d0-9edc-7d2c7389fd73"},"vehicle_type_id":"4","last_reported":1728119445,"current_range_meters":9600,"station_id":"ce4bhch2rcd13ifvqeug","pricing_plan_id":"cebpf4jnsgd1na2vs0mg"},{"bike_id":"0520c0aa-bd83-4d7b-8b63-a16c17ca4319","system_id":"levelo_inurba_marseille","lat":43.29307,"lon":5.37181,"is_reserved":false,"is_disabled":false,"rental_uris":{"android":"levelo://app?vid=0520c0aa-bd83-4d7b-8b63-a16c17ca4319","ios":"levelo://app?vid=0520c0aa-bd83-4d7b-8b63-a16c17ca4319"},"vehicle_type_id":"4","last_reported":1728119445,"current_range_meters":38800,"station_id":"ce4bgh92rcd13ifvqb40","pricing_plan_id":"cebpf4jnsgd1na2vs0mg"},{"bike_id":"b5544d49-5f99-440b-8d58-1d0f25be24c3","system_id":"levelo_inurba_marseille","lat":43.3095,"lon":5.39045,"is_reserved":false,"is_disabled":false,"rental_uris":{"android":"levelo://app?vid=b5544d49-5f99-440b-8d58-1d0f25be24c3","ios":"levelo://app?vid=b5544d49-5f99-440b-8d58-1d0f25be24c3"},"vehicle_type_id":"4","last_reported":1728119445,"current_range_meters":33600,"station_id":"ce4bgup2rcd13ifvqco0","pricing_plan_id":"cebpf4jnsgd1na2vs0mg"},{"bike_id":"560cbcfd-dddb-4948-9f2b-ea57c785178f","system_id":"levelo_inurba_marseille","lat":43.25577,"lon":5.38237,"is_reserved":false,"is_disabled":false,"rental_uris":{"android":"levelo://app?vid=560cbcfd-dddb-4948-9f2b-ea57c785178f","ios":"levelo://app?vid=560cbcfd-dddb-4948-9f2b-ea57c785178f"},"vehicle_type_id":"4","last_reported":1728119445,"current_range_meters":23200,"station_id":"ce4bhih2rcd13ifvqfs0","pricing_plan_id":"cebpf4jnsgd1na2vs0mg"},{"bike_id":"bf214ee5-bcc3-48ed-b2c5-a945b0468078","system_id":"levelo_inurba_marseille","lat":43.24642,"lon":5.38898,"is_reserved":false,"is_disabled":false,"rental_uris":{"android":"levelo://app?vid=bf214ee5-bcc3-48ed-b2c5-a945b0468078","ios":"levelo://app?vid=bf214ee5-bcc3-48ed-b2c5-a945b0468078"},"vehicle_type_id":"4","last_reported":1728119445,"current_range_meters":18800,"station_id":"ce4bhg12rcd13ifvqf60","pricing_plan_id":"cebpf4jnsgd1na2vs0mg"},{"bike_id":"ad316b2c-5539-4a9c-9eb3-7dcb7880e511","system_id":"levelo_inurba_marseille","lat":43.26256,"lon":5.39672,"is_reserved":false,"is_disabled":false,"rental_uris":{"android":"levelo://app?vid=ad316b2c-5539-4a9c-9eb3-7dcb7880e511","ios":"levelo://app?vid=ad316b2c-5539-4a9c-9eb3-7dcb7880e511"},"vehicle_type_id":"4","last_reported":1728119445,"current_range_meters":34000,"station_id":"ce4bhh12rcd13ifvqfg0","pricing_plan_id":"cebpf4jnsgd1na2vs0mg"},{"bike_id":"c1c4143e-2580-4d9b-98a6-e577b0e0f332","system_id":"levelo_inurba_marseille","lat":43.29313,"lon":5.37195,"is_reserved":false,"is_disabled":false,"rental_uris":{"android":"levelo://app?vid=c1c4143e-2580-4d9b-98a6-e577b0e0f332","ios":"levelo://app?vid=c1c4143e-2580-4d9b-98a6-e577b0e0f332"},"vehicle_type_id":"4","last_reported":1728119445,"current_range_meters":38400,"station_id":"ce4bgh92rcd13ifvqb40","pricing_plan_id":"cebpf4jnsgd1na2vs0mg"},{"bike_id":"048b48e2-fdf6-4f53-aa74-369aa9ffb52c","system_id":"levelo_inurba_marseille","lat":43.23152,"lon":5.43714,"is_reserved":false,"is_disabled":false,"rental_uris":{"android":"levelo://app?vid=048b48e2-fdf6-4f53-aa74-369aa9ffb52c","ios":"levelo://app?vid=048b48e2-fdf6-4f53-aa74-369aa9ffb52c"},"vehicle_type_id":"4","last_reported":1728119445,"current_range_meters":11600,"station_id":"ce4bhmp2rcd13ifvqgog","pricing_plan_id":"cebpf4jnsgd1na2vs0mg"},{"bike_id":"13a35d1a-1c21-4cdd-9282-17040c700716","system_id":"levelo_inurba_marseille","lat":43.32537,"lon":5.41446,"is_reserved":false,"is_disabled":false,"rental_uris":{"android":"levelo://app?vid=13a35d1a-1c21-4cdd-9282-17040c700716","ios":"levelo://app?vid=13a35d1a-1c21-4cdd-9282-17040c700716"},"vehicle_type_id":"4","last_reported":1728119445,"current_range_meters":38800,"station_id":"ce4bhq12rcd13ifvqhhg","pricing_plan_id":"cebpf4jnsgd1na2vs0mg"},{"bike_id":"5991f84f-21f0-4a7e-908b-cd019d1c55c9","system_id":"levelo_inurba_marseille","lat":43.291967,"lon":5.357948,"is_reserved":false,"is_disabled":false,"rental_uris":{"android":"levelo://app?vid=5991f84f-21f0-4a7e-908b-cd019d1c55c9","ios":"levelo://app?vid=5991f84f-21f0-4a7e-908b-cd019d1c55c9"},"vehicle_type_id":"4","last_reported":1728119445,"current_range_meters":38000,"station_id":"ce4bhb12rcd13ifvqel0","pricing_plan_id":"cebpf4jnsgd1na2vs0mg"},{"bike_id":"ff27700b-8626-4fd8-89fa-aab58dd69c56","system_id":"levelo_inurba_marseille","lat":43.28471,"lon":5.38419,"is_reserved":false,"is_disabled":false,"rental_uris":{"android":"levelo://app?vid=ff27700b-8626-4fd8-89fa-aab58dd69c56","ios":"levelo://app?vid=ff27700b-8626-4fd8-89fa-aab58dd69c56"},"vehicle_type_id":"4","last_reported":1728119445,"current_range_meters":38800,"station_id":"ce4bh512rcd13ifvqe3g","pricing_plan_id":"cebpf4jnsgd1na2vs0mg"},{"bike_id":"d94bf57f-37a9-476d-a385-c9d15837e1b4","system_id":"levelo_inurba_marseille","lat":43.30951,"lon":5.39026,"is_reserved":false,"is_disabled":false,"rental_uris":{"android":"levelo://app?vid=d94bf57f-37a9-476d-a385-c9d15837e1b4","ios":"levelo://app?vid=d94bf57f-37a9-476d-a385-c9d15837e1b4"},"vehicle_type_id":"4","last_reported":1728119445,"current_range_meters":26800,"station_id":"ce4bgup2rcd13ifvqco0","pricing_plan_id":"cebpf4jnsgd1na2vs0mg"},{"bike_id":"696644f5-1423-4196-8c71-bccdf5f2a225","system_id":"levelo_inurba_marseille","lat":43.28412,"lon":5.35001,"is_reserved":false,"is_disabled":false,"rental_uris":{"android":"levelo://app?vid=696644f5-1423-4196-8c71-bccdf5f2a225","ios":"levelo://app?vid=696644f5-1423-4196-8c71-bccdf5f2a225"},"vehicle_type_id":"4","last_reported":1728119445,"current_range_meters":38400,"station_id":"ce4bhbh2rcd13ifvqepg","pricing_plan_id":"cebpf4jnsgd1na2vs0mg"},{"bike_id":"03641b7a-70d7-498a-8747-7d8fad2eccc6","system_id":"levelo_inurba_marseille","lat":43.25824,"lon":5.39435,"is_reserved":false,"is_disabled":false,"rental_uris":{"android":"levelo://app?vid=03641b7a-70d7-498a-8747-7d8fad2eccc6","ios":"levelo://app?vid=03641b7a-70d7-498a-8747-7d8fad2eccc6"},"vehicle_type_id":"4","last_reported":1728119445,"current_range_meters":35200,"station_id":"ce4bhip2rcd13ifvqft0","pricing_plan_id":"cebpf4jnsgd1na2vs0mg"},{"bike_id":"c730b033-bc98-48cd-aa40-fee0424cb43c","system_id":"levelo_inurba_marseille","lat":43.28724,"lon":5.36083,"is_reserved":false,"is_disabled":false,"rental_uris":{"android":"levelo://app?vid=c730b033-bc98-48cd-aa40-fee0424cb43c","ios":"levelo://app?vid=c730b033-bc98-48cd-aa40-fee0424cb43c"},"vehicle_type_id":"4","last_reported":1728119445,"current_range_meters":34000,"station_id":"cki0cbj6b192h4jlfktg","pricing_plan_id":"cebpf4jnsgd1na2vs0mg"},{"bike_id":"3b331ddc-b6e0-4524-a213-681816e88962","system_id":"levelo_inurba_marseille","lat":43.32358,"lon":5.38884,"is_reserved":false,"is_disabled":false,"rental_uris":{"android":"levelo://app?vid=3b331ddc-b6e0-4524-a213-681816e88962","ios":"levelo://app?vid=3b331ddc-b6e0-4524-a213-681816e88962"},"vehicle_type_id":"4","last_reported":1728119445,"current_range_meters":23200,"station_id":"ce4bhqp2rcd13ifvqhog","pricing_plan_id":"cebpf4jnsgd1na2vs0mg"},{"bike_id":"46c4811e-0102-4b7d-9724-b342b5693f72","system_id":"levelo_inurba_marseille","lat":43.29788,"lon":5.39347,"is_reserved":false,"is_disabled":false,"rental_uris":{"android":"levelo://app?vid=46c4811e-0102-4b7d-9724-b342b5693f72","ios":"levelo://app?vid=46c4811e-0102-4b7d-9724-b342b5693f72"},"vehicle_type_id":"4","last_reported":1728119445,"current_range_meters":36800,"station_id":"chh1huq6cuj3fo74tm60","pricing_plan_id":"cebpf4jnsgd1na2vs0mg"},{"bike_id":"767b5572-7a96-45fd-9ea6-1b05056115f2","system_id":"levelo_inurba_marseille","lat":43.33019,"lon":5.3903,"is_reserved":false,"is_disabled":false,"rental_uris":{"android":"levelo://app?vid=767b5572-7a96-45fd-9ea6-1b05056115f2","ios":"levelo://app?vid=767b5572-7a96-45fd-9ea6-1b05056115f2"},"vehicle_type_id":"4","last_reported":1728119445,"current_range_meters":32400,"station_id":"ce4bhr92rcd13ifvqhrg","pricing_plan_id":"cebpf4jnsgd1na2vs0mg"},{"bike_id":"f617eaec-9b92-45f6-85bf-a5afb7f07d24","system_id":"levelo_inurba_marseille","lat":43.31324,"lon":5.39702,"is_reserved":false,"is_disabled":false,"rental_uris":{"android":"levelo://app?vid=f617eaec-9b92-45f6-85bf-a5afb7f07d24","ios":"levelo://app?vid=f617eaec-9b92-45f6-85bf-a5afb7f07d24"},"vehicle_type_id":"4","last_reported":1728119445,"current_range_meters":38800,"station_id":"ce4bgvp2rcd13ifvqcu0","pricing_plan_id":"cebpf4jnsgd1na2vs0mg"},{"bike_id":"72bbe761-9e6f-4875-967a-637883cd8459","system_id":"levelo_inurba_marseille","lat":43.24995,"lon":5.38943,"is_reserved":false,"is_disabled":false,"rental_uris":{"android":"levelo://app?vid=72bbe761-9e6f-4875-967a-637883cd8459","ios":"levelo://app?vid=72bbe761-9e6f-4875-967a-637883cd8459"},"vehicle_type_id":"4","last_reported":1728119445,"current_range_meters":38800,"station_id":"ce4bhgp2rcd13ifvqfd0","pricing_plan_id":"cebpf4jnsgd1na2vs0mg"},{"bike_id":"cb3da4b5-a1bb-4e6a-8623-aa11170242d5","system_id":"levelo_inurba_marseille","lat":43.2827,"lon":5.35081,"is_reserved":false,"is_disabled":false,"rental_uris":{"android":"levelo://app?vid=cb3da4b5-a1bb-4e6a-8623-aa11170242d5","ios":"levelo://app?vid=cb3da4b5-a1bb-4e6a-8623-aa11170242d5"},"vehicle_type_id":"4","last_reported":1728119445,"current_range_meters":30400,"station_id":"ce4bhbp2rcd13ifvqerg","pricing_plan_id":"cebpf4jnsgd1na2vs0mg"},{"bike_id":"4fb3e50b-e8a2-4f4d-ac04-bfe37d711d3a","system_id":"levelo_inurba_marseille","lat":43.239604,"lon":5.366257,"is_reserved":false,"is_disabled":false,"rental_uris":{"android":"levelo://app?vid=4fb3e50b-e8a2-4f4d-ac04-bfe37d711d3a","ios":"levelo://app?vid=4fb3e50b-e8a2-4f4d-ac04-bfe37d711d3a"},"vehicle_type_id":"4","last_reported":1728119445,"current_range_meters":24400,"station_id":"ce4bhi12rcd13ifvqfp0","pricing_plan_id":"cebpf4jnsgd1na2vs0mg"},{"bike_id":"fcfb42de-cde1-4ec3-8e89-f197fdfcc1a8","system_id":"levelo_inurba_marseille","lat":43.23966,"lon":5.36638,"is_reserved":false,"is_disabled":false,"rental_uris":{"android":"levelo://app?vid=fcfb42de-cde1-4ec3-8e89-f197fdfcc1a8","ios":"levelo://app?vid=fcfb42de-cde1-4ec3-8e89-f197fdfcc1a8"},"vehicle_type_id":"4","last_reported":1728119445,"current_range_meters":38800,"station_id":"ce4bhi12rcd13ifvqfp0","pricing_plan_id":"cebpf4jnsgd1na2vs0mg"},{"bike_id":"7101b9db-d328-47cf-a085-f83e3e2a7f92","system_id":"levelo_inurba_marseille","lat":43.26803,"lon":5.40264,"is_reserved":false,"is_disabled":false,"rental_uris":{"android":"levelo://app?vid=7101b9db-d328-47cf-a085-f83e3e2a7f92","ios":"levelo://app?vid=7101b9db-d328-47cf-a085-f83e3e2a7f92"},"vehicle_type_id":"4","last_reported":1728119445,"current_range_meters":8400,"station_id":"ce501612rcd8frsf0b60","pricing_plan_id":"cebpf4jnsgd1na2vs0mg"},{"bike_id":"7e66880f-0900-49ff-af7a-be31fbfac82a","system_id":"levelo_inurba_marseille","lat":43.3133,"lon":5.36708,"is_reserved":false,"is_disabled":false,"rental_uris":{"android":"levelo://app?vid=7e66880f-0900-49ff-af7a-be31fbfac82a","ios":"levelo://app?vid=7e66880f-0900-49ff-af7a-be31fbfac82a"},"vehicle_type_id":"4","last_reported":1728119445,"current_range_meters":27600,"station_id":"","pricing_plan_id":"cebpf4jnsgd1na2vs0mg"},{"bike_id":"4bb3f6c1-28a2-4af8-b885-62f6861c5338","system_id":"levelo_inurba_marseille","lat":43.24069,"lon":5.37764,"is_reserved":false,"is_disabled":false,"rental_uris":{"android":"levelo://app?vid=4bb3f6c1-28a2-4af8-b885-62f6861c5338","ios":"levelo://app?vid=4bb3f6c1-28a2-4af8-b885-62f6861c5338"},"vehicle_type_id":"4","last_reported":1728119445,"current_range_meters":20400,"station_id":"ce4bhnp2rcd13ifvqgvg","pricing_plan_id":"cebpf4jnsgd1na2vs0mg"},{"bike_id":"5988793a-285f-4780-8993-ffdd9d9b876f","system_id":"levelo_inurba_marseille","lat":43.29716,"lon":5.36616,"is_reserved":false,"is_disabled":false,"rental_uris":{"android":"levelo://app?vid=5988793a-285f-4780-8993-ffdd9d9b876f","ios":"levelo://app?vid=5988793a-285f-4780-8993-ffdd9d9b876f"},"vehicle_type_id":"4","last_reported":1728119445,"current_range_meters":6800,"station_id":"ce4bgn12rcd13ifvqbt0","pricing_plan_id":"cebpf4jnsgd1na2vs0mg"},{"bike_id":"9c4ecbe1-c9d2-490e-9c81-3dfd774a6aa4","system_id":"levelo_inurba_marseille","lat":43.29622,"lon":5.37704,"is_reserved":false,"is_disabled":false,"rental_uris":{"android":"levelo://app?vid=9c4ecbe1-c9d2-490e-9c81-3dfd774a6aa4","ios":"levelo://app?vid=9c4ecbe1-c9d2-490e-9c81-3dfd774a6aa4"},"vehicle_type_id":"4","last_reported":1728119445,"current_range_meters":38000,"station_id":"ce4bgi92rcd13ifvqb90","pricing_plan_id":"cebpf4jnsgd1na2vs0mg"},{"bike_id":"250a464f-e6db-4417-b49a-43fc88623100","system_id":"levelo_inurba_marseille","lat":43.27972,"lon":5.38717,"is_reserved":false,"is_disabled":false,"rental_uris":{"android":"levelo://app?vid=250a464f-e6db-4417-b49a-43fc88623100","ios":"levelo://app?vid=250a464f-e6db-4417-b49a-43fc88623100"},"vehicle_type_id":"4","last_reported":1728119445,"current_range_meters":21600,"station_id":"ce4bhg12rcd13ifvqf80","pricing_plan_id":"cebpf4jnsgd1na2vs0mg"},{"bike_id":"79b9780c-0672-46ff-af34-19be6dec4043","system_id":"levelo_inurba_marseille","lat":43.3171,"lon":5.43707,"is_reserved":false,"is_disabled":false,"rental_uris":{"android":"levelo://app?vid=79b9780c-0672-46ff-af34-19be6dec4043","ios":"levelo://app?vid=79b9780c-0672-46ff-af34-19be6dec4043"},"vehicle_type_id":"4","last_reported":1728119445,"current_range_meters":24800,"station_id":"ce4bhp92rcd13ifvqhcg","pricing_plan_id":"cebpf4jnsgd1na2vs0mg"},{"bike_id":"88d763e9-254b-4f45-a733-903d4efd49e1","system_id":"levelo_inurba_marseille","lat":43.31077,"lon":5.38341,"is_reserved":false,"is_disabled":false,"rental_uris":{"android":"levelo://app?vid=88d763e9-254b-4f45-a733-903d4efd49e1","ios":"levelo://app?vid=88d763e9-254b-4f45-a733-903d4efd49e1"},"vehicle_type_id":"4","last_reported":1728119445,"current_range_meters":35200,"station_id":"ce4bgv92rcd13ifvqcr0","pricing_plan_id":"cebpf4jnsgd1na2vs0mg"},{"bike_id":"fd872ba7-9877-4e67-9269-d8995abba644","system_id":"levelo_inurba_marseille","lat":43.22936,"lon":5.35379,"is_reserved":false,"is_disabled":false,"rental_uris":{"android":"levelo://app?vid=fd872ba7-9877-4e67-9269-d8995abba644","ios":"levelo://app?vid=fd872ba7-9877-4e67-9269-d8995abba644"},"vehicle_type_id":"4","last_reported":1728119445,"current_range_meters":15200,"station_id":"cpo3532slgdg3j2ikp40","pricing_plan_id":"cebpf4jnsgd1na2vs0mg"},{"bike_id":"fe069c0c-ab7e-4066-b369-24f70f595c37","system_id":"levelo_inurba_marseille","lat":43.32479,"lon":5.36556,"is_reserved":false,"is_disabled":false,"rental_uris":{"android":"levelo://app?vid=fe069c0c-ab7e-4066-b369-24f70f595c37","ios":"levelo://app?vid=fe069c0c-ab7e-4066-b369-24f70f595c37"},"vehicle_type_id":"4","last_reported":1728119445,"current_range_meters":38800,"station_id":"ce4bhs12rcd13ifvqhvg","pricing_plan_id":"cebpf4jnsgd1na2vs0mg"},{"bike_id":"c3738f63-ba0d-4481-8d99-509a828093fc","system_id":"levelo_inurba_marseille","lat":43.26547,"lon":5.39045,"is_reserved":false,"is_disabled":false,"rental_uris":{"android":"levelo://app?vid=c3738f63-ba0d-4481-8d99-509a828093fc","ios":"levelo://app?vid=c3738f63-ba0d-4481-8d99-509a828093fc"},"vehicle_type_id":"4","last_reported":1728119445,"current_range_meters":38800,"station_id":"ce4bhe12rcd13ifvqf30","pricing_plan_id":"cebpf4jnsgd1na2vs0mg"},{"bike_id":"38aeb6f5-0bdb-4ab7-b856-b125a81e6e1e","system_id":"levelo_inurba_marseille","lat":43.29782,"lon":5.37106,"is_reserved":false,"is_disabled":false,"rental_uris":{"android":"levelo://app?vid=38aeb6f5-0bdb-4ab7-b856-b125a81e6e1e","ios":"levelo://app?vid=38aeb6f5-0bdb-4ab7-b856-b125a81e6e1e"},"vehicle_type_id":"4","last_reported":1728119445,"current_range_meters":38000,"station_id":"ce4bgop2rcd13ifvqc1g","pricing_plan_id":"cebpf4jnsgd1na2vs0mg"},{"bike_id":"737fed70-0157-42cd-b1d0-c99f6a548a82","system_id":"levelo_inurba_marseille","lat":43.27993,"lon":5.4166,"is_reserved":false,"is_disabled":false,"rental_uris":{"android":"levelo://app?vid=737fed70-0157-42cd-b1d0-c99f6a548a82","ios":"levelo://app?vid=737fed70-0157-42cd-b1d0-c99f6a548a82"},"vehicle_type_id":"4","last_reported":1728119445,"current_range_meters":24400,"station_id":"ce4bho12rcd13ifvqh1g","pricing_plan_id":"cebpf4jnsgd1na2vs0mg"},{"bike_id":"f0043234-0e52-4e57-b874-f56582004648","system_id":"levelo_inurba_marseille","lat":43.29952,"lon":5.41324,"is_reserved":false,"is_disabled":false,"rental_uris":{"android":"levelo://app?vid=f0043234-0e52-4e57-b874-f56582004648","ios":"levelo://app?vid=f0043234-0e52-4e57-b874-f56582004648"},"vehicle_type_id":"4","last_reported":1728119445,"current_range_meters":3600,"station_id":"ce4bhp12rcd13ifvqh9g","pricing_plan_id":"cebpf4jnsgd1na2vs0mg"},{"bike_id":"ffd2ef54-459a-425a-bbbd-15122bf2e93e","system_id":"levelo_inurba_marseille","lat":43.29556,"lon":5.42285,"is_reserved":false,"is_disabled":false,"rental_uris":{"android":"levelo://app?vid=ffd2ef54-459a-425a-bbbd-15122bf2e93e","ios":"levelo://app?vid=ffd2ef54-459a-425a-bbbd-15122bf2e93e"},"vehicle_type_id":"4","last_reported":1728119445,"current_range_meters":19200,"station_id":"ce4bhph2rcd13ifvqhdg","pricing_plan_id":"cebpf4jnsgd1na2vs0mg"},{"bike_id":"d34ce1dd-3ca2-420a-91ff-5fd42a7b6421","system_id":"levelo_inurba_marseille","lat":43.30955,"lon":5.39049,"is_reserved":false,"is_disabled":false,"rental_uris":{"android":"levelo://app?vid=d34ce1dd-3ca2-420a-91ff-5fd42a7b6421","ios":"levelo://app?vid=d34ce1dd-3ca2-420a-91ff-5fd42a7b6421"},"vehicle_type_id":"4","last_reported":1728119445,"current_range_meters":37600,"station_id":"ce4bgup2rcd13ifvqco0","pricing_plan_id":"cebpf4jnsgd1na2vs0mg"},{"bike_id":"02287b3e-a2e5-4db9-badc-4f46622493bb","system_id":"levelo_inurba_marseille","lat":43.27066,"lon":5.42275,"is_reserved":false,"is_disabled":false,"rental_uris":{"android":"levelo://app?vid=02287b3e-a2e5-4db9-badc-4f46622493bb","ios":"levelo://app?vid=02287b3e-a2e5-4db9-badc-4f46622493bb"},"vehicle_type_id":"4","last_reported":1728119445,"current_range_meters":38800,"station_id":"ce4bhk92rcd13ifvqgb0","pricing_plan_id":"cebpf4jnsgd1na2vs0mg"},{"bike_id":"2dfa250e-fa81-43be-b763-8f49843284b7","system_id":"levelo_inurba_marseille","lat":43.23185,"lon":5.39984,"is_reserved":false,"is_disabled":false,"rental_uris":{"android":"levelo://app?vid=2dfa250e-fa81-43be-b763-8f49843284b7","ios":"levelo://app?vid=2dfa250e-fa81-43be-b763-8f49843284b7"},"vehicle_type_id":"4","last_reported":1728119445,"current_range_meters":38000,"station_id":"ce4bhn12rcd13ifvqgqg","pricing_plan_id":"cebpf4jnsgd1na2vs0mg"},{"bike_id":"422525bd-d202-43b9-b7a1-eb1972d5c216","system_id":"levelo_inurba_marseille","lat":43.29305,"lon":5.37183,"is_reserved":false,"is_disabled":false,"rental_uris":{"android":"levelo://app?vid=422525bd-d202-43b9-b7a1-eb1972d5c216","ios":"levelo://app?vid=422525bd-d202-43b9-b7a1-eb1972d5c216"},"vehicle_type_id":"4","last_reported":1728119445,"current_range_meters":38800,"station_id":"ce4bgh92rcd13ifvqb40","pricing_plan_id":"cebpf4jnsgd1na2vs0mg"},{"bike_id":"56e290b8-baea-47bd-8cbe-7fd9ea0f5e8d","system_id":"levelo_inurba_marseille","lat":43.25863,"lon":5.39901,"is_reserved":false,"is_disabled":false,"rental_uris":{"android":"levelo://app?vid=56e290b8-baea-47bd-8cbe-7fd9ea0f5e8d","ios":"levelo://app?vid=56e290b8-baea-47bd-8cbe-7fd9ea0f5e8d"},"vehicle_type_id":"4","last_reported":1728119445,"current_range_meters":36800,"station_id":"ce4bhl92rcd13ifvqghg","pricing_plan_id":"cebpf4jnsgd1na2vs0mg"},{"bike_id":"6331e1ec-cf9d-44e8-a534-547fad38181d","system_id":"levelo_inurba_marseille","lat":43.3266,"lon":5.40983,"is_reserved":false,"is_disabled":false,"rental_uris":{"android":"levelo://app?vid=6331e1ec-cf9d-44e8-a534-547fad38181d","ios":"levelo://app?vid=6331e1ec-cf9d-44e8-a534-547fad38181d"},"vehicle_type_id":"4","last_reported":1728119445,"current_range_meters":4800,"station_id":"ce4bhpp2rcd13ifvqhgg","pricing_plan_id":"cebpf4jnsgd1na2vs0mg"},{"bike_id":"bb08ede8-a998-412f-87af-e574e4de5703","system_id":"levelo_inurba_marseille","lat":43.29599,"lon":5.369095,"is_reserved":false,"is_disabled":false,"rental_uris":{"android":"levelo://app?vid=bb08ede8-a998-412f-87af-e574e4de5703","ios":"levelo://app?vid=bb08ede8-a998-412f-87af-e574e4de5703"},"vehicle_type_id":"4","last_reported":1728119445,"current_range_meters":9600,"station_id":"ce4bgnh2rcd13ifvqc0g","pricing_plan_id":"cebpf4jnsgd1na2vs0mg"},{"bike_id":"82fb1d9b-f78d-4572-93cd-c097376a885d","system_id":"levelo_inurba_marseille","lat":43.23146,"lon":5.43714,"is_reserved":false,"is_disabled":false,"rental_uris":{"android":"levelo://app?vid=82fb1d9b-f78d-4572-93cd-c097376a885d","ios":"levelo://app?vid=82fb1d9b-f78d-4572-93cd-c097376a885d"},"vehicle_type_id":"4","last_reported":1728119445,"current_range_meters":3200,"station_id":"ce4bhmp2rcd13ifvqgog","pricing_plan_id":"cebpf4jnsgd1na2vs0mg"},{"bike_id":"e04e5431-207d-4263-8b72-762e4c4878e5","system_id":"levelo_inurba_marseille","lat":43.23063,"lon":5.35494,"is_reserved":false,"is_disabled":false,"rental_uris":{"android":"levelo://app?vid=e04e5431-207d-4263-8b72-762e4c4878e5","ios":"levelo://app?vid=e04e5431-207d-4263-8b72-762e4c4878e5"},"vehicle_type_id":"4","last_reported":1728119445,"current_range_meters":16800,"station_id":"cpo3342slgdg3j2ifvpg","pricing_plan_id":"cebpf4jnsgd1na2vs0mg"},{"bike_id":"609d3b61-fafa-4095-8a1d-71b079d45cdb","system_id":"levelo_inurba_marseille","lat":43.29533,"lon":5.37505,"is_reserved":false,"is_disabled":false,"rental_uris":{"android":"levelo://app?vid=609d3b61-fafa-4095-8a1d-71b079d45cdb","ios":"levelo://app?vid=609d3b61-fafa-4095-8a1d-71b079d45cdb"},"vehicle_type_id":"4","last_reported":1728119445,"current_range_meters":30400,"station_id":"ce4bgkp2rcd13ifvqbmg","pricing_plan_id":"cebpf4jnsgd1na2vs0mg"},{"bike_id":"50e6aeb8-7e25-4c09-9781-24c9f5d23dff","system_id":"levelo_inurba_marseille","lat":43.33761,"lon":5.37445,"is_reserved":false,"is_disabled":false,"rental_uris":{"android":"levelo://app?vid=50e6aeb8-7e25-4c09-9781-24c9f5d23dff","ios":"levelo://app?vid=50e6aeb8-7e25-4c09-9781-24c9f5d23dff"},"vehicle_type_id":"4","last_reported":1728119445,"current_range_meters":27600,"station_id":"","pricing_plan_id":"cebpf4jnsgd1na2vs0mg"},{"bike_id":"349b6c0d-2888-4967-b745-40a4e4021c99","system_id":"levelo_inurba_marseille","lat":43.30905,"lon":5.36843,"is_reserved":false,"is_disabled":false,"rental_uris":{"android":"levelo://app?vid=349b6c0d-2888-4967-b745-40a4e4021c99","ios":"levelo://app?vid=349b6c0d-2888-4967-b745-40a4e4021c99"},"vehicle_type_id":"4","last_reported":1728119445,"current_range_meters":38800,"station_id":"ce4bgn92rcd13ifvqbvg","pricing_plan_id":"cebpf4jnsgd1na2vs0mg"},{"bike_id":"7e5a4ffa-6310-4511-a1dc-2dedfd26f1bc","system_id":"levelo_inurba_marseille","lat":43.29553,"lon":5.42279,"is_reserved":false,"is_disabled":false,"rental_uris":{"android":"levelo://app?vid=7e5a4ffa-6310-4511-a1dc-2dedfd26f1bc","ios":"levelo://app?vid=7e5a4ffa-6310-4511-a1dc-2dedfd26f1bc"},"vehicle_type_id":"4","last_reported":1728119445,"current_range_meters":3600,"station_id":"ce4bhph2rcd13ifvqhdg","pricing_plan_id":"cebpf4jnsgd1na2vs0mg"},{"bike_id":"9e226fae-960b-4695-927b-c16464bc93ed","system_id":"levelo_inurba_marseille","lat":43.33747,"lon":5.37459,"is_reserved":false,"is_disabled":false,"rental_uris":{"android":"levelo://app?vid=9e226fae-960b-4695-927b-c16464bc93ed","ios":"levelo://app?vid=9e226fae-960b-4695-927b-c16464bc93ed"},"vehicle_type_id":"4","last_reported":1728119445,"current_range_meters":36400,"station_id":"","pricing_plan_id":"cebpf4jnsgd1na2vs0mg"},{"bike_id":"094b268c-4cc2-43fc-862b-773d8ae92352","system_id":"levelo_inurba_marseille","lat":43.31125,"lon":5.37762,"is_reserved":false,"is_disabled":false,"rental_uris":{"android":"levelo://app?vid=094b268c-4cc2-43fc-862b-773d8ae92352","ios":"levelo://app?vid=094b268c-4cc2-43fc-862b-773d8ae92352"},"vehicle_type_id":"4","last_reported":1728119445,"current_range_meters":36800,"station_id":"ce4bgt92rcd13ifvqcg0","pricing_plan_id":"cebpf4jnsgd1na2vs0mg"},{"bike_id":"23916c89-585f-48bf-be27-3f0989556740","system_id":"levelo_inurba_marseille","lat":43.30151,"lon":5.38077,"is_reserved":false,"is_disabled":false,"rental_uris":{"android":"levelo://app?vid=23916c89-585f-48bf-be27-3f0989556740","ios":"levelo://app?vid=23916c89-585f-48bf-be27-3f0989556740"},"vehicle_type_id":"4","last_reported":1728119445,"current_range_meters":31200,"station_id":"ce4bgjp2rcd13ifvqbh0","pricing_plan_id":"cebpf4jnsgd1na2vs0mg"},{"bike_id":"8afb9829-5b79-4b79-899f-8b231e8accfe","system_id":"levelo_inurba_marseille","lat":43.29303,"lon":5.37441,"is_reserved":false,"is_disabled":false,"rental_uris":{"android":"levelo://app?vid=8afb9829-5b79-4b79-899f-8b231e8accfe","ios":"levelo://app?vid=8afb9829-5b79-4b79-899f-8b231e8accfe"},"vehicle_type_id":"4","last_reported":1728119445,"current_range_meters":24400,"station_id":"ce4bgi12rcd13ifvqb70","pricing_plan_id":"cebpf4jnsgd1na2vs0mg"},{"bike_id":"be855d3f-aa37-4c69-9485-bcd30590fee9","system_id":"levelo_inurba_marseille","lat":43.31074,"lon":5.38354,"is_reserved":false,"is_disabled":false,"rental_uris":{"android":"levelo://app?vid=be855d3f-aa37-4c69-9485-bcd30590fee9","ios":"levelo://app?vid=be855d3f-aa37-4c69-9485-bcd30590fee9"},"vehicle_type_id":"4","last_reported":1728119445,"current_range_meters":37600,"station_id":"ce4bgv92rcd13ifvqcr0","pricing_plan_id":"cebpf4jnsgd1na2vs0mg"},{"bike_id":"8a087edc-1886-4fea-9456-2ffd9f74c213","system_id":"levelo_inurba_marseille","lat":43.2885,"lon":5.39313,"is_reserved":false,"is_disabled":false,"rental_uris":{"android":"levelo://app?vid=8a087edc-1886-4fea-9456-2ffd9f74c213","ios":"levelo://app?vid=8a087edc-1886-4fea-9456-2ffd9f74c213"},"vehicle_type_id":"4","last_reported":1728119445,"current_range_meters":36800,"station_id":"ce4bh2p2rcd13ifvqdi0","pricing_plan_id":"cebpf4jnsgd1na2vs0mg"},{"bike_id":"967a27f6-259a-4ef2-a1ad-760560cf6fca","system_id":"levelo_inurba_marseille","lat":43.3169,"lon":5.40475,"is_reserved":false,"is_disabled":false,"rental_uris":{"android":"levelo://app?vid=967a27f6-259a-4ef2-a1ad-760560cf6fca","ios":"levelo://app?vid=967a27f6-259a-4ef2-a1ad-760560cf6fca"},"vehicle_type_id":"4","last_reported":1728119445,"current_range_meters":18800,"station_id":"ce4bh012rcd13ifvqd00","pricing_plan_id":"cebpf4jnsgd1na2vs0mg"},{"bike_id":"2298e9f6-ae7d-4817-b026-99cf7b1757c5","system_id":"levelo_inurba_marseille","lat":43.27902,"lon":5.38013,"is_reserved":false,"is_disabled":false,"rental_uris":{"android":"levelo://app?vid=2298e9f6-ae7d-4817-b026-99cf7b1757c5","ios":"levelo://app?vid=2298e9f6-ae7d-4817-b026-99cf7b1757c5"},"vehicle_type_id":"4","last_reported":1728119445,"current_range_meters":20000,"station_id":"ce4bhf92rcd13ifvqf50","pricing_plan_id":"cebpf4jnsgd1na2vs0mg"},{"bike_id":"4e5c49fe-f120-4033-88ac-d3d47aaa734c","system_id":"levelo_inurba_marseille","lat":43.26789,"lon":5.39408,"is_reserved":false,"is_disabled":false,"rental_uris":{"android":"levelo://app?vid=4e5c49fe-f120-4033-88ac-d3d47aaa734c","ios":"levelo://app?vid=4e5c49fe-f120-4033-88ac-d3d47aaa734c"},"vehicle_type_id":"4","last_reported":1728119445,"current_range_meters":36000,"station_id":"ce4bhh12rcd13ifvqfg0","pricing_plan_id":"cebpf4jnsgd1na2vs0mg"},{"bike_id":"ad4e8f5a-894a-4c94-9f6d-c0d7dda88988","system_id":"levelo_inurba_marseille","lat":43.23966,"lon":5.36618,"is_reserved":false,"is_disabled":false,"rental_uris":{"android":"levelo://app?vid=ad4e8f5a-894a-4c94-9f6d-c0d7dda88988","ios":"levelo://app?vid=ad4e8f5a-894a-4c94-9f6d-c0d7dda88988"},"vehicle_type_id":"4","last_reported":1728119445,"current_range_meters":20400,"station_id":"ce4bhi12rcd13ifvqfp0","pricing_plan_id":"cebpf4jnsgd1na2vs0mg"},{"bike_id":"3cde7a93-a095-4ec5-85c4-cb48cde11f81","system_id":"levelo_inurba_marseille","lat":43.33774,"lon":5.37459,"is_reserved":false,"is_disabled":false,"rental_uris":{"android":"levelo://app?vid=3cde7a93-a095-4ec5-85c4-cb48cde11f81","ios":"levelo://app?vid=3cde7a93-a095-4ec5-85c4-cb48cde11f81"},"vehicle_type_id":"4","last_reported":1728119445,"current_range_meters":38000,"station_id":"","pricing_plan_id":"cebpf4jnsgd1na2vs0mg"},{"bike_id":"e2455afb-c7f2-4814-be90-e1617bd9805f","system_id":"levelo_inurba_marseille","lat":43.25,"lon":5.38928,"is_reserved":false,"is_disabled":false,"rental_uris":{"android":"levelo://app?vid=e2455afb-c7f2-4814-be90-e1617bd9805f","ios":"levelo://app?vid=e2455afb-c7f2-4814-be90-e1617bd9805f"},"vehicle_type_id":"4","last_reported":1728119445,"current_range_meters":8400,"station_id":"ce4bhgp2rcd13ifvqfd0","pricing_plan_id":"cebpf4jnsgd1na2vs0mg"},{"bike_id":"96eb4682-19b8-4675-bab3-3275719e76a8","system_id":"levelo_inurba_marseille","lat":43.34144,"lon":5.40897,"is_reserved":false,"is_disabled":false,"rental_uris":{"android":"levelo://app?vid=96eb4682-19b8-4675-bab3-3275719e76a8","ios":"levelo://app?vid=96eb4682-19b8-4675-bab3-3275719e76a8"},"vehicle_type_id":"4","last_reported":1728119445,"current_range_meters":28000,"station_id":"ce4bhqh2rcd13ifvqhlg","pricing_plan_id":"cebpf4jnsgd1na2vs0mg"},{"bike_id":"f804678f-f648-4841-9a62-5e8ad493f990","system_id":"levelo_inurba_marseille","lat":43.30956,"lon":5.39044,"is_reserved":false,"is_disabled":false,"rental_uris":{"android":"levelo://app?vid=f804678f-f648-4841-9a62-5e8ad493f990","ios":"levelo://app?vid=f804678f-f648-4841-9a62-5e8ad493f990"},"vehicle_type_id":"4","last_reported":1728119445,"current_range_meters":39200,"station_id":"ce4bgup2rcd13ifvqco0","pricing_plan_id":"cebpf4jnsgd1na2vs0mg"},{"bike_id":"57d5d1f8-5acf-49ec-a460-f52cbdbdbef8","system_id":"levelo_inurba_marseille","lat":43.28409,"lon":5.3499,"is_reserved":false,"is_disabled":false,"rental_uris":{"android":"levelo://app?vid=57d5d1f8-5acf-49ec-a460-f52cbdbdbef8","ios":"levelo://app?vid=57d5d1f8-5acf-49ec-a460-f52cbdbdbef8"},"vehicle_type_id":"4","last_reported":1728119445,"current_range_meters":38000,"station_id":"ce4bhbh2rcd13ifvqepg","pricing_plan_id":"cebpf4jnsgd1na2vs0mg"},{"bike_id":"b539cef5-a0ee-4eb9-af10-1c3a300ff81c","system_id":"levelo_inurba_marseille","lat":43.32102,"lon":5.36771,"is_reserved":false,"is_disabled":false,"rental_uris":{"android":"levelo://app?vid=b539cef5-a0ee-4eb9-af10-1c3a300ff81c","ios":"levelo://app?vid=b539cef5-a0ee-4eb9-af10-1c3a300ff81c"},"vehicle_type_id":"4","last_reported":1728119445,"current_range_meters":34000,"station_id":"ce4bhrh2rcd13ifvqhug","pricing_plan_id":"cebpf4jnsgd1na2vs0mg"},{"bike_id":"fd712ad3-a94e-4a78-a4f3-7bf5d23869e7","system_id":"levelo_inurba_marseille","lat":43.30957,"lon":5.39041,"is_reserved":false,"is_disabled":false,"rental_uris":{"android":"levelo://app?vid=fd712ad3-a94e-4a78-a4f3-7bf5d23869e7","ios":"levelo://app?vid=fd712ad3-a94e-4a78-a4f3-7bf5d23869e7"},"vehicle_type_id":"4","last_reported":1728119445,"current_range_meters":28000,"station_id":"ce4bgup2rcd13ifvqco0","pricing_plan_id":"cebpf4jnsgd1na2vs0mg"},{"bike_id":"620d20f5-f7a1-4e40-847a-8cd1c99a57ec","system_id":"levelo_inurba_marseille","lat":43.25581,"lon":5.38229,"is_reserved":false,"is_disabled":false,"rental_uris":{"android":"levelo://app?vid=620d20f5-f7a1-4e40-847a-8cd1c99a57ec","ios":"levelo://app?vid=620d20f5-f7a1-4e40-847a-8cd1c99a57ec"},"vehicle_type_id":"4","last_reported":1728119445,"current_range_meters":20800,"station_id":"ce4bhih2rcd13ifvqfs0","pricing_plan_id":"cebpf4jnsgd1na2vs0mg"},{"bike_id":"206bf6bf-09ad-4763-85da-6f36c3ad29a0","system_id":"levelo_inurba_marseille","lat":43.27991,"lon":5.41648,"is_reserved":false,"is_disabled":false,"rental_uris":{"android":"levelo://app?vid=206bf6bf-09ad-4763-85da-6f36c3ad29a0","ios":"levelo://app?vid=206bf6bf-09ad-4763-85da-6f36c3ad29a0"},"vehicle_type_id":"4","last_reported":1728119445,"current_range_meters":22400,"station_id":"ce4bho12rcd13ifvqh1g","pricing_plan_id":"cebpf4jnsgd1na2vs0mg"},{"bike_id":"d1d3cbd3-09cc-4e3f-b538-9121f00b93f5","system_id":"levelo_inurba_marseille","lat":43.29306,"lon":5.37184,"is_reserved":false,"is_disabled":false,"rental_uris":{"android":"levelo://app?vid=d1d3cbd3-09cc-4e3f-b538-9121f00b93f5","ios":"levelo://app?vid=d1d3cbd3-09cc-4e3f-b538-9121f00b93f5"},"vehicle_type_id":"4","last_reported":1728119445,"current_range_meters":35200,"station_id":"ce4bgh92rcd13ifvqb40","pricing_plan_id":"cebpf4jnsgd1na2vs0mg"},{"bike_id":"bb5f5452-4b9b-417d-b148-b396a874f3d9","system_id":"levelo_inurba_marseille","lat":43.3378,"lon":5.37414,"is_reserved":false,"is_disabled":false,"rental_uris":{"android":"levelo://app?vid=bb5f5452-4b9b-417d-b148-b396a874f3d9","ios":"levelo://app?vid=bb5f5452-4b9b-417d-b148-b396a874f3d9"},"vehicle_type_id":"4","last_reported":1728119445,"current_range_meters":32400,"station_id":"","pricing_plan_id":"cebpf4jnsgd1na2vs0mg"},{"bike_id":"e0cca6bb-65b7-49dc-8330-d96a1c964ac1","system_id":"levelo_inurba_marseille","lat":43.28463,"lon":5.35881,"is_reserved":false,"is_disabled":false,"rental_uris":{"android":"levelo://app?vid=e0cca6bb-65b7-49dc-8330-d96a1c964ac1","ios":"levelo://app?vid=e0cca6bb-65b7-49dc-8330-d96a1c964ac1"},"vehicle_type_id":"4","last_reported":1728119445,"current_range_meters":30800,"station_id":"ce4bhah2rcd13ifvqei0","pricing_plan_id":"cebpf4jnsgd1na2vs0mg"},{"bike_id":"745ed244-76cd-4c23-a987-6d60e3a4cb1b","system_id":"levelo_inurba_marseille","lat":43.29204,"lon":5.35783,"is_reserved":false,"is_disabled":false,"rental_uris":{"android":"levelo://app?vid=745ed244-76cd-4c23-a987-6d60e3a4cb1b","ios":"levelo://app?vid=745ed244-76cd-4c23-a987-6d60e3a4cb1b"},"vehicle_type_id":"4","last_reported":1728119445,"current_range_meters":38400,"station_id":"ce4bhb12rcd13ifvqel0","pricing_plan_id":"cebpf4jnsgd1na2vs0mg"},{"bike_id":"dec2e65e-a3b6-4885-8bfa-7feb30c11f5d","system_id":"levelo_inurba_marseille","lat":43.27992,"lon":5.4166,"is_reserved":false,"is_disabled":false,"rental_uris":{"android":"levelo://app?vid=dec2e65e-a3b6-4885-8bfa-7feb30c11f5d","ios":"levelo://app?vid=dec2e65e-a3b6-4885-8bfa-7feb30c11f5d"},"vehicle_type_id":"4","last_reported":1728119445,"current_range_meters":3600,"station_id":"ce4bho12rcd13ifvqh1g","pricing_plan_id":"cebpf4jnsgd1na2vs0mg"},{"bike_id":"d7a0298f-5c2b-438d-ab05-5d6a7ac83160","system_id":"levelo_inurba_marseille","lat":43.30799,"lon":5.43521,"is_reserved":false,"is_disabled":false,"rental_uris":{"android":"levelo://app?vid=d7a0298f-5c2b-438d-ab05-5d6a7ac83160","ios":"levelo://app?vid=d7a0298f-5c2b-438d-ab05-5d6a7ac83160"},"vehicle_type_id":"4","last_reported":1728119445,"current_range_meters":36800,"station_id":"ce4bhph2rcd13ifvqheg","pricing_plan_id":"cebpf4jnsgd1na2vs0mg"},{"bike_id":"621d9c86-2034-44eb-ab16-1d18fab24db9","system_id":"levelo_inurba_marseille","lat":43.31706,"lon":5.37748,"is_reserved":false,"is_disabled":false,"rental_uris":{"android":"levelo://app?vid=621d9c86-2034-44eb-ab16-1d18fab24db9","ios":"levelo://app?vid=621d9c86-2034-44eb-ab16-1d18fab24db9"},"vehicle_type_id":"4","last_reported":1728119445,"current_range_meters":38800,"station_id":"ce4bgth2rcd13ifvqch0","pricing_plan_id":"cebpf4jnsgd1na2vs0mg"},{"bike_id":"b8fcc49f-9739-4ac8-ab70-8e7941e0b2e7","system_id":"levelo_inurba_marseille","lat":43.31366,"lon":5.38499,"is_reserved":false,"is_disabled":false,"rental_uris":{"android":"levelo://app?vid=b8fcc49f-9739-4ac8-ab70-8e7941e0b2e7","ios":"levelo://app?vid=b8fcc49f-9739-4ac8-ab70-8e7941e0b2e7"},"vehicle_type_id":"4","last_reported":1728119445,"current_range_meters":38800,"station_id":"ce4bgt92rcd13ifvqcf0","pricing_plan_id":"cebpf4jnsgd1na2vs0mg"},{"bike_id":"5efa7fc7-fcac-4385-ab16-16409c55305a","system_id":"levelo_inurba_marseille","lat":43.29192,"lon":5.35794,"is_reserved":false,"is_disabled":false,"rental_uris":{"android":"levelo://app?vid=5efa7fc7-fcac-4385-ab16-16409c55305a","ios":"levelo://app?vid=5efa7fc7-fcac-4385-ab16-16409c55305a"},"vehicle_type_id":"4","last_reported":1728119445,"current_range_meters":33600,"station_id":"ce4bhb12rcd13ifvqel0","pricing_plan_id":"cebpf4jnsgd1na2vs0mg"},{"bike_id":"bb3c60ed-30f3-457b-bdf4-7d89e6460e30","system_id":"levelo_inurba_marseille","lat":43.28943,"lon":5.38398,"is_reserved":false,"is_disabled":false,"rental_uris":{"android":"levelo://app?vid=bb3c60ed-30f3-457b-bdf4-7d89e6460e30","ios":"levelo://app?vid=bb3c60ed-30f3-457b-bdf4-7d89e6460e30"},"vehicle_type_id":"4","last_reported":1728119445,"current_range_meters":38000,"station_id":"ce4bhg12rcd13ifvqf80","pricing_plan_id":"cebpf4jnsgd1na2vs0mg"},{"bike_id":"a33c05d8-1097-47e4-9760-66b666788866","system_id":"levelo_inurba_marseille","lat":43.2558,"lon":5.38239,"is_reserved":false,"is_disabled":false,"rental_uris":{"android":"levelo://app?vid=a33c05d8-1097-47e4-9760-66b666788866","ios":"levelo://app?vid=a33c05d8-1097-47e4-9760-66b666788866"},"vehicle_type_id":"4","last_reported":1728119445,"current_range_meters":22000,"station_id":"ce4bhih2rcd13ifvqfs0","pricing_plan_id":"cebpf4jnsgd1na2vs0mg"},{"bike_id":"b0dc2897-cb6b-44e2-947a-9e1de3e6a940","system_id":"levelo_inurba_marseille","lat":43.28153,"lon":5.42642,"is_reserved":false,"is_disabled":false,"rental_uris":{"android":"levelo://app?vid=b0dc2897-cb6b-44e2-947a-9e1de3e6a940","ios":"levelo://app?vid=b0dc2897-cb6b-44e2-947a-9e1de3e6a940"},"vehicle_type_id":"4","last_reported":1728119445,"current_range_meters":5600,"station_id":"ce4bhnh2rcd13ifvqgug","pricing_plan_id":"cebpf4jnsgd1na2vs0mg"},{"bike_id":"4285547c-3114-4b0d-9188-c3356374994b","system_id":"levelo_inurba_marseille","lat":43.32665,"lon":5.40985,"is_reserved":false,"is_disabled":false,"rental_uris":{"android":"levelo://app?vid=4285547c-3114-4b0d-9188-c3356374994b","ios":"levelo://app?vid=4285547c-3114-4b0d-9188-c3356374994b"},"vehicle_type_id":"4","last_reported":1728119445,"current_range_meters":29600,"station_id":"ce4bhpp2rcd13ifvqhgg","pricing_plan_id":"cebpf4jnsgd1na2vs0mg"},{"bike_id":"43fc5487-6973-4fc7-a12f-6a97ffe8a3ce","system_id":"levelo_inurba_marseille","lat":43.25105,"lon":5.40333,"is_reserved":false,"is_disabled":false,"rental_uris":{"android":"levelo://app?vid=43fc5487-6973-4fc7-a12f-6a97ffe8a3ce","ios":"levelo://app?vid=43fc5487-6973-4fc7-a12f-6a97ffe8a3ce"},"vehicle_type_id":"4","last_reported":1728119445,"current_range_meters":11200,"station_id":"ce4bhlh2rcd13ifvqgig","pricing_plan_id":"cebpf4jnsgd1na2vs0mg"},{"bike_id":"03bb22df-47d7-4e29-ad56-b0649f80ce83","system_id":"levelo_inurba_marseille","lat":43.28473,"lon":5.38406,"is_reserved":false,"is_disabled":false,"rental_uris":{"android":"levelo://app?vid=03bb22df-47d7-4e29-ad56-b0649f80ce83","ios":"levelo://app?vid=03bb22df-47d7-4e29-ad56-b0649f80ce83"},"vehicle_type_id":"4","last_reported":1728119445,"current_range_meters":38800,"station_id":"ce4bh512rcd13ifvqe3g","pricing_plan_id":"cebpf4jnsgd1na2vs0mg"},{"bike_id":"219df1b6-9d69-46f8-bdd5-caa50ce674cf","system_id":"levelo_inurba_marseille","lat":43.255493,"lon":5.37674,"is_reserved":false,"is_disabled":false,"rental_uris":{"android":"levelo://app?vid=219df1b6-9d69-46f8-bdd5-caa50ce674cf","ios":"levelo://app?vid=219df1b6-9d69-46f8-bdd5-caa50ce674cf"},"vehicle_type_id":"4","last_reported":1728119445,"current_range_meters":10000,"station_id":"","pricing_plan_id":"cebpf4jnsgd1na2vs0mg"},{"bike_id":"ff864523-8825-49b1-934a-640ac55995b6","system_id":"levelo_inurba_marseille","lat":43.29306,"lon":5.37184,"is_reserved":false,"is_disabled":false,"rental_uris":{"android":"levelo://app?vid=ff864523-8825-49b1-934a-640ac55995b6","ios":"levelo://app?vid=ff864523-8825-49b1-934a-640ac55995b6"},"vehicle_type_id":"4","last_reported":1728119445,"current_range_meters":38800,"station_id":"ce4bgh92rcd13ifvqb40","pricing_plan_id":"cebpf4jnsgd1na2vs0mg"},{"bike_id":"682f707c-3733-4cab-9903-f5a3447e0ac0","system_id":"levelo_inurba_marseille","lat":43.25,"lon":5.38921,"is_reserved":false,"is_disabled":false,"rental_uris":{"android":"levelo://app?vid=682f707c-3733-4cab-9903-f5a3447e0ac0","ios":"levelo://app?vid=682f707c-3733-4cab-9903-f5a3447e0ac0"},"vehicle_type_id":"4","last_reported":1728119445,"current_range_meters":37600,"station_id":"ce4bhgp2rcd13ifvqfd0","pricing_plan_id":"cebpf4jnsgd1na2vs0mg"},{"bike_id":"2b03895d-cb82-45eb-9276-9df859a6209e","system_id":"levelo_inurba_marseille","lat":43.27971,"lon":5.38739,"is_reserved":false,"is_disabled":false,"rental_uris":{"android":"levelo://app?vid=2b03895d-cb82-45eb-9276-9df859a6209e","ios":"levelo://app?vid=2b03895d-cb82-45eb-9276-9df859a6209e"},"vehicle_type_id":"4","last_reported":1728119445,"current_range_meters":20800,"station_id":"ce4bhg12rcd13ifvqf80","pricing_plan_id":"cebpf4jnsgd1na2vs0mg"},{"bike_id":"57d7b7bf-9a1e-4c35-8388-96cc980f8410","system_id":"levelo_inurba_marseille","lat":43.22924,"lon":5.35376,"is_reserved":false,"is_disabled":false,"rental_uris":{"android":"levelo://app?vid=57d7b7bf-9a1e-4c35-8388-96cc980f8410","ios":"levelo://app?vid=57d7b7bf-9a1e-4c35-8388-96cc980f8410"},"vehicle_type_id":"4","last_reported":1728119445,"current_range_meters":16000,"station_id":"cpo3532slgdg3j2ikp40","pricing_plan_id":"cebpf4jnsgd1na2vs0mg"},{"bike_id":"82f49e4e-fcac-4087-aece-6f5af1299050","system_id":"levelo_inurba_marseille","lat":43.28409,"lon":5.34991,"is_reserved":false,"is_disabled":false,"rental_uris":{"android":"levelo://app?vid=82f49e4e-fcac-4087-aece-6f5af1299050","ios":"levelo://app?vid=82f49e4e-fcac-4087-aece-6f5af1299050"},"vehicle_type_id":"4","last_reported":1728119445,"current_range_meters":34000,"station_id":"ce4bhbh2rcd13ifvqepg","pricing_plan_id":"cebpf4jnsgd1na2vs0mg"},{"bike_id":"e7882848-be4a-4aa3-93d8-7e62988a1674","system_id":"levelo_inurba_marseille","lat":43.30544,"lon":5.36539,"is_reserved":false,"is_disabled":false,"rental_uris":{"android":"levelo://app?vid=e7882848-be4a-4aa3-93d8-7e62988a1674","ios":"levelo://app?vid=e7882848-be4a-4aa3-93d8-7e62988a1674"},"vehicle_type_id":"4","last_reported":1728119445,"current_range_meters":37600,"station_id":"ce4bgs12rcd13ifvqcag","pricing_plan_id":"cebpf4jnsgd1na2vs0mg"},{"bike_id":"9dbab33a-a6de-4884-889d-97f908258f54","system_id":"levelo_inurba_marseille","lat":43.28465,"lon":5.38409,"is_reserved":false,"is_disabled":false,"rental_uris":{"android":"levelo://app?vid=9dbab33a-a6de-4884-889d-97f908258f54","ios":"levelo://app?vid=9dbab33a-a6de-4884-889d-97f908258f54"},"vehicle_type_id":"4","last_reported":1728119445,"current_range_meters":38800,"station_id":"ce4bh512rcd13ifvqe3g","pricing_plan_id":"cebpf4jnsgd1na2vs0mg"},{"bike_id":"ea0f2492-2138-468f-bd77-ebaca7a464f3","system_id":"levelo_inurba_marseille","lat":43.28419,"lon":5.34992,"is_reserved":false,"is_disabled":false,"rental_uris":{"android":"levelo://app?vid=ea0f2492-2138-468f-bd77-ebaca7a464f3","ios":"levelo://app?vid=ea0f2492-2138-468f-bd77-ebaca7a464f3"},"vehicle_type_id":"4","last_reported":1728119445,"current_range_meters":38400,"station_id":"ce4bhbh2rcd13ifvqepg","pricing_plan_id":"cebpf4jnsgd1na2vs0mg"},{"bike_id":"77c59eab-5250-44c4-be86-099c0defe9c4","system_id":"levelo_inurba_marseille","lat":43.33753,"lon":5.37451,"is_reserved":false,"is_disabled":false,"rental_uris":{"android":"levelo://app?vid=77c59eab-5250-44c4-be86-099c0defe9c4","ios":"levelo://app?vid=77c59eab-5250-44c4-be86-099c0defe9c4"},"vehicle_type_id":"4","last_reported":1728119445,"current_range_meters":26000,"station_id":"","pricing_plan_id":"cebpf4jnsgd1na2vs0mg"},{"bike_id":"6ebd0a4f-f8d3-41aa-806f-489365465bfe","system_id":"levelo_inurba_marseille","lat":43.30808,"lon":5.39185,"is_reserved":false,"is_disabled":false,"rental_uris":{"android":"levelo://app?vid=6ebd0a4f-f8d3-41aa-806f-489365465bfe","ios":"levelo://app?vid=6ebd0a4f-f8d3-41aa-806f-489365465bfe"},"vehicle_type_id":"4","last_reported":1728119445,"current_range_meters":21600,"station_id":"ce4bgkh2rcd13ifvqbk0","pricing_plan_id":"cebpf4jnsgd1na2vs0mg"},{"bike_id":"c9b68f56-64ee-42b4-8db0-f7451aef9767","system_id":"levelo_inurba_marseille","lat":43.25087,"lon":5.39515,"is_reserved":false,"is_disabled":false,"rental_uris":{"android":"levelo://app?vid=c9b68f56-64ee-42b4-8db0-f7451aef9767","ios":"levelo://app?vid=c9b68f56-64ee-42b4-8db0-f7451aef9767"},"vehicle_type_id":"4","last_reported":1728119445,"current_range_meters":12400,"station_id":"ce4bhm12rcd13ifvqgkg","pricing_plan_id":"cebpf4jnsgd1na2vs0mg"},{"bike_id":"18d20e52-1246-44c1-b3fa-f369eec94da5","system_id":"levelo_inurba_marseille","lat":43.23965,"lon":5.36617,"is_reserved":false,"is_disabled":false,"rental_uris":{"android":"levelo://app?vid=18d20e52-1246-44c1-b3fa-f369eec94da5","ios":"levelo://app?vid=18d20e52-1246-44c1-b3fa-f369eec94da5"},"vehicle_type_id":"4","last_reported":1728119445,"current_range_meters":38000,"station_id":"ce4bhi12rcd13ifvqfp0","pricing_plan_id":"cebpf4jnsgd1na2vs0mg"},{"bike_id":"84b07b81-8a90-4e9c-96ec-461a75726f5b","system_id":"levelo_inurba_marseille","lat":43.31996,"lon":5.38157,"is_reserved":false,"is_disabled":false,"rental_uris":{"android":"levelo://app?vid=84b07b81-8a90-4e9c-96ec-461a75726f5b","ios":"levelo://app?vid=84b07b81-8a90-4e9c-96ec-461a75726f5b"},"vehicle_type_id":"4","last_reported":1728119445,"current_range_meters":7200,"station_id":"ce4bhr12rcd13ifvqhpg","pricing_plan_id":"cebpf4jnsgd1na2vs0mg"},{"bike_id":"d3831008-2e40-49ed-9feb-19f1d9f96d9c","system_id":"levelo_inurba_marseille","lat":43.31172,"lon":5.38707,"is_reserved":false,"is_disabled":false,"rental_uris":{"android":"levelo://app?vid=d3831008-2e40-49ed-9feb-19f1d9f96d9c","ios":"levelo://app?vid=d3831008-2e40-49ed-9feb-19f1d9f96d9c"},"vehicle_type_id":"4","last_reported":1728119445,"current_range_meters":18800,"station_id":"ce4bgv12rcd13ifvqcp0","pricing_plan_id":"cebpf4jnsgd1na2vs0mg"},{"bike_id":"fd64ecee-ac04-4942-97bf-8c869e63d1e2","system_id":"levelo_inurba_marseille","lat":43.30802,"lon":5.38151,"is_reserved":false,"is_disabled":false,"rental_uris":{"android":"levelo://app?vid=fd64ecee-ac04-4942-97bf-8c869e63d1e2","ios":"levelo://app?vid=fd64ecee-ac04-4942-97bf-8c869e63d1e2"},"vehicle_type_id":"4","last_reported":1728119445,"current_range_meters":38800,"station_id":"","pricing_plan_id":"cebpf4jnsgd1na2vs0mg"},{"bike_id":"37ff164d-b534-421f-a2e5-5fe005bf2784","system_id":"levelo_inurba_marseille","lat":43.29618,"lon":5.37713,"is_reserved":false,"is_disabled":false,"rental_uris":{"android":"levelo://app?vid=37ff164d-b534-421f-a2e5-5fe005bf2784","ios":"levelo://app?vid=37ff164d-b534-421f-a2e5-5fe005bf2784"},"vehicle_type_id":"4","last_reported":1728119445,"current_range_meters":25600,"station_id":"ce4bgi92rcd13ifvqb90","pricing_plan_id":"cebpf4jnsgd1na2vs0mg"},{"bike_id":"32ceac28-dacd-4d4c-9c55-d75f7e6d1aa1","system_id":"levelo_inurba_marseille","lat":43.30798,"lon":5.43528,"is_reserved":false,"is_disabled":false,"rental_uris":{"android":"levelo://app?vid=32ceac28-dacd-4d4c-9c55-d75f7e6d1aa1","ios":"levelo://app?vid=32ceac28-dacd-4d4c-9c55-d75f7e6d1aa1"},"vehicle_type_id":"4","last_reported":1728119445,"current_range_meters":10000,"station_id":"ce4bhph2rcd13ifvqheg","pricing_plan_id":"cebpf4jnsgd1na2vs0mg"},{"bike_id":"ca47570b-2efc-4631-b07a-832edc9b204f","system_id":"levelo_inurba_marseille","lat":43.23183,"lon":5.39975,"is_reserved":false,"is_disabled":false,"rental_uris":{"android":"levelo://app?vid=ca47570b-2efc-4631-b07a-832edc9b204f","ios":"levelo://app?vid=ca47570b-2efc-4631-b07a-832edc9b204f"},"vehicle_type_id":"4","last_reported":1728119445,"current_range_meters":30000,"station_id":"ce4bhn12rcd13ifvqgqg","pricing_plan_id":"cebpf4jnsgd1na2vs0mg"},{"bike_id":"0965a543-53b5-4e53-9bbf-e83a3a5eabb1","system_id":"levelo_inurba_marseille","lat":43.30959,"lon":5.39036,"is_reserved":false,"is_disabled":false,"rental_uris":{"android":"levelo://app?vid=0965a543-53b5-4e53-9bbf-e83a3a5eabb1","ios":"levelo://app?vid=0965a543-53b5-4e53-9bbf-e83a3a5eabb1"},"vehicle_type_id":"4","last_reported":1728119445,"current_range_meters":26000,"station_id":"ce4bgup2rcd13ifvqco0","pricing_plan_id":"cebpf4jnsgd1na2vs0mg"},{"bike_id":"d70d47b4-6653-431c-a4d2-266e747d2e90","system_id":"levelo_inurba_marseille","lat":43.26064,"lon":5.39395,"is_reserved":false,"is_disabled":false,"rental_uris":{"android":"levelo://app?vid=d70d47b4-6653-431c-a4d2-266e747d2e90","ios":"levelo://app?vid=d70d47b4-6653-431c-a4d2-266e747d2e90"},"vehicle_type_id":"4","last_reported":1728119445,"current_range_meters":21600,"station_id":"ce4bhh92rcd13ifvqfj0","pricing_plan_id":"cebpf4jnsgd1na2vs0mg"},{"bike_id":"37fa6850-a9ca-4349-85c6-0bbb90c58655","system_id":"levelo_inurba_marseille","lat":43.27977,"lon":5.38731,"is_reserved":false,"is_disabled":false,"rental_uris":{"android":"levelo://app?vid=37fa6850-a9ca-4349-85c6-0bbb90c58655","ios":"levelo://app?vid=37fa6850-a9ca-4349-85c6-0bbb90c58655"},"vehicle_type_id":"4","last_reported":1728119445,"current_range_meters":24000,"station_id":"ce4bhg12rcd13ifvqf80","pricing_plan_id":"cebpf4jnsgd1na2vs0mg"},{"bike_id":"b417a8d0-1fac-4a2b-9294-35cea48e57c1","system_id":"levelo_inurba_marseille","lat":43.33024,"lon":5.39044,"is_reserved":false,"is_disabled":false,"rental_uris":{"android":"levelo://app?vid=b417a8d0-1fac-4a2b-9294-35cea48e57c1","ios":"levelo://app?vid=b417a8d0-1fac-4a2b-9294-35cea48e57c1"},"vehicle_type_id":"4","last_reported":1728119445,"current_range_meters":27600,"station_id":"ce4bhr92rcd13ifvqhrg","pricing_plan_id":"cebpf4jnsgd1na2vs0mg"},{"bike_id":"d54b1158-ec6f-4dc3-a7e1-2d0b5958261d","system_id":"levelo_inurba_marseille","lat":43.29561,"lon":5.42278,"is_reserved":false,"is_disabled":false,"rental_uris":{"android":"levelo://app?vid=d54b1158-ec6f-4dc3-a7e1-2d0b5958261d","ios":"levelo://app?vid=d54b1158-ec6f-4dc3-a7e1-2d0b5958261d"},"vehicle_type_id":"4","last_reported":1728119445,"current_range_meters":38800,"station_id":"ce4bhph2rcd13ifvqhdg","pricing_plan_id":"cebpf4jnsgd1na2vs0mg"},{"bike_id":"d5c43e4f-ec76-4579-b5d4-6acbbae67566","system_id":"levelo_inurba_marseille","lat":43.22928,"lon":5.3537,"is_reserved":false,"is_disabled":false,"rental_uris":{"android":"levelo://app?vid=d5c43e4f-ec76-4579-b5d4-6acbbae67566","ios":"levelo://app?vid=d5c43e4f-ec76-4579-b5d4-6acbbae67566"},"vehicle_type_id":"4","last_reported":1728119445,"current_range_meters":22000,"station_id":"cpo3532slgdg3j2ikp40","pricing_plan_id":"cebpf4jnsgd1na2vs0mg"},{"bike_id":"75ce31e2-5f0d-4f06-9d38-6324d9daeecc","system_id":"levelo_inurba_marseille","lat":43.286221,"lon":5.351238,"is_reserved":false,"is_disabled":false,"rental_uris":{"android":"levelo://app?vid=75ce31e2-5f0d-4f06-9d38-6324d9daeecc","ios":"levelo://app?vid=75ce31e2-5f0d-4f06-9d38-6324d9daeecc"},"vehicle_type_id":"4","last_reported":1728119445,"current_range_meters":8400,"station_id":"ce4bhqh2rcd13ifvqhlg","pricing_plan_id":"cebpf4jnsgd1na2vs0mg"},{"bike_id":"a8597e2b-11a4-41b1-af04-3d091354a1e4","system_id":"levelo_inurba_marseille","lat":43.32048,"lon":5.41546,"is_reserved":false,"is_disabled":false,"rental_uris":{"android":"levelo://app?vid=a8597e2b-11a4-41b1-af04-3d091354a1e4","ios":"levelo://app?vid=a8597e2b-11a4-41b1-af04-3d091354a1e4"},"vehicle_type_id":"4","last_reported":1728119445,"current_range_meters":28000,"station_id":"ce4bhq92rcd13ifvqhkg","pricing_plan_id":"cebpf4jnsgd1na2vs0mg"},{"bike_id":"2652d87d-e51f-4777-97ca-7914dd0fe606","system_id":"levelo_inurba_marseille","lat":43.30459,"lon":5.37898,"is_reserved":false,"is_disabled":false,"rental_uris":{"android":"levelo://app?vid=2652d87d-e51f-4777-97ca-7914dd0fe606","ios":"levelo://app?vid=2652d87d-e51f-4777-97ca-7914dd0fe606"},"vehicle_type_id":"4","last_reported":1728119445,"current_range_meters":38800,"station_id":"ce4bgup2rcd13ifvqcn0","pricing_plan_id":"cebpf4jnsgd1na2vs0mg"},{"bike_id":"b0e55a4f-5354-4472-b5e7-f756ee049785","system_id":"levelo_inurba_marseille","lat":43.2694,"lon":5.40247,"is_reserved":false,"is_disabled":false,"rental_uris":{"android":"levelo://app?vid=b0e55a4f-5354-4472-b5e7-f756ee049785","ios":"levelo://app?vid=b0e55a4f-5354-4472-b5e7-f756ee049785"},"vehicle_type_id":"4","last_reported":1728119445,"current_range_meters":36400,"station_id":"cjm6bp8fraef2m0cb0m0","pricing_plan_id":"cebpf4jnsgd1na2vs0mg"},{"bike_id":"3c55647e-56a2-40f0-b2f2-66db6add7370","system_id":"levelo_inurba_marseille","lat":43.29529,"lon":5.39045,"is_reserved":false,"is_disabled":false,"rental_uris":{"android":"levelo://app?vid=3c55647e-56a2-40f0-b2f2-66db6add7370","ios":"levelo://app?vid=3c55647e-56a2-40f0-b2f2-66db6add7370"},"vehicle_type_id":"4","last_reported":1728119445,"current_range_meters":35600,"station_id":"ce4bh3p2rcd13ifvqdp0","pricing_plan_id":"cebpf4jnsgd1na2vs0mg"},{"bike_id":"a9ae33cf-548f-45fa-be4b-09a2be4d3956","system_id":"levelo_inurba_marseille","lat":43.27911,"lon":5.38011,"is_reserved":false,"is_disabled":false,"rental_uris":{"android":"levelo://app?vid=a9ae33cf-548f-45fa-be4b-09a2be4d3956","ios":"levelo://app?vid=a9ae33cf-548f-45fa-be4b-09a2be4d3956"},"vehicle_type_id":"4","last_reported":1728119445,"current_range_meters":19200,"station_id":"ce4bhf92rcd13ifvqf50","pricing_plan_id":"cebpf4jnsgd1na2vs0mg"},{"bike_id":"0a322010-66c3-435f-a6ca-97e5600d7301","system_id":"levelo_inurba_marseille","lat":43.33021,"lon":5.39034,"is_reserved":false,"is_disabled":false,"rental_uris":{"android":"levelo://app?vid=0a322010-66c3-435f-a6ca-97e5600d7301","ios":"levelo://app?vid=0a322010-66c3-435f-a6ca-97e5600d7301"},"vehicle_type_id":"4","last_reported":1728119445,"current_range_meters":25600,"station_id":"ce4bhr92rcd13ifvqhrg","pricing_plan_id":"cebpf4jnsgd1na2vs0mg"},{"bike_id":"305287cc-28a9-45ab-a4dd-c4c6e179f781","system_id":"levelo_inurba_marseille","lat":43.30461,"lon":5.37902,"is_reserved":false,"is_disabled":false,"rental_uris":{"android":"levelo://app?vid=305287cc-28a9-45ab-a4dd-c4c6e179f781","ios":"levelo://app?vid=305287cc-28a9-45ab-a4dd-c4c6e179f781"},"vehicle_type_id":"4","last_reported":1728119445,"current_range_meters":32400,"station_id":"ce4bgup2rcd13ifvqcn0","pricing_plan_id":"cebpf4jnsgd1na2vs0mg"},{"bike_id":"97c3ddce-4e7d-43dc-9cb9-dad625978cd8","system_id":"levelo_inurba_marseille","lat":43.31764,"lon":5.38994,"is_reserved":false,"is_disabled":false,"rental_uris":{"android":"levelo://app?vid=97c3ddce-4e7d-43dc-9cb9-dad625978cd8","ios":"levelo://app?vid=97c3ddce-4e7d-43dc-9cb9-dad625978cd8"},"vehicle_type_id":"4","last_reported":1728119445,"current_range_meters":38000,"station_id":"ce4bhqp2rcd13ifvqhng","pricing_plan_id":"cebpf4jnsgd1na2vs0mg"},{"bike_id":"bf89d10d-344c-4d25-b9a9-777920347943","system_id":"levelo_inurba_marseille","lat":43.305712,"lon":5.372473,"is_reserved":false,"is_disabled":false,"rental_uris":{"android":"levelo://app?vid=bf89d10d-344c-4d25-b9a9-777920347943","ios":"levelo://app?vid=bf89d10d-344c-4d25-b9a9-777920347943"},"vehicle_type_id":"4","last_reported":1728119445,"current_range_meters":26800,"station_id":"ce4bgqh2rcd13ifvqc4g","pricing_plan_id":"cebpf4jnsgd1na2vs0mg"},{"bike_id":"5fad1419-2ea4-4fe1-a7dd-0f43951c79aa","system_id":"levelo_inurba_marseille","lat":43.29327,"lon":5.37071,"is_reserved":false,"is_disabled":false,"rental_uris":{"android":"levelo://app?vid=5fad1419-2ea4-4fe1-a7dd-0f43951c79aa","ios":"levelo://app?vid=5fad1419-2ea4-4fe1-a7dd-0f43951c79aa"},"vehicle_type_id":"4","last_reported":1728119445,"current_range_meters":24400,"station_id":"ce4bgh92rcd13ifvqb40","pricing_plan_id":"cebpf4jnsgd1na2vs0mg"},{"bike_id":"d2e16560-00f3-4046-bf4a-a25bdd634f92","system_id":"levelo_inurba_marseille","lat":43.3054,"lon":5.36561,"is_reserved":false,"is_disabled":false,"rental_uris":{"android":"levelo://app?vid=d2e16560-00f3-4046-bf4a-a25bdd634f92","ios":"levelo://app?vid=d2e16560-00f3-4046-bf4a-a25bdd634f92"},"vehicle_type_id":"4","last_reported":1728119445,"current_range_meters":24400,"station_id":"ce4bgs12rcd13ifvqcag","pricing_plan_id":"cebpf4jnsgd1na2vs0mg"},{"bike_id":"d2801287-9a07-410c-8860-548ca5010bd3","system_id":"levelo_inurba_marseille","lat":43.29221,"lon":5.36047,"is_reserved":false,"is_disabled":false,"rental_uris":{"android":"levelo://app?vid=d2801287-9a07-410c-8860-548ca5010bd3","ios":"levelo://app?vid=d2801287-9a07-410c-8860-548ca5010bd3"},"vehicle_type_id":"4","last_reported":1728119445,"current_range_meters":37600,"station_id":"ce4bhbh2rcd13ifvqeqg","pricing_plan_id":"cebpf4jnsgd1na2vs0mg"},{"bike_id":"d9513a24-3235-43a7-b9a5-1c5cfe37603f","system_id":"levelo_inurba_marseille","lat":43.23052,"lon":5.35486,"is_reserved":false,"is_disabled":false,"rental_uris":{"android":"levelo://app?vid=d9513a24-3235-43a7-b9a5-1c5cfe37603f","ios":"levelo://app?vid=d9513a24-3235-43a7-b9a5-1c5cfe37603f"},"vehicle_type_id":"4","last_reported":1728119445,"current_range_meters":20000,"station_id":"cpo3342slgdg3j2ifvpg","pricing_plan_id":"cebpf4jnsgd1na2vs0mg"},{"bike_id":"61b8e147-1e03-48bd-b16d-2fe479ee3990","system_id":"levelo_inurba_marseille","lat":43.32024,"lon":5.41555,"is_reserved":false,"is_disabled":false,"rental_uris":{"android":"levelo://app?vid=61b8e147-1e03-48bd-b16d-2fe479ee3990","ios":"levelo://app?vid=61b8e147-1e03-48bd-b16d-2fe479ee3990"},"vehicle_type_id":"4","last_reported":1728119445,"current_range_meters":7200,"station_id":"ce4bhq92rcd13ifvqhkg","pricing_plan_id":"cebpf4jnsgd1na2vs0mg"},{"bike_id":"009d6d0e-c1a8-4ddc-b330-ebf04e9c45b9","system_id":"levelo_inurba_marseille","lat":43.29902,"lon":5.43676,"is_reserved":false,"is_disabled":false,"rental_uris":{"android":"levelo://app?vid=009d6d0e-c1a8-4ddc-b330-ebf04e9c45b9","ios":"levelo://app?vid=009d6d0e-c1a8-4ddc-b330-ebf04e9c45b9"},"vehicle_type_id":"4","last_reported":1728119445,"current_range_meters":22000,"station_id":"ce4bhpp2rcd13ifvqhfg","pricing_plan_id":"cebpf4jnsgd1na2vs0mg"},{"bike_id":"aad86208-43f3-40ab-b075-40209bf213ab","system_id":"levelo_inurba_marseille","lat":43.29849,"lon":5.36274,"is_reserved":false,"is_disabled":false,"rental_uris":{"android":"levelo://app?vid=aad86208-43f3-40ab-b075-40209bf213ab","ios":"levelo://app?vid=aad86208-43f3-40ab-b075-40209bf213ab"},"vehicle_type_id":"4","last_reported":1728119445,"current_range_meters":19200,"station_id":"ce4bgpp2rcd13ifvqc3g","pricing_plan_id":"cebpf4jnsgd1na2vs0mg"},{"bike_id":"fef91370-6000-4a95-9afa-44285ac3bc32","system_id":"levelo_inurba_marseille","lat":43.27366,"lon":5.36252,"is_reserved":false,"is_disabled":false,"rental_uris":{"android":"levelo://app?vid=fef91370-6000-4a95-9afa-44285ac3bc32","ios":"levelo://app?vid=fef91370-6000-4a95-9afa-44285ac3bc32"},"vehicle_type_id":"4","last_reported":1728119445,"current_range_meters":36400,"station_id":"ce4bhbh2rcd13ifvqeo0","pricing_plan_id":"cebpf4jnsgd1na2vs0mg"},{"bike_id":"8dc2a198-c6e8-4493-ae61-22c5dabc8df7","system_id":"levelo_inurba_marseille","lat":43.28414,"lon":5.37508,"is_reserved":false,"is_disabled":false,"rental_uris":{"android":"levelo://app?vid=8dc2a198-c6e8-4493-ae61-22c5dabc8df7","ios":"levelo://app?vid=8dc2a198-c6e8-4493-ae61-22c5dabc8df7"},"vehicle_type_id":"4","last_reported":1728119445,"current_range_meters":22400,"station_id":"ce4bh4p2rcd13ifvqe1g","pricing_plan_id":"cebpf4jnsgd1na2vs0mg"},{"bike_id":"e801b355-6ede-41f3-aa7c-a02edf287c12","system_id":"levelo_inurba_marseille","lat":43.23205,"lon":5.35548,"is_reserved":false,"is_disabled":false,"rental_uris":{"android":"levelo://app?vid=e801b355-6ede-41f3-aa7c-a02edf287c12","ios":"levelo://app?vid=e801b355-6ede-41f3-aa7c-a02edf287c12"},"vehicle_type_id":"4","last_reported":1728119445,"current_range_meters":18800,"station_id":"ce4bhu92rcd13ifvqi70","pricing_plan_id":"cebpf4jnsgd1na2vs0mg"},{"bike_id":"1f61efdf-a80f-4aa2-b5c5-cd9ac086d4d4","system_id":"levelo_inurba_marseille","lat":43.29609,"lon":5.38109,"is_reserved":false,"is_disabled":false,"rental_uris":{"android":"levelo://app?vid=1f61efdf-a80f-4aa2-b5c5-cd9ac086d4d4","ios":"levelo://app?vid=1f61efdf-a80f-4aa2-b5c5-cd9ac086d4d4"},"vehicle_type_id":"4","last_reported":1728119445,"current_range_meters":30000,"station_id":"ce4bgl12rcd13ifvqbo0","pricing_plan_id":"cebpf4jnsgd1na2vs0mg"},{"bike_id":"d0898481-3578-40b2-9add-8b714658de6d","system_id":"levelo_inurba_marseille","lat":43.28152,"lon":5.42639,"is_reserved":false,"is_disabled":false,"rental_uris":{"android":"levelo://app?vid=d0898481-3578-40b2-9add-8b714658de6d","ios":"levelo://app?vid=d0898481-3578-40b2-9add-8b714658de6d"},"vehicle_type_id":"4","last_reported":1728119445,"current_range_meters":25200,"station_id":"ce4bhnh2rcd13ifvqgug","pricing_plan_id":"cebpf4jnsgd1na2vs0mg"},{"bike_id":"f97b5d61-9764-4f84-be58-042b4b7617ee","system_id":"levelo_inurba_marseille","lat":43.29027,"lon":5.38135,"is_reserved":false,"is_disabled":false,"rental_uris":{"android":"levelo://app?vid=f97b5d61-9764-4f84-be58-042b4b7617ee","ios":"levelo://app?vid=f97b5d61-9764-4f84-be58-042b4b7617ee"},"vehicle_type_id":"4","last_reported":1728119445,"current_range_meters":24400,"station_id":"ce4bh4p2rcd13ifvqe1g","pricing_plan_id":"cebpf4jnsgd1na2vs0mg"},{"bike_id":"4e0c83a2-b0c3-4894-8559-e509681998d3","system_id":"levelo_inurba_marseille","lat":43.31121,"lon":5.383283,"is_reserved":false,"is_disabled":false,"rental_uris":{"android":"levelo://app?vid=4e0c83a2-b0c3-4894-8559-e509681998d3","ios":"levelo://app?vid=4e0c83a2-b0c3-4894-8559-e509681998d3"},"vehicle_type_id":"4","last_reported":1728119445,"current_range_meters":17200,"station_id":"","pricing_plan_id":"cebpf4jnsgd1na2vs0mg"},{"bike_id":"c2f21302-0bda-4485-a5df-98d1ef9f2991","system_id":"levelo_inurba_marseille","lat":43.23947,"lon":5.38284,"is_reserved":false,"is_disabled":false,"rental_uris":{"android":"levelo://app?vid=c2f21302-0bda-4485-a5df-98d1ef9f2991","ios":"levelo://app?vid=c2f21302-0bda-4485-a5df-98d1ef9f2991"},"vehicle_type_id":"4","last_reported":1728119445,"current_range_meters":8400,"station_id":"","pricing_plan_id":"cebpf4jnsgd1na2vs0mg"},{"bike_id":"1d6013e4-413c-4c40-98d1-96d8a3000d8f","system_id":"levelo_inurba_marseille","lat":43.30795,"lon":5.43519,"is_reserved":false,"is_disabled":false,"rental_uris":{"android":"levelo://app?vid=1d6013e4-413c-4c40-98d1-96d8a3000d8f","ios":"levelo://app?vid=1d6013e4-413c-4c40-98d1-96d8a3000d8f"},"vehicle_type_id":"4","last_reported":1728119445,"current_range_meters":26800,"station_id":"ce4bhph2rcd13ifvqheg","pricing_plan_id":"cebpf4jnsgd1na2vs0mg"},{"bike_id":"6bd517d0-ea18-4be5-87e4-8d096a738ceb","system_id":"levelo_inurba_marseille","lat":43.26211,"lon":5.37439,"is_reserved":false,"is_disabled":false,"rental_uris":{"android":"levelo://app?vid=6bd517d0-ea18-4be5-87e4-8d096a738ceb","ios":"levelo://app?vid=6bd517d0-ea18-4be5-87e4-8d096a738ceb"},"vehicle_type_id":"4","last_reported":1728119445,"current_range_meters":33600,"station_id":"ce4bhgp2rcd13ifvqfc0","pricing_plan_id":"cebpf4jnsgd1na2vs0mg"},{"bike_id":"dcfa5e76-fc24-4843-a557-005994836fd9","system_id":"levelo_inurba_marseille","lat":43.26198,"lon":5.37932,"is_reserved":false,"is_disabled":false,"rental_uris":{"android":"levelo://app?vid=dcfa5e76-fc24-4843-a557-005994836fd9","ios":"levelo://app?vid=dcfa5e76-fc24-4843-a557-005994836fd9"},"vehicle_type_id":"4","last_reported":1728119445,"current_range_meters":6400,"station_id":"ce4bhjp2rcd13ifvqg90","pricing_plan_id":"cebpf4jnsgd1na2vs0mg"},{"bike_id":"89fa5fdf-10d8-4b42-99a5-1fc0724b8688","system_id":"levelo_inurba_marseille","lat":43.30547,"lon":5.36559,"is_reserved":false,"is_disabled":false,"rental_uris":{"android":"levelo://app?vid=89fa5fdf-10d8-4b42-99a5-1fc0724b8688","ios":"levelo://app?vid=89fa5fdf-10d8-4b42-99a5-1fc0724b8688"},"vehicle_type_id":"4","last_reported":1728119445,"current_range_meters":38000,"station_id":"ce4bgs12rcd13ifvqcag","pricing_plan_id":"cebpf4jnsgd1na2vs0mg"},{"bike_id":"d21030f2-a95e-4f76-8f77-1925196d2dbd","system_id":"levelo_inurba_marseille","lat":43.30531,"lon":5.36549,"is_reserved":false,"is_disabled":false,"rental_uris":{"android":"levelo://app?vid=d21030f2-a95e-4f76-8f77-1925196d2dbd","ios":"levelo://app?vid=d21030f2-a95e-4f76-8f77-1925196d2dbd"},"vehicle_type_id":"4","last_reported":1728119445,"current_range_meters":38800,"station_id":"ce4bgs12rcd13ifvqcag","pricing_plan_id":"cebpf4jnsgd1na2vs0mg"},{"bike_id":"aa6ea80f-d3cc-43e6-a69f-38faa11735ba","system_id":"levelo_inurba_marseille","lat":43.239641,"lon":5.366303,"is_reserved":false,"is_disabled":false,"rental_uris":{"android":"levelo://app?vid=aa6ea80f-d3cc-43e6-a69f-38faa11735ba","ios":"levelo://app?vid=aa6ea80f-d3cc-43e6-a69f-38faa11735ba"},"vehicle_type_id":"4","last_reported":1728119445,"current_range_meters":38800,"station_id":"ce4bhi12rcd13ifvqfp0","pricing_plan_id":"cebpf4jnsgd1na2vs0mg"},{"bike_id":"f443927e-992e-4d86-bbf6-2a2ac0a6bf23","system_id":"levelo_inurba_marseille","lat":43.30152,"lon":5.38075,"is_reserved":false,"is_disabled":false,"rental_uris":{"android":"levelo://app?vid=f443927e-992e-4d86-bbf6-2a2ac0a6bf23","ios":"levelo://app?vid=f443927e-992e-4d86-bbf6-2a2ac0a6bf23"},"vehicle_type_id":"4","last_reported":1728119445,"current_range_meters":36800,"station_id":"ce4bgjp2rcd13ifvqbh0","pricing_plan_id":"cebpf4jnsgd1na2vs0mg"},{"bike_id":"2b656128-745d-4ab3-a53b-f9b69c649d8b","system_id":"levelo_inurba_marseille","lat":43.24551,"lon":5.39524,"is_reserved":false,"is_disabled":false,"rental_uris":{"android":"levelo://app?vid=2b656128-745d-4ab3-a53b-f9b69c649d8b","ios":"levelo://app?vid=2b656128-745d-4ab3-a53b-f9b69c649d8b"},"vehicle_type_id":"4","last_reported":1728119445,"current_range_meters":32400,"station_id":"ce4bhlp2rcd13ifvqgjg","pricing_plan_id":"cebpf4jnsgd1na2vs0mg"},{"bike_id":"b0336fdb-5034-4455-a5f3-316dff3a59e1","system_id":"levelo_inurba_marseille","lat":43.31324,"lon":5.39695,"is_reserved":false,"is_disabled":false,"rental_uris":{"android":"levelo://app?vid=b0336fdb-5034-4455-a5f3-316dff3a59e1","ios":"levelo://app?vid=b0336fdb-5034-4455-a5f3-316dff3a59e1"},"vehicle_type_id":"4","last_reported":1728119445,"current_range_meters":32400,"station_id":"ce4bgvp2rcd13ifvqcu0","pricing_plan_id":"cebpf4jnsgd1na2vs0mg"},{"bike_id":"f3ae68b3-754e-4aa9-bf93-c44d35a2ec1d","system_id":"levelo_inurba_marseille","lat":43.28467,"lon":5.38418,"is_reserved":false,"is_disabled":false,"rental_uris":{"android":"levelo://app?vid=f3ae68b3-754e-4aa9-bf93-c44d35a2ec1d","ios":"levelo://app?vid=f3ae68b3-754e-4aa9-bf93-c44d35a2ec1d"},"vehicle_type_id":"4","last_reported":1728119445,"current_range_meters":38800,"station_id":"ce4bh512rcd13ifvqe3g","pricing_plan_id":"cebpf4jnsgd1na2vs0mg"},{"bike_id":"d054fab0-6a9a-4a13-8a72-8f548595cf1c","system_id":"levelo_inurba_marseille","lat":43.31536,"lon":5.38037,"is_reserved":false,"is_disabled":false,"rental_uris":{"android":"levelo://app?vid=d054fab0-6a9a-4a13-8a72-8f548595cf1c","ios":"levelo://app?vid=d054fab0-6a9a-4a13-8a72-8f548595cf1c"},"vehicle_type_id":"4","last_reported":1728119445,"current_range_meters":35600,"station_id":"ce4bhsp2rcd13ifvqi50","pricing_plan_id":"cebpf4jnsgd1na2vs0mg"},{"bike_id":"c2427b12-ee56-48a7-b4d6-2394be78e2d7","system_id":"levelo_inurba_marseille","lat":43.24073,"lon":5.37759,"is_reserved":false,"is_disabled":false,"rental_uris":{"android":"levelo://app?vid=c2427b12-ee56-48a7-b4d6-2394be78e2d7","ios":"levelo://app?vid=c2427b12-ee56-48a7-b4d6-2394be78e2d7"},"vehicle_type_id":"4","last_reported":1728119445,"current_range_meters":34000,"station_id":"ce4bhnp2rcd13ifvqgvg","pricing_plan_id":"cebpf4jnsgd1na2vs0mg"},{"bike_id":"4599a879-c2f9-4065-b013-ab1253c9c024","system_id":"levelo_inurba_marseille","lat":43.31685,"lon":5.40472,"is_reserved":false,"is_disabled":false,"rental_uris":{"android":"levelo://app?vid=4599a879-c2f9-4065-b013-ab1253c9c024","ios":"levelo://app?vid=4599a879-c2f9-4065-b013-ab1253c9c024"},"vehicle_type_id":"4","last_reported":1728119445,"current_range_meters":18800,"station_id":"ce4bh012rcd13ifvqd00","pricing_plan_id":"cebpf4jnsgd1na2vs0mg"},{"bike_id":"0a2fa72e-f748-48ce-bbfa-2d4c7c7a8807","system_id":"levelo_inurba_marseille","lat":43.29037,"lon":5.39973,"is_reserved":false,"is_disabled":false,"rental_uris":{"android":"levelo://app?vid=0a2fa72e-f748-48ce-bbfa-2d4c7c7a8807","ios":"levelo://app?vid=0a2fa72e-f748-48ce-bbfa-2d4c7c7a8807"},"vehicle_type_id":"4","last_reported":1728119445,"current_range_meters":38800,"station_id":"ce4bh392rcd13ifvqdm0","pricing_plan_id":"cebpf4jnsgd1na2vs0mg"},{"bike_id":"fb7b117b-fd8e-4b29-9261-89e69d1ec7cc","system_id":"levelo_inurba_marseille","lat":43.287233,"lon":5.36087,"is_reserved":false,"is_disabled":false,"rental_uris":{"android":"levelo://app?vid=fb7b117b-fd8e-4b29-9261-89e69d1ec7cc","ios":"levelo://app?vid=fb7b117b-fd8e-4b29-9261-89e69d1ec7cc"},"vehicle_type_id":"4","last_reported":1728119445,"current_range_meters":8800,"station_id":"cki0cbj6b192h4jlfktg","pricing_plan_id":"cebpf4jnsgd1na2vs0mg"},{"bike_id":"0870ea19-afa1-48c7-a143-ac82851bbd09","system_id":"levelo_inurba_marseille","lat":43.33751,"lon":5.37429,"is_reserved":false,"is_disabled":false,"rental_uris":{"android":"levelo://app?vid=0870ea19-afa1-48c7-a143-ac82851bbd09","ios":"levelo://app?vid=0870ea19-afa1-48c7-a143-ac82851bbd09"},"vehicle_type_id":"4","last_reported":1728119445,"current_range_meters":38800,"station_id":"","pricing_plan_id":"cebpf4jnsgd1na2vs0mg"},{"bike_id":"b0cc1d89-0026-4600-a22c-06954b5032b0","system_id":"levelo_inurba_marseille","lat":43.25,"lon":5.38926,"is_reserved":false,"is_disabled":false,"rental_uris":{"android":"levelo://app?vid=b0cc1d89-0026-4600-a22c-06954b5032b0","ios":"levelo://app?vid=b0cc1d89-0026-4600-a22c-06954b5032b0"},"vehicle_type_id":"4","last_reported":1728119445,"current_range_meters":34000,"station_id":"ce4bhgp2rcd13ifvqfd0","pricing_plan_id":"cebpf4jnsgd1na2vs0mg"},{"bike_id":"8573e229-9d39-4cc7-a450-029e1afa4549","system_id":"levelo_inurba_marseille","lat":43.27991,"lon":5.41657,"is_reserved":false,"is_disabled":false,"rental_uris":{"android":"levelo://app?vid=8573e229-9d39-4cc7-a450-029e1afa4549","ios":"levelo://app?vid=8573e229-9d39-4cc7-a450-029e1afa4549"},"vehicle_type_id":"4","last_reported":1728119445,"current_range_meters":20400,"station_id":"ce4bho12rcd13ifvqh1g","pricing_plan_id":"cebpf4jnsgd1na2vs0mg"},{"bike_id":"cceeb04a-1145-485a-baa5-ba0b1daa02f8","system_id":"levelo_inurba_marseille","lat":43.29221,"lon":5.36067,"is_reserved":false,"is_disabled":false,"rental_uris":{"android":"levelo://app?vid=cceeb04a-1145-485a-baa5-ba0b1daa02f8","ios":"levelo://app?vid=cceeb04a-1145-485a-baa5-ba0b1daa02f8"},"vehicle_type_id":"4","last_reported":1728119445,"current_range_meters":38400,"station_id":"ce4bhbh2rcd13ifvqeqg","pricing_plan_id":"cebpf4jnsgd1na2vs0mg"},{"bike_id":"bdefae95-7cc5-4880-bfcb-b1af39586be0","system_id":"levelo_inurba_marseille","lat":43.32654,"lon":5.40981,"is_reserved":false,"is_disabled":false,"rental_uris":{"android":"levelo://app?vid=bdefae95-7cc5-4880-bfcb-b1af39586be0","ios":"levelo://app?vid=bdefae95-7cc5-4880-bfcb-b1af39586be0"},"vehicle_type_id":"4","last_reported":1728119445,"current_range_meters":38800,"station_id":"ce4bhpp2rcd13ifvqhgg","pricing_plan_id":"cebpf4jnsgd1na2vs0mg"},{"bike_id":"8979e3ff-f553-42fd-b7f9-fbb00515147b","system_id":"levelo_inurba_marseille","lat":43.311375,"lon":5.383976,"is_reserved":false,"is_disabled":false,"rental_uris":{"android":"levelo://app?vid=8979e3ff-f553-42fd-b7f9-fbb00515147b","ios":"levelo://app?vid=8979e3ff-f553-42fd-b7f9-fbb00515147b"},"vehicle_type_id":"4","last_reported":1728119445,"current_range_meters":12400,"station_id":"","pricing_plan_id":"cebpf4jnsgd1na2vs0mg"},{"bike_id":"bd2636f7-9248-4f3d-aa88-46fab0c8ace3","system_id":"levelo_inurba_marseille","lat":43.30137,"lon":5.38795,"is_reserved":false,"is_disabled":false,"rental_uris":{"android":"levelo://app?vid=bd2636f7-9248-4f3d-aa88-46fab0c8ace3","ios":"levelo://app?vid=bd2636f7-9248-4f3d-aa88-46fab0c8ace3"},"vehicle_type_id":"4","last_reported":1728119445,"current_range_meters":37600,"station_id":"ce4bghh2rcd13ifvqb60","pricing_plan_id":"cebpf4jnsgd1na2vs0mg"},{"bike_id":"4d8f1c05-08af-4ddd-a6dd-d265b2fc668d","system_id":"levelo_inurba_marseille","lat":43.30414,"lon":5.41276,"is_reserved":false,"is_disabled":false,"rental_uris":{"android":"levelo://app?vid=4d8f1c05-08af-4ddd-a6dd-d265b2fc668d","ios":"levelo://app?vid=4d8f1c05-08af-4ddd-a6dd-d265b2fc668d"},"vehicle_type_id":"4","last_reported":1728119445,"current_range_meters":38800,"station_id":"ce4bhop2rcd13ifvqh8g","pricing_plan_id":"cebpf4jnsgd1na2vs0mg"},{"bike_id":"7a90b2f2-d00e-4c33-b981-befe4f1139d2","system_id":"levelo_inurba_marseille","lat":43.23183,"lon":5.39976,"is_reserved":false,"is_disabled":false,"rental_uris":{"android":"levelo://app?vid=7a90b2f2-d00e-4c33-b981-befe4f1139d2","ios":"levelo://app?vid=7a90b2f2-d00e-4c33-b981-befe4f1139d2"},"vehicle_type_id":"4","last_reported":1728119445,"current_range_meters":27600,"station_id":"ce4bhn12rcd13ifvqgqg","pricing_plan_id":"cebpf4jnsgd1na2vs0mg"},{"bike_id":"af92d777-761b-4c49-a2e0-a54aa5ba23c9","system_id":"levelo_inurba_marseille","lat":43.25866,"lon":5.39904,"is_reserved":false,"is_disabled":false,"rental_uris":{"android":"levelo://app?vid=af92d777-761b-4c49-a2e0-a54aa5ba23c9","ios":"levelo://app?vid=af92d777-761b-4c49-a2e0-a54aa5ba23c9"},"vehicle_type_id":"4","last_reported":1728119445,"current_range_meters":36000,"station_id":"ce4bhl92rcd13ifvqghg","pricing_plan_id":"cebpf4jnsgd1na2vs0mg"},{"bike_id":"af9dcca0-a73b-41db-9062-fec2cc7b7578","system_id":"levelo_inurba_marseille","lat":43.2965,"lon":5.3812,"is_reserved":false,"is_disabled":false,"rental_uris":{"android":"levelo://app?vid=af9dcca0-a73b-41db-9062-fec2cc7b7578","ios":"levelo://app?vid=af9dcca0-a73b-41db-9062-fec2cc7b7578"},"vehicle_type_id":"4","last_reported":1728119445,"current_range_meters":16400,"station_id":"ce4bgl12rcd13ifvqbo0","pricing_plan_id":"cebpf4jnsgd1na2vs0mg"},{"bike_id":"1e9e701f-fb8e-430e-be7f-54907f1b9076","system_id":"levelo_inurba_marseille","lat":43.33026,"lon":5.39041,"is_reserved":false,"is_disabled":false,"rental_uris":{"android":"levelo://app?vid=1e9e701f-fb8e-430e-be7f-54907f1b9076","ios":"levelo://app?vid=1e9e701f-fb8e-430e-be7f-54907f1b9076"},"vehicle_type_id":"4","last_reported":1728119445,"current_range_meters":18800,"station_id":"ce4bhr92rcd13ifvqhrg","pricing_plan_id":"cebpf4jnsgd1na2vs0mg"},{"bike_id":"26f290bb-1447-4f43-ab6d-1590e2a06a4b","system_id":"levelo_inurba_marseille","lat":43.31454,"lon":5.37389,"is_reserved":false,"is_disabled":false,"rental_uris":{"android":"levelo://app?vid=26f290bb-1447-4f43-ab6d-1590e2a06a4b","ios":"levelo://app?vid=26f290bb-1447-4f43-ab6d-1590e2a06a4b"},"vehicle_type_id":"4","last_reported":1728119445,"current_range_meters":34000,"station_id":"ce4bgt12rcd13ifvqcd0","pricing_plan_id":"cebpf4jnsgd1na2vs0mg"},{"bike_id":"763fb507-9371-4322-86df-97283fcffce0","system_id":"levelo_inurba_marseille","lat":43.32032,"lon":5.41566,"is_reserved":false,"is_disabled":false,"rental_uris":{"android":"levelo://app?vid=763fb507-9371-4322-86df-97283fcffce0","ios":"levelo://app?vid=763fb507-9371-4322-86df-97283fcffce0"},"vehicle_type_id":"4","last_reported":1728119445,"current_range_meters":32800,"station_id":"ce4bhq92rcd13ifvqhkg","pricing_plan_id":"cebpf4jnsgd1na2vs0mg"},{"bike_id":"a935f785-e553-48dd-820c-a9ba72bf969e","system_id":"levelo_inurba_marseille","lat":43.28271,"lon":5.350635,"is_reserved":false,"is_disabled":false,"rental_uris":{"android":"levelo://app?vid=a935f785-e553-48dd-820c-a9ba72bf969e","ios":"levelo://app?vid=a935f785-e553-48dd-820c-a9ba72bf969e"},"vehicle_type_id":"4","last_reported":1728119445,"current_range_meters":38800,"station_id":"ce4bhbp2rcd13ifvqerg","pricing_plan_id":"cebpf4jnsgd1na2vs0mg"},{"bike_id":"e0a07a08-8ace-4a01-b000-9c812c1d132e","system_id":"levelo_inurba_marseille","lat":43.31537,"lon":5.380314,"is_reserved":false,"is_disabled":false,"rental_uris":{"android":"levelo://app?vid=e0a07a08-8ace-4a01-b000-9c812c1d132e","ios":"levelo://app?vid=e0a07a08-8ace-4a01-b000-9c812c1d132e"},"vehicle_type_id":"4","last_reported":1728119445,"current_range_meters":4400,"station_id":"ce4bhsp2rcd13ifvqi50","pricing_plan_id":"cebpf4jnsgd1na2vs0mg"},{"bike_id":"408e694e-5410-4d1a-b09f-ea034d909554","system_id":"levelo_inurba_marseille","lat":43.28607,"lon":5.35104,"is_reserved":false,"is_disabled":false,"rental_uris":{"android":"levelo://app?vid=408e694e-5410-4d1a-b09f-ea034d909554","ios":"levelo://app?vid=408e694e-5410-4d1a-b09f-ea034d909554"},"vehicle_type_id":"4","last_reported":1728119445,"current_range_meters":28000,"station_id":"ce4bhch2rcd13ifvqeug","pricing_plan_id":"cebpf4jnsgd1na2vs0mg"},{"bike_id":"8c46832e-d5ed-4427-bc29-a4bf6d56b118","system_id":"levelo_inurba_marseille","lat":43.30958,"lon":5.39059,"is_reserved":false,"is_disabled":false,"rental_uris":{"android":"levelo://app?vid=8c46832e-d5ed-4427-bc29-a4bf6d56b118","ios":"levelo://app?vid=8c46832e-d5ed-4427-bc29-a4bf6d56b118"},"vehicle_type_id":"4","last_reported":1728119445,"current_range_meters":35600,"station_id":"ce4bgup2rcd13ifvqco0","pricing_plan_id":"cebpf4jnsgd1na2vs0mg"},{"bike_id":"a0a48911-ae34-4a3f-883c-27ac2f740d77","system_id":"levelo_inurba_marseille","lat":43.29546,"lon":5.42279,"is_reserved":false,"is_disabled":false,"rental_uris":{"android":"levelo://app?vid=a0a48911-ae34-4a3f-883c-27ac2f740d77","ios":"levelo://app?vid=a0a48911-ae34-4a3f-883c-27ac2f740d77"},"vehicle_type_id":"4","last_reported":1728119445,"current_range_meters":9600,"station_id":"ce4bhph2rcd13ifvqhdg","pricing_plan_id":"cebpf4jnsgd1na2vs0mg"},{"bike_id":"fe894fa8-2950-42c3-b21f-a384c41b699b","system_id":"levelo_inurba_marseille","lat":43.31713,"lon":5.4371,"is_reserved":false,"is_disabled":false,"rental_uris":{"android":"levelo://app?vid=fe894fa8-2950-42c3-b21f-a384c41b699b","ios":"levelo://app?vid=fe894fa8-2950-42c3-b21f-a384c41b699b"},"vehicle_type_id":"4","last_reported":1728119445,"current_range_meters":25600,"station_id":"ce4bhp92rcd13ifvqhcg","pricing_plan_id":"cebpf4jnsgd1na2vs0mg"},{"bike_id":"2e87dec4-db0f-4654-b71d-a64d6b06cef5","system_id":"levelo_inurba_marseille","lat":43.31709,"lon":5.43705,"is_reserved":false,"is_disabled":false,"rental_uris":{"android":"levelo://app?vid=2e87dec4-db0f-4654-b71d-a64d6b06cef5","ios":"levelo://app?vid=2e87dec4-db0f-4654-b71d-a64d6b06cef5"},"vehicle_type_id":"4","last_reported":1728119445,"current_range_meters":16000,"station_id":"ce4bhp92rcd13ifvqhcg","pricing_plan_id":"cebpf4jnsgd1na2vs0mg"},{"bike_id":"5cbc9e7e-36a4-4ee2-9b2e-b9b518fe7f8a","system_id":"levelo_inurba_marseille","lat":43.31713,"lon":5.43705,"is_reserved":false,"is_disabled":false,"rental_uris":{"android":"levelo://app?vid=5cbc9e7e-36a4-4ee2-9b2e-b9b518fe7f8a","ios":"levelo://app?vid=5cbc9e7e-36a4-4ee2-9b2e-b9b518fe7f8a"},"vehicle_type_id":"4","last_reported":1728119445,"current_range_meters":36400,"station_id":"ce4bhp92rcd13ifvqhcg","pricing_plan_id":"cebpf4jnsgd1na2vs0mg"},