{"last_updated":1740254928,"ttl":60,"version":"2.2","data":{"bikes":[{"bike_id":"14dd8369-b2d6-4bc2-9c7f-a5ec00571b38","system_id":"levelo_inurba_marseille","lat":43.28866,"lon":5.39314,"is_reserved":false,"is_disabled":true,"rental_uris":{"android":"levelo://app?vid=14dd8369-b2d6-4bc2-9c7f-a5ec00571b38","ios":"levelo://app?vid=14dd8369-b2d6-4bc2-9c7f-a5ec00571b38"},"vehicle_type_id":"4","last_reported":1740254928,"current_range_meters":2800,"station_id":"ce4bh2p2rcd13ifvqdi0","pricing_plan_id":"cebpf4jnsgd1na2vs0mg"},{"bike_id":"35ec6f05-b64c-4e4d-8ca3-6066c738a1dd","system_id":"levelo_inurba_marseille","lat":43.26231,"lon":5.40451,"is_reserved":false,"is_disabled":false,"rental_uris":{"android":"levelo://app?vid=35ec6f05-b64c-4e4d-8ca3-6066c738a1dd","ios":"levelo://app?vid=35ec6f05-b64c-4e4d-8ca3-6066c738a1dd"},"vehicle_type_id":"4","last_reported":1740254928,"current_range_meters":3200,"station_id":"ce4bhmh2rcd13ifvqgmg","pricing_plan_id":"cebpf4jnsgd1na2vs0mg"},{"bike_id":"59f374ba-ae0b-4af3-b933-a8425e3cc934","system_id":"levelo_inurba_marseille","lat":43.26562,"lon":5.37285,"is_reserved":false,"is_disabled":false,"rental_uris":{"android":"levelo://app?vid=59f374ba-ae0b-4af3-b933-a8425e3cc934","ios":"levelo://app?vid=59f374ba-ae0b-4af3-b933-a8425e3cc934"},"vehicle_type_id":"4","last_reported":1740254928,"current_range_meters":3600,"station_id":"ce4bhg12rcd13ifvqf70","pricing_plan_id":"cebpf4jnsgd1na2vs0mg"},{"bike_id":"7c8f3d05-5401-4545-847e-9fcee9ea83d5","system_id":"levelo_inurba_marseille","lat":43.26568,"lon":5.39874,"is_reserved":false,"is_disabled":false,"rental_uris":{"android":"levelo://app?vid=7c8f3d05-5401-4545-847e-9fcee9ea83d5","ios":"levelo://app?vid=7c8f3d05-5401-4545-847e-9fcee9ea83d5"},"vehicle_type_id":"4","last_reported":1740254928,"current_range_meters":3600,"station_id":"","pricing_plan_id":"cebpf4jnsgd1na2vs0mg"},{"bike_id":"1bac58b7-b77b-4bf4-8b38-2a6a9f6003e0","system_id":"levelo_inurba_marseille","lat":43.29305,"lon":5.37456,"is_reserved":false,"is_disabled":false,"rental_uris":{"android":"levelo://app?vid=1bac58b7-b77b-4bf4-8b38-2a6a9f6003e0","ios":"levelo://app?vid=1bac58b7-b77b-4bf4-8b38-2a6a9f6003e0"},"vehicle_type_id":"4","last_reported":1740254928,"current_range_meters":4000,"station_id":"ce4bgi12rcd13ifvqb70","pricing_plan_id":"cebpf4jnsgd1na2vs0mg"},{"bike_id":"f2e5b7dc-4ecb-4a89-afcd-161b852d64a0","system_id":"levelo_inurba_marseille","lat":43.295682,"lon":5.39964,"is_reserved":false,"is_disabled":true,"rental_uris":{"android":"levelo://app?vid=f2e5b7dc-4ecb-4a89-afcd-161b852d64a0","ios":"levelo://app?vid=f2e5b7dc-4ecb-4a89-afcd-161b852d64a0"},"vehicle_type_id":"4","last_reported":1740254928,"current_range_meters":4000,"station_id":"ce4bh312rcd13ifvqdj0","pricing_plan_id":"cebpf4jnsgd1na2vs0mg"},{"bike_id":"7513a470-27ae-4803-984c-3d01857f3acd","system_id":"levelo_inurba_marseille","lat":43.30796,"lon":5.37319,"is_reserved":false,"is_disabled":false,"rental_uris":{"android":"levelo://app?vid=7513a470-27ae-4803-984c-3d01857f3acd","ios":"levelo://app?vid=7513a470-27ae-4803-984c-3d01857f3acd"},"vehicle_type_id":"4","last_reported":1740254928,"current_range_meters":4000,"station_id":"","pricing_plan_id":"cebpf4jnsgd1na2vs0mg"},{"bike_id":"c428a377-df4a-4d69-8d27-1884b3e34b58","system_id":"levelo_inurba_marseille","lat":43.23153,"lon":5.43715,"is_reserved":false,"is_disabled":false,"rental_uris":{"android":"levelo://app?vid=c428a377-df4a-4d69-8d27-1884b3e34b58","ios":"levelo://app?vid=c428a377-df4a-4d69-8d27-1884b3e34b58"},"vehicle_type_id":"4","last_reported":1740254928,"current_range_meters":4000,"station_id":"ce4bhmp2rcd13ifvqgog","pricing_plan_id":"cebpf4jnsgd1na2vs0mg"},{"bike_id":"e06a5e51-884b-4021-a6aa-38076e5c4adf","system_id":"levelo_inurba_marseille","lat":43.29253,"lon":5.37646,"is_reserved":false,"is_disabled":false,"rental_uris":{"android":"levelo://app?vid=e06a5e51-884b-4021-a6aa-38076e5c4adf","ios":"levelo://app?vid=e06a5e51-884b-4021-a6aa-38076e5c4adf"},"vehicle_type_id":"4","last_reported":1740254928,"current_range_meters":4000,"station_id":"ce4bgi12rcd13ifvqb80","pricing_plan_id":"cebpf4jnsgd1na2vs0mg"},{"bike_id":"b3688e12-fe9d-45ae-a348-a1c821eb01e6","system_id":"levelo_inurba_marseille","lat":43.32485,"lon":5.3658,"is_reserved":false,"is_disabled":false,"rental_uris":{"android":"levelo://app?vid=b3688e12-fe9d-45ae-a348-a1c821eb01e6","ios":"levelo://app?vid=b3688e12-fe9d-45ae-a348-a1c821eb01e6"},"vehicle_type_id":"4","last_reported":1740254928,"current_range_meters":4000,"station_id":"ce4bhs12rcd13ifvqhvg","pricing_plan_id":"cebpf4jnsgd1na2vs0mg"},{"bike_id":"b93b1033-bd50-4c71-a874-b95e6307720c","system_id":"levelo_inurba_marseille","lat":43.28091,"lon":5.39653,"is_reserved":false,"is_disabled":false,"rental_uris":{"android":"levelo://app?vid=b93b1033-bd50-4c71-a874-b95e6307720c","ios":"levelo://app?vid=b93b1033-bd50-4c71-a874-b95e6307720c"},"vehicle_type_id":"4","last_reported":1740254928,"current_range_meters":4400,"station_id":"ce4bho12rcd13ifvqh2g","pricing_plan_id":"cebpf4jnsgd1na2vs0mg"},{"bike_id":"1e5b33c7-b617-4241-9c1e-2af8dfd8d94a","system_id":"levelo_inurba_marseille","lat":43.29884,"lon":5.38909,"is_reserved":false,"is_disabled":false,"rental_uris":{"android":"levelo://app?vid=1e5b33c7-b617-4241-9c1e-2af8dfd8d94a","ios":"levelo://app?vid=1e5b33c7-b617-4241-9c1e-2af8dfd8d94a"},"vehicle_type_id":"4","last_reported":1740254928,"current_range_meters":4800,"station_id":"ce4bh392rcd13ifvqdl0","pricing_plan_id":"cebpf4jnsgd1na2vs0mg"},{"bike_id":"aeda1766-64fa-418c-b42e-ffc3fe787a13","system_id":"levelo_inurba_marseille","lat":43.29971,"lon":5.38494,"is_reserved":false,"is_disabled":false,"rental_uris":{"android":"levelo://app?vid=aeda1766-64fa-418c-b42e-ffc3fe787a13","ios":"levelo://app?vid=aeda1766-64fa-418c-b42e-ffc3fe787a13"},"vehicle_type_id":"4","last_reported":1740254928,"current_range_meters":4800,"station_id":"ce4bgj92rcd13ifvqbd0","pricing_plan_id":"cebpf4jnsgd1na2vs0mg"},{"bike_id":"d5f2b673-6af7-4f32-898e-16976bab5e2b","system_id":"levelo_inurba_marseille","lat":43.27224,"lon":5.39182,"is_reserved":false,"is_disabled":false,"rental_uris":{"android":"levelo://app?vid=d5f2b673-6af7-4f32-898e-16976bab5e2b","ios":"levelo://app?vid=d5f2b673-6af7-4f32-898e-16976bab5e2b"},"vehicle_type_id":"4","last_reported":1740254928,"current_range_meters":5600,"station_id":"ce4bhhp2rcd13ifvqfm0","pricing_plan_id":"cebpf4jnsgd1na2vs0mg"},{"bike_id":"3d8ccdbf-1369-419c-be44-b7b9939c8946","system_id":"levelo_inurba_marseille","lat":43.29022,"lon":5.38127,"is_reserved":false,"is_disabled":false,"rental_uris":{"android":"levelo://app?vid=3d8ccdbf-1369-419c-be44-b7b9939c8946","ios":"levelo://app?vid=3d8ccdbf-1369-419c-be44-b7b9939c8946"},"vehicle_type_id":"4","last_reported":1740254928,"current_range_meters":5600,"station_id":"ce4bh4p2rcd13ifvqe1g","pricing_plan_id":"cebpf4jnsgd1na2vs0mg"},{"bike_id":"ca4df272-5395-4c1a-ab10-52dae73f2f99","system_id":"levelo_inurba_marseille","lat":43.27056,"lon":5.40264,"is_reserved":false,"is_disabled":false,"rental_uris":{"android":"levelo://app?vid=ca4df272-5395-4c1a-ab10-52dae73f2f99","ios":"levelo://app?vid=ca4df272-5395-4c1a-ab10-52dae73f2f99"},"vehicle_type_id":"4","last_reported":1740254928,"current_range_meters":5600,"station_id":"","pricing_plan_id":"cebpf4jnsgd1na2vs0mg"},{"bike_id":"2064b8a2-a8f8-432a-b37c-e145a7989b4e","system_id":"levelo_inurba_marseille","lat":43.27178,"lon":5.40997,"is_reserved":false,"is_disabled":false,"rental_uris":{"android":"levelo://app?vid=2064b8a2-a8f8-432a-b37c-e145a7989b4e","ios":"levelo://app?vid=2064b8a2-a8f8-432a-b37c-e145a7989b4e"},"vehicle_type_id":"4","last_reported":1740254928,"current_range_meters":5600,"station_id":"ce4bhl12rcd13ifvqgf0","pricing_plan_id":"cebpf4jnsgd1na2vs0mg"},{"bike_id":"cb533fa1-27a0-45e8-865a-273bc58d3884","system_id":"levelo_inurba_marseille","lat":43.26579,"lon":5.39024,"is_reserved":false,"is_disabled":false,"rental_uris":{"android":"levelo://app?vid=cb533fa1-27a0-45e8-865a-273bc58d3884","ios":"levelo://app?vid=cb533fa1-27a0-45e8-865a-273bc58d3884"},"vehicle_type_id":"4","last_reported":1740254928,"current_range_meters":5600,"station_id":"ce4bhe12rcd13ifvqf30","pricing_plan_id":"cebpf4jnsgd1na2vs0mg"},{"bike_id":"03ed62b3-ee22-4458-a7ee-516b493115ca","system_id":"levelo_inurba_marseille","lat":43.30808,"lon":5.3814,"is_reserved":false,"is_disabled":false,"rental_uris":{"android":"levelo://app?vid=03ed62b3-ee22-4458-a7ee-516b493115ca","ios":"levelo://app?vid=03ed62b3-ee22-4458-a7ee-516b493115ca"},"vehicle_type_id":"4","last_reported":1740254928,"current_range_meters":6000,"station_id":"ce4bgt12rcd13ifvqce0","pricing_plan_id":"cebpf4jnsgd1na2vs0mg"},{"bike_id":"fe8dfc51-dedb-4fd0-9c0c-416a7cc8468e","system_id":"levelo_inurba_marseille","lat":43.29978,"lon":5.38506,"is_reserved":false,"is_disabled":false,"rental_uris":{"android":"levelo://app?vid=fe8dfc51-dedb-4fd0-9c0c-416a7cc8468e","ios":"levelo://app?vid=fe8dfc51-dedb-4fd0-9c0c-416a7cc8468e"},"vehicle_type_id":"4","last_reported":1740254928,"current_range_meters":6000,"station_id":"ce4bgj92rcd13ifvqbd0","pricing_plan_id":"cebpf4jnsgd1na2vs0mg"},{"bike_id":"763347e0-509f-4c48-bea3-08d2c9de5f39","system_id":"levelo_inurba_marseille","lat":43.29419,"lon":5.38632,"is_reserved":false,"is_disabled":false,"rental_uris":{"android":"levelo://app?vid=763347e0-509f-4c48-bea3-08d2c9de5f39","ios":"levelo://app?vid=763347e0-509f-4c48-bea3-08d2c9de5f39"},"vehicle_type_id":"4","last_reported":1740254928,"current_range_meters":6000,"station_id":"ce4bh2h2rcd13ifvqdh0","pricing_plan_id":"cebpf4jnsgd1na2vs0mg"},{"bike_id":"91d2e7a0-2793-4bec-93a6-48a52422b7fa","system_id":"levelo_inurba_marseille","lat":43.29421,"lon":5.3863,"is_reserved":false,"is_disabled":false,"rental_uris":{"android":"levelo://app?vid=91d2e7a0-2793-4bec-93a6-48a52422b7fa","ios":"levelo://app?vid=91d2e7a0-2793-4bec-93a6-48a52422b7fa"},"vehicle_type_id":"4","last_reported":1740254928,"current_range_meters":6000,"station_id":"ce4bh2h2rcd13ifvqdh0","pricing_plan_id":"cebpf4jnsgd1na2vs0mg"},{"bike_id":"292b83ea-3c02-4eb0-953b-bc59d714524a","system_id":"levelo_inurba_marseille","lat":43.286835,"lon":5.385119,"is_reserved":false,"is_disabled":false,"rental_uris":{"android":"levelo://app?vid=292b83ea-3c02-4eb0-953b-bc59d714524a","ios":"levelo://app?vid=292b83ea-3c02-4eb0-953b-bc59d714524a"},"vehicle_type_id":"4","last_reported":1740254928,"current_range_meters":6000,"station_id":"ce4bhnh2rcd13ifvqgtg","pricing_plan_id":"cebpf4jnsgd1na2vs0mg"},{"bike_id":"62be82be-00c6-4544-849f-67cfe021b0c1","system_id":"levelo_inurba_marseille","lat":43.31228,"lon":5.38147,"is_reserved":false,"is_disabled":false,"rental_uris":{"android":"levelo://app?vid=62be82be-00c6-4544-849f-67cfe021b0c1","ios":"levelo://app?vid=62be82be-00c6-4544-849f-67cfe021b0c1"},"vehicle_type_id":"4","last_reported":1740254928,"current_range_meters":6400,"station_id":"","pricing_plan_id":"cebpf4jnsgd1na2vs0mg"},{"bike_id":"a796ac80-1911-4214-a458-24bc9f421151","system_id":"levelo_inurba_marseille","lat":43.3132,"lon":5.37328,"is_reserved":false,"is_disabled":false,"rental_uris":{"android":"levelo://app?vid=a796ac80-1911-4214-a458-24bc9f421151","ios":"levelo://app?vid=a796ac80-1911-4214-a458-24bc9f421151"},"vehicle_type_id":"4","last_reported":1740254928,"current_range_meters":6400,"station_id":"","pricing_plan_id":"cebpf4jnsgd1na2vs0mg"},{"bike_id":"54392dcf-9098-4ade-a5f9-07d42853ec29","system_id":"levelo_inurba_marseille","lat":43.23958,"lon":5.36642,"is_reserved":false,"is_disabled":false,"rental_uris":{"android":"levelo://app?vid=54392dcf-9098-4ade-a5f9-07d42853ec29","ios":"levelo://app?vid=54392dcf-9098-4ade-a5f9-07d42853ec29"},"vehicle_type_id":"4","last_reported":1740254928,"current_range_meters":6400,"station_id":"ce4bhi12rcd13ifvqfp0","pricing_plan_id":"cebpf4jnsgd1na2vs0mg"},{"bike_id":"551296f6-9c25-41a0-8804-ba4f656ebdc2","system_id":"levelo_inurba_marseille","lat":43.23192,"lon":5.39984,"is_reserved":false,"is_disabled":false,"rental_uris":{"android":"levelo://app?vid=551296f6-9c25-41a0-8804-ba4f656ebdc2","ios":"levelo://app?vid=551296f6-9c25-41a0-8804-ba4f656ebdc2"},"vehicle_type_id":"4","last_reported":1740254928,"current_range_meters":6800,"station_id":"ce4bhn12rcd13ifvqgqg","pricing_plan_id":"cebpf4jnsgd1na2vs0mg"},{"bike_id":"caa3bb11-d9f3-41e0-b6ae-f8b61389c8cd","system_id":"levelo_inurba_marseille","lat":43.28153,"lon":5.42635,"is_reserved":false,"is_disabled":false,"rental_uris":{"android":"levelo://app?vid=caa3bb11-d9f3-41e0-b6ae-f8b61389c8cd","ios":"levelo://app?vid=caa3bb11-d9f3-41e0-b6ae-f8b61389c8cd"},"vehicle_type_id":"4","last_reported":1740254928,"current_range_meters":6800,"station_id":"ce4bhnh2rcd13ifvqgug","pricing_plan_id":"cebpf4jnsgd1na2vs0mg"},{"bike_id":"28b716f1-e9f9-47e5-bfe6-bd071a657574","system_id":"levelo_inurba_marseille","lat":43.26494,"lon":5.39543,"is_reserved":false,"is_disabled":false,"rental_uris":{"android":"levelo://app?vid=28b716f1-e9f9-47e5-bfe6-bd071a657574","ios":"levelo://app?vid=28b716f1-e9f9-47e5-bfe6-bd071a657574"},"vehicle_type_id":"4","last_reported":1740254928,"current_range_meters":6800,"station_id":"ce4bhi12rcd13ifvqfq0","pricing_plan_id":"cebpf4jnsgd1na2vs0mg"},{"bike_id":"aea97cab-e54e-4f55-82af-f2dd74c3fac1","system_id":"levelo_inurba_marseille","lat":43.29277,"lon":5.40115,"is_reserved":false,"is_disabled":false,"rental_uris":{"android":"levelo://app?vid=aea97cab-e54e-4f55-82af-f2dd74c3fac1","ios":"levelo://app?vid=aea97cab-e54e-4f55-82af-f2dd74c3fac1"},"vehicle_type_id":"4","last_reported":1740254928,"current_range_meters":6800,"station_id":"ce4bh312rcd13ifvqdk0","pricing_plan_id":"cebpf4jnsgd1na2vs0mg"},{"bike_id":"cdcaa430-7d36-4cad-a4b6-1a54a49f2953","system_id":"levelo_inurba_marseille","lat":43.30143,"lon":5.37413,"is_reserved":false,"is_disabled":false,"rental_uris":{"android":"levelo://app?vid=cdcaa430-7d36-4cad-a4b6-1a54a49f2953","ios":"levelo://app?vid=cdcaa430-7d36-4cad-a4b6-1a54a49f2953"},"vehicle_type_id":"4","last_reported":1740254928,"current_range_meters":6800,"station_id":"ce4bgs92rcd13ifvqcc0","pricing_plan_id":"cebpf4jnsgd1na2vs0mg"},{"bike_id":"2c5430a7-3583-4ae1-abd7-31976bb7717c","system_id":"levelo_inurba_marseille","lat":43.30342,"lon":5.419,"is_reserved":false,"is_disabled":false,"rental_uris":{"android":"levelo://app?vid=2c5430a7-3583-4ae1-abd7-31976bb7717c","ios":"levelo://app?vid=2c5430a7-3583-4ae1-abd7-31976bb7717c"},"vehicle_type_id":"4","last_reported":1740254928,"current_range_meters":6800,"station_id":"ce4bhop2rcd13ifvqh7g","pricing_plan_id":"cebpf4jnsgd1na2vs0mg"},{"bike_id":"8414a03d-e42f-496e-9f0f-bc5cdcfe56aa","system_id":"levelo_inurba_marseille","lat":43.26557,"lon":5.37289,"is_reserved":false,"is_disabled":false,"rental_uris":{"android":"levelo://app?vid=8414a03d-e42f-496e-9f0f-bc5cdcfe56aa","ios":"levelo://app?vid=8414a03d-e42f-496e-9f0f-bc5cdcfe56aa"},"vehicle_type_id":"4","last_reported":1740254928,"current_range_meters":7200,"station_id":"ce4bhg12rcd13ifvqf70","pricing_plan_id":"cebpf4jnsgd1na2vs0mg"},{"bike_id":"e9d1195d-e8d9-4e6a-ac90-fbcf3c7456ae","system_id":"levelo_inurba_marseille","lat":43.2794,"lon":5.41049,"is_reserved":false,"is_disabled":false,"rental_uris":{"android":"levelo://app?vid=e9d1195d-e8d9-4e6a-ac90-fbcf3c7456ae","ios":"levelo://app?vid=e9d1195d-e8d9-4e6a-ac90-fbcf3c7456ae"},"vehicle_type_id":"4","last_reported":1740254928,"current_range_meters":7200,"station_id":"ce4bhnp2rcd13ifvqh0g","pricing_plan_id":"cebpf4jnsgd1na2vs0mg"},{"bike_id":"c3c30985-02be-4a13-90af-d702f6922290","system_id":"levelo_inurba_marseille","lat":43.23954,"lon":5.36642,"is_reserved":false,"is_disabled":false,"rental_uris":{"android":"levelo://app?vid=c3c30985-02be-4a13-90af-d702f6922290","ios":"levelo://app?vid=c3c30985-02be-4a13-90af-d702f6922290"},"vehicle_type_id":"4","last_reported":1740254928,"current_range_meters":7200,"station_id":"ce4bhi12rcd13ifvqfp0","pricing_plan_id":"cebpf4jnsgd1na2vs0mg"},{"bike_id":"91cd9c50-a708-4ca7-8c38-9684716b8855","system_id":"levelo_inurba_marseille","lat":43.33784,"lon":5.37432,"is_reserved":false,"is_disabled":false,"rental_uris":{"android":"levelo://app?vid=91cd9c50-a708-4ca7-8c38-9684716b8855","ios":"levelo://app?vid=91cd9c50-a708-4ca7-8c38-9684716b8855"},"vehicle_type_id":"4","last_reported":1740254928,"current_range_meters":7200,"station_id":"","pricing_plan_id":"cebpf4jnsgd1na2vs0mg"},{"bike_id":"d70eab69-1c78-44df-9931-e570f2cc3636","system_id":"levelo_inurba_marseille","lat":43.25721,"lon":5.41114,"is_reserved":false,"is_disabled":false,"rental_uris":{"android":"levelo://app?vid=d70eab69-1c78-44df-9931-e570f2cc3636","ios":"levelo://app?vid=d70eab69-1c78-44df-9931-e570f2cc3636"},"vehicle_type_id":"4","last_reported":1740254928,"current_range_meters":7200,"station_id":"ce4bhkp2rcd13ifvqgd0","pricing_plan_id":"cebpf4jnsgd1na2vs0mg"},{"bike_id":"e011fc15-7223-4863-8dfc-d7268d6eab1a","system_id":"levelo_inurba_marseille","lat":43.31982,"lon":5.38725,"is_reserved":false,"is_disabled":false,"rental_uris":{"android":"levelo://app?vid=e011fc15-7223-4863-8dfc-d7268d6eab1a","ios":"levelo://app?vid=e011fc15-7223-4863-8dfc-d7268d6eab1a"},"vehicle_type_id":"4","last_reported":1740254928,"current_range_meters":7200,"station_id":"","pricing_plan_id":"cebpf4jnsgd1na2vs0mg"},{"bike_id":"a7787bdf-f967-4ec4-a4a5-aaabd53b1877","system_id":"levelo_inurba_marseille","lat":43.2619,"lon":5.42071,"is_reserved":false,"is_disabled":false,"rental_uris":{"android":"levelo://app?vid=a7787bdf-f967-4ec4-a4a5-aaabd53b1877","ios":"levelo://app?vid=a7787bdf-f967-4ec4-a4a5-aaabd53b1877"},"vehicle_type_id":"4","last_reported":1740254928,"current_range_meters":7200,"station_id":"","pricing_plan_id":"cebpf4jnsgd1na2vs0mg"},{"bike_id":"5209ac65-e870-4906-83be-9c07a9b32921","system_id":"levelo_inurba_marseille","lat":43.30194,"lon":5.36619,"is_reserved":false,"is_disabled":false,"rental_uris":{"android":"levelo://app?vid=5209ac65-e870-4906-83be-9c07a9b32921","ios":"levelo://app?vid=5209ac65-e870-4906-83be-9c07a9b32921"},"vehicle_type_id":"4","last_reported":1740254928,"current_range_meters":8000,"station_id":"ce4bgrh2rcd13ifvqc8g","pricing_plan_id":"cebpf4jnsgd1na2vs0mg"},{"bike_id":"f7e832b5-cd58-445a-bb85-4bb1c9e80b75","system_id":"levelo_inurba_marseille","lat":43.28151,"lon":5.42649,"is_reserved":false,"is_disabled":false,"rental_uris":{"android":"levelo://app?vid=f7e832b5-cd58-445a-bb85-4bb1c9e80b75","ios":"levelo://app?vid=f7e832b5-cd58-445a-bb85-4bb1c9e80b75"},"vehicle_type_id":"4","last_reported":1740254928,"current_range_meters":8000,"station_id":"ce4bhnh2rcd13ifvqgug","pricing_plan_id":"cebpf4jnsgd1na2vs0mg"},{"bike_id":"f20443a2-2ea9-4edd-851c-6735999f320f","system_id":"levelo_inurba_marseille","lat":43.29268,"lon":5.38438,"is_reserved":false,"is_disabled":false,"rental_uris":{"android":"levelo://app?vid=f20443a2-2ea9-4edd-851c-6735999f320f","ios":"levelo://app?vid=f20443a2-2ea9-4edd-851c-6735999f320f"},"vehicle_type_id":"4","last_reported":1740254928,"current_range_meters":8000,"station_id":"","pricing_plan_id":"cebpf4jnsgd1na2vs0mg"},{"bike_id":"ab46b189-6bae-4129-a7fd-10b3ccd5a48e","system_id":"levelo_inurba_marseille","lat":43.27201,"lon":5.40019,"is_reserved":false,"is_disabled":false,"rental_uris":{"android":"levelo://app?vid=ab46b189-6bae-4129-a7fd-10b3ccd5a48e","ios":"levelo://app?vid=ab46b189-6bae-4129-a7fd-10b3ccd5a48e"},"vehicle_type_id":"4","last_reported":1740254928,"current_range_meters":8000,"station_id":"","pricing_plan_id":"cebpf4jnsgd1na2vs0mg"},{"bike_id":"91817d94-291a-47c9-91fa-831208abfdc7","system_id":"levelo_inurba_marseille","lat":43.230657,"lon":5.354862,"is_reserved":false,"is_disabled":false,"rental_uris":{"android":"levelo://app?vid=91817d94-291a-47c9-91fa-831208abfdc7","ios":"levelo://app?vid=91817d94-291a-47c9-91fa-831208abfdc7"},"vehicle_type_id":"4","last_reported":1740254928,"current_range_meters":8000,"station_id":"cpo3342slgdg3j2ifvpg","pricing_plan_id":"cebpf4jnsgd1na2vs0mg"},{"bike_id":"fa83beb1-2405-4db0-9826-c091cb751783","system_id":"levelo_inurba_marseille","lat":43.25105,"lon":5.40325,"is_reserved":false,"is_disabled":true,"rental_uris":{"android":"levelo://app?vid=fa83beb1-2405-4db0-9826-c091cb751783","ios":"levelo://app?vid=fa83beb1-2405-4db0-9826-c091cb751783"},"vehicle_type_id":"4","last_reported":1740254928,"current_range_meters":8000,"station_id":"ce4bhlh2rcd13ifvqgig","pricing_plan_id":"cebpf4jnsgd1na2vs0mg"},{"bike_id":"496feeef-cfe5-4278-8e5f-e700a0f5d432","system_id":"levelo_inurba_marseille","lat":43.26198,"lon":5.37455,"is_reserved":false,"is_disabled":false,"rental_uris":{"android":"levelo://app?vid=496feeef-cfe5-4278-8e5f-e700a0f5d432","ios":"levelo://app?vid=496feeef-cfe5-4278-8e5f-e700a0f5d432"},"vehicle_type_id":"4","last_reported":1740254928,"current_range_meters":8400,"station_id":"ce4bhgp2rcd13ifvqfc0","pricing_plan_id":"cebpf4jnsgd1na2vs0mg"},{"bike_id":"f32fe46d-1120-4c2c-97c5-cdbf2de4ccec","system_id":"levelo_inurba_marseille","lat":43.25933,"lon":5.40884,"is_reserved":false,"is_disabled":false,"rental_uris":{"android":"levelo://app?vid=f32fe46d-1120-4c2c-97c5-cdbf2de4ccec","ios":"levelo://app?vid=f32fe46d-1120-4c2c-97c5-cdbf2de4ccec"},"vehicle_type_id":"4","last_reported":1740254928,"current_range_meters":8400,"station_id":"ce4bhm92rcd13ifvqglg","pricing_plan_id":"cebpf4jnsgd1na2vs0mg"},{"bike_id":"a32db01c-f31e-44d9-86ce-f982de71749a","system_id":"levelo_inurba_marseille","lat":43.25711,"lon":5.41182,"is_reserved":false,"is_disabled":false,"rental_uris":{"android":"levelo://app?vid=a32db01c-f31e-44d9-86ce-f982de71749a","ios":"levelo://app?vid=a32db01c-f31e-44d9-86ce-f982de71749a"},"vehicle_type_id":"4","last_reported":1740254928,"current_range_meters":8400,"station_id":"","pricing_plan_id":"cebpf4jnsgd1na2vs0mg"},{"bike_id":"6d31838c-53f9-4375-96eb-6ea63dcd4ee2","system_id":"levelo_inurba_marseille","lat":43.26844,"lon":5.39441,"is_reserved":false,"is_disabled":false,"rental_uris":{"android":"levelo://app?vid=6d31838c-53f9-4375-96eb-6ea63dcd4ee2","ios":"levelo://app?vid=6d31838c-53f9-4375-96eb-6ea63dcd4ee2"},"vehicle_type_id":"4","last_reported":1740254928,"current_range_meters":8400,"station_id":"","pricing_plan_id":"cebpf4jnsgd1na2vs0mg"},{"bike_id":"6d48938c-9b80-49b7-89e5-950ba7a6ce63","system_id":"levelo_inurba_marseille","lat":43.25933,"lon":5.40902,"is_reserved":false,"is_disabled":false,"rental_uris":{"android":"levelo://app?vid=6d48938c-9b80-49b7-89e5-950ba7a6ce63","ios":"levelo://app?vid=6d48938c-9b80-49b7-89e5-950ba7a6ce63"},"vehicle_type_id":"4","last_reported":1740254928,"current_range_meters":8400,"station_id":"ce4bhm92rcd13ifvqglg","pricing_plan_id":"cebpf4jnsgd1na2vs0mg"},{"bike_id":"17e811af-37b0-4a1c-a44f-2a9ce52344d2","system_id":"levelo_inurba_marseille","lat":43.2932,"lon":5.37191,"is_reserved":false,"is_disabled":false,"rental_uris":{"android":"levelo://app?vid=17e811af-37b0-4a1c-a44f-2a9ce52344d2","ios":"levelo://app?vid=17e811af-37b0-4a1c-a44f-2a9ce52344d2"},"vehicle_type_id":"4","last_reported":1740254928,"current_range_meters":8400,"station_id":"ce4bgh92rcd13ifvqb40","pricing_plan_id":"cebpf4jnsgd1na2vs0mg"},{"bike_id":"06c1cfbc-fa91-49bb-b19a-6e46698133d5","system_id":"levelo_inurba_marseille","lat":43.29798,"lon":5.38104,"is_reserved":false,"is_disabled":false,"rental_uris":{"android":"levelo://app?vid=06c1cfbc-fa91-49bb-b19a-6e46698133d5","ios":"levelo://app?vid=06c1cfbc-fa91-49bb-b19a-6e46698133d5"},"vehicle_type_id":"4","last_reported":1740254928,"current_range_meters":8400,"station_id":"ce4bgip2rcd13ifvqbb0","pricing_plan_id":"cebpf4jnsgd1na2vs0mg"},{"bike_id":"e9e28c42-6ce7-4a79-8948-c905940df318","system_id":"levelo_inurba_marseille","lat":43.28703,"lon":5.37938,"is_reserved":false,"is_disabled":false,"rental_uris":{"android":"levelo://app?vid=e9e28c42-6ce7-4a79-8948-c905940df318","ios":"levelo://app?vid=e9e28c42-6ce7-4a79-8948-c905940df318"},"vehicle_type_id":"4","last_reported":1740254928,"current_range_meters":8800,"station_id":"ce4bh9p2rcd13ifvqec0","pricing_plan_id":"cebpf4jnsgd1na2vs0mg"},{"bike_id":"028aa8ce-2d14-49cf-8839-9643254bdf3e","system_id":"levelo_inurba_marseille","lat":43.27055,"lon":5.40264,"is_reserved":false,"is_disabled":false,"rental_uris":{"android":"levelo://app?vid=028aa8ce-2d14-49cf-8839-9643254bdf3e","ios":"levelo://app?vid=028aa8ce-2d14-49cf-8839-9643254bdf3e"},"vehicle_type_id":"4","last_reported":1740254928,"current_range_meters":8800,"station_id":"ce4bhk92rcd13ifvqgc0","pricing_plan_id":"cebpf4jnsgd1na2vs0mg"},{"bike_id":"4a2d4025-43d5-412e-8f09-8ffaadd19824","system_id":"levelo_inurba_marseille","lat":43.23202,"lon":5.35549,"is_reserved":false,"is_disabled":false,"rental_uris":{"android":"levelo://app?vid=4a2d4025-43d5-412e-8f09-8ffaadd19824","ios":"levelo://app?vid=4a2d4025-43d5-412e-8f09-8ffaadd19824"},"vehicle_type_id":"4","last_reported":1740254928,"current_range_meters":8800,"station_id":"ce4bhu92rcd13ifvqi70","pricing_plan_id":"cebpf4jnsgd1na2vs0mg"},{"bike_id":"7ca466d0-2677-4595-86bb-61437de469fc","system_id":"levelo_inurba_marseille","lat":43.28081,"lon":5.39661,"is_reserved":false,"is_disabled":false,"rental_uris":{"android":"levelo://app?vid=7ca466d0-2677-4595-86bb-61437de469fc","ios":"levelo://app?vid=7ca466d0-2677-4595-86bb-61437de469fc"},"vehicle_type_id":"4","last_reported":1740254928,"current_range_meters":9200,"station_id":"ce4bho12rcd13ifvqh2g","pricing_plan_id":"cebpf4jnsgd1na2vs0mg"},{"bike_id":"f668bdd3-22f1-44a6-959a-688ea59c08bf","system_id":"levelo_inurba_marseille","lat":43.29597,"lon":5.38095,"is_reserved":false,"is_disabled":false,"rental_uris":{"android":"levelo://app?vid=f668bdd3-22f1-44a6-959a-688ea59c08bf","ios":"levelo://app?vid=f668bdd3-22f1-44a6-959a-688ea59c08bf"},"vehicle_type_id":"4","last_reported":1740254928,"current_range_meters":8800,"station_id":"ce4bgl12rcd13ifvqbo0","pricing_plan_id":"cebpf4jnsgd1na2vs0mg"},{"bike_id":"31ca8a49-050a-48c2-ab2c-130b1df5b394","system_id":"levelo_inurba_marseille","lat":43.287974,"lon":5.39145,"is_reserved":false,"is_disabled":false,"rental_uris":{"android":"levelo://app?vid=31ca8a49-050a-48c2-ab2c-130b1df5b394","ios":"levelo://app?vid=31ca8a49-050a-48c2-ab2c-130b1df5b394"},"vehicle_type_id":"4","last_reported":1740254928,"current_range_meters":9600,"station_id":"ce4bh3h2rcd13ifvqdn0","pricing_plan_id":"cebpf4jnsgd1na2vs0mg"},{"bike_id":"78ccc1b5-e05d-4c30-bc5b-473f9d97e2cd","system_id":"levelo_inurba_marseille","lat":43.30124,"lon":5.37829,"is_reserved":false,"is_disabled":false,"rental_uris":{"android":"levelo://app?vid=78ccc1b5-e05d-4c30-bc5b-473f9d97e2cd","ios":"levelo://app?vid=78ccc1b5-e05d-4c30-bc5b-473f9d97e2cd"},"vehicle_type_id":"4","last_reported":1740254928,"current_range_meters":9200,"station_id":"","pricing_plan_id":"cebpf4jnsgd1na2vs0mg"},{"bike_id":"06c7d04b-0c73-473f-9f55-ff858732e591","system_id":"levelo_inurba_marseille","lat":43.26561,"lon":5.39014,"is_reserved":false,"is_disabled":false,"rental_uris":{"android":"levelo://app?vid=06c7d04b-0c73-473f-9f55-ff858732e591","ios":"levelo://app?vid=06c7d04b-0c73-473f-9f55-ff858732e591"},"vehicle_type_id":"4","last_reported":1740254928,"current_range_meters":9200,"station_id":"ce4bhe12rcd13ifvqf30","pricing_plan_id":"cebpf4jnsgd1na2vs0mg"},{"bike_id":"7bf9524e-fea9-4ff8-800d-d66c5e1b6889","system_id":"levelo_inurba_marseille","lat":43.23151,"lon":5.43691,"is_reserved":false,"is_disabled":false,"rental_uris":{"android":"levelo://app?vid=7bf9524e-fea9-4ff8-800d-d66c5e1b6889","ios":"levelo://app?vid=7bf9524e-fea9-4ff8-800d-d66c5e1b6889"},"vehicle_type_id":"4","last_reported":1740254928,"current_range_meters":9200,"station_id":"ce4bhmp2rcd13ifvqgog","pricing_plan_id":"cebpf4jnsgd1na2vs0mg"},{"bike_id":"7cd0efd6-2261-4375-9640-88333c215cba","system_id":"levelo_inurba_marseille","lat":43.29294,"lon":5.37465,"is_reserved":false,"is_disabled":false,"rental_uris":{"android":"levelo://app?vid=7cd0efd6-2261-4375-9640-88333c215cba","ios":"levelo://app?vid=7cd0efd6-2261-4375-9640-88333c215cba"},"vehicle_type_id":"4","last_reported":1740254928,"current_range_meters":9200,"station_id":"ce4bgi12rcd13ifvqb70","pricing_plan_id":"cebpf4jnsgd1na2vs0mg"},{"bike_id":"b985ad1f-1942-453b-b5eb-7462cafd1e31","system_id":"levelo_inurba_marseille","lat":43.2319,"lon":5.35561,"is_reserved":false,"is_disabled":false,"rental_uris":{"android":"levelo://app?vid=b985ad1f-1942-453b-b5eb-7462cafd1e31","ios":"levelo://app?vid=b985ad1f-1942-453b-b5eb-7462cafd1e31"},"vehicle_type_id":"4","last_reported":1740254928,"current_range_meters":9200,"station_id":"ce4bhu92rcd13ifvqi70","pricing_plan_id":"cebpf4jnsgd1na2vs0mg"},{"bike_id":"a50edaad-8046-4609-a29a-e87467eb52ad","system_id":"levelo_inurba_marseille","lat":43.29415,"lon":5.38637,"is_reserved":false,"is_disabled":false,"rental_uris":{"android":"levelo://app?vid=a50edaad-8046-4609-a29a-e87467eb52ad","ios":"levelo://app?vid=a50edaad-8046-4609-a29a-e87467eb52ad"},"vehicle_type_id":"4","last_reported":1740254928,"current_range_meters":9600,"station_id":"ce4bh2h2rcd13ifvqdh0","pricing_plan_id":"cebpf4jnsgd1na2vs0mg"},{"bike_id":"5d2d1a8c-deab-4dc2-9082-406187fb677f","system_id":"levelo_inurba_marseille","lat":43.27904,"lon":5.37999,"is_reserved":false,"is_disabled":false,"rental_uris":{"android":"levelo://app?vid=5d2d1a8c-deab-4dc2-9082-406187fb677f","ios":"levelo://app?vid=5d2d1a8c-deab-4dc2-9082-406187fb677f"},"vehicle_type_id":"4","last_reported":1740254928,"current_range_meters":9600,"station_id":"ce4bhf92rcd13ifvqf50","pricing_plan_id":"cebpf4jnsgd1na2vs0mg"},{"bike_id":"6b42034c-3d31-4543-aebc-b03e8643c20b","system_id":"levelo_inurba_marseille","lat":43.25115,"lon":5.40334,"is_reserved":false,"is_disabled":false,"rental_uris":{"android":"levelo://app?vid=6b42034c-3d31-4543-aebc-b03e8643c20b","ios":"levelo://app?vid=6b42034c-3d31-4543-aebc-b03e8643c20b"},"vehicle_type_id":"4","last_reported":1740254928,"current_range_meters":9600,"station_id":"ce4bhlh2rcd13ifvqgig","pricing_plan_id":"cebpf4jnsgd1na2vs0mg"},{"bike_id":"b0929dd1-e581-4b93-ba2a-d7abc0648030","system_id":"levelo_inurba_marseille","lat":43.31361,"lon":5.38487,"is_reserved":false,"is_disabled":false,"rental_uris":{"android":"levelo://app?vid=b0929dd1-e581-4b93-ba2a-d7abc0648030","ios":"levelo://app?vid=b0929dd1-e581-4b93-ba2a-d7abc0648030"},"vehicle_type_id":"4","last_reported":1740254928,"current_range_meters":9600,"station_id":"ce4bgt92rcd13ifvqcf0","pricing_plan_id":"cebpf4jnsgd1na2vs0mg"},{"bike_id":"142dd829-4ceb-4d8e-a91d-126b9ddb9899","system_id":"levelo_inurba_marseille","lat":43.29249,"lon":5.38435,"is_reserved":false,"is_disabled":false,"rental_uris":{"android":"levelo://app?vid=142dd829-4ceb-4d8e-a91d-126b9ddb9899","ios":"levelo://app?vid=142dd829-4ceb-4d8e-a91d-126b9ddb9899"},"vehicle_type_id":"4","last_reported":1740254928,"current_range_meters":9600,"station_id":"ce4bh692rcd13ifvqea0","pricing_plan_id":"cebpf4jnsgd1na2vs0mg"},{"bike_id":"098ba318-f0ee-4c81-991e-ba2f5a0cbad4","system_id":"levelo_inurba_marseille","lat":43.2761,"lon":5.36115,"is_reserved":false,"is_disabled":false,"rental_uris":{"android":"levelo://app?vid=098ba318-f0ee-4c81-991e-ba2f5a0cbad4","ios":"levelo://app?vid=098ba318-f0ee-4c81-991e-ba2f5a0cbad4"},"vehicle_type_id":"4","last_reported":1740254928,"current_range_meters":9600,"station_id":"ce4bgj92rcd13ifvqbe0","pricing_plan_id":"cebpf4jnsgd1na2vs0mg"},{"bike_id":"847faa43-33c3-41d1-a7e0-b0d242ce4a7b","system_id":"levelo_inurba_marseille","lat":43.29099,"lon":5.38115,"is_reserved":false,"is_disabled":false,"rental_uris":{"android":"levelo://app?vid=847faa43-33c3-41d1-a7e0-b0d242ce4a7b","ios":"levelo://app?vid=847faa43-33c3-41d1-a7e0-b0d242ce4a7b"},"vehicle_type_id":"4","last_reported":1740254928,"current_range_meters":9600,"station_id":"ce4bh512rcd13ifvqe2g","pricing_plan_id":"cebpf4jnsgd1na2vs0mg"},{"bike_id":"aa820ec7-7f35-4387-8fea-99b9db869428","system_id":"levelo_inurba_marseille","lat":43.29579,"lon":5.38054,"is_reserved":false,"is_disabled":false,"rental_uris":{"android":"levelo://app?vid=aa820ec7-7f35-4387-8fea-99b9db869428","ios":"levelo://app?vid=aa820ec7-7f35-4387-8fea-99b9db869428"},"vehicle_type_id":"4","last_reported":1740254928,"current_range_meters":9600,"station_id":"ce4bgl12rcd13ifvqbo0","pricing_plan_id":"cebpf4jnsgd1na2vs0mg"},{"bike_id":"f65e14d9-9d98-4273-878d-64aa1ddbd1a3","system_id":"levelo_inurba_marseille","lat":43.24075,"lon":5.37759,"is_reserved":false,"is_disabled":false,"rental_uris":{"android":"levelo://app?vid=f65e14d9-9d98-4273-878d-64aa1ddbd1a3","ios":"levelo://app?vid=f65e14d9-9d98-4273-878d-64aa1ddbd1a3"},"vehicle_type_id":"4","last_reported":1740254928,"current_range_meters":9600,"station_id":"ce4bhnp2rcd13ifvqgvg","pricing_plan_id":"cebpf4jnsgd1na2vs0mg"},{"bike_id":"c3e52c73-d5a6-4495-93d8-58a72c86c1ed","system_id":"levelo_inurba_marseille","lat":43.29272,"lon":5.38447,"is_reserved":false,"is_disabled":false,"rental_uris":{"android":"levelo://app?vid=c3e52c73-d5a6-4495-93d8-58a72c86c1ed","ios":"levelo://app?vid=c3e52c73-d5a6-4495-93d8-58a72c86c1ed"},"vehicle_type_id":"4","last_reported":1740254928,"current_range_meters":9600,"station_id":"ce4bh692rcd13ifvqea0","pricing_plan_id":"cebpf4jnsgd1na2vs0mg"},{"bike_id":"827ec7e5-1ae5-45b8-890e-b6822ea9bc11","system_id":"levelo_inurba_marseille","lat":43.239611,"lon":5.366346,"is_reserved":false,"is_disabled":false,"rental_uris":{"android":"levelo://app?vid=827ec7e5-1ae5-45b8-890e-b6822ea9bc11","ios":"levelo://app?vid=827ec7e5-1ae5-45b8-890e-b6822ea9bc11"},"vehicle_type_id":"4","last_reported":1740254928,"current_range_meters":9600,"station_id":"ce4bhi12rcd13ifvqfp0","pricing_plan_id":"cebpf4jnsgd1na2vs0mg"},{"bike_id":"aeafc93e-d7a3-4386-a16b-6d5c2d21332b","system_id":"levelo_inurba_marseille","lat":43.29271,"lon":5.37625,"is_reserved":false,"is_disabled":false,"rental_uris":{"android":"levelo://app?vid=aeafc93e-d7a3-4386-a16b-6d5c2d21332b","ios":"levelo://app?vid=aeafc93e-d7a3-4386-a16b-6d5c2d21332b"},"vehicle_type_id":"4","last_reported":1740254928,"current_range_meters":10000,"station_id":"ce4bgi12rcd13ifvqb80","pricing_plan_id":"cebpf4jnsgd1na2vs0mg"},{"bike_id":"6d952517-9598-4ac6-8b62-3bfffbf52d62","system_id":"levelo_inurba_marseille","lat":43.29526,"lon":5.38535,"is_reserved":false,"is_disabled":false,"rental_uris":{"android":"levelo://app?vid=6d952517-9598-4ac6-8b62-3bfffbf52d62","ios":"levelo://app?vid=6d952517-9598-4ac6-8b62-3bfffbf52d62"},"vehicle_type_id":"4","last_reported":1740254928,"current_range_meters":10000,"station_id":"ce4bgih2rcd13ifvqba0","pricing_plan_id":"cebpf4jnsgd1na2vs0mg"},{"bike_id":"eabbeaf0-2e59-4c1d-8af5-9810aa7abf21","system_id":"levelo_inurba_marseille","lat":43.29284,"lon":5.37436,"is_reserved":false,"is_disabled":false,"rental_uris":{"android":"levelo://app?vid=eabbeaf0-2e59-4c1d-8af5-9810aa7abf21","ios":"levelo://app?vid=eabbeaf0-2e59-4c1d-8af5-9810aa7abf21"},"vehicle_type_id":"4","last_reported":1740254928,"current_range_meters":10000,"station_id":"ce4bgi12rcd13ifvqb70","pricing_plan_id":"cebpf4jnsgd1na2vs0mg"},{"bike_id":"905c665e-c0a3-4a8f-8884-4facd6cb459c","system_id":"levelo_inurba_marseille","lat":43.28858,"lon":5.35853,"is_reserved":false,"is_disabled":false,"rental_uris":{"android":"levelo://app?vid=905c665e-c0a3-4a8f-8884-4facd6cb459c","ios":"levelo://app?vid=905c665e-c0a3-4a8f-8884-4facd6cb459c"},"vehicle_type_id":"4","last_reported":1740254928,"current_range_meters":10800,"station_id":"ce4bhb12rcd13ifvqem0","pricing_plan_id":"cebpf4jnsgd1na2vs0mg"},{"bike_id":"c6a1ef00-1084-493b-8248-9658c4452943","system_id":"levelo_inurba_marseille","lat":43.28252,"lon":5.3906,"is_reserved":false,"is_disabled":false,"rental_uris":{"android":"levelo://app?vid=c6a1ef00-1084-493b-8248-9658c4452943","ios":"levelo://app?vid=c6a1ef00-1084-493b-8248-9658c4452943"},"vehicle_type_id":"4","last_reported":1740254928,"current_range_meters":10000,"station_id":"","pricing_plan_id":"cebpf4jnsgd1na2vs0mg"},{"bike_id":"18cd1975-a0d8-4c4a-a2c1-27681d7705c0","system_id":"levelo_inurba_marseille","lat":43.27814,"lon":5.40721,"is_reserved":false,"is_disabled":false,"rental_uris":{"android":"levelo://app?vid=18cd1975-a0d8-4c4a-a2c1-27681d7705c0","ios":"levelo://app?vid=18cd1975-a0d8-4c4a-a2c1-27681d7705c0"},"vehicle_type_id":"4","last_reported":1740254928,"current_range_meters":10000,"station_id":"ce4bhnh2rcd13ifvqgtg","pricing_plan_id":"cebpf4jnsgd1na2vs0mg"},{"bike_id":"1315f7b7-981a-42e7-8524-55fefb2db03e","system_id":"levelo_inurba_marseille","lat":43.29422,"lon":5.38625,"is_reserved":false,"is_disabled":true,"rental_uris":{"android":"levelo://app?vid=1315f7b7-981a-42e7-8524-55fefb2db03e","ios":"levelo://app?vid=1315f7b7-981a-42e7-8524-55fefb2db03e"},"vehicle_type_id":"4","last_reported":1740254928,"current_range_meters":10800,"station_id":"ce4bh2h2rcd13ifvqdh0","pricing_plan_id":"cebpf4jnsgd1na2vs0mg"},{"bike_id":"84bf0a97-1d6f-40f9-b0a2-25fb8e9670d2","system_id":"levelo_inurba_marseille","lat":43.27471,"lon":5.40911,"is_reserved":false,"is_disabled":false,"rental_uris":{"android":"levelo://app?vid=84bf0a97-1d6f-40f9-b0a2-25fb8e9670d2","ios":"levelo://app?vid=84bf0a97-1d6f-40f9-b0a2-25fb8e9670d2"},"vehicle_type_id":"4","last_reported":1740254928,"current_range_meters":10800,"station_id":"","pricing_plan_id":"cebpf4jnsgd1na2vs0mg"},{"bike_id":"d8228868-aedc-4425-8d12-39248acb0f7f","system_id":"levelo_inurba_marseille","lat":43.28941,"lon":5.36631,"is_reserved":false,"is_disabled":false,"rental_uris":{"android":"levelo://app?vid=d8228868-aedc-4425-8d12-39248acb0f7f","ios":"levelo://app?vid=d8228868-aedc-4425-8d12-39248acb0f7f"},"vehicle_type_id":"4","last_reported":1740254928,"current_range_meters":10800,"station_id":"ce4bhap2rcd13ifvqek0","pricing_plan_id":"cebpf4jnsgd1na2vs0mg"},{"bike_id":"c76531ac-1214-4592-9c1c-6b2ce2bc0cf8","system_id":"levelo_inurba_marseille","lat":43.23198,"lon":5.35545,"is_reserved":false,"is_disabled":false,"rental_uris":{"android":"levelo://app?vid=c76531ac-1214-4592-9c1c-6b2ce2bc0cf8","ios":"levelo://app?vid=c76531ac-1214-4592-9c1c-6b2ce2bc0cf8"},"vehicle_type_id":"4","last_reported":1740254928,"current_range_meters":10800,"station_id":"ce4bhu92rcd13ifvqi70","pricing_plan_id":"cebpf4jnsgd1na2vs0mg"},{"bike_id":"b154b257-3f01-4d1c-8ed2-6b5b0b12220e","system_id":"levelo_inurba_marseille","lat":43.2952,"lon":5.39407,"is_reserved":false,"is_disabled":false,"rental_uris":{"android":"levelo://app?vid=b154b257-3f01-4d1c-8ed2-6b5b0b12220e","ios":"levelo://app?vid=b154b257-3f01-4d1c-8ed2-6b5b0b12220e"},"vehicle_type_id":"4","last_reported":1740254928,"current_range_meters":10800,"station_id":"ce4bh292rcd13ifvqdf0","pricing_plan_id":"cebpf4jnsgd1na2vs0mg"},{"bike_id":"44d9c9a6-fc95-4ab6-8ca1-69d13f7fcff0","system_id":"levelo_inurba_marseille","lat":43.28607,"lon":5.35112,"is_reserved":false,"is_disabled":false,"rental_uris":{"android":"levelo://app?vid=44d9c9a6-fc95-4ab6-8ca1-69d13f7fcff0","ios":"levelo://app?vid=44d9c9a6-fc95-4ab6-8ca1-69d13f7fcff0"},"vehicle_type_id":"4","last_reported":1740254928,"current_range_meters":10800,"station_id":"ce4bhch2rcd13ifvqeug","pricing_plan_id":"cebpf4jnsgd1na2vs0mg"},{"bike_id":"354fa63d-193d-4f32-abed-91e0c8b29ab7","system_id":"levelo_inurba_marseille","lat":43.29034,"lon":5.38642,"is_reserved":false,"is_disabled":false,"rental_uris":{"android":"levelo://app?vid=354fa63d-193d-4f32-abed-91e0c8b29ab7","ios":"levelo://app?vid=354fa63d-193d-4f32-abed-91e0c8b29ab7"},"vehicle_type_id":"4","last_reported":1740254928,"current_range_meters":10800,"station_id":"ce4bh4p2rcd13ifvqe0g","pricing_plan_id":"cebpf4jnsgd1na2vs0mg"},{"bike_id":"548a47c0-ba06-4c06-9b22-56c419bef6a0","system_id":"levelo_inurba_marseille","lat":43.29416,"lon":5.38617,"is_reserved":false,"is_disabled":false,"rental_uris":{"android":"levelo://app?vid=548a47c0-ba06-4c06-9b22-56c419bef6a0","ios":"levelo://app?vid=548a47c0-ba06-4c06-9b22-56c419bef6a0"},"vehicle_type_id":"4","last_reported":1740254928,"current_range_meters":10800,"station_id":"ce4bh2h2rcd13ifvqdh0","pricing_plan_id":"cebpf4jnsgd1na2vs0mg"},{"bike_id":"e17520b1-ddec-4578-ab87-aca665458e51","system_id":"levelo_inurba_marseille","lat":43.296,"lon":5.38097,"is_reserved":false,"is_disabled":false,"rental_uris":{"android":"levelo://app?vid=e17520b1-ddec-4578-ab87-aca665458e51","ios":"levelo://app?vid=e17520b1-ddec-4578-ab87-aca665458e51"},"vehicle_type_id":"4","last_reported":1740254928,"current_range_meters":10800,"station_id":"ce4bgl12rcd13ifvqbo0","pricing_plan_id":"cebpf4jnsgd1na2vs0mg"},{"bike_id":"bb127142-502c-4b61-b74c-d7410317905c","system_id":"levelo_inurba_marseille","lat":43.26803,"lon":5.40262,"is_reserved":false,"is_disabled":false,"rental_uris":{"android":"levelo://app?vid=bb127142-502c-4b61-b74c-d7410317905c","ios":"levelo://app?vid=bb127142-502c-4b61-b74c-d7410317905c"},"vehicle_type_id":"4","last_reported":1740254928,"current_range_meters":11200,"station_id":"ce501612rcd8frsf0b60","pricing_plan_id":"cebpf4jnsgd1na2vs0mg"},{"bike_id":"519c0d90-c598-4074-9c80-d5e1565ff705","system_id":"levelo_inurba_marseille","lat":43.23061,"lon":5.35495,"is_reserved":false,"is_disabled":false,"rental_uris":{"android":"levelo://app?vid=519c0d90-c598-4074-9c80-d5e1565ff705","ios":"levelo://app?vid=519c0d90-c598-4074-9c80-d5e1565ff705"},"vehicle_type_id":"4","last_reported":1740254928,"current_range_meters":11200,"station_id":"cpo3342slgdg3j2ifvpg","pricing_plan_id":"cebpf4jnsgd1na2vs0mg"},{"bike_id":"8ddd416f-076d-4193-b8ea-d7e95b8fed2c","system_id":"levelo_inurba_marseille","lat":43.28706,"lon":5.37436,"is_reserved":false,"is_disabled":false,"rental_uris":{"android":"levelo://app?vid=8ddd416f-076d-4193-b8ea-d7e95b8fed2c","ios":"levelo://app?vid=8ddd416f-076d-4193-b8ea-d7e95b8fed2c"},"vehicle_type_id":"4","last_reported":1740254928,"current_range_meters":11200,"station_id":"ce4bh3p2rcd13ifvqdq0","pricing_plan_id":"cebpf4jnsgd1na2vs0mg"},{"bike_id":"4819b50b-f640-4b6b-8e7e-6c506c19e40e","system_id":"levelo_inurba_marseille","lat":43.30141,"lon":5.37423,"is_reserved":false,"is_disabled":false,"rental_uris":{"android":"levelo://app?vid=4819b50b-f640-4b6b-8e7e-6c506c19e40e","ios":"levelo://app?vid=4819b50b-f640-4b6b-8e7e-6c506c19e40e"},"vehicle_type_id":"4","last_reported":1740254928,"current_range_meters":11200,"station_id":"ce4bgs92rcd13ifvqcc0","pricing_plan_id":"cebpf4jnsgd1na2vs0mg"},{"bike_id":"ddb48cd1-bcb3-4cac-8164-1ae412ca1019","system_id":"levelo_inurba_marseille","lat":43.29355,"lon":5.37241,"is_reserved":false,"is_disabled":false,"rental_uris":{"android":"levelo://app?vid=ddb48cd1-bcb3-4cac-8164-1ae412ca1019","ios":"levelo://app?vid=ddb48cd1-bcb3-4cac-8164-1ae412ca1019"},"vehicle_type_id":"4","last_reported":1740254928,"current_range_meters":11200,"station_id":"","pricing_plan_id":"cebpf4jnsgd1na2vs0mg"},{"bike_id":"7039427e-2516-4f5f-9212-a7df2f2220ce","system_id":"levelo_inurba_marseille","lat":43.29278,"lon":5.3843,"is_reserved":false,"is_disabled":false,"rental_uris":{"android":"levelo://app?vid=7039427e-2516-4f5f-9212-a7df2f2220ce","ios":"levelo://app?vid=7039427e-2516-4f5f-9212-a7df2f2220ce"},"vehicle_type_id":"4","last_reported":1740254928,"current_range_meters":11200,"station_id":"ce4bh692rcd13ifvqea0","pricing_plan_id":"cebpf4jnsgd1na2vs0mg"},{"bike_id":"2816dc70-201f-4a57-b8d0-7b0b5a726424","system_id":"levelo_inurba_marseille","lat":43.30417,"lon":5.41276,"is_reserved":false,"is_disabled":false,"rental_uris":{"android":"levelo://app?vid=2816dc70-201f-4a57-b8d0-7b0b5a726424","ios":"levelo://app?vid=2816dc70-201f-4a57-b8d0-7b0b5a726424"},"vehicle_type_id":"4","last_reported":1740254928,"current_range_meters":11600,"station_id":"ce4bhop2rcd13ifvqh8g","pricing_plan_id":"cebpf4jnsgd1na2vs0mg"},{"bike_id":"0b35ef10-1d1d-4e8a-949e-c3122c5e3874","system_id":"levelo_inurba_marseille","lat":43.23956,"lon":5.36635,"is_reserved":false,"is_disabled":false,"rental_uris":{"android":"levelo://app?vid=0b35ef10-1d1d-4e8a-949e-c3122c5e3874","ios":"levelo://app?vid=0b35ef10-1d1d-4e8a-949e-c3122c5e3874"},"vehicle_type_id":"4","last_reported":1740254928,"current_range_meters":11600,"station_id":"ce4bhi12rcd13ifvqfp0","pricing_plan_id":"cebpf4jnsgd1na2vs0mg"},{"bike_id":"9d49efd4-a238-4a72-8787-13c506ac8d9b","system_id":"levelo_inurba_marseille","lat":43.27183,"lon":5.40997,"is_reserved":false,"is_disabled":false,"rental_uris":{"android":"levelo://app?vid=9d49efd4-a238-4a72-8787-13c506ac8d9b","ios":"levelo://app?vid=9d49efd4-a238-4a72-8787-13c506ac8d9b"},"vehicle_type_id":"4","last_reported":1740254928,"current_range_meters":11600,"station_id":"ce4bhl12rcd13ifvqgf0","pricing_plan_id":"cebpf4jnsgd1na2vs0mg"},{"bike_id":"c3b9be2e-b257-4f64-8882-ea41b3bf3812","system_id":"levelo_inurba_marseille","lat":43.32315,"lon":5.39258,"is_reserved":false,"is_disabled":false,"rental_uris":{"android":"levelo://app?vid=c3b9be2e-b257-4f64-8882-ea41b3bf3812","ios":"levelo://app?vid=c3b9be2e-b257-4f64-8882-ea41b3bf3812"},"vehicle_type_id":"4","last_reported":1740254928,"current_range_meters":11600,"station_id":"","pricing_plan_id":"cebpf4jnsgd1na2vs0mg"},{"bike_id":"4d010e3f-2ec7-4a01-8125-cbf9711e77a8","system_id":"levelo_inurba_marseille","lat":43.30417,"lon":5.41292,"is_reserved":false,"is_disabled":false,"rental_uris":{"android":"levelo://app?vid=4d010e3f-2ec7-4a01-8125-cbf9711e77a8","ios":"levelo://app?vid=4d010e3f-2ec7-4a01-8125-cbf9711e77a8"},"vehicle_type_id":"4","last_reported":1740254928,"current_range_meters":12400,"station_id":"ce4bhop2rcd13ifvqh8g","pricing_plan_id":"cebpf4jnsgd1na2vs0mg"},{"bike_id":"65a71e54-d406-4ea7-be13-7a9b68d9501f","system_id":"levelo_inurba_marseille","lat":43.31369,"lon":5.38483,"is_reserved":false,"is_disabled":false,"rental_uris":{"android":"levelo://app?vid=65a71e54-d406-4ea7-be13-7a9b68d9501f","ios":"levelo://app?vid=65a71e54-d406-4ea7-be13-7a9b68d9501f"},"vehicle_type_id":"4","last_reported":1740254928,"current_range_meters":11200,"station_id":"ce4bgt92rcd13ifvqcf0","pricing_plan_id":"cebpf4jnsgd1na2vs0mg"},{"bike_id":"90fe8994-0b26-4f9f-b5c6-c9398091eae2","system_id":"levelo_inurba_marseille","lat":43.29984,"lon":5.38498,"is_reserved":false,"is_disabled":false,"rental_uris":{"android":"levelo://app?vid=90fe8994-0b26-4f9f-b5c6-c9398091eae2","ios":"levelo://app?vid=90fe8994-0b26-4f9f-b5c6-c9398091eae2"},"vehicle_type_id":"4","last_reported":1740254928,"current_range_meters":11600,"station_id":"ce4bgj92rcd13ifvqbd0","pricing_plan_id":"cebpf4jnsgd1na2vs0mg"},{"bike_id":"49106b8f-4cee-4cc4-ba10-6d5ffe858c28","system_id":"levelo_inurba_marseille","lat":43.265783,"lon":5.39033,"is_reserved":false,"is_disabled":false,"rental_uris":{"android":"levelo://app?vid=49106b8f-4cee-4cc4-ba10-6d5ffe858c28","ios":"levelo://app?vid=49106b8f-4cee-4cc4-ba10-6d5ffe858c28"},"vehicle_type_id":"4","last_reported":1740254928,"current_range_meters":11600,"station_id":"ce4bhh12rcd13ifvqfg0","pricing_plan_id":"cebpf4jnsgd1na2vs0mg"},{"bike_id":"eea79a06-f164-4b36-9ab2-e3ff22c5137d","system_id":"levelo_inurba_marseille","lat":43.29297,"lon":5.37422,"is_reserved":false,"is_disabled":false,"rental_uris":{"android":"levelo://app?vid=eea79a06-f164-4b36-9ab2-e3ff22c5137d","ios":"levelo://app?vid=eea79a06-f164-4b36-9ab2-e3ff22c5137d"},"vehicle_type_id":"4","last_reported":1740254928,"current_range_meters":12000,"station_id":"ce4bgi12rcd13ifvqb70","pricing_plan_id":"cebpf4jnsgd1na2vs0mg"},{"bike_id":"26a125d9-9263-476b-b3fb-a0fd7af16afb","system_id":"levelo_inurba_marseille","lat":43.305583,"lon":5.383869,"is_reserved":false,"is_disabled":false,"rental_uris":{"android":"levelo://app?vid=26a125d9-9263-476b-b3fb-a0fd7af16afb","ios":"levelo://app?vid=26a125d9-9263-476b-b3fb-a0fd7af16afb"},"vehicle_type_id":"4","last_reported":1740254928,"current_range_meters":12000,"station_id":"ce4bh192rcd13ifvqdb0","pricing_plan_id":"cebpf4jnsgd1na2vs0mg"},{"bike_id":"1b5b87c8-f96f-4740-8b60-bcc62c6e3f59","system_id":"levelo_inurba_marseille","lat":43.3139,"lon":5.38434,"is_reserved":false,"is_disabled":false,"rental_uris":{"android":"levelo://app?vid=1b5b87c8-f96f-4740-8b60-bcc62c6e3f59","ios":"levelo://app?vid=1b5b87c8-f96f-4740-8b60-bcc62c6e3f59"},"vehicle_type_id":"4","last_reported":1740254928,"current_range_meters":12000,"station_id":"","pricing_plan_id":"cebpf4jnsgd1na2vs0mg"},{"bike_id":"580cd37a-010c-47d8-955d-e1bf99f50654","system_id":"levelo_inurba_marseille","lat":43.2836,"lon":5.38655,"is_reserved":false,"is_disabled":false,"rental_uris":{"android":"levelo://app?vid=580cd37a-010c-47d8-955d-e1bf99f50654","ios":"levelo://app?vid=580cd37a-010c-47d8-955d-e1bf99f50654"},"vehicle_type_id":"4","last_reported":1740254928,"current_range_meters":12000,"station_id":"ce4bh492rcd13ifvqdvg","pricing_plan_id":"cebpf4jnsgd1na2vs0mg"},{"bike_id":"ff994de1-f754-405f-81b6-dfb25d8dad20","system_id":"levelo_inurba_marseille","lat":43.29976,"lon":5.38499,"is_reserved":false,"is_disabled":false,"rental_uris":{"android":"levelo://app?vid=ff994de1-f754-405f-81b6-dfb25d8dad20","ios":"levelo://app?vid=ff994de1-f754-405f-81b6-dfb25d8dad20"},"vehicle_type_id":"4","last_reported":1740254928,"current_range_meters":12000,"station_id":"ce4bgj92rcd13ifvqbd0","pricing_plan_id":"cebpf4jnsgd1na2vs0mg"},{"bike_id":"1b0d6542-f74d-4dd5-b78b-1cd1115ff80b","system_id":"levelo_inurba_marseille","lat":43.30614,"lon":5.37396,"is_reserved":false,"is_disabled":false,"rental_uris":{"android":"levelo://app?vid=1b0d6542-f74d-4dd5-b78b-1cd1115ff80b","ios":"levelo://app?vid=1b0d6542-f74d-4dd5-b78b-1cd1115ff80b"},"vehicle_type_id":"4","last_reported":1740254928,"current_range_meters":12400,"station_id":"","pricing_plan_id":"cebpf4jnsgd1na2vs0mg"},{"bike_id":"51be5869-b3e7-4121-b4de-155f4b63e784","system_id":"levelo_inurba_marseille","lat":43.2926,"lon":5.3844,"is_reserved":false,"is_disabled":false,"rental_uris":{"android":"levelo://app?vid=51be5869-b3e7-4121-b4de-155f4b63e784","ios":"levelo://app?vid=51be5869-b3e7-4121-b4de-155f4b63e784"},"vehicle_type_id":"4","last_reported":1740254928,"current_range_meters":12400,"station_id":"ce4bh692rcd13ifvqea0","pricing_plan_id":"cebpf4jnsgd1na2vs0mg"},{"bike_id":"ab8e4fa1-a748-4b68-9f46-2fdc2afb052f","system_id":"levelo_inurba_marseille","lat":43.25854,"lon":5.39424,"is_reserved":false,"is_disabled":false,"rental_uris":{"android":"levelo://app?vid=ab8e4fa1-a748-4b68-9f46-2fdc2afb052f","ios":"levelo://app?vid=ab8e4fa1-a748-4b68-9f46-2fdc2afb052f"},"vehicle_type_id":"4","last_reported":1740254928,"current_range_meters":12400,"station_id":"ce4bhip2rcd13ifvqft0","pricing_plan_id":"cebpf4jnsgd1na2vs0mg"},{"bike_id":"218ed1fe-3a68-4f22-8391-c1bf4192d7cb","system_id":"levelo_inurba_marseille","lat":43.2931,"lon":5.37173,"is_reserved":false,"is_disabled":false,"rental_uris":{"android":"levelo://app?vid=218ed1fe-3a68-4f22-8391-c1bf4192d7cb","ios":"levelo://app?vid=218ed1fe-3a68-4f22-8391-c1bf4192d7cb"},"vehicle_type_id":"4","last_reported":1740254928,"current_range_meters":12400,"station_id":"ce4bgh92rcd13ifvqb40","pricing_plan_id":"cebpf4jnsgd1na2vs0mg"},{"bike_id":"74ed6e6f-40cf-4e20-a1d1-eb4d5d7f6813","system_id":"levelo_inurba_marseille","lat":43.30142,"lon":5.37413,"is_reserved":false,"is_disabled":false,"rental_uris":{"android":"levelo://app?vid=74ed6e6f-40cf-4e20-a1d1-eb4d5d7f6813","ios":"levelo://app?vid=74ed6e6f-40cf-4e20-a1d1-eb4d5d7f6813"},"vehicle_type_id":"4","last_reported":1740254928,"current_range_meters":12400,"station_id":"ce4bgs92rcd13ifvqcc0","pricing_plan_id":"cebpf4jnsgd1na2vs0mg"},{"bike_id":"5ac0a685-b253-479e-9c9d-98e837ce2dd3","system_id":"levelo_inurba_marseille","lat":43.23964,"lon":5.36635,"is_reserved":false,"is_disabled":false,"rental_uris":{"android":"levelo://app?vid=5ac0a685-b253-479e-9c9d-98e837ce2dd3","ios":"levelo://app?vid=5ac0a685-b253-479e-9c9d-98e837ce2dd3"},"vehicle_type_id":"4","last_reported":1740254928,"current_range_meters":12400,"station_id":"ce4bhi12rcd13ifvqfp0","pricing_plan_id":"cebpf4jnsgd1na2vs0mg"},{"bike_id":"c530e3dd-0467-4802-9c56-86f2eaf16573","system_id":"levelo_inurba_marseille","lat":43.26229,"lon":5.4045,"is_reserved":false,"is_disabled":false,"rental_uris":{"android":"levelo://app?vid=c530e3dd-0467-4802-9c56-86f2eaf16573","ios":"levelo://app?vid=c530e3dd-0467-4802-9c56-86f2eaf16573"},"vehicle_type_id":"4","last_reported":1740254928,"current_range_meters":12400,"station_id":"ce4bhmh2rcd13ifvqgmg","pricing_plan_id":"cebpf4jnsgd1na2vs0mg"},{"bike_id":"de0bedb1-68db-432f-8eac-3955c6def879","system_id":"levelo_inurba_marseille","lat":43.29517,"lon":5.39055,"is_reserved":false,"is_disabled":false,"rental_uris":{"android":"levelo://app?vid=de0bedb1-68db-432f-8eac-3955c6def879","ios":"levelo://app?vid=de0bedb1-68db-432f-8eac-3955c6def879"},"vehicle_type_id":"4","last_reported":1740254928,"current_range_meters":12400,"station_id":"ce4bh3p2rcd13ifvqdp0","pricing_plan_id":"cebpf4jnsgd1na2vs0mg"},{"bike_id":"d88699b9-7a50-415c-9cdb-a35fdc00ed80","system_id":"levelo_inurba_marseille","lat":43.29934,"lon":5.37193,"is_reserved":false,"is_disabled":false,"rental_uris":{"android":"levelo://app?vid=d88699b9-7a50-415c-9cdb-a35fdc00ed80","ios":"levelo://app?vid=d88699b9-7a50-415c-9cdb-a35fdc00ed80"},"vehicle_type_id":"4","last_reported":1740254928,"current_range_meters":12400,"station_id":"","pricing_plan_id":"cebpf4jnsgd1na2vs0mg"},{"bike_id":"1f7411cd-9379-4bab-a8bc-411b928d8602","system_id":"levelo_inurba_marseille","lat":43.27488,"lon":5.42457,"is_reserved":false,"is_disabled":false,"rental_uris":{"android":"levelo://app?vid=1f7411cd-9379-4bab-a8bc-411b928d8602","ios":"levelo://app?vid=1f7411cd-9379-4bab-a8bc-411b928d8602"},"vehicle_type_id":"4","last_reported":1740254928,"current_range_meters":12800,"station_id":"ce4bhn92rcd13ifvqgrg","pricing_plan_id":"cebpf4jnsgd1na2vs0mg"},{"bike_id":"5d52fe5a-dfb3-40bb-a0d1-9a7b3f23529e","system_id":"levelo_inurba_marseille","lat":43.26234,"lon":5.40455,"is_reserved":false,"is_disabled":false,"rental_uris":{"android":"levelo://app?vid=5d52fe5a-dfb3-40bb-a0d1-9a7b3f23529e","ios":"levelo://app?vid=5d52fe5a-dfb3-40bb-a0d1-9a7b3f23529e"},"vehicle_type_id":"4","last_reported":1740254928,"current_range_meters":12800,"station_id":"ce4bhmh2rcd13ifvqgmg","pricing_plan_id":"cebpf4jnsgd1na2vs0mg"},{"bike_id":"1b86abed-1130-4660-a683-d3dde56c7cf4","system_id":"levelo_inurba_marseille","lat":43.29611,"lon":5.38099,"is_reserved":false,"is_disabled":false,"rental_uris":{"android":"levelo://app?vid=1b86abed-1130-4660-a683-d3dde56c7cf4","ios":"levelo://app?vid=1b86abed-1130-4660-a683-d3dde56c7cf4"},"vehicle_type_id":"4","last_reported":1740254928,"current_range_meters":12800,"station_id":"ce4bgl12rcd13ifvqbo0","pricing_plan_id":"cebpf4jnsgd1na2vs0mg"},{"bike_id":"e2dc2628-f418-423a-8f85-0411b70c5bbf","system_id":"levelo_inurba_marseille","lat":43.29713,"lon":5.36598,"is_reserved":false,"is_disabled":false,"rental_uris":{"android":"levelo://app?vid=e2dc2628-f418-423a-8f85-0411b70c5bbf","ios":"levelo://app?vid=e2dc2628-f418-423a-8f85-0411b70c5bbf"},"vehicle_type_id":"4","last_reported":1740254928,"current_range_meters":14000,"station_id":"ce4bgn12rcd13ifvqbt0","pricing_plan_id":"cebpf4jnsgd1na2vs0mg"},{"bike_id":"1198077f-4430-452e-a31b-eacf1ca9a8be","system_id":"levelo_inurba_marseille","lat":43.2784,"lon":5.39201,"is_reserved":false,"is_disabled":false,"rental_uris":{"android":"levelo://app?vid=1198077f-4430-452e-a31b-eacf1ca9a8be","ios":"levelo://app?vid=1198077f-4430-452e-a31b-eacf1ca9a8be"},"vehicle_type_id":"4","last_reported":1740254928,"current_range_meters":12800,"station_id":"ce4bhjp2rcd13ifvqga0","pricing_plan_id":"cebpf4jnsgd1na2vs0mg"},{"bike_id":"5e8691a8-f2ed-4a5d-8ce2-b5c17291ce24","system_id":"levelo_inurba_marseille","lat":43.29256,"lon":5.38431,"is_reserved":false,"is_disabled":false,"rental_uris":{"android":"levelo://app?vid=5e8691a8-f2ed-4a5d-8ce2-b5c17291ce24","ios":"levelo://app?vid=5e8691a8-f2ed-4a5d-8ce2-b5c17291ce24"},"vehicle_type_id":"4","last_reported":1740254928,"current_range_meters":12800,"station_id":"ce4bh692rcd13ifvqea0","pricing_plan_id":"cebpf4jnsgd1na2vs0mg"},{"bike_id":"8dc51aab-29d3-43fa-a37e-6c47cc4c2e69","system_id":"levelo_inurba_marseille","lat":43.24163,"lon":5.36401,"is_reserved":false,"is_disabled":false,"rental_uris":{"android":"levelo://app?vid=8dc51aab-29d3-43fa-a37e-6c47cc4c2e69","ios":"levelo://app?vid=8dc51aab-29d3-43fa-a37e-6c47cc4c2e69"},"vehicle_type_id":"4","last_reported":1740254928,"current_range_meters":13600,"station_id":"cpo36qri1sfpv3e86is0","pricing_plan_id":"cebpf4jnsgd1na2vs0mg"},{"bike_id":"8a198aec-4bb7-44b4-aa58-2bd9675d6041","system_id":"levelo_inurba_marseille","lat":43.29184,"lon":5.35812,"is_reserved":false,"is_disabled":false,"rental_uris":{"android":"levelo://app?vid=8a198aec-4bb7-44b4-aa58-2bd9675d6041","ios":"levelo://app?vid=8a198aec-4bb7-44b4-aa58-2bd9675d6041"},"vehicle_type_id":"4","last_reported":1740254928,"current_range_meters":13600,"station_id":"ce4bhb12rcd13ifvqel0","pricing_plan_id":"cebpf4jnsgd1na2vs0mg"},{"bike_id":"f72aaa30-e111-425f-aa7e-bff51a5de9b5","system_id":"levelo_inurba_marseille","lat":43.29387,"lon":5.38719,"is_reserved":false,"is_disabled":false,"rental_uris":{"android":"levelo://app?vid=f72aaa30-e111-425f-aa7e-bff51a5de9b5","ios":"levelo://app?vid=f72aaa30-e111-425f-aa7e-bff51a5de9b5"},"vehicle_type_id":"4","last_reported":1740254928,"current_range_meters":14000,"station_id":"","pricing_plan_id":"cebpf4jnsgd1na2vs0mg"},{"bike_id":"3fd2a98c-7939-498c-8625-9658300a849b","system_id":"levelo_inurba_marseille","lat":43.25955,"lon":5.40884,"is_reserved":false,"is_disabled":false,"rental_uris":{"android":"levelo://app?vid=3fd2a98c-7939-498c-8625-9658300a849b","ios":"levelo://app?vid=3fd2a98c-7939-498c-8625-9658300a849b"},"vehicle_type_id":"4","last_reported":1740254928,"current_range_meters":14000,"station_id":"ce4bhm92rcd13ifvqglg","pricing_plan_id":"cebpf4jnsgd1na2vs0mg"},{"bike_id":"205903f3-7eb7-45a4-a2ac-125a5dae63b1","system_id":"levelo_inurba_marseille","lat":43.29253,"lon":5.3843,"is_reserved":false,"is_disabled":false,"rental_uris":{"android":"levelo://app?vid=205903f3-7eb7-45a4-a2ac-125a5dae63b1","ios":"levelo://app?vid=205903f3-7eb7-45a4-a2ac-125a5dae63b1"},"vehicle_type_id":"4","last_reported":1740254928,"current_range_meters":14000,"station_id":"ce4bh692rcd13ifvqea0","pricing_plan_id":"cebpf4jnsgd1na2vs0mg"},{"bike_id":"855caca9-cd59-4c97-ad51-a64e28ee341f","system_id":"levelo_inurba_marseille","lat":43.30888,"lon":5.39641,"is_reserved":false,"is_disabled":true,"rental_uris":{"android":"levelo://app?vid=855caca9-cd59-4c97-ad51-a64e28ee341f","ios":"levelo://app?vid=855caca9-cd59-4c97-ad51-a64e28ee341f"},"vehicle_type_id":"4","last_reported":1740254928,"current_range_meters":14000,"station_id":"ce4bh012rcd13ifvqcv0","pricing_plan_id":"cebpf4jnsgd1na2vs0mg"},{"bike_id":"1e3ac436-4cb3-4e99-aef6-41fc63be494d","system_id":"levelo_inurba_marseille","lat":43.29942,"lon":5.3746,"is_reserved":false,"is_disabled":false,"rental_uris":{"android":"levelo://app?vid=1e3ac436-4cb3-4e99-aef6-41fc63be494d","ios":"levelo://app?vid=1e3ac436-4cb3-4e99-aef6-41fc63be494d"},"vehicle_type_id":"4","last_reported":1740254928,"current_range_meters":14000,"station_id":"ce4bgjh2rcd13ifvqbg0","pricing_plan_id":"cebpf4jnsgd1na2vs0mg"},{"bike_id":"65a2b506-9f18-4086-90d7-6bbdf970a117","system_id":"levelo_inurba_marseille","lat":43.29533,"lon":5.38536,"is_reserved":false,"is_disabled":false,"rental_uris":{"android":"levelo://app?vid=65a2b506-9f18-4086-90d7-6bbdf970a117","ios":"levelo://app?vid=65a2b506-9f18-4086-90d7-6bbdf970a117"},"vehicle_type_id":"4","last_reported":1740254928,"current_range_meters":14400,"station_id":"ce4bgih2rcd13ifvqba0","pricing_plan_id":"cebpf4jnsgd1na2vs0mg"},{"bike_id":"842465dc-64f0-4437-9323-84b2a88c4758","system_id":"levelo_inurba_marseille","lat":43.293045,"lon":5.374618,"is_reserved":false,"is_disabled":false,"rental_uris":{"android":"levelo://app?vid=842465dc-64f0-4437-9323-84b2a88c4758","ios":"levelo://app?vid=842465dc-64f0-4437-9323-84b2a88c4758"},"vehicle_type_id":"4","last_reported":1740254928,"current_range_meters":14400,"station_id":"ce4bh3p2rcd13ifvqdp0","pricing_plan_id":"cebpf4jnsgd1na2vs0mg"},{"bike_id":"85830780-5b06-459f-9d60-9c1f1356d5ac","system_id":"levelo_inurba_marseille","lat":43.30217,"lon":5.39511,"is_reserved":false,"is_disabled":false,"rental_uris":{"android":"levelo://app?vid=85830780-5b06-459f-9d60-9c1f1356d5ac","ios":"levelo://app?vid=85830780-5b06-459f-9d60-9c1f1356d5ac"},"vehicle_type_id":"4","last_reported":1740254928,"current_range_meters":14400,"station_id":"","pricing_plan_id":"cebpf4jnsgd1na2vs0mg"},{"bike_id":"8e403f8a-b998-4fb1-bb90-54bf70e024a5","system_id":"levelo_inurba_marseille","lat":43.26935,"lon":5.389166,"is_reserved":false,"is_disabled":false,"rental_uris":{"android":"levelo://app?vid=8e403f8a-b998-4fb1-bb90-54bf70e024a5","ios":"levelo://app?vid=8e403f8a-b998-4fb1-bb90-54bf70e024a5"},"vehicle_type_id":"4","last_reported":1740254928,"current_range_meters":14400,"station_id":"ce4bhhh2rcd13ifvqfl0","pricing_plan_id":"cebpf4jnsgd1na2vs0mg"},{"bike_id":"16a026fb-7ac1-4fac-ad3a-c1d23da5f5f4","system_id":"levelo_inurba_marseille","lat":43.29846,"lon":5.36272,"is_reserved":false,"is_disabled":false,"rental_uris":{"android":"levelo://app?vid=16a026fb-7ac1-4fac-ad3a-c1d23da5f5f4","ios":"levelo://app?vid=16a026fb-7ac1-4fac-ad3a-c1d23da5f5f4"},"vehicle_type_id":"4","last_reported":1740254928,"current_range_meters":14400,"station_id":"ce4bgpp2rcd13ifvqc3g","pricing_plan_id":"cebpf4jnsgd1na2vs0mg"},{"bike_id":"bf955d35-f5d5-4c7a-acee-2eb7e71c40f9","system_id":"levelo_inurba_marseille","lat":43.26687,"lon":5.38278,"is_reserved":false,"is_disabled":false,"rental_uris":{"android":"levelo://app?vid=bf955d35-f5d5-4c7a-acee-2eb7e71c40f9","ios":"levelo://app?vid=bf955d35-f5d5-4c7a-acee-2eb7e71c40f9"},"vehicle_type_id":"4","last_reported":1740254928,"current_range_meters":14800,"station_id":"ce4bhg92rcd13ifvqf90","pricing_plan_id":"cebpf4jnsgd1na2vs0mg"},{"bike_id":"7af43c4e-fcce-4287-b267-f6b9314bd5e7","system_id":"levelo_inurba_marseille","lat":43.28472,"lon":5.38413,"is_reserved":false,"is_disabled":false,"rental_uris":{"android":"levelo://app?vid=7af43c4e-fcce-4287-b267-f6b9314bd5e7","ios":"levelo://app?vid=7af43c4e-fcce-4287-b267-f6b9314bd5e7"},"vehicle_type_id":"4","last_reported":1740254928,"current_range_meters":16000,"station_id":"ce4bh512rcd13ifvqe3g","pricing_plan_id":"cebpf4jnsgd1na2vs0mg"},{"bike_id":"40a9ba78-147d-430c-9d76-1527eacd5e07","system_id":"levelo_inurba_marseille","lat":43.28668,"lon":5.38667,"is_reserved":false,"is_disabled":false,"rental_uris":{"android":"levelo://app?vid=40a9ba78-147d-430c-9d76-1527eacd5e07","ios":"levelo://app?vid=40a9ba78-147d-430c-9d76-1527eacd5e07"},"vehicle_type_id":"4","last_reported":1740254928,"current_range_meters":14800,"station_id":"ce4bh492rcd13ifvqdug","pricing_plan_id":"cebpf4jnsgd1na2vs0mg"},{"bike_id":"aee3b1da-7527-4f24-8ea5-37b9f7375306","system_id":"levelo_inurba_marseille","lat":43.27813,"lon":5.4071,"is_reserved":false,"is_disabled":false,"rental_uris":{"android":"levelo://app?vid=aee3b1da-7527-4f24-8ea5-37b9f7375306","ios":"levelo://app?vid=aee3b1da-7527-4f24-8ea5-37b9f7375306"},"vehicle_type_id":"4","last_reported":1740254928,"current_range_meters":14400,"station_id":"ce4bhnh2rcd13ifvqgtg","pricing_plan_id":"cebpf4jnsgd1na2vs0mg"},{"bike_id":"87960040-de76-45c5-899a-b02fe185e865","system_id":"levelo_inurba_marseille","lat":43.2891,"lon":5.38424,"is_reserved":false,"is_disabled":false,"rental_uris":{"android":"levelo://app?vid=87960040-de76-45c5-899a-b02fe185e865","ios":"levelo://app?vid=87960040-de76-45c5-899a-b02fe185e865"},"vehicle_type_id":"4","last_reported":1740254928,"current_range_meters":14800,"station_id":"ce4bh612rcd13ifvqe6g","pricing_plan_id":"cebpf4jnsgd1na2vs0mg"},{"bike_id":"07e4e78f-155f-46ba-b47c-845e3199ae6c","system_id":"levelo_inurba_marseille","lat":43.25119,"lon":5.4032,"is_reserved":false,"is_disabled":false,"rental_uris":{"android":"levelo://app?vid=07e4e78f-155f-46ba-b47c-845e3199ae6c","ios":"levelo://app?vid=07e4e78f-155f-46ba-b47c-845e3199ae6c"},"vehicle_type_id":"4","last_reported":1740254928,"current_range_meters":14800,"station_id":"ce4bhlh2rcd13ifvqgig","pricing_plan_id":"cebpf4jnsgd1na2vs0mg"},{"bike_id":"f46b84ae-b847-4819-b02e-4d7044c90603","system_id":"levelo_inurba_marseille","lat":43.29278,"lon":5.37473,"is_reserved":false,"is_disabled":false,"rental_uris":{"android":"levelo://app?vid=f46b84ae-b847-4819-b02e-4d7044c90603","ios":"levelo://app?vid=f46b84ae-b847-4819-b02e-4d7044c90603"},"vehicle_type_id":"4","last_reported":1740254928,"current_range_meters":15200,"station_id":"ce4bgh92rcd13ifvqb40","pricing_plan_id":"cebpf4jnsgd1na2vs0mg"},{"bike_id":"095d5026-b6cb-411c-ab71-6c60703e2b2f","system_id":"levelo_inurba_marseille","lat":43.23061,"lon":5.35486,"is_reserved":false,"is_disabled":true,"rental_uris":{"android":"levelo://app?vid=095d5026-b6cb-411c-ab71-6c60703e2b2f","ios":"levelo://app?vid=095d5026-b6cb-411c-ab71-6c60703e2b2f"},"vehicle_type_id":"4","last_reported":1740254928,"current_range_meters":15200,"station_id":"cpo3342slgdg3j2ifvpg","pricing_plan_id":"cebpf4jnsgd1na2vs0mg"},{"bike_id":"49f0cfbd-4a05-40e7-84e3-188b77d24ee2","system_id":"levelo_inurba_marseille","lat":43.29346,"lon":5.371,"is_reserved":false,"is_disabled":false,"rental_uris":{"android":"levelo://app?vid=49f0cfbd-4a05-40e7-84e3-188b77d24ee2","ios":"levelo://app?vid=49f0cfbd-4a05-40e7-84e3-188b77d24ee2"},"vehicle_type_id":"4","last_reported":1740254928,"current_range_meters":15200,"station_id":"","pricing_plan_id":"cebpf4jnsgd1na2vs0mg"},{"bike_id":"07e94c33-65a8-4be0-90bf-399fe126c10e","system_id":"levelo_inurba_marseille","lat":43.25014,"lon":5.3896,"is_reserved":false,"is_disabled":false,"rental_uris":{"android":"levelo://app?vid=07e94c33-65a8-4be0-90bf-399fe126c10e","ios":"levelo://app?vid=07e94c33-65a8-4be0-90bf-399fe126c10e"},"vehicle_type_id":"4","last_reported":1740254928,"current_range_meters":15200,"station_id":"ce4bhgp2rcd13ifvqfd0","pricing_plan_id":"cebpf4jnsgd1na2vs0mg"},{"bike_id":"86d33660-9ca6-4773-8884-9e223fd2cf99","system_id":"levelo_inurba_marseille","lat":43.29271,"lon":5.38431,"is_reserved":false,"is_disabled":false,"rental_uris":{"android":"levelo://app?vid=86d33660-9ca6-4773-8884-9e223fd2cf99","ios":"levelo://app?vid=86d33660-9ca6-4773-8884-9e223fd2cf99"},"vehicle_type_id":"4","last_reported":1740254928,"current_range_meters":15200,"station_id":"ce4bh692rcd13ifvqea0","pricing_plan_id":"cebpf4jnsgd1na2vs0mg"},{"bike_id":"cd1c00f0-c8b9-4e04-b4b5-658ee63fda16","system_id":"levelo_inurba_marseille","lat":43.29261,"lon":5.37623,"is_reserved":false,"is_disabled":false,"rental_uris":{"android":"levelo://app?vid=cd1c00f0-c8b9-4e04-b4b5-658ee63fda16","ios":"levelo://app?vid=cd1c00f0-c8b9-4e04-b4b5-658ee63fda16"},"vehicle_type_id":"4","last_reported":1740254928,"current_range_meters":15200,"station_id":"ce4bgi12rcd13ifvqb80","pricing_plan_id":"cebpf4jnsgd1na2vs0mg"},{"bike_id":"025e813a-671a-4ec8-9fc4-a9ae492304f7","system_id":"levelo_inurba_marseille","lat":43.31997,"lon":5.38148,"is_reserved":false,"is_disabled":false,"rental_uris":{"android":"levelo://app?vid=025e813a-671a-4ec8-9fc4-a9ae492304f7","ios":"levelo://app?vid=025e813a-671a-4ec8-9fc4-a9ae492304f7"},"vehicle_type_id":"4","last_reported":1740254928,"current_range_meters":16000,"station_id":"ce4bhr12rcd13ifvqhpg","pricing_plan_id":"cebpf4jnsgd1na2vs0mg"},{"bike_id":"6cee15f5-f5b0-4f78-80d2-62dd5deb5a0a","system_id":"levelo_inurba_marseille","lat":43.26592,"lon":5.39029,"is_reserved":false,"is_disabled":false,"rental_uris":{"android":"levelo://app?vid=6cee15f5-f5b0-4f78-80d2-62dd5deb5a0a","ios":"levelo://app?vid=6cee15f5-f5b0-4f78-80d2-62dd5deb5a0a"},"vehicle_type_id":"4","last_reported":1740254928,"current_range_meters":16000,"station_id":"ce4bhe12rcd13ifvqf30","pricing_plan_id":"cebpf4jnsgd1na2vs0mg"},{"bike_id":"e0384699-de6f-43fc-a328-bbf7ce7a21c9","system_id":"levelo_inurba_marseille","lat":43.32367,"lon":5.38884,"is_reserved":false,"is_disabled":false,"rental_uris":{"android":"levelo://app?vid=e0384699-de6f-43fc-a328-bbf7ce7a21c9","ios":"levelo://app?vid=e0384699-de6f-43fc-a328-bbf7ce7a21c9"},"vehicle_type_id":"4","last_reported":1740254928,"current_range_meters":16000,"station_id":"ce4bhqp2rcd13ifvqhog","pricing_plan_id":"cebpf4jnsgd1na2vs0mg"},{"bike_id":"2e193ad2-1d43-4cac-8342-bcef9743f59a","system_id":"levelo_inurba_marseille","lat":43.23178,"lon":5.35585,"is_reserved":false,"is_disabled":false,"rental_uris":{"android":"levelo://app?vid=2e193ad2-1d43-4cac-8342-bcef9743f59a","ios":"levelo://app?vid=2e193ad2-1d43-4cac-8342-bcef9743f59a"},"vehicle_type_id":"4","last_reported":1740254928,"current_range_meters":16000,"station_id":"ce4bhu92rcd13ifvqi70","pricing_plan_id":"cebpf4jnsgd1na2vs0mg"},{"bike_id":"bda882f7-6496-487e-b376-e5dd74f3fc9a","system_id":"levelo_inurba_marseille","lat":43.28481,"lon":5.38432,"is_reserved":false,"is_disabled":false,"rental_uris":{"android":"levelo://app?vid=bda882f7-6496-487e-b376-e5dd74f3fc9a","ios":"levelo://app?vid=bda882f7-6496-487e-b376-e5dd74f3fc9a"},"vehicle_type_id":"4","last_reported":1740254928,"current_range_meters":16000,"station_id":"ce4bh512rcd13ifvqe3g","pricing_plan_id":"cebpf4jnsgd1na2vs0mg"},{"bike_id":"d0bb6e41-80c1-4c43-b652-1b70203c66ac","system_id":"levelo_inurba_marseille","lat":43.299,"lon":5.437,"is_reserved":false,"is_disabled":false,"rental_uris":{"android":"levelo://app?vid=d0bb6e41-80c1-4c43-b652-1b70203c66ac","ios":"levelo://app?vid=d0bb6e41-80c1-4c43-b652-1b70203c66ac"},"vehicle_type_id":"4","last_reported":1740254928,"current_range_meters":16000,"station_id":"ce4bhpp2rcd13ifvqhfg","pricing_plan_id":"cebpf4jnsgd1na2vs0mg"},{"bike_id":"33cc0fcb-f6e1-44bc-9328-d3f75a5791c5","system_id":"levelo_inurba_marseille","lat":43.2319,"lon":5.35553,"is_reserved":false,"is_disabled":false,"rental_uris":{"android":"levelo://app?vid=33cc0fcb-f6e1-44bc-9328-d3f75a5791c5","ios":"levelo://app?vid=33cc0fcb-f6e1-44bc-9328-d3f75a5791c5"},"vehicle_type_id":"4","last_reported":1740254928,"current_range_meters":16000,"station_id":"ce4bhu92rcd13ifvqi70","pricing_plan_id":"cebpf4jnsgd1na2vs0mg"},{"bike_id":"f5043b92-9d4a-4bb2-9e78-864d7e12fcea","system_id":"levelo_inurba_marseille","lat":43.287063,"lon":5.373583,"is_reserved":false,"is_disabled":false,"rental_uris":{"android":"levelo://app?vid=f5043b92-9d4a-4bb2-9e78-864d7e12fcea","ios":"levelo://app?vid=f5043b92-9d4a-4bb2-9e78-864d7e12fcea"},"vehicle_type_id":"4","last_reported":1740254928,"current_range_meters":16000,"station_id":"ce4bh3p2rcd13ifvqdq0","pricing_plan_id":"cebpf4jnsgd1na2vs0mg"},{"bike_id":"ece11885-e3f7-475c-96b0-11bfced5f442","system_id":"levelo_inurba_marseille","lat":43.29422,"lon":5.3862,"is_reserved":false,"is_disabled":false,"rental_uris":{"android":"levelo://app?vid=ece11885-e3f7-475c-96b0-11bfced5f442","ios":"levelo://app?vid=ece11885-e3f7-475c-96b0-11bfced5f442"},"vehicle_type_id":"4","last_reported":1740254928,"current_range_meters":16000,"station_id":"ce4bh2h2rcd13ifvqdh0","pricing_plan_id":"cebpf4jnsgd1na2vs0mg"},{"bike_id":"34ac0783-9cba-49c4-ad00-33c6e19973f3","system_id":"levelo_inurba_marseille","lat":43.25862,"lon":5.39906,"is_reserved":false,"is_disabled":false,"rental_uris":{"android":"levelo://app?vid=34ac0783-9cba-49c4-ad00-33c6e19973f3","ios":"levelo://app?vid=34ac0783-9cba-49c4-ad00-33c6e19973f3"},"vehicle_type_id":"4","last_reported":1740254928,"current_range_meters":16800,"station_id":"ce4bhl92rcd13ifvqghg","pricing_plan_id":"cebpf4jnsgd1na2vs0mg"},{"bike_id":"179d19f6-3cde-41e7-bfd2-494d91d581f7","system_id":"levelo_inurba_marseille","lat":43.29284,"lon":5.37449,"is_reserved":false,"is_disabled":false,"rental_uris":{"android":"levelo://app?vid=179d19f6-3cde-41e7-bfd2-494d91d581f7","ios":"levelo://app?vid=179d19f6-3cde-41e7-bfd2-494d91d581f7"},"vehicle_type_id":"4","last_reported":1740254928,"current_range_meters":16400,"station_id":"ce4bgi12rcd13ifvqb70","pricing_plan_id":"cebpf4jnsgd1na2vs0mg"},{"bike_id":"0c0a3999-cccd-4dd4-9ef3-7a26541671ed","system_id":"levelo_inurba_marseille","lat":43.30803,"lon":5.43524,"is_reserved":false,"is_disabled":false,"rental_uris":{"android":"levelo://app?vid=0c0a3999-cccd-4dd4-9ef3-7a26541671ed","ios":"levelo://app?vid=0c0a3999-cccd-4dd4-9ef3-7a26541671ed"},"vehicle_type_id":"4","last_reported":1740254928,"current_range_meters":16400,"station_id":"ce4bhph2rcd13ifvqheg","pricing_plan_id":"cebpf4jnsgd1na2vs0mg"},{"bike_id":"f3fcc730-cdc0-4a35-9472-678d95b28e69","system_id":"levelo_inurba_marseille","lat":43.29431,"lon":5.38604,"is_reserved":false,"is_disabled":false,"rental_uris":{"android":"levelo://app?vid=f3fcc730-cdc0-4a35-9472-678d95b28e69","ios":"levelo://app?vid=f3fcc730-cdc0-4a35-9472-678d95b28e69"},"vehicle_type_id":"4","last_reported":1740254928,"current_range_meters":16400,"station_id":"ce4bh2h2rcd13ifvqdh0","pricing_plan_id":"cebpf4jnsgd1na2vs0mg"},{"bike_id":"40bcba1a-7b30-45ab-b4d3-71e5fc074853","system_id":"levelo_inurba_marseille","lat":43.28617,"lon":5.35105,"is_reserved":false,"is_disabled":false,"rental_uris":{"android":"levelo://app?vid=40bcba1a-7b30-45ab-b4d3-71e5fc074853","ios":"levelo://app?vid=40bcba1a-7b30-45ab-b4d3-71e5fc074853"},"vehicle_type_id":"4","last_reported":1740254928,"current_range_meters":16400,"station_id":"ce4bhch2rcd13ifvqeug","pricing_plan_id":"cebpf4jnsgd1na2vs0mg"},{"bike_id":"e26cf8ae-ed24-4cc0-b888-9c4f5c1be11e","system_id":"levelo_inurba_marseille","lat":43.27911,"lon":5.3801,"is_reserved":false,"is_disabled":false,"rental_uris":{"android":"levelo://app?vid=e26cf8ae-ed24-4cc0-b888-9c4f5c1be11e","ios":"levelo://app?vid=e26cf8ae-ed24-4cc0-b888-9c4f5c1be11e"},"vehicle_type_id":"4","last_reported":1740254928,"current_range_meters":16400,"station_id":"ce4bhf92rcd13ifvqf50","pricing_plan_id":"cebpf4jnsgd1na2vs0mg"},{"bike_id":"7edad6f1-bb02-4747-8467-5494540e990b","system_id":"levelo_inurba_marseille","lat":43.25001,"lon":5.38918,"is_reserved":false,"is_disabled":false,"rental_uris":{"android":"levelo://app?vid=7edad6f1-bb02-4747-8467-5494540e990b","ios":"levelo://app?vid=7edad6f1-bb02-4747-8467-5494540e990b"},"vehicle_type_id":"4","last_reported":1740254928,"current_range_meters":16400,"station_id":"ce4bhgp2rcd13ifvqfd0","pricing_plan_id":"cebpf4jnsgd1na2vs0mg"},{"bike_id":"fd66f40d-dc7c-4c90-afd8-27e47dce8454","system_id":"levelo_inurba_marseille","lat":43.29413,"lon":5.38628,"is_reserved":false,"is_disabled":false,"rental_uris":{"android":"levelo://app?vid=fd66f40d-dc7c-4c90-afd8-27e47dce8454","ios":"levelo://app?vid=fd66f40d-dc7c-4c90-afd8-27e47dce8454"},"vehicle_type_id":"4","last_reported":1740254928,"current_range_meters":16800,"station_id":"ce4bh2h2rcd13ifvqdh0","pricing_plan_id":"cebpf4jnsgd1na2vs0mg"},{"bike_id":"ef73e067-e342-4ea1-a21d-5bab7be015a4","system_id":"levelo_inurba_marseille","lat":43.32311,"lon":5.39231,"is_reserved":false,"is_disabled":false,"rental_uris":{"android":"levelo://app?vid=ef73e067-e342-4ea1-a21d-5bab7be015a4","ios":"levelo://app?vid=ef73e067-e342-4ea1-a21d-5bab7be015a4"},"vehicle_type_id":"4","last_reported":1740254928,"current_range_meters":16800,"station_id":"","pricing_plan_id":"cebpf4jnsgd1na2vs0mg"},{"bike_id":"1cd38b2f-589c-45ab-871e-cdb4d0ec0292","system_id":"levelo_inurba_marseille","lat":43.25122,"lon":5.40319,"is_reserved":false,"is_disabled":false,"rental_uris":{"android":"levelo://app?vid=1cd38b2f-589c-45ab-871e-cdb4d0ec0292","ios":"levelo://app?vid=1cd38b2f-589c-45ab-871e-cdb4d0ec0292"},"vehicle_type_id":"4","last_reported":1740254928,"current_range_meters":16800,"station_id":"ce4bhlh2rcd13ifvqgig","pricing_plan_id":"cebpf4jnsgd1na2vs0mg"},{"bike_id":"0547a9fd-58cf-4165-882e-7c5b7165298d","system_id":"levelo_inurba_marseille","lat":43.27622,"lon":5.36107,"is_reserved":false,"is_disabled":false,"rental_uris":{"android":"levelo://app?vid=0547a9fd-58cf-4165-882e-7c5b7165298d","ios":"levelo://app?vid=0547a9fd-58cf-4165-882e-7c5b7165298d"},"vehicle_type_id":"4","last_reported":1740254928,"current_range_meters":17200,"station_id":"ce4bgj92rcd13ifvqbe0","pricing_plan_id":"cebpf4jnsgd1na2vs0mg"},{"bike_id":"4caf490d-10e5-4073-8dae-a68a285775aa","system_id":"levelo_inurba_marseille","lat":43.24404,"lon":5.37038,"is_reserved":false,"is_disabled":false,"rental_uris":{"android":"levelo://app?vid=4caf490d-10e5-4073-8dae-a68a285775aa","ios":"levelo://app?vid=4caf490d-10e5-4073-8dae-a68a285775aa"},"vehicle_type_id":"4","last_reported":1740254928,"current_range_meters":16800,"station_id":"ce4bhhh2rcd13ifvqfk0","pricing_plan_id":"cebpf4jnsgd1na2vs0mg"},{"bike_id":"e636832d-d31d-492b-9bcd-b899a106503d","system_id":"levelo_inurba_marseille","lat":43.2417,"lon":5.3639,"is_reserved":false,"is_disabled":false,"rental_uris":{"android":"levelo://app?vid=e636832d-d31d-492b-9bcd-b899a106503d","ios":"levelo://app?vid=e636832d-d31d-492b-9bcd-b899a106503d"},"vehicle_type_id":"4","last_reported":1740254928,"current_range_meters":16800,"station_id":"cpo36qri1sfpv3e86is0","pricing_plan_id":"cebpf4jnsgd1na2vs0mg"},{"bike_id":"2ffd08bb-955b-4eca-8e11-f3c78aad68de","system_id":"levelo_inurba_marseille","lat":43.29606,"lon":5.38095,"is_reserved":false,"is_disabled":false,"rental_uris":{"android":"levelo://app?vid=2ffd08bb-955b-4eca-8e11-f3c78aad68de","ios":"levelo://app?vid=2ffd08bb-955b-4eca-8e11-f3c78aad68de"},"vehicle_type_id":"4","last_reported":1740254928,"current_range_meters":16800,"station_id":"ce4bgl12rcd13ifvqbo0","pricing_plan_id":"cebpf4jnsgd1na2vs0mg"},{"bike_id":"7d4b257a-c60d-48e8-85d7-7dc3f985241e","system_id":"levelo_inurba_marseille","lat":43.29629,"lon":5.38562,"is_reserved":false,"is_disabled":false,"rental_uris":{"android":"levelo://app?vid=7d4b257a-c60d-48e8-85d7-7dc3f985241e","ios":"levelo://app?vid=7d4b257a-c60d-48e8-85d7-7dc3f985241e"},"vehicle_type_id":"4","last_reported":1740254928,"current_range_meters":16800,"station_id":"","pricing_plan_id":"cebpf4jnsgd1na2vs0mg"},{"bike_id":"ea1ea19a-36b9-41cb-b6f7-565f583d6040","system_id":"levelo_inurba_marseille","lat":43.293,"lon":5.37453,"is_reserved":false,"is_disabled":false,"rental_uris":{"android":"levelo://app?vid=ea1ea19a-36b9-41cb-b6f7-565f583d6040","ios":"levelo://app?vid=ea1ea19a-36b9-41cb-b6f7-565f583d6040"},"vehicle_type_id":"4","last_reported":1740254928,"current_range_meters":16800,"station_id":"ce4bgi12rcd13ifvqb70","pricing_plan_id":"cebpf4jnsgd1na2vs0mg"},{"bike_id":"ac35e38f-342c-4802-b395-a37e42a10246","system_id":"levelo_inurba_marseille","lat":43.29262,"lon":5.38434,"is_reserved":false,"is_disabled":false,"rental_uris":{"android":"levelo://app?vid=ac35e38f-342c-4802-b395-a37e42a10246","ios":"levelo://app?vid=ac35e38f-342c-4802-b395-a37e42a10246"},"vehicle_type_id":"4","last_reported":1740254928,"current_range_meters":16800,"station_id":"ce4bh692rcd13ifvqea0","pricing_plan_id":"cebpf4jnsgd1na2vs0mg"},{"bike_id":"a3610751-bbe4-4d3e-a717-1a0eebd2fb2a","system_id":"levelo_inurba_marseille","lat":43.30669,"lon":5.37523,"is_reserved":false,"is_disabled":false,"rental_uris":{"android":"levelo://app?vid=a3610751-bbe4-4d3e-a717-1a0eebd2fb2a","ios":"levelo://app?vid=a3610751-bbe4-4d3e-a717-1a0eebd2fb2a"},"vehicle_type_id":"4","last_reported":1740254928,"current_range_meters":16800,"station_id":"","pricing_plan_id":"cebpf4jnsgd1na2vs0mg"},{"bike_id":"9d9db6a2-7d28-4823-be9f-cc5c751a0e2d","system_id":"levelo_inurba_marseille","lat":43.29421,"lon":5.38628,"is_reserved":false,"is_disabled":false,"rental_uris":{"android":"levelo://app?vid=9d9db6a2-7d28-4823-be9f-cc5c751a0e2d","ios":"levelo://app?vid=9d9db6a2-7d28-4823-be9f-cc5c751a0e2d"},"vehicle_type_id":"4","last_reported":1740254928,"current_range_meters":16800,"station_id":"ce4bh2h2rcd13ifvqdh0","pricing_plan_id":"cebpf4jnsgd1na2vs0mg"},{"bike_id":"6d91493f-a330-4677-a999-237e75b47b61","system_id":"levelo_inurba_marseille","lat":43.29261,"lon":5.38436,"is_reserved":false,"is_disabled":false,"rental_uris":{"android":"levelo://app?vid=6d91493f-a330-4677-a999-237e75b47b61","ios":"levelo://app?vid=6d91493f-a330-4677-a999-237e75b47b61"},"vehicle_type_id":"4","last_reported":1740254928,"current_range_meters":16800,"station_id":"ce4bh692rcd13ifvqea0","pricing_plan_id":"cebpf4jnsgd1na2vs0mg"},{"bike_id":"80e30e07-59ff-4807-b06b-c6dc1a9e08e2","system_id":"levelo_inurba_marseille","lat":43.33601,"lon":5.40997,"is_reserved":false,"is_disabled":true,"rental_uris":{"android":"levelo://app?vid=80e30e07-59ff-4807-b06b-c6dc1a9e08e2","ios":"levelo://app?vid=80e30e07-59ff-4807-b06b-c6dc1a9e08e2"},"vehicle_type_id":"4","last_reported":1740254928,"current_range_meters":17200,"station_id":"ce4bhqh2rcd13ifvqhmg","pricing_plan_id":"cebpf4jnsgd1na2vs0mg"},{"bike_id":"09ac4e47-93d3-4952-afbb-6e9dccf56d6a","system_id":"levelo_inurba_marseille","lat":43.2931,"lon":5.37167,"is_reserved":false,"is_disabled":false,"rental_uris":{"android":"levelo://app?vid=09ac4e47-93d3-4952-afbb-6e9dccf56d6a","ios":"levelo://app?vid=09ac4e47-93d3-4952-afbb-6e9dccf56d6a"},"vehicle_type_id":"4","last_reported":1740254928,"current_range_meters":17200,"station_id":"ce4bgh92rcd13ifvqb40","pricing_plan_id":"cebpf4jnsgd1na2vs0mg"},{"bike_id":"65309829-6671-418e-8fe4-0cefb88aaa65","system_id":"levelo_inurba_marseille","lat":43.260162,"lon":5.37551,"is_reserved":false,"is_disabled":false,"rental_uris":{"android":"levelo://app?vid=65309829-6671-418e-8fe4-0cefb88aaa65","ios":"levelo://app?vid=65309829-6671-418e-8fe4-0cefb88aaa65"},"vehicle_type_id":"4","last_reported":1740254928,"current_range_meters":17600,"station_id":"ce4bhnp2rcd13ifvqgvg","pricing_plan_id":"cebpf4jnsgd1na2vs0mg"},{"bike_id":"d53720bf-bb9a-493e-a965-c0754ac375f4","system_id":"levelo_inurba_marseille","lat":43.29255,"lon":5.38409,"is_reserved":false,"is_disabled":false,"rental_uris":{"android":"levelo://app?vid=d53720bf-bb9a-493e-a965-c0754ac375f4","ios":"levelo://app?vid=d53720bf-bb9a-493e-a965-c0754ac375f4"},"vehicle_type_id":"4","last_reported":1740254928,"current_range_meters":17200,"station_id":"ce4bh692rcd13ifvqea0","pricing_plan_id":"cebpf4jnsgd1na2vs0mg"},{"bike_id":"2500fa15-91ee-4850-8ce9-eb499fcb7083","system_id":"levelo_inurba_marseille","lat":43.29532,"lon":5.38561,"is_reserved":false,"is_disabled":false,"rental_uris":{"android":"levelo://app?vid=2500fa15-91ee-4850-8ce9-eb499fcb7083","ios":"levelo://app?vid=2500fa15-91ee-4850-8ce9-eb499fcb7083"},"vehicle_type_id":"4","last_reported":1740254928,"current_range_meters":17200,"station_id":"ce4bgih2rcd13ifvqba0","pricing_plan_id":"cebpf4jnsgd1na2vs0mg"},{"bike_id":"dee7f1e6-c6b1-45d6-8ac4-ebe1efcdd52f","system_id":"levelo_inurba_marseille","lat":43.23958,"lon":5.36656,"is_reserved":false,"is_disabled":false,"rental_uris":{"android":"levelo://app?vid=dee7f1e6-c6b1-45d6-8ac4-ebe1efcdd52f","ios":"levelo://app?vid=dee7f1e6-c6b1-45d6-8ac4-ebe1efcdd52f"},"vehicle_type_id":"4","last_reported":1740254928,"current_range_meters":17600,"station_id":"ce4bhi12rcd13ifvqfp0","pricing_plan_id":"cebpf4jnsgd1na2vs0mg"},{"bike_id":"0e323633-b9b5-4343-bed5-c5f746e30f43","system_id":"levelo_inurba_marseille","lat":43.29537,"lon":5.37508,"is_reserved":false,"is_disabled":false,"rental_uris":{"android":"levelo://app?vid=0e323633-b9b5-4343-bed5-c5f746e30f43","ios":"levelo://app?vid=0e323633-b9b5-4343-bed5-c5f746e30f43"},"vehicle_type_id":"4","last_reported":1740254928,"current_range_meters":17600,"station_id":"ce4bgkp2rcd13ifvqbmg","pricing_plan_id":"cebpf4jnsgd1na2vs0mg"},{"bike_id":"94d81672-f077-455d-ad5d-d4332136c2a8","system_id":"levelo_inurba_marseille","lat":43.22942,"lon":5.35372,"is_reserved":false,"is_disabled":false,"rental_uris":{"android":"levelo://app?vid=94d81672-f077-455d-ad5d-d4332136c2a8","ios":"levelo://app?vid=94d81672-f077-455d-ad5d-d4332136c2a8"},"vehicle_type_id":"4","last_reported":1740254928,"current_range_meters":17600,"station_id":"cpo3532slgdg3j2ikp40","pricing_plan_id":"cebpf4jnsgd1na2vs0mg"},{"bike_id":"8e167635-3901-414e-97ad-700eaf178302","system_id":"levelo_inurba_marseille","lat":43.29005,"lon":5.35617,"is_reserved":false,"is_disabled":false,"rental_uris":{"android":"levelo://app?vid=8e167635-3901-414e-97ad-700eaf178302","ios":"levelo://app?vid=8e167635-3901-414e-97ad-700eaf178302"},"vehicle_type_id":"4","last_reported":1740254928,"current_range_meters":17600,"station_id":"ce4bhb92rcd13ifvqen0","pricing_plan_id":"cebpf4jnsgd1na2vs0mg"},{"bike_id":"7c9482d9-cca8-4b2f-b61e-a8620285d3df","system_id":"levelo_inurba_marseille","lat":43.25499,"lon":5.37655,"is_reserved":false,"is_disabled":false,"rental_uris":{"android":"levelo://app?vid=7c9482d9-cca8-4b2f-b61e-a8620285d3df","ios":"levelo://app?vid=7c9482d9-cca8-4b2f-b61e-a8620285d3df"},"vehicle_type_id":"4","last_reported":1740254928,"current_range_meters":17600,"station_id":"ce4bhh12rcd13ifvqff0","pricing_plan_id":"cebpf4jnsgd1na2vs0mg"},{"bike_id":"7330758a-b186-4c5c-af68-65980e50c2ac","system_id":"levelo_inurba_marseille","lat":43.28045,"lon":5.36931,"is_reserved":false,"is_disabled":false,"rental_uris":{"android":"levelo://app?vid=7330758a-b186-4c5c-af68-65980e50c2ac","ios":"levelo://app?vid=7330758a-b186-4c5c-af68-65980e50c2ac"},"vehicle_type_id":"4","last_reported":1740254928,"current_range_meters":17600,"station_id":"ce4bha12rcd13ifvqef0","pricing_plan_id":"cebpf4jnsgd1na2vs0mg"},{"bike_id":"35f7fe5f-b05d-405c-a155-dda0758733e2","system_id":"levelo_inurba_marseille","lat":43.28154,"lon":5.42634,"is_reserved":false,"is_disabled":true,"rental_uris":{"android":"levelo://app?vid=35f7fe5f-b05d-405c-a155-dda0758733e2","ios":"levelo://app?vid=35f7fe5f-b05d-405c-a155-dda0758733e2"},"vehicle_type_id":"4","last_reported":1740254928,"current_range_meters":17600,"station_id":"ce4bhnh2rcd13ifvqgug","pricing_plan_id":"cebpf4jnsgd1na2vs0mg"},{"bike_id":"61d23409-5051-4c66-8e2a-da18287c489b","system_id":"levelo_inurba_marseille","lat":43.29269,"lon":5.38444,"is_reserved":false,"is_disabled":false,"rental_uris":{"android":"levelo://app?vid=61d23409-5051-4c66-8e2a-da18287c489b","ios":"levelo://app?vid=61d23409-5051-4c66-8e2a-da18287c489b"},"vehicle_type_id":"4","last_reported":1740254928,"current_range_meters":17600,"station_id":"ce4bh692rcd13ifvqea0","pricing_plan_id":"cebpf4jnsgd1na2vs0mg"},{"bike_id":"bac47dfe-72b5-47d6-90d3-99dd2d4bf0e1","system_id":"levelo_inurba_marseille","lat":43.29259,"lon":5.38439,"is_reserved":false,"is_disabled":false,"rental_uris":{"android":"levelo://app?vid=bac47dfe-72b5-47d6-90d3-99dd2d4bf0e1","ios":"levelo://app?vid=bac47dfe-72b5-47d6-90d3-99dd2d4bf0e1"},"vehicle_type_id":"4","last_reported":1740254928,"current_range_meters":17600,"station_id":"ce4bh692rcd13ifvqea0","pricing_plan_id":"cebpf4jnsgd1na2vs0mg"},{"bike_id":"646676b1-03b3-4e7f-9433-eb67708a5b37","system_id":"levelo_inurba_marseille","lat":43.28724,"lon":5.36082,"is_reserved":false,"is_disabled":false,"rental_uris":{"android":"levelo://app?vid=646676b1-03b3-4e7f-9433-eb67708a5b37","ios":"levelo://app?vid=646676b1-03b3-4e7f-9433-eb67708a5b37"},"vehicle_type_id":"4","last_reported":1740254928,"current_range_meters":18000,"station_id":"cki0cbj6b192h4jlfktg","pricing_plan_id":"cebpf4jnsgd1na2vs0mg"},{"bike_id":"31c04e3b-ed31-4ebf-b239-af65f76f849a","system_id":"levelo_inurba_marseille","lat":43.2959,"lon":5.38097,"is_reserved":false,"is_disabled":false,"rental_uris":{"android":"levelo://app?vid=31c04e3b-ed31-4ebf-b239-af65f76f849a","ios":"levelo://app?vid=31c04e3b-ed31-4ebf-b239-af65f76f849a"},"vehicle_type_id":"4","last_reported":1740254928,"current_range_meters":17600,"station_id":"ce4bgl12rcd13ifvqbo0","pricing_plan_id":"cebpf4jnsgd1na2vs0mg"},{"bike_id":"e92aa907-5852-4b8c-9c0a-cde3694824d5","system_id":"levelo_inurba_marseille","lat":43.29878,"lon":5.38912,"is_reserved":false,"is_disabled":false,"rental_uris":{"android":"levelo://app?vid=e92aa907-5852-4b8c-9c0a-cde3694824d5","ios":"levelo://app?vid=e92aa907-5852-4b8c-9c0a-cde3694824d5"},"vehicle_type_id":"4","last_reported":1740254928,"current_range_meters":17600,"station_id":"ce4bh392rcd13ifvqdl0","pricing_plan_id":"cebpf4jnsgd1na2vs0mg"},{"bike_id":"47c58b1f-0f04-4a95-ba73-4d794abee5f2","system_id":"levelo_inurba_marseille","lat":43.30446,"lon":5.38898,"is_reserved":false,"is_disabled":true,"rental_uris":{"android":"levelo://app?vid=47c58b1f-0f04-4a95-ba73-4d794abee5f2","ios":"levelo://app?vid=47c58b1f-0f04-4a95-ba73-4d794abee5f2"},"vehicle_type_id":"4","last_reported":1740254928,"current_range_meters":18000,"station_id":"ce4bgk12rcd13ifvqbi0","pricing_plan_id":"cebpf4jnsgd1na2vs0mg"},{"bike_id":"6b858b1f-ae4a-4457-a3b7-17cd4eda49ba","system_id":"levelo_inurba_marseille","lat":43.29271,"lon":5.40157,"is_reserved":false,"is_disabled":false,"rental_uris":{"android":"levelo://app?vid=6b858b1f-ae4a-4457-a3b7-17cd4eda49ba","ios":"levelo://app?vid=6b858b1f-ae4a-4457-a3b7-17cd4eda49ba"},"vehicle_type_id":"4","last_reported":1740254928,"current_range_meters":18000,"station_id":"ce4bh312rcd13ifvqdk0","pricing_plan_id":"cebpf4jnsgd1na2vs0mg"},{"bike_id":"6edc9f2f-6ecc-451e-b0c5-618061ff9a68","system_id":"levelo_inurba_marseille","lat":43.29419,"lon":5.38636,"is_reserved":false,"is_disabled":false,"rental_uris":{"android":"levelo://app?vid=6edc9f2f-6ecc-451e-b0c5-618061ff9a68","ios":"levelo://app?vid=6edc9f2f-6ecc-451e-b0c5-618061ff9a68"},"vehicle_type_id":"4","last_reported":1740254928,"current_range_meters":18000,"station_id":"ce4bh2h2rcd13ifvqdh0","pricing_plan_id":"cebpf4jnsgd1na2vs0mg"},{"bike_id":"b14f0ae0-79ec-4116-81af-cc68da69fdfd","system_id":"levelo_inurba_marseille","lat":43.28709,"lon":5.37377,"is_reserved":false,"is_disabled":false,"rental_uris":{"android":"levelo://app?vid=b14f0ae0-79ec-4116-81af-cc68da69fdfd","ios":"levelo://app?vid=b14f0ae0-79ec-4116-81af-cc68da69fdfd"},"vehicle_type_id":"4","last_reported":1740254928,"current_range_meters":18000,"station_id":"ce4bh3p2rcd13ifvqdq0","pricing_plan_id":"cebpf4jnsgd1na2vs0mg"},{"bike_id":"9faf844a-413f-419f-bdea-64830f7f2bfb","system_id":"levelo_inurba_marseille","lat":43.29928,"lon":5.37889,"is_reserved":false,"is_disabled":false,"rental_uris":{"android":"levelo://app?vid=9faf844a-413f-419f-bdea-64830f7f2bfb","ios":"levelo://app?vid=9faf844a-413f-419f-bdea-64830f7f2bfb"},"vehicle_type_id":"4","last_reported":1740254928,"current_range_meters":18000,"station_id":"","pricing_plan_id":"cebpf4jnsgd1na2vs0mg"},{"bike_id":"64bdcc05-2edc-4423-92e4-1f8ba9d38bbd","system_id":"levelo_inurba_marseille","lat":43.32289,"lon":5.38283,"is_reserved":false,"is_disabled":false,"rental_uris":{"android":"levelo://app?vid=64bdcc05-2edc-4423-92e4-1f8ba9d38bbd","ios":"levelo://app?vid=64bdcc05-2edc-4423-92e4-1f8ba9d38bbd"},"vehicle_type_id":"4","last_reported":1740254928,"current_range_meters":18000,"station_id":"ce4bhr12rcd13ifvqhqg","pricing_plan_id":"cebpf4jnsgd1na2vs0mg"},{"bike_id":"02b0a3a4-aed7-4356-a717-26680ebc2216","system_id":"levelo_inurba_marseille","lat":43.29417,"lon":5.38641,"is_reserved":false,"is_disabled":false,"rental_uris":{"android":"levelo://app?vid=02b0a3a4-aed7-4356-a717-26680ebc2216","ios":"levelo://app?vid=02b0a3a4-aed7-4356-a717-26680ebc2216"},"vehicle_type_id":"4","last_reported":1740254928,"current_range_meters":18000,"station_id":"ce4bh2h2rcd13ifvqdh0","pricing_plan_id":"cebpf4jnsgd1na2vs0mg"},{"bike_id":"db43dc5d-94a6-4bbb-95b6-f3b21a7adf00","system_id":"levelo_inurba_marseille","lat":43.29307,"lon":5.37181,"is_reserved":false,"is_disabled":false,"rental_uris":{"android":"levelo://app?vid=db43dc5d-94a6-4bbb-95b6-f3b21a7adf00","ios":"levelo://app?vid=db43dc5d-94a6-4bbb-95b6-f3b21a7adf00"},"vehicle_type_id":"4","last_reported":1740254928,"current_range_meters":18000,"station_id":"ce4bgh92rcd13ifvqb40","pricing_plan_id":"cebpf4jnsgd1na2vs0mg"},{"bike_id":"d306fa0c-35c8-404b-8d6f-e1fa7ab508eb","system_id":"levelo_inurba_marseille","lat":43.28002,"lon":5.40019,"is_reserved":false,"is_disabled":false,"rental_uris":{"android":"levelo://app?vid=d306fa0c-35c8-404b-8d6f-e1fa7ab508eb","ios":"levelo://app?vid=d306fa0c-35c8-404b-8d6f-e1fa7ab508eb"},"vehicle_type_id":"4","last_reported":1740254928,"current_range_meters":18800,"station_id":"ce4bho92rcd13ifvqh4g","pricing_plan_id":"cebpf4jnsgd1na2vs0mg"},{"bike_id":"e501be99-a171-4e91-9e5b-ac547e4c06f2","system_id":"levelo_inurba_marseille","lat":43.231997,"lon":5.355492,"is_reserved":false,"is_disabled":false,"rental_uris":{"android":"levelo://app?vid=e501be99-a171-4e91-9e5b-ac547e4c06f2","ios":"levelo://app?vid=e501be99-a171-4e91-9e5b-ac547e4c06f2"},"vehicle_type_id":"4","last_reported":1740254928,"current_range_meters":18000,"station_id":"ce4bhu92rcd13ifvqi70","pricing_plan_id":"cebpf4jnsgd1na2vs0mg"},{"bike_id":"7f16630f-c1f3-4f7c-96e6-87910328f480","system_id":"levelo_inurba_marseille","lat":43.29186,"lon":5.39304,"is_reserved":false,"is_disabled":false,"rental_uris":{"android":"levelo://app?vid=7f16630f-c1f3-4f7c-96e6-87910328f480","ios":"levelo://app?vid=7f16630f-c1f3-4f7c-96e6-87910328f480"},"vehicle_type_id":"4","last_reported":1740254928,"current_range_meters":18800,"station_id":"ce4bh192rcd13ifvqdd0","pricing_plan_id":"cebpf4jnsgd1na2vs0mg"},{"bike_id":"a0c1b570-1fea-4062-97be-b318c2404cb4","system_id":"levelo_inurba_marseille","lat":43.29532,"lon":5.38546,"is_reserved":false,"is_disabled":false,"rental_uris":{"android":"levelo://app?vid=a0c1b570-1fea-4062-97be-b318c2404cb4","ios":"levelo://app?vid=a0c1b570-1fea-4062-97be-b318c2404cb4"},"vehicle_type_id":"4","last_reported":1740254928,"current_range_meters":18800,"station_id":"ce4bgih2rcd13ifvqba0","pricing_plan_id":"cebpf4jnsgd1na2vs0mg"},{"bike_id":"c6271dea-ad5c-4a8e-b572-f501cf0479cb","system_id":"levelo_inurba_marseille","lat":43.29531,"lon":5.38543,"is_reserved":false,"is_disabled":false,"rental_uris":{"android":"levelo://app?vid=c6271dea-ad5c-4a8e-b572-f501cf0479cb","ios":"levelo://app?vid=c6271dea-ad5c-4a8e-b572-f501cf0479cb"},"vehicle_type_id":"4","last_reported":1740254928,"current_range_meters":18800,"station_id":"ce4bgih2rcd13ifvqba0","pricing_plan_id":"cebpf4jnsgd1na2vs0mg"},{"bike_id":"26acf888-5471-4e61-a395-9c1a8e28b166","system_id":"levelo_inurba_marseille","lat":43.28255,"lon":5.35066,"is_reserved":false,"is_disabled":false,"rental_uris":{"android":"levelo://app?vid=26acf888-5471-4e61-a395-9c1a8e28b166","ios":"levelo://app?vid=26acf888-5471-4e61-a395-9c1a8e28b166"},"vehicle_type_id":"4","last_reported":1740254928,"current_range_meters":18800,"station_id":"ce4bhbp2rcd13ifvqerg","pricing_plan_id":"cebpf4jnsgd1na2vs0mg"},{"bike_id":"bd13f35f-5962-4d3b-8852-0ca10be0eb90","system_id":"levelo_inurba_marseille","lat":43.27935,"lon":5.41058,"is_reserved":false,"is_disabled":false,"rental_uris":{"android":"levelo://app?vid=bd13f35f-5962-4d3b-8852-0ca10be0eb90","ios":"levelo://app?vid=bd13f35f-5962-4d3b-8852-0ca10be0eb90"},"vehicle_type_id":"4","last_reported":1740254928,"current_range_meters":18800,"station_id":"ce4bhnp2rcd13ifvqh0g","pricing_plan_id":"cebpf4jnsgd1na2vs0mg"},{"bike_id":"2ea0cbd8-6c8f-41dd-9444-c0db2867cbc2","system_id":"levelo_inurba_marseille","lat":43.23136,"lon":5.43729,"is_reserved":false,"is_disabled":false,"rental_uris":{"android":"levelo://app?vid=2ea0cbd8-6c8f-41dd-9444-c0db2867cbc2","ios":"levelo://app?vid=2ea0cbd8-6c8f-41dd-9444-c0db2867cbc2"},"vehicle_type_id":"4","last_reported":1740254928,"current_range_meters":18800,"station_id":"ce4bhmp2rcd13ifvqgog","pricing_plan_id":"cebpf4jnsgd1na2vs0mg"},{"bike_id":"7771fdde-9496-4c9c-9647-c7256be1dc15","system_id":"levelo_inurba_marseille","lat":43.29522,"lon":5.37517,"is_reserved":false,"is_disabled":false,"rental_uris":{"android":"levelo://app?vid=7771fdde-9496-4c9c-9647-c7256be1dc15","ios":"levelo://app?vid=7771fdde-9496-4c9c-9647-c7256be1dc15"},"vehicle_type_id":"4","last_reported":1740254928,"current_range_meters":18800,"station_id":"ce4bgkp2rcd13ifvqbmg","pricing_plan_id":"cebpf4jnsgd1na2vs0mg"},{"bike_id":"5b528b49-1012-44a2-b621-604fe9ca9bca","system_id":"levelo_inurba_marseille","lat":43.294,"lon":5.38668,"is_reserved":false,"is_disabled":false,"rental_uris":{"android":"levelo://app?vid=5b528b49-1012-44a2-b621-604fe9ca9bca","ios":"levelo://app?vid=5b528b49-1012-44a2-b621-604fe9ca9bca"},"vehicle_type_id":"4","last_reported":1740254928,"current_range_meters":18800,"station_id":"ce4bh2h2rcd13ifvqdh0","pricing_plan_id":"cebpf4jnsgd1na2vs0mg"},{"bike_id":"faeb2e28-4e2f-4cbb-aea8-2733d5daab0d","system_id":"levelo_inurba_marseille","lat":43.2871,"lon":5.37393,"is_reserved":false,"is_disabled":false,"rental_uris":{"android":"levelo://app?vid=faeb2e28-4e2f-4cbb-aea8-2733d5daab0d","ios":"levelo://app?vid=faeb2e28-4e2f-4cbb-aea8-2733d5daab0d"},"vehicle_type_id":"4","last_reported":1740254928,"current_range_meters":18800,"station_id":"ce4bh3p2rcd13ifvqdq0","pricing_plan_id":"cebpf4jnsgd1na2vs0mg"},{"bike_id":"ce43fea7-ca4d-42e3-9f09-9adaf9924fa9","system_id":"levelo_inurba_marseille","lat":43.29794,"lon":5.38115,"is_reserved":false,"is_disabled":false,"rental_uris":{"android":"levelo://app?vid=ce43fea7-ca4d-42e3-9f09-9adaf9924fa9","ios":"levelo://app?vid=ce43fea7-ca4d-42e3-9f09-9adaf9924fa9"},"vehicle_type_id":"4","last_reported":1740254928,"current_range_meters":19200,"station_id":"ce4bgip2rcd13ifvqbb0","pricing_plan_id":"cebpf4jnsgd1na2vs0mg"},{"bike_id":"061355d5-536a-40c5-8687-09e096cc14be","system_id":"levelo_inurba_marseille","lat":43.29558,"lon":5.37539,"is_reserved":false,"is_disabled":false,"rental_uris":{"android":"levelo://app?vid=061355d5-536a-40c5-8687-09e096cc14be","ios":"levelo://app?vid=061355d5-536a-40c5-8687-09e096cc14be"},"vehicle_type_id":"4","last_reported":1740254928,"current_range_meters":19200,"station_id":"ce4bgh92rcd13ifvqb50","pricing_plan_id":"cebpf4jnsgd1na2vs0mg"},{"bike_id":"242d59e5-09a8-402a-868e-9e7bf77c3a17","system_id":"levelo_inurba_marseille","lat":43.29595,"lon":5.38092,"is_reserved":false,"is_disabled":false,"rental_uris":{"android":"levelo://app?vid=242d59e5-09a8-402a-868e-9e7bf77c3a17","ios":"levelo://app?vid=242d59e5-09a8-402a-868e-9e7bf77c3a17"},"vehicle_type_id":"4","last_reported":1740254928,"current_range_meters":19200,"station_id":"ce4bgl12rcd13ifvqbo0","pricing_plan_id":"cebpf4jnsgd1na2vs0mg"},{"bike_id":"e672cd00-72b0-400a-8535-9ab04e4611c6","system_id":"levelo_inurba_marseille","lat":43.24397,"lon":5.37063,"is_reserved":false,"is_disabled":false,"rental_uris":{"android":"levelo://app?vid=e672cd00-72b0-400a-8535-9ab04e4611c6","ios":"levelo://app?vid=e672cd00-72b0-400a-8535-9ab04e4611c6"},"vehicle_type_id":"4","last_reported":1740254928,"current_range_meters":19200,"station_id":"ce4bhhh2rcd13ifvqfk0","pricing_plan_id":"cebpf4jnsgd1na2vs0mg"},{"bike_id":"3b1fb618-e85e-4c4c-b930-33e451c4d0f9","system_id":"levelo_inurba_marseille","lat":43.30133,"lon":5.37401,"is_reserved":false,"is_disabled":false,"rental_uris":{"android":"levelo://app?vid=3b1fb618-e85e-4c4c-b930-33e451c4d0f9","ios":"levelo://app?vid=3b1fb618-e85e-4c4c-b930-33e451c4d0f9"},"vehicle_type_id":"4","last_reported":1740254928,"current_range_meters":19200,"station_id":"ce4bgs92rcd13ifvqcc0","pricing_plan_id":"cebpf4jnsgd1na2vs0mg"},{"bike_id":"68c1cb49-7da1-4934-a025-4e78e338d091","system_id":"levelo_inurba_marseille","lat":43.337638,"lon":5.374412,"is_reserved":false,"is_disabled":false,"rental_uris":{"android":"levelo://app?vid=68c1cb49-7da1-4934-a025-4e78e338d091","ios":"levelo://app?vid=68c1cb49-7da1-4934-a025-4e78e338d091"},"vehicle_type_id":"4","last_reported":1740254928,"current_range_meters":19200,"station_id":"","pricing_plan_id":"cebpf4jnsgd1na2vs0mg"},{"bike_id":"6fbfea78-6d20-4662-918b-9af9b514e46f","system_id":"levelo_inurba_marseille","lat":43.29279,"lon":5.36847,"is_reserved":false,"is_disabled":false,"rental_uris":{"android":"levelo://app?vid=6fbfea78-6d20-4662-918b-9af9b514e46f","ios":"levelo://app?vid=6fbfea78-6d20-4662-918b-9af9b514e46f"},"vehicle_type_id":"4","last_reported":1740254928,"current_range_meters":19200,"station_id":"ce4bhbp2rcd13ifvqesg","pricing_plan_id":"cebpf4jnsgd1na2vs0mg"},{"bike_id":"994f018b-c82d-4a25-adda-3f94c1bdb408","system_id":"levelo_inurba_marseille","lat":43.29791,"lon":5.37103,"is_reserved":false,"is_disabled":false,"rental_uris":{"android":"levelo://app?vid=994f018b-c82d-4a25-adda-3f94c1bdb408","ios":"levelo://app?vid=994f018b-c82d-4a25-adda-3f94c1bdb408"},"vehicle_type_id":"4","last_reported":1740254928,"current_range_meters":19200,"station_id":"ce4bgop2rcd13ifvqc1g","pricing_plan_id":"cebpf4jnsgd1na2vs0mg"},