{"last_updated":1747833867,"ttl":60,"version":"2.2","data":{"bikes":[{"bike_id":"c0b9fd4f-e181-46ce-b0bf-f5119973334f","system_id":"levelo_inurba_marseille","lat":43.33771,"lon":5.37424,"is_reserved":false,"is_disabled":true,"rental_uris":{"android":"levelo://app?vid=c0b9fd4f-e181-46ce-b0bf-f5119973334f","ios":"levelo://app?vid=c0b9fd4f-e181-46ce-b0bf-f5119973334f"},"vehicle_type_id":"4","last_reported":1747833867,"current_range_meters":0,"station_id":"","pricing_plan_id":"cebpf4jnsgd1na2vs0mg"},{"bike_id":"1dec17c8-cbde-4354-8b6c-219f98c89710","system_id":"levelo_inurba_marseille","lat":43.291827,"lon":5.422652,"is_reserved":false,"is_disabled":true,"rental_uris":{"android":"levelo://app?vid=1dec17c8-cbde-4354-8b6c-219f98c89710","ios":"levelo://app?vid=1dec17c8-cbde-4354-8b6c-219f98c89710"},"vehicle_type_id":"4","last_reported":1747833867,"current_range_meters":0,"station_id":"","pricing_plan_id":"cebpf4jnsgd1na2vs0mg"},{"bike_id":"e85778a3-bb78-446a-9db1-9c25cfcd4e7d","system_id":"levelo_inurba_marseille","lat":43.289472,"lon":5.363925,"is_reserved":false,"is_disabled":true,"rental_uris":{"android":"levelo://app?vid=e85778a3-bb78-446a-9db1-9c25cfcd4e7d","ios":"levelo://app?vid=e85778a3-bb78-446a-9db1-9c25cfcd4e7d"},"vehicle_type_id":"4","last_reported":1747833867,"current_range_meters":0,"station_id":"","pricing_plan_id":"cebpf4jnsgd1na2vs0mg"},{"bike_id":"a9d09347-e851-44c4-a4d0-a135bb7192ce","system_id":"levelo_inurba_marseille","lat":43.337444,"lon":5.374475,"is_reserved":false,"is_disabled":true,"rental_uris":{"android":"levelo://app?vid=a9d09347-e851-44c4-a4d0-a135bb7192ce","ios":"levelo://app?vid=a9d09347-e851-44c4-a4d0-a135bb7192ce"},"vehicle_type_id":"4","last_reported":1747833867,"current_range_meters":0,"station_id":"","pricing_plan_id":"cebpf4jnsgd1na2vs0mg"},{"bike_id":"e9dd3aa4-b5e7-4480-926d-d7f537719bfa","system_id":"levelo_inurba_marseille","lat":43.230331,"lon":5.401847,"is_reserved":false,"is_disabled":true,"rental_uris":{"android":"levelo://app?vid=e9dd3aa4-b5e7-4480-926d-d7f537719bfa","ios":"levelo://app?vid=e9dd3aa4-b5e7-4480-926d-d7f537719bfa"},"vehicle_type_id":"4","last_reported":1747833867,"current_range_meters":0,"station_id":"","pricing_plan_id":"cebpf4jnsgd1na2vs0mg"},{"bike_id":"14603e41-b2dd-4757-a53c-2e366aa4f983","system_id":"levelo_inurba_marseille","lat":43.269908,"lon":5.428193,"is_reserved":false,"is_disabled":true,"rental_uris":{"android":"levelo://app?vid=14603e41-b2dd-4757-a53c-2e366aa4f983","ios":"levelo://app?vid=14603e41-b2dd-4757-a53c-2e366aa4f983"},"vehicle_type_id":"4","last_reported":1747833867,"current_range_meters":0,"station_id":"","pricing_plan_id":"cebpf4jnsgd1na2vs0mg"},{"bike_id":"40c248a8-af9d-4148-a1cf-a43025d936d0","system_id":"levelo_inurba_marseille","lat":43.29621,"lon":5.37746,"is_reserved":false,"is_disabled":true,"rental_uris":{"android":"levelo://app?vid=40c248a8-af9d-4148-a1cf-a43025d936d0","ios":"levelo://app?vid=40c248a8-af9d-4148-a1cf-a43025d936d0"},"vehicle_type_id":"4","last_reported":1747833867,"current_range_meters":0,"station_id":"ce4bgi92rcd13ifvqb90","pricing_plan_id":"cebpf4jnsgd1na2vs0mg"},{"bike_id":"cd0787e4-53ec-4d60-9b3f-91fc8e26c74e","system_id":"levelo_inurba_marseille","lat":43.29787,"lon":5.38122,"is_reserved":false,"is_disabled":true,"rental_uris":{"android":"levelo://app?vid=cd0787e4-53ec-4d60-9b3f-91fc8e26c74e","ios":"levelo://app?vid=cd0787e4-53ec-4d60-9b3f-91fc8e26c74e"},"vehicle_type_id":"4","last_reported":1747833867,"current_range_meters":0,"station_id":"ce4bgip2rcd13ifvqbb0","pricing_plan_id":"cebpf4jnsgd1na2vs0mg"},{"bike_id":"50c84f12-43f5-45c5-adf0-a35e33b4eea3","system_id":"levelo_inurba_marseille","lat":43.30309,"lon":5.39211,"is_reserved":false,"is_disabled":true,"rental_uris":{"android":"levelo://app?vid=50c84f12-43f5-45c5-adf0-a35e33b4eea3","ios":"levelo://app?vid=50c84f12-43f5-45c5-adf0-a35e33b4eea3"},"vehicle_type_id":"4","last_reported":1747833867,"current_range_meters":0,"station_id":"ce4bgkh2rcd13ifvqbk0","pricing_plan_id":"cebpf4jnsgd1na2vs0mg"},{"bike_id":"16fb48e5-a121-4013-8b8d-8dd94803b93c","system_id":"levelo_inurba_marseille","lat":43.29453,"lon":5.39742,"is_reserved":false,"is_disabled":true,"rental_uris":{"android":"levelo://app?vid=16fb48e5-a121-4013-8b8d-8dd94803b93c","ios":"levelo://app?vid=16fb48e5-a121-4013-8b8d-8dd94803b93c"},"vehicle_type_id":"4","last_reported":1747833867,"current_range_meters":0,"station_id":"ce4bh3h2rcd13ifvqdo0","pricing_plan_id":"cebpf4jnsgd1na2vs0mg"},{"bike_id":"8cabb85a-2b88-425e-897d-06e6622c8a50","system_id":"levelo_inurba_marseille","lat":43.287,"lon":5.37386,"is_reserved":false,"is_disabled":true,"rental_uris":{"android":"levelo://app?vid=8cabb85a-2b88-425e-897d-06e6622c8a50","ios":"levelo://app?vid=8cabb85a-2b88-425e-897d-06e6622c8a50"},"vehicle_type_id":"4","last_reported":1747833867,"current_range_meters":0,"station_id":"ce4bh3p2rcd13ifvqdq0","pricing_plan_id":"cebpf4jnsgd1na2vs0mg"},{"bike_id":"06ed795c-598f-4a56-bb59-87e77701cfab","system_id":"levelo_inurba_marseille","lat":43.29254,"lon":5.3844,"is_reserved":false,"is_disabled":true,"rental_uris":{"android":"levelo://app?vid=06ed795c-598f-4a56-bb59-87e77701cfab","ios":"levelo://app?vid=06ed795c-598f-4a56-bb59-87e77701cfab"},"vehicle_type_id":"4","last_reported":1747833867,"current_range_meters":0,"station_id":"ce4bh692rcd13ifvqea0","pricing_plan_id":"cebpf4jnsgd1na2vs0mg"},{"bike_id":"574534a8-1c21-4a1b-9357-147232daf183","system_id":"levelo_inurba_marseille","lat":43.280357,"lon":5.369387,"is_reserved":false,"is_disabled":true,"rental_uris":{"android":"levelo://app?vid=574534a8-1c21-4a1b-9357-147232daf183","ios":"levelo://app?vid=574534a8-1c21-4a1b-9357-147232daf183"},"vehicle_type_id":"4","last_reported":1747833867,"current_range_meters":0,"station_id":"ce4bha12rcd13ifvqef0","pricing_plan_id":"cebpf4jnsgd1na2vs0mg"},{"bike_id":"091f08b5-6fd7-4f55-8b86-4b08c43d487f","system_id":"levelo_inurba_marseille","lat":43.28277,"lon":5.35071,"is_reserved":false,"is_disabled":true,"rental_uris":{"android":"levelo://app?vid=091f08b5-6fd7-4f55-8b86-4b08c43d487f","ios":"levelo://app?vid=091f08b5-6fd7-4f55-8b86-4b08c43d487f"},"vehicle_type_id":"4","last_reported":1747833867,"current_range_meters":0,"station_id":"ce4bhbp2rcd13ifvqerg","pricing_plan_id":"cebpf4jnsgd1na2vs0mg"},{"bike_id":"615c5deb-350b-4439-a91a-86bd3574ba46","system_id":"levelo_inurba_marseille","lat":43.26568,"lon":5.39005,"is_reserved":false,"is_disabled":true,"rental_uris":{"android":"levelo://app?vid=615c5deb-350b-4439-a91a-86bd3574ba46","ios":"levelo://app?vid=615c5deb-350b-4439-a91a-86bd3574ba46"},"vehicle_type_id":"4","last_reported":1747833867,"current_range_meters":0,"station_id":"ce4bhe12rcd13ifvqf30","pricing_plan_id":"cebpf4jnsgd1na2vs0mg"},{"bike_id":"59432b4e-0e08-47b2-8fa1-45f7d9967856","system_id":"levelo_inurba_marseille","lat":43.2792,"lon":5.39576,"is_reserved":false,"is_disabled":true,"rental_uris":{"android":"levelo://app?vid=59432b4e-0e08-47b2-8fa1-45f7d9967856","ios":"levelo://app?vid=59432b4e-0e08-47b2-8fa1-45f7d9967856"},"vehicle_type_id":"4","last_reported":1747833867,"current_range_meters":0,"station_id":"ce4bhf92rcd13ifvqf40","pricing_plan_id":"cebpf4jnsgd1na2vs0mg"},{"bike_id":"b409caf7-9481-4143-a90d-ff66c61be3e8","system_id":"levelo_inurba_marseille","lat":43.26215,"lon":5.37439,"is_reserved":false,"is_disabled":true,"rental_uris":{"android":"levelo://app?vid=b409caf7-9481-4143-a90d-ff66c61be3e8","ios":"levelo://app?vid=b409caf7-9481-4143-a90d-ff66c61be3e8"},"vehicle_type_id":"4","last_reported":1747833867,"current_range_meters":0,"station_id":"ce4bhgp2rcd13ifvqfc0","pricing_plan_id":"cebpf4jnsgd1na2vs0mg"},{"bike_id":"aa87f238-22c4-4626-b695-30c58c60fe46","system_id":"levelo_inurba_marseille","lat":43.24393,"lon":5.37061,"is_reserved":false,"is_disabled":true,"rental_uris":{"android":"levelo://app?vid=aa87f238-22c4-4626-b695-30c58c60fe46","ios":"levelo://app?vid=aa87f238-22c4-4626-b695-30c58c60fe46"},"vehicle_type_id":"4","last_reported":1747833867,"current_range_meters":0,"station_id":"ce4bhhh2rcd13ifvqfk0","pricing_plan_id":"cebpf4jnsgd1na2vs0mg"},{"bike_id":"4c838c44-da1a-41f0-a099-927b86f9f689","system_id":"levelo_inurba_marseille","lat":43.23962,"lon":5.36629,"is_reserved":false,"is_disabled":true,"rental_uris":{"android":"levelo://app?vid=4c838c44-da1a-41f0-a099-927b86f9f689","ios":"levelo://app?vid=4c838c44-da1a-41f0-a099-927b86f9f689"},"vehicle_type_id":"4","last_reported":1747833867,"current_range_meters":0,"station_id":"ce4bhi12rcd13ifvqfp0","pricing_plan_id":"cebpf4jnsgd1na2vs0mg"},{"bike_id":"5afc3df1-e06d-4225-887f-a5ebdb8ffe64","system_id":"levelo_inurba_marseille","lat":43.2558,"lon":5.38236,"is_reserved":false,"is_disabled":true,"rental_uris":{"android":"levelo://app?vid=5afc3df1-e06d-4225-887f-a5ebdb8ffe64","ios":"levelo://app?vid=5afc3df1-e06d-4225-887f-a5ebdb8ffe64"},"vehicle_type_id":"4","last_reported":1747833867,"current_range_meters":0,"station_id":"ce4bhih2rcd13ifvqfs0","pricing_plan_id":"cebpf4jnsgd1na2vs0mg"},{"bike_id":"70df286a-43ae-4066-bba9-94b7a0f516bd","system_id":"levelo_inurba_marseille","lat":43.25119,"lon":5.40337,"is_reserved":false,"is_disabled":true,"rental_uris":{"android":"levelo://app?vid=70df286a-43ae-4066-bba9-94b7a0f516bd","ios":"levelo://app?vid=70df286a-43ae-4066-bba9-94b7a0f516bd"},"vehicle_type_id":"4","last_reported":1747833867,"current_range_meters":0,"station_id":"ce4bhlh2rcd13ifvqgig","pricing_plan_id":"cebpf4jnsgd1na2vs0mg"},{"bike_id":"ac9af550-eb4f-4059-b62e-68693b495790","system_id":"levelo_inurba_marseille","lat":43.25116,"lon":5.40318,"is_reserved":false,"is_disabled":true,"rental_uris":{"android":"levelo://app?vid=ac9af550-eb4f-4059-b62e-68693b495790","ios":"levelo://app?vid=ac9af550-eb4f-4059-b62e-68693b495790"},"vehicle_type_id":"4","last_reported":1747833867,"current_range_meters":0,"station_id":"ce4bhlh2rcd13ifvqgig","pricing_plan_id":"cebpf4jnsgd1na2vs0mg"},{"bike_id":"9d26a8c1-5342-42dc-a47b-79fb936fb5e1","system_id":"levelo_inurba_marseille","lat":43.25106,"lon":5.40342,"is_reserved":false,"is_disabled":true,"rental_uris":{"android":"levelo://app?vid=9d26a8c1-5342-42dc-a47b-79fb936fb5e1","ios":"levelo://app?vid=9d26a8c1-5342-42dc-a47b-79fb936fb5e1"},"vehicle_type_id":"4","last_reported":1747833867,"current_range_meters":0,"station_id":"ce4bhlh2rcd13ifvqgig","pricing_plan_id":"cebpf4jnsgd1na2vs0mg"},{"bike_id":"71a9fe80-598e-44e1-83a4-d9c144513111","system_id":"levelo_inurba_marseille","lat":43.23151,"lon":5.4372,"is_reserved":false,"is_disabled":true,"rental_uris":{"android":"levelo://app?vid=71a9fe80-598e-44e1-83a4-d9c144513111","ios":"levelo://app?vid=71a9fe80-598e-44e1-83a4-d9c144513111"},"vehicle_type_id":"4","last_reported":1747833867,"current_range_meters":0,"station_id":"ce4bhmp2rcd13ifvqgog","pricing_plan_id":"cebpf4jnsgd1na2vs0mg"},{"bike_id":"2bdc3e2e-592d-4696-877b-38d9a83a4ef0","system_id":"levelo_inurba_marseille","lat":43.27504,"lon":5.42475,"is_reserved":false,"is_disabled":true,"rental_uris":{"android":"levelo://app?vid=2bdc3e2e-592d-4696-877b-38d9a83a4ef0","ios":"levelo://app?vid=2bdc3e2e-592d-4696-877b-38d9a83a4ef0"},"vehicle_type_id":"4","last_reported":1747833867,"current_range_meters":0,"station_id":"ce4bhn92rcd13ifvqgrg","pricing_plan_id":"cebpf4jnsgd1na2vs0mg"},{"bike_id":"a3ea9d98-3cab-43c4-b12b-5fb9738b7cfa","system_id":"levelo_inurba_marseille","lat":43.27816,"lon":5.40718,"is_reserved":false,"is_disabled":true,"rental_uris":{"android":"levelo://app?vid=a3ea9d98-3cab-43c4-b12b-5fb9738b7cfa","ios":"levelo://app?vid=a3ea9d98-3cab-43c4-b12b-5fb9738b7cfa"},"vehicle_type_id":"4","last_reported":1747833867,"current_range_meters":0,"station_id":"ce4bhnh2rcd13ifvqgtg","pricing_plan_id":"cebpf4jnsgd1na2vs0mg"},{"bike_id":"2d01d0cb-eaa6-4153-b8a3-5adda964b823","system_id":"levelo_inurba_marseille","lat":43.28157,"lon":5.42645,"is_reserved":false,"is_disabled":true,"rental_uris":{"android":"levelo://app?vid=2d01d0cb-eaa6-4153-b8a3-5adda964b823","ios":"levelo://app?vid=2d01d0cb-eaa6-4153-b8a3-5adda964b823"},"vehicle_type_id":"4","last_reported":1747833867,"current_range_meters":0,"station_id":"ce4bhnh2rcd13ifvqgug","pricing_plan_id":"cebpf4jnsgd1na2vs0mg"},{"bike_id":"7c98eb0c-b00f-491b-bfaf-e05d959a995e","system_id":"levelo_inurba_marseille","lat":43.28613,"lon":5.37054,"is_reserved":false,"is_disabled":true,"rental_uris":{"android":"levelo://app?vid=7c98eb0c-b00f-491b-bfaf-e05d959a995e","ios":"levelo://app?vid=7c98eb0c-b00f-491b-bfaf-e05d959a995e"},"vehicle_type_id":"4","last_reported":1747833867,"current_range_meters":0,"station_id":"ce4bht12rcd13ifvqi60","pricing_plan_id":"cebpf4jnsgd1na2vs0mg"},{"bike_id":"a15c46a5-8ae2-4409-9063-277d866bc7a9","system_id":"levelo_inurba_marseille","lat":43.23185,"lon":5.3556,"is_reserved":false,"is_disabled":true,"rental_uris":{"android":"levelo://app?vid=a15c46a5-8ae2-4409-9063-277d866bc7a9","ios":"levelo://app?vid=a15c46a5-8ae2-4409-9063-277d866bc7a9"},"vehicle_type_id":"4","last_reported":1747833867,"current_range_meters":0,"station_id":"ce4bhu92rcd13ifvqi70","pricing_plan_id":"cebpf4jnsgd1na2vs0mg"},{"bike_id":"6cdc5ac2-4b23-46ea-b359-4d981cdf1ca1","system_id":"levelo_inurba_marseille","lat":43.26817,"lon":5.40234,"is_reserved":false,"is_disabled":true,"rental_uris":{"android":"levelo://app?vid=6cdc5ac2-4b23-46ea-b359-4d981cdf1ca1","ios":"levelo://app?vid=6cdc5ac2-4b23-46ea-b359-4d981cdf1ca1"},"vehicle_type_id":"4","last_reported":1747833867,"current_range_meters":0,"station_id":"ce501612rcd8frsf0b60","pricing_plan_id":"cebpf4jnsgd1na2vs0mg"},{"bike_id":"8dc2ce6e-fd52-4eac-81ab-537a1edf2cce","system_id":"levelo_inurba_marseille","lat":43.24171,"lon":5.36401,"is_reserved":false,"is_disabled":true,"rental_uris":{"android":"levelo://app?vid=8dc2ce6e-fd52-4eac-81ab-537a1edf2cce","ios":"levelo://app?vid=8dc2ce6e-fd52-4eac-81ab-537a1edf2cce"},"vehicle_type_id":"4","last_reported":1747833867,"current_range_meters":0,"station_id":"cpo36qri1sfpv3e86is0","pricing_plan_id":"cebpf4jnsgd1na2vs0mg"},{"bike_id":"fe160abe-83a7-42e2-ba20-3a1ac1db7bc0","system_id":"levelo_inurba_marseille","lat":43.26034,"lon":5.37543,"is_reserved":false,"is_disabled":true,"rental_uris":{"android":"levelo://app?vid=fe160abe-83a7-42e2-ba20-3a1ac1db7bc0","ios":"levelo://app?vid=fe160abe-83a7-42e2-ba20-3a1ac1db7bc0"},"vehicle_type_id":"4","last_reported":1747833867,"current_range_meters":400,"station_id":"ce4bhgh2rcd13ifvqfa0","pricing_plan_id":"cebpf4jnsgd1na2vs0mg"},{"bike_id":"43ecfee3-d9ac-4db2-a376-3eb8da4e7fd6","system_id":"levelo_inurba_marseille","lat":43.27503,"lon":5.42482,"is_reserved":false,"is_disabled":true,"rental_uris":{"android":"levelo://app?vid=43ecfee3-d9ac-4db2-a376-3eb8da4e7fd6","ios":"levelo://app?vid=43ecfee3-d9ac-4db2-a376-3eb8da4e7fd6"},"vehicle_type_id":"4","last_reported":1747833867,"current_range_meters":400,"station_id":"ce4bhn92rcd13ifvqgrg","pricing_plan_id":"cebpf4jnsgd1na2vs0mg"},{"bike_id":"c95b07ff-bed8-4bde-a7be-50b992b0f6a5","system_id":"levelo_inurba_marseille","lat":43.30374,"lon":5.42487,"is_reserved":false,"is_disabled":true,"rental_uris":{"android":"levelo://app?vid=c95b07ff-bed8-4bde-a7be-50b992b0f6a5","ios":"levelo://app?vid=c95b07ff-bed8-4bde-a7be-50b992b0f6a5"},"vehicle_type_id":"4","last_reported":1747833867,"current_range_meters":400,"station_id":"ce4bhoh2rcd13ifvqh6g","pricing_plan_id":"cebpf4jnsgd1na2vs0mg"},{"bike_id":"20bee342-4a3f-4f34-940d-bb6cf00d52ae","system_id":"levelo_inurba_marseille","lat":43.26659,"lon":5.38584,"is_reserved":false,"is_disabled":true,"rental_uris":{"android":"levelo://app?vid=20bee342-4a3f-4f34-940d-bb6cf00d52ae","ios":"levelo://app?vid=20bee342-4a3f-4f34-940d-bb6cf00d52ae"},"vehicle_type_id":"4","last_reported":1747833867,"current_range_meters":800,"station_id":"","pricing_plan_id":"cebpf4jnsgd1na2vs0mg"},{"bike_id":"cfdbf9ea-fe43-4734-b465-744a84c08df5","system_id":"levelo_inurba_marseille","lat":43.27979,"lon":5.38646,"is_reserved":false,"is_disabled":true,"rental_uris":{"android":"levelo://app?vid=cfdbf9ea-fe43-4734-b465-744a84c08df5","ios":"levelo://app?vid=cfdbf9ea-fe43-4734-b465-744a84c08df5"},"vehicle_type_id":"4","last_reported":1747833867,"current_range_meters":800,"station_id":"","pricing_plan_id":"cebpf4jnsgd1na2vs0mg"},{"bike_id":"5de0adae-eea1-4748-a608-e7ab8a930be9","system_id":"levelo_inurba_marseille","lat":43.300862,"lon":5.390817,"is_reserved":false,"is_disabled":true,"rental_uris":{"android":"levelo://app?vid=5de0adae-eea1-4748-a608-e7ab8a930be9","ios":"levelo://app?vid=5de0adae-eea1-4748-a608-e7ab8a930be9"},"vehicle_type_id":"4","last_reported":1747833867,"current_range_meters":800,"station_id":"ce4bh192rcd13ifvqdb0","pricing_plan_id":"cebpf4jnsgd1na2vs0mg"},{"bike_id":"1ead9af3-6d91-4b59-bf16-5175fea90742","system_id":"levelo_inurba_marseille","lat":43.27904,"lon":5.39564,"is_reserved":false,"is_disabled":true,"rental_uris":{"android":"levelo://app?vid=1ead9af3-6d91-4b59-bf16-5175fea90742","ios":"levelo://app?vid=1ead9af3-6d91-4b59-bf16-5175fea90742"},"vehicle_type_id":"4","last_reported":1747833867,"current_range_meters":800,"station_id":"ce4bhf92rcd13ifvqf40","pricing_plan_id":"cebpf4jnsgd1na2vs0mg"},{"bike_id":"ad8297a0-4cfe-4516-a903-de41e51255b7","system_id":"levelo_inurba_marseille","lat":43.26215,"lon":5.37457,"is_reserved":false,"is_disabled":true,"rental_uris":{"android":"levelo://app?vid=ad8297a0-4cfe-4516-a903-de41e51255b7","ios":"levelo://app?vid=ad8297a0-4cfe-4516-a903-de41e51255b7"},"vehicle_type_id":"4","last_reported":1747833867,"current_range_meters":800,"station_id":"ce4bhgp2rcd13ifvqfc0","pricing_plan_id":"cebpf4jnsgd1na2vs0mg"},{"bike_id":"d4f56fee-b685-4196-8519-1760a0e2a4d4","system_id":"levelo_inurba_marseille","lat":43.251167,"lon":5.403477,"is_reserved":false,"is_disabled":true,"rental_uris":{"android":"levelo://app?vid=d4f56fee-b685-4196-8519-1760a0e2a4d4","ios":"levelo://app?vid=d4f56fee-b685-4196-8519-1760a0e2a4d4"},"vehicle_type_id":"4","last_reported":1747833867,"current_range_meters":800,"station_id":"ce4bhlh2rcd13ifvqgig","pricing_plan_id":"cebpf4jnsgd1na2vs0mg"},{"bike_id":"774a53ed-27ae-48c0-adb7-a87d503ae808","system_id":"levelo_inurba_marseille","lat":43.27812,"lon":5.40706,"is_reserved":false,"is_disabled":true,"rental_uris":{"android":"levelo://app?vid=774a53ed-27ae-48c0-adb7-a87d503ae808","ios":"levelo://app?vid=774a53ed-27ae-48c0-adb7-a87d503ae808"},"vehicle_type_id":"4","last_reported":1747833867,"current_range_meters":800,"station_id":"ce4bhnh2rcd13ifvqgtg","pricing_plan_id":"cebpf4jnsgd1na2vs0mg"},{"bike_id":"06f61d0a-80e1-4ed2-9f20-f2a6e95a6399","system_id":"levelo_inurba_marseille","lat":43.33614,"lon":5.40978,"is_reserved":false,"is_disabled":true,"rental_uris":{"android":"levelo://app?vid=06f61d0a-80e1-4ed2-9f20-f2a6e95a6399","ios":"levelo://app?vid=06f61d0a-80e1-4ed2-9f20-f2a6e95a6399"},"vehicle_type_id":"4","last_reported":1747833867,"current_range_meters":800,"station_id":"ce4bhqh2rcd13ifvqhmg","pricing_plan_id":"cebpf4jnsgd1na2vs0mg"},{"bike_id":"3beead17-8fac-4695-8064-819640bdfbf6","system_id":"levelo_inurba_marseille","lat":43.30889,"lon":5.39627,"is_reserved":false,"is_disabled":true,"rental_uris":{"android":"levelo://app?vid=3beead17-8fac-4695-8064-819640bdfbf6","ios":"levelo://app?vid=3beead17-8fac-4695-8064-819640bdfbf6"},"vehicle_type_id":"4","last_reported":1747833867,"current_range_meters":1200,"station_id":"ce4bh012rcd13ifvqcv0","pricing_plan_id":"cebpf4jnsgd1na2vs0mg"},{"bike_id":"33d3bbc7-12de-4e0f-8a1a-6ea61f51c09d","system_id":"levelo_inurba_marseille","lat":43.280327,"lon":5.369428,"is_reserved":false,"is_disabled":true,"rental_uris":{"android":"levelo://app?vid=33d3bbc7-12de-4e0f-8a1a-6ea61f51c09d","ios":"levelo://app?vid=33d3bbc7-12de-4e0f-8a1a-6ea61f51c09d"},"vehicle_type_id":"4","last_reported":1747833867,"current_range_meters":1200,"station_id":"ce4bha12rcd13ifvqef0","pricing_plan_id":"cebpf4jnsgd1na2vs0mg"},{"bike_id":"9dab53ee-0fde-4c95-b63d-41eb257d43fc","system_id":"levelo_inurba_marseille","lat":43.25492,"lon":5.37648,"is_reserved":false,"is_disabled":true,"rental_uris":{"android":"levelo://app?vid=9dab53ee-0fde-4c95-b63d-41eb257d43fc","ios":"levelo://app?vid=9dab53ee-0fde-4c95-b63d-41eb257d43fc"},"vehicle_type_id":"4","last_reported":1747833867,"current_range_meters":1200,"station_id":"ce4bhh12rcd13ifvqff0","pricing_plan_id":"cebpf4jnsgd1na2vs0mg"},{"bike_id":"14327d25-b826-40e9-a8a0-e8eb07a469d7","system_id":"levelo_inurba_marseille","lat":43.28158,"lon":5.4264,"is_reserved":false,"is_disabled":true,"rental_uris":{"android":"levelo://app?vid=14327d25-b826-40e9-a8a0-e8eb07a469d7","ios":"levelo://app?vid=14327d25-b826-40e9-a8a0-e8eb07a469d7"},"vehicle_type_id":"4","last_reported":1747833867,"current_range_meters":1200,"station_id":"ce4bhnh2rcd13ifvqgug","pricing_plan_id":"cebpf4jnsgd1na2vs0mg"},{"bike_id":"2badc2e1-9e5c-4154-aaae-82c36ef049fa","system_id":"levelo_inurba_marseille","lat":43.27997,"lon":5.40021,"is_reserved":false,"is_disabled":true,"rental_uris":{"android":"levelo://app?vid=2badc2e1-9e5c-4154-aaae-82c36ef049fa","ios":"levelo://app?vid=2badc2e1-9e5c-4154-aaae-82c36ef049fa"},"vehicle_type_id":"4","last_reported":1747833867,"current_range_meters":1200,"station_id":"ce4bho92rcd13ifvqh4g","pricing_plan_id":"cebpf4jnsgd1na2vs0mg"},{"bike_id":"e0c3461e-1ee2-4170-8309-14d4020f8b44","system_id":"levelo_inurba_marseille","lat":43.31082,"lon":5.42426,"is_reserved":false,"is_disabled":true,"rental_uris":{"android":"levelo://app?vid=e0c3461e-1ee2-4170-8309-14d4020f8b44","ios":"levelo://app?vid=e0c3461e-1ee2-4170-8309-14d4020f8b44"},"vehicle_type_id":"4","last_reported":1747833867,"current_range_meters":1200,"station_id":"ce4bhp92rcd13ifvqhag","pricing_plan_id":"cebpf4jnsgd1na2vs0mg"},{"bike_id":"52f5d0e5-c00f-413e-aea6-c7673cc8327b","system_id":"levelo_inurba_marseille","lat":43.29971,"lon":5.37178,"is_reserved":false,"is_disabled":true,"rental_uris":{"android":"levelo://app?vid=52f5d0e5-c00f-413e-aea6-c7673cc8327b","ios":"levelo://app?vid=52f5d0e5-c00f-413e-aea6-c7673cc8327b"},"vehicle_type_id":"4","last_reported":1747833867,"current_range_meters":1600,"station_id":"ce4bgr92rcd13ifvqc7g","pricing_plan_id":"cebpf4jnsgd1na2vs0mg"},{"bike_id":"9e768466-7feb-4d72-8734-0c160fa865d7","system_id":"levelo_inurba_marseille","lat":43.30144,"lon":5.37413,"is_reserved":false,"is_disabled":true,"rental_uris":{"android":"levelo://app?vid=9e768466-7feb-4d72-8734-0c160fa865d7","ios":"levelo://app?vid=9e768466-7feb-4d72-8734-0c160fa865d7"},"vehicle_type_id":"4","last_reported":1747833867,"current_range_meters":1600,"station_id":"ce4bgs92rcd13ifvqcc0","pricing_plan_id":"cebpf4jnsgd1na2vs0mg"},{"bike_id":"85b7d259-027a-441d-80b5-ddbfde1e3749","system_id":"levelo_inurba_marseille","lat":43.27374,"lon":5.36256,"is_reserved":false,"is_disabled":true,"rental_uris":{"android":"levelo://app?vid=85b7d259-027a-441d-80b5-ddbfde1e3749","ios":"levelo://app?vid=85b7d259-027a-441d-80b5-ddbfde1e3749"},"vehicle_type_id":"4","last_reported":1747833867,"current_range_meters":1600,"station_id":"ce4bhbh2rcd13ifvqeo0","pricing_plan_id":"cebpf4jnsgd1na2vs0mg"},{"bike_id":"b38cf2cf-5836-4b73-81b9-05bd50d0f774","system_id":"levelo_inurba_marseille","lat":43.2655,"lon":5.37283,"is_reserved":false,"is_disabled":true,"rental_uris":{"android":"levelo://app?vid=b38cf2cf-5836-4b73-81b9-05bd50d0f774","ios":"levelo://app?vid=b38cf2cf-5836-4b73-81b9-05bd50d0f774"},"vehicle_type_id":"4","last_reported":1747833867,"current_range_meters":1600,"station_id":"ce4bhg12rcd13ifvqf70","pricing_plan_id":"cebpf4jnsgd1na2vs0mg"},{"bike_id":"ba59102a-6c47-4600-bcb9-76e5920c2815","system_id":"levelo_inurba_marseille","lat":43.31356,"lon":5.37207,"is_reserved":false,"is_disabled":true,"rental_uris":{"android":"levelo://app?vid=ba59102a-6c47-4600-bcb9-76e5920c2815","ios":"levelo://app?vid=ba59102a-6c47-4600-bcb9-76e5920c2815"},"vehicle_type_id":"4","last_reported":1747833867,"current_range_meters":2000,"station_id":"","pricing_plan_id":"cebpf4jnsgd1na2vs0mg"},{"bike_id":"11ee99c8-073e-4f4a-97ba-968d444a78c2","system_id":"levelo_inurba_marseille","lat":43.27373,"lon":5.36261,"is_reserved":false,"is_disabled":true,"rental_uris":{"android":"levelo://app?vid=11ee99c8-073e-4f4a-97ba-968d444a78c2","ios":"levelo://app?vid=11ee99c8-073e-4f4a-97ba-968d444a78c2"},"vehicle_type_id":"4","last_reported":1747833867,"current_range_meters":2000,"station_id":"ce4bhbh2rcd13ifvqeo0","pricing_plan_id":"cebpf4jnsgd1na2vs0mg"},{"bike_id":"64da73b6-6ece-47c7-87a3-118e241371ad","system_id":"levelo_inurba_marseille","lat":43.27908,"lon":5.39588,"is_reserved":false,"is_disabled":true,"rental_uris":{"android":"levelo://app?vid=64da73b6-6ece-47c7-87a3-118e241371ad","ios":"levelo://app?vid=64da73b6-6ece-47c7-87a3-118e241371ad"},"vehicle_type_id":"4","last_reported":1747833867,"current_range_meters":2000,"station_id":"ce4bhf92rcd13ifvqf40","pricing_plan_id":"cebpf4jnsgd1na2vs0mg"},{"bike_id":"e27c5d74-7419-4951-9594-508d8adf47fc","system_id":"levelo_inurba_marseille","lat":43.29532,"lon":5.38549,"is_reserved":false,"is_disabled":false,"rental_uris":{"android":"levelo://app?vid=e27c5d74-7419-4951-9594-508d8adf47fc","ios":"levelo://app?vid=e27c5d74-7419-4951-9594-508d8adf47fc"},"vehicle_type_id":"4","last_reported":1747833867,"current_range_meters":2800,"station_id":"ce4bgih2rcd13ifvqba0","pricing_plan_id":"cebpf4jnsgd1na2vs0mg"},{"bike_id":"2fc5bbbf-73c1-4df0-9da7-4176e2e97288","system_id":"levelo_inurba_marseille","lat":43.28721,"lon":5.37932,"is_reserved":false,"is_disabled":false,"rental_uris":{"android":"levelo://app?vid=2fc5bbbf-73c1-4df0-9da7-4176e2e97288","ios":"levelo://app?vid=2fc5bbbf-73c1-4df0-9da7-4176e2e97288"},"vehicle_type_id":"4","last_reported":1747833867,"current_range_meters":2800,"station_id":"ce4bh9p2rcd13ifvqec0","pricing_plan_id":"cebpf4jnsgd1na2vs0mg"},{"bike_id":"ce367319-a093-4c1c-985e-f390b80f3056","system_id":"levelo_inurba_marseille","lat":43.23962,"lon":5.36637,"is_reserved":false,"is_disabled":false,"rental_uris":{"android":"levelo://app?vid=ce367319-a093-4c1c-985e-f390b80f3056","ios":"levelo://app?vid=ce367319-a093-4c1c-985e-f390b80f3056"},"vehicle_type_id":"4","last_reported":1747833867,"current_range_meters":2800,"station_id":"ce4bhi12rcd13ifvqfp0","pricing_plan_id":"cebpf4jnsgd1na2vs0mg"},{"bike_id":"e8585f68-b662-477a-9410-4b3fb3861f81","system_id":"levelo_inurba_marseille","lat":43.23968,"lon":5.36621,"is_reserved":false,"is_disabled":false,"rental_uris":{"android":"levelo://app?vid=e8585f68-b662-477a-9410-4b3fb3861f81","ios":"levelo://app?vid=e8585f68-b662-477a-9410-4b3fb3861f81"},"vehicle_type_id":"4","last_reported":1747833867,"current_range_meters":2800,"station_id":"ce4bhi12rcd13ifvqfp0","pricing_plan_id":"cebpf4jnsgd1na2vs0mg"},{"bike_id":"af6510d8-d98f-417d-8bdd-63020f14889d","system_id":"levelo_inurba_marseille","lat":43.27811,"lon":5.40715,"is_reserved":false,"is_disabled":false,"rental_uris":{"android":"levelo://app?vid=af6510d8-d98f-417d-8bdd-63020f14889d","ios":"levelo://app?vid=af6510d8-d98f-417d-8bdd-63020f14889d"},"vehicle_type_id":"4","last_reported":1747833867,"current_range_meters":2800,"station_id":"ce4bhnh2rcd13ifvqgtg","pricing_plan_id":"cebpf4jnsgd1na2vs0mg"},{"bike_id":"8f0f531d-6a65-4647-8a6f-baa3d982f42f","system_id":"levelo_inurba_marseille","lat":43.28117,"lon":5.42575,"is_reserved":false,"is_disabled":false,"rental_uris":{"android":"levelo://app?vid=8f0f531d-6a65-4647-8a6f-baa3d982f42f","ios":"levelo://app?vid=8f0f531d-6a65-4647-8a6f-baa3d982f42f"},"vehicle_type_id":"4","last_reported":1747833867,"current_range_meters":3200,"station_id":"","pricing_plan_id":"cebpf4jnsgd1na2vs0mg"},{"bike_id":"a5bcf3ab-5daa-4dec-898b-27b2e944e103","system_id":"levelo_inurba_marseille","lat":43.273,"lon":5.41084,"is_reserved":false,"is_disabled":false,"rental_uris":{"android":"levelo://app?vid=a5bcf3ab-5daa-4dec-898b-27b2e944e103","ios":"levelo://app?vid=a5bcf3ab-5daa-4dec-898b-27b2e944e103"},"vehicle_type_id":"4","last_reported":1747833867,"current_range_meters":3200,"station_id":"","pricing_plan_id":"cebpf4jnsgd1na2vs0mg"},{"bike_id":"08fa2d38-2174-4516-984a-f6b18417d67a","system_id":"levelo_inurba_marseille","lat":43.26558,"lon":5.37274,"is_reserved":false,"is_disabled":false,"rental_uris":{"android":"levelo://app?vid=08fa2d38-2174-4516-984a-f6b18417d67a","ios":"levelo://app?vid=08fa2d38-2174-4516-984a-f6b18417d67a"},"vehicle_type_id":"4","last_reported":1747833867,"current_range_meters":3200,"station_id":"ce4bhg12rcd13ifvqf70","pricing_plan_id":"cebpf4jnsgd1na2vs0mg"},{"bike_id":"421a94cc-bcf7-4e8e-879f-85b732fad866","system_id":"levelo_inurba_marseille","lat":43.29005,"lon":5.35617,"is_reserved":false,"is_disabled":false,"rental_uris":{"android":"levelo://app?vid=421a94cc-bcf7-4e8e-879f-85b732fad866","ios":"levelo://app?vid=421a94cc-bcf7-4e8e-879f-85b732fad866"},"vehicle_type_id":"4","last_reported":1747833867,"current_range_meters":3600,"station_id":"ce4bhb92rcd13ifvqen0","pricing_plan_id":"cebpf4jnsgd1na2vs0mg"},{"bike_id":"f4751975-7761-4b84-b4a6-fefaf4446dd7","system_id":"levelo_inurba_marseille","lat":43.26193,"lon":5.37447,"is_reserved":false,"is_disabled":false,"rental_uris":{"android":"levelo://app?vid=f4751975-7761-4b84-b4a6-fefaf4446dd7","ios":"levelo://app?vid=f4751975-7761-4b84-b4a6-fefaf4446dd7"},"vehicle_type_id":"4","last_reported":1747833867,"current_range_meters":3600,"station_id":"ce4bhgp2rcd13ifvqfc0","pricing_plan_id":"cebpf4jnsgd1na2vs0mg"},{"bike_id":"33ba2958-163e-4394-81b4-4ba1123e5d60","system_id":"levelo_inurba_marseille","lat":43.25495,"lon":5.37647,"is_reserved":false,"is_disabled":false,"rental_uris":{"android":"levelo://app?vid=33ba2958-163e-4394-81b4-4ba1123e5d60","ios":"levelo://app?vid=33ba2958-163e-4394-81b4-4ba1123e5d60"},"vehicle_type_id":"4","last_reported":1747833867,"current_range_meters":3600,"station_id":"ce4bhh12rcd13ifvqff0","pricing_plan_id":"cebpf4jnsgd1na2vs0mg"},{"bike_id":"1b914aa6-63d6-44d2-9797-067db22482b0","system_id":"levelo_inurba_marseille","lat":43.24178,"lon":5.39731,"is_reserved":false,"is_disabled":false,"rental_uris":{"android":"levelo://app?vid=1b914aa6-63d6-44d2-9797-067db22482b0","ios":"levelo://app?vid=1b914aa6-63d6-44d2-9797-067db22482b0"},"vehicle_type_id":"4","last_reported":1747833867,"current_range_meters":3600,"station_id":"ce4bhn12rcd13ifvqgpg","pricing_plan_id":"cebpf4jnsgd1na2vs0mg"},{"bike_id":"d62e7c15-a9e7-4245-a234-ec7ee30b8451","system_id":"levelo_inurba_marseille","lat":43.24073,"lon":5.37764,"is_reserved":false,"is_disabled":false,"rental_uris":{"android":"levelo://app?vid=d62e7c15-a9e7-4245-a234-ec7ee30b8451","ios":"levelo://app?vid=d62e7c15-a9e7-4245-a234-ec7ee30b8451"},"vehicle_type_id":"4","last_reported":1747833867,"current_range_meters":3600,"station_id":"ce4bhnp2rcd13ifvqgvg","pricing_plan_id":"cebpf4jnsgd1na2vs0mg"},{"bike_id":"85eaca89-9437-48d0-9bca-a254337b88db","system_id":"levelo_inurba_marseille","lat":43.27413,"lon":5.41,"is_reserved":false,"is_disabled":false,"rental_uris":{"android":"levelo://app?vid=85eaca89-9437-48d0-9bca-a254337b88db","ios":"levelo://app?vid=85eaca89-9437-48d0-9bca-a254337b88db"},"vehicle_type_id":"4","last_reported":1747833867,"current_range_meters":4000,"station_id":"","pricing_plan_id":"cebpf4jnsgd1na2vs0mg"},{"bike_id":"32993bdb-2034-43ea-b37f-bd301fc4f996","system_id":"levelo_inurba_marseille","lat":43.3133,"lon":5.39689,"is_reserved":false,"is_disabled":false,"rental_uris":{"android":"levelo://app?vid=32993bdb-2034-43ea-b37f-bd301fc4f996","ios":"levelo://app?vid=32993bdb-2034-43ea-b37f-bd301fc4f996"},"vehicle_type_id":"4","last_reported":1747833867,"current_range_meters":4000,"station_id":"ce4bgvp2rcd13ifvqcu0","pricing_plan_id":"cebpf4jnsgd1na2vs0mg"},{"bike_id":"e34d3ebd-2ef4-499f-aca8-4cd7e482c639","system_id":"levelo_inurba_marseille","lat":43.27439,"lon":5.39418,"is_reserved":false,"is_disabled":false,"rental_uris":{"android":"levelo://app?vid=e34d3ebd-2ef4-499f-aca8-4cd7e482c639","ios":"levelo://app?vid=e34d3ebd-2ef4-499f-aca8-4cd7e482c639"},"vehicle_type_id":"4","last_reported":1747833867,"current_range_meters":4000,"station_id":"ce4bhdp2rcd13ifvqf20","pricing_plan_id":"cebpf4jnsgd1na2vs0mg"},{"bike_id":"35f4f27b-865c-4da1-9bad-e26db9f7ba5f","system_id":"levelo_inurba_marseille","lat":43.25578,"lon":5.3827,"is_reserved":false,"is_disabled":false,"rental_uris":{"android":"levelo://app?vid=35f4f27b-865c-4da1-9bad-e26db9f7ba5f","ios":"levelo://app?vid=35f4f27b-865c-4da1-9bad-e26db9f7ba5f"},"vehicle_type_id":"4","last_reported":1747833867,"current_range_meters":4000,"station_id":"ce4bhih2rcd13ifvqfs0","pricing_plan_id":"cebpf4jnsgd1na2vs0mg"},{"bike_id":"e748de9c-fd62-424b-b28a-e324efdf95de","system_id":"levelo_inurba_marseille","lat":43.25102,"lon":5.40327,"is_reserved":false,"is_disabled":false,"rental_uris":{"android":"levelo://app?vid=e748de9c-fd62-424b-b28a-e324efdf95de","ios":"levelo://app?vid=e748de9c-fd62-424b-b28a-e324efdf95de"},"vehicle_type_id":"4","last_reported":1747833867,"current_range_meters":4000,"station_id":"ce4bhlh2rcd13ifvqgig","pricing_plan_id":"cebpf4jnsgd1na2vs0mg"},{"bike_id":"6019e8ad-e8ca-4488-971d-488fa7aac417","system_id":"levelo_inurba_marseille","lat":43.26228,"lon":5.40448,"is_reserved":false,"is_disabled":false,"rental_uris":{"android":"levelo://app?vid=6019e8ad-e8ca-4488-971d-488fa7aac417","ios":"levelo://app?vid=6019e8ad-e8ca-4488-971d-488fa7aac417"},"vehicle_type_id":"4","last_reported":1747833867,"current_range_meters":4000,"station_id":"ce4bhmh2rcd13ifvqgmg","pricing_plan_id":"cebpf4jnsgd1na2vs0mg"},{"bike_id":"d51d10c7-135e-4a4e-aa27-1cc575f5a71b","system_id":"levelo_inurba_marseille","lat":43.30651,"lon":5.40097,"is_reserved":false,"is_disabled":false,"rental_uris":{"android":"levelo://app?vid=d51d10c7-135e-4a4e-aa27-1cc575f5a71b","ios":"levelo://app?vid=d51d10c7-135e-4a4e-aa27-1cc575f5a71b"},"vehicle_type_id":"4","last_reported":1747833867,"current_range_meters":4400,"station_id":"ce4bh112rcd13ifvqda0","pricing_plan_id":"cebpf4jnsgd1na2vs0mg"},{"bike_id":"c3ff716f-0182-481a-b1a6-a43735a9b001","system_id":"levelo_inurba_marseille","lat":43.2621,"lon":5.37439,"is_reserved":false,"is_disabled":false,"rental_uris":{"android":"levelo://app?vid=c3ff716f-0182-481a-b1a6-a43735a9b001","ios":"levelo://app?vid=c3ff716f-0182-481a-b1a6-a43735a9b001"},"vehicle_type_id":"4","last_reported":1747833867,"current_range_meters":4400,"station_id":"ce4bhgp2rcd13ifvqfc0","pricing_plan_id":"cebpf4jnsgd1na2vs0mg"},{"bike_id":"98e6b04e-048b-411e-914a-7cf74ae76ef4","system_id":"levelo_inurba_marseille","lat":43.28197,"lon":5.34939,"is_reserved":false,"is_disabled":false,"rental_uris":{"android":"levelo://app?vid=98e6b04e-048b-411e-914a-7cf74ae76ef4","ios":"levelo://app?vid=98e6b04e-048b-411e-914a-7cf74ae76ef4"},"vehicle_type_id":"4","last_reported":1747833867,"current_range_meters":4800,"station_id":"","pricing_plan_id":"cebpf4jnsgd1na2vs0mg"},{"bike_id":"16f8a591-a381-49f8-9c9b-e800fc8d1234","system_id":"levelo_inurba_marseille","lat":43.29711,"lon":5.37702,"is_reserved":false,"is_disabled":false,"rental_uris":{"android":"levelo://app?vid=16f8a591-a381-49f8-9c9b-e800fc8d1234","ios":"levelo://app?vid=16f8a591-a381-49f8-9c9b-e800fc8d1234"},"vehicle_type_id":"4","last_reported":1747833867,"current_range_meters":4800,"station_id":"ce4bgkh2rcd13ifvqbl0","pricing_plan_id":"cebpf4jnsgd1na2vs0mg"},{"bike_id":"85d2e61f-2886-42c8-9255-9606ffdc42fa","system_id":"levelo_inurba_marseille","lat":43.28691,"lon":5.37383,"is_reserved":false,"is_disabled":false,"rental_uris":{"android":"levelo://app?vid=85d2e61f-2886-42c8-9255-9606ffdc42fa","ios":"levelo://app?vid=85d2e61f-2886-42c8-9255-9606ffdc42fa"},"vehicle_type_id":"4","last_reported":1747833867,"current_range_meters":4800,"station_id":"ce4bh3p2rcd13ifvqdq0","pricing_plan_id":"cebpf4jnsgd1na2vs0mg"},{"bike_id":"4c8a9682-6edb-4931-a293-356ee11caa2c","system_id":"levelo_inurba_marseille","lat":43.28686,"lon":5.37381,"is_reserved":false,"is_disabled":false,"rental_uris":{"android":"levelo://app?vid=4c8a9682-6edb-4931-a293-356ee11caa2c","ios":"levelo://app?vid=4c8a9682-6edb-4931-a293-356ee11caa2c"},"vehicle_type_id":"4","last_reported":1747833867,"current_range_meters":4800,"station_id":"ce4bh3p2rcd13ifvqdq0","pricing_plan_id":"cebpf4jnsgd1na2vs0mg"},{"bike_id":"c398c640-5780-49dd-b5d0-709d3017535d","system_id":"levelo_inurba_marseille","lat":43.2721,"lon":5.39177,"is_reserved":false,"is_disabled":false,"rental_uris":{"android":"levelo://app?vid=c398c640-5780-49dd-b5d0-709d3017535d","ios":"levelo://app?vid=c398c640-5780-49dd-b5d0-709d3017535d"},"vehicle_type_id":"4","last_reported":1747833867,"current_range_meters":4800,"station_id":"ce4bhhp2rcd13ifvqfm0","pricing_plan_id":"cebpf4jnsgd1na2vs0mg"},{"bike_id":"9e03cbff-f67f-43b3-b101-e68a807c975a","system_id":"levelo_inurba_marseille","lat":43.23143,"lon":5.43713,"is_reserved":false,"is_disabled":false,"rental_uris":{"android":"levelo://app?vid=9e03cbff-f67f-43b3-b101-e68a807c975a","ios":"levelo://app?vid=9e03cbff-f67f-43b3-b101-e68a807c975a"},"vehicle_type_id":"4","last_reported":1747833867,"current_range_meters":4800,"station_id":"ce4bhmp2rcd13ifvqgog","pricing_plan_id":"cebpf4jnsgd1na2vs0mg"},{"bike_id":"f3a053a7-89f9-4e54-b2e2-2f9d4aa75130","system_id":"levelo_inurba_marseille","lat":43.26799,"lon":5.40247,"is_reserved":false,"is_disabled":false,"rental_uris":{"android":"levelo://app?vid=f3a053a7-89f9-4e54-b2e2-2f9d4aa75130","ios":"levelo://app?vid=f3a053a7-89f9-4e54-b2e2-2f9d4aa75130"},"vehicle_type_id":"4","last_reported":1747833867,"current_range_meters":4800,"station_id":"ce501612rcd8frsf0b60","pricing_plan_id":"cebpf4jnsgd1na2vs0mg"},{"bike_id":"9504bc6a-6113-49f6-a8d0-80a1488c67c5","system_id":"levelo_inurba_marseille","lat":43.305494,"lon":5.365514,"is_reserved":false,"is_disabled":false,"rental_uris":{"android":"levelo://app?vid=9504bc6a-6113-49f6-a8d0-80a1488c67c5","ios":"levelo://app?vid=9504bc6a-6113-49f6-a8d0-80a1488c67c5"},"vehicle_type_id":"4","last_reported":1747833867,"current_range_meters":5600,"station_id":"ce4bgs12rcd13ifvqcag","pricing_plan_id":"cebpf4jnsgd1na2vs0mg"},{"bike_id":"5e12641d-0a69-4c8f-9c23-9ec9a4d93492","system_id":"levelo_inurba_marseille","lat":43.2572,"lon":5.4111,"is_reserved":false,"is_disabled":false,"rental_uris":{"android":"levelo://app?vid=5e12641d-0a69-4c8f-9c23-9ec9a4d93492","ios":"levelo://app?vid=5e12641d-0a69-4c8f-9c23-9ec9a4d93492"},"vehicle_type_id":"4","last_reported":1747833867,"current_range_meters":5600,"station_id":"ce4bhkp2rcd13ifvqgd0","pricing_plan_id":"cebpf4jnsgd1na2vs0mg"},{"bike_id":"b0687ed1-2f3c-48b7-88ae-9c9b05e97dbb","system_id":"levelo_inurba_marseille","lat":43.28001,"lon":5.40005,"is_reserved":false,"is_disabled":false,"rental_uris":{"android":"levelo://app?vid=b0687ed1-2f3c-48b7-88ae-9c9b05e97dbb","ios":"levelo://app?vid=b0687ed1-2f3c-48b7-88ae-9c9b05e97dbb"},"vehicle_type_id":"4","last_reported":1747833867,"current_range_meters":5600,"station_id":"ce4bho92rcd13ifvqh4g","pricing_plan_id":"cebpf4jnsgd1na2vs0mg"},{"bike_id":"60e67a08-a624-4558-8aaf-acd9b7cecf91","system_id":"levelo_inurba_marseille","lat":43.27621,"lon":5.3611,"is_reserved":false,"is_disabled":false,"rental_uris":{"android":"levelo://app?vid=60e67a08-a624-4558-8aaf-acd9b7cecf91","ios":"levelo://app?vid=60e67a08-a624-4558-8aaf-acd9b7cecf91"},"vehicle_type_id":"4","last_reported":1747833867,"current_range_meters":6000,"station_id":"ce4bgj92rcd13ifvqbe0","pricing_plan_id":"cebpf4jnsgd1na2vs0mg"},{"bike_id":"90294c08-e49b-4b97-88f9-e49d62db7883","system_id":"levelo_inurba_marseille","lat":43.2465,"lon":5.389,"is_reserved":false,"is_disabled":false,"rental_uris":{"android":"levelo://app?vid=90294c08-e49b-4b97-88f9-e49d62db7883","ios":"levelo://app?vid=90294c08-e49b-4b97-88f9-e49d62db7883"},"vehicle_type_id":"4","last_reported":1747833867,"current_range_meters":6000,"station_id":"ce4bhg12rcd13ifvqf60","pricing_plan_id":"cebpf4jnsgd1na2vs0mg"},{"bike_id":"9ddd612d-2554-4feb-b861-7e36bf5219cb","system_id":"levelo_inurba_marseille","lat":43.2706,"lon":5.40257,"is_reserved":false,"is_disabled":false,"rental_uris":{"android":"levelo://app?vid=9ddd612d-2554-4feb-b861-7e36bf5219cb","ios":"levelo://app?vid=9ddd612d-2554-4feb-b861-7e36bf5219cb"},"vehicle_type_id":"4","last_reported":1747833867,"current_range_meters":6000,"station_id":"ce4bhk92rcd13ifvqgc0","pricing_plan_id":"cebpf4jnsgd1na2vs0mg"},{"bike_id":"286b6ee7-ceda-4c6e-a07e-3d9c79135630","system_id":"levelo_inurba_marseille","lat":43.21749,"lon":5.34598,"is_reserved":false,"is_disabled":false,"rental_uris":{"android":"levelo://app?vid=286b6ee7-ceda-4c6e-a07e-3d9c79135630","ios":"levelo://app?vid=286b6ee7-ceda-4c6e-a07e-3d9c79135630"},"vehicle_type_id":"4","last_reported":1747833867,"current_range_meters":6000,"station_id":"st_cvj6r9ubvosntc0bgbag","pricing_plan_id":"cebpf4jnsgd1na2vs0mg"},{"bike_id":"bffbaf88-357a-4e87-a68c-a9a27a6e01e6","system_id":"levelo_inurba_marseille","lat":43.26232,"lon":5.42135,"is_reserved":false,"is_disabled":false,"rental_uris":{"android":"levelo://app?vid=bffbaf88-357a-4e87-a68c-a9a27a6e01e6","ios":"levelo://app?vid=bffbaf88-357a-4e87-a68c-a9a27a6e01e6"},"vehicle_type_id":"4","last_reported":1747833867,"current_range_meters":6400,"station_id":"","pricing_plan_id":"cebpf4jnsgd1na2vs0mg"},{"bike_id":"d0b6d1e3-af36-4bf3-b60f-31bf11e9159a","system_id":"levelo_inurba_marseille","lat":43.29856,"lon":5.36326,"is_reserved":false,"is_disabled":false,"rental_uris":{"android":"levelo://app?vid=d0b6d1e3-af36-4bf3-b60f-31bf11e9159a","ios":"levelo://app?vid=d0b6d1e3-af36-4bf3-b60f-31bf11e9159a"},"vehicle_type_id":"4","last_reported":1747833867,"current_range_meters":6400,"station_id":"ce4bgpp2rcd13ifvqc3g","pricing_plan_id":"cebpf4jnsgd1na2vs0mg"},{"bike_id":"7e30ded6-7123-403f-84e3-3ec48d1b790c","system_id":"levelo_inurba_marseille","lat":43.283527,"lon":5.381233,"is_reserved":false,"is_disabled":false,"rental_uris":{"android":"levelo://app?vid=7e30ded6-7123-403f-84e3-3ec48d1b790c","ios":"levelo://app?vid=7e30ded6-7123-403f-84e3-3ec48d1b790c"},"vehicle_type_id":"4","last_reported":1747833867,"current_range_meters":6400,"station_id":"ce4bh412rcd13ifvqdr0","pricing_plan_id":"cebpf4jnsgd1na2vs0mg"},{"bike_id":"598e5a37-d938-48c7-9a11-0f39b33178ec","system_id":"levelo_inurba_marseille","lat":43.286614,"lon":5.363476,"is_reserved":false,"is_disabled":false,"rental_uris":{"android":"levelo://app?vid=598e5a37-d938-48c7-9a11-0f39b33178ec","ios":"levelo://app?vid=598e5a37-d938-48c7-9a11-0f39b33178ec"},"vehicle_type_id":"4","last_reported":1747833867,"current_range_meters":6400,"station_id":"ce4bhah2rcd13ifvqej0","pricing_plan_id":"cebpf4jnsgd1na2vs0mg"},{"bike_id":"1fb80df3-0771-4991-832c-3c3bf3fb4754","system_id":"levelo_inurba_marseille","lat":43.25733,"lon":5.41125,"is_reserved":false,"is_disabled":false,"rental_uris":{"android":"levelo://app?vid=1fb80df3-0771-4991-832c-3c3bf3fb4754","ios":"levelo://app?vid=1fb80df3-0771-4991-832c-3c3bf3fb4754"},"vehicle_type_id":"4","last_reported":1747833867,"current_range_meters":6400,"station_id":"ce4bhkp2rcd13ifvqgd0","pricing_plan_id":"cebpf4jnsgd1na2vs0mg"},{"bike_id":"fa9db472-02eb-4b29-9deb-f352ed14f78e","system_id":"levelo_inurba_marseille","lat":43.28151,"lon":5.42638,"is_reserved":false,"is_disabled":false,"rental_uris":{"android":"levelo://app?vid=fa9db472-02eb-4b29-9deb-f352ed14f78e","ios":"levelo://app?vid=fa9db472-02eb-4b29-9deb-f352ed14f78e"},"vehicle_type_id":"4","last_reported":1747833867,"current_range_meters":6400,"station_id":"ce4bhnh2rcd13ifvqgug","pricing_plan_id":"cebpf4jnsgd1na2vs0mg"},{"bike_id":"9d98f24e-3aab-426b-b3dc-234aeadf8746","system_id":"levelo_inurba_marseille","lat":43.2416,"lon":5.36409,"is_reserved":false,"is_disabled":false,"rental_uris":{"android":"levelo://app?vid=9d98f24e-3aab-426b-b3dc-234aeadf8746","ios":"levelo://app?vid=9d98f24e-3aab-426b-b3dc-234aeadf8746"},"vehicle_type_id":"4","last_reported":1747833867,"current_range_meters":6400,"station_id":"cpo36qri1sfpv3e86is0","pricing_plan_id":"cebpf4jnsgd1na2vs0mg"},{"bike_id":"8859d69f-de3b-4b52-9226-e81b607c5a81","system_id":"levelo_inurba_marseille","lat":43.2996,"lon":5.38503,"is_reserved":false,"is_disabled":false,"rental_uris":{"android":"levelo://app?vid=8859d69f-de3b-4b52-9226-e81b607c5a81","ios":"levelo://app?vid=8859d69f-de3b-4b52-9226-e81b607c5a81"},"vehicle_type_id":"4","last_reported":1747833867,"current_range_meters":6800,"station_id":"ce4bgj92rcd13ifvqbd0","pricing_plan_id":"cebpf4jnsgd1na2vs0mg"},{"bike_id":"28857b43-ebd3-4b60-a330-2eb375bd1fa6","system_id":"levelo_inurba_marseille","lat":43.31074,"lon":5.38353,"is_reserved":false,"is_disabled":false,"rental_uris":{"android":"levelo://app?vid=28857b43-ebd3-4b60-a330-2eb375bd1fa6","ios":"levelo://app?vid=28857b43-ebd3-4b60-a330-2eb375bd1fa6"},"vehicle_type_id":"4","last_reported":1747833867,"current_range_meters":6800,"station_id":"ce4bgv92rcd13ifvqcr0","pricing_plan_id":"cebpf4jnsgd1na2vs0mg"},{"bike_id":"21548a3d-b670-4cb9-b9c1-799bd12c799a","system_id":"levelo_inurba_marseille","lat":43.29206,"lon":5.39314,"is_reserved":false,"is_disabled":false,"rental_uris":{"android":"levelo://app?vid=21548a3d-b670-4cb9-b9c1-799bd12c799a","ios":"levelo://app?vid=21548a3d-b670-4cb9-b9c1-799bd12c799a"},"vehicle_type_id":"4","last_reported":1747833867,"current_range_meters":6800,"station_id":"ce4bh192rcd13ifvqdd0","pricing_plan_id":"cebpf4jnsgd1na2vs0mg"},{"bike_id":"6684a469-4594-4960-a989-328d3f260b8a","system_id":"levelo_inurba_marseille","lat":43.273696,"lon":5.362526,"is_reserved":false,"is_disabled":false,"rental_uris":{"android":"levelo://app?vid=6684a469-4594-4960-a989-328d3f260b8a","ios":"levelo://app?vid=6684a469-4594-4960-a989-328d3f260b8a"},"vehicle_type_id":"4","last_reported":1747833867,"current_range_meters":6800,"station_id":"ce4bhbh2rcd13ifvqeo0","pricing_plan_id":"cebpf4jnsgd1na2vs0mg"},{"bike_id":"879aeb71-927b-439c-9c2b-1c9452379465","system_id":"levelo_inurba_marseille","lat":43.28636,"lon":5.3507,"is_reserved":false,"is_disabled":false,"rental_uris":{"android":"levelo://app?vid=879aeb71-927b-439c-9c2b-1c9452379465","ios":"levelo://app?vid=879aeb71-927b-439c-9c2b-1c9452379465"},"vehicle_type_id":"4","last_reported":1747833867,"current_range_meters":6800,"station_id":"ce4bhch2rcd13ifvqeug","pricing_plan_id":"cebpf4jnsgd1na2vs0mg"},{"bike_id":"c9bf0bed-ab35-4f97-844c-4eb511b8961d","system_id":"levelo_inurba_marseille","lat":43.25751,"lon":5.41136,"is_reserved":false,"is_disabled":false,"rental_uris":{"android":"levelo://app?vid=c9bf0bed-ab35-4f97-844c-4eb511b8961d","ios":"levelo://app?vid=c9bf0bed-ab35-4f97-844c-4eb511b8961d"},"vehicle_type_id":"4","last_reported":1747833867,"current_range_meters":7200,"station_id":"","pricing_plan_id":"cebpf4jnsgd1na2vs0mg"},{"bike_id":"cf63a139-0651-41ef-99be-64fadc0fca91","system_id":"levelo_inurba_marseille","lat":43.31721,"lon":5.37258,"is_reserved":false,"is_disabled":false,"rental_uris":{"android":"levelo://app?vid=cf63a139-0651-41ef-99be-64fadc0fca91","ios":"levelo://app?vid=cf63a139-0651-41ef-99be-64fadc0fca91"},"vehicle_type_id":"4","last_reported":1747833867,"current_range_meters":7200,"station_id":"","pricing_plan_id":"cebpf4jnsgd1na2vs0mg"},{"bike_id":"b8b511c7-6f48-45be-97af-1e0036b54cc5","system_id":"levelo_inurba_marseille","lat":43.27342,"lon":5.42404,"is_reserved":false,"is_disabled":false,"rental_uris":{"android":"levelo://app?vid=b8b511c7-6f48-45be-97af-1e0036b54cc5","ios":"levelo://app?vid=b8b511c7-6f48-45be-97af-1e0036b54cc5"},"vehicle_type_id":"4","last_reported":1747833867,"current_range_meters":7200,"station_id":"","pricing_plan_id":"cebpf4jnsgd1na2vs0mg"},{"bike_id":"2c1680df-f251-47df-b7d5-73fb86f62513","system_id":"levelo_inurba_marseille","lat":43.29623,"lon":5.37738,"is_reserved":false,"is_disabled":false,"rental_uris":{"android":"levelo://app?vid=2c1680df-f251-47df-b7d5-73fb86f62513","ios":"levelo://app?vid=2c1680df-f251-47df-b7d5-73fb86f62513"},"vehicle_type_id":"4","last_reported":1747833867,"current_range_meters":7200,"station_id":"ce4bgi92rcd13ifvqb90","pricing_plan_id":"cebpf4jnsgd1na2vs0mg"},{"bike_id":"5c26fb9a-0c9e-4694-9e52-9b424455452d","system_id":"levelo_inurba_marseille","lat":43.30559,"lon":5.36564,"is_reserved":false,"is_disabled":false,"rental_uris":{"android":"levelo://app?vid=5c26fb9a-0c9e-4694-9e52-9b424455452d","ios":"levelo://app?vid=5c26fb9a-0c9e-4694-9e52-9b424455452d"},"vehicle_type_id":"4","last_reported":1747833867,"current_range_meters":7200,"station_id":"ce4bgs12rcd13ifvqcag","pricing_plan_id":"cebpf4jnsgd1na2vs0mg"},{"bike_id":"08ea67a5-d01f-4f32-ab99-7027aef59895","system_id":"levelo_inurba_marseille","lat":43.31328,"lon":5.39691,"is_reserved":false,"is_disabled":false,"rental_uris":{"android":"levelo://app?vid=08ea67a5-d01f-4f32-ab99-7027aef59895","ios":"levelo://app?vid=08ea67a5-d01f-4f32-ab99-7027aef59895"},"vehicle_type_id":"4","last_reported":1747833867,"current_range_meters":7200,"station_id":"ce4bgvp2rcd13ifvqcu0","pricing_plan_id":"cebpf4jnsgd1na2vs0mg"},{"bike_id":"8d178d41-4116-44ea-a57a-1269e4f38dd1","system_id":"levelo_inurba_marseille","lat":43.273859,"lon":5.393594,"is_reserved":false,"is_disabled":false,"rental_uris":{"android":"levelo://app?vid=8d178d41-4116-44ea-a57a-1269e4f38dd1","ios":"levelo://app?vid=8d178d41-4116-44ea-a57a-1269e4f38dd1"},"vehicle_type_id":"4","last_reported":1747833867,"current_range_meters":7200,"station_id":"ce4bhdp2rcd13ifvqf20","pricing_plan_id":"cebpf4jnsgd1na2vs0mg"},{"bike_id":"80053634-2f34-4266-a156-bda33be861b7","system_id":"levelo_inurba_marseille","lat":43.246523,"lon":5.38892,"is_reserved":false,"is_disabled":false,"rental_uris":{"android":"levelo://app?vid=80053634-2f34-4266-a156-bda33be861b7","ios":"levelo://app?vid=80053634-2f34-4266-a156-bda33be861b7"},"vehicle_type_id":"4","last_reported":1747833867,"current_range_meters":7200,"station_id":"ce4bhg12rcd13ifvqf60","pricing_plan_id":"cebpf4jnsgd1na2vs0mg"},{"bike_id":"0962179a-c021-4104-96ad-a553eb817d59","system_id":"levelo_inurba_marseille","lat":43.24811,"lon":5.37473,"is_reserved":false,"is_disabled":false,"rental_uris":{"android":"levelo://app?vid=0962179a-c021-4104-96ad-a553eb817d59","ios":"levelo://app?vid=0962179a-c021-4104-96ad-a553eb817d59"},"vehicle_type_id":"4","last_reported":1747833867,"current_range_meters":7200,"station_id":"ce4bhgh2rcd13ifvqfb0","pricing_plan_id":"cebpf4jnsgd1na2vs0mg"},{"bike_id":"119414dd-a64a-482e-b0a3-d8cde5e6007d","system_id":"levelo_inurba_marseille","lat":43.27802,"lon":5.40677,"is_reserved":false,"is_disabled":false,"rental_uris":{"android":"levelo://app?vid=119414dd-a64a-482e-b0a3-d8cde5e6007d","ios":"levelo://app?vid=119414dd-a64a-482e-b0a3-d8cde5e6007d"},"vehicle_type_id":"4","last_reported":1747833867,"current_range_meters":7200,"station_id":"ce4bhnh2rcd13ifvqgtg","pricing_plan_id":"cebpf4jnsgd1na2vs0mg"},{"bike_id":"a00d10a0-64f5-44f4-8c06-5c774df27367","system_id":"levelo_inurba_marseille","lat":43.3254,"lon":5.41421,"is_reserved":false,"is_disabled":false,"rental_uris":{"android":"levelo://app?vid=a00d10a0-64f5-44f4-8c06-5c774df27367","ios":"levelo://app?vid=a00d10a0-64f5-44f4-8c06-5c774df27367"},"vehicle_type_id":"4","last_reported":1747833867,"current_range_meters":7200,"station_id":"ce4bhq12rcd13ifvqhhg","pricing_plan_id":"cebpf4jnsgd1na2vs0mg"},{"bike_id":"e8162579-a5ad-485f-ad83-fec8a2ebe7e1","system_id":"levelo_inurba_marseille","lat":43.26826,"lon":5.39099,"is_reserved":false,"is_disabled":false,"rental_uris":{"android":"levelo://app?vid=e8162579-a5ad-485f-ad83-fec8a2ebe7e1","ios":"levelo://app?vid=e8162579-a5ad-485f-ad83-fec8a2ebe7e1"},"vehicle_type_id":"4","last_reported":1747833867,"current_range_meters":8000,"station_id":"","pricing_plan_id":"cebpf4jnsgd1na2vs0mg"},{"bike_id":"8cb883dc-c67f-47a7-a646-3d913afaa0a2","system_id":"levelo_inurba_marseille","lat":43.275914,"lon":5.360768,"is_reserved":false,"is_disabled":false,"rental_uris":{"android":"levelo://app?vid=8cb883dc-c67f-47a7-a646-3d913afaa0a2","ios":"levelo://app?vid=8cb883dc-c67f-47a7-a646-3d913afaa0a2"},"vehicle_type_id":"4","last_reported":1747833867,"current_range_meters":8000,"station_id":"ce4bgj92rcd13ifvqbe0","pricing_plan_id":"cebpf4jnsgd1na2vs0mg"},{"bike_id":"9a897396-337c-4e54-a5c5-3d92b88078a7","system_id":"levelo_inurba_marseille","lat":43.2762,"lon":5.36106,"is_reserved":false,"is_disabled":false,"rental_uris":{"android":"levelo://app?vid=9a897396-337c-4e54-a5c5-3d92b88078a7","ios":"levelo://app?vid=9a897396-337c-4e54-a5c5-3d92b88078a7"},"vehicle_type_id":"4","last_reported":1747833867,"current_range_meters":8000,"station_id":"ce4bgj92rcd13ifvqbe0","pricing_plan_id":"cebpf4jnsgd1na2vs0mg"},{"bike_id":"118bae6f-0cf1-4bd2-ad4a-5f6b9d087f5d","system_id":"levelo_inurba_marseille","lat":43.255796,"lon":5.382227,"is_reserved":false,"is_disabled":false,"rental_uris":{"android":"levelo://app?vid=118bae6f-0cf1-4bd2-ad4a-5f6b9d087f5d","ios":"levelo://app?vid=118bae6f-0cf1-4bd2-ad4a-5f6b9d087f5d"},"vehicle_type_id":"4","last_reported":1747833867,"current_range_meters":8000,"station_id":"ce4bhf92rcd13ifvqf40","pricing_plan_id":"cebpf4jnsgd1na2vs0mg"},{"bike_id":"450a5e90-9946-4dff-876b-a6e048267ecd","system_id":"levelo_inurba_marseille","lat":43.27842,"lon":5.39214,"is_reserved":false,"is_disabled":false,"rental_uris":{"android":"levelo://app?vid=450a5e90-9946-4dff-876b-a6e048267ecd","ios":"levelo://app?vid=450a5e90-9946-4dff-876b-a6e048267ecd"},"vehicle_type_id":"4","last_reported":1747833867,"current_range_meters":8000,"station_id":"ce4bhjp2rcd13ifvqga0","pricing_plan_id":"cebpf4jnsgd1na2vs0mg"},{"bike_id":"64bb941f-9fdf-4ad4-9850-a2641047d240","system_id":"levelo_inurba_marseille","lat":43.259294,"lon":5.409036,"is_reserved":false,"is_disabled":false,"rental_uris":{"android":"levelo://app?vid=64bb941f-9fdf-4ad4-9850-a2641047d240","ios":"levelo://app?vid=64bb941f-9fdf-4ad4-9850-a2641047d240"},"vehicle_type_id":"4","last_reported":1747833867,"current_range_meters":8000,"station_id":"ce4bhm92rcd13ifvqglg","pricing_plan_id":"cebpf4jnsgd1na2vs0mg"},{"bike_id":"eb180659-5830-487a-9b05-a4d2d288a3ec","system_id":"levelo_inurba_marseille","lat":43.275752,"lon":5.360727,"is_reserved":false,"is_disabled":false,"rental_uris":{"android":"levelo://app?vid=eb180659-5830-487a-9b05-a4d2d288a3ec","ios":"levelo://app?vid=eb180659-5830-487a-9b05-a4d2d288a3ec"},"vehicle_type_id":"4","last_reported":1747833867,"current_range_meters":8400,"station_id":"","pricing_plan_id":"cebpf4jnsgd1na2vs0mg"},{"bike_id":"3552fbf2-b43a-446f-93f5-d695fc251b73","system_id":"levelo_inurba_marseille","lat":43.25175,"lon":5.3755,"is_reserved":false,"is_disabled":false,"rental_uris":{"android":"levelo://app?vid=3552fbf2-b43a-446f-93f5-d695fc251b73","ios":"levelo://app?vid=3552fbf2-b43a-446f-93f5-d695fc251b73"},"vehicle_type_id":"4","last_reported":1747833867,"current_range_meters":8400,"station_id":"","pricing_plan_id":"cebpf4jnsgd1na2vs0mg"},{"bike_id":"8adbd079-0212-4e96-80b0-5ec7f92555b0","system_id":"levelo_inurba_marseille","lat":43.21191,"lon":5.35066,"is_reserved":false,"is_disabled":false,"rental_uris":{"android":"levelo://app?vid=8adbd079-0212-4e96-80b0-5ec7f92555b0","ios":"levelo://app?vid=8adbd079-0212-4e96-80b0-5ec7f92555b0"},"vehicle_type_id":"4","last_reported":1747833867,"current_range_meters":8400,"station_id":"","pricing_plan_id":"cebpf4jnsgd1na2vs0mg"},{"bike_id":"e7a8dd5b-4ab4-42f1-8b4a-9471cf7a467d","system_id":"levelo_inurba_marseille","lat":43.30549,"lon":5.3654,"is_reserved":false,"is_disabled":false,"rental_uris":{"android":"levelo://app?vid=e7a8dd5b-4ab4-42f1-8b4a-9471cf7a467d","ios":"levelo://app?vid=e7a8dd5b-4ab4-42f1-8b4a-9471cf7a467d"},"vehicle_type_id":"4","last_reported":1747833867,"current_range_meters":8400,"station_id":"ce4bgs12rcd13ifvqcag","pricing_plan_id":"cebpf4jnsgd1na2vs0mg"},{"bike_id":"a67ce11f-df32-4782-ba76-6037bcbcbfc3","system_id":"levelo_inurba_marseille","lat":43.30885,"lon":5.39633,"is_reserved":false,"is_disabled":false,"rental_uris":{"android":"levelo://app?vid=a67ce11f-df32-4782-ba76-6037bcbcbfc3","ios":"levelo://app?vid=a67ce11f-df32-4782-ba76-6037bcbcbfc3"},"vehicle_type_id":"4","last_reported":1747833867,"current_range_meters":8400,"station_id":"ce4bh012rcd13ifvqcv0","pricing_plan_id":"cebpf4jnsgd1na2vs0mg"},{"bike_id":"cfa795f5-8131-45d5-9576-d03c44845cf4","system_id":"levelo_inurba_marseille","lat":43.29167,"lon":5.37165,"is_reserved":false,"is_disabled":false,"rental_uris":{"android":"levelo://app?vid=cfa795f5-8131-45d5-9576-d03c44845cf4","ios":"levelo://app?vid=cfa795f5-8131-45d5-9576-d03c44845cf4"},"vehicle_type_id":"4","last_reported":1747833867,"current_range_meters":8400,"station_id":"ce4bha92rcd13ifvqeh0","pricing_plan_id":"cebpf4jnsgd1na2vs0mg"},{"bike_id":"f59f724f-57d9-4c76-bcc8-2b5db6d6fb16","system_id":"levelo_inurba_marseille","lat":43.250887,"lon":5.395173,"is_reserved":false,"is_disabled":false,"rental_uris":{"android":"levelo://app?vid=f59f724f-57d9-4c76-bcc8-2b5db6d6fb16","ios":"levelo://app?vid=f59f724f-57d9-4c76-bcc8-2b5db6d6fb16"},"vehicle_type_id":"4","last_reported":1747833867,"current_range_meters":8400,"station_id":"ce4bhm12rcd13ifvqgkg","pricing_plan_id":"cebpf4jnsgd1na2vs0mg"},{"bike_id":"b4dfcdc2-6479-4783-9eb0-5b6bef6a5c8e","system_id":"levelo_inurba_marseille","lat":43.23151,"lon":5.43713,"is_reserved":false,"is_disabled":false,"rental_uris":{"android":"levelo://app?vid=b4dfcdc2-6479-4783-9eb0-5b6bef6a5c8e","ios":"levelo://app?vid=b4dfcdc2-6479-4783-9eb0-5b6bef6a5c8e"},"vehicle_type_id":"4","last_reported":1747833867,"current_range_meters":8400,"station_id":"ce4bhmp2rcd13ifvqgog","pricing_plan_id":"cebpf4jnsgd1na2vs0mg"},{"bike_id":"66ccefb2-94fa-48e0-aaf1-3c5ad0e8803f","system_id":"levelo_inurba_marseille","lat":43.27942,"lon":5.41047,"is_reserved":false,"is_disabled":false,"rental_uris":{"android":"levelo://app?vid=66ccefb2-94fa-48e0-aaf1-3c5ad0e8803f","ios":"levelo://app?vid=66ccefb2-94fa-48e0-aaf1-3c5ad0e8803f"},"vehicle_type_id":"4","last_reported":1747833867,"current_range_meters":8400,"station_id":"ce4bhnp2rcd13ifvqh0g","pricing_plan_id":"cebpf4jnsgd1na2vs0mg"},{"bike_id":"6cdef387-baab-4555-9f86-617fba94902a","system_id":"levelo_inurba_marseille","lat":43.323503,"lon":5.367505,"is_reserved":false,"is_disabled":false,"rental_uris":{"android":"levelo://app?vid=6cdef387-baab-4555-9f86-617fba94902a","ios":"levelo://app?vid=6cdef387-baab-4555-9f86-617fba94902a"},"vehicle_type_id":"4","last_reported":1747833867,"current_range_meters":8400,"station_id":"ce4bhsh2rcd13ifvqi2g","pricing_plan_id":"cebpf4jnsgd1na2vs0mg"},{"bike_id":"b372620f-8132-4e7e-8d1a-e467489438c7","system_id":"levelo_inurba_marseille","lat":43.28602,"lon":5.40372,"is_reserved":false,"is_disabled":false,"rental_uris":{"android":"levelo://app?vid=b372620f-8132-4e7e-8d1a-e467489438c7","ios":"levelo://app?vid=b372620f-8132-4e7e-8d1a-e467489438c7"},"vehicle_type_id":"4","last_reported":1747833867,"current_range_meters":8800,"station_id":"","pricing_plan_id":"cebpf4jnsgd1na2vs0mg"},{"bike_id":"8be7801a-814f-4d7f-a177-20c6bff19f0a","system_id":"levelo_inurba_marseille","lat":43.31329,"lon":5.39695,"is_reserved":false,"is_disabled":false,"rental_uris":{"android":"levelo://app?vid=8be7801a-814f-4d7f-a177-20c6bff19f0a","ios":"levelo://app?vid=8be7801a-814f-4d7f-a177-20c6bff19f0a"},"vehicle_type_id":"4","last_reported":1747833867,"current_range_meters":8800,"station_id":"ce4bgvp2rcd13ifvqcu0","pricing_plan_id":"cebpf4jnsgd1na2vs0mg"},{"bike_id":"9b4e5914-ec28-4b2d-928b-ec0710c0a718","system_id":"levelo_inurba_marseille","lat":43.28471,"lon":5.38425,"is_reserved":false,"is_disabled":false,"rental_uris":{"android":"levelo://app?vid=9b4e5914-ec28-4b2d-928b-ec0710c0a718","ios":"levelo://app?vid=9b4e5914-ec28-4b2d-928b-ec0710c0a718"},"vehicle_type_id":"4","last_reported":1747833867,"current_range_meters":8800,"station_id":"ce4bh512rcd13ifvqe3g","pricing_plan_id":"cebpf4jnsgd1na2vs0mg"},{"bike_id":"1ff4dd87-bf56-4ab1-8365-aad71fcb827c","system_id":"levelo_inurba_marseille","lat":43.316076,"lon":5.423906,"is_reserved":false,"is_disabled":false,"rental_uris":{"android":"levelo://app?vid=1ff4dd87-bf56-4ab1-8365-aad71fcb827c","ios":"levelo://app?vid=1ff4dd87-bf56-4ab1-8365-aad71fcb827c"},"vehicle_type_id":"4","last_reported":1747833867,"current_range_meters":8800,"station_id":"ce4bhp92rcd13ifvqhbg","pricing_plan_id":"cebpf4jnsgd1na2vs0mg"},{"bike_id":"57f06891-499d-433a-b2c1-26fc0ba00da5","system_id":"levelo_inurba_marseille","lat":43.23194,"lon":5.3556,"is_reserved":false,"is_disabled":false,"rental_uris":{"android":"levelo://app?vid=57f06891-499d-433a-b2c1-26fc0ba00da5","ios":"levelo://app?vid=57f06891-499d-433a-b2c1-26fc0ba00da5"},"vehicle_type_id":"4","last_reported":1747833867,"current_range_meters":8800,"station_id":"ce4bhu92rcd13ifvqi70","pricing_plan_id":"cebpf4jnsgd1na2vs0mg"},{"bike_id":"c3c11b11-8507-45b4-bd48-1e3bdd46fbbe","system_id":"levelo_inurba_marseille","lat":43.23198,"lon":5.40022,"is_reserved":false,"is_disabled":false,"rental_uris":{"android":"levelo://app?vid=c3c11b11-8507-45b4-bd48-1e3bdd46fbbe","ios":"levelo://app?vid=c3c11b11-8507-45b4-bd48-1e3bdd46fbbe"},"vehicle_type_id":"4","last_reported":1747833867,"current_range_meters":9200,"station_id":"ce4bhn12rcd13ifvqgqg","pricing_plan_id":"cebpf4jnsgd1na2vs0mg"},{"bike_id":"26fd2cc0-986c-43ff-bd6f-4286d17267ea","system_id":"levelo_inurba_marseille","lat":43.27947,"lon":5.41032,"is_reserved":false,"is_disabled":false,"rental_uris":{"android":"levelo://app?vid=26fd2cc0-986c-43ff-bd6f-4286d17267ea","ios":"levelo://app?vid=26fd2cc0-986c-43ff-bd6f-4286d17267ea"},"vehicle_type_id":"4","last_reported":1747833867,"current_range_meters":9200,"station_id":"ce4bhnp2rcd13ifvqh0g","pricing_plan_id":"cebpf4jnsgd1na2vs0mg"},{"bike_id":"1d2c4377-18ec-42b8-8d87-3e751f008e98","system_id":"levelo_inurba_marseille","lat":43.30138,"lon":5.37423,"is_reserved":false,"is_disabled":false,"rental_uris":{"android":"levelo://app?vid=1d2c4377-18ec-42b8-8d87-3e751f008e98","ios":"levelo://app?vid=1d2c4377-18ec-42b8-8d87-3e751f008e98"},"vehicle_type_id":"4","last_reported":1747833867,"current_range_meters":9600,"station_id":"ce4bgs92rcd13ifvqcc0","pricing_plan_id":"cebpf4jnsgd1na2vs0mg"},{"bike_id":"19ada90d-5881-4029-ba0b-3d94fe7b25c5","system_id":"levelo_inurba_marseille","lat":43.26034,"lon":5.37546,"is_reserved":false,"is_disabled":false,"rental_uris":{"android":"levelo://app?vid=19ada90d-5881-4029-ba0b-3d94fe7b25c5","ios":"levelo://app?vid=19ada90d-5881-4029-ba0b-3d94fe7b25c5"},"vehicle_type_id":"4","last_reported":1747833867,"current_range_meters":9600,"station_id":"ce4bhgh2rcd13ifvqfa0","pricing_plan_id":"cebpf4jnsgd1na2vs0mg"},{"bike_id":"5cd5363e-a0eb-4f2d-995b-65947b212101","system_id":"levelo_inurba_marseille","lat":43.26501,"lon":5.39534,"is_reserved":false,"is_disabled":false,"rental_uris":{"android":"levelo://app?vid=5cd5363e-a0eb-4f2d-995b-65947b212101","ios":"levelo://app?vid=5cd5363e-a0eb-4f2d-995b-65947b212101"},"vehicle_type_id":"4","last_reported":1747833867,"current_range_meters":9600,"station_id":"ce4bhi12rcd13ifvqfq0","pricing_plan_id":"cebpf4jnsgd1na2vs0mg"},{"bike_id":"6fa2a045-306c-4146-823c-182cbdf87330","system_id":"levelo_inurba_marseille","lat":43.231745,"lon":5.399826,"is_reserved":false,"is_disabled":false,"rental_uris":{"android":"levelo://app?vid=6fa2a045-306c-4146-823c-182cbdf87330","ios":"levelo://app?vid=6fa2a045-306c-4146-823c-182cbdf87330"},"vehicle_type_id":"4","last_reported":1747833867,"current_range_meters":9600,"station_id":"ce4bhn12rcd13ifvqgqg","pricing_plan_id":"cebpf4jnsgd1na2vs0mg"},{"bike_id":"8b4d1b63-8080-4952-948a-3dceb7ed3e46","system_id":"levelo_inurba_marseille","lat":43.26806,"lon":5.40263,"is_reserved":false,"is_disabled":false,"rental_uris":{"android":"levelo://app?vid=8b4d1b63-8080-4952-948a-3dceb7ed3e46","ios":"levelo://app?vid=8b4d1b63-8080-4952-948a-3dceb7ed3e46"},"vehicle_type_id":"4","last_reported":1747833867,"current_range_meters":9600,"station_id":"ce501612rcd8frsf0b60","pricing_plan_id":"cebpf4jnsgd1na2vs0mg"},{"bike_id":"c69b5beb-0c3d-40db-a214-eec95f1e753e","system_id":"levelo_inurba_marseille","lat":43.24166,"lon":5.36395,"is_reserved":false,"is_disabled":false,"rental_uris":{"android":"levelo://app?vid=c69b5beb-0c3d-40db-a214-eec95f1e753e","ios":"levelo://app?vid=c69b5beb-0c3d-40db-a214-eec95f1e753e"},"vehicle_type_id":"4","last_reported":1747833867,"current_range_meters":9600,"station_id":"cpo36qri1sfpv3e86is0","pricing_plan_id":"cebpf4jnsgd1na2vs0mg"},{"bike_id":"812fa841-0b74-4a66-8e01-ac7b6abb4a4c","system_id":"levelo_inurba_marseille","lat":43.23145,"lon":5.43773,"is_reserved":false,"is_disabled":false,"rental_uris":{"android":"levelo://app?vid=812fa841-0b74-4a66-8e01-ac7b6abb4a4c","ios":"levelo://app?vid=812fa841-0b74-4a66-8e01-ac7b6abb4a4c"},"vehicle_type_id":"4","last_reported":1747833867,"current_range_meters":10000,"station_id":"","pricing_plan_id":"cebpf4jnsgd1na2vs0mg"},{"bike_id":"7a928482-7196-4456-89d3-712a8075ed31","system_id":"levelo_inurba_marseille","lat":43.29797,"lon":5.38107,"is_reserved":false,"is_disabled":false,"rental_uris":{"android":"levelo://app?vid=7a928482-7196-4456-89d3-712a8075ed31","ios":"levelo://app?vid=7a928482-7196-4456-89d3-712a8075ed31"},"vehicle_type_id":"4","last_reported":1747833867,"current_range_meters":10000,"station_id":"ce4bgip2rcd13ifvqbb0","pricing_plan_id":"cebpf4jnsgd1na2vs0mg"},{"bike_id":"92b4088b-a94c-463c-a0b7-e23cdb59e53e","system_id":"levelo_inurba_marseille","lat":43.29798,"lon":5.38091,"is_reserved":false,"is_disabled":false,"rental_uris":{"android":"levelo://app?vid=92b4088b-a94c-463c-a0b7-e23cdb59e53e","ios":"levelo://app?vid=92b4088b-a94c-463c-a0b7-e23cdb59e53e"},"vehicle_type_id":"4","last_reported":1747833867,"current_range_meters":10000,"station_id":"ce4bgip2rcd13ifvqbb0","pricing_plan_id":"cebpf4jnsgd1na2vs0mg"},{"bike_id":"a248ea68-28fa-445c-aa97-f8a74207bb2a","system_id":"levelo_inurba_marseille","lat":43.24392,"lon":5.37058,"is_reserved":false,"is_disabled":false,"rental_uris":{"android":"levelo://app?vid=a248ea68-28fa-445c-aa97-f8a74207bb2a","ios":"levelo://app?vid=a248ea68-28fa-445c-aa97-f8a74207bb2a"},"vehicle_type_id":"4","last_reported":1747833867,"current_range_meters":10000,"station_id":"ce4bhhh2rcd13ifvqfk0","pricing_plan_id":"cebpf4jnsgd1na2vs0mg"},{"bike_id":"15fece08-8fc5-430f-a21c-4d8a316b0217","system_id":"levelo_inurba_marseille","lat":43.23963,"lon":5.36629,"is_reserved":false,"is_disabled":false,"rental_uris":{"android":"levelo://app?vid=15fece08-8fc5-430f-a21c-4d8a316b0217","ios":"levelo://app?vid=15fece08-8fc5-430f-a21c-4d8a316b0217"},"vehicle_type_id":"4","last_reported":1747833867,"current_range_meters":10000,"station_id":"ce4bhi12rcd13ifvqfp0","pricing_plan_id":"cebpf4jnsgd1na2vs0mg"},{"bike_id":"289edf10-3cb4-4764-b8e9-01dd09886fd6","system_id":"levelo_inurba_marseille","lat":43.23188,"lon":5.3998,"is_reserved":false,"is_disabled":false,"rental_uris":{"android":"levelo://app?vid=289edf10-3cb4-4764-b8e9-01dd09886fd6","ios":"levelo://app?vid=289edf10-3cb4-4764-b8e9-01dd09886fd6"},"vehicle_type_id":"4","last_reported":1747833867,"current_range_meters":10000,"station_id":"ce4bhn12rcd13ifvqgqg","pricing_plan_id":"cebpf4jnsgd1na2vs0mg"},{"bike_id":"a8a131af-027d-4c09-9cdc-a1b38a172804","system_id":"levelo_inurba_marseille","lat":43.26818,"lon":5.40277,"is_reserved":false,"is_disabled":false,"rental_uris":{"android":"levelo://app?vid=a8a131af-027d-4c09-9cdc-a1b38a172804","ios":"levelo://app?vid=a8a131af-027d-4c09-9cdc-a1b38a172804"},"vehicle_type_id":"4","last_reported":1747833867,"current_range_meters":10000,"station_id":"ce501612rcd8frsf0b60","pricing_plan_id":"cebpf4jnsgd1na2vs0mg"},{"bike_id":"324231ab-033b-40ae-97d2-7b70e0442b0c","system_id":"levelo_inurba_marseille","lat":43.3124,"lon":5.3694,"is_reserved":false,"is_disabled":false,"rental_uris":{"android":"levelo://app?vid=324231ab-033b-40ae-97d2-7b70e0442b0c","ios":"levelo://app?vid=324231ab-033b-40ae-97d2-7b70e0442b0c"},"vehicle_type_id":"4","last_reported":1747833867,"current_range_meters":10800,"station_id":"ce4bgl92rcd13ifvqbq0","pricing_plan_id":"cebpf4jnsgd1na2vs0mg"},{"bike_id":"1c4d537e-411a-4994-9a1a-831e373843e6","system_id":"levelo_inurba_marseille","lat":43.29582,"lon":5.36748,"is_reserved":false,"is_disabled":false,"rental_uris":{"android":"levelo://app?vid=1c4d537e-411a-4994-9a1a-831e373843e6","ios":"levelo://app?vid=1c4d537e-411a-4994-9a1a-831e373843e6"},"vehicle_type_id":"4","last_reported":1747833867,"current_range_meters":10800,"station_id":"ce4bgph2rcd13ifvqc2g","pricing_plan_id":"cebpf4jnsgd1na2vs0mg"},{"bike_id":"467ba008-4a46-46d5-a60b-c55d7cf5b5de","system_id":"levelo_inurba_marseille","lat":43.309307,"lon":5.40144,"is_reserved":false,"is_disabled":false,"rental_uris":{"android":"levelo://app?vid=467ba008-4a46-46d5-a60b-c55d7cf5b5de","ios":"levelo://app?vid=467ba008-4a46-46d5-a60b-c55d7cf5b5de"},"vehicle_type_id":"4","last_reported":1747833867,"current_range_meters":10800,"station_id":"ce4bgvp2rcd13ifvqct0","pricing_plan_id":"cebpf4jnsgd1na2vs0mg"},{"bike_id":"e9868397-bcb0-45f9-afed-dc11d5c2a43b","system_id":"levelo_inurba_marseille","lat":43.28666,"lon":5.36353,"is_reserved":false,"is_disabled":false,"rental_uris":{"android":"levelo://app?vid=e9868397-bcb0-45f9-afed-dc11d5c2a43b","ios":"levelo://app?vid=e9868397-bcb0-45f9-afed-dc11d5c2a43b"},"vehicle_type_id":"4","last_reported":1747833867,"current_range_meters":10800,"station_id":"ce4bhah2rcd13ifvqej0","pricing_plan_id":"cebpf4jnsgd1na2vs0mg"},{"bike_id":"1df42cc4-ca0d-46b2-9f71-092b4713b502","system_id":"levelo_inurba_marseille","lat":43.29007,"lon":5.3561,"is_reserved":false,"is_disabled":false,"rental_uris":{"android":"levelo://app?vid=1df42cc4-ca0d-46b2-9f71-092b4713b502","ios":"levelo://app?vid=1df42cc4-ca0d-46b2-9f71-092b4713b502"},"vehicle_type_id":"4","last_reported":1747833867,"current_range_meters":10800,"station_id":"ce4bhb92rcd13ifvqen0","pricing_plan_id":"cebpf4jnsgd1na2vs0mg"},{"bike_id":"8bcc7333-0dd1-4b52-887b-85245a2f2ad5","system_id":"levelo_inurba_marseille","lat":43.27367,"lon":5.36247,"is_reserved":false,"is_disabled":false,"rental_uris":{"android":"levelo://app?vid=8bcc7333-0dd1-4b52-887b-85245a2f2ad5","ios":"levelo://app?vid=8bcc7333-0dd1-4b52-887b-85245a2f2ad5"},"vehicle_type_id":"4","last_reported":1747833867,"current_range_meters":10800,"station_id":"ce4bhbh2rcd13ifvqeo0","pricing_plan_id":"cebpf4jnsgd1na2vs0mg"},{"bike_id":"7752cba4-3205-474a-82f7-119286c114ed","system_id":"levelo_inurba_marseille","lat":43.26556,"lon":5.37281,"is_reserved":false,"is_disabled":false,"rental_uris":{"android":"levelo://app?vid=7752cba4-3205-474a-82f7-119286c114ed","ios":"levelo://app?vid=7752cba4-3205-474a-82f7-119286c114ed"},"vehicle_type_id":"4","last_reported":1747833867,"current_range_meters":10800,"station_id":"ce4bhg12rcd13ifvqf70","pricing_plan_id":"cebpf4jnsgd1na2vs0mg"},{"bike_id":"c08dcb52-a1de-4919-be65-2c4610f4f0b7","system_id":"levelo_inurba_marseille","lat":43.26678,"lon":5.3827,"is_reserved":false,"is_disabled":false,"rental_uris":{"android":"levelo://app?vid=c08dcb52-a1de-4919-be65-2c4610f4f0b7","ios":"levelo://app?vid=c08dcb52-a1de-4919-be65-2c4610f4f0b7"},"vehicle_type_id":"4","last_reported":1747833867,"current_range_meters":10800,"station_id":"ce4bhg92rcd13ifvqf90","pricing_plan_id":"cebpf4jnsgd1na2vs0mg"},{"bike_id":"3712461b-e0ad-49ef-a8fe-58f841cef756","system_id":"levelo_inurba_marseille","lat":43.27092,"lon":5.42311,"is_reserved":false,"is_disabled":false,"rental_uris":{"android":"levelo://app?vid=3712461b-e0ad-49ef-a8fe-58f841cef756","ios":"levelo://app?vid=3712461b-e0ad-49ef-a8fe-58f841cef756"},"vehicle_type_id":"4","last_reported":1747833867,"current_range_meters":10800,"station_id":"ce4bhk92rcd13ifvqgb0","pricing_plan_id":"cebpf4jnsgd1na2vs0mg"},{"bike_id":"c06c87aa-99e3-4b89-97dc-fd6edd7b18f0","system_id":"levelo_inurba_marseille","lat":43.321061,"lon":5.367723,"is_reserved":false,"is_disabled":false,"rental_uris":{"android":"levelo://app?vid=c06c87aa-99e3-4b89-97dc-fd6edd7b18f0","ios":"levelo://app?vid=c06c87aa-99e3-4b89-97dc-fd6edd7b18f0"},"vehicle_type_id":"4","last_reported":1747833867,"current_range_meters":10800,"station_id":"ce4bhrh2rcd13ifvqhug","pricing_plan_id":"cebpf4jnsgd1na2vs0mg"},{"bike_id":"fcce1c00-77ff-4090-bc52-cb9d06addfca","system_id":"levelo_inurba_marseille","lat":43.298393,"lon":5.363485,"is_reserved":false,"is_disabled":false,"rental_uris":{"android":"levelo://app?vid=fcce1c00-77ff-4090-bc52-cb9d06addfca","ios":"levelo://app?vid=fcce1c00-77ff-4090-bc52-cb9d06addfca"},"vehicle_type_id":"4","last_reported":1747833867,"current_range_meters":11200,"station_id":"","pricing_plan_id":"cebpf4jnsgd1na2vs0mg"},{"bike_id":"8f256483-224d-414b-bd24-7f171ec9e873","system_id":"levelo_inurba_marseille","lat":43.29619,"lon":5.3772,"is_reserved":false,"is_disabled":false,"rental_uris":{"android":"levelo://app?vid=8f256483-224d-414b-bd24-7f171ec9e873","ios":"levelo://app?vid=8f256483-224d-414b-bd24-7f171ec9e873"},"vehicle_type_id":"4","last_reported":1747833867,"current_range_meters":11200,"station_id":"ce4bgi92rcd13ifvqb90","pricing_plan_id":"cebpf4jnsgd1na2vs0mg"},{"bike_id":"843a2f40-1c4e-4e19-8eef-d722e92746e8","system_id":"levelo_inurba_marseille","lat":43.308945,"lon":5.396602,"is_reserved":false,"is_disabled":false,"rental_uris":{"android":"levelo://app?vid=843a2f40-1c4e-4e19-8eef-d722e92746e8","ios":"levelo://app?vid=843a2f40-1c4e-4e19-8eef-d722e92746e8"},"vehicle_type_id":"4","last_reported":1747833867,"current_range_meters":11200,"station_id":"ce4bh012rcd13ifvqcv0","pricing_plan_id":"cebpf4jnsgd1na2vs0mg"},{"bike_id":"ae56646a-1218-4bbc-b51e-f49510ccea79","system_id":"levelo_inurba_marseille","lat":43.30426,"lon":5.39739,"is_reserved":false,"is_disabled":false,"rental_uris":{"android":"levelo://app?vid=ae56646a-1218-4bbc-b51e-f49510ccea79","ios":"levelo://app?vid=ae56646a-1218-4bbc-b51e-f49510ccea79"},"vehicle_type_id":"4","last_reported":1747833867,"current_range_meters":11200,"station_id":"ce4bh092rcd13ifvqd20","pricing_plan_id":"cebpf4jnsgd1na2vs0mg"},{"bike_id":"37b90717-6f0d-4183-bce2-e31ff5bd374a","system_id":"levelo_inurba_marseille","lat":43.28618,"lon":5.35102,"is_reserved":false,"is_disabled":false,"rental_uris":{"android":"levelo://app?vid=37b90717-6f0d-4183-bce2-e31ff5bd374a","ios":"levelo://app?vid=37b90717-6f0d-4183-bce2-e31ff5bd374a"},"vehicle_type_id":"4","last_reported":1747833867,"current_range_meters":11200,"station_id":"ce4bhch2rcd13ifvqeug","pricing_plan_id":"cebpf4jnsgd1na2vs0mg"},{"bike_id":"cf0185dc-4a06-4588-a272-2e75ffd31e70","system_id":"levelo_inurba_marseille","lat":43.25576,"lon":5.38245,"is_reserved":false,"is_disabled":false,"rental_uris":{"android":"levelo://app?vid=cf0185dc-4a06-4588-a272-2e75ffd31e70","ios":"levelo://app?vid=cf0185dc-4a06-4588-a272-2e75ffd31e70"},"vehicle_type_id":"4","last_reported":1747833867,"current_range_meters":11200,"station_id":"ce4bhih2rcd13ifvqfs0","pricing_plan_id":"cebpf4jnsgd1na2vs0mg"},{"bike_id":"3b782a7a-d3ce-416d-9295-3db8a5ce71e1","system_id":"levelo_inurba_marseille","lat":43.231495,"lon":5.437087,"is_reserved":false,"is_disabled":false,"rental_uris":{"android":"levelo://app?vid=3b782a7a-d3ce-416d-9295-3db8a5ce71e1","ios":"levelo://app?vid=3b782a7a-d3ce-416d-9295-3db8a5ce71e1"},"vehicle_type_id":"4","last_reported":1747833867,"current_range_meters":11200,"station_id":"ce4bhmp2rcd13ifvqgog","pricing_plan_id":"cebpf4jnsgd1na2vs0mg"},{"bike_id":"82952b1b-7ea4-498b-b0e9-d501e56fb491","system_id":"levelo_inurba_marseille","lat":43.2816,"lon":5.4266,"is_reserved":false,"is_disabled":false,"rental_uris":{"android":"levelo://app?vid=82952b1b-7ea4-498b-b0e9-d501e56fb491","ios":"levelo://app?vid=82952b1b-7ea4-498b-b0e9-d501e56fb491"},"vehicle_type_id":"4","last_reported":1747833867,"current_range_meters":11200,"station_id":"ce4bhnh2rcd13ifvqgug","pricing_plan_id":"cebpf4jnsgd1na2vs0mg"},{"bike_id":"1c4ddaed-cbd9-4ebb-9a53-39d69e589e3d","system_id":"levelo_inurba_marseille","lat":43.31076,"lon":5.38359,"is_reserved":false,"is_disabled":false,"rental_uris":{"android":"levelo://app?vid=1c4ddaed-cbd9-4ebb-9a53-39d69e589e3d","ios":"levelo://app?vid=1c4ddaed-cbd9-4ebb-9a53-39d69e589e3d"},"vehicle_type_id":"4","last_reported":1747833867,"current_range_meters":11600,"station_id":"ce4bgv92rcd13ifvqcr0","pricing_plan_id":"cebpf4jnsgd1na2vs0mg"},{"bike_id":"017a384d-cdf4-4521-a1be-842f92562c12","system_id":"levelo_inurba_marseille","lat":43.30591,"lon":5.39349,"is_reserved":false,"is_disabled":false,"rental_uris":{"android":"levelo://app?vid=017a384d-cdf4-4521-a1be-842f92562c12","ios":"levelo://app?vid=017a384d-cdf4-4521-a1be-842f92562c12"},"vehicle_type_id":"4","last_reported":1747833867,"current_range_meters":11600,"station_id":"ce4bh0p2rcd13ifvqd80","pricing_plan_id":"cebpf4jnsgd1na2vs0mg"},{"bike_id":"b31a529d-2285-43f7-91a3-871694cce4eb","system_id":"levelo_inurba_marseille","lat":43.27365,"lon":5.36252,"is_reserved":false,"is_disabled":false,"rental_uris":{"android":"levelo://app?vid=b31a529d-2285-43f7-91a3-871694cce4eb","ios":"levelo://app?vid=b31a529d-2285-43f7-91a3-871694cce4eb"},"vehicle_type_id":"4","last_reported":1747833867,"current_range_meters":11600,"station_id":"ce4bhbh2rcd13ifvqeo0","pricing_plan_id":"cebpf4jnsgd1na2vs0mg"},{"bike_id":"061c9e95-5c99-477b-8463-637a4eca4ac2","system_id":"levelo_inurba_marseille","lat":43.279152,"lon":5.396028,"is_reserved":false,"is_disabled":false,"rental_uris":{"android":"levelo://app?vid=061c9e95-5c99-477b-8463-637a4eca4ac2","ios":"levelo://app?vid=061c9e95-5c99-477b-8463-637a4eca4ac2"},"vehicle_type_id":"4","last_reported":1747833867,"current_range_meters":11600,"station_id":"ce4bhf92rcd13ifvqf40","pricing_plan_id":"cebpf4jnsgd1na2vs0mg"},{"bike_id":"6912307a-b4d5-42d8-b865-d9e0e18ad5d5","system_id":"levelo_inurba_marseille","lat":43.24548,"lon":5.39526,"is_reserved":false,"is_disabled":false,"rental_uris":{"android":"levelo://app?vid=6912307a-b4d5-42d8-b865-d9e0e18ad5d5","ios":"levelo://app?vid=6912307a-b4d5-42d8-b865-d9e0e18ad5d5"},"vehicle_type_id":"4","last_reported":1747833867,"current_range_meters":11600,"station_id":"ce4bhlp2rcd13ifvqgjg","pricing_plan_id":"cebpf4jnsgd1na2vs0mg"},{"bike_id":"2f34c329-54fe-438b-a307-b47c6ac8481c","system_id":"levelo_inurba_marseille","lat":43.29891,"lon":5.43662,"is_reserved":false,"is_disabled":false,"rental_uris":{"android":"levelo://app?vid=2f34c329-54fe-438b-a307-b47c6ac8481c","ios":"levelo://app?vid=2f34c329-54fe-438b-a307-b47c6ac8481c"},"vehicle_type_id":"4","last_reported":1747833867,"current_range_meters":11600,"station_id":"ce4bhpp2rcd13ifvqhfg","pricing_plan_id":"cebpf4jnsgd1na2vs0mg"},{"bike_id":"b0a70f1c-dd58-4f0c-9d1f-06a33327909c","system_id":"levelo_inurba_marseille","lat":43.27897,"lon":5.38008,"is_reserved":false,"is_disabled":false,"rental_uris":{"android":"levelo://app?vid=b0a70f1c-dd58-4f0c-9d1f-06a33327909c","ios":"levelo://app?vid=b0a70f1c-dd58-4f0c-9d1f-06a33327909c"},"vehicle_type_id":"4","last_reported":1747833867,"current_range_meters":12000,"station_id":"ce4bhf92rcd13ifvqf50","pricing_plan_id":"cebpf4jnsgd1na2vs0mg"},{"bike_id":"695ebcf6-9009-42b7-8b1e-40d49a04a4ea","system_id":"levelo_inurba_marseille","lat":43.26489,"lon":5.39548,"is_reserved":false,"is_disabled":false,"rental_uris":{"android":"levelo://app?vid=695ebcf6-9009-42b7-8b1e-40d49a04a4ea","ios":"levelo://app?vid=695ebcf6-9009-42b7-8b1e-40d49a04a4ea"},"vehicle_type_id":"4","last_reported":1747833867,"current_range_meters":12000,"station_id":"ce4bhi12rcd13ifvqfq0","pricing_plan_id":"cebpf4jnsgd1na2vs0mg"},{"bike_id":"42192e01-f367-4dc7-ac5e-2317e0319d89","system_id":"levelo_inurba_marseille","lat":43.258611,"lon":5.399001,"is_reserved":false,"is_disabled":false,"rental_uris":{"android":"levelo://app?vid=42192e01-f367-4dc7-ac5e-2317e0319d89","ios":"levelo://app?vid=42192e01-f367-4dc7-ac5e-2317e0319d89"},"vehicle_type_id":"4","last_reported":1747833867,"current_range_meters":12000,"station_id":"ce4bhl92rcd13ifvqghg","pricing_plan_id":"cebpf4jnsgd1na2vs0mg"},{"bike_id":"120c77ac-e603-404f-94d2-094850d09f86","system_id":"levelo_inurba_marseille","lat":43.25937,"lon":5.4088,"is_reserved":false,"is_disabled":false,"rental_uris":{"android":"levelo://app?vid=120c77ac-e603-404f-94d2-094850d09f86","ios":"levelo://app?vid=120c77ac-e603-404f-94d2-094850d09f86"},"vehicle_type_id":"4","last_reported":1747833867,"current_range_meters":12000,"station_id":"ce4bhm92rcd13ifvqglg","pricing_plan_id":"cebpf4jnsgd1na2vs0mg"},{"bike_id":"86425628-ea7d-47c2-818a-823b9025cecc","system_id":"levelo_inurba_marseille","lat":43.30423,"lon":5.4128,"is_reserved":false,"is_disabled":false,"rental_uris":{"android":"levelo://app?vid=86425628-ea7d-47c2-818a-823b9025cecc","ios":"levelo://app?vid=86425628-ea7d-47c2-818a-823b9025cecc"},"vehicle_type_id":"4","last_reported":1747833867,"current_range_meters":12000,"station_id":"ce4bhop2rcd13ifvqh8g","pricing_plan_id":"cebpf4jnsgd1na2vs0mg"},{"bike_id":"c984adbd-fd31-4da0-b9f1-4ad9da9c6fc5","system_id":"levelo_inurba_marseille","lat":43.30132,"lon":5.38774,"is_reserved":false,"is_disabled":false,"rental_uris":{"android":"levelo://app?vid=c984adbd-fd31-4da0-b9f1-4ad9da9c6fc5","ios":"levelo://app?vid=c984adbd-fd31-4da0-b9f1-4ad9da9c6fc5"},"vehicle_type_id":"4","last_reported":1747833867,"current_range_meters":12400,"station_id":"ce4bghh2rcd13ifvqb60","pricing_plan_id":"cebpf4jnsgd1na2vs0mg"},{"bike_id":"232d933a-5d46-408d-bd2a-f2806fa69d49","system_id":"levelo_inurba_marseille","lat":43.28865,"lon":5.3585,"is_reserved":false,"is_disabled":false,"rental_uris":{"android":"levelo://app?vid=232d933a-5d46-408d-bd2a-f2806fa69d49","ios":"levelo://app?vid=232d933a-5d46-408d-bd2a-f2806fa69d49"},"vehicle_type_id":"4","last_reported":1747833867,"current_range_meters":12400,"station_id":"ce4bhb12rcd13ifvqem0","pricing_plan_id":"cebpf4jnsgd1na2vs0mg"},{"bike_id":"df5afae3-a4c7-4865-b174-fc15abcd2879","system_id":"levelo_inurba_marseille","lat":43.266935,"lon":5.382637,"is_reserved":false,"is_disabled":false,"rental_uris":{"android":"levelo://app?vid=df5afae3-a4c7-4865-b174-fc15abcd2879","ios":"levelo://app?vid=df5afae3-a4c7-4865-b174-fc15abcd2879"},"vehicle_type_id":"4","last_reported":1747833867,"current_range_meters":12400,"station_id":"ce4bhg92rcd13ifvqf90","pricing_plan_id":"cebpf4jnsgd1na2vs0mg"},{"bike_id":"97db78b4-f6a0-4dd0-8e9d-50a2a7f941cd","system_id":"levelo_inurba_marseille","lat":43.28412,"lon":5.34976,"is_reserved":false,"is_disabled":false,"rental_uris":{"android":"levelo://app?vid=97db78b4-f6a0-4dd0-8e9d-50a2a7f941cd","ios":"levelo://app?vid=97db78b4-f6a0-4dd0-8e9d-50a2a7f941cd"},"vehicle_type_id":"4","last_reported":1747833867,"current_range_meters":12800,"station_id":"ce4bhbh2rcd13ifvqepg","pricing_plan_id":"cebpf4jnsgd1na2vs0mg"},{"bike_id":"aa5d77e8-a115-4390-966b-2f8fdb830117","system_id":"levelo_inurba_marseille","lat":43.28436,"lon":5.39177,"is_reserved":false,"is_disabled":false,"rental_uris":{"android":"levelo://app?vid=aa5d77e8-a115-4390-966b-2f8fdb830117","ios":"levelo://app?vid=aa5d77e8-a115-4390-966b-2f8fdb830117"},"vehicle_type_id":"4","last_reported":1747833867,"current_range_meters":12800,"station_id":"ce4bhoh2rcd13ifvqh5g","pricing_plan_id":"cebpf4jnsgd1na2vs0mg"},{"bike_id":"ef9f40e6-fc43-4ee4-a695-3879f6fee2fe","system_id":"levelo_inurba_marseille","lat":43.246555,"lon":5.38158,"is_reserved":false,"is_disabled":false,"rental_uris":{"android":"levelo://app?vid=ef9f40e6-fc43-4ee4-a695-3879f6fee2fe","ios":"levelo://app?vid=ef9f40e6-fc43-4ee4-a695-3879f6fee2fe"},"vehicle_type_id":"4","last_reported":1747833867,"current_range_meters":13600,"station_id":"","pricing_plan_id":"cebpf4jnsgd1na2vs0mg"},{"bike_id":"bd352f34-b030-4a16-8e89-90f665a92dd9","system_id":"levelo_inurba_marseille","lat":43.28848,"lon":5.35851,"is_reserved":false,"is_disabled":false,"rental_uris":{"android":"levelo://app?vid=bd352f34-b030-4a16-8e89-90f665a92dd9","ios":"levelo://app?vid=bd352f34-b030-4a16-8e89-90f665a92dd9"},"vehicle_type_id":"4","last_reported":1747833867,"current_range_meters":13600,"station_id":"ce4bhb12rcd13ifvqem0","pricing_plan_id":"cebpf4jnsgd1na2vs0mg"},{"bike_id":"7dfa16f5-0ccf-4113-a571-9846beb6d9b5","system_id":"levelo_inurba_marseille","lat":43.24659,"lon":5.38161,"is_reserved":false,"is_disabled":false,"rental_uris":{"android":"levelo://app?vid=7dfa16f5-0ccf-4113-a571-9846beb6d9b5","ios":"levelo://app?vid=7dfa16f5-0ccf-4113-a571-9846beb6d9b5"},"vehicle_type_id":"4","last_reported":1747833867,"current_range_meters":13600,"station_id":"ce4bhih2rcd13ifvqfr0","pricing_plan_id":"cebpf4jnsgd1na2vs0mg"},{"bike_id":"720c19e8-e62b-48b9-8494-c3683cde55b5","system_id":"levelo_inurba_marseille","lat":43.24549,"lon":5.3952,"is_reserved":false,"is_disabled":false,"rental_uris":{"android":"levelo://app?vid=720c19e8-e62b-48b9-8494-c3683cde55b5","ios":"levelo://app?vid=720c19e8-e62b-48b9-8494-c3683cde55b5"},"vehicle_type_id":"4","last_reported":1747833867,"current_range_meters":13600,"station_id":"ce4bhlp2rcd13ifvqgjg","pricing_plan_id":"cebpf4jnsgd1na2vs0mg"},{"bike_id":"e2cb30a3-06d3-4a8d-8bb5-0556ae31c6ff","system_id":"levelo_inurba_marseille","lat":43.24554,"lon":5.39532,"is_reserved":false,"is_disabled":false,"rental_uris":{"android":"levelo://app?vid=e2cb30a3-06d3-4a8d-8bb5-0556ae31c6ff","ios":"levelo://app?vid=e2cb30a3-06d3-4a8d-8bb5-0556ae31c6ff"},"vehicle_type_id":"4","last_reported":1747833867,"current_range_meters":13600,"station_id":"ce4bhlp2rcd13ifvqgjg","pricing_plan_id":"cebpf4jnsgd1na2vs0mg"},{"bike_id":"158d85e7-d7ee-468e-b196-bda432008df5","system_id":"levelo_inurba_marseille","lat":43.2979,"lon":5.39347,"is_reserved":false,"is_disabled":false,"rental_uris":{"android":"levelo://app?vid=158d85e7-d7ee-468e-b196-bda432008df5","ios":"levelo://app?vid=158d85e7-d7ee-468e-b196-bda432008df5"},"vehicle_type_id":"4","last_reported":1747833867,"current_range_meters":13600,"station_id":"chh1huq6cuj3fo74tm60","pricing_plan_id":"cebpf4jnsgd1na2vs0mg"},{"bike_id":"f36f05f9-f8be-4f50-9197-112833d63c52","system_id":"levelo_inurba_marseille","lat":43.265007,"lon":5.395363,"is_reserved":false,"is_disabled":false,"rental_uris":{"android":"levelo://app?vid=f36f05f9-f8be-4f50-9197-112833d63c52","ios":"levelo://app?vid=f36f05f9-f8be-4f50-9197-112833d63c52"},"vehicle_type_id":"4","last_reported":1747833867,"current_range_meters":14000,"station_id":"ce4bhi12rcd13ifvqfq0","pricing_plan_id":"cebpf4jnsgd1na2vs0mg"},{"bike_id":"3c0300aa-3669-4f50-ae12-06c5f9beef96","system_id":"levelo_inurba_marseille","lat":43.25867,"lon":5.39894,"is_reserved":false,"is_disabled":false,"rental_uris":{"android":"levelo://app?vid=3c0300aa-3669-4f50-ae12-06c5f9beef96","ios":"levelo://app?vid=3c0300aa-3669-4f50-ae12-06c5f9beef96"},"vehicle_type_id":"4","last_reported":1747833867,"current_range_meters":14000,"station_id":"ce4bhl92rcd13ifvqghg","pricing_plan_id":"cebpf4jnsgd1na2vs0mg"},{"bike_id":"60fa0d7f-c32b-4a16-8511-a386e85e89f1","system_id":"levelo_inurba_marseille","lat":43.27821,"lon":5.40738,"is_reserved":false,"is_disabled":false,"rental_uris":{"android":"levelo://app?vid=60fa0d7f-c32b-4a16-8511-a386e85e89f1","ios":"levelo://app?vid=60fa0d7f-c32b-4a16-8511-a386e85e89f1"},"vehicle_type_id":"4","last_reported":1747833867,"current_range_meters":14000,"station_id":"ce4bhnh2rcd13ifvqgtg","pricing_plan_id":"cebpf4jnsgd1na2vs0mg"},{"bike_id":"f693b179-d4c4-4ee0-8a73-552a9c1888ff","system_id":"levelo_inurba_marseille","lat":43.26803,"lon":5.40267,"is_reserved":false,"is_disabled":false,"rental_uris":{"android":"levelo://app?vid=f693b179-d4c4-4ee0-8a73-552a9c1888ff","ios":"levelo://app?vid=f693b179-d4c4-4ee0-8a73-552a9c1888ff"},"vehicle_type_id":"4","last_reported":1747833867,"current_range_meters":14000,"station_id":"ce501612rcd8frsf0b60","pricing_plan_id":"cebpf4jnsgd1na2vs0mg"},{"bike_id":"ed6377f0-daca-4632-a3c2-9149d1940d95","system_id":"levelo_inurba_marseille","lat":43.28483,"lon":5.38401,"is_reserved":false,"is_disabled":false,"rental_uris":{"android":"levelo://app?vid=ed6377f0-daca-4632-a3c2-9149d1940d95","ios":"levelo://app?vid=ed6377f0-daca-4632-a3c2-9149d1940d95"},"vehicle_type_id":"4","last_reported":1747833867,"current_range_meters":14400,"station_id":"","pricing_plan_id":"cebpf4jnsgd1na2vs0mg"},{"bike_id":"f7514b8e-e5bd-4a4a-acf4-fed8b10219d9","system_id":"levelo_inurba_marseille","lat":43.286661,"lon":5.386615,"is_reserved":false,"is_disabled":false,"rental_uris":{"android":"levelo://app?vid=f7514b8e-e5bd-4a4a-acf4-fed8b10219d9","ios":"levelo://app?vid=f7514b8e-e5bd-4a4a-acf4-fed8b10219d9"},"vehicle_type_id":"4","last_reported":1747833867,"current_range_meters":14400,"station_id":"","pricing_plan_id":"cebpf4jnsgd1na2vs0mg"},{"bike_id":"f9fb40c0-1fcd-48cb-8e26-3f2dc0fb2451","system_id":"levelo_inurba_marseille","lat":43.33751,"lon":5.37509,"is_reserved":false,"is_disabled":false,"rental_uris":{"android":"levelo://app?vid=f9fb40c0-1fcd-48cb-8e26-3f2dc0fb2451","ios":"levelo://app?vid=f9fb40c0-1fcd-48cb-8e26-3f2dc0fb2451"},"vehicle_type_id":"4","last_reported":1747833867,"current_range_meters":14400,"station_id":"","pricing_plan_id":"cebpf4jnsgd1na2vs0mg"},{"bike_id":"f23031ef-1c73-4b3d-b67f-ee22e274dbe9","system_id":"levelo_inurba_marseille","lat":43.30893,"lon":5.396587,"is_reserved":false,"is_disabled":false,"rental_uris":{"android":"levelo://app?vid=f23031ef-1c73-4b3d-b67f-ee22e274dbe9","ios":"levelo://app?vid=f23031ef-1c73-4b3d-b67f-ee22e274dbe9"},"vehicle_type_id":"4","last_reported":1747833867,"current_range_meters":14400,"station_id":"ce4bh012rcd13ifvqcv0","pricing_plan_id":"cebpf4jnsgd1na2vs0mg"},{"bike_id":"78a8c327-c1ea-4db4-a46d-837276c55283","system_id":"levelo_inurba_marseille","lat":43.3228,"lon":5.38267,"is_reserved":false,"is_disabled":false,"rental_uris":{"android":"levelo://app?vid=78a8c327-c1ea-4db4-a46d-837276c55283","ios":"levelo://app?vid=78a8c327-c1ea-4db4-a46d-837276c55283"},"vehicle_type_id":"4","last_reported":1747833867,"current_range_meters":14400,"station_id":"ce4bhr12rcd13ifvqhqg","pricing_plan_id":"cebpf4jnsgd1na2vs0mg"},{"bike_id":"e2f3b8b2-8d6e-404c-a522-8288897696b6","system_id":"levelo_inurba_marseille","lat":43.30556,"lon":5.36527,"is_reserved":false,"is_disabled":false,"rental_uris":{"android":"levelo://app?vid=e2f3b8b2-8d6e-404c-a522-8288897696b6","ios":"levelo://app?vid=e2f3b8b2-8d6e-404c-a522-8288897696b6"},"vehicle_type_id":"4","last_reported":1747833867,"current_range_meters":14800,"station_id":"ce4bgs12rcd13ifvqcag","pricing_plan_id":"cebpf4jnsgd1na2vs0mg"},{"bike_id":"3e6e5891-fa97-4b0b-b272-7dfe7cd1bc36","system_id":"levelo_inurba_marseille","lat":43.28639,"lon":5.35106,"is_reserved":false,"is_disabled":false,"rental_uris":{"android":"levelo://app?vid=3e6e5891-fa97-4b0b-b272-7dfe7cd1bc36","ios":"levelo://app?vid=3e6e5891-fa97-4b0b-b272-7dfe7cd1bc36"},"vehicle_type_id":"4","last_reported":1747833867,"current_range_meters":14800,"station_id":"ce4bhch2rcd13ifvqeug","pricing_plan_id":"cebpf4jnsgd1na2vs0mg"},{"bike_id":"8a77c670-a7af-4ac0-9918-4e6c1c91e962","system_id":"levelo_inurba_marseille","lat":43.25089,"lon":5.39518,"is_reserved":false,"is_disabled":false,"rental_uris":{"android":"levelo://app?vid=8a77c670-a7af-4ac0-9918-4e6c1c91e962","ios":"levelo://app?vid=8a77c670-a7af-4ac0-9918-4e6c1c91e962"},"vehicle_type_id":"4","last_reported":1747833867,"current_range_meters":14800,"station_id":"ce4bhm12rcd13ifvqgkg","pricing_plan_id":"cebpf4jnsgd1na2vs0mg"},{"bike_id":"dbd701ce-b74f-4507-88cf-7d2b64f801da","system_id":"levelo_inurba_marseille","lat":43.25927,"lon":5.408951,"is_reserved":false,"is_disabled":false,"rental_uris":{"android":"levelo://app?vid=dbd701ce-b74f-4507-88cf-7d2b64f801da","ios":"levelo://app?vid=dbd701ce-b74f-4507-88cf-7d2b64f801da"},"vehicle_type_id":"4","last_reported":1747833867,"current_range_meters":14800,"station_id":"ce4bhm92rcd13ifvqglg","pricing_plan_id":"cebpf4jnsgd1na2vs0mg"},{"bike_id":"10f82511-78f9-4537-a4e3-3c8c0ce14ef4","system_id":"levelo_inurba_marseille","lat":43.32491,"lon":5.36564,"is_reserved":false,"is_disabled":false,"rental_uris":{"android":"levelo://app?vid=10f82511-78f9-4537-a4e3-3c8c0ce14ef4","ios":"levelo://app?vid=10f82511-78f9-4537-a4e3-3c8c0ce14ef4"},"vehicle_type_id":"4","last_reported":1747833867,"current_range_meters":14800,"station_id":"ce4bhs12rcd13ifvqhvg","pricing_plan_id":"cebpf4jnsgd1na2vs0mg"},{"bike_id":"20d46360-b017-40c9-8a0d-bb0351687016","system_id":"levelo_inurba_marseille","lat":43.255835,"lon":5.382388,"is_reserved":false,"is_disabled":false,"rental_uris":{"android":"levelo://app?vid=20d46360-b017-40c9-8a0d-bb0351687016","ios":"levelo://app?vid=20d46360-b017-40c9-8a0d-bb0351687016"},"vehicle_type_id":"4","last_reported":1747833867,"current_range_meters":15200,"station_id":"","pricing_plan_id":"cebpf4jnsgd1na2vs0mg"},{"bike_id":"a19667eb-d1f1-46d1-8257-280b5a2562cc","system_id":"levelo_inurba_marseille","lat":43.27352,"lon":5.3627,"is_reserved":false,"is_disabled":false,"rental_uris":{"android":"levelo://app?vid=a19667eb-d1f1-46d1-8257-280b5a2562cc","ios":"levelo://app?vid=a19667eb-d1f1-46d1-8257-280b5a2562cc"},"vehicle_type_id":"4","last_reported":1747833867,"current_range_meters":15200,"station_id":"ce4bhbh2rcd13ifvqeo0","pricing_plan_id":"cebpf4jnsgd1na2vs0mg"},{"bike_id":"992af2d8-1d13-4c6d-9d98-5ee3a1637227","system_id":"levelo_inurba_marseille","lat":43.27176,"lon":5.40994,"is_reserved":false,"is_disabled":false,"rental_uris":{"android":"levelo://app?vid=992af2d8-1d13-4c6d-9d98-5ee3a1637227","ios":"levelo://app?vid=992af2d8-1d13-4c6d-9d98-5ee3a1637227"},"vehicle_type_id":"4","last_reported":1747833867,"current_range_meters":15200,"station_id":"ce4bhl12rcd13ifvqgf0","pricing_plan_id":"cebpf4jnsgd1na2vs0mg"},{"bike_id":"367001af-20e0-499c-b98c-752a74b4fbcf","system_id":"levelo_inurba_marseille","lat":43.23155,"lon":5.43705,"is_reserved":false,"is_disabled":false,"rental_uris":{"android":"levelo://app?vid=367001af-20e0-499c-b98c-752a74b4fbcf","ios":"levelo://app?vid=367001af-20e0-499c-b98c-752a74b4fbcf"},"vehicle_type_id":"4","last_reported":1747833867,"current_range_meters":15200,"station_id":"ce4bhmp2rcd13ifvqgog","pricing_plan_id":"cebpf4jnsgd1na2vs0mg"},{"bike_id":"0552706d-7ee7-4fee-97ae-ee5ed92102cb","system_id":"levelo_inurba_marseille","lat":43.33619,"lon":5.4101,"is_reserved":false,"is_disabled":false,"rental_uris":{"android":"levelo://app?vid=0552706d-7ee7-4fee-97ae-ee5ed92102cb","ios":"levelo://app?vid=0552706d-7ee7-4fee-97ae-ee5ed92102cb"},"vehicle_type_id":"4","last_reported":1747833867,"current_range_meters":15200,"station_id":"ce4bhqh2rcd13ifvqhmg","pricing_plan_id":"cebpf4jnsgd1na2vs0mg"},{"bike_id":"9d7e7e3c-f25d-438f-8074-a62bbe687694","system_id":"levelo_inurba_marseille","lat":43.23193,"lon":5.35556,"is_reserved":false,"is_disabled":false,"rental_uris":{"android":"levelo://app?vid=9d7e7e3c-f25d-438f-8074-a62bbe687694","ios":"levelo://app?vid=9d7e7e3c-f25d-438f-8074-a62bbe687694"},"vehicle_type_id":"4","last_reported":1747833867,"current_range_meters":15200,"station_id":"ce4bhu92rcd13ifvqi70","pricing_plan_id":"cebpf4jnsgd1na2vs0mg"},{"bike_id":"4acf0f29-8bf6-4926-b62f-78fced93ff1f","system_id":"levelo_inurba_marseille","lat":43.28632,"lon":5.35093,"is_reserved":false,"is_disabled":false,"rental_uris":{"android":"levelo://app?vid=4acf0f29-8bf6-4926-b62f-78fced93ff1f","ios":"levelo://app?vid=4acf0f29-8bf6-4926-b62f-78fced93ff1f"},"vehicle_type_id":"4","last_reported":1747833867,"current_range_meters":16000,"station_id":"ce4bhch2rcd13ifvqeug","pricing_plan_id":"cebpf4jnsgd1na2vs0mg"},{"bike_id":"d32f3042-a34d-4b47-a48a-9c3bd2223417","system_id":"levelo_inurba_marseille","lat":43.26555,"lon":5.37294,"is_reserved":false,"is_disabled":false,"rental_uris":{"android":"levelo://app?vid=d32f3042-a34d-4b47-a48a-9c3bd2223417","ios":"levelo://app?vid=d32f3042-a34d-4b47-a48a-9c3bd2223417"},"vehicle_type_id":"4","last_reported":1747833867,"current_range_meters":16000,"station_id":"ce4bhg12rcd13ifvqf70","pricing_plan_id":"cebpf4jnsgd1na2vs0mg"},{"bike_id":"acde6b57-d8e8-4cdf-8374-974fa670a2a5","system_id":"levelo_inurba_marseille","lat":43.23965,"lon":5.36635,"is_reserved":false,"is_disabled":false,"rental_uris":{"android":"levelo://app?vid=acde6b57-d8e8-4cdf-8374-974fa670a2a5","ios":"levelo://app?vid=acde6b57-d8e8-4cdf-8374-974fa670a2a5"},"vehicle_type_id":"4","last_reported":1747833867,"current_range_meters":16000,"station_id":"ce4bhi12rcd13ifvqfp0","pricing_plan_id":"cebpf4jnsgd1na2vs0mg"},{"bike_id":"cab1bc3a-d133-45d1-b5e2-49215a305917","system_id":"levelo_inurba_marseille","lat":43.23186,"lon":5.3999,"is_reserved":false,"is_disabled":false,"rental_uris":{"android":"levelo://app?vid=cab1bc3a-d133-45d1-b5e2-49215a305917","ios":"levelo://app?vid=cab1bc3a-d133-45d1-b5e2-49215a305917"},"vehicle_type_id":"4","last_reported":1747833867,"current_range_meters":16000,"station_id":"ce4bhn12rcd13ifvqgqg","pricing_plan_id":"cebpf4jnsgd1na2vs0mg"},{"bike_id":"1a091a66-2e68-4ded-9fc5-3d6f9e9f6f62","system_id":"levelo_inurba_marseille","lat":43.32092,"lon":5.36807,"is_reserved":false,"is_disabled":false,"rental_uris":{"android":"levelo://app?vid=1a091a66-2e68-4ded-9fc5-3d6f9e9f6f62","ios":"levelo://app?vid=1a091a66-2e68-4ded-9fc5-3d6f9e9f6f62"},"vehicle_type_id":"4","last_reported":1747833867,"current_range_meters":16000,"station_id":"ce4bhrh2rcd13ifvqhug","pricing_plan_id":"cebpf4jnsgd1na2vs0mg"},{"bike_id":"045dd264-f5b9-4c68-8190-ef69a149b86f","system_id":"levelo_inurba_marseille","lat":43.23193,"lon":5.35564,"is_reserved":false,"is_disabled":false,"rental_uris":{"android":"levelo://app?vid=045dd264-f5b9-4c68-8190-ef69a149b86f","ios":"levelo://app?vid=045dd264-f5b9-4c68-8190-ef69a149b86f"},"vehicle_type_id":"4","last_reported":1747833867,"current_range_meters":16000,"station_id":"ce4bhu92rcd13ifvqi70","pricing_plan_id":"cebpf4jnsgd1na2vs0mg"},{"bike_id":"c9a00e74-029a-454e-8e85-1b3d994b9d78","system_id":"levelo_inurba_marseille","lat":43.21198,"lon":5.35075,"is_reserved":false,"is_disabled":false,"rental_uris":{"android":"levelo://app?vid=c9a00e74-029a-454e-8e85-1b3d994b9d78","ios":"levelo://app?vid=c9a00e74-029a-454e-8e85-1b3d994b9d78"},"vehicle_type_id":"4","last_reported":1747833867,"current_range_meters":16000,"station_id":"st_cvj6sg6p6f1abm77japg","pricing_plan_id":"cebpf4jnsgd1na2vs0mg"},{"bike_id":"6b6ba02e-826e-4b46-ab04-9c85d1f0eb5b","system_id":"levelo_inurba_marseille","lat":43.29929,"lon":5.37479,"is_reserved":false,"is_disabled":false,"rental_uris":{"android":"levelo://app?vid=6b6ba02e-826e-4b46-ab04-9c85d1f0eb5b","ios":"levelo://app?vid=6b6ba02e-826e-4b46-ab04-9c85d1f0eb5b"},"vehicle_type_id":"4","last_reported":1747833867,"current_range_meters":16400,"station_id":"ce4bgjh2rcd13ifvqbg0","pricing_plan_id":"cebpf4jnsgd1na2vs0mg"},{"bike_id":"2726b468-4ca6-4a26-8747-47a9a13ced25","system_id":"levelo_inurba_marseille","lat":43.28859,"lon":5.35847,"is_reserved":false,"is_disabled":false,"rental_uris":{"android":"levelo://app?vid=2726b468-4ca6-4a26-8747-47a9a13ced25","ios":"levelo://app?vid=2726b468-4ca6-4a26-8747-47a9a13ced25"},"vehicle_type_id":"4","last_reported":1747833867,"current_range_meters":16400,"station_id":"ce4bhb12rcd13ifvqem0","pricing_plan_id":"cebpf4jnsgd1na2vs0mg"},{"bike_id":"e3120b8b-8871-4a05-b522-497a98c26691","system_id":"levelo_inurba_marseille","lat":43.25891,"lon":5.39907,"is_reserved":false,"is_disabled":false,"rental_uris":{"android":"levelo://app?vid=e3120b8b-8871-4a05-b522-497a98c26691","ios":"levelo://app?vid=e3120b8b-8871-4a05-b522-497a98c26691"},"vehicle_type_id":"4","last_reported":1747833867,"current_range_meters":16400,"station_id":"ce4bhl92rcd13ifvqghg","pricing_plan_id":"cebpf4jnsgd1na2vs0mg"},{"bike_id":"365035b1-1caa-4c0e-8398-0ac6765175a4","system_id":"levelo_inurba_marseille","lat":43.23187,"lon":5.40034,"is_reserved":false,"is_disabled":false,"rental_uris":{"android":"levelo://app?vid=365035b1-1caa-4c0e-8398-0ac6765175a4","ios":"levelo://app?vid=365035b1-1caa-4c0e-8398-0ac6765175a4"},"vehicle_type_id":"4","last_reported":1747833867,"current_range_meters":16400,"station_id":"ce4bhn12rcd13ifvqgqg","pricing_plan_id":"cebpf4jnsgd1na2vs0mg"},