{"last_updated":1731481695,"ttl":60,"version":"2.2","data":{"bikes":[{"bike_id":"b1e6edba-5efe-429c-b5ea-dce0aeff73b2","system_id":"levelo_inurba_marseille","lat":43.24081,"lon":5.3775,"is_reserved":false,"is_disabled":false,"rental_uris":{"android":"levelo://app?vid=b1e6edba-5efe-429c-b5ea-dce0aeff73b2","ios":"levelo://app?vid=b1e6edba-5efe-429c-b5ea-dce0aeff73b2"},"vehicle_type_id":"4","last_reported":1731481695,"current_range_meters":39200,"station_id":"ce4bhnp2rcd13ifvqgvg","pricing_plan_id":"cebpf4jnsgd1na2vs0mg"},{"bike_id":"49b11540-bb5e-4dfe-9b04-c17cffae324c","system_id":"levelo_inurba_marseille","lat":43.27484,"lon":5.42476,"is_reserved":false,"is_disabled":false,"rental_uris":{"android":"levelo://app?vid=49b11540-bb5e-4dfe-9b04-c17cffae324c","ios":"levelo://app?vid=49b11540-bb5e-4dfe-9b04-c17cffae324c"},"vehicle_type_id":"4","last_reported":1731481695,"current_range_meters":8000,"station_id":"ce4bhn92rcd13ifvqgrg","pricing_plan_id":"cebpf4jnsgd1na2vs0mg"},{"bike_id":"52c3b47c-4ac8-4b12-96e0-93b36678801c","system_id":"levelo_inurba_marseille","lat":43.30555,"lon":5.36534,"is_reserved":false,"is_disabled":false,"rental_uris":{"android":"levelo://app?vid=52c3b47c-4ac8-4b12-96e0-93b36678801c","ios":"levelo://app?vid=52c3b47c-4ac8-4b12-96e0-93b36678801c"},"vehicle_type_id":"4","last_reported":1731481695,"current_range_meters":17600,"station_id":"ce4bgs12rcd13ifvqcag","pricing_plan_id":"cebpf4jnsgd1na2vs0mg"},{"bike_id":"df77158a-51e5-4606-b27a-e316be825915","system_id":"levelo_inurba_marseille","lat":43.28153,"lon":5.42642,"is_reserved":false,"is_disabled":false,"rental_uris":{"android":"levelo://app?vid=df77158a-51e5-4606-b27a-e316be825915","ios":"levelo://app?vid=df77158a-51e5-4606-b27a-e316be825915"},"vehicle_type_id":"4","last_reported":1731481695,"current_range_meters":32000,"station_id":"ce4bhnh2rcd13ifvqgug","pricing_plan_id":"cebpf4jnsgd1na2vs0mg"},{"bike_id":"5aed38a3-013a-4227-b197-cf08751c2c75","system_id":"levelo_inurba_marseille","lat":43.29618,"lon":5.37706,"is_reserved":false,"is_disabled":false,"rental_uris":{"android":"levelo://app?vid=5aed38a3-013a-4227-b197-cf08751c2c75","ios":"levelo://app?vid=5aed38a3-013a-4227-b197-cf08751c2c75"},"vehicle_type_id":"4","last_reported":1731481695,"current_range_meters":38800,"station_id":"ce4bgi92rcd13ifvqb90","pricing_plan_id":"cebpf4jnsgd1na2vs0mg"},{"bike_id":"4c0e0318-2347-4063-be0a-0168b5acfc0d","system_id":"levelo_inurba_marseille","lat":43.23196,"lon":5.35558,"is_reserved":false,"is_disabled":false,"rental_uris":{"android":"levelo://app?vid=4c0e0318-2347-4063-be0a-0168b5acfc0d","ios":"levelo://app?vid=4c0e0318-2347-4063-be0a-0168b5acfc0d"},"vehicle_type_id":"4","last_reported":1731481695,"current_range_meters":20400,"station_id":"ce4bhu92rcd13ifvqi70","pricing_plan_id":"cebpf4jnsgd1na2vs0mg"},{"bike_id":"d6dc3b50-aa64-4582-9e80-18d8f6a5475d","system_id":"levelo_inurba_marseille","lat":43.30584,"lon":5.39362,"is_reserved":false,"is_disabled":false,"rental_uris":{"android":"levelo://app?vid=d6dc3b50-aa64-4582-9e80-18d8f6a5475d","ios":"levelo://app?vid=d6dc3b50-aa64-4582-9e80-18d8f6a5475d"},"vehicle_type_id":"4","last_reported":1731481695,"current_range_meters":27200,"station_id":"ce4bh0p2rcd13ifvqd80","pricing_plan_id":"cebpf4jnsgd1na2vs0mg"},{"bike_id":"69fdf32b-f77b-438d-894d-418864a60b59","system_id":"levelo_inurba_marseille","lat":43.306427,"lon":5.401059,"is_reserved":false,"is_disabled":false,"rental_uris":{"android":"levelo://app?vid=69fdf32b-f77b-438d-894d-418864a60b59","ios":"levelo://app?vid=69fdf32b-f77b-438d-894d-418864a60b59"},"vehicle_type_id":"4","last_reported":1731481695,"current_range_meters":26800,"station_id":"ce4bgt12rcd13ifvqcd0","pricing_plan_id":"cebpf4jnsgd1na2vs0mg"},{"bike_id":"afe44c09-4a07-416e-be95-3d235cec367e","system_id":"levelo_inurba_marseille","lat":43.28155,"lon":5.42644,"is_reserved":false,"is_disabled":false,"rental_uris":{"android":"levelo://app?vid=afe44c09-4a07-416e-be95-3d235cec367e","ios":"levelo://app?vid=afe44c09-4a07-416e-be95-3d235cec367e"},"vehicle_type_id":"4","last_reported":1731481695,"current_range_meters":39200,"station_id":"ce4bhnh2rcd13ifvqgug","pricing_plan_id":"cebpf4jnsgd1na2vs0mg"},{"bike_id":"9e43e17f-cbf6-477e-8900-c56a776215b1","system_id":"levelo_inurba_marseille","lat":43.27369,"lon":5.36259,"is_reserved":false,"is_disabled":false,"rental_uris":{"android":"levelo://app?vid=9e43e17f-cbf6-477e-8900-c56a776215b1","ios":"levelo://app?vid=9e43e17f-cbf6-477e-8900-c56a776215b1"},"vehicle_type_id":"4","last_reported":1731481695,"current_range_meters":39200,"station_id":"ce4bhbh2rcd13ifvqeo0","pricing_plan_id":"cebpf4jnsgd1na2vs0mg"},{"bike_id":"76ed9af1-ca3a-4f28-ae0a-904b7ae282c8","system_id":"levelo_inurba_marseille","lat":43.28154,"lon":5.42648,"is_reserved":false,"is_disabled":false,"rental_uris":{"android":"levelo://app?vid=76ed9af1-ca3a-4f28-ae0a-904b7ae282c8","ios":"levelo://app?vid=76ed9af1-ca3a-4f28-ae0a-904b7ae282c8"},"vehicle_type_id":"4","last_reported":1731481695,"current_range_meters":4000,"station_id":"ce4bhnh2rcd13ifvqgug","pricing_plan_id":"cebpf4jnsgd1na2vs0mg"},{"bike_id":"85458871-ebbe-48ac-adb8-f78b4d1f4aa8","system_id":"levelo_inurba_marseille","lat":43.28149,"lon":5.42642,"is_reserved":false,"is_disabled":false,"rental_uris":{"android":"levelo://app?vid=85458871-ebbe-48ac-adb8-f78b4d1f4aa8","ios":"levelo://app?vid=85458871-ebbe-48ac-adb8-f78b4d1f4aa8"},"vehicle_type_id":"4","last_reported":1731481695,"current_range_meters":8000,"station_id":"ce4bhnh2rcd13ifvqgug","pricing_plan_id":"cebpf4jnsgd1na2vs0mg"},{"bike_id":"ffdc187d-5434-4823-82a8-c1d3e1a84148","system_id":"levelo_inurba_marseille","lat":43.29793,"lon":5.38107,"is_reserved":false,"is_disabled":false,"rental_uris":{"android":"levelo://app?vid=ffdc187d-5434-4823-82a8-c1d3e1a84148","ios":"levelo://app?vid=ffdc187d-5434-4823-82a8-c1d3e1a84148"},"vehicle_type_id":"4","last_reported":1731481695,"current_range_meters":38800,"station_id":"ce4bgip2rcd13ifvqbb0","pricing_plan_id":"cebpf4jnsgd1na2vs0mg"},{"bike_id":"b739e764-f9b2-416b-ac90-b10eed820048","system_id":"levelo_inurba_marseille","lat":43.27486,"lon":5.42453,"is_reserved":false,"is_disabled":false,"rental_uris":{"android":"levelo://app?vid=b739e764-f9b2-416b-ac90-b10eed820048","ios":"levelo://app?vid=b739e764-f9b2-416b-ac90-b10eed820048"},"vehicle_type_id":"4","last_reported":1731481695,"current_range_meters":8400,"station_id":"ce4bhn92rcd13ifvqgrg","pricing_plan_id":"cebpf4jnsgd1na2vs0mg"},{"bike_id":"2b019341-49d6-4ff3-a3ef-0b3cc00e02fd","system_id":"levelo_inurba_marseille","lat":43.26573,"lon":5.39013,"is_reserved":false,"is_disabled":false,"rental_uris":{"android":"levelo://app?vid=2b019341-49d6-4ff3-a3ef-0b3cc00e02fd","ios":"levelo://app?vid=2b019341-49d6-4ff3-a3ef-0b3cc00e02fd"},"vehicle_type_id":"4","last_reported":1731481695,"current_range_meters":11600,"station_id":"ce4bhe12rcd13ifvqf30","pricing_plan_id":"cebpf4jnsgd1na2vs0mg"},{"bike_id":"bf84b230-e22e-4490-9999-1c1f6972af9a","system_id":"levelo_inurba_marseille","lat":43.31311,"lon":5.36751,"is_reserved":false,"is_disabled":false,"rental_uris":{"android":"levelo://app?vid=bf84b230-e22e-4490-9999-1c1f6972af9a","ios":"levelo://app?vid=bf84b230-e22e-4490-9999-1c1f6972af9a"},"vehicle_type_id":"4","last_reported":1731481695,"current_range_meters":11600,"station_id":"ce4bgr92rcd13ifvqc6g","pricing_plan_id":"cebpf4jnsgd1na2vs0mg"},{"bike_id":"fec40750-5c7b-4c75-ad50-26e7f3a4437a","system_id":"levelo_inurba_marseille","lat":43.27492,"lon":5.4245,"is_reserved":false,"is_disabled":false,"rental_uris":{"android":"levelo://app?vid=fec40750-5c7b-4c75-ad50-26e7f3a4437a","ios":"levelo://app?vid=fec40750-5c7b-4c75-ad50-26e7f3a4437a"},"vehicle_type_id":"4","last_reported":1731481695,"current_range_meters":30800,"station_id":"ce4bhn92rcd13ifvqgrg","pricing_plan_id":"cebpf4jnsgd1na2vs0mg"},{"bike_id":"f1fef96a-ca51-4d1c-9a03-0dcf1ccd90b1","system_id":"levelo_inurba_marseille","lat":43.2408,"lon":5.37752,"is_reserved":false,"is_disabled":false,"rental_uris":{"android":"levelo://app?vid=f1fef96a-ca51-4d1c-9a03-0dcf1ccd90b1","ios":"levelo://app?vid=f1fef96a-ca51-4d1c-9a03-0dcf1ccd90b1"},"vehicle_type_id":"4","last_reported":1731481695,"current_range_meters":8800,"station_id":"ce4bhnp2rcd13ifvqgvg","pricing_plan_id":"cebpf4jnsgd1na2vs0mg"},{"bike_id":"a0519f75-9e8d-41a7-bee6-ecbb87a3c32a","system_id":"levelo_inurba_marseille","lat":43.24081,"lon":5.37749,"is_reserved":false,"is_disabled":false,"rental_uris":{"android":"levelo://app?vid=a0519f75-9e8d-41a7-bee6-ecbb87a3c32a","ios":"levelo://app?vid=a0519f75-9e8d-41a7-bee6-ecbb87a3c32a"},"vehicle_type_id":"4","last_reported":1731481695,"current_range_meters":11600,"station_id":"ce4bhnp2rcd13ifvqgvg","pricing_plan_id":"cebpf4jnsgd1na2vs0mg"},{"bike_id":"e39504b6-057c-41af-867c-bf4e787200ad","system_id":"levelo_inurba_marseille","lat":43.31482,"lon":5.37313,"is_reserved":false,"is_disabled":false,"rental_uris":{"android":"levelo://app?vid=e39504b6-057c-41af-867c-bf4e787200ad","ios":"levelo://app?vid=e39504b6-057c-41af-867c-bf4e787200ad"},"vehicle_type_id":"4","last_reported":1731481695,"current_range_meters":28800,"station_id":"ce4bgt12rcd13ifvqcd0","pricing_plan_id":"cebpf4jnsgd1na2vs0mg"},{"bike_id":"70cc8d9e-7a8a-42c9-bdbe-ea319951b641","system_id":"levelo_inurba_marseille","lat":43.28929,"lon":5.36389,"is_reserved":false,"is_disabled":false,"rental_uris":{"android":"levelo://app?vid=70cc8d9e-7a8a-42c9-bdbe-ea319951b641","ios":"levelo://app?vid=70cc8d9e-7a8a-42c9-bdbe-ea319951b641"},"vehicle_type_id":"4","last_reported":1731481695,"current_range_meters":37600,"station_id":"ce4bhc92rcd13ifvqetg","pricing_plan_id":"cebpf4jnsgd1na2vs0mg"},{"bike_id":"987e7773-b37e-451f-b34a-264d86d3fd65","system_id":"levelo_inurba_marseille","lat":43.2927,"lon":5.40129,"is_reserved":false,"is_disabled":false,"rental_uris":{"android":"levelo://app?vid=987e7773-b37e-451f-b34a-264d86d3fd65","ios":"levelo://app?vid=987e7773-b37e-451f-b34a-264d86d3fd65"},"vehicle_type_id":"4","last_reported":1731481695,"current_range_meters":23200,"station_id":"ce4bh312rcd13ifvqdk0","pricing_plan_id":"cebpf4jnsgd1na2vs0mg"},{"bike_id":"b9fa5b70-70a1-42d2-aa35-5455218d6664","system_id":"levelo_inurba_marseille","lat":43.28489,"lon":5.3854,"is_reserved":false,"is_disabled":false,"rental_uris":{"android":"levelo://app?vid=b9fa5b70-70a1-42d2-aa35-5455218d6664","ios":"levelo://app?vid=b9fa5b70-70a1-42d2-aa35-5455218d6664"},"vehicle_type_id":"4","last_reported":1731481695,"current_range_meters":36800,"station_id":"ce4bh8p2rcd13ifvqeb0","pricing_plan_id":"cebpf4jnsgd1na2vs0mg"},{"bike_id":"55d2d8b2-0246-4eea-b604-9e80591018f2","system_id":"levelo_inurba_marseille","lat":43.23179,"lon":5.39986,"is_reserved":false,"is_disabled":false,"rental_uris":{"android":"levelo://app?vid=55d2d8b2-0246-4eea-b604-9e80591018f2","ios":"levelo://app?vid=55d2d8b2-0246-4eea-b604-9e80591018f2"},"vehicle_type_id":"4","last_reported":1731481695,"current_range_meters":22800,"station_id":"ce4bhn12rcd13ifvqgqg","pricing_plan_id":"cebpf4jnsgd1na2vs0mg"},{"bike_id":"53a548d0-5154-4ba7-8a85-336c1723a28e","system_id":"levelo_inurba_marseille","lat":43.28856,"lon":5.35848,"is_reserved":false,"is_disabled":false,"rental_uris":{"android":"levelo://app?vid=53a548d0-5154-4ba7-8a85-336c1723a28e","ios":"levelo://app?vid=53a548d0-5154-4ba7-8a85-336c1723a28e"},"vehicle_type_id":"4","last_reported":1731481695,"current_range_meters":28000,"station_id":"ce4bhb12rcd13ifvqem0","pricing_plan_id":"cebpf4jnsgd1na2vs0mg"},{"bike_id":"ed1856f4-20bd-4e67-bcbe-4788050fbc9a","system_id":"levelo_inurba_marseille","lat":43.27947,"lon":5.41055,"is_reserved":false,"is_disabled":false,"rental_uris":{"android":"levelo://app?vid=ed1856f4-20bd-4e67-bcbe-4788050fbc9a","ios":"levelo://app?vid=ed1856f4-20bd-4e67-bcbe-4788050fbc9a"},"vehicle_type_id":"4","last_reported":1731481695,"current_range_meters":35200,"station_id":"ce4bhnp2rcd13ifvqh0g","pricing_plan_id":"cebpf4jnsgd1na2vs0mg"},{"bike_id":"489e2657-e046-42f8-a584-2898ff81a35f","system_id":"levelo_inurba_marseille","lat":43.28362,"lon":5.38624,"is_reserved":false,"is_disabled":false,"rental_uris":{"android":"levelo://app?vid=489e2657-e046-42f8-a584-2898ff81a35f","ios":"levelo://app?vid=489e2657-e046-42f8-a584-2898ff81a35f"},"vehicle_type_id":"4","last_reported":1731481695,"current_range_meters":30800,"station_id":"ce4bh492rcd13ifvqdvg","pricing_plan_id":"cebpf4jnsgd1na2vs0mg"},{"bike_id":"9bf0cb73-9c0c-4bd2-88d6-efcbc916ecc3","system_id":"levelo_inurba_marseille","lat":43.27275,"lon":5.40006,"is_reserved":false,"is_disabled":false,"rental_uris":{"android":"levelo://app?vid=9bf0cb73-9c0c-4bd2-88d6-efcbc916ecc3","ios":"levelo://app?vid=9bf0cb73-9c0c-4bd2-88d6-efcbc916ecc3"},"vehicle_type_id":"4","last_reported":1731481695,"current_range_meters":37600,"station_id":"","pricing_plan_id":"cebpf4jnsgd1na2vs0mg"},{"bike_id":"83d5d807-0a89-40e0-8138-6ac7eb0b7f47","system_id":"levelo_inurba_marseille","lat":43.24805,"lon":5.37452,"is_reserved":false,"is_disabled":false,"rental_uris":{"android":"levelo://app?vid=83d5d807-0a89-40e0-8138-6ac7eb0b7f47","ios":"levelo://app?vid=83d5d807-0a89-40e0-8138-6ac7eb0b7f47"},"vehicle_type_id":"4","last_reported":1731481695,"current_range_meters":39200,"station_id":"ce4bhgh2rcd13ifvqfb0","pricing_plan_id":"cebpf4jnsgd1na2vs0mg"},{"bike_id":"f986382b-96db-48b7-9c96-2aa09c0d26a9","system_id":"levelo_inurba_marseille","lat":43.24796,"lon":5.37449,"is_reserved":false,"is_disabled":false,"rental_uris":{"android":"levelo://app?vid=f986382b-96db-48b7-9c96-2aa09c0d26a9","ios":"levelo://app?vid=f986382b-96db-48b7-9c96-2aa09c0d26a9"},"vehicle_type_id":"4","last_reported":1731481695,"current_range_meters":39200,"station_id":"ce4bhgh2rcd13ifvqfb0","pricing_plan_id":"cebpf4jnsgd1na2vs0mg"},{"bike_id":"886b9c8a-216d-4b9a-8f37-982faedb272f","system_id":"levelo_inurba_marseille","lat":43.24076,"lon":5.37761,"is_reserved":false,"is_disabled":false,"rental_uris":{"android":"levelo://app?vid=886b9c8a-216d-4b9a-8f37-982faedb272f","ios":"levelo://app?vid=886b9c8a-216d-4b9a-8f37-982faedb272f"},"vehicle_type_id":"4","last_reported":1731481695,"current_range_meters":17200,"station_id":"ce4bhnp2rcd13ifvqgvg","pricing_plan_id":"cebpf4jnsgd1na2vs0mg"},{"bike_id":"df4618ff-5fbb-41bb-a259-0d080b0b7b04","system_id":"levelo_inurba_marseille","lat":43.24072,"lon":5.3776,"is_reserved":false,"is_disabled":false,"rental_uris":{"android":"levelo://app?vid=df4618ff-5fbb-41bb-a259-0d080b0b7b04","ios":"levelo://app?vid=df4618ff-5fbb-41bb-a259-0d080b0b7b04"},"vehicle_type_id":"4","last_reported":1731481695,"current_range_meters":12000,"station_id":"ce4bhnp2rcd13ifvqgvg","pricing_plan_id":"cebpf4jnsgd1na2vs0mg"},{"bike_id":"5e18d228-a4a3-4f6b-a1e4-3e770505de92","system_id":"levelo_inurba_marseille","lat":43.28343,"lon":5.38107,"is_reserved":false,"is_disabled":false,"rental_uris":{"android":"levelo://app?vid=5e18d228-a4a3-4f6b-a1e4-3e770505de92","ios":"levelo://app?vid=5e18d228-a4a3-4f6b-a1e4-3e770505de92"},"vehicle_type_id":"4","last_reported":1731481695,"current_range_meters":23200,"station_id":"ce4bh412rcd13ifvqdr0","pricing_plan_id":"cebpf4jnsgd1na2vs0mg"},{"bike_id":"484f1d54-1597-4973-8e7e-8a544e91ecf9","system_id":"levelo_inurba_marseille","lat":43.29309,"lon":5.37149,"is_reserved":false,"is_disabled":false,"rental_uris":{"android":"levelo://app?vid=484f1d54-1597-4973-8e7e-8a544e91ecf9","ios":"levelo://app?vid=484f1d54-1597-4973-8e7e-8a544e91ecf9"},"vehicle_type_id":"4","last_reported":1731481695,"current_range_meters":39200,"station_id":"ce4bgh92rcd13ifvqb40","pricing_plan_id":"cebpf4jnsgd1na2vs0mg"},{"bike_id":"c8244299-e605-4acb-89f6-0fe6bc168fa1","system_id":"levelo_inurba_marseille","lat":43.24809,"lon":5.39211,"is_reserved":false,"is_disabled":false,"rental_uris":{"android":"levelo://app?vid=c8244299-e605-4acb-89f6-0fe6bc168fa1","ios":"levelo://app?vid=c8244299-e605-4acb-89f6-0fe6bc168fa1"},"vehicle_type_id":"4","last_reported":1731481695,"current_range_meters":8800,"station_id":"","pricing_plan_id":"cebpf4jnsgd1na2vs0mg"},{"bike_id":"09d271a1-a491-451c-ae2b-7447b261d839","system_id":"levelo_inurba_marseille","lat":43.28463,"lon":5.38413,"is_reserved":false,"is_disabled":false,"rental_uris":{"android":"levelo://app?vid=09d271a1-a491-451c-ae2b-7447b261d839","ios":"levelo://app?vid=09d271a1-a491-451c-ae2b-7447b261d839"},"vehicle_type_id":"4","last_reported":1731481695,"current_range_meters":38400,"station_id":"ce4bh512rcd13ifvqe3g","pricing_plan_id":"cebpf4jnsgd1na2vs0mg"},{"bike_id":"bd3ef82b-5a82-405b-9685-39b347506aeb","system_id":"levelo_inurba_marseille","lat":43.27492,"lon":5.42458,"is_reserved":false,"is_disabled":false,"rental_uris":{"android":"levelo://app?vid=bd3ef82b-5a82-405b-9685-39b347506aeb","ios":"levelo://app?vid=bd3ef82b-5a82-405b-9685-39b347506aeb"},"vehicle_type_id":"4","last_reported":1731481695,"current_range_meters":2800,"station_id":"ce4bhn92rcd13ifvqgrg","pricing_plan_id":"cebpf4jnsgd1na2vs0mg"},{"bike_id":"41ff89e3-1e18-495b-b5e1-08b420470989","system_id":"levelo_inurba_marseille","lat":43.22928,"lon":5.35377,"is_reserved":false,"is_disabled":false,"rental_uris":{"android":"levelo://app?vid=41ff89e3-1e18-495b-b5e1-08b420470989","ios":"levelo://app?vid=41ff89e3-1e18-495b-b5e1-08b420470989"},"vehicle_type_id":"4","last_reported":1731481695,"current_range_meters":19600,"station_id":"cpo3532slgdg3j2ikp40","pricing_plan_id":"cebpf4jnsgd1na2vs0mg"},{"bike_id":"b4d95bc0-23a5-4391-baad-9af268626731","system_id":"levelo_inurba_marseille","lat":43.30599,"lon":5.39355,"is_reserved":false,"is_disabled":false,"rental_uris":{"android":"levelo://app?vid=b4d95bc0-23a5-4391-baad-9af268626731","ios":"levelo://app?vid=b4d95bc0-23a5-4391-baad-9af268626731"},"vehicle_type_id":"4","last_reported":1731481695,"current_range_meters":29600,"station_id":"ce4bh0p2rcd13ifvqd80","pricing_plan_id":"cebpf4jnsgd1na2vs0mg"},{"bike_id":"e0552b58-7e46-4cb8-b7f6-03ab314d95ab","system_id":"levelo_inurba_marseille","lat":43.30459,"lon":5.37918,"is_reserved":false,"is_disabled":false,"rental_uris":{"android":"levelo://app?vid=e0552b58-7e46-4cb8-b7f6-03ab314d95ab","ios":"levelo://app?vid=e0552b58-7e46-4cb8-b7f6-03ab314d95ab"},"vehicle_type_id":"4","last_reported":1731481695,"current_range_meters":28400,"station_id":"ce4bgup2rcd13ifvqcn0","pricing_plan_id":"cebpf4jnsgd1na2vs0mg"},{"bike_id":"e0e9b339-01fd-4092-859d-e008c8116234","system_id":"levelo_inurba_marseille","lat":43.24806,"lon":5.37454,"is_reserved":false,"is_disabled":false,"rental_uris":{"android":"levelo://app?vid=e0e9b339-01fd-4092-859d-e008c8116234","ios":"levelo://app?vid=e0e9b339-01fd-4092-859d-e008c8116234"},"vehicle_type_id":"4","last_reported":1731481695,"current_range_meters":10800,"station_id":"ce4bhgh2rcd13ifvqfb0","pricing_plan_id":"cebpf4jnsgd1na2vs0mg"},{"bike_id":"07593388-1396-48b8-b53d-f99ad9d41363","system_id":"levelo_inurba_marseille","lat":43.30145,"lon":5.38086,"is_reserved":false,"is_disabled":false,"rental_uris":{"android":"levelo://app?vid=07593388-1396-48b8-b53d-f99ad9d41363","ios":"levelo://app?vid=07593388-1396-48b8-b53d-f99ad9d41363"},"vehicle_type_id":"4","last_reported":1731481695,"current_range_meters":36400,"station_id":"ce4bgjp2rcd13ifvqbh0","pricing_plan_id":"cebpf4jnsgd1na2vs0mg"},{"bike_id":"ca5f3982-6b53-4b21-90fa-dfd8a37b7b21","system_id":"levelo_inurba_marseille","lat":43.305573,"lon":5.399447,"is_reserved":false,"is_disabled":false,"rental_uris":{"android":"levelo://app?vid=ca5f3982-6b53-4b21-90fa-dfd8a37b7b21","ios":"levelo://app?vid=ca5f3982-6b53-4b21-90fa-dfd8a37b7b21"},"vehicle_type_id":"4","last_reported":1731481695,"current_range_meters":28400,"station_id":"","pricing_plan_id":"cebpf4jnsgd1na2vs0mg"},{"bike_id":"f4795672-b4a8-4451-9abc-46c3e13ab4e9","system_id":"levelo_inurba_marseille","lat":43.27494,"lon":5.42458,"is_reserved":false,"is_disabled":false,"rental_uris":{"android":"levelo://app?vid=f4795672-b4a8-4451-9abc-46c3e13ab4e9","ios":"levelo://app?vid=f4795672-b4a8-4451-9abc-46c3e13ab4e9"},"vehicle_type_id":"4","last_reported":1731481695,"current_range_meters":16000,"station_id":"ce4bhn92rcd13ifvqgrg","pricing_plan_id":"cebpf4jnsgd1na2vs0mg"},{"bike_id":"6fe05206-fb07-4154-a289-8b7473b9715b","system_id":"levelo_inurba_marseille","lat":43.24076,"lon":5.37755,"is_reserved":false,"is_disabled":false,"rental_uris":{"android":"levelo://app?vid=6fe05206-fb07-4154-a289-8b7473b9715b","ios":"levelo://app?vid=6fe05206-fb07-4154-a289-8b7473b9715b"},"vehicle_type_id":"4","last_reported":1731481695,"current_range_meters":20400,"station_id":"ce4bhnp2rcd13ifvqgvg","pricing_plan_id":"cebpf4jnsgd1na2vs0mg"},{"bike_id":"76ebf837-5bd7-45f4-b309-231e4d9381cc","system_id":"levelo_inurba_marseille","lat":43.2971,"lon":5.36615,"is_reserved":false,"is_disabled":false,"rental_uris":{"android":"levelo://app?vid=76ebf837-5bd7-45f4-b309-231e4d9381cc","ios":"levelo://app?vid=76ebf837-5bd7-45f4-b309-231e4d9381cc"},"vehicle_type_id":"4","last_reported":1731481695,"current_range_meters":7200,"station_id":"ce4bgn12rcd13ifvqbt0","pricing_plan_id":"cebpf4jnsgd1na2vs0mg"},{"bike_id":"116ca88d-0f6a-47fd-90e9-19f61417090b","system_id":"levelo_inurba_marseille","lat":43.29783,"lon":5.38124,"is_reserved":false,"is_disabled":false,"rental_uris":{"android":"levelo://app?vid=116ca88d-0f6a-47fd-90e9-19f61417090b","ios":"levelo://app?vid=116ca88d-0f6a-47fd-90e9-19f61417090b"},"vehicle_type_id":"4","last_reported":1731481695,"current_range_meters":30000,"station_id":"ce4bgip2rcd13ifvqbb0","pricing_plan_id":"cebpf4jnsgd1na2vs0mg"},{"bike_id":"4b681cc6-38fa-4673-98cd-9ed7866fd6f5","system_id":"levelo_inurba_marseille","lat":43.29591,"lon":5.38113,"is_reserved":false,"is_disabled":false,"rental_uris":{"android":"levelo://app?vid=4b681cc6-38fa-4673-98cd-9ed7866fd6f5","ios":"levelo://app?vid=4b681cc6-38fa-4673-98cd-9ed7866fd6f5"},"vehicle_type_id":"4","last_reported":1731481695,"current_range_meters":38800,"station_id":"ce4bgl12rcd13ifvqbo0","pricing_plan_id":"cebpf4jnsgd1na2vs0mg"},{"bike_id":"0e54b1b4-65a2-4576-a91a-595d200b604e","system_id":"levelo_inurba_marseille","lat":43.26555,"lon":5.37281,"is_reserved":false,"is_disabled":false,"rental_uris":{"android":"levelo://app?vid=0e54b1b4-65a2-4576-a91a-595d200b604e","ios":"levelo://app?vid=0e54b1b4-65a2-4576-a91a-595d200b604e"},"vehicle_type_id":"4","last_reported":1731481695,"current_range_meters":2800,"station_id":"ce4bhg12rcd13ifvqf70","pricing_plan_id":"cebpf4jnsgd1na2vs0mg"},{"bike_id":"16e5c45c-89c6-497b-9cf7-7dfdaa8ab5a1","system_id":"levelo_inurba_marseille","lat":43.28704,"lon":5.36093,"is_reserved":false,"is_disabled":false,"rental_uris":{"android":"levelo://app?vid=16e5c45c-89c6-497b-9cf7-7dfdaa8ab5a1","ios":"levelo://app?vid=16e5c45c-89c6-497b-9cf7-7dfdaa8ab5a1"},"vehicle_type_id":"4","last_reported":1731481695,"current_range_meters":39200,"station_id":"cki0cbj6b192h4jlfktg","pricing_plan_id":"cebpf4jnsgd1na2vs0mg"},{"bike_id":"2eedc177-66d3-43ad-8e2d-78e60ce845e8","system_id":"levelo_inurba_marseille","lat":43.229358,"lon":5.353749,"is_reserved":false,"is_disabled":false,"rental_uris":{"android":"levelo://app?vid=2eedc177-66d3-43ad-8e2d-78e60ce845e8","ios":"levelo://app?vid=2eedc177-66d3-43ad-8e2d-78e60ce845e8"},"vehicle_type_id":"4","last_reported":1731481695,"current_range_meters":7200,"station_id":"cpo3532slgdg3j2ikp40","pricing_plan_id":"cebpf4jnsgd1na2vs0mg"},{"bike_id":"a312bc7c-c6ec-4d31-a982-8ffd7ad1018f","system_id":"levelo_inurba_marseille","lat":43.29638,"lon":5.4059,"is_reserved":false,"is_disabled":false,"rental_uris":{"android":"levelo://app?vid=a312bc7c-c6ec-4d31-a982-8ffd7ad1018f","ios":"levelo://app?vid=a312bc7c-c6ec-4d31-a982-8ffd7ad1018f"},"vehicle_type_id":"4","last_reported":1731481695,"current_range_meters":30800,"station_id":"ce4bh0h2rcd13ifvqd60","pricing_plan_id":"cebpf4jnsgd1na2vs0mg"},{"bike_id":"c5d5069e-c4d8-428e-9164-4319988485dc","system_id":"levelo_inurba_marseille","lat":43.30463,"lon":5.37916,"is_reserved":false,"is_disabled":false,"rental_uris":{"android":"levelo://app?vid=c5d5069e-c4d8-428e-9164-4319988485dc","ios":"levelo://app?vid=c5d5069e-c4d8-428e-9164-4319988485dc"},"vehicle_type_id":"4","last_reported":1731481695,"current_range_meters":28800,"station_id":"ce4bgup2rcd13ifvqcn0","pricing_plan_id":"cebpf4jnsgd1na2vs0mg"},{"bike_id":"e2f3539e-1a87-4932-81fb-bdd577fecbd0","system_id":"levelo_inurba_marseille","lat":43.30924,"lon":5.40151,"is_reserved":false,"is_disabled":false,"rental_uris":{"android":"levelo://app?vid=e2f3539e-1a87-4932-81fb-bdd577fecbd0","ios":"levelo://app?vid=e2f3539e-1a87-4932-81fb-bdd577fecbd0"},"vehicle_type_id":"4","last_reported":1731481695,"current_range_meters":36800,"station_id":"ce4bgvp2rcd13ifvqct0","pricing_plan_id":"cebpf4jnsgd1na2vs0mg"},{"bike_id":"7f0b101b-1858-4c23-adcf-df2b01174439","system_id":"levelo_inurba_marseille","lat":43.29099,"lon":5.38128,"is_reserved":false,"is_disabled":false,"rental_uris":{"android":"levelo://app?vid=7f0b101b-1858-4c23-adcf-df2b01174439","ios":"levelo://app?vid=7f0b101b-1858-4c23-adcf-df2b01174439"},"vehicle_type_id":"4","last_reported":1731481695,"current_range_meters":38000,"station_id":"ce4bh512rcd13ifvqe2g","pricing_plan_id":"cebpf4jnsgd1na2vs0mg"},{"bike_id":"b07b2b17-fbc4-4be0-9832-e1a26e536499","system_id":"levelo_inurba_marseille","lat":43.29934,"lon":5.36555,"is_reserved":false,"is_disabled":false,"rental_uris":{"android":"levelo://app?vid=b07b2b17-fbc4-4be0-9832-e1a26e536499","ios":"levelo://app?vid=b07b2b17-fbc4-4be0-9832-e1a26e536499"},"vehicle_type_id":"4","last_reported":1731481695,"current_range_meters":34800,"station_id":"ce4bgm92rcd13ifvqbr0","pricing_plan_id":"cebpf4jnsgd1na2vs0mg"},{"bike_id":"d48bbece-c02b-40d3-9911-a62d04042ee1","system_id":"levelo_inurba_marseille","lat":43.30597,"lon":5.39369,"is_reserved":false,"is_disabled":false,"rental_uris":{"android":"levelo://app?vid=d48bbece-c02b-40d3-9911-a62d04042ee1","ios":"levelo://app?vid=d48bbece-c02b-40d3-9911-a62d04042ee1"},"vehicle_type_id":"4","last_reported":1731481695,"current_range_meters":10000,"station_id":"ce4bh0p2rcd13ifvqd80","pricing_plan_id":"cebpf4jnsgd1na2vs0mg"},{"bike_id":"85b728ef-7c62-4a7f-a060-7f65da2ca2d6","system_id":"levelo_inurba_marseille","lat":43.33608,"lon":5.41021,"is_reserved":false,"is_disabled":false,"rental_uris":{"android":"levelo://app?vid=85b728ef-7c62-4a7f-a060-7f65da2ca2d6","ios":"levelo://app?vid=85b728ef-7c62-4a7f-a060-7f65da2ca2d6"},"vehicle_type_id":"4","last_reported":1731481695,"current_range_meters":24400,"station_id":"ce4bhqh2rcd13ifvqhmg","pricing_plan_id":"cebpf4jnsgd1na2vs0mg"},{"bike_id":"fd9af9c5-f9c8-4d97-a2c2-3b6f98c6f36d","system_id":"levelo_inurba_marseille","lat":43.31339,"lon":5.36715,"is_reserved":false,"is_disabled":false,"rental_uris":{"android":"levelo://app?vid=fd9af9c5-f9c8-4d97-a2c2-3b6f98c6f36d","ios":"levelo://app?vid=fd9af9c5-f9c8-4d97-a2c2-3b6f98c6f36d"},"vehicle_type_id":"4","last_reported":1731481695,"current_range_meters":38800,"station_id":"ce4bgr92rcd13ifvqc6g","pricing_plan_id":"cebpf4jnsgd1na2vs0mg"},{"bike_id":"fe390d71-ad5b-4ebc-87f7-aba20fde78b1","system_id":"levelo_inurba_marseille","lat":43.29018,"lon":5.38139,"is_reserved":false,"is_disabled":false,"rental_uris":{"android":"levelo://app?vid=fe390d71-ad5b-4ebc-87f7-aba20fde78b1","ios":"levelo://app?vid=fe390d71-ad5b-4ebc-87f7-aba20fde78b1"},"vehicle_type_id":"4","last_reported":1731481695,"current_range_meters":11200,"station_id":"ce4bh4p2rcd13ifvqe1g","pricing_plan_id":"cebpf4jnsgd1na2vs0mg"},{"bike_id":"b5e7fc6d-9fff-43f9-8500-3fca2afd54f4","system_id":"levelo_inurba_marseille","lat":43.28848,"lon":5.35856,"is_reserved":false,"is_disabled":false,"rental_uris":{"android":"levelo://app?vid=b5e7fc6d-9fff-43f9-8500-3fca2afd54f4","ios":"levelo://app?vid=b5e7fc6d-9fff-43f9-8500-3fca2afd54f4"},"vehicle_type_id":"4","last_reported":1731481695,"current_range_meters":38000,"station_id":"ce4bhb12rcd13ifvqem0","pricing_plan_id":"cebpf4jnsgd1na2vs0mg"},{"bike_id":"9d6ebe73-7d75-45c8-ba91-f17f532dab5d","system_id":"levelo_inurba_marseille","lat":43.27047,"lon":5.40265,"is_reserved":false,"is_disabled":false,"rental_uris":{"android":"levelo://app?vid=9d6ebe73-7d75-45c8-ba91-f17f532dab5d","ios":"levelo://app?vid=9d6ebe73-7d75-45c8-ba91-f17f532dab5d"},"vehicle_type_id":"4","last_reported":1731481695,"current_range_meters":18800,"station_id":"ce4bhk92rcd13ifvqgc0","pricing_plan_id":"cebpf4jnsgd1na2vs0mg"},{"bike_id":"bc32ce1c-b403-4fc0-b03d-f95a6f64735a","system_id":"levelo_inurba_marseille","lat":43.29021,"lon":5.35923,"is_reserved":false,"is_disabled":false,"rental_uris":{"android":"levelo://app?vid=bc32ce1c-b403-4fc0-b03d-f95a6f64735a","ios":"levelo://app?vid=bc32ce1c-b403-4fc0-b03d-f95a6f64735a"},"vehicle_type_id":"4","last_reported":1731481695,"current_range_meters":33600,"station_id":"ce4bha92rcd13ifvqeg0","pricing_plan_id":"cebpf4jnsgd1na2vs0mg"},{"bike_id":"f2c5e768-35b6-4ee9-9828-181183c1aad4","system_id":"levelo_inurba_marseille","lat":43.31054,"lon":5.40085,"is_reserved":false,"is_disabled":false,"rental_uris":{"android":"levelo://app?vid=f2c5e768-35b6-4ee9-9828-181183c1aad4","ios":"levelo://app?vid=f2c5e768-35b6-4ee9-9828-181183c1aad4"},"vehicle_type_id":"4","last_reported":1731481695,"current_range_meters":14400,"station_id":"","pricing_plan_id":"cebpf4jnsgd1na2vs0mg"},{"bike_id":"f4506ab9-9c31-4d94-b44b-fd8b5467d4c8","system_id":"levelo_inurba_marseille","lat":43.27174,"lon":5.40995,"is_reserved":false,"is_disabled":false,"rental_uris":{"android":"levelo://app?vid=f4506ab9-9c31-4d94-b44b-fd8b5467d4c8","ios":"levelo://app?vid=f4506ab9-9c31-4d94-b44b-fd8b5467d4c8"},"vehicle_type_id":"4","last_reported":1731481695,"current_range_meters":2800,"station_id":"ce4bhl12rcd13ifvqgf0","pricing_plan_id":"cebpf4jnsgd1na2vs0mg"},{"bike_id":"b0bc3116-aed7-4ac3-8132-2a2131200191","system_id":"levelo_inurba_marseille","lat":43.2407,"lon":5.37761,"is_reserved":false,"is_disabled":false,"rental_uris":{"android":"levelo://app?vid=b0bc3116-aed7-4ac3-8132-2a2131200191","ios":"levelo://app?vid=b0bc3116-aed7-4ac3-8132-2a2131200191"},"vehicle_type_id":"4","last_reported":1731481695,"current_range_meters":2000,"station_id":"ce4bhnp2rcd13ifvqgvg","pricing_plan_id":"cebpf4jnsgd1na2vs0mg"},{"bike_id":"d80bea5f-f169-4dd9-9743-5bbdd1b07c90","system_id":"levelo_inurba_marseille","lat":43.24067,"lon":5.37764,"is_reserved":false,"is_disabled":false,"rental_uris":{"android":"levelo://app?vid=d80bea5f-f169-4dd9-9743-5bbdd1b07c90","ios":"levelo://app?vid=d80bea5f-f169-4dd9-9743-5bbdd1b07c90"},"vehicle_type_id":"4","last_reported":1731481695,"current_range_meters":34000,"station_id":"ce4bhnp2rcd13ifvqgvg","pricing_plan_id":"cebpf4jnsgd1na2vs0mg"},{"bike_id":"29e15abf-b12a-480d-a085-b334a9ed95c0","system_id":"levelo_inurba_marseille","lat":43.28856,"lon":5.35849,"is_reserved":false,"is_disabled":false,"rental_uris":{"android":"levelo://app?vid=29e15abf-b12a-480d-a085-b334a9ed95c0","ios":"levelo://app?vid=29e15abf-b12a-480d-a085-b334a9ed95c0"},"vehicle_type_id":"4","last_reported":1731481695,"current_range_meters":34800,"station_id":"ce4bhb12rcd13ifvqem0","pricing_plan_id":"cebpf4jnsgd1na2vs0mg"},{"bike_id":"17782c77-5386-4f82-b3c7-bcd2cf623ece","system_id":"levelo_inurba_marseille","lat":43.30458,"lon":5.37908,"is_reserved":false,"is_disabled":false,"rental_uris":{"android":"levelo://app?vid=17782c77-5386-4f82-b3c7-bcd2cf623ece","ios":"levelo://app?vid=17782c77-5386-4f82-b3c7-bcd2cf623ece"},"vehicle_type_id":"4","last_reported":1731481695,"current_range_meters":34800,"station_id":"ce4bgup2rcd13ifvqcn0","pricing_plan_id":"cebpf4jnsgd1na2vs0mg"},{"bike_id":"0d6be9d0-cc59-4a10-9dd3-bc73e81d0349","system_id":"levelo_inurba_marseille","lat":43.29799,"lon":5.38096,"is_reserved":false,"is_disabled":false,"rental_uris":{"android":"levelo://app?vid=0d6be9d0-cc59-4a10-9dd3-bc73e81d0349","ios":"levelo://app?vid=0d6be9d0-cc59-4a10-9dd3-bc73e81d0349"},"vehicle_type_id":"4","last_reported":1731481695,"current_range_meters":28000,"station_id":"ce4bgip2rcd13ifvqbb0","pricing_plan_id":"cebpf4jnsgd1na2vs0mg"},{"bike_id":"5ddca7da-d4bd-4b7a-a3fa-22741b01ac30","system_id":"levelo_inurba_marseille","lat":43.28947,"lon":5.35776,"is_reserved":false,"is_disabled":false,"rental_uris":{"android":"levelo://app?vid=5ddca7da-d4bd-4b7a-a3fa-22741b01ac30","ios":"levelo://app?vid=5ddca7da-d4bd-4b7a-a3fa-22741b01ac30"},"vehicle_type_id":"4","last_reported":1731481695,"current_range_meters":26800,"station_id":"","pricing_plan_id":"cebpf4jnsgd1na2vs0mg"},{"bike_id":"9c206b75-c094-423e-8a7a-a14eaa7be30c","system_id":"levelo_inurba_marseille","lat":43.28853,"lon":5.39309,"is_reserved":false,"is_disabled":false,"rental_uris":{"android":"levelo://app?vid=9c206b75-c094-423e-8a7a-a14eaa7be30c","ios":"levelo://app?vid=9c206b75-c094-423e-8a7a-a14eaa7be30c"},"vehicle_type_id":"4","last_reported":1731481695,"current_range_meters":32000,"station_id":"ce4bh2p2rcd13ifvqdi0","pricing_plan_id":"cebpf4jnsgd1na2vs0mg"},{"bike_id":"b01f14ad-1c18-4774-a114-f5ad20e62224","system_id":"levelo_inurba_marseille","lat":43.32359,"lon":5.38876,"is_reserved":false,"is_disabled":false,"rental_uris":{"android":"levelo://app?vid=b01f14ad-1c18-4774-a114-f5ad20e62224","ios":"levelo://app?vid=b01f14ad-1c18-4774-a114-f5ad20e62224"},"vehicle_type_id":"4","last_reported":1731481695,"current_range_meters":33200,"station_id":"ce4bhqp2rcd13ifvqhog","pricing_plan_id":"cebpf4jnsgd1na2vs0mg"},{"bike_id":"7b3c27eb-f609-4995-afd3-a1ce7a9845fc","system_id":"levelo_inurba_marseille","lat":43.28146,"lon":5.42641,"is_reserved":false,"is_disabled":false,"rental_uris":{"android":"levelo://app?vid=7b3c27eb-f609-4995-afd3-a1ce7a9845fc","ios":"levelo://app?vid=7b3c27eb-f609-4995-afd3-a1ce7a9845fc"},"vehicle_type_id":"4","last_reported":1731481695,"current_range_meters":35200,"station_id":"ce4bhnh2rcd13ifvqgug","pricing_plan_id":"cebpf4jnsgd1na2vs0mg"},{"bike_id":"8bd28578-75ff-4617-952b-4adf5369bcac","system_id":"levelo_inurba_marseille","lat":43.337444,"lon":5.374475,"is_reserved":false,"is_disabled":false,"rental_uris":{"android":"levelo://app?vid=8bd28578-75ff-4617-952b-4adf5369bcac","ios":"levelo://app?vid=8bd28578-75ff-4617-952b-4adf5369bcac"},"vehicle_type_id":"4","last_reported":1731481695,"current_range_meters":34000,"station_id":"","pricing_plan_id":"cebpf4jnsgd1na2vs0mg"},{"bike_id":"47fa2115-a012-42de-8bc1-d009b04a84f8","system_id":"levelo_inurba_marseille","lat":43.32526,"lon":5.41434,"is_reserved":false,"is_disabled":false,"rental_uris":{"android":"levelo://app?vid=47fa2115-a012-42de-8bc1-d009b04a84f8","ios":"levelo://app?vid=47fa2115-a012-42de-8bc1-d009b04a84f8"},"vehicle_type_id":"4","last_reported":1731481695,"current_range_meters":38800,"station_id":"ce4bhq12rcd13ifvqhhg","pricing_plan_id":"cebpf4jnsgd1na2vs0mg"},{"bike_id":"1b32835d-d790-4d05-9266-c8f334c89fb5","system_id":"levelo_inurba_marseille","lat":43.30146,"lon":5.3809,"is_reserved":false,"is_disabled":false,"rental_uris":{"android":"levelo://app?vid=1b32835d-d790-4d05-9266-c8f334c89fb5","ios":"levelo://app?vid=1b32835d-d790-4d05-9266-c8f334c89fb5"},"vehicle_type_id":"4","last_reported":1731481695,"current_range_meters":33200,"station_id":"ce4bgjp2rcd13ifvqbh0","pricing_plan_id":"cebpf4jnsgd1na2vs0mg"},{"bike_id":"1ac40200-0e64-4192-ae44-4dfd69ed3c60","system_id":"levelo_inurba_marseille","lat":43.29039,"lon":5.37559,"is_reserved":false,"is_disabled":false,"rental_uris":{"android":"levelo://app?vid=1ac40200-0e64-4192-ae44-4dfd69ed3c60","ios":"levelo://app?vid=1ac40200-0e64-4192-ae44-4dfd69ed3c60"},"vehicle_type_id":"4","last_reported":1731481695,"current_range_meters":36800,"station_id":"ce4bgi12rcd13ifvqb70","pricing_plan_id":"cebpf4jnsgd1na2vs0mg"},{"bike_id":"6bbbe21f-854d-46d3-8e27-01cc9a32439a","system_id":"levelo_inurba_marseille","lat":43.28854,"lon":5.35841,"is_reserved":false,"is_disabled":false,"rental_uris":{"android":"levelo://app?vid=6bbbe21f-854d-46d3-8e27-01cc9a32439a","ios":"levelo://app?vid=6bbbe21f-854d-46d3-8e27-01cc9a32439a"},"vehicle_type_id":"4","last_reported":1731481695,"current_range_meters":36800,"station_id":"ce4bhb12rcd13ifvqem0","pricing_plan_id":"cebpf4jnsgd1na2vs0mg"},{"bike_id":"5a72a360-fb16-471f-8487-fbe39856e127","system_id":"levelo_inurba_marseille","lat":43.32536,"lon":5.4143,"is_reserved":false,"is_disabled":false,"rental_uris":{"android":"levelo://app?vid=5a72a360-fb16-471f-8487-fbe39856e127","ios":"levelo://app?vid=5a72a360-fb16-471f-8487-fbe39856e127"},"vehicle_type_id":"4","last_reported":1731481695,"current_range_meters":11200,"station_id":"ce4bhq12rcd13ifvqhhg","pricing_plan_id":"cebpf4jnsgd1na2vs0mg"},{"bike_id":"2200c659-1ae4-498f-aa62-e8f1bf1c860f","system_id":"levelo_inurba_marseille","lat":43.29224,"lon":5.36071,"is_reserved":false,"is_disabled":false,"rental_uris":{"android":"levelo://app?vid=2200c659-1ae4-498f-aa62-e8f1bf1c860f","ios":"levelo://app?vid=2200c659-1ae4-498f-aa62-e8f1bf1c860f"},"vehicle_type_id":"4","last_reported":1731481695,"current_range_meters":33200,"station_id":"ce4bhbh2rcd13ifvqeqg","pricing_plan_id":"cebpf4jnsgd1na2vs0mg"},{"bike_id":"a81d010c-c5d8-4e4a-998c-0bdba20b8aa1","system_id":"levelo_inurba_marseille","lat":43.232,"lon":5.35543,"is_reserved":false,"is_disabled":false,"rental_uris":{"android":"levelo://app?vid=a81d010c-c5d8-4e4a-998c-0bdba20b8aa1","ios":"levelo://app?vid=a81d010c-c5d8-4e4a-998c-0bdba20b8aa1"},"vehicle_type_id":"4","last_reported":1731481695,"current_range_meters":39200,"station_id":"ce4bhu92rcd13ifvqi70","pricing_plan_id":"cebpf4jnsgd1na2vs0mg"},{"bike_id":"1102e559-642f-4f8c-8c18-0f4fe697b5b8","system_id":"levelo_inurba_marseille","lat":43.30353,"lon":5.41882,"is_reserved":false,"is_disabled":false,"rental_uris":{"android":"levelo://app?vid=1102e559-642f-4f8c-8c18-0f4fe697b5b8","ios":"levelo://app?vid=1102e559-642f-4f8c-8c18-0f4fe697b5b8"},"vehicle_type_id":"4","last_reported":1731481695,"current_range_meters":26000,"station_id":"ce4bhop2rcd13ifvqh7g","pricing_plan_id":"cebpf4jnsgd1na2vs0mg"},{"bike_id":"9e206ec4-3bc2-4292-bb12-90ccf987d885","system_id":"levelo_inurba_marseille","lat":43.337444,"lon":5.374475,"is_reserved":false,"is_disabled":false,"rental_uris":{"android":"levelo://app?vid=9e206ec4-3bc2-4292-bb12-90ccf987d885","ios":"levelo://app?vid=9e206ec4-3bc2-4292-bb12-90ccf987d885"},"vehicle_type_id":"4","last_reported":1731481695,"current_range_meters":36000,"station_id":"","pricing_plan_id":"cebpf4jnsgd1na2vs0mg"},{"bike_id":"398b47b3-a042-4cec-b1dd-254773a78263","system_id":"levelo_inurba_marseille","lat":43.27398,"lon":5.38953,"is_reserved":false,"is_disabled":false,"rental_uris":{"android":"levelo://app?vid=398b47b3-a042-4cec-b1dd-254773a78263","ios":"levelo://app?vid=398b47b3-a042-4cec-b1dd-254773a78263"},"vehicle_type_id":"4","last_reported":1731481695,"current_range_meters":10000,"station_id":"","pricing_plan_id":"cebpf4jnsgd1na2vs0mg"},{"bike_id":"a58b0855-e159-4686-925f-90a07c0c114d","system_id":"levelo_inurba_marseille","lat":43.31715,"lon":5.42406,"is_reserved":false,"is_disabled":false,"rental_uris":{"android":"levelo://app?vid=a58b0855-e159-4686-925f-90a07c0c114d","ios":"levelo://app?vid=a58b0855-e159-4686-925f-90a07c0c114d"},"vehicle_type_id":"4","last_reported":1731481695,"current_range_meters":38000,"station_id":"ce4bhp92rcd13ifvqhbg","pricing_plan_id":"cebpf4jnsgd1na2vs0mg"},{"bike_id":"f96624ed-8ae7-40c7-a15a-c4c8e193e8a5","system_id":"levelo_inurba_marseille","lat":43.28343,"lon":5.38113,"is_reserved":false,"is_disabled":false,"rental_uris":{"android":"levelo://app?vid=f96624ed-8ae7-40c7-a15a-c4c8e193e8a5","ios":"levelo://app?vid=f96624ed-8ae7-40c7-a15a-c4c8e193e8a5"},"vehicle_type_id":"4","last_reported":1731481695,"current_range_meters":30000,"station_id":"ce4bh412rcd13ifvqdr0","pricing_plan_id":"cebpf4jnsgd1na2vs0mg"},{"bike_id":"0ab6af89-8567-4fa9-b95c-8aa7d29605ac","system_id":"levelo_inurba_marseille","lat":43.30146,"lon":5.38074,"is_reserved":false,"is_disabled":false,"rental_uris":{"android":"levelo://app?vid=0ab6af89-8567-4fa9-b95c-8aa7d29605ac","ios":"levelo://app?vid=0ab6af89-8567-4fa9-b95c-8aa7d29605ac"},"vehicle_type_id":"4","last_reported":1731481695,"current_range_meters":33200,"station_id":"ce4bgjp2rcd13ifvqbh0","pricing_plan_id":"cebpf4jnsgd1na2vs0mg"},{"bike_id":"a356e06f-7579-40a0-8367-1e61b7961e07","system_id":"levelo_inurba_marseille","lat":43.23961,"lon":5.3663,"is_reserved":false,"is_disabled":false,"rental_uris":{"android":"levelo://app?vid=a356e06f-7579-40a0-8367-1e61b7961e07","ios":"levelo://app?vid=a356e06f-7579-40a0-8367-1e61b7961e07"},"vehicle_type_id":"4","last_reported":1731481695,"current_range_meters":39200,"station_id":"ce4bhi12rcd13ifvqfp0","pricing_plan_id":"cebpf4jnsgd1na2vs0mg"},{"bike_id":"d4bfd429-6708-45b3-a3cb-89b38e9c9739","system_id":"levelo_inurba_marseille","lat":43.30223,"lon":5.39515,"is_reserved":false,"is_disabled":false,"rental_uris":{"android":"levelo://app?vid=d4bfd429-6708-45b3-a3cb-89b38e9c9739","ios":"levelo://app?vid=d4bfd429-6708-45b3-a3cb-89b38e9c9739"},"vehicle_type_id":"4","last_reported":1731481695,"current_range_meters":17600,"station_id":"ce4bgip2rcd13ifvqbb0","pricing_plan_id":"cebpf4jnsgd1na2vs0mg"},{"bike_id":"92e3ad17-17c9-4714-a148-ef9436ad6113","system_id":"levelo_inurba_marseille","lat":43.22931,"lon":5.35378,"is_reserved":false,"is_disabled":false,"rental_uris":{"android":"levelo://app?vid=92e3ad17-17c9-4714-a148-ef9436ad6113","ios":"levelo://app?vid=92e3ad17-17c9-4714-a148-ef9436ad6113"},"vehicle_type_id":"4","last_reported":1731481695,"current_range_meters":38000,"station_id":"cpo3532slgdg3j2ikp40","pricing_plan_id":"cebpf4jnsgd1na2vs0mg"},{"bike_id":"9bacccca-49f8-496a-9a7c-c9cd69142eba","system_id":"levelo_inurba_marseille","lat":43.2866,"lon":5.3635,"is_reserved":false,"is_disabled":false,"rental_uris":{"android":"levelo://app?vid=9bacccca-49f8-496a-9a7c-c9cd69142eba","ios":"levelo://app?vid=9bacccca-49f8-496a-9a7c-c9cd69142eba"},"vehicle_type_id":"4","last_reported":1731481695,"current_range_meters":23200,"station_id":"ce4bhah2rcd13ifvqej0","pricing_plan_id":"cebpf4jnsgd1na2vs0mg"},{"bike_id":"cd2c4a5b-c13f-4e4c-a335-4f1a445b9c36","system_id":"levelo_inurba_marseille","lat":43.29597,"lon":5.38104,"is_reserved":false,"is_disabled":false,"rental_uris":{"android":"levelo://app?vid=cd2c4a5b-c13f-4e4c-a335-4f1a445b9c36","ios":"levelo://app?vid=cd2c4a5b-c13f-4e4c-a335-4f1a445b9c36"},"vehicle_type_id":"4","last_reported":1731481695,"current_range_meters":7200,"station_id":"ce4bgl12rcd13ifvqbo0","pricing_plan_id":"cebpf4jnsgd1na2vs0mg"},{"bike_id":"a3deb6b8-e9ee-4806-9e0a-7f75a040e75c","system_id":"levelo_inurba_marseille","lat":43.30454,"lon":5.37913,"is_reserved":false,"is_disabled":false,"rental_uris":{"android":"levelo://app?vid=a3deb6b8-e9ee-4806-9e0a-7f75a040e75c","ios":"levelo://app?vid=a3deb6b8-e9ee-4806-9e0a-7f75a040e75c"},"vehicle_type_id":"4","last_reported":1731481695,"current_range_meters":10000,"station_id":"ce4bgup2rcd13ifvqcn0","pricing_plan_id":"cebpf4jnsgd1na2vs0mg"},{"bike_id":"9664b141-6303-4283-9f73-758f74fcbfe1","system_id":"levelo_inurba_marseille","lat":43.24992,"lon":5.38923,"is_reserved":false,"is_disabled":false,"rental_uris":{"android":"levelo://app?vid=9664b141-6303-4283-9f73-758f74fcbfe1","ios":"levelo://app?vid=9664b141-6303-4283-9f73-758f74fcbfe1"},"vehicle_type_id":"4","last_reported":1731481695,"current_range_meters":39200,"station_id":"ce4bhgp2rcd13ifvqfd0","pricing_plan_id":"cebpf4jnsgd1na2vs0mg"},{"bike_id":"d47f92e0-719a-4be7-89a9-435da1a62ab7","system_id":"levelo_inurba_marseille","lat":43.28936,"lon":5.36622,"is_reserved":false,"is_disabled":false,"rental_uris":{"android":"levelo://app?vid=d47f92e0-719a-4be7-89a9-435da1a62ab7","ios":"levelo://app?vid=d47f92e0-719a-4be7-89a9-435da1a62ab7"},"vehicle_type_id":"4","last_reported":1731481695,"current_range_meters":5600,"station_id":"ce4bh9p2rcd13ifvqec0","pricing_plan_id":"cebpf4jnsgd1na2vs0mg"},{"bike_id":"a0bffd38-f529-4b37-9227-fb3819a7a32a","system_id":"levelo_inurba_marseille","lat":43.29554,"lon":5.42302,"is_reserved":false,"is_disabled":false,"rental_uris":{"android":"levelo://app?vid=a0bffd38-f529-4b37-9227-fb3819a7a32a","ios":"levelo://app?vid=a0bffd38-f529-4b37-9227-fb3819a7a32a"},"vehicle_type_id":"4","last_reported":1731481695,"current_range_meters":36000,"station_id":"ce4bhph2rcd13ifvqhdg","pricing_plan_id":"cebpf4jnsgd1na2vs0mg"},{"bike_id":"beb7b9bd-a544-4d0c-b0ee-a6204f3f5108","system_id":"levelo_inurba_marseille","lat":43.291962,"lon":5.385193,"is_reserved":false,"is_disabled":false,"rental_uris":{"android":"levelo://app?vid=beb7b9bd-a544-4d0c-b0ee-a6204f3f5108","ios":"levelo://app?vid=beb7b9bd-a544-4d0c-b0ee-a6204f3f5108"},"vehicle_type_id":"4","last_reported":1731481695,"current_range_meters":30000,"station_id":"","pricing_plan_id":"cebpf4jnsgd1na2vs0mg"},{"bike_id":"bd6ba279-9ee0-43b5-a488-fe833c558bd3","system_id":"levelo_inurba_marseille","lat":43.29793,"lon":5.38102,"is_reserved":false,"is_disabled":false,"rental_uris":{"android":"levelo://app?vid=bd6ba279-9ee0-43b5-a488-fe833c558bd3","ios":"levelo://app?vid=bd6ba279-9ee0-43b5-a488-fe833c558bd3"},"vehicle_type_id":"4","last_reported":1731481695,"current_range_meters":32400,"station_id":"ce4bgip2rcd13ifvqbb0","pricing_plan_id":"cebpf4jnsgd1na2vs0mg"},{"bike_id":"73a9d337-2042-4109-86a9-1922caa4694d","system_id":"levelo_inurba_marseille","lat":43.24649,"lon":5.38894,"is_reserved":false,"is_disabled":false,"rental_uris":{"android":"levelo://app?vid=73a9d337-2042-4109-86a9-1922caa4694d","ios":"levelo://app?vid=73a9d337-2042-4109-86a9-1922caa4694d"},"vehicle_type_id":"4","last_reported":1731481695,"current_range_meters":39200,"station_id":"ce4bhg12rcd13ifvqf60","pricing_plan_id":"cebpf4jnsgd1na2vs0mg"},{"bike_id":"ed605eca-17b3-4c08-b963-25cf9b265c0a","system_id":"levelo_inurba_marseille","lat":43.31896,"lon":5.40729,"is_reserved":false,"is_disabled":false,"rental_uris":{"android":"levelo://app?vid=ed605eca-17b3-4c08-b963-25cf9b265c0a","ios":"levelo://app?vid=ed605eca-17b3-4c08-b963-25cf9b265c0a"},"vehicle_type_id":"4","last_reported":1731481695,"current_range_meters":12000,"station_id":"ce4bhq12rcd13ifvqhig","pricing_plan_id":"cebpf4jnsgd1na2vs0mg"},{"bike_id":"4f918989-fe15-4f0e-882d-67adcc49a7f1","system_id":"levelo_inurba_marseille","lat":43.29897,"lon":5.43659,"is_reserved":false,"is_disabled":false,"rental_uris":{"android":"levelo://app?vid=4f918989-fe15-4f0e-882d-67adcc49a7f1","ios":"levelo://app?vid=4f918989-fe15-4f0e-882d-67adcc49a7f1"},"vehicle_type_id":"4","last_reported":1731481695,"current_range_meters":18000,"station_id":"ce4bhpp2rcd13ifvqhfg","pricing_plan_id":"cebpf4jnsgd1na2vs0mg"},{"bike_id":"47846a38-6349-49bd-8429-8dff06f902ec","system_id":"levelo_inurba_marseille","lat":43.3266,"lon":5.40989,"is_reserved":false,"is_disabled":false,"rental_uris":{"android":"levelo://app?vid=47846a38-6349-49bd-8429-8dff06f902ec","ios":"levelo://app?vid=47846a38-6349-49bd-8429-8dff06f902ec"},"vehicle_type_id":"4","last_reported":1731481695,"current_range_meters":14000,"station_id":"ce4bhpp2rcd13ifvqhgg","pricing_plan_id":"cebpf4jnsgd1na2vs0mg"},{"bike_id":"8a659c40-0bac-4bad-a537-0a61bbfd9958","system_id":"levelo_inurba_marseille","lat":43.29604,"lon":5.38107,"is_reserved":false,"is_disabled":false,"rental_uris":{"android":"levelo://app?vid=8a659c40-0bac-4bad-a537-0a61bbfd9958","ios":"levelo://app?vid=8a659c40-0bac-4bad-a537-0a61bbfd9958"},"vehicle_type_id":"4","last_reported":1731481695,"current_range_meters":8400,"station_id":"ce4bgl12rcd13ifvqbo0","pricing_plan_id":"cebpf4jnsgd1na2vs0mg"},{"bike_id":"46842e54-ad0d-4a9e-8db3-254e1fe2cdba","system_id":"levelo_inurba_marseille","lat":43.23147,"lon":5.4372,"is_reserved":false,"is_disabled":false,"rental_uris":{"android":"levelo://app?vid=46842e54-ad0d-4a9e-8db3-254e1fe2cdba","ios":"levelo://app?vid=46842e54-ad0d-4a9e-8db3-254e1fe2cdba"},"vehicle_type_id":"4","last_reported":1731481695,"current_range_meters":4000,"station_id":"ce4bhmp2rcd13ifvqgog","pricing_plan_id":"cebpf4jnsgd1na2vs0mg"},{"bike_id":"a36d13c5-2ac1-48f4-8d31-0f3b378e7242","system_id":"levelo_inurba_marseille","lat":43.2706,"lon":5.40256,"is_reserved":false,"is_disabled":false,"rental_uris":{"android":"levelo://app?vid=a36d13c5-2ac1-48f4-8d31-0f3b378e7242","ios":"levelo://app?vid=a36d13c5-2ac1-48f4-8d31-0f3b378e7242"},"vehicle_type_id":"4","last_reported":1731481695,"current_range_meters":36400,"station_id":"ce4bhk92rcd13ifvqgc0","pricing_plan_id":"cebpf4jnsgd1na2vs0mg"},{"bike_id":"88d2fb65-5967-40b7-a886-074e2eacf964","system_id":"levelo_inurba_marseille","lat":43.27493,"lon":5.42451,"is_reserved":false,"is_disabled":false,"rental_uris":{"android":"levelo://app?vid=88d2fb65-5967-40b7-a886-074e2eacf964","ios":"levelo://app?vid=88d2fb65-5967-40b7-a886-074e2eacf964"},"vehicle_type_id":"4","last_reported":1731481695,"current_range_meters":33600,"station_id":"ce4bhn92rcd13ifvqgrg","pricing_plan_id":"cebpf4jnsgd1na2vs0mg"},{"bike_id":"36c8a7d6-d4bd-4f8f-821d-a173e36e09c8","system_id":"levelo_inurba_marseille","lat":43.306516,"lon":5.40083,"is_reserved":false,"is_disabled":false,"rental_uris":{"android":"levelo://app?vid=36c8a7d6-d4bd-4f8f-821d-a173e36e09c8","ios":"levelo://app?vid=36c8a7d6-d4bd-4f8f-821d-a173e36e09c8"},"vehicle_type_id":"4","last_reported":1731481695,"current_range_meters":30800,"station_id":"ce4bh112rcd13ifvqda0","pricing_plan_id":"cebpf4jnsgd1na2vs0mg"},{"bike_id":"158757d0-f89c-452d-9746-6ab2aad19887","system_id":"levelo_inurba_marseille","lat":43.31223,"lon":5.36834,"is_reserved":false,"is_disabled":false,"rental_uris":{"android":"levelo://app?vid=158757d0-f89c-452d-9746-6ab2aad19887","ios":"levelo://app?vid=158757d0-f89c-452d-9746-6ab2aad19887"},"vehicle_type_id":"4","last_reported":1731481695,"current_range_meters":36800,"station_id":"ce4bgl92rcd13ifvqbq0","pricing_plan_id":"cebpf4jnsgd1na2vs0mg"},{"bike_id":"454ecee7-13c6-42c0-837b-5b603421efce","system_id":"levelo_inurba_marseille","lat":43.28931,"lon":5.36643,"is_reserved":false,"is_disabled":false,"rental_uris":{"android":"levelo://app?vid=454ecee7-13c6-42c0-837b-5b603421efce","ios":"levelo://app?vid=454ecee7-13c6-42c0-837b-5b603421efce"},"vehicle_type_id":"4","last_reported":1731481695,"current_range_meters":32000,"station_id":"ce4bhap2rcd13ifvqek0","pricing_plan_id":"cebpf4jnsgd1na2vs0mg"},{"bike_id":"512a0761-1528-4064-9759-08f157c14883","system_id":"levelo_inurba_marseille","lat":43.33018,"lon":5.39038,"is_reserved":false,"is_disabled":false,"rental_uris":{"android":"levelo://app?vid=512a0761-1528-4064-9759-08f157c14883","ios":"levelo://app?vid=512a0761-1528-4064-9759-08f157c14883"},"vehicle_type_id":"4","last_reported":1731481695,"current_range_meters":25200,"station_id":"ce4bhr92rcd13ifvqhrg","pricing_plan_id":"cebpf4jnsgd1na2vs0mg"},{"bike_id":"ebad3fe3-45c6-49ab-a9a7-bd5380241ddd","system_id":"levelo_inurba_marseille","lat":43.27062,"lon":5.42274,"is_reserved":false,"is_disabled":false,"rental_uris":{"android":"levelo://app?vid=ebad3fe3-45c6-49ab-a9a7-bd5380241ddd","ios":"levelo://app?vid=ebad3fe3-45c6-49ab-a9a7-bd5380241ddd"},"vehicle_type_id":"4","last_reported":1731481695,"current_range_meters":28000,"station_id":"ce4bhk92rcd13ifvqgb0","pricing_plan_id":"cebpf4jnsgd1na2vs0mg"},{"bike_id":"57d5089a-fd00-4017-9186-16ef77f011b9","system_id":"levelo_inurba_marseille","lat":43.26479,"lon":5.39551,"is_reserved":false,"is_disabled":false,"rental_uris":{"android":"levelo://app?vid=57d5089a-fd00-4017-9186-16ef77f011b9","ios":"levelo://app?vid=57d5089a-fd00-4017-9186-16ef77f011b9"},"vehicle_type_id":"4","last_reported":1731481695,"current_range_meters":28000,"station_id":"ce4bhi12rcd13ifvqfq0","pricing_plan_id":"cebpf4jnsgd1na2vs0mg"},{"bike_id":"a7ae197b-10d3-4ba6-b2fa-ccbf57d403bc","system_id":"levelo_inurba_marseille","lat":43.34138,"lon":5.4091,"is_reserved":false,"is_disabled":false,"rental_uris":{"android":"levelo://app?vid=a7ae197b-10d3-4ba6-b2fa-ccbf57d403bc","ios":"levelo://app?vid=a7ae197b-10d3-4ba6-b2fa-ccbf57d403bc"},"vehicle_type_id":"4","last_reported":1731481695,"current_range_meters":19200,"station_id":"ce4bhqh2rcd13ifvqhlg","pricing_plan_id":"cebpf4jnsgd1na2vs0mg"},{"bike_id":"3d8cceee-e8ae-48df-9d20-ed8626b0c570","system_id":"levelo_inurba_marseille","lat":43.33016,"lon":5.39029,"is_reserved":false,"is_disabled":false,"rental_uris":{"android":"levelo://app?vid=3d8cceee-e8ae-48df-9d20-ed8626b0c570","ios":"levelo://app?vid=3d8cceee-e8ae-48df-9d20-ed8626b0c570"},"vehicle_type_id":"4","last_reported":1731481695,"current_range_meters":35200,"station_id":"ce4bhr92rcd13ifvqhrg","pricing_plan_id":"cebpf4jnsgd1na2vs0mg"},{"bike_id":"cb7e40d7-04c5-4851-a39c-accdd3f2389c","system_id":"levelo_inurba_marseille","lat":43.24542,"lon":5.39525,"is_reserved":false,"is_disabled":false,"rental_uris":{"android":"levelo://app?vid=cb7e40d7-04c5-4851-a39c-accdd3f2389c","ios":"levelo://app?vid=cb7e40d7-04c5-4851-a39c-accdd3f2389c"},"vehicle_type_id":"4","last_reported":1731481695,"current_range_meters":26000,"station_id":"ce4bhlp2rcd13ifvqgjg","pricing_plan_id":"cebpf4jnsgd1na2vs0mg"},{"bike_id":"6ed300db-28f5-4f04-92ef-7f98544bb6e6","system_id":"levelo_inurba_marseille","lat":43.2542,"lon":5.38062,"is_reserved":false,"is_disabled":false,"rental_uris":{"android":"levelo://app?vid=6ed300db-28f5-4f04-92ef-7f98544bb6e6","ios":"levelo://app?vid=6ed300db-28f5-4f04-92ef-7f98544bb6e6"},"vehicle_type_id":"4","last_reported":1731481695,"current_range_meters":8400,"station_id":"ce4bhi12rcd13ifvqfp0","pricing_plan_id":"cebpf4jnsgd1na2vs0mg"},{"bike_id":"cae97af9-19fa-49d3-b33e-9e40f8802609","system_id":"levelo_inurba_marseille","lat":43.23148,"lon":5.43718,"is_reserved":false,"is_disabled":false,"rental_uris":{"android":"levelo://app?vid=cae97af9-19fa-49d3-b33e-9e40f8802609","ios":"levelo://app?vid=cae97af9-19fa-49d3-b33e-9e40f8802609"},"vehicle_type_id":"4","last_reported":1731481695,"current_range_meters":3600,"station_id":"ce4bhmp2rcd13ifvqgog","pricing_plan_id":"cebpf4jnsgd1na2vs0mg"},{"bike_id":"114e274c-0f3e-4f8b-96eb-4ad086762899","system_id":"levelo_inurba_marseille","lat":43.28101,"lon":5.37849,"is_reserved":false,"is_disabled":false,"rental_uris":{"android":"levelo://app?vid=114e274c-0f3e-4f8b-96eb-4ad086762899","ios":"levelo://app?vid=114e274c-0f3e-4f8b-96eb-4ad086762899"},"vehicle_type_id":"4","last_reported":1731481695,"current_range_meters":32800,"station_id":"ce4bha12rcd13ifvqee0","pricing_plan_id":"cebpf4jnsgd1na2vs0mg"},{"bike_id":"36367b8e-b3a7-42c5-b8ba-4fe0666a3445","system_id":"levelo_inurba_marseille","lat":43.30932,"lon":5.40149,"is_reserved":false,"is_disabled":false,"rental_uris":{"android":"levelo://app?vid=36367b8e-b3a7-42c5-b8ba-4fe0666a3445","ios":"levelo://app?vid=36367b8e-b3a7-42c5-b8ba-4fe0666a3445"},"vehicle_type_id":"4","last_reported":1731481695,"current_range_meters":38800,"station_id":"ce4bgvp2rcd13ifvqct0","pricing_plan_id":"cebpf4jnsgd1na2vs0mg"},{"bike_id":"77ab44b7-4460-4a96-b6d3-a90ea09f2ced","system_id":"levelo_inurba_marseille","lat":43.239589,"lon":5.366265,"is_reserved":false,"is_disabled":false,"rental_uris":{"android":"levelo://app?vid=77ab44b7-4460-4a96-b6d3-a90ea09f2ced","ios":"levelo://app?vid=77ab44b7-4460-4a96-b6d3-a90ea09f2ced"},"vehicle_type_id":"4","last_reported":1731481695,"current_range_meters":34000,"station_id":"ce4bhi12rcd13ifvqfp0","pricing_plan_id":"cebpf4jnsgd1na2vs0mg"},{"bike_id":"1b4e5493-899c-4cb8-917a-749c5fb86d21","system_id":"levelo_inurba_marseille","lat":43.29289,"lon":5.37452,"is_reserved":false,"is_disabled":false,"rental_uris":{"android":"levelo://app?vid=1b4e5493-899c-4cb8-917a-749c5fb86d21","ios":"levelo://app?vid=1b4e5493-899c-4cb8-917a-749c5fb86d21"},"vehicle_type_id":"4","last_reported":1731481695,"current_range_meters":38800,"station_id":"ce4bgi12rcd13ifvqb70","pricing_plan_id":"cebpf4jnsgd1na2vs0mg"},{"bike_id":"bf2b33f9-2d4f-44b1-b8c3-aa3a48c59551","system_id":"levelo_inurba_marseille","lat":43.33017,"lon":5.39037,"is_reserved":false,"is_disabled":false,"rental_uris":{"android":"levelo://app?vid=bf2b33f9-2d4f-44b1-b8c3-aa3a48c59551","ios":"levelo://app?vid=bf2b33f9-2d4f-44b1-b8c3-aa3a48c59551"},"vehicle_type_id":"4","last_reported":1731481695,"current_range_meters":14800,"station_id":"ce4bhr92rcd13ifvqhrg","pricing_plan_id":"cebpf4jnsgd1na2vs0mg"},{"bike_id":"24e26289-c6b3-475b-ad9e-2473b0c1e3e4","system_id":"levelo_inurba_marseille","lat":43.26927,"lon":5.38926,"is_reserved":false,"is_disabled":false,"rental_uris":{"android":"levelo://app?vid=24e26289-c6b3-475b-ad9e-2473b0c1e3e4","ios":"levelo://app?vid=24e26289-c6b3-475b-ad9e-2473b0c1e3e4"},"vehicle_type_id":"4","last_reported":1731481695,"current_range_meters":33600,"station_id":"ce4bhhh2rcd13ifvqfl0","pricing_plan_id":"cebpf4jnsgd1na2vs0mg"},{"bike_id":"5b46b450-3cd5-461a-a19a-7d2fce8064de","system_id":"levelo_inurba_marseille","lat":43.31083,"lon":5.4243,"is_reserved":false,"is_disabled":false,"rental_uris":{"android":"levelo://app?vid=5b46b450-3cd5-461a-a19a-7d2fce8064de","ios":"levelo://app?vid=5b46b450-3cd5-461a-a19a-7d2fce8064de"},"vehicle_type_id":"4","last_reported":1731481695,"current_range_meters":37600,"station_id":"ce4bhp92rcd13ifvqhag","pricing_plan_id":"cebpf4jnsgd1na2vs0mg"},{"bike_id":"5e96f609-2d16-41e9-86d3-411db3ae9987","system_id":"levelo_inurba_marseille","lat":43.33602,"lon":5.41024,"is_reserved":false,"is_disabled":false,"rental_uris":{"android":"levelo://app?vid=5e96f609-2d16-41e9-86d3-411db3ae9987","ios":"levelo://app?vid=5e96f609-2d16-41e9-86d3-411db3ae9987"},"vehicle_type_id":"4","last_reported":1731481695,"current_range_meters":8400,"station_id":"ce4bhqh2rcd13ifvqhmg","pricing_plan_id":"cebpf4jnsgd1na2vs0mg"},{"bike_id":"c2e184bb-eec9-4fe8-bb9e-a549847f65a2","system_id":"levelo_inurba_marseille","lat":43.29912,"lon":5.3815,"is_reserved":false,"is_disabled":false,"rental_uris":{"android":"levelo://app?vid=c2e184bb-eec9-4fe8-bb9e-a549847f65a2","ios":"levelo://app?vid=c2e184bb-eec9-4fe8-bb9e-a549847f65a2"},"vehicle_type_id":"4","last_reported":1731481695,"current_range_meters":38400,"station_id":"ce4bgj12rcd13ifvqbc0","pricing_plan_id":"cebpf4jnsgd1na2vs0mg"},{"bike_id":"1db710b5-a1f7-4498-b1d5-a9a354df934e","system_id":"levelo_inurba_marseille","lat":43.24077,"lon":5.37751,"is_reserved":false,"is_disabled":false,"rental_uris":{"android":"levelo://app?vid=1db710b5-a1f7-4498-b1d5-a9a354df934e","ios":"levelo://app?vid=1db710b5-a1f7-4498-b1d5-a9a354df934e"},"vehicle_type_id":"4","last_reported":1731481695,"current_range_meters":33200,"station_id":"ce4bhnp2rcd13ifvqgvg","pricing_plan_id":"cebpf4jnsgd1na2vs0mg"},{"bike_id":"2f865556-6761-4cbb-9bcc-dbf18d673391","system_id":"levelo_inurba_marseille","lat":43.24437,"lon":5.38006,"is_reserved":false,"is_disabled":false,"rental_uris":{"android":"levelo://app?vid=2f865556-6761-4cbb-9bcc-dbf18d673391","ios":"levelo://app?vid=2f865556-6761-4cbb-9bcc-dbf18d673391"},"vehicle_type_id":"4","last_reported":1731481695,"current_range_meters":18000,"station_id":"ce4bhnp2rcd13ifvqgvg","pricing_plan_id":"cebpf4jnsgd1na2vs0mg"},{"bike_id":"0e3b0542-b049-4d29-9908-4b6ae9f8349d","system_id":"levelo_inurba_marseille","lat":43.28942,"lon":5.36644,"is_reserved":false,"is_disabled":false,"rental_uris":{"android":"levelo://app?vid=0e3b0542-b049-4d29-9908-4b6ae9f8349d","ios":"levelo://app?vid=0e3b0542-b049-4d29-9908-4b6ae9f8349d"},"vehicle_type_id":"4","last_reported":1731481695,"current_range_meters":32000,"station_id":"ce4bhap2rcd13ifvqek0","pricing_plan_id":"cebpf4jnsgd1na2vs0mg"},{"bike_id":"21ee09b4-64f3-489d-a4d9-291f1e014eda","system_id":"levelo_inurba_marseille","lat":43.24633,"lon":5.38818,"is_reserved":false,"is_disabled":false,"rental_uris":{"android":"levelo://app?vid=21ee09b4-64f3-489d-a4d9-291f1e014eda","ios":"levelo://app?vid=21ee09b4-64f3-489d-a4d9-291f1e014eda"},"vehicle_type_id":"4","last_reported":1731481695,"current_range_meters":26000,"station_id":"","pricing_plan_id":"cebpf4jnsgd1na2vs0mg"},{"bike_id":"f76b0e64-31d0-47a0-877a-857241e737d3","system_id":"levelo_inurba_marseille","lat":43.27492,"lon":5.42454,"is_reserved":false,"is_disabled":false,"rental_uris":{"android":"levelo://app?vid=f76b0e64-31d0-47a0-877a-857241e737d3","ios":"levelo://app?vid=f76b0e64-31d0-47a0-877a-857241e737d3"},"vehicle_type_id":"4","last_reported":1731481695,"current_range_meters":32800,"station_id":"ce4bhn92rcd13ifvqgrg","pricing_plan_id":"cebpf4jnsgd1na2vs0mg"},{"bike_id":"a5f8cb7c-e6cb-4ee3-9001-689d6dad1c58","system_id":"levelo_inurba_marseille","lat":43.278086,"lon":5.407071,"is_reserved":false,"is_disabled":false,"rental_uris":{"android":"levelo://app?vid=a5f8cb7c-e6cb-4ee3-9001-689d6dad1c58","ios":"levelo://app?vid=a5f8cb7c-e6cb-4ee3-9001-689d6dad1c58"},"vehicle_type_id":"4","last_reported":1731481695,"current_range_meters":27200,"station_id":"ce4bhnh2rcd13ifvqgtg","pricing_plan_id":"cebpf4jnsgd1na2vs0mg"},{"bike_id":"58e12413-d879-4dff-a084-333be006c499","system_id":"levelo_inurba_marseille","lat":43.2956,"lon":5.42276,"is_reserved":false,"is_disabled":false,"rental_uris":{"android":"levelo://app?vid=58e12413-d879-4dff-a084-333be006c499","ios":"levelo://app?vid=58e12413-d879-4dff-a084-333be006c499"},"vehicle_type_id":"4","last_reported":1731481695,"current_range_meters":31200,"station_id":"ce4bhph2rcd13ifvqhdg","pricing_plan_id":"cebpf4jnsgd1na2vs0mg"},{"bike_id":"872e9bd9-2aeb-47c4-bd84-5df74e354438","system_id":"levelo_inurba_marseille","lat":43.30253,"lon":5.40073,"is_reserved":false,"is_disabled":false,"rental_uris":{"android":"levelo://app?vid=872e9bd9-2aeb-47c4-bd84-5df74e354438","ios":"levelo://app?vid=872e9bd9-2aeb-47c4-bd84-5df74e354438"},"vehicle_type_id":"4","last_reported":1731481695,"current_range_meters":37600,"station_id":"ce4bgvh2rcd13ifvqcs0","pricing_plan_id":"cebpf4jnsgd1na2vs0mg"},{"bike_id":"8ad7d496-37eb-46a8-a62e-b57d3cbf5d0d","system_id":"levelo_inurba_marseille","lat":43.27496,"lon":5.42453,"is_reserved":false,"is_disabled":false,"rental_uris":{"android":"levelo://app?vid=8ad7d496-37eb-46a8-a62e-b57d3cbf5d0d","ios":"levelo://app?vid=8ad7d496-37eb-46a8-a62e-b57d3cbf5d0d"},"vehicle_type_id":"4","last_reported":1731481695,"current_range_meters":22000,"station_id":"ce4bhn92rcd13ifvqgrg","pricing_plan_id":"cebpf4jnsgd1na2vs0mg"},{"bike_id":"3b686e15-48ea-494a-8ff9-d95dc99ce440","system_id":"levelo_inurba_marseille","lat":43.302698,"lon":5.37178,"is_reserved":false,"is_disabled":false,"rental_uris":{"android":"levelo://app?vid=3b686e15-48ea-494a-8ff9-d95dc99ce440","ios":"levelo://app?vid=3b686e15-48ea-494a-8ff9-d95dc99ce440"},"vehicle_type_id":"4","last_reported":1731481695,"current_range_meters":36000,"station_id":"ce4bgqh2rcd13ifvqc5g","pricing_plan_id":"cebpf4jnsgd1na2vs0mg"},{"bike_id":"1d53b08f-03fc-4409-905c-9b32b02dae5b","system_id":"levelo_inurba_marseille","lat":43.23076,"lon":5.35482,"is_reserved":false,"is_disabled":false,"rental_uris":{"android":"levelo://app?vid=1d53b08f-03fc-4409-905c-9b32b02dae5b","ios":"levelo://app?vid=1d53b08f-03fc-4409-905c-9b32b02dae5b"},"vehicle_type_id":"4","last_reported":1731481695,"current_range_meters":24800,"station_id":"cpo3342slgdg3j2ifvpg","pricing_plan_id":"cebpf4jnsgd1na2vs0mg"},{"bike_id":"be2f3a50-6a5c-4786-b0da-85b9471246b3","system_id":"levelo_inurba_marseille","lat":43.32099,"lon":5.36769,"is_reserved":false,"is_disabled":false,"rental_uris":{"android":"levelo://app?vid=be2f3a50-6a5c-4786-b0da-85b9471246b3","ios":"levelo://app?vid=be2f3a50-6a5c-4786-b0da-85b9471246b3"},"vehicle_type_id":"4","last_reported":1731481695,"current_range_meters":30400,"station_id":"ce4bhrh2rcd13ifvqhug","pricing_plan_id":"cebpf4jnsgd1na2vs0mg"},{"bike_id":"f033f7ab-68f8-4979-bc9a-9894ccafb164","system_id":"levelo_inurba_marseille","lat":43.33604,"lon":5.41037,"is_reserved":false,"is_disabled":false,"rental_uris":{"android":"levelo://app?vid=f033f7ab-68f8-4979-bc9a-9894ccafb164","ios":"levelo://app?vid=f033f7ab-68f8-4979-bc9a-9894ccafb164"},"vehicle_type_id":"4","last_reported":1731481695,"current_range_meters":35600,"station_id":"ce4bhqh2rcd13ifvqhmg","pricing_plan_id":"cebpf4jnsgd1na2vs0mg"},{"bike_id":"70c4c497-e09e-470b-8e83-0a33e55a8769","system_id":"levelo_inurba_marseille","lat":43.30891,"lon":5.36851,"is_reserved":false,"is_disabled":false,"rental_uris":{"android":"levelo://app?vid=70c4c497-e09e-470b-8e83-0a33e55a8769","ios":"levelo://app?vid=70c4c497-e09e-470b-8e83-0a33e55a8769"},"vehicle_type_id":"4","last_reported":1731481695,"current_range_meters":27600,"station_id":"ce4bgn92rcd13ifvqbvg","pricing_plan_id":"cebpf4jnsgd1na2vs0mg"},{"bike_id":"6a74bd13-2f0d-4293-a500-24db67983d5b","system_id":"levelo_inurba_marseille","lat":43.23067,"lon":5.35493,"is_reserved":false,"is_disabled":false,"rental_uris":{"android":"levelo://app?vid=6a74bd13-2f0d-4293-a500-24db67983d5b","ios":"levelo://app?vid=6a74bd13-2f0d-4293-a500-24db67983d5b"},"vehicle_type_id":"4","last_reported":1731481695,"current_range_meters":37600,"station_id":"cpo3342slgdg3j2ifvpg","pricing_plan_id":"cebpf4jnsgd1na2vs0mg"},{"bike_id":"ecafcefd-da66-4901-8ea3-23eb6b45320a","system_id":"levelo_inurba_marseille","lat":43.24643,"lon":5.38889,"is_reserved":false,"is_disabled":false,"rental_uris":{"android":"levelo://app?vid=ecafcefd-da66-4901-8ea3-23eb6b45320a","ios":"levelo://app?vid=ecafcefd-da66-4901-8ea3-23eb6b45320a"},"vehicle_type_id":"4","last_reported":1731481695,"current_range_meters":14400,"station_id":"ce4bhg12rcd13ifvqf60","pricing_plan_id":"cebpf4jnsgd1na2vs0mg"},{"bike_id":"d0b74d32-12f8-4430-9abe-717699354f28","system_id":"levelo_inurba_marseille","lat":43.29594,"lon":5.38112,"is_reserved":false,"is_disabled":false,"rental_uris":{"android":"levelo://app?vid=d0b74d32-12f8-4430-9abe-717699354f28","ios":"levelo://app?vid=d0b74d32-12f8-4430-9abe-717699354f28"},"vehicle_type_id":"4","last_reported":1731481695,"current_range_meters":3600,"station_id":"ce4bgl12rcd13ifvqbo0","pricing_plan_id":"cebpf4jnsgd1na2vs0mg"},{"bike_id":"36d53520-c7e3-464c-b836-eecedd4879f9","system_id":"levelo_inurba_marseille","lat":43.29552,"lon":5.42286,"is_reserved":false,"is_disabled":false,"rental_uris":{"android":"levelo://app?vid=36d53520-c7e3-464c-b836-eecedd4879f9","ios":"levelo://app?vid=36d53520-c7e3-464c-b836-eecedd4879f9"},"vehicle_type_id":"4","last_reported":1731481695,"current_range_meters":24800,"station_id":"ce4bhph2rcd13ifvqhdg","pricing_plan_id":"cebpf4jnsgd1na2vs0mg"},{"bike_id":"a2a546f0-e8f6-4604-a35c-bdf7b4d3ebe5","system_id":"levelo_inurba_marseille","lat":43.32359,"lon":5.389,"is_reserved":false,"is_disabled":false,"rental_uris":{"android":"levelo://app?vid=a2a546f0-e8f6-4604-a35c-bdf7b4d3ebe5","ios":"levelo://app?vid=a2a546f0-e8f6-4604-a35c-bdf7b4d3ebe5"},"vehicle_type_id":"4","last_reported":1731481695,"current_range_meters":6800,"station_id":"ce4bhqp2rcd13ifvqhog","pricing_plan_id":"cebpf4jnsgd1na2vs0mg"},{"bike_id":"5c2908fe-c0cb-4c0d-be4d-ad0385f514bd","system_id":"levelo_inurba_marseille","lat":43.29152,"lon":5.35894,"is_reserved":false,"is_disabled":false,"rental_uris":{"android":"levelo://app?vid=5c2908fe-c0cb-4c0d-be4d-ad0385f514bd","ios":"levelo://app?vid=5c2908fe-c0cb-4c0d-be4d-ad0385f514bd"},"vehicle_type_id":"4","last_reported":1731481695,"current_range_meters":24400,"station_id":"ce4bgop2rcd13ifvqc1g","pricing_plan_id":"cebpf4jnsgd1na2vs0mg"},{"bike_id":"dae3db64-72cd-4c94-81d2-9b48694ef4ae","system_id":"levelo_inurba_marseille","lat":43.3046,"lon":5.37904,"is_reserved":false,"is_disabled":false,"rental_uris":{"android":"levelo://app?vid=dae3db64-72cd-4c94-81d2-9b48694ef4ae","ios":"levelo://app?vid=dae3db64-72cd-4c94-81d2-9b48694ef4ae"},"vehicle_type_id":"4","last_reported":1731481695,"current_range_meters":23200,"station_id":"ce4bgup2rcd13ifvqcn0","pricing_plan_id":"cebpf4jnsgd1na2vs0mg"},{"bike_id":"9d21ff4a-d516-4d71-a226-ead22ace12fd","system_id":"levelo_inurba_marseille","lat":43.25934,"lon":5.4091,"is_reserved":false,"is_disabled":false,"rental_uris":{"android":"levelo://app?vid=9d21ff4a-d516-4d71-a226-ead22ace12fd","ios":"levelo://app?vid=9d21ff4a-d516-4d71-a226-ead22ace12fd"},"vehicle_type_id":"4","last_reported":1731481695,"current_range_meters":27200,"station_id":"ce4bhm92rcd13ifvqglg","pricing_plan_id":"cebpf4jnsgd1na2vs0mg"},{"bike_id":"33f236e0-f590-4a54-99b2-239b93ed47ad","system_id":"levelo_inurba_marseille","lat":43.29592,"lon":5.38111,"is_reserved":false,"is_disabled":false,"rental_uris":{"android":"levelo://app?vid=33f236e0-f590-4a54-99b2-239b93ed47ad","ios":"levelo://app?vid=33f236e0-f590-4a54-99b2-239b93ed47ad"},"vehicle_type_id":"4","last_reported":1731481695,"current_range_meters":12000,"station_id":"ce4bgl12rcd13ifvqbo0","pricing_plan_id":"cebpf4jnsgd1na2vs0mg"},{"bike_id":"5a8db13b-8780-420e-9213-be4f1e0ce476","system_id":"levelo_inurba_marseille","lat":43.30209,"lon":5.39461,"is_reserved":false,"is_disabled":false,"rental_uris":{"android":"levelo://app?vid=5a8db13b-8780-420e-9213-be4f1e0ce476","ios":"levelo://app?vid=5a8db13b-8780-420e-9213-be4f1e0ce476"},"vehicle_type_id":"4","last_reported":1731481695,"current_range_meters":22000,"station_id":"ce4bh0p2rcd13ifvqd70","pricing_plan_id":"cebpf4jnsgd1na2vs0mg"},{"bike_id":"a9307347-57e2-4e00-8647-0bafadab6995","system_id":"levelo_inurba_marseille","lat":43.27493,"lon":5.42452,"is_reserved":false,"is_disabled":false,"rental_uris":{"android":"levelo://app?vid=a9307347-57e2-4e00-8647-0bafadab6995","ios":"levelo://app?vid=a9307347-57e2-4e00-8647-0bafadab6995"},"vehicle_type_id":"4","last_reported":1731481695,"current_range_meters":30800,"station_id":"ce4bhn92rcd13ifvqgrg","pricing_plan_id":"cebpf4jnsgd1na2vs0mg"},{"bike_id":"66bd1c4c-c962-4a65-95f7-3d2c1979a0ee","system_id":"levelo_inurba_marseille","lat":43.302612,"lon":5.395667,"is_reserved":false,"is_disabled":false,"rental_uris":{"android":"levelo://app?vid=66bd1c4c-c962-4a65-95f7-3d2c1979a0ee","ios":"levelo://app?vid=66bd1c4c-c962-4a65-95f7-3d2c1979a0ee"},"vehicle_type_id":"4","last_reported":1731481695,"current_range_meters":23200,"station_id":"ce4bh092rcd13ifvqd20","pricing_plan_id":"cebpf4jnsgd1na2vs0mg"},{"bike_id":"640ae65e-92b4-44d5-b4f2-7e200c24aeaa","system_id":"levelo_inurba_marseille","lat":43.3414,"lon":5.40911,"is_reserved":false,"is_disabled":false,"rental_uris":{"android":"levelo://app?vid=640ae65e-92b4-44d5-b4f2-7e200c24aeaa","ios":"levelo://app?vid=640ae65e-92b4-44d5-b4f2-7e200c24aeaa"},"vehicle_type_id":"4","last_reported":1731481695,"current_range_meters":36800,"station_id":"ce4bhqh2rcd13ifvqhlg","pricing_plan_id":"cebpf4jnsgd1na2vs0mg"},{"bike_id":"265f0810-481f-47de-a6e4-9e2bba481eaa","system_id":"levelo_inurba_marseille","lat":43.31755,"lon":5.39017,"is_reserved":false,"is_disabled":false,"rental_uris":{"android":"levelo://app?vid=265f0810-481f-47de-a6e4-9e2bba481eaa","ios":"levelo://app?vid=265f0810-481f-47de-a6e4-9e2bba481eaa"},"vehicle_type_id":"4","last_reported":1731481695,"current_range_meters":19200,"station_id":"ce4bhqp2rcd13ifvqhng","pricing_plan_id":"cebpf4jnsgd1na2vs0mg"},{"bike_id":"1c76e35a-5f50-4014-b83e-d81b37391e2e","system_id":"levelo_inurba_marseille","lat":43.32288,"lon":5.38274,"is_reserved":false,"is_disabled":false,"rental_uris":{"android":"levelo://app?vid=1c76e35a-5f50-4014-b83e-d81b37391e2e","ios":"levelo://app?vid=1c76e35a-5f50-4014-b83e-d81b37391e2e"},"vehicle_type_id":"4","last_reported":1731481695,"current_range_meters":37600,"station_id":"ce4bhr12rcd13ifvqhqg","pricing_plan_id":"cebpf4jnsgd1na2vs0mg"},{"bike_id":"4fa93206-a2b7-47f7-a139-39b8cdce995a","system_id":"levelo_inurba_marseille","lat":43.25852,"lon":5.39908,"is_reserved":false,"is_disabled":false,"rental_uris":{"android":"levelo://app?vid=4fa93206-a2b7-47f7-a139-39b8cdce995a","ios":"levelo://app?vid=4fa93206-a2b7-47f7-a139-39b8cdce995a"},"vehicle_type_id":"4","last_reported":1731481695,"current_range_meters":35200,"station_id":"ce4bhl92rcd13ifvqghg","pricing_plan_id":"cebpf4jnsgd1na2vs0mg"},{"bike_id":"5455cf51-2150-47a0-bda3-c2e01b3e22db","system_id":"levelo_inurba_marseille","lat":43.29907,"lon":5.38143,"is_reserved":false,"is_disabled":false,"rental_uris":{"android":"levelo://app?vid=5455cf51-2150-47a0-bda3-c2e01b3e22db","ios":"levelo://app?vid=5455cf51-2150-47a0-bda3-c2e01b3e22db"},"vehicle_type_id":"4","last_reported":1731481695,"current_range_meters":34000,"station_id":"ce4bgj12rcd13ifvqbc0","pricing_plan_id":"cebpf4jnsgd1na2vs0mg"},{"bike_id":"ae7cb96a-e6a7-4698-9712-577508d8a7b9","system_id":"levelo_inurba_marseille","lat":43.30147,"lon":5.38082,"is_reserved":false,"is_disabled":false,"rental_uris":{"android":"levelo://app?vid=ae7cb96a-e6a7-4698-9712-577508d8a7b9","ios":"levelo://app?vid=ae7cb96a-e6a7-4698-9712-577508d8a7b9"},"vehicle_type_id":"4","last_reported":1731481695,"current_range_meters":35200,"station_id":"ce4bgjp2rcd13ifvqbh0","pricing_plan_id":"cebpf4jnsgd1na2vs0mg"},{"bike_id":"1211d863-899e-4be8-a753-4a64718985d1","system_id":"levelo_inurba_marseille","lat":43.26961,"lon":5.3863,"is_reserved":false,"is_disabled":false,"rental_uris":{"android":"levelo://app?vid=1211d863-899e-4be8-a753-4a64718985d1","ios":"levelo://app?vid=1211d863-899e-4be8-a753-4a64718985d1"},"vehicle_type_id":"4","last_reported":1731481695,"current_range_meters":38400,"station_id":"ce4bhh92rcd13ifvqfh0","pricing_plan_id":"cebpf4jnsgd1na2vs0mg"},{"bike_id":"3fb53652-254e-4039-8287-be2731a5d624","system_id":"levelo_inurba_marseille","lat":43.25081,"lon":5.39524,"is_reserved":false,"is_disabled":false,"rental_uris":{"android":"levelo://app?vid=3fb53652-254e-4039-8287-be2731a5d624","ios":"levelo://app?vid=3fb53652-254e-4039-8287-be2731a5d624"},"vehicle_type_id":"4","last_reported":1731481695,"current_range_meters":24400,"station_id":"ce4bhm12rcd13ifvqgkg","pricing_plan_id":"cebpf4jnsgd1na2vs0mg"},{"bike_id":"77593c1f-0dd4-4058-8848-a8727c9b8a83","system_id":"levelo_inurba_marseille","lat":43.23195,"lon":5.35554,"is_reserved":false,"is_disabled":false,"rental_uris":{"android":"levelo://app?vid=77593c1f-0dd4-4058-8848-a8727c9b8a83","ios":"levelo://app?vid=77593c1f-0dd4-4058-8848-a8727c9b8a83"},"vehicle_type_id":"4","last_reported":1731481695,"current_range_meters":18800,"station_id":"ce4bhu92rcd13ifvqi70","pricing_plan_id":"cebpf4jnsgd1na2vs0mg"},{"bike_id":"96114a27-af40-4676-9881-ca50fe8b3ec0","system_id":"levelo_inurba_marseille","lat":43.25572,"lon":5.38243,"is_reserved":false,"is_disabled":false,"rental_uris":{"android":"levelo://app?vid=96114a27-af40-4676-9881-ca50fe8b3ec0","ios":"levelo://app?vid=96114a27-af40-4676-9881-ca50fe8b3ec0"},"vehicle_type_id":"4","last_reported":1731481695,"current_range_meters":29600,"station_id":"ce4bhih2rcd13ifvqfs0","pricing_plan_id":"cebpf4jnsgd1na2vs0mg"},{"bike_id":"7cf732b6-99d5-479d-b72b-7ebf50d57e56","system_id":"levelo_inurba_marseille","lat":43.30593,"lon":5.39353,"is_reserved":false,"is_disabled":false,"rental_uris":{"android":"levelo://app?vid=7cf732b6-99d5-479d-b72b-7ebf50d57e56","ios":"levelo://app?vid=7cf732b6-99d5-479d-b72b-7ebf50d57e56"},"vehicle_type_id":"4","last_reported":1731481695,"current_range_meters":32000,"station_id":"ce4bh0p2rcd13ifvqd80","pricing_plan_id":"cebpf4jnsgd1na2vs0mg"},{"bike_id":"e95300c9-bbf5-4001-b9d6-1351d5788eee","system_id":"levelo_inurba_marseille","lat":43.29592,"lon":5.38099,"is_reserved":false,"is_disabled":false,"rental_uris":{"android":"levelo://app?vid=e95300c9-bbf5-4001-b9d6-1351d5788eee","ios":"levelo://app?vid=e95300c9-bbf5-4001-b9d6-1351d5788eee"},"vehicle_type_id":"4","last_reported":1731481695,"current_range_meters":8000,"station_id":"ce4bgl12rcd13ifvqbo0","pricing_plan_id":"cebpf4jnsgd1na2vs0mg"},{"bike_id":"ac4eba52-e408-4882-96fd-0b5c13080fd4","system_id":"levelo_inurba_marseille","lat":43.30458,"lon":5.37902,"is_reserved":false,"is_disabled":false,"rental_uris":{"android":"levelo://app?vid=ac4eba52-e408-4882-96fd-0b5c13080fd4","ios":"levelo://app?vid=ac4eba52-e408-4882-96fd-0b5c13080fd4"},"vehicle_type_id":"4","last_reported":1731481695,"current_range_meters":25600,"station_id":"ce4bgup2rcd13ifvqcn0","pricing_plan_id":"cebpf4jnsgd1na2vs0mg"},{"bike_id":"9408db83-4b31-423c-957c-85b94f412efa","system_id":"levelo_inurba_marseille","lat":43.27493,"lon":5.42453,"is_reserved":false,"is_disabled":false,"rental_uris":{"android":"levelo://app?vid=9408db83-4b31-423c-957c-85b94f412efa","ios":"levelo://app?vid=9408db83-4b31-423c-957c-85b94f412efa"},"vehicle_type_id":"4","last_reported":1731481695,"current_range_meters":39200,"station_id":"ce4bhn92rcd13ifvqgrg","pricing_plan_id":"cebpf4jnsgd1na2vs0mg"},{"bike_id":"c296ccb5-0346-47f8-bbba-2db440b1e310","system_id":"levelo_inurba_marseille","lat":43.26482,"lon":5.3955,"is_reserved":false,"is_disabled":false,"rental_uris":{"android":"levelo://app?vid=c296ccb5-0346-47f8-bbba-2db440b1e310","ios":"levelo://app?vid=c296ccb5-0346-47f8-bbba-2db440b1e310"},"vehicle_type_id":"4","last_reported":1731481695,"current_range_meters":38400,"station_id":"ce4bhi12rcd13ifvqfq0","pricing_plan_id":"cebpf4jnsgd1na2vs0mg"},{"bike_id":"abdfb2d5-5f8c-45e0-a382-a01d71082c6d","system_id":"levelo_inurba_marseille","lat":43.28937,"lon":5.36641,"is_reserved":false,"is_disabled":false,"rental_uris":{"android":"levelo://app?vid=abdfb2d5-5f8c-45e0-a382-a01d71082c6d","ios":"levelo://app?vid=abdfb2d5-5f8c-45e0-a382-a01d71082c6d"},"vehicle_type_id":"4","last_reported":1731481695,"current_range_meters":31200,"station_id":"ce4bhap2rcd13ifvqek0","pricing_plan_id":"cebpf4jnsgd1na2vs0mg"},{"bike_id":"580a3db1-ba3e-43f5-845d-fab86f444bf3","system_id":"levelo_inurba_marseille","lat":43.28855,"lon":5.35846,"is_reserved":false,"is_disabled":false,"rental_uris":{"android":"levelo://app?vid=580a3db1-ba3e-43f5-845d-fab86f444bf3","ios":"levelo://app?vid=580a3db1-ba3e-43f5-845d-fab86f444bf3"},"vehicle_type_id":"4","last_reported":1731481695,"current_range_meters":18000,"station_id":"ce4bhb12rcd13ifvqem0","pricing_plan_id":"cebpf4jnsgd1na2vs0mg"},{"bike_id":"979128af-abd2-4fe1-9f50-7561686df63c","system_id":"levelo_inurba_marseille","lat":43.28854,"lon":5.35841,"is_reserved":false,"is_disabled":false,"rental_uris":{"android":"levelo://app?vid=979128af-abd2-4fe1-9f50-7561686df63c","ios":"levelo://app?vid=979128af-abd2-4fe1-9f50-7561686df63c"},"vehicle_type_id":"4","last_reported":1731481695,"current_range_meters":30000,"station_id":"ce4bhb12rcd13ifvqem0","pricing_plan_id":"cebpf4jnsgd1na2vs0mg"},{"bike_id":"d944b9cc-f4b7-43b0-90b9-d6547e39c362","system_id":"levelo_inurba_marseille","lat":43.23149,"lon":5.43721,"is_reserved":false,"is_disabled":false,"rental_uris":{"android":"levelo://app?vid=d944b9cc-f4b7-43b0-90b9-d6547e39c362","ios":"levelo://app?vid=d944b9cc-f4b7-43b0-90b9-d6547e39c362"},"vehicle_type_id":"4","last_reported":1731481695,"current_range_meters":28400,"station_id":"ce4bhmp2rcd13ifvqgog","pricing_plan_id":"cebpf4jnsgd1na2vs0mg"},{"bike_id":"2c3259f6-ceef-45be-96b5-228e6aa038d6","system_id":"levelo_inurba_marseille","lat":43.27814,"lon":5.40712,"is_reserved":false,"is_disabled":false,"rental_uris":{"android":"levelo://app?vid=2c3259f6-ceef-45be-96b5-228e6aa038d6","ios":"levelo://app?vid=2c3259f6-ceef-45be-96b5-228e6aa038d6"},"vehicle_type_id":"4","last_reported":1731481695,"current_range_meters":35600,"station_id":"ce4bhnh2rcd13ifvqgtg","pricing_plan_id":"cebpf4jnsgd1na2vs0mg"},{"bike_id":"d4aa45b9-1250-4d4d-84e8-d78e3269ff67","system_id":"levelo_inurba_marseille","lat":43.30915,"lon":5.40141,"is_reserved":false,"is_disabled":false,"rental_uris":{"android":"levelo://app?vid=d4aa45b9-1250-4d4d-84e8-d78e3269ff67","ios":"levelo://app?vid=d4aa45b9-1250-4d4d-84e8-d78e3269ff67"},"vehicle_type_id":"4","last_reported":1731481695,"current_range_meters":32400,"station_id":"ce4bgvp2rcd13ifvqct0","pricing_plan_id":"cebpf4jnsgd1na2vs0mg"},{"bike_id":"ab5ddeff-1081-4095-9876-0e9f7c0d8976","system_id":"levelo_inurba_marseille","lat":43.28849,"lon":5.35844,"is_reserved":false,"is_disabled":false,"rental_uris":{"android":"levelo://app?vid=ab5ddeff-1081-4095-9876-0e9f7c0d8976","ios":"levelo://app?vid=ab5ddeff-1081-4095-9876-0e9f7c0d8976"},"vehicle_type_id":"4","last_reported":1731481695,"current_range_meters":38000,"station_id":"ce4bhb12rcd13ifvqem0","pricing_plan_id":"cebpf4jnsgd1na2vs0mg"},{"bike_id":"3e49b801-d7f0-470c-a5c1-33b9bb84a7a4","system_id":"levelo_inurba_marseille","lat":43.304297,"lon":5.397468,"is_reserved":false,"is_disabled":false,"rental_uris":{"android":"levelo://app?vid=3e49b801-d7f0-470c-a5c1-33b9bb84a7a4","ios":"levelo://app?vid=3e49b801-d7f0-470c-a5c1-33b9bb84a7a4"},"vehicle_type_id":"4","last_reported":1731481695,"current_range_meters":35600,"station_id":"ce4bh092rcd13ifvqd20","pricing_plan_id":"cebpf4jnsgd1na2vs0mg"},{"bike_id":"5427ec44-65b5-4156-9be1-ec87130aec0f","system_id":"levelo_inurba_marseille","lat":43.337444,"lon":5.374475,"is_reserved":false,"is_disabled":false,"rental_uris":{"android":"levelo://app?vid=5427ec44-65b5-4156-9be1-ec87130aec0f","ios":"levelo://app?vid=5427ec44-65b5-4156-9be1-ec87130aec0f"},"vehicle_type_id":"4","last_reported":1731481695,"current_range_meters":38800,"station_id":"","pricing_plan_id":"cebpf4jnsgd1na2vs0mg"},{"bike_id":"980cc0b7-6d63-47c7-a69e-c12976cfceaf","system_id":"levelo_inurba_marseille","lat":43.33605,"lon":5.41033,"is_reserved":false,"is_disabled":false,"rental_uris":{"android":"levelo://app?vid=980cc0b7-6d63-47c7-a69e-c12976cfceaf","ios":"levelo://app?vid=980cc0b7-6d63-47c7-a69e-c12976cfceaf"},"vehicle_type_id":"4","last_reported":1731481695,"current_range_meters":11600,"station_id":"ce4bhqh2rcd13ifvqhmg","pricing_plan_id":"cebpf4jnsgd1na2vs0mg"},{"bike_id":"f5f9dd2d-833e-4fed-8a88-5ec6fce27685","system_id":"levelo_inurba_marseille","lat":43.26941,"lon":5.40254,"is_reserved":false,"is_disabled":false,"rental_uris":{"android":"levelo://app?vid=f5f9dd2d-833e-4fed-8a88-5ec6fce27685","ios":"levelo://app?vid=f5f9dd2d-833e-4fed-8a88-5ec6fce27685"},"vehicle_type_id":"4","last_reported":1731481695,"current_range_meters":30800,"station_id":"cjm6bp8fraef2m0cb0m0","pricing_plan_id":"cebpf4jnsgd1na2vs0mg"},{"bike_id":"12b3eb50-1594-4055-b996-915903b516ec","system_id":"levelo_inurba_marseille","lat":43.29799,"lon":5.38082,"is_reserved":false,"is_disabled":false,"rental_uris":{"android":"levelo://app?vid=12b3eb50-1594-4055-b996-915903b516ec","ios":"levelo://app?vid=12b3eb50-1594-4055-b996-915903b516ec"},"vehicle_type_id":"4","last_reported":1731481695,"current_range_meters":38800,"station_id":"ce4bgip2rcd13ifvqbb0","pricing_plan_id":"cebpf4jnsgd1na2vs0mg"},{"bike_id":"f21f2ec8-1191-425e-bd45-2a5bc0dad75e","system_id":"levelo_inurba_marseille","lat":43.30143,"lon":5.38088,"is_reserved":false,"is_disabled":false,"rental_uris":{"android":"levelo://app?vid=f21f2ec8-1191-425e-bd45-2a5bc0dad75e","ios":"levelo://app?vid=f21f2ec8-1191-425e-bd45-2a5bc0dad75e"},"vehicle_type_id":"4","last_reported":1731481695,"current_range_meters":34800,"station_id":"ce4bgj12rcd13ifvqbc0","pricing_plan_id":"cebpf4jnsgd1na2vs0mg"},{"bike_id":"2a4fc644-c2fa-475e-be6d-04f8e1ca910a","system_id":"levelo_inurba_marseille","lat":43.26937,"lon":5.40256,"is_reserved":false,"is_disabled":false,"rental_uris":{"android":"levelo://app?vid=2a4fc644-c2fa-475e-be6d-04f8e1ca910a","ios":"levelo://app?vid=2a4fc644-c2fa-475e-be6d-04f8e1ca910a"},"vehicle_type_id":"4","last_reported":1731481695,"current_range_meters":33600,"station_id":"cjm6bp8fraef2m0cb0m0","pricing_plan_id":"cebpf4jnsgd1na2vs0mg"},{"bike_id":"d177b05d-4d98-41d9-afc1-f7474fca66ea","system_id":"levelo_inurba_marseille","lat":43.32104,"lon":5.36773,"is_reserved":false,"is_disabled":false,"rental_uris":{"android":"levelo://app?vid=d177b05d-4d98-41d9-afc1-f7474fca66ea","ios":"levelo://app?vid=d177b05d-4d98-41d9-afc1-f7474fca66ea"},"vehicle_type_id":"4","last_reported":1731481695,"current_range_meters":18000,"station_id":"ce4bhrh2rcd13ifvqhug","pricing_plan_id":"cebpf4jnsgd1na2vs0mg"},{"bike_id":"b6575f9e-0cc7-4174-9aea-316710c69ea7","system_id":"levelo_inurba_marseille","lat":43.23879,"lon":5.37103,"is_reserved":false,"is_disabled":false,"rental_uris":{"android":"levelo://app?vid=b6575f9e-0cc7-4174-9aea-316710c69ea7","ios":"levelo://app?vid=b6575f9e-0cc7-4174-9aea-316710c69ea7"},"vehicle_type_id":"4","last_reported":1731481695,"current_range_meters":26800,"station_id":"","pricing_plan_id":"cebpf4jnsgd1na2vs0mg"},{"bike_id":"ba2c624b-6b7c-497e-9be9-e469dfd8d0f1","system_id":"levelo_inurba_marseille","lat":43.28848,"lon":5.35845,"is_reserved":false,"is_disabled":false,"rental_uris":{"android":"levelo://app?vid=ba2c624b-6b7c-497e-9be9-e469dfd8d0f1","ios":"levelo://app?vid=ba2c624b-6b7c-497e-9be9-e469dfd8d0f1"},"vehicle_type_id":"4","last_reported":1731481695,"current_range_meters":35200,"station_id":"ce4bhb12rcd13ifvqem0","pricing_plan_id":"cebpf4jnsgd1na2vs0mg"},{"bike_id":"f56ff641-dcdc-4be0-8bb0-c2e77410c782","system_id":"levelo_inurba_marseille","lat":43.33609,"lon":5.41034,"is_reserved":false,"is_disabled":false,"rental_uris":{"android":"levelo://app?vid=f56ff641-dcdc-4be0-8bb0-c2e77410c782","ios":"levelo://app?vid=f56ff641-dcdc-4be0-8bb0-c2e77410c782"},"vehicle_type_id":"4","last_reported":1731481695,"current_range_meters":38800,"station_id":"ce4bhqh2rcd13ifvqhmg","pricing_plan_id":"cebpf4jnsgd1na2vs0mg"},{"bike_id":"c3c14c12-7734-406b-803f-dbe7a7fb811d","system_id":"levelo_inurba_marseille","lat":43.33604,"lon":5.41024,"is_reserved":false,"is_disabled":false,"rental_uris":{"android":"levelo://app?vid=c3c14c12-7734-406b-803f-dbe7a7fb811d","ios":"levelo://app?vid=c3c14c12-7734-406b-803f-dbe7a7fb811d"},"vehicle_type_id":"4","last_reported":1731481695,"current_range_meters":38400,"station_id":"ce4bhqh2rcd13ifvqhmg","pricing_plan_id":"cebpf4jnsgd1na2vs0mg"},{"bike_id":"10e85638-ccaf-46f4-88d8-c4a1643921de","system_id":"levelo_inurba_marseille","lat":43.31476,"lon":5.37307,"is_reserved":false,"is_disabled":false,"rental_uris":{"android":"levelo://app?vid=10e85638-ccaf-46f4-88d8-c4a1643921de","ios":"levelo://app?vid=10e85638-ccaf-46f4-88d8-c4a1643921de"},"vehicle_type_id":"4","last_reported":1731481695,"current_range_meters":26800,"station_id":"ce4bgt12rcd13ifvqcd0","pricing_plan_id":"cebpf4jnsgd1na2vs0mg"},{"bike_id":"ee290a5e-b5af-429d-8d30-f4160f86321a","system_id":"levelo_inurba_marseille","lat":43.25818,"lon":5.39443,"is_reserved":false,"is_disabled":false,"rental_uris":{"android":"levelo://app?vid=ee290a5e-b5af-429d-8d30-f4160f86321a","ios":"levelo://app?vid=ee290a5e-b5af-429d-8d30-f4160f86321a"},"vehicle_type_id":"4","last_reported":1731481695,"current_range_meters":4400,"station_id":"ce4bhip2rcd13ifvqft0","pricing_plan_id":"cebpf4jnsgd1na2vs0mg"},{"bike_id":"04a7f333-455a-428b-be07-056877962430","system_id":"levelo_inurba_marseille","lat":43.30463,"lon":5.37897,"is_reserved":false,"is_disabled":false,"rental_uris":{"android":"levelo://app?vid=04a7f333-455a-428b-be07-056877962430","ios":"levelo://app?vid=04a7f333-455a-428b-be07-056877962430"},"vehicle_type_id":"4","last_reported":1731481695,"current_range_meters":17200,"station_id":"ce4bgup2rcd13ifvqcn0","pricing_plan_id":"cebpf4jnsgd1na2vs0mg"},{"bike_id":"c041a2d9-6de7-4f01-a9ca-65bf10f90146","system_id":"levelo_inurba_marseille","lat":43.27936,"lon":5.41044,"is_reserved":false,"is_disabled":false,"rental_uris":{"android":"levelo://app?vid=c041a2d9-6de7-4f01-a9ca-65bf10f90146","ios":"levelo://app?vid=c041a2d9-6de7-4f01-a9ca-65bf10f90146"},"vehicle_type_id":"4","last_reported":1731481695,"current_range_meters":30800,"station_id":"ce4bhnp2rcd13ifvqh0g","pricing_plan_id":"cebpf4jnsgd1na2vs0mg"},{"bike_id":"d9a7914a-afd4-488a-92f6-e251160cff66","system_id":"levelo_inurba_marseille","lat":43.2841,"lon":5.35,"is_reserved":false,"is_disabled":false,"rental_uris":{"android":"levelo://app?vid=d9a7914a-afd4-488a-92f6-e251160cff66","ios":"levelo://app?vid=d9a7914a-afd4-488a-92f6-e251160cff66"},"vehicle_type_id":"4","last_reported":1731481695,"current_range_meters":38000,"station_id":"ce4bhbh2rcd13ifvqepg","pricing_plan_id":"cebpf4jnsgd1na2vs0mg"},{"bike_id":"b9b9ca99-abc1-4d74-b34d-2422c7c3d10f","system_id":"levelo_inurba_marseille","lat":43.32359,"lon":5.36752,"is_reserved":false,"is_disabled":false,"rental_uris":{"android":"levelo://app?vid=b9b9ca99-abc1-4d74-b34d-2422c7c3d10f","ios":"levelo://app?vid=b9b9ca99-abc1-4d74-b34d-2422c7c3d10f"},"vehicle_type_id":"4","last_reported":1731481695,"current_range_meters":36400,"station_id":"ce4bhsh2rcd13ifvqi2g","pricing_plan_id":"cebpf4jnsgd1na2vs0mg"},{"bike_id":"bb943ec9-f424-4aa6-afdf-6757b42e622b","system_id":"levelo_inurba_marseille","lat":43.2885,"lon":5.35847,"is_reserved":false,"is_disabled":false,"rental_uris":{"android":"levelo://app?vid=bb943ec9-f424-4aa6-afdf-6757b42e622b","ios":"levelo://app?vid=bb943ec9-f424-4aa6-afdf-6757b42e622b"},"vehicle_type_id":"4","last_reported":1731481695,"current_range_meters":36800,"station_id":"ce4bhb12rcd13ifvqem0","pricing_plan_id":"cebpf4jnsgd1na2vs0mg"},{"bike_id":"6d3b1123-27e9-4bee-a251-1e4169c6f5db","system_id":"levelo_inurba_marseille","lat":43.29203,"lon":5.39329,"is_reserved":false,"is_disabled":false,"rental_uris":{"android":"levelo://app?vid=6d3b1123-27e9-4bee-a251-1e4169c6f5db","ios":"levelo://app?vid=6d3b1123-27e9-4bee-a251-1e4169c6f5db"},"vehicle_type_id":"4","last_reported":1731481695,"current_range_meters":19600,"station_id":"ce4bh192rcd13ifvqdd0","pricing_plan_id":"cebpf4jnsgd1na2vs0mg"},{"bike_id":"b09d769e-a5a5-41f4-a176-4c51134ce01b","system_id":"levelo_inurba_marseille","lat":43.27813,"lon":5.40712,"is_reserved":false,"is_disabled":false,"rental_uris":{"android":"levelo://app?vid=b09d769e-a5a5-41f4-a176-4c51134ce01b","ios":"levelo://app?vid=b09d769e-a5a5-41f4-a176-4c51134ce01b"},"vehicle_type_id":"4","last_reported":1731481695,"current_range_meters":12400,"station_id":"ce4bhnh2rcd13ifvqgtg","pricing_plan_id":"cebpf4jnsgd1na2vs0mg"},{"bike_id":"5653143c-7795-4496-a306-0206def06575","system_id":"levelo_inurba_marseille","lat":43.30466,"lon":5.37907,"is_reserved":false,"is_disabled":false,"rental_uris":{"android":"levelo://app?vid=5653143c-7795-4496-a306-0206def06575","ios":"levelo://app?vid=5653143c-7795-4496-a306-0206def06575"},"vehicle_type_id":"4","last_reported":1731481695,"current_range_meters":40000,"station_id":"ce4bgup2rcd13ifvqcn0","pricing_plan_id":"cebpf4jnsgd1na2vs0mg"},{"bike_id":"19eb061c-1c69-418a-8b6e-326d8a292d25","system_id":"levelo_inurba_marseille","lat":43.32366,"lon":5.38882,"is_reserved":false,"is_disabled":false,"rental_uris":{"android":"levelo://app?vid=19eb061c-1c69-418a-8b6e-326d8a292d25","ios":"levelo://app?vid=19eb061c-1c69-418a-8b6e-326d8a292d25"},"vehicle_type_id":"4","last_reported":1731481695,"current_range_meters":20800,"station_id":"ce4bhqp2rcd13ifvqhog","pricing_plan_id":"cebpf4jnsgd1na2vs0mg"},{"bike_id":"857cf3b8-a499-4f71-a4af-951511031286","system_id":"levelo_inurba_marseille","lat":43.324836,"lon":5.365728,"is_reserved":false,"is_disabled":false,"rental_uris":{"android":"levelo://app?vid=857cf3b8-a499-4f71-a4af-951511031286","ios":"levelo://app?vid=857cf3b8-a499-4f71-a4af-951511031286"},"vehicle_type_id":"4","last_reported":1731481695,"current_range_meters":38400,"station_id":"ce4bhs12rcd13ifvqhvg","pricing_plan_id":"cebpf4jnsgd1na2vs0mg"},{"bike_id":"99c94a18-8c00-453e-8f2a-8754790a8d83","system_id":"levelo_inurba_marseille","lat":43.28966,"lon":5.3784,"is_reserved":false,"is_disabled":false,"rental_uris":{"android":"levelo://app?vid=99c94a18-8c00-453e-8f2a-8754790a8d83","ios":"levelo://app?vid=99c94a18-8c00-453e-8f2a-8754790a8d83"},"vehicle_type_id":"4","last_reported":1731481695,"current_range_meters":27200,"station_id":"ce4bh9p2rcd13ifvqed0","pricing_plan_id":"cebpf4jnsgd1na2vs0mg"},{"bike_id":"75e7d758-1860-44a0-9332-5075b91df779","system_id":"levelo_inurba_marseille","lat":43.25006,"lon":5.38918,"is_reserved":false,"is_disabled":false,"rental_uris":{"android":"levelo://app?vid=75e7d758-1860-44a0-9332-5075b91df779","ios":"levelo://app?vid=75e7d758-1860-44a0-9332-5075b91df779"},"vehicle_type_id":"4","last_reported":1731481695,"current_range_meters":18000,"station_id":"ce4bhgp2rcd13ifvqfd0","pricing_plan_id":"cebpf4jnsgd1na2vs0mg"},{"bike_id":"29bc8fd3-69d5-451a-b6bb-0ed117f98b57","system_id":"levelo_inurba_marseille","lat":43.2873,"lon":5.36079,"is_reserved":false,"is_disabled":false,"rental_uris":{"android":"levelo://app?vid=29bc8fd3-69d5-451a-b6bb-0ed117f98b57","ios":"levelo://app?vid=29bc8fd3-69d5-451a-b6bb-0ed117f98b57"},"vehicle_type_id":"4","last_reported":1731481695,"current_range_meters":38800,"station_id":"cki0cbj6b192h4jlfktg","pricing_plan_id":"cebpf4jnsgd1na2vs0mg"},{"bike_id":"2baa5d60-52b4-47b5-9521-77790ea643fc","system_id":"levelo_inurba_marseille","lat":43.28607,"lon":5.37068,"is_reserved":false,"is_disabled":false,"rental_uris":{"android":"levelo://app?vid=2baa5d60-52b4-47b5-9521-77790ea643fc","ios":"levelo://app?vid=2baa5d60-52b4-47b5-9521-77790ea643fc"},"vehicle_type_id":"4","last_reported":1731481695,"current_range_meters":38800,"station_id":"ce4bht12rcd13ifvqi60","pricing_plan_id":"cebpf4jnsgd1na2vs0mg"},{"bike_id":"a40ab301-8ddd-4f04-9cb5-a3680dca71fd","system_id":"levelo_inurba_marseille","lat":43.27209,"lon":5.39173,"is_reserved":false,"is_disabled":false,"rental_uris":{"android":"levelo://app?vid=a40ab301-8ddd-4f04-9cb5-a3680dca71fd","ios":"levelo://app?vid=a40ab301-8ddd-4f04-9cb5-a3680dca71fd"},"vehicle_type_id":"4","last_reported":1731481695,"current_range_meters":24800,"station_id":"ce4bhhp2rcd13ifvqfm0","pricing_plan_id":"cebpf4jnsgd1na2vs0mg"},{"bike_id":"b55dc52d-f7d7-497c-8d2a-02d4da81ff5f","system_id":"levelo_inurba_marseille","lat":43.24803,"lon":5.37451,"is_reserved":false,"is_disabled":false,"rental_uris":{"android":"levelo://app?vid=b55dc52d-f7d7-497c-8d2a-02d4da81ff5f","ios":"levelo://app?vid=b55dc52d-f7d7-497c-8d2a-02d4da81ff5f"},"vehicle_type_id":"4","last_reported":1731481695,"current_range_meters":8400,"station_id":"ce4bhgh2rcd13ifvqfb0","pricing_plan_id":"cebpf4jnsgd1na2vs0mg"},{"bike_id":"dbfc9bd4-d0c7-424f-be0f-2d2d97838d4c","system_id":"levelo_inurba_marseille","lat":43.270713,"lon":5.422747,"is_reserved":false,"is_disabled":false,"rental_uris":{"android":"levelo://app?vid=dbfc9bd4-d0c7-424f-be0f-2d2d97838d4c","ios":"levelo://app?vid=dbfc9bd4-d0c7-424f-be0f-2d2d97838d4c"},"vehicle_type_id":"4","last_reported":1731481695,"current_range_meters":25600,"station_id":"ce4bhk92rcd13ifvqgb0","pricing_plan_id":"cebpf4jnsgd1na2vs0mg"},{"bike_id":"c8f2f082-1114-4e20-9a09-fb4105dcf7d6","system_id":"levelo_inurba_marseille","lat":43.25583,"lon":5.38229,"is_reserved":false,"is_disabled":false,"rental_uris":{"android":"levelo://app?vid=c8f2f082-1114-4e20-9a09-fb4105dcf7d6","ios":"levelo://app?vid=c8f2f082-1114-4e20-9a09-fb4105dcf7d6"},"vehicle_type_id":"4","last_reported":1731481695,"current_range_meters":33600,"station_id":"ce4bhih2rcd13ifvqfs0","pricing_plan_id":"cebpf4jnsgd1na2vs0mg"},{"bike_id":"b4e16d73-4b37-4a46-acf9-21b40e6ca387","system_id":"levelo_inurba_marseille","lat":43.27382,"lon":5.36252,"is_reserved":false,"is_disabled":false,"rental_uris":{"android":"levelo://app?vid=b4e16d73-4b37-4a46-acf9-21b40e6ca387","ios":"levelo://app?vid=b4e16d73-4b37-4a46-acf9-21b40e6ca387"},"vehicle_type_id":"4","last_reported":1731481695,"current_range_meters":36800,"station_id":"ce4bhbh2rcd13ifvqeo0","pricing_plan_id":"cebpf4jnsgd1na2vs0mg"},{"bike_id":"0e313544-e805-48d9-bdbf-3a91a91ababc","system_id":"levelo_inurba_marseille","lat":43.337444,"lon":5.374475,"is_reserved":false,"is_disabled":false,"rental_uris":{"android":"levelo://app?vid=0e313544-e805-48d9-bdbf-3a91a91ababc","ios":"levelo://app?vid=0e313544-e805-48d9-bdbf-3a91a91ababc"},"vehicle_type_id":"4","last_reported":1731481695,"current_range_meters":34800,"station_id":"","pricing_plan_id":"cebpf4jnsgd1na2vs0mg"},{"bike_id":"eea051f7-93f3-4223-9f06-728dbb41a659","system_id":"levelo_inurba_marseille","lat":43.30305,"lon":5.39206,"is_reserved":false,"is_disabled":false,"rental_uris":{"android":"levelo://app?vid=eea051f7-93f3-4223-9f06-728dbb41a659","ios":"levelo://app?vid=eea051f7-93f3-4223-9f06-728dbb41a659"},"vehicle_type_id":"4","last_reported":1731481695,"current_range_meters":38800,"station_id":"ce4bgkh2rcd13ifvqbk0","pricing_plan_id":"cebpf4jnsgd1na2vs0mg"},{"bike_id":"f6edf606-16d2-423e-bed1-ba33d150bbe6","system_id":"levelo_inurba_marseille","lat":43.32284,"lon":5.38257,"is_reserved":false,"is_disabled":false,"rental_uris":{"android":"levelo://app?vid=f6edf606-16d2-423e-bed1-ba33d150bbe6","ios":"levelo://app?vid=f6edf606-16d2-423e-bed1-ba33d150bbe6"},"vehicle_type_id":"4","last_reported":1731481695,"current_range_meters":40000,"station_id":"ce4bhr12rcd13ifvqhqg","pricing_plan_id":"cebpf4jnsgd1na2vs0mg"},{"bike_id":"c61d13bb-6c58-488d-b5ad-0b2d6e509eea","system_id":"levelo_inurba_marseille","lat":43.29415,"lon":5.3863,"is_reserved":false,"is_disabled":false,"rental_uris":{"android":"levelo://app?vid=c61d13bb-6c58-488d-b5ad-0b2d6e509eea","ios":"levelo://app?vid=c61d13bb-6c58-488d-b5ad-0b2d6e509eea"},"vehicle_type_id":"4","last_reported":1731481695,"current_range_meters":8400,"station_id":"ce4bh2h2rcd13ifvqdh0","pricing_plan_id":"cebpf4jnsgd1na2vs0mg"},{"bike_id":"f98925dd-1c75-4cf7-9f8c-85f36cc5f766","system_id":"levelo_inurba_marseille","lat":43.28856,"lon":5.35845,"is_reserved":false,"is_disabled":false,"rental_uris":{"android":"levelo://app?vid=f98925dd-1c75-4cf7-9f8c-85f36cc5f766","ios":"levelo://app?vid=f98925dd-1c75-4cf7-9f8c-85f36cc5f766"},"vehicle_type_id":"4","last_reported":1731481695,"current_range_meters":35600,"station_id":"ce4bhb12rcd13ifvqem0","pricing_plan_id":"cebpf4jnsgd1na2vs0mg"},{"bike_id":"e00bcd7f-d0a9-45b7-8d09-790cc6e0a77d","system_id":"levelo_inurba_marseille","lat":43.2657,"lon":5.39012,"is_reserved":false,"is_disabled":false,"rental_uris":{"android":"levelo://app?vid=e00bcd7f-d0a9-45b7-8d09-790cc6e0a77d","ios":"levelo://app?vid=e00bcd7f-d0a9-45b7-8d09-790cc6e0a77d"},"vehicle_type_id":"4","last_reported":1731481695,"current_range_meters":5600,"station_id":"ce4bhe12rcd13ifvqf30","pricing_plan_id":"cebpf4jnsgd1na2vs0mg"},{"bike_id":"d6de5ebe-2e56-42a1-aeb0-61eda615ea62","system_id":"levelo_inurba_marseille","lat":43.29143,"lon":5.40344,"is_reserved":false,"is_disabled":false,"rental_uris":{"android":"levelo://app?vid=d6de5ebe-2e56-42a1-aeb0-61eda615ea62","ios":"levelo://app?vid=d6de5ebe-2e56-42a1-aeb0-61eda615ea62"},"vehicle_type_id":"4","last_reported":1731481695,"current_range_meters":22800,"station_id":"","pricing_plan_id":"cebpf4jnsgd1na2vs0mg"},{"bike_id":"31b94b93-dd2c-4506-8440-82d10d6bb2ed","system_id":"levelo_inurba_marseille","lat":43.33,"lon":5.39051,"is_reserved":false,"is_disabled":false,"rental_uris":{"android":"levelo://app?vid=31b94b93-dd2c-4506-8440-82d10d6bb2ed","ios":"levelo://app?vid=31b94b93-dd2c-4506-8440-82d10d6bb2ed"},"vehicle_type_id":"4","last_reported":1731481695,"current_range_meters":37600,"station_id":"ce4bhr92rcd13ifvqhrg","pricing_plan_id":"cebpf4jnsgd1na2vs0mg"},{"bike_id":"6dd3ef3a-7b7b-4d09-ba67-d70c01d05634","system_id":"levelo_inurba_marseille","lat":43.34187,"lon":5.38607,"is_reserved":false,"is_disabled":false,"rental_uris":{"android":"levelo://app?vid=6dd3ef3a-7b7b-4d09-ba67-d70c01d05634","ios":"levelo://app?vid=6dd3ef3a-7b7b-4d09-ba67-d70c01d05634"},"vehicle_type_id":"4","last_reported":1731481695,"current_range_meters":5600,"station_id":"","pricing_plan_id":"cebpf4jnsgd1na2vs0mg"},{"bike_id":"6616d280-3bfb-4a9a-b235-97340e4ef268","system_id":"levelo_inurba_marseille","lat":43.24073,"lon":5.37763,"is_reserved":false,"is_disabled":false,"rental_uris":{"android":"levelo://app?vid=6616d280-3bfb-4a9a-b235-97340e4ef268","ios":"levelo://app?vid=6616d280-3bfb-4a9a-b235-97340e4ef268"},"vehicle_type_id":"4","last_reported":1731481695,"current_range_meters":33600,"station_id":"ce4bhnp2rcd13ifvqgvg","pricing_plan_id":"cebpf4jnsgd1na2vs0mg"},{"bike_id":"787ce393-d5b8-47a1-bf32-621e3c2e5ed7","system_id":"levelo_inurba_marseille","lat":43.31888,"lon":5.40738,"is_reserved":false,"is_disabled":false,"rental_uris":{"android":"levelo://app?vid=787ce393-d5b8-47a1-bf32-621e3c2e5ed7","ios":"levelo://app?vid=787ce393-d5b8-47a1-bf32-621e3c2e5ed7"},"vehicle_type_id":"4","last_reported":1731481695,"current_range_meters":39200,"station_id":"ce4bhq12rcd13ifvqhig","pricing_plan_id":"cebpf4jnsgd1na2vs0mg"},