{"last_updated":1705349257,"ttl":30,"version":"2.2","data":{"bikes":[{"bike_id":"5732d2da-d87e-4f92-a1eb-11d97d0aeca0","system_id":"levelo_inurba_marseille","lat":43.31338,"lon":5.36711,"is_reserved":false,"is_disabled":false,"rental_uris":{"android":"levelo://app?vid=5732d2da-d87e-4f92-a1eb-11d97d0aeca0","ios":"levelo://app?vid=5732d2da-d87e-4f92-a1eb-11d97d0aeca0"},"vehicle_type_id":"4","last_reported":1705349257,"current_range_meters":29600,"station_id":"ce4bgr92rcd13ifvqc6g","pricing_plan_id":"free"},{"bike_id":"9e8ddb42-a842-45a7-97ff-e64a439e5b4b","system_id":"levelo_inurba_marseille","lat":43.312239,"lon":5.368562,"is_reserved":false,"is_disabled":false,"rental_uris":{"android":"levelo://app?vid=9e8ddb42-a842-45a7-97ff-e64a439e5b4b","ios":"levelo://app?vid=9e8ddb42-a842-45a7-97ff-e64a439e5b4b"},"vehicle_type_id":"4","last_reported":1705349257,"current_range_meters":25200,"station_id":"ce4bgl92rcd13ifvqbq0","pricing_plan_id":"free"},{"bike_id":"bb7c9d19-1eaf-47ba-80cf-b57ac586d4cf","system_id":"levelo_inurba_marseille","lat":43.314811,"lon":5.373103,"is_reserved":false,"is_disabled":false,"rental_uris":{"android":"levelo://app?vid=bb7c9d19-1eaf-47ba-80cf-b57ac586d4cf","ios":"levelo://app?vid=bb7c9d19-1eaf-47ba-80cf-b57ac586d4cf"},"vehicle_type_id":"4","last_reported":1705349257,"current_range_meters":0,"station_id":"ce4bgt12rcd13ifvqcd0","pricing_plan_id":"free"},{"bike_id":"40ceeaaa-65bb-4ac6-b67e-e6cc39f36357","system_id":"levelo_inurba_marseille","lat":43.314811,"lon":5.373103,"is_reserved":false,"is_disabled":false,"rental_uris":{"android":"levelo://app?vid=40ceeaaa-65bb-4ac6-b67e-e6cc39f36357","ios":"levelo://app?vid=40ceeaaa-65bb-4ac6-b67e-e6cc39f36357"},"vehicle_type_id":"4","last_reported":1705349257,"current_range_meters":30400,"station_id":"ce4bgt12rcd13ifvqcd0","pricing_plan_id":"free"},{"bike_id":"2751fe63-7b8e-4a23-aa70-8680c00ee2b6","system_id":"levelo_inurba_marseille","lat":43.310226,"lon":5.37316,"is_reserved":false,"is_disabled":false,"rental_uris":{"android":"levelo://app?vid=2751fe63-7b8e-4a23-aa70-8680c00ee2b6","ios":"levelo://app?vid=2751fe63-7b8e-4a23-aa70-8680c00ee2b6"},"vehicle_type_id":"4","last_reported":1705349257,"current_range_meters":6400,"station_id":"","pricing_plan_id":"free"},{"bike_id":"21756fff-cd2e-463c-8244-307e26c40654","system_id":"levelo_inurba_marseille","lat":43.308927,"lon":5.371945,"is_reserved":false,"is_disabled":false,"rental_uris":{"android":"levelo://app?vid=21756fff-cd2e-463c-8244-307e26c40654","ios":"levelo://app?vid=21756fff-cd2e-463c-8244-307e26c40654"},"vehicle_type_id":"4","last_reported":1705349257,"current_range_meters":22400,"station_id":"ce4bguh2rcd13ifvqckg","pricing_plan_id":"free"},{"bike_id":"50413d48-520f-454c-8227-fd38b4d9a7cc","system_id":"levelo_inurba_marseille","lat":43.309034,"lon":5.371783,"is_reserved":false,"is_disabled":false,"rental_uris":{"android":"levelo://app?vid=50413d48-520f-454c-8227-fd38b4d9a7cc","ios":"levelo://app?vid=50413d48-520f-454c-8227-fd38b4d9a7cc"},"vehicle_type_id":"4","last_reported":1705349257,"current_range_meters":18000,"station_id":"ce4bguh2rcd13ifvqckg","pricing_plan_id":"free"},{"bike_id":"ed8d5e5a-f187-4ccd-8dcf-57f34fd6843d","system_id":"levelo_inurba_marseille","lat":43.308015,"lon":5.371989,"is_reserved":false,"is_disabled":false,"rental_uris":{"android":"levelo://app?vid=ed8d5e5a-f187-4ccd-8dcf-57f34fd6843d","ios":"levelo://app?vid=ed8d5e5a-f187-4ccd-8dcf-57f34fd6843d"},"vehicle_type_id":"4","last_reported":1705349257,"current_range_meters":7600,"station_id":"","pricing_plan_id":"free"},{"bike_id":"5f259a1c-ff8e-45db-84da-acfdcb3f67e2","system_id":"levelo_inurba_marseille","lat":43.305452,"lon":5.365386,"is_reserved":false,"is_disabled":false,"rental_uris":{"android":"levelo://app?vid=5f259a1c-ff8e-45db-84da-acfdcb3f67e2","ios":"levelo://app?vid=5f259a1c-ff8e-45db-84da-acfdcb3f67e2"},"vehicle_type_id":"4","last_reported":1705349257,"current_range_meters":0,"station_id":"ce4bgs12rcd13ifvqcag","pricing_plan_id":"free"},{"bike_id":"bf3c1f77-1ee6-44e4-a476-f43fb95fff08","system_id":"levelo_inurba_marseille","lat":43.311131,"lon":5.377651,"is_reserved":false,"is_disabled":false,"rental_uris":{"android":"levelo://app?vid=bf3c1f77-1ee6-44e4-a476-f43fb95fff08","ios":"levelo://app?vid=bf3c1f77-1ee6-44e4-a476-f43fb95fff08"},"vehicle_type_id":"4","last_reported":1705349257,"current_range_meters":14400,"station_id":"ce4bgt92rcd13ifvqcg0","pricing_plan_id":"free"},{"bike_id":"b8fd5143-7dde-41de-bc8b-656b4c59d193","system_id":"levelo_inurba_marseille","lat":43.311131,"lon":5.377651,"is_reserved":false,"is_disabled":false,"rental_uris":{"android":"levelo://app?vid=b8fd5143-7dde-41de-bc8b-656b4c59d193","ios":"levelo://app?vid=b8fd5143-7dde-41de-bc8b-656b4c59d193"},"vehicle_type_id":"4","last_reported":1705349257,"current_range_meters":15600,"station_id":"ce4bgt92rcd13ifvqcg0","pricing_plan_id":"free"},{"bike_id":"f303e4be-f4c8-48f9-9d09-fd1a6862f0ff","system_id":"levelo_inurba_marseille","lat":43.311125,"lon":5.377624,"is_reserved":false,"is_disabled":false,"rental_uris":{"android":"levelo://app?vid=f303e4be-f4c8-48f9-9d09-fd1a6862f0ff","ios":"levelo://app?vid=f303e4be-f4c8-48f9-9d09-fd1a6862f0ff"},"vehicle_type_id":"4","last_reported":1705349257,"current_range_meters":26400,"station_id":"ce4bgt92rcd13ifvqcg0","pricing_plan_id":"free"},{"bike_id":"c2a8d213-2deb-4ed2-84e1-5977105497da","system_id":"levelo_inurba_marseille","lat":43.311131,"lon":5.377651,"is_reserved":false,"is_disabled":false,"rental_uris":{"android":"levelo://app?vid=c2a8d213-2deb-4ed2-84e1-5977105497da","ios":"levelo://app?vid=c2a8d213-2deb-4ed2-84e1-5977105497da"},"vehicle_type_id":"4","last_reported":1705349257,"current_range_meters":14000,"station_id":"ce4bgt92rcd13ifvqcg0","pricing_plan_id":"free"},{"bike_id":"b8137fab-c952-4765-945e-27c9db355e1b","system_id":"levelo_inurba_marseille","lat":43.311131,"lon":5.377651,"is_reserved":false,"is_disabled":false,"rental_uris":{"android":"levelo://app?vid=b8137fab-c952-4765-945e-27c9db355e1b","ios":"levelo://app?vid=b8137fab-c952-4765-945e-27c9db355e1b"},"vehicle_type_id":"4","last_reported":1705349257,"current_range_meters":1600,"station_id":"ce4bgt92rcd13ifvqcg0","pricing_plan_id":"free"},{"bike_id":"d78f4eb5-728f-41d3-84ad-48258279890f","system_id":"levelo_inurba_marseille","lat":43.311125,"lon":5.377624,"is_reserved":false,"is_disabled":false,"rental_uris":{"android":"levelo://app?vid=d78f4eb5-728f-41d3-84ad-48258279890f","ios":"levelo://app?vid=d78f4eb5-728f-41d3-84ad-48258279890f"},"vehicle_type_id":"4","last_reported":1705349257,"current_range_meters":4400,"station_id":"ce4bgt92rcd13ifvqcg0","pricing_plan_id":"free"},{"bike_id":"1b672d6c-f6a6-4f29-997f-8666dcfb9869","system_id":"levelo_inurba_marseille","lat":43.311131,"lon":5.377651,"is_reserved":false,"is_disabled":false,"rental_uris":{"android":"levelo://app?vid=1b672d6c-f6a6-4f29-997f-8666dcfb9869","ios":"levelo://app?vid=1b672d6c-f6a6-4f29-997f-8666dcfb9869"},"vehicle_type_id":"4","last_reported":1705349257,"current_range_meters":20000,"station_id":"ce4bgt92rcd13ifvqcg0","pricing_plan_id":"free"},{"bike_id":"875c9e36-1480-4578-a226-198106770eca","system_id":"levelo_inurba_marseille","lat":43.307945,"lon":5.376487,"is_reserved":false,"is_disabled":false,"rental_uris":{"android":"levelo://app?vid=875c9e36-1480-4578-a226-198106770eca","ios":"levelo://app?vid=875c9e36-1480-4578-a226-198106770eca"},"vehicle_type_id":"4","last_reported":1705349257,"current_range_meters":3600,"station_id":"ce4bgv92rcd13ifvqcq0","pricing_plan_id":"free"},{"bike_id":"34edddfe-4c51-4041-87ca-fe808506a407","system_id":"levelo_inurba_marseille","lat":43.317075,"lon":5.377367,"is_reserved":false,"is_disabled":false,"rental_uris":{"android":"levelo://app?vid=34edddfe-4c51-4041-87ca-fe808506a407","ios":"levelo://app?vid=34edddfe-4c51-4041-87ca-fe808506a407"},"vehicle_type_id":"4","last_reported":1705349257,"current_range_meters":19200,"station_id":"ce4bgth2rcd13ifvqch0","pricing_plan_id":"free"},{"bike_id":"0ec4ad67-6df0-4359-afa7-9ffecaec4e5d","system_id":"levelo_inurba_marseille","lat":43.317075,"lon":5.377367,"is_reserved":false,"is_disabled":false,"rental_uris":{"android":"levelo://app?vid=0ec4ad67-6df0-4359-afa7-9ffecaec4e5d","ios":"levelo://app?vid=0ec4ad67-6df0-4359-afa7-9ffecaec4e5d"},"vehicle_type_id":"4","last_reported":1705349257,"current_range_meters":23200,"station_id":"ce4bgth2rcd13ifvqch0","pricing_plan_id":"free"},{"bike_id":"0dd39c9d-7d35-402d-af38-fecf93e4f69d","system_id":"levelo_inurba_marseille","lat":43.303046,"lon":5.368981,"is_reserved":false,"is_disabled":false,"rental_uris":{"android":"levelo://app?vid=0dd39c9d-7d35-402d-af38-fecf93e4f69d","ios":"levelo://app?vid=0dd39c9d-7d35-402d-af38-fecf93e4f69d"},"vehicle_type_id":"4","last_reported":1705349257,"current_range_meters":19200,"station_id":"ce4bgqh2rcd13ifvqc5g","pricing_plan_id":"free"},{"bike_id":"c1834a6c-6105-4762-9bbf-591d747c8325","system_id":"levelo_inurba_marseille","lat":43.301939,"lon":5.366286,"is_reserved":false,"is_disabled":false,"rental_uris":{"android":"levelo://app?vid=c1834a6c-6105-4762-9bbf-591d747c8325","ios":"levelo://app?vid=c1834a6c-6105-4762-9bbf-591d747c8325"},"vehicle_type_id":"4","last_reported":1705349257,"current_range_meters":18000,"station_id":"ce4bgrh2rcd13ifvqc8g","pricing_plan_id":"free"},{"bike_id":"b8f13088-6ce7-49e4-b05d-99fca57d6320","system_id":"levelo_inurba_marseille","lat":43.308012,"lon":5.381511,"is_reserved":false,"is_disabled":false,"rental_uris":{"android":"levelo://app?vid=b8f13088-6ce7-49e4-b05d-99fca57d6320","ios":"levelo://app?vid=b8f13088-6ce7-49e4-b05d-99fca57d6320"},"vehicle_type_id":"4","last_reported":1705349257,"current_range_meters":26400,"station_id":"ce4bgt12rcd13ifvqce0","pricing_plan_id":"free"},{"bike_id":"9b97f7bc-9947-407f-9397-4939e5bc8214","system_id":"levelo_inurba_marseille","lat":43.308012,"lon":5.381511,"is_reserved":false,"is_disabled":false,"rental_uris":{"android":"levelo://app?vid=9b97f7bc-9947-407f-9397-4939e5bc8214","ios":"levelo://app?vid=9b97f7bc-9947-407f-9397-4939e5bc8214"},"vehicle_type_id":"4","last_reported":1705349257,"current_range_meters":24400,"station_id":"ce4bgt12rcd13ifvqce0","pricing_plan_id":"free"},{"bike_id":"088c399d-5641-406e-8c82-8d42886fab70","system_id":"levelo_inurba_marseille","lat":43.30803,"lon":5.38163,"is_reserved":false,"is_disabled":false,"rental_uris":{"android":"levelo://app?vid=088c399d-5641-406e-8c82-8d42886fab70","ios":"levelo://app?vid=088c399d-5641-406e-8c82-8d42886fab70"},"vehicle_type_id":"4","last_reported":1705349257,"current_range_meters":10000,"station_id":"ce4bgt12rcd13ifvqce0","pricing_plan_id":"free"},{"bike_id":"e9ded37b-ce73-4066-924c-ae33cc91566a","system_id":"levelo_inurba_marseille","lat":43.304606,"lon":5.379026,"is_reserved":false,"is_disabled":false,"rental_uris":{"android":"levelo://app?vid=e9ded37b-ce73-4066-924c-ae33cc91566a","ios":"levelo://app?vid=e9ded37b-ce73-4066-924c-ae33cc91566a"},"vehicle_type_id":"4","last_reported":1705349257,"current_range_meters":30800,"station_id":"ce4bgup2rcd13ifvqcn0","pricing_plan_id":"free"},{"bike_id":"d1977ba5-bc88-49b3-b854-d8091135ca8c","system_id":"levelo_inurba_marseille","lat":43.304606,"lon":5.379026,"is_reserved":false,"is_disabled":false,"rental_uris":{"android":"levelo://app?vid=d1977ba5-bc88-49b3-b854-d8091135ca8c","ios":"levelo://app?vid=d1977ba5-bc88-49b3-b854-d8091135ca8c"},"vehicle_type_id":"4","last_reported":1705349257,"current_range_meters":28800,"station_id":"ce4bgup2rcd13ifvqcn0","pricing_plan_id":"free"},{"bike_id":"612ae7b5-e9ab-4670-9344-cecda6bd2396","system_id":"levelo_inurba_marseille","lat":43.304606,"lon":5.379026,"is_reserved":false,"is_disabled":false,"rental_uris":{"android":"levelo://app?vid=612ae7b5-e9ab-4670-9344-cecda6bd2396","ios":"levelo://app?vid=612ae7b5-e9ab-4670-9344-cecda6bd2396"},"vehicle_type_id":"4","last_reported":1705349257,"current_range_meters":29200,"station_id":"ce4bgup2rcd13ifvqcn0","pricing_plan_id":"free"},{"bike_id":"11addbc3-d2e7-4f13-be54-8ae780b24de7","system_id":"levelo_inurba_marseille","lat":43.304606,"lon":5.379026,"is_reserved":false,"is_disabled":false,"rental_uris":{"android":"levelo://app?vid=11addbc3-d2e7-4f13-be54-8ae780b24de7","ios":"levelo://app?vid=11addbc3-d2e7-4f13-be54-8ae780b24de7"},"vehicle_type_id":"4","last_reported":1705349257,"current_range_meters":28800,"station_id":"ce4bgup2rcd13ifvqcn0","pricing_plan_id":"free"},{"bike_id":"30d84132-eebb-40da-90eb-0ff06a92dd7f","system_id":"levelo_inurba_marseille","lat":43.304651,"lon":5.37907,"is_reserved":false,"is_disabled":false,"rental_uris":{"android":"levelo://app?vid=30d84132-eebb-40da-90eb-0ff06a92dd7f","ios":"levelo://app?vid=30d84132-eebb-40da-90eb-0ff06a92dd7f"},"vehicle_type_id":"4","last_reported":1705349257,"current_range_meters":28800,"station_id":"ce4bgup2rcd13ifvqcn0","pricing_plan_id":"free"},{"bike_id":"2b637317-1ed3-42be-aa3e-3fe60b217002","system_id":"levelo_inurba_marseille","lat":43.304606,"lon":5.379026,"is_reserved":false,"is_disabled":false,"rental_uris":{"android":"levelo://app?vid=2b637317-1ed3-42be-aa3e-3fe60b217002","ios":"levelo://app?vid=2b637317-1ed3-42be-aa3e-3fe60b217002"},"vehicle_type_id":"4","last_reported":1705349257,"current_range_meters":29200,"station_id":"ce4bgup2rcd13ifvqcn0","pricing_plan_id":"free"},{"bike_id":"abc4596e-6f29-430a-afbe-1666c0e08697","system_id":"levelo_inurba_marseille","lat":43.304606,"lon":5.379026,"is_reserved":false,"is_disabled":false,"rental_uris":{"android":"levelo://app?vid=abc4596e-6f29-430a-afbe-1666c0e08697","ios":"levelo://app?vid=abc4596e-6f29-430a-afbe-1666c0e08697"},"vehicle_type_id":"4","last_reported":1705349257,"current_range_meters":14000,"station_id":"ce4bgup2rcd13ifvqcn0","pricing_plan_id":"free"},{"bike_id":"d025cde4-a6a9-4624-bf8c-525492a77e27","system_id":"levelo_inurba_marseille","lat":43.304606,"lon":5.379026,"is_reserved":false,"is_disabled":false,"rental_uris":{"android":"levelo://app?vid=d025cde4-a6a9-4624-bf8c-525492a77e27","ios":"levelo://app?vid=d025cde4-a6a9-4624-bf8c-525492a77e27"},"vehicle_type_id":"4","last_reported":1705349257,"current_range_meters":17600,"station_id":"ce4bgup2rcd13ifvqcn0","pricing_plan_id":"free"},{"bike_id":"d6744d23-e10b-4b1b-8865-e7f6411e7fdf","system_id":"levelo_inurba_marseille","lat":43.304606,"lon":5.379026,"is_reserved":false,"is_disabled":false,"rental_uris":{"android":"levelo://app?vid=d6744d23-e10b-4b1b-8865-e7f6411e7fdf","ios":"levelo://app?vid=d6744d23-e10b-4b1b-8865-e7f6411e7fdf"},"vehicle_type_id":"4","last_reported":1705349257,"current_range_meters":30000,"station_id":"ce4bgup2rcd13ifvqcn0","pricing_plan_id":"free"},{"bike_id":"64e2a5b3-8878-4968-9b87-cedaad47904e","system_id":"levelo_inurba_marseille","lat":43.304606,"lon":5.379026,"is_reserved":false,"is_disabled":false,"rental_uris":{"android":"levelo://app?vid=64e2a5b3-8878-4968-9b87-cedaad47904e","ios":"levelo://app?vid=64e2a5b3-8878-4968-9b87-cedaad47904e"},"vehicle_type_id":"4","last_reported":1705349257,"current_range_meters":26000,"station_id":"ce4bgup2rcd13ifvqcn0","pricing_plan_id":"free"},{"bike_id":"7ab4f318-c1bc-4a0f-89f9-47ea2cac16ca","system_id":"levelo_inurba_marseille","lat":43.304612,"lon":5.379078,"is_reserved":false,"is_disabled":false,"rental_uris":{"android":"levelo://app?vid=7ab4f318-c1bc-4a0f-89f9-47ea2cac16ca","ios":"levelo://app?vid=7ab4f318-c1bc-4a0f-89f9-47ea2cac16ca"},"vehicle_type_id":"4","last_reported":1705349257,"current_range_meters":30800,"station_id":"ce4bgup2rcd13ifvqcn0","pricing_plan_id":"free"},{"bike_id":"ce66d5b9-d5f7-4be5-9a36-afcdb3053f26","system_id":"levelo_inurba_marseille","lat":43.304606,"lon":5.379026,"is_reserved":false,"is_disabled":false,"rental_uris":{"android":"levelo://app?vid=ce66d5b9-d5f7-4be5-9a36-afcdb3053f26","ios":"levelo://app?vid=ce66d5b9-d5f7-4be5-9a36-afcdb3053f26"},"vehicle_type_id":"4","last_reported":1705349257,"current_range_meters":0,"station_id":"ce4bgup2rcd13ifvqcn0","pricing_plan_id":"free"},{"bike_id":"69ac59fa-fe12-4105-95d4-346f14bec7a3","system_id":"levelo_inurba_marseille","lat":43.304606,"lon":5.379026,"is_reserved":false,"is_disabled":false,"rental_uris":{"android":"levelo://app?vid=69ac59fa-fe12-4105-95d4-346f14bec7a3","ios":"levelo://app?vid=69ac59fa-fe12-4105-95d4-346f14bec7a3"},"vehicle_type_id":"4","last_reported":1705349257,"current_range_meters":26000,"station_id":"ce4bgup2rcd13ifvqcn0","pricing_plan_id":"free"},{"bike_id":"0d00d1ca-7a4e-4bb8-ab46-b844759fb096","system_id":"levelo_inurba_marseille","lat":43.304606,"lon":5.379026,"is_reserved":false,"is_disabled":false,"rental_uris":{"android":"levelo://app?vid=0d00d1ca-7a4e-4bb8-ab46-b844759fb096","ios":"levelo://app?vid=0d00d1ca-7a4e-4bb8-ab46-b844759fb096"},"vehicle_type_id":"4","last_reported":1705349257,"current_range_meters":25600,"station_id":"ce4bgup2rcd13ifvqcn0","pricing_plan_id":"free"},{"bike_id":"7015edb4-b4f9-4ef2-a42b-4a0024ea059c","system_id":"levelo_inurba_marseille","lat":43.304606,"lon":5.379026,"is_reserved":false,"is_disabled":false,"rental_uris":{"android":"levelo://app?vid=7015edb4-b4f9-4ef2-a42b-4a0024ea059c","ios":"levelo://app?vid=7015edb4-b4f9-4ef2-a42b-4a0024ea059c"},"vehicle_type_id":"4","last_reported":1705349257,"current_range_meters":26000,"station_id":"ce4bgup2rcd13ifvqcn0","pricing_plan_id":"free"},{"bike_id":"57ec87dc-5840-4681-88eb-625f899b3bb9","system_id":"levelo_inurba_marseille","lat":43.304606,"lon":5.379026,"is_reserved":false,"is_disabled":false,"rental_uris":{"android":"levelo://app?vid=57ec87dc-5840-4681-88eb-625f899b3bb9","ios":"levelo://app?vid=57ec87dc-5840-4681-88eb-625f899b3bb9"},"vehicle_type_id":"4","last_reported":1705349257,"current_range_meters":25200,"station_id":"ce4bgup2rcd13ifvqcn0","pricing_plan_id":"free"},{"bike_id":"b0e8f576-3976-4636-987e-cea799b93a59","system_id":"levelo_inurba_marseille","lat":43.304606,"lon":5.379026,"is_reserved":false,"is_disabled":false,"rental_uris":{"android":"levelo://app?vid=b0e8f576-3976-4636-987e-cea799b93a59","ios":"levelo://app?vid=b0e8f576-3976-4636-987e-cea799b93a59"},"vehicle_type_id":"4","last_reported":1705349257,"current_range_meters":4000,"station_id":"ce4bgup2rcd13ifvqcn0","pricing_plan_id":"free"},{"bike_id":"fdb282c0-ade3-439a-8f80-a7749f1c413b","system_id":"levelo_inurba_marseille","lat":43.304613,"lon":5.379155,"is_reserved":false,"is_disabled":false,"rental_uris":{"android":"levelo://app?vid=fdb282c0-ade3-439a-8f80-a7749f1c413b","ios":"levelo://app?vid=fdb282c0-ade3-439a-8f80-a7749f1c413b"},"vehicle_type_id":"4","last_reported":1705349257,"current_range_meters":29200,"station_id":"ce4bgup2rcd13ifvqcn0","pricing_plan_id":"free"},{"bike_id":"54322528-b2ca-45e8-9df1-97ce14317416","system_id":"levelo_inurba_marseille","lat":43.304606,"lon":5.379026,"is_reserved":false,"is_disabled":false,"rental_uris":{"android":"levelo://app?vid=54322528-b2ca-45e8-9df1-97ce14317416","ios":"levelo://app?vid=54322528-b2ca-45e8-9df1-97ce14317416"},"vehicle_type_id":"4","last_reported":1705349257,"current_range_meters":30800,"station_id":"ce4bgup2rcd13ifvqcn0","pricing_plan_id":"free"},{"bike_id":"f84f59aa-9755-4cff-b94f-3aaeb709a4a2","system_id":"levelo_inurba_marseille","lat":43.324771,"lon":5.36557,"is_reserved":false,"is_disabled":false,"rental_uris":{"android":"levelo://app?vid=f84f59aa-9755-4cff-b94f-3aaeb709a4a2","ios":"levelo://app?vid=f84f59aa-9755-4cff-b94f-3aaeb709a4a2"},"vehicle_type_id":"4","last_reported":1705349257,"current_range_meters":14000,"station_id":"ce4bhs12rcd13ifvqhvg","pricing_plan_id":"free"},{"bike_id":"fa3ab309-d9a3-4112-a5ab-4b51c48d0b83","system_id":"levelo_inurba_marseille","lat":43.324771,"lon":5.36557,"is_reserved":false,"is_disabled":false,"rental_uris":{"android":"levelo://app?vid=fa3ab309-d9a3-4112-a5ab-4b51c48d0b83","ios":"levelo://app?vid=fa3ab309-d9a3-4112-a5ab-4b51c48d0b83"},"vehicle_type_id":"4","last_reported":1705349257,"current_range_meters":0,"station_id":"ce4bhs12rcd13ifvqhvg","pricing_plan_id":"free"},{"bike_id":"af63ebf0-376c-4b10-ad75-e535dada07f5","system_id":"levelo_inurba_marseille","lat":43.324771,"lon":5.36557,"is_reserved":false,"is_disabled":false,"rental_uris":{"android":"levelo://app?vid=af63ebf0-376c-4b10-ad75-e535dada07f5","ios":"levelo://app?vid=af63ebf0-376c-4b10-ad75-e535dada07f5"},"vehicle_type_id":"4","last_reported":1705349257,"current_range_meters":12800,"station_id":"ce4bhs12rcd13ifvqhvg","pricing_plan_id":"free"},{"bike_id":"f268c67d-3763-452b-a823-d617c2a2a644","system_id":"levelo_inurba_marseille","lat":43.30143,"lon":5.37413,"is_reserved":false,"is_disabled":false,"rental_uris":{"android":"levelo://app?vid=f268c67d-3763-452b-a823-d617c2a2a644","ios":"levelo://app?vid=f268c67d-3763-452b-a823-d617c2a2a644"},"vehicle_type_id":"4","last_reported":1705349257,"current_range_meters":7600,"station_id":"ce4bgs92rcd13ifvqcc0","pricing_plan_id":"free"},{"bike_id":"00240506-f51a-4e5e-8e4b-da47fbef48ec","system_id":"levelo_inurba_marseille","lat":43.31618,"lon":5.38392,"is_reserved":false,"is_disabled":false,"rental_uris":{"android":"levelo://app?vid=00240506-f51a-4e5e-8e4b-da47fbef48ec","ios":"levelo://app?vid=00240506-f51a-4e5e-8e4b-da47fbef48ec"},"vehicle_type_id":"4","last_reported":1705349257,"current_range_meters":30800,"station_id":"","pricing_plan_id":"free"},{"bike_id":"de8453f6-af4c-4f9d-91f4-6c1cc39bd96e","system_id":"levelo_inurba_marseille","lat":43.31624,"lon":5.3839,"is_reserved":false,"is_disabled":false,"rental_uris":{"android":"levelo://app?vid=de8453f6-af4c-4f9d-91f4-6c1cc39bd96e","ios":"levelo://app?vid=de8453f6-af4c-4f9d-91f4-6c1cc39bd96e"},"vehicle_type_id":"4","last_reported":1705349257,"current_range_meters":25200,"station_id":"","pricing_plan_id":"free"},{"bike_id":"173bc767-4fa9-4076-a558-efde0cc60f7c","system_id":"levelo_inurba_marseille","lat":43.319935,"lon":5.381699,"is_reserved":false,"is_disabled":false,"rental_uris":{"android":"levelo://app?vid=173bc767-4fa9-4076-a558-efde0cc60f7c","ios":"levelo://app?vid=173bc767-4fa9-4076-a558-efde0cc60f7c"},"vehicle_type_id":"4","last_reported":1705349257,"current_range_meters":15600,"station_id":"ce4bhr12rcd13ifvqhpg","pricing_plan_id":"free"},{"bike_id":"8a69b4bb-38b7-4beb-aa2f-45028b2eee05","system_id":"levelo_inurba_marseille","lat":43.319964,"lon":5.381667,"is_reserved":false,"is_disabled":false,"rental_uris":{"android":"levelo://app?vid=8a69b4bb-38b7-4beb-aa2f-45028b2eee05","ios":"levelo://app?vid=8a69b4bb-38b7-4beb-aa2f-45028b2eee05"},"vehicle_type_id":"4","last_reported":1705349257,"current_range_meters":6800,"station_id":"ce4bhr12rcd13ifvqhpg","pricing_plan_id":"free"},{"bike_id":"f68497b7-b68a-47d6-894d-bbfd74dabb90","system_id":"levelo_inurba_marseille","lat":43.313571,"lon":5.384829,"is_reserved":false,"is_disabled":false,"rental_uris":{"android":"levelo://app?vid=f68497b7-b68a-47d6-894d-bbfd74dabb90","ios":"levelo://app?vid=f68497b7-b68a-47d6-894d-bbfd74dabb90"},"vehicle_type_id":"4","last_reported":1705349257,"current_range_meters":11600,"station_id":"ce4bgt92rcd13ifvqcf0","pricing_plan_id":"free"},{"bike_id":"0bc31906-9aa4-4e4a-a1e3-81428936ee6e","system_id":"levelo_inurba_marseille","lat":43.313571,"lon":5.384829,"is_reserved":false,"is_disabled":false,"rental_uris":{"android":"levelo://app?vid=0bc31906-9aa4-4e4a-a1e3-81428936ee6e","ios":"levelo://app?vid=0bc31906-9aa4-4e4a-a1e3-81428936ee6e"},"vehicle_type_id":"4","last_reported":1705349257,"current_range_meters":25200,"station_id":"ce4bgt92rcd13ifvqcf0","pricing_plan_id":"free"},{"bike_id":"ca011f9c-53bf-461b-8426-612eda38d4f0","system_id":"levelo_inurba_marseille","lat":43.32511,"lon":5.37387,"is_reserved":false,"is_disabled":false,"rental_uris":{"android":"levelo://app?vid=ca011f9c-53bf-461b-8426-612eda38d4f0","ios":"levelo://app?vid=ca011f9c-53bf-461b-8426-612eda38d4f0"},"vehicle_type_id":"4","last_reported":1705349257,"current_range_meters":7600,"station_id":"","pricing_plan_id":"free"},{"bike_id":"7568b06e-55ca-45b4-b8ac-c39d771126dd","system_id":"levelo_inurba_marseille","lat":43.30013,"lon":5.37442,"is_reserved":false,"is_disabled":false,"rental_uris":{"android":"levelo://app?vid=7568b06e-55ca-45b4-b8ac-c39d771126dd","ios":"levelo://app?vid=7568b06e-55ca-45b4-b8ac-c39d771126dd"},"vehicle_type_id":"4","last_reported":1705349257,"current_range_meters":6000,"station_id":"","pricing_plan_id":"free"},{"bike_id":"49807365-c4fe-4fe4-8160-fa32b4c68004","system_id":"levelo_inurba_marseille","lat":43.299243,"lon":5.37481,"is_reserved":false,"is_disabled":false,"rental_uris":{"android":"levelo://app?vid=49807365-c4fe-4fe4-8160-fa32b4c68004","ios":"levelo://app?vid=49807365-c4fe-4fe4-8160-fa32b4c68004"},"vehicle_type_id":"4","last_reported":1705349257,"current_range_meters":12000,"station_id":"ce4bgjh2rcd13ifvqbg0","pricing_plan_id":"free"},{"bike_id":"dee7af6b-978a-40e0-9e97-456e602b119b","system_id":"levelo_inurba_marseille","lat":43.305364,"lon":5.384119,"is_reserved":false,"is_disabled":false,"rental_uris":{"android":"levelo://app?vid=dee7af6b-978a-40e0-9e97-456e602b119b","ios":"levelo://app?vid=dee7af6b-978a-40e0-9e97-456e602b119b"},"vehicle_type_id":"4","last_reported":1705349257,"current_range_meters":18800,"station_id":"ce4bgg92rcd13ifvqb30","pricing_plan_id":"free"},{"bike_id":"73552078-5cc3-493b-899d-6e5d457c71ca","system_id":"levelo_inurba_marseille","lat":43.305364,"lon":5.384119,"is_reserved":false,"is_disabled":false,"rental_uris":{"android":"levelo://app?vid=73552078-5cc3-493b-899d-6e5d457c71ca","ios":"levelo://app?vid=73552078-5cc3-493b-899d-6e5d457c71ca"},"vehicle_type_id":"4","last_reported":1705349257,"current_range_meters":14000,"station_id":"ce4bgg92rcd13ifvqb30","pricing_plan_id":"free"},{"bike_id":"ce3ad7e1-2e60-4d80-9aa8-f5453115a7e4","system_id":"levelo_inurba_marseille","lat":43.29849,"lon":5.36287,"is_reserved":false,"is_disabled":false,"rental_uris":{"android":"levelo://app?vid=ce3ad7e1-2e60-4d80-9aa8-f5453115a7e4","ios":"levelo://app?vid=ce3ad7e1-2e60-4d80-9aa8-f5453115a7e4"},"vehicle_type_id":"4","last_reported":1705349257,"current_range_meters":0,"station_id":"ce4bgpp2rcd13ifvqc3g","pricing_plan_id":"free"},{"bike_id":"4ffc938a-4ceb-40f4-a531-707a7397a4e6","system_id":"levelo_inurba_marseille","lat":43.31187,"lon":5.38708,"is_reserved":false,"is_disabled":false,"rental_uris":{"android":"levelo://app?vid=4ffc938a-4ceb-40f4-a531-707a7397a4e6","ios":"levelo://app?vid=4ffc938a-4ceb-40f4-a531-707a7397a4e6"},"vehicle_type_id":"4","last_reported":1705349257,"current_range_meters":29200,"station_id":"ce4bgv12rcd13ifvqcp0","pricing_plan_id":"free"},{"bike_id":"5fe3256b-f49c-4a69-b94d-87fd8340f161","system_id":"levelo_inurba_marseille","lat":43.299243,"lon":5.374807,"is_reserved":false,"is_disabled":false,"rental_uris":{"android":"levelo://app?vid=5fe3256b-f49c-4a69-b94d-87fd8340f161","ios":"levelo://app?vid=5fe3256b-f49c-4a69-b94d-87fd8340f161"},"vehicle_type_id":"4","last_reported":1705349257,"current_range_meters":22400,"station_id":"ce4bgjh2rcd13ifvqbg0","pricing_plan_id":"free"},{"bike_id":"2f56538c-130b-4365-b441-fd09ae2109f0","system_id":"levelo_inurba_marseille","lat":43.299243,"lon":5.37481,"is_reserved":false,"is_disabled":false,"rental_uris":{"android":"levelo://app?vid=2f56538c-130b-4365-b441-fd09ae2109f0","ios":"levelo://app?vid=2f56538c-130b-4365-b441-fd09ae2109f0"},"vehicle_type_id":"4","last_reported":1705349257,"current_range_meters":16800,"station_id":"ce4bgjh2rcd13ifvqbg0","pricing_plan_id":"free"},{"bike_id":"5d76cf56-6b92-435f-97c2-32670aae1617","system_id":"levelo_inurba_marseille","lat":43.311722,"lon":5.387247,"is_reserved":false,"is_disabled":false,"rental_uris":{"android":"levelo://app?vid=5d76cf56-6b92-435f-97c2-32670aae1617","ios":"levelo://app?vid=5d76cf56-6b92-435f-97c2-32670aae1617"},"vehicle_type_id":"4","last_reported":1705349257,"current_range_meters":24800,"station_id":"ce4bgv12rcd13ifvqcp0","pricing_plan_id":"free"},{"bike_id":"5ec56a50-5005-4cf7-90ba-cecf3dc7c2cd","system_id":"levelo_inurba_marseille","lat":43.299243,"lon":5.374807,"is_reserved":false,"is_disabled":false,"rental_uris":{"android":"levelo://app?vid=5ec56a50-5005-4cf7-90ba-cecf3dc7c2cd","ios":"levelo://app?vid=5ec56a50-5005-4cf7-90ba-cecf3dc7c2cd"},"vehicle_type_id":"4","last_reported":1705349257,"current_range_meters":13600,"station_id":"ce4bgjh2rcd13ifvqbg0","pricing_plan_id":"free"},{"bike_id":"95d36460-3183-42c8-aa1c-97d67bf789d7","system_id":"levelo_inurba_marseille","lat":43.311722,"lon":5.387247,"is_reserved":false,"is_disabled":false,"rental_uris":{"android":"levelo://app?vid=95d36460-3183-42c8-aa1c-97d67bf789d7","ios":"levelo://app?vid=95d36460-3183-42c8-aa1c-97d67bf789d7"},"vehicle_type_id":"4","last_reported":1705349257,"current_range_meters":8000,"station_id":"ce4bgv12rcd13ifvqcp0","pricing_plan_id":"free"},{"bike_id":"c609f8f2-38ce-41f0-afd5-9bb3767e71bf","system_id":"levelo_inurba_marseille","lat":43.311722,"lon":5.387247,"is_reserved":false,"is_disabled":false,"rental_uris":{"android":"levelo://app?vid=c609f8f2-38ce-41f0-afd5-9bb3767e71bf","ios":"levelo://app?vid=c609f8f2-38ce-41f0-afd5-9bb3767e71bf"},"vehicle_type_id":"4","last_reported":1705349257,"current_range_meters":6400,"station_id":"ce4bgv12rcd13ifvqcp0","pricing_plan_id":"free"},{"bike_id":"8d48de35-2dbc-4021-aa4a-57d51b66dd96","system_id":"levelo_inurba_marseille","lat":43.322872,"lon":5.382756,"is_reserved":false,"is_disabled":false,"rental_uris":{"android":"levelo://app?vid=8d48de35-2dbc-4021-aa4a-57d51b66dd96","ios":"levelo://app?vid=8d48de35-2dbc-4021-aa4a-57d51b66dd96"},"vehicle_type_id":"4","last_reported":1705349257,"current_range_meters":5200,"station_id":"ce4bhr12rcd13ifvqhqg","pricing_plan_id":"free"},{"bike_id":"0d666429-792d-477e-b03b-8d07152545bb","system_id":"levelo_inurba_marseille","lat":43.322872,"lon":5.382756,"is_reserved":false,"is_disabled":false,"rental_uris":{"android":"levelo://app?vid=0d666429-792d-477e-b03b-8d07152545bb","ios":"levelo://app?vid=0d666429-792d-477e-b03b-8d07152545bb"},"vehicle_type_id":"4","last_reported":1705349257,"current_range_meters":12000,"station_id":"ce4bhr12rcd13ifvqhqg","pricing_plan_id":"free"},{"bike_id":"360d8370-a6d5-4eeb-9fdc-87624eb21c71","system_id":"levelo_inurba_marseille","lat":43.322872,"lon":5.382756,"is_reserved":false,"is_disabled":false,"rental_uris":{"android":"levelo://app?vid=360d8370-a6d5-4eeb-9fdc-87624eb21c71","ios":"levelo://app?vid=360d8370-a6d5-4eeb-9fdc-87624eb21c71"},"vehicle_type_id":"4","last_reported":1705349257,"current_range_meters":8400,"station_id":"ce4bhr12rcd13ifvqhqg","pricing_plan_id":"free"},{"bike_id":"34c8b400-5074-46e3-aa02-f5d274dfaa4f","system_id":"levelo_inurba_marseille","lat":43.322872,"lon":5.382756,"is_reserved":false,"is_disabled":false,"rental_uris":{"android":"levelo://app?vid=34c8b400-5074-46e3-aa02-f5d274dfaa4f","ios":"levelo://app?vid=34c8b400-5074-46e3-aa02-f5d274dfaa4f"},"vehicle_type_id":"4","last_reported":1705349257,"current_range_meters":23200,"station_id":"ce4bhr12rcd13ifvqhqg","pricing_plan_id":"free"},{"bike_id":"034cc7ad-d6a8-4154-a3ea-ced9b23eb5aa","system_id":"levelo_inurba_marseille","lat":43.322872,"lon":5.382756,"is_reserved":false,"is_disabled":false,"rental_uris":{"android":"levelo://app?vid=034cc7ad-d6a8-4154-a3ea-ced9b23eb5aa","ios":"levelo://app?vid=034cc7ad-d6a8-4154-a3ea-ced9b23eb5aa"},"vehicle_type_id":"4","last_reported":1705349257,"current_range_meters":29600,"station_id":"ce4bhr12rcd13ifvqhqg","pricing_plan_id":"free"},{"bike_id":"e4cad359-bf16-42a6-b7ad-19b9dba9592b","system_id":"levelo_inurba_marseille","lat":43.322925,"lon":5.382644,"is_reserved":false,"is_disabled":false,"rental_uris":{"android":"levelo://app?vid=e4cad359-bf16-42a6-b7ad-19b9dba9592b","ios":"levelo://app?vid=e4cad359-bf16-42a6-b7ad-19b9dba9592b"},"vehicle_type_id":"4","last_reported":1705349257,"current_range_meters":14800,"station_id":"ce4bhr12rcd13ifvqhqg","pricing_plan_id":"free"},{"bike_id":"717847e4-a784-40f8-a1bf-5a94b6cabac5","system_id":"levelo_inurba_marseille","lat":43.322872,"lon":5.382756,"is_reserved":false,"is_disabled":false,"rental_uris":{"android":"levelo://app?vid=717847e4-a784-40f8-a1bf-5a94b6cabac5","ios":"levelo://app?vid=717847e4-a784-40f8-a1bf-5a94b6cabac5"},"vehicle_type_id":"4","last_reported":1705349257,"current_range_meters":16000,"station_id":"ce4bhr12rcd13ifvqhqg","pricing_plan_id":"free"},{"bike_id":"9c1b8a19-45ab-4b8b-ad67-e93f349439a6","system_id":"levelo_inurba_marseille","lat":43.322872,"lon":5.382756,"is_reserved":false,"is_disabled":false,"rental_uris":{"android":"levelo://app?vid=9c1b8a19-45ab-4b8b-ad67-e93f349439a6","ios":"levelo://app?vid=9c1b8a19-45ab-4b8b-ad67-e93f349439a6"},"vehicle_type_id":"4","last_reported":1705349257,"current_range_meters":28000,"station_id":"ce4bhr12rcd13ifvqhqg","pricing_plan_id":"free"},{"bike_id":"394e09ab-bff8-467a-bfb2-d5785877769b","system_id":"levelo_inurba_marseille","lat":43.322872,"lon":5.382756,"is_reserved":false,"is_disabled":false,"rental_uris":{"android":"levelo://app?vid=394e09ab-bff8-467a-bfb2-d5785877769b","ios":"levelo://app?vid=394e09ab-bff8-467a-bfb2-d5785877769b"},"vehicle_type_id":"4","last_reported":1705349257,"current_range_meters":0,"station_id":"ce4bhr12rcd13ifvqhqg","pricing_plan_id":"free"},{"bike_id":"3a46592c-9142-46ce-8556-a80e672a6412","system_id":"levelo_inurba_marseille","lat":43.32289,"lon":5.38272,"is_reserved":false,"is_disabled":false,"rental_uris":{"android":"levelo://app?vid=3a46592c-9142-46ce-8556-a80e672a6412","ios":"levelo://app?vid=3a46592c-9142-46ce-8556-a80e672a6412"},"vehicle_type_id":"4","last_reported":1705349257,"current_range_meters":4000,"station_id":"ce4bhr12rcd13ifvqhqg","pricing_plan_id":"free"},{"bike_id":"be5c14c2-d069-4824-b2b4-323fba6ab1b5","system_id":"levelo_inurba_marseille","lat":43.32822,"lon":5.3668,"is_reserved":false,"is_disabled":false,"rental_uris":{"android":"levelo://app?vid=be5c14c2-d069-4824-b2b4-323fba6ab1b5","ios":"levelo://app?vid=be5c14c2-d069-4824-b2b4-323fba6ab1b5"},"vehicle_type_id":"4","last_reported":1705349257,"current_range_meters":13200,"station_id":"ce4bhs92rcd13ifvqi0g","pricing_plan_id":"free"},{"bike_id":"ea0178f3-2c6b-4af6-b062-91b0b8dde1df","system_id":"levelo_inurba_marseille","lat":43.32824,"lon":5.36687,"is_reserved":false,"is_disabled":false,"rental_uris":{"android":"levelo://app?vid=ea0178f3-2c6b-4af6-b062-91b0b8dde1df","ios":"levelo://app?vid=ea0178f3-2c6b-4af6-b062-91b0b8dde1df"},"vehicle_type_id":"4","last_reported":1705349257,"current_range_meters":15200,"station_id":"ce4bhs92rcd13ifvqi0g","pricing_plan_id":"free"},{"bike_id":"707a3518-52e7-412d-8d22-bd5e6a5f6523","system_id":"levelo_inurba_marseille","lat":43.32825,"lon":5.36689,"is_reserved":false,"is_disabled":false,"rental_uris":{"android":"levelo://app?vid=707a3518-52e7-412d-8d22-bd5e6a5f6523","ios":"levelo://app?vid=707a3518-52e7-412d-8d22-bd5e6a5f6523"},"vehicle_type_id":"4","last_reported":1705349257,"current_range_meters":14400,"station_id":"ce4bhs92rcd13ifvqi0g","pricing_plan_id":"free"},{"bike_id":"9e10fca8-afff-413a-a971-97b89741c75b","system_id":"levelo_inurba_marseille","lat":43.328258,"lon":5.366815,"is_reserved":false,"is_disabled":false,"rental_uris":{"android":"levelo://app?vid=9e10fca8-afff-413a-a971-97b89741c75b","ios":"levelo://app?vid=9e10fca8-afff-413a-a971-97b89741c75b"},"vehicle_type_id":"4","last_reported":1705349257,"current_range_meters":17600,"station_id":"ce4bhs92rcd13ifvqi0g","pricing_plan_id":"free"},{"bike_id":"d6e71fc0-c662-46a4-9ce2-a4da97cef68b","system_id":"levelo_inurba_marseille","lat":43.32827,"lon":5.36676,"is_reserved":false,"is_disabled":false,"rental_uris":{"android":"levelo://app?vid=d6e71fc0-c662-46a4-9ce2-a4da97cef68b","ios":"levelo://app?vid=d6e71fc0-c662-46a4-9ce2-a4da97cef68b"},"vehicle_type_id":"4","last_reported":1705349257,"current_range_meters":23600,"station_id":"ce4bhs92rcd13ifvqi0g","pricing_plan_id":"free"},{"bike_id":"85cedcff-9e9a-415d-8415-195178ea3cb7","system_id":"levelo_inurba_marseille","lat":43.328272,"lon":5.366732,"is_reserved":false,"is_disabled":false,"rental_uris":{"android":"levelo://app?vid=85cedcff-9e9a-415d-8415-195178ea3cb7","ios":"levelo://app?vid=85cedcff-9e9a-415d-8415-195178ea3cb7"},"vehicle_type_id":"4","last_reported":1705349257,"current_range_meters":28800,"station_id":"ce4bhs92rcd13ifvqi0g","pricing_plan_id":"free"},{"bike_id":"6b4ea496-3016-42db-af64-ba8beb6e73fc","system_id":"levelo_inurba_marseille","lat":43.328371,"lon":5.366909,"is_reserved":false,"is_disabled":false,"rental_uris":{"android":"levelo://app?vid=6b4ea496-3016-42db-af64-ba8beb6e73fc","ios":"levelo://app?vid=6b4ea496-3016-42db-af64-ba8beb6e73fc"},"vehicle_type_id":"4","last_reported":1705349257,"current_range_meters":30800,"station_id":"ce4bhs92rcd13ifvqi0g","pricing_plan_id":"free"},{"bike_id":"8463d0da-e03a-4a02-8a84-4dd7b137838e","system_id":"levelo_inurba_marseille","lat":43.328275,"lon":5.366874,"is_reserved":false,"is_disabled":false,"rental_uris":{"android":"levelo://app?vid=8463d0da-e03a-4a02-8a84-4dd7b137838e","ios":"levelo://app?vid=8463d0da-e03a-4a02-8a84-4dd7b137838e"},"vehicle_type_id":"4","last_reported":1705349257,"current_range_meters":28800,"station_id":"ce4bhs92rcd13ifvqi0g","pricing_plan_id":"free"},{"bike_id":"947a5c0b-0299-4cd2-aecd-5f351114aaf8","system_id":"levelo_inurba_marseille","lat":43.328276,"lon":5.366804,"is_reserved":false,"is_disabled":false,"rental_uris":{"android":"levelo://app?vid=947a5c0b-0299-4cd2-aecd-5f351114aaf8","ios":"levelo://app?vid=947a5c0b-0299-4cd2-aecd-5f351114aaf8"},"vehicle_type_id":"4","last_reported":1705349257,"current_range_meters":29600,"station_id":"ce4bhs92rcd13ifvqi0g","pricing_plan_id":"free"},{"bike_id":"b47ac642-666b-4fa3-9c1d-748c98ce0511","system_id":"levelo_inurba_marseille","lat":43.328277,"lon":5.36684,"is_reserved":false,"is_disabled":false,"rental_uris":{"android":"levelo://app?vid=b47ac642-666b-4fa3-9c1d-748c98ce0511","ios":"levelo://app?vid=b47ac642-666b-4fa3-9c1d-748c98ce0511"},"vehicle_type_id":"4","last_reported":1705349257,"current_range_meters":18800,"station_id":"ce4bhs92rcd13ifvqi0g","pricing_plan_id":"free"},{"bike_id":"641739e6-19de-47df-9491-35da26c3c9da","system_id":"levelo_inurba_marseille","lat":43.328371,"lon":5.366909,"is_reserved":false,"is_disabled":false,"rental_uris":{"android":"levelo://app?vid=641739e6-19de-47df-9491-35da26c3c9da","ios":"levelo://app?vid=641739e6-19de-47df-9491-35da26c3c9da"},"vehicle_type_id":"4","last_reported":1705349257,"current_range_meters":10400,"station_id":"ce4bhs92rcd13ifvqi0g","pricing_plan_id":"free"},{"bike_id":"09621f87-561a-4138-9bcf-5568c59432a9","system_id":"levelo_inurba_marseille","lat":43.32829,"lon":5.36679,"is_reserved":false,"is_disabled":false,"rental_uris":{"android":"levelo://app?vid=09621f87-561a-4138-9bcf-5568c59432a9","ios":"levelo://app?vid=09621f87-561a-4138-9bcf-5568c59432a9"},"vehicle_type_id":"4","last_reported":1705349257,"current_range_meters":8800,"station_id":"ce4bhs92rcd13ifvqi0g","pricing_plan_id":"free"},{"bike_id":"eb82efee-7e46-4cef-a643-d731882b95f4","system_id":"levelo_inurba_marseille","lat":43.328294,"lon":5.366756,"is_reserved":false,"is_disabled":false,"rental_uris":{"android":"levelo://app?vid=eb82efee-7e46-4cef-a643-d731882b95f4","ios":"levelo://app?vid=eb82efee-7e46-4cef-a643-d731882b95f4"},"vehicle_type_id":"4","last_reported":1705349257,"current_range_meters":17600,"station_id":"ce4bhs92rcd13ifvqi0g","pricing_plan_id":"free"},{"bike_id":"9949c318-cd33-4e7f-93e5-9b978c57ddec","system_id":"levelo_inurba_marseille","lat":43.328298,"lon":5.366757,"is_reserved":false,"is_disabled":false,"rental_uris":{"android":"levelo://app?vid=9949c318-cd33-4e7f-93e5-9b978c57ddec","ios":"levelo://app?vid=9949c318-cd33-4e7f-93e5-9b978c57ddec"},"vehicle_type_id":"4","last_reported":1705349257,"current_range_meters":28800,"station_id":"ce4bhs92rcd13ifvqi0g","pricing_plan_id":"free"},{"bike_id":"1782ad4d-7cbc-4ac0-af82-b65688e9d34c","system_id":"levelo_inurba_marseille","lat":43.328301,"lon":5.366824,"is_reserved":false,"is_disabled":false,"rental_uris":{"android":"levelo://app?vid=1782ad4d-7cbc-4ac0-af82-b65688e9d34c","ios":"levelo://app?vid=1782ad4d-7cbc-4ac0-af82-b65688e9d34c"},"vehicle_type_id":"4","last_reported":1705349257,"current_range_meters":31200,"station_id":"ce4bhs92rcd13ifvqi0g","pricing_plan_id":"free"},{"bike_id":"54ecc17b-7683-4623-a502-4bc336d1ef8a","system_id":"levelo_inurba_marseille","lat":43.297163,"lon":5.365866,"is_reserved":false,"is_disabled":false,"rental_uris":{"android":"levelo://app?vid=54ecc17b-7683-4623-a502-4bc336d1ef8a","ios":"levelo://app?vid=54ecc17b-7683-4623-a502-4bc336d1ef8a"},"vehicle_type_id":"4","last_reported":1705349257,"current_range_meters":14400,"station_id":"ce4bgn12rcd13ifvqbt0","pricing_plan_id":"free"},{"bike_id":"88638e12-da12-4596-b7e2-600ab2f62219","system_id":"levelo_inurba_marseille","lat":43.328333,"lon":5.366847,"is_reserved":false,"is_disabled":false,"rental_uris":{"android":"levelo://app?vid=88638e12-da12-4596-b7e2-600ab2f62219","ios":"levelo://app?vid=88638e12-da12-4596-b7e2-600ab2f62219"},"vehicle_type_id":"4","last_reported":1705349257,"current_range_meters":18400,"station_id":"ce4bhs92rcd13ifvqi0g","pricing_plan_id":"free"},{"bike_id":"317be026-d265-4964-8b9f-14b31317b61c","system_id":"levelo_inurba_marseille","lat":43.328334,"lon":5.3668,"is_reserved":false,"is_disabled":false,"rental_uris":{"android":"levelo://app?vid=317be026-d265-4964-8b9f-14b31317b61c","ios":"levelo://app?vid=317be026-d265-4964-8b9f-14b31317b61c"},"vehicle_type_id":"4","last_reported":1705349257,"current_range_meters":12800,"station_id":"ce4bhs92rcd13ifvqi0g","pricing_plan_id":"free"},{"bike_id":"a07aca90-d738-4a9c-9c07-8b0897ad99ba","system_id":"levelo_inurba_marseille","lat":43.297163,"lon":5.365866,"is_reserved":false,"is_disabled":false,"rental_uris":{"android":"levelo://app?vid=a07aca90-d738-4a9c-9c07-8b0897ad99ba","ios":"levelo://app?vid=a07aca90-d738-4a9c-9c07-8b0897ad99ba"},"vehicle_type_id":"4","last_reported":1705349257,"current_range_meters":5200,"station_id":"ce4bgn12rcd13ifvqbt0","pricing_plan_id":"free"},{"bike_id":"d6ffc100-b75a-4ec5-bd31-f537672cea7e","system_id":"levelo_inurba_marseille","lat":43.297163,"lon":5.365866,"is_reserved":false,"is_disabled":false,"rental_uris":{"android":"levelo://app?vid=d6ffc100-b75a-4ec5-bd31-f537672cea7e","ios":"levelo://app?vid=d6ffc100-b75a-4ec5-bd31-f537672cea7e"},"vehicle_type_id":"4","last_reported":1705349257,"current_range_meters":10800,"station_id":"ce4bgn12rcd13ifvqbt0","pricing_plan_id":"free"},{"bike_id":"6e89a627-8191-4803-b2f1-fc8e37962038","system_id":"levelo_inurba_marseille","lat":43.297163,"lon":5.365866,"is_reserved":false,"is_disabled":false,"rental_uris":{"android":"levelo://app?vid=6e89a627-8191-4803-b2f1-fc8e37962038","ios":"levelo://app?vid=6e89a627-8191-4803-b2f1-fc8e37962038"},"vehicle_type_id":"4","last_reported":1705349257,"current_range_meters":26400,"station_id":"ce4bgn12rcd13ifvqbt0","pricing_plan_id":"free"},{"bike_id":"64c3f387-35e4-4aaf-8a00-356e575aa7ae","system_id":"levelo_inurba_marseille","lat":43.297163,"lon":5.365866,"is_reserved":false,"is_disabled":false,"rental_uris":{"android":"levelo://app?vid=64c3f387-35e4-4aaf-8a00-356e575aa7ae","ios":"levelo://app?vid=64c3f387-35e4-4aaf-8a00-356e575aa7ae"},"vehicle_type_id":"4","last_reported":1705349257,"current_range_meters":20800,"station_id":"ce4bgn12rcd13ifvqbt0","pricing_plan_id":"free"},{"bike_id":"0bc9666f-407a-45ee-a647-9e7db5d81a5c","system_id":"levelo_inurba_marseille","lat":43.297163,"lon":5.365866,"is_reserved":false,"is_disabled":false,"rental_uris":{"android":"levelo://app?vid=0bc9666f-407a-45ee-a647-9e7db5d81a5c","ios":"levelo://app?vid=0bc9666f-407a-45ee-a647-9e7db5d81a5c"},"vehicle_type_id":"4","last_reported":1705349257,"current_range_meters":14000,"station_id":"ce4bgn12rcd13ifvqbt0","pricing_plan_id":"free"},{"bike_id":"02f97db8-1e1e-4f38-89f3-11868234f7c3","system_id":"levelo_inurba_marseille","lat":43.32837,"lon":5.36682,"is_reserved":false,"is_disabled":false,"rental_uris":{"android":"levelo://app?vid=02f97db8-1e1e-4f38-89f3-11868234f7c3","ios":"levelo://app?vid=02f97db8-1e1e-4f38-89f3-11868234f7c3"},"vehicle_type_id":"4","last_reported":1705349257,"current_range_meters":400,"station_id":"ce4bhs92rcd13ifvqi0g","pricing_plan_id":"free"},{"bike_id":"38082c03-fac1-44d3-a79f-5142b4a113a9","system_id":"levelo_inurba_marseille","lat":43.328373,"lon":5.366902,"is_reserved":false,"is_disabled":false,"rental_uris":{"android":"levelo://app?vid=38082c03-fac1-44d3-a79f-5142b4a113a9","ios":"levelo://app?vid=38082c03-fac1-44d3-a79f-5142b4a113a9"},"vehicle_type_id":"4","last_reported":1705349257,"current_range_meters":30000,"station_id":"ce4bhs92rcd13ifvqi0g","pricing_plan_id":"free"},{"bike_id":"b7f19553-caf3-42e9-85f2-de3629dabc8e","system_id":"levelo_inurba_marseille","lat":43.328376,"lon":5.366779,"is_reserved":false,"is_disabled":false,"rental_uris":{"android":"levelo://app?vid=b7f19553-caf3-42e9-85f2-de3629dabc8e","ios":"levelo://app?vid=b7f19553-caf3-42e9-85f2-de3629dabc8e"},"vehicle_type_id":"4","last_reported":1705349257,"current_range_meters":27200,"station_id":"ce4bhs92rcd13ifvqi0g","pricing_plan_id":"free"},{"bike_id":"42f5b626-5e71-456b-8041-5da45f31b04b","system_id":"levelo_inurba_marseille","lat":43.297163,"lon":5.365866,"is_reserved":false,"is_disabled":false,"rental_uris":{"android":"levelo://app?vid=42f5b626-5e71-456b-8041-5da45f31b04b","ios":"levelo://app?vid=42f5b626-5e71-456b-8041-5da45f31b04b"},"vehicle_type_id":"4","last_reported":1705349257,"current_range_meters":28800,"station_id":"ce4bgn12rcd13ifvqbt0","pricing_plan_id":"free"},{"bike_id":"d7853949-ae2f-4022-b304-b24f911f3140","system_id":"levelo_inurba_marseille","lat":43.297163,"lon":5.365866,"is_reserved":false,"is_disabled":false,"rental_uris":{"android":"levelo://app?vid=d7853949-ae2f-4022-b304-b24f911f3140","ios":"levelo://app?vid=d7853949-ae2f-4022-b304-b24f911f3140"},"vehicle_type_id":"4","last_reported":1705349257,"current_range_meters":18400,"station_id":"ce4bgn12rcd13ifvqbt0","pricing_plan_id":"free"},{"bike_id":"3bf0cd0d-54d2-407b-809a-766378451449","system_id":"levelo_inurba_marseille","lat":43.297163,"lon":5.365866,"is_reserved":false,"is_disabled":false,"rental_uris":{"android":"levelo://app?vid=3bf0cd0d-54d2-407b-809a-766378451449","ios":"levelo://app?vid=3bf0cd0d-54d2-407b-809a-766378451449"},"vehicle_type_id":"4","last_reported":1705349257,"current_range_meters":25200,"station_id":"ce4bgn12rcd13ifvqbt0","pricing_plan_id":"free"},{"bike_id":"0b2274a5-5bbe-4b6c-917c-31a9425daec4","system_id":"levelo_inurba_marseille","lat":43.297163,"lon":5.365866,"is_reserved":false,"is_disabled":false,"rental_uris":{"android":"levelo://app?vid=0b2274a5-5bbe-4b6c-917c-31a9425daec4","ios":"levelo://app?vid=0b2274a5-5bbe-4b6c-917c-31a9425daec4"},"vehicle_type_id":"4","last_reported":1705349257,"current_range_meters":4800,"station_id":"ce4bgn12rcd13ifvqbt0","pricing_plan_id":"free"},{"bike_id":"da093ae5-1f9b-4c78-aaf1-9f0fe1705d47","system_id":"levelo_inurba_marseille","lat":43.297081,"lon":5.366141,"is_reserved":false,"is_disabled":false,"rental_uris":{"android":"levelo://app?vid=da093ae5-1f9b-4c78-aaf1-9f0fe1705d47","ios":"levelo://app?vid=da093ae5-1f9b-4c78-aaf1-9f0fe1705d47"},"vehicle_type_id":"4","last_reported":1705349257,"current_range_meters":10800,"station_id":"ce4bgn12rcd13ifvqbt0","pricing_plan_id":"free"},{"bike_id":"5b531715-f859-4ce7-b4d9-97b3cbbc54d4","system_id":"levelo_inurba_marseille","lat":43.29708,"lon":5.365997,"is_reserved":false,"is_disabled":false,"rental_uris":{"android":"levelo://app?vid=5b531715-f859-4ce7-b4d9-97b3cbbc54d4","ios":"levelo://app?vid=5b531715-f859-4ce7-b4d9-97b3cbbc54d4"},"vehicle_type_id":"4","last_reported":1705349257,"current_range_meters":21600,"station_id":"ce4bgn12rcd13ifvqbt0","pricing_plan_id":"free"},{"bike_id":"cc249608-6a43-41d8-a019-2a9e52c7e346","system_id":"levelo_inurba_marseille","lat":43.297163,"lon":5.365866,"is_reserved":false,"is_disabled":false,"rental_uris":{"android":"levelo://app?vid=cc249608-6a43-41d8-a019-2a9e52c7e346","ios":"levelo://app?vid=cc249608-6a43-41d8-a019-2a9e52c7e346"},"vehicle_type_id":"4","last_reported":1705349257,"current_range_meters":4400,"station_id":"ce4bgn12rcd13ifvqbt0","pricing_plan_id":"free"},{"bike_id":"d6e86ded-fea1-4da4-82af-fc43ed295feb","system_id":"levelo_inurba_marseille","lat":43.297163,"lon":5.365866,"is_reserved":false,"is_disabled":false,"rental_uris":{"android":"levelo://app?vid=d6e86ded-fea1-4da4-82af-fc43ed295feb","ios":"levelo://app?vid=d6e86ded-fea1-4da4-82af-fc43ed295feb"},"vehicle_type_id":"4","last_reported":1705349257,"current_range_meters":9200,"station_id":"ce4bgn12rcd13ifvqbt0","pricing_plan_id":"free"},{"bike_id":"9dada86c-99bf-4a70-b80b-baafa28eaf7a","system_id":"levelo_inurba_marseille","lat":43.297163,"lon":5.365866,"is_reserved":false,"is_disabled":false,"rental_uris":{"android":"levelo://app?vid=9dada86c-99bf-4a70-b80b-baafa28eaf7a","ios":"levelo://app?vid=9dada86c-99bf-4a70-b80b-baafa28eaf7a"},"vehicle_type_id":"4","last_reported":1705349257,"current_range_meters":22000,"station_id":"ce4bgn12rcd13ifvqbt0","pricing_plan_id":"free"},{"bike_id":"b3fd1c77-c4fb-4bb8-b7d7-ed9875611aba","system_id":"levelo_inurba_marseille","lat":43.297163,"lon":5.365866,"is_reserved":false,"is_disabled":false,"rental_uris":{"android":"levelo://app?vid=b3fd1c77-c4fb-4bb8-b7d7-ed9875611aba","ios":"levelo://app?vid=b3fd1c77-c4fb-4bb8-b7d7-ed9875611aba"},"vehicle_type_id":"4","last_reported":1705349257,"current_range_meters":20800,"station_id":"ce4bgn12rcd13ifvqbt0","pricing_plan_id":"free"},{"bike_id":"c17c074b-d152-4390-be91-e6a6ee3d80d7","system_id":"levelo_inurba_marseille","lat":43.328614,"lon":5.36728,"is_reserved":false,"is_disabled":false,"rental_uris":{"android":"levelo://app?vid=c17c074b-d152-4390-be91-e6a6ee3d80d7","ios":"levelo://app?vid=c17c074b-d152-4390-be91-e6a6ee3d80d7"},"vehicle_type_id":"4","last_reported":1705349257,"current_range_meters":24400,"station_id":"","pricing_plan_id":"free"},{"bike_id":"87da80db-8dad-40a6-9f1e-9dd5106777c2","system_id":"levelo_inurba_marseille","lat":43.2968,"lon":5.37291,"is_reserved":false,"is_disabled":false,"rental_uris":{"android":"levelo://app?vid=87da80db-8dad-40a6-9f1e-9dd5106777c2","ios":"levelo://app?vid=87da80db-8dad-40a6-9f1e-9dd5106777c2"},"vehicle_type_id":"4","last_reported":1705349257,"current_range_meters":17200,"station_id":"ce4bgk12rcd13ifvqbj0","pricing_plan_id":"free"},{"bike_id":"500d9a30-be43-47dc-92e0-ef276180c838","system_id":"levelo_inurba_marseille","lat":43.295995,"lon":5.367861,"is_reserved":false,"is_disabled":false,"rental_uris":{"android":"levelo://app?vid=500d9a30-be43-47dc-92e0-ef276180c838","ios":"levelo://app?vid=500d9a30-be43-47dc-92e0-ef276180c838"},"vehicle_type_id":"4","last_reported":1705349257,"current_range_meters":30400,"station_id":"","pricing_plan_id":"free"},{"bike_id":"a9a91145-8576-4095-96f0-f91382b0cf5d","system_id":"levelo_inurba_marseille","lat":43.29585,"lon":5.36739,"is_reserved":false,"is_disabled":false,"rental_uris":{"android":"levelo://app?vid=a9a91145-8576-4095-96f0-f91382b0cf5d","ios":"levelo://app?vid=a9a91145-8576-4095-96f0-f91382b0cf5d"},"vehicle_type_id":"4","last_reported":1705349257,"current_range_meters":0,"station_id":"ce4bgph2rcd13ifvqc2g","pricing_plan_id":"free"},{"bike_id":"c8b0f5de-653e-4f6f-b1c9-cb8868329ce6","system_id":"levelo_inurba_marseille","lat":43.2988,"lon":5.38004,"is_reserved":false,"is_disabled":false,"rental_uris":{"android":"levelo://app?vid=c8b0f5de-653e-4f6f-b1c9-cb8868329ce6","ios":"levelo://app?vid=c8b0f5de-653e-4f6f-b1c9-cb8868329ce6"},"vehicle_type_id":"4","last_reported":1705349257,"current_range_meters":400,"station_id":"","pricing_plan_id":"free"},{"bike_id":"9edec9c5-c62b-48fc-9322-fbc9e031a196","system_id":"levelo_inurba_marseille","lat":43.299028,"lon":5.381509,"is_reserved":false,"is_disabled":false,"rental_uris":{"android":"levelo://app?vid=9edec9c5-c62b-48fc-9322-fbc9e031a196","ios":"levelo://app?vid=9edec9c5-c62b-48fc-9322-fbc9e031a196"},"vehicle_type_id":"4","last_reported":1705349257,"current_range_meters":4800,"station_id":"ce4bgj12rcd13ifvqbc0","pricing_plan_id":"free"},{"bike_id":"c05509a4-973d-4867-8adb-b4e9a1105870","system_id":"levelo_inurba_marseille","lat":43.299028,"lon":5.381509,"is_reserved":false,"is_disabled":false,"rental_uris":{"android":"levelo://app?vid=c05509a4-973d-4867-8adb-b4e9a1105870","ios":"levelo://app?vid=c05509a4-973d-4867-8adb-b4e9a1105870"},"vehicle_type_id":"4","last_reported":1705349257,"current_range_meters":20000,"station_id":"ce4bgj12rcd13ifvqbc0","pricing_plan_id":"free"},{"bike_id":"ca837b07-86d7-42f7-a045-e3da06473611","system_id":"levelo_inurba_marseille","lat":43.317479,"lon":5.39009,"is_reserved":false,"is_disabled":false,"rental_uris":{"android":"levelo://app?vid=ca837b07-86d7-42f7-a045-e3da06473611","ios":"levelo://app?vid=ca837b07-86d7-42f7-a045-e3da06473611"},"vehicle_type_id":"4","last_reported":1705349257,"current_range_meters":3200,"station_id":"ce4bhqp2rcd13ifvqhng","pricing_plan_id":"free"},{"bike_id":"9a35590a-e971-4835-9fbb-6e43c728bb95","system_id":"levelo_inurba_marseille","lat":43.317557,"lon":5.390173,"is_reserved":false,"is_disabled":false,"rental_uris":{"android":"levelo://app?vid=9a35590a-e971-4835-9fbb-6e43c728bb95","ios":"levelo://app?vid=9a35590a-e971-4835-9fbb-6e43c728bb95"},"vehicle_type_id":"4","last_reported":1705349257,"current_range_meters":26000,"station_id":"ce4bhqp2rcd13ifvqhng","pricing_plan_id":"free"},{"bike_id":"ded4141d-1765-4f82-a2a5-91b9bba6fa0d","system_id":"levelo_inurba_marseille","lat":43.317557,"lon":5.390173,"is_reserved":false,"is_disabled":false,"rental_uris":{"android":"levelo://app?vid=ded4141d-1765-4f82-a2a5-91b9bba6fa0d","ios":"levelo://app?vid=ded4141d-1765-4f82-a2a5-91b9bba6fa0d"},"vehicle_type_id":"4","last_reported":1705349257,"current_range_meters":20000,"station_id":"ce4bhqp2rcd13ifvqhng","pricing_plan_id":"free"},{"bike_id":"749909e1-9649-4ed2-b52f-af1b97b0a99f","system_id":"levelo_inurba_marseille","lat":43.317557,"lon":5.390173,"is_reserved":false,"is_disabled":false,"rental_uris":{"android":"levelo://app?vid=749909e1-9649-4ed2-b52f-af1b97b0a99f","ios":"levelo://app?vid=749909e1-9649-4ed2-b52f-af1b97b0a99f"},"vehicle_type_id":"4","last_reported":1705349257,"current_range_meters":0,"station_id":"ce4bhqp2rcd13ifvqhng","pricing_plan_id":"free"},{"bike_id":"5e83a9bd-feb4-4612-926d-62481bf765e4","system_id":"levelo_inurba_marseille","lat":43.30436,"lon":5.38888,"is_reserved":false,"is_disabled":false,"rental_uris":{"android":"levelo://app?vid=5e83a9bd-feb4-4612-926d-62481bf765e4","ios":"levelo://app?vid=5e83a9bd-feb4-4612-926d-62481bf765e4"},"vehicle_type_id":"4","last_reported":1705349257,"current_range_meters":0,"station_id":"ce4bgk12rcd13ifvqbi0","pricing_plan_id":"free"},{"bike_id":"3756a5a1-c64d-4679-b0c9-0c5ecc4cb106","system_id":"levelo_inurba_marseille","lat":43.304278,"lon":5.388868,"is_reserved":false,"is_disabled":false,"rental_uris":{"android":"levelo://app?vid=3756a5a1-c64d-4679-b0c9-0c5ecc4cb106","ios":"levelo://app?vid=3756a5a1-c64d-4679-b0c9-0c5ecc4cb106"},"vehicle_type_id":"4","last_reported":1705349257,"current_range_meters":10800,"station_id":"ce4bgk12rcd13ifvqbi0","pricing_plan_id":"free"},{"bike_id":"d85a96b0-947f-4c04-8449-93a74768e2c7","system_id":"levelo_inurba_marseille","lat":43.304278,"lon":5.388868,"is_reserved":false,"is_disabled":false,"rental_uris":{"android":"levelo://app?vid=d85a96b0-947f-4c04-8449-93a74768e2c7","ios":"levelo://app?vid=d85a96b0-947f-4c04-8449-93a74768e2c7"},"vehicle_type_id":"4","last_reported":1705349257,"current_range_meters":6400,"station_id":"ce4bgk12rcd13ifvqbi0","pricing_plan_id":"free"},{"bike_id":"8ee244f3-7755-4609-871b-47e32cd4ecaf","system_id":"levelo_inurba_marseille","lat":43.299717,"lon":5.384845,"is_reserved":false,"is_disabled":false,"rental_uris":{"android":"levelo://app?vid=8ee244f3-7755-4609-871b-47e32cd4ecaf","ios":"levelo://app?vid=8ee244f3-7755-4609-871b-47e32cd4ecaf"},"vehicle_type_id":"4","last_reported":1705349257,"current_range_meters":22800,"station_id":"ce4bgj92rcd13ifvqbd0","pricing_plan_id":"free"},{"bike_id":"ae46c0bf-276d-4900-88f8-e1efbc5966e2","system_id":"levelo_inurba_marseille","lat":43.299717,"lon":5.384845,"is_reserved":false,"is_disabled":false,"rental_uris":{"android":"levelo://app?vid=ae46c0bf-276d-4900-88f8-e1efbc5966e2","ios":"levelo://app?vid=ae46c0bf-276d-4900-88f8-e1efbc5966e2"},"vehicle_type_id":"4","last_reported":1705349257,"current_range_meters":0,"station_id":"ce4bgj92rcd13ifvqbd0","pricing_plan_id":"free"},{"bike_id":"297d0ecc-5fc7-41a2-9169-7c39283d113b","system_id":"levelo_inurba_marseille","lat":43.299724,"lon":5.384848,"is_reserved":false,"is_disabled":false,"rental_uris":{"android":"levelo://app?vid=297d0ecc-5fc7-41a2-9169-7c39283d113b","ios":"levelo://app?vid=297d0ecc-5fc7-41a2-9169-7c39283d113b"},"vehicle_type_id":"4","last_reported":1705349257,"current_range_meters":6000,"station_id":"ce4bgj92rcd13ifvqbd0","pricing_plan_id":"free"},{"bike_id":"89da24bb-f76a-49cf-ad97-e42f43840035","system_id":"levelo_inurba_marseille","lat":43.299724,"lon":5.384848,"is_reserved":false,"is_disabled":false,"rental_uris":{"android":"levelo://app?vid=89da24bb-f76a-49cf-ad97-e42f43840035","ios":"levelo://app?vid=89da24bb-f76a-49cf-ad97-e42f43840035"},"vehicle_type_id":"4","last_reported":1705349257,"current_range_meters":27200,"station_id":"ce4bgj92rcd13ifvqbd0","pricing_plan_id":"free"},{"bike_id":"23b27a69-40e4-40e1-a8b8-7b4b9ad9a31c","system_id":"levelo_inurba_marseille","lat":43.299717,"lon":5.384845,"is_reserved":false,"is_disabled":false,"rental_uris":{"android":"levelo://app?vid=23b27a69-40e4-40e1-a8b8-7b4b9ad9a31c","ios":"levelo://app?vid=23b27a69-40e4-40e1-a8b8-7b4b9ad9a31c"},"vehicle_type_id":"4","last_reported":1705349257,"current_range_meters":2800,"station_id":"ce4bgj92rcd13ifvqbd0","pricing_plan_id":"free"},{"bike_id":"789a82ba-d300-4ba9-a4dd-f900518ce9c3","system_id":"levelo_inurba_marseille","lat":43.299717,"lon":5.384845,"is_reserved":false,"is_disabled":false,"rental_uris":{"android":"levelo://app?vid=789a82ba-d300-4ba9-a4dd-f900518ce9c3","ios":"levelo://app?vid=789a82ba-d300-4ba9-a4dd-f900518ce9c3"},"vehicle_type_id":"4","last_reported":1705349257,"current_range_meters":28800,"station_id":"ce4bgj92rcd13ifvqbd0","pricing_plan_id":"free"},{"bike_id":"e90d9cd5-21eb-4b64-9135-e4bf100b58dd","system_id":"levelo_inurba_marseille","lat":43.32367,"lon":5.388836,"is_reserved":false,"is_disabled":false,"rental_uris":{"android":"levelo://app?vid=e90d9cd5-21eb-4b64-9135-e4bf100b58dd","ios":"levelo://app?vid=e90d9cd5-21eb-4b64-9135-e4bf100b58dd"},"vehicle_type_id":"4","last_reported":1705349257,"current_range_meters":17200,"station_id":"ce4bhqp2rcd13ifvqhog","pricing_plan_id":"free"},{"bike_id":"65200528-92c8-43dc-a28c-65f22643d5f6","system_id":"levelo_inurba_marseille","lat":43.32365,"lon":5.38885,"is_reserved":false,"is_disabled":false,"rental_uris":{"android":"levelo://app?vid=65200528-92c8-43dc-a28c-65f22643d5f6","ios":"levelo://app?vid=65200528-92c8-43dc-a28c-65f22643d5f6"},"vehicle_type_id":"4","last_reported":1705349257,"current_range_meters":19200,"station_id":"ce4bhqp2rcd13ifvqhog","pricing_plan_id":"free"},{"bike_id":"93a7541d-594c-4713-9c37-84d0b76dd655","system_id":"levelo_inurba_marseille","lat":43.32366,"lon":5.38888,"is_reserved":false,"is_disabled":false,"rental_uris":{"android":"levelo://app?vid=93a7541d-594c-4713-9c37-84d0b76dd655","ios":"levelo://app?vid=93a7541d-594c-4713-9c37-84d0b76dd655"},"vehicle_type_id":"4","last_reported":1705349257,"current_range_meters":2800,"station_id":"ce4bhqp2rcd13ifvqhog","pricing_plan_id":"free"},{"bike_id":"975cd3cf-0f10-48f8-8454-8d073726b511","system_id":"levelo_inurba_marseille","lat":43.293249,"lon":5.371578,"is_reserved":false,"is_disabled":false,"rental_uris":{"android":"levelo://app?vid=975cd3cf-0f10-48f8-8454-8d073726b511","ios":"levelo://app?vid=975cd3cf-0f10-48f8-8454-8d073726b511"},"vehicle_type_id":"4","last_reported":1705349257,"current_range_meters":12400,"station_id":"ce4bgh92rcd13ifvqb40","pricing_plan_id":"free"},{"bike_id":"01ba3ad2-255d-4353-b7d7-56476b5102e7","system_id":"levelo_inurba_marseille","lat":43.305994,"lon":5.393687,"is_reserved":false,"is_disabled":false,"rental_uris":{"android":"levelo://app?vid=01ba3ad2-255d-4353-b7d7-56476b5102e7","ios":"levelo://app?vid=01ba3ad2-255d-4353-b7d7-56476b5102e7"},"vehicle_type_id":"4","last_reported":1705349257,"current_range_meters":4400,"station_id":"ce4bh0p2rcd13ifvqd80","pricing_plan_id":"free"},{"bike_id":"7f4f937f-876e-4598-8f41-063b827ed483","system_id":"levelo_inurba_marseille","lat":43.303002,"lon":5.392142,"is_reserved":false,"is_disabled":false,"rental_uris":{"android":"levelo://app?vid=7f4f937f-876e-4598-8f41-063b827ed483","ios":"levelo://app?vid=7f4f937f-876e-4598-8f41-063b827ed483"},"vehicle_type_id":"4","last_reported":1705349257,"current_range_meters":18400,"station_id":"ce4bgkh2rcd13ifvqbk0","pricing_plan_id":"free"},{"bike_id":"3edef64f-8aed-4508-9c2f-572de4b4522a","system_id":"levelo_inurba_marseille","lat":43.303002,"lon":5.392142,"is_reserved":false,"is_disabled":false,"rental_uris":{"android":"levelo://app?vid=3edef64f-8aed-4508-9c2f-572de4b4522a","ios":"levelo://app?vid=3edef64f-8aed-4508-9c2f-572de4b4522a"},"vehicle_type_id":"4","last_reported":1705349257,"current_range_meters":23200,"station_id":"ce4bgkh2rcd13ifvqbk0","pricing_plan_id":"free"},{"bike_id":"6e1212b3-4c3f-4750-a004-dbf5a972f76d","system_id":"levelo_inurba_marseille","lat":43.302992,"lon":5.392136,"is_reserved":false,"is_disabled":false,"rental_uris":{"android":"levelo://app?vid=6e1212b3-4c3f-4750-a004-dbf5a972f76d","ios":"levelo://app?vid=6e1212b3-4c3f-4750-a004-dbf5a972f76d"},"vehicle_type_id":"4","last_reported":1705349257,"current_range_meters":10000,"station_id":"ce4bgkh2rcd13ifvqbk0","pricing_plan_id":"free"},{"bike_id":"80b53e42-a659-47c9-b2f9-f1d7067f54fb","system_id":"levelo_inurba_marseille","lat":43.30091,"lon":5.390623,"is_reserved":false,"is_disabled":false,"rental_uris":{"android":"levelo://app?vid=80b53e42-a659-47c9-b2f9-f1d7067f54fb","ios":"levelo://app?vid=80b53e42-a659-47c9-b2f9-f1d7067f54fb"},"vehicle_type_id":"4","last_reported":1705349257,"current_range_meters":22000,"station_id":"ce4bh192rcd13ifvqdb0","pricing_plan_id":"free"},{"bike_id":"b1d6e2da-2a99-4503-8665-3cbdfb02fc0d","system_id":"levelo_inurba_marseille","lat":43.30099,"lon":5.39072,"is_reserved":false,"is_disabled":false,"rental_uris":{"android":"levelo://app?vid=b1d6e2da-2a99-4503-8665-3cbdfb02fc0d","ios":"levelo://app?vid=b1d6e2da-2a99-4503-8665-3cbdfb02fc0d"},"vehicle_type_id":"4","last_reported":1705349257,"current_range_meters":5600,"station_id":"ce4bh192rcd13ifvqdb0","pricing_plan_id":"free"},{"bike_id":"057b1649-b67d-4e4c-b0ca-bdc1cb688c65","system_id":"levelo_inurba_marseille","lat":43.30093,"lon":5.39069,"is_reserved":false,"is_disabled":false,"rental_uris":{"android":"levelo://app?vid=057b1649-b67d-4e4c-b0ca-bdc1cb688c65","ios":"levelo://app?vid=057b1649-b67d-4e4c-b0ca-bdc1cb688c65"},"vehicle_type_id":"4","last_reported":1705349257,"current_range_meters":30800,"station_id":"ce4bh192rcd13ifvqdb0","pricing_plan_id":"free"},{"bike_id":"1ca8baa9-464e-4704-84ea-04ab2c8b81ea","system_id":"levelo_inurba_marseille","lat":43.30085,"lon":5.390856,"is_reserved":false,"is_disabled":false,"rental_uris":{"android":"levelo://app?vid=1ca8baa9-464e-4704-84ea-04ab2c8b81ea","ios":"levelo://app?vid=1ca8baa9-464e-4704-84ea-04ab2c8b81ea"},"vehicle_type_id":"4","last_reported":1705349257,"current_range_meters":10800,"station_id":"ce4bh192rcd13ifvqdb0","pricing_plan_id":"free"},{"bike_id":"c33a6b50-dc01-45ac-81ae-186086b00d66","system_id":"levelo_inurba_marseille","lat":43.30085,"lon":5.390856,"is_reserved":false,"is_disabled":false,"rental_uris":{"android":"levelo://app?vid=c33a6b50-dc01-45ac-81ae-186086b00d66","ios":"levelo://app?vid=c33a6b50-dc01-45ac-81ae-186086b00d66"},"vehicle_type_id":"4","last_reported":1705349257,"current_range_meters":22400,"station_id":"ce4bh192rcd13ifvqdb0","pricing_plan_id":"free"},{"bike_id":"f7af55ed-57c7-4108-a75b-06b307aeb981","system_id":"levelo_inurba_marseille","lat":43.300939,"lon":5.390786,"is_reserved":false,"is_disabled":false,"rental_uris":{"android":"levelo://app?vid=f7af55ed-57c7-4108-a75b-06b307aeb981","ios":"levelo://app?vid=f7af55ed-57c7-4108-a75b-06b307aeb981"},"vehicle_type_id":"4","last_reported":1705349257,"current_range_meters":31200,"station_id":"ce4bh192rcd13ifvqdb0","pricing_plan_id":"free"},{"bike_id":"164a637c-7aea-4fa5-b9f4-d0e5dd655dfa","system_id":"levelo_inurba_marseille","lat":43.30089,"lon":5.39082,"is_reserved":false,"is_disabled":false,"rental_uris":{"android":"levelo://app?vid=164a637c-7aea-4fa5-b9f4-d0e5dd655dfa","ios":"levelo://app?vid=164a637c-7aea-4fa5-b9f4-d0e5dd655dfa"},"vehicle_type_id":"4","last_reported":1705349257,"current_range_meters":26800,"station_id":"ce4bh192rcd13ifvqdb0","pricing_plan_id":"free"},{"bike_id":"b5b19703-e0c6-4438-a04d-cb426ce5c274","system_id":"levelo_inurba_marseille","lat":43.30085,"lon":5.390856,"is_reserved":false,"is_disabled":false,"rental_uris":{"android":"levelo://app?vid=b5b19703-e0c6-4438-a04d-cb426ce5c274","ios":"levelo://app?vid=b5b19703-e0c6-4438-a04d-cb426ce5c274"},"vehicle_type_id":"4","last_reported":1705349257,"current_range_meters":18400,"station_id":"ce4bh192rcd13ifvqdb0","pricing_plan_id":"free"},{"bike_id":"7ac2c073-ceb7-42b3-bd8e-71853ee69678","system_id":"levelo_inurba_marseille","lat":43.298715,"lon":5.389095,"is_reserved":false,"is_disabled":false,"rental_uris":{"android":"levelo://app?vid=7ac2c073-ceb7-42b3-bd8e-71853ee69678","ios":"levelo://app?vid=7ac2c073-ceb7-42b3-bd8e-71853ee69678"},"vehicle_type_id":"4","last_reported":1705349257,"current_range_meters":7600,"station_id":"","pricing_plan_id":"free"},{"bike_id":"57b665f4-f319-4b8d-942e-6575db1ce933","system_id":"levelo_inurba_marseille","lat":43.309038,"lon":5.396546,"is_reserved":false,"is_disabled":false,"rental_uris":{"android":"levelo://app?vid=57b665f4-f319-4b8d-942e-6575db1ce933","ios":"levelo://app?vid=57b665f4-f319-4b8d-942e-6575db1ce933"},"vehicle_type_id":"4","last_reported":1705349257,"current_range_meters":22400,"station_id":"ce4bh012rcd13ifvqcv0","pricing_plan_id":"free"},{"bike_id":"2c1cb98b-2e67-4033-b382-27f357b7d55d","system_id":"levelo_inurba_marseille","lat":43.291994,"lon":5.357886,"is_reserved":false,"is_disabled":false,"rental_uris":{"android":"levelo://app?vid=2c1cb98b-2e67-4033-b382-27f357b7d55d","ios":"levelo://app?vid=2c1cb98b-2e67-4033-b382-27f357b7d55d"},"vehicle_type_id":"4","last_reported":1705349257,"current_range_meters":7600,"station_id":"ce4bhb12rcd13ifvqel0","pricing_plan_id":"free"},{"bike_id":"2636b231-4206-4490-9f91-c070f0b1544b","system_id":"levelo_inurba_marseille","lat":43.31327,"lon":5.39683,"is_reserved":false,"is_disabled":false,"rental_uris":{"android":"levelo://app?vid=2636b231-4206-4490-9f91-c070f0b1544b","ios":"levelo://app?vid=2636b231-4206-4490-9f91-c070f0b1544b"},"vehicle_type_id":"4","last_reported":1705349257,"current_range_meters":8800,"station_id":"ce4bgvp2rcd13ifvqcu0","pricing_plan_id":"free"},{"bike_id":"f4baf2cb-b721-49c1-bfd8-dc795f2dcb63","system_id":"levelo_inurba_marseille","lat":43.291994,"lon":5.357886,"is_reserved":false,"is_disabled":false,"rental_uris":{"android":"levelo://app?vid=f4baf2cb-b721-49c1-bfd8-dc795f2dcb63","ios":"levelo://app?vid=f4baf2cb-b721-49c1-bfd8-dc795f2dcb63"},"vehicle_type_id":"4","last_reported":1705349257,"current_range_meters":0,"station_id":"ce4bhb12rcd13ifvqel0","pricing_plan_id":"free"},{"bike_id":"5d613254-b166-4242-a63f-f57f32c5121d","system_id":"levelo_inurba_marseille","lat":43.291994,"lon":5.357886,"is_reserved":false,"is_disabled":false,"rental_uris":{"android":"levelo://app?vid=5d613254-b166-4242-a63f-f57f32c5121d","ios":"levelo://app?vid=5d613254-b166-4242-a63f-f57f32c5121d"},"vehicle_type_id":"4","last_reported":1705349257,"current_range_meters":0,"station_id":"ce4bhb12rcd13ifvqel0","pricing_plan_id":"free"},{"bike_id":"075d879c-2c2b-4773-a072-eb3a1e7ff3ee","system_id":"levelo_inurba_marseille","lat":43.309038,"lon":5.396546,"is_reserved":false,"is_disabled":false,"rental_uris":{"android":"levelo://app?vid=075d879c-2c2b-4773-a072-eb3a1e7ff3ee","ios":"levelo://app?vid=075d879c-2c2b-4773-a072-eb3a1e7ff3ee"},"vehicle_type_id":"4","last_reported":1705349257,"current_range_meters":0,"station_id":"ce4bh012rcd13ifvqcv0","pricing_plan_id":"free"},{"bike_id":"c2b39b24-b68b-404d-bb28-e9dafb664f06","system_id":"levelo_inurba_marseille","lat":43.31322,"lon":5.39687,"is_reserved":false,"is_disabled":false,"rental_uris":{"android":"levelo://app?vid=c2b39b24-b68b-404d-bb28-e9dafb664f06","ios":"levelo://app?vid=c2b39b24-b68b-404d-bb28-e9dafb664f06"},"vehicle_type_id":"4","last_reported":1705349257,"current_range_meters":0,"station_id":"ce4bgvp2rcd13ifvqcu0","pricing_plan_id":"free"},{"bike_id":"51464891-7099-4d77-a4fa-502482b7396e","system_id":"levelo_inurba_marseille","lat":43.309038,"lon":5.396546,"is_reserved":false,"is_disabled":false,"rental_uris":{"android":"levelo://app?vid=51464891-7099-4d77-a4fa-502482b7396e","ios":"levelo://app?vid=51464891-7099-4d77-a4fa-502482b7396e"},"vehicle_type_id":"4","last_reported":1705349257,"current_range_meters":13600,"station_id":"ce4bh012rcd13ifvqcv0","pricing_plan_id":"free"},{"bike_id":"34481da4-989f-464f-a0c0-9cfb5ecfb22f","system_id":"levelo_inurba_marseille","lat":43.313291,"lon":5.396838,"is_reserved":false,"is_disabled":false,"rental_uris":{"android":"levelo://app?vid=34481da4-989f-464f-a0c0-9cfb5ecfb22f","ios":"levelo://app?vid=34481da4-989f-464f-a0c0-9cfb5ecfb22f"},"vehicle_type_id":"4","last_reported":1705349257,"current_range_meters":10800,"station_id":"ce4bgvp2rcd13ifvqcu0","pricing_plan_id":"free"},{"bike_id":"05f3e013-f23f-4e19-b210-e978d2056fba","system_id":"levelo_inurba_marseille","lat":43.313291,"lon":5.396838,"is_reserved":false,"is_disabled":false,"rental_uris":{"android":"levelo://app?vid=05f3e013-f23f-4e19-b210-e978d2056fba","ios":"levelo://app?vid=05f3e013-f23f-4e19-b210-e978d2056fba"},"vehicle_type_id":"4","last_reported":1705349257,"current_range_meters":15200,"station_id":"ce4bgvp2rcd13ifvqcu0","pricing_plan_id":"free"},{"bike_id":"6ce6ff1f-7574-4c07-ae29-26be6cab494f","system_id":"levelo_inurba_marseille","lat":43.309038,"lon":5.396546,"is_reserved":false,"is_disabled":false,"rental_uris":{"android":"levelo://app?vid=6ce6ff1f-7574-4c07-ae29-26be6cab494f","ios":"levelo://app?vid=6ce6ff1f-7574-4c07-ae29-26be6cab494f"},"vehicle_type_id":"4","last_reported":1705349257,"current_range_meters":22800,"station_id":"ce4bh012rcd13ifvqcv0","pricing_plan_id":"free"},{"bike_id":"c0f02293-aa3d-4dce-b4c6-0ccc51373fd8","system_id":"levelo_inurba_marseille","lat":43.313291,"lon":5.396838,"is_reserved":false,"is_disabled":false,"rental_uris":{"android":"levelo://app?vid=c0f02293-aa3d-4dce-b4c6-0ccc51373fd8","ios":"levelo://app?vid=c0f02293-aa3d-4dce-b4c6-0ccc51373fd8"},"vehicle_type_id":"4","last_reported":1705349257,"current_range_meters":30400,"station_id":"ce4bgvp2rcd13ifvqcu0","pricing_plan_id":"free"},{"bike_id":"2136494a-63e9-48e2-b09d-20a9b552a9c0","system_id":"levelo_inurba_marseille","lat":43.313291,"lon":5.396838,"is_reserved":false,"is_disabled":false,"rental_uris":{"android":"levelo://app?vid=2136494a-63e9-48e2-b09d-20a9b552a9c0","ios":"levelo://app?vid=2136494a-63e9-48e2-b09d-20a9b552a9c0"},"vehicle_type_id":"4","last_reported":1705349257,"current_range_meters":800,"station_id":"ce4bgvp2rcd13ifvqcu0","pricing_plan_id":"free"},{"bike_id":"a69de351-f399-45e2-8368-0c7edce63f4e","system_id":"levelo_inurba_marseille","lat":43.313291,"lon":5.396838,"is_reserved":false,"is_disabled":false,"rental_uris":{"android":"levelo://app?vid=a69de351-f399-45e2-8368-0c7edce63f4e","ios":"levelo://app?vid=a69de351-f399-45e2-8368-0c7edce63f4e"},"vehicle_type_id":"4","last_reported":1705349257,"current_range_meters":0,"station_id":"ce4bgvp2rcd13ifvqcu0","pricing_plan_id":"free"},{"bike_id":"a0a3e436-f134-47e5-ac13-980dabf9329c","system_id":"levelo_inurba_marseille","lat":43.313291,"lon":5.396838,"is_reserved":false,"is_disabled":false,"rental_uris":{"android":"levelo://app?vid=a0a3e436-f134-47e5-ac13-980dabf9329c","ios":"levelo://app?vid=a0a3e436-f134-47e5-ac13-980dabf9329c"},"vehicle_type_id":"4","last_reported":1705349257,"current_range_meters":23600,"station_id":"ce4bgvp2rcd13ifvqcu0","pricing_plan_id":"free"},{"bike_id":"dc7fc9eb-be7e-48ed-b16e-98f66dd11501","system_id":"levelo_inurba_marseille","lat":43.313291,"lon":5.396838,"is_reserved":false,"is_disabled":false,"rental_uris":{"android":"levelo://app?vid=dc7fc9eb-be7e-48ed-b16e-98f66dd11501","ios":"levelo://app?vid=dc7fc9eb-be7e-48ed-b16e-98f66dd11501"},"vehicle_type_id":"4","last_reported":1705349257,"current_range_meters":16400,"station_id":"ce4bgvp2rcd13ifvqcu0","pricing_plan_id":"free"},{"bike_id":"6559cdb6-2faf-49f7-801e-39131101e175","system_id":"levelo_inurba_marseille","lat":43.313291,"lon":5.396838,"is_reserved":false,"is_disabled":false,"rental_uris":{"android":"levelo://app?vid=6559cdb6-2faf-49f7-801e-39131101e175","ios":"levelo://app?vid=6559cdb6-2faf-49f7-801e-39131101e175"},"vehicle_type_id":"4","last_reported":1705349257,"current_range_meters":22000,"station_id":"ce4bgvp2rcd13ifvqcu0","pricing_plan_id":"free"},{"bike_id":"f633d584-c7ae-4af1-8cf8-7c8c7d38dde4","system_id":"levelo_inurba_marseille","lat":43.313291,"lon":5.396838,"is_reserved":false,"is_disabled":false,"rental_uris":{"android":"levelo://app?vid=f633d584-c7ae-4af1-8cf8-7c8c7d38dde4","ios":"levelo://app?vid=f633d584-c7ae-4af1-8cf8-7c8c7d38dde4"},"vehicle_type_id":"4","last_reported":1705349257,"current_range_meters":31600,"station_id":"ce4bgvp2rcd13ifvqcu0","pricing_plan_id":"free"},{"bike_id":"d745d548-4b45-4abc-8a5c-fac4a834e3a5","system_id":"levelo_inurba_marseille","lat":43.313291,"lon":5.396838,"is_reserved":false,"is_disabled":false,"rental_uris":{"android":"levelo://app?vid=d745d548-4b45-4abc-8a5c-fac4a834e3a5","ios":"levelo://app?vid=d745d548-4b45-4abc-8a5c-fac4a834e3a5"},"vehicle_type_id":"4","last_reported":1705349257,"current_range_meters":28400,"station_id":"ce4bgvp2rcd13ifvqcu0","pricing_plan_id":"free"},{"bike_id":"32d91121-d766-4137-9df2-1977d98c812e","system_id":"levelo_inurba_marseille","lat":43.309047,"lon":5.396551,"is_reserved":false,"is_disabled":false,"rental_uris":{"android":"levelo://app?vid=32d91121-d766-4137-9df2-1977d98c812e","ios":"levelo://app?vid=32d91121-d766-4137-9df2-1977d98c812e"},"vehicle_type_id":"4","last_reported":1705349257,"current_range_meters":29600,"station_id":"ce4bh012rcd13ifvqcv0","pricing_plan_id":"free"},{"bike_id":"e02c11c2-9959-4cf7-a61f-5572f7381533","system_id":"levelo_inurba_marseille","lat":43.313291,"lon":5.396838,"is_reserved":false,"is_disabled":false,"rental_uris":{"android":"levelo://app?vid=e02c11c2-9959-4cf7-a61f-5572f7381533","ios":"levelo://app?vid=e02c11c2-9959-4cf7-a61f-5572f7381533"},"vehicle_type_id":"4","last_reported":1705349257,"current_range_meters":22000,"station_id":"ce4bgvp2rcd13ifvqcu0","pricing_plan_id":"free"},{"bike_id":"8b757b99-17ea-4abc-a5a5-1b5325a5ddae","system_id":"levelo_inurba_marseille","lat":43.309038,"lon":5.396546,"is_reserved":false,"is_disabled":false,"rental_uris":{"android":"levelo://app?vid=8b757b99-17ea-4abc-a5a5-1b5325a5ddae","ios":"levelo://app?vid=8b757b99-17ea-4abc-a5a5-1b5325a5ddae"},"vehicle_type_id":"4","last_reported":1705349257,"current_range_meters":2000,"station_id":"ce4bh012rcd13ifvqcv0","pricing_plan_id":"free"},{"bike_id":"b7470b05-6a21-47b8-a353-6aa535052877","system_id":"levelo_inurba_marseille","lat":43.309038,"lon":5.396546,"is_reserved":false,"is_disabled":false,"rental_uris":{"android":"levelo://app?vid=b7470b05-6a21-47b8-a353-6aa535052877","ios":"levelo://app?vid=b7470b05-6a21-47b8-a353-6aa535052877"},"vehicle_type_id":"4","last_reported":1705349257,"current_range_meters":7200,"station_id":"ce4bh012rcd13ifvqcv0","pricing_plan_id":"free"},{"bike_id":"f009bb20-5c1d-4c12-aa21-8155c85b7941","system_id":"levelo_inurba_marseille","lat":43.29531,"lon":5.38539,"is_reserved":false,"is_disabled":false,"rental_uris":{"android":"levelo://app?vid=f009bb20-5c1d-4c12-aa21-8155c85b7941","ios":"levelo://app?vid=f009bb20-5c1d-4c12-aa21-8155c85b7941"},"vehicle_type_id":"4","last_reported":1705349257,"current_range_meters":0,"station_id":"ce4bgih2rcd13ifvqba0","pricing_plan_id":"free"},{"bike_id":"be4db662-db3e-4b5d-a458-20da50dab1fa","system_id":"levelo_inurba_marseille","lat":43.29529,"lon":5.385581,"is_reserved":false,"is_disabled":false,"rental_uris":{"android":"levelo://app?vid=be4db662-db3e-4b5d-a458-20da50dab1fa","ios":"levelo://app?vid=be4db662-db3e-4b5d-a458-20da50dab1fa"},"vehicle_type_id":"4","last_reported":1705349257,"current_range_meters":12000,"station_id":"ce4bgih2rcd13ifvqba0","pricing_plan_id":"free"},{"bike_id":"9ef9e815-9a64-4947-9b79-7397ac4b2d1b","system_id":"levelo_inurba_marseille","lat":43.29529,"lon":5.385581,"is_reserved":false,"is_disabled":false,"rental_uris":{"android":"levelo://app?vid=9ef9e815-9a64-4947-9b79-7397ac4b2d1b","ios":"levelo://app?vid=9ef9e815-9a64-4947-9b79-7397ac4b2d1b"},"vehicle_type_id":"4","last_reported":1705349257,"current_range_meters":15600,"station_id":"ce4bgih2rcd13ifvqba0","pricing_plan_id":"free"},{"bike_id":"49576ee1-02bf-4f2f-84c3-c40ffae2a22b","system_id":"levelo_inurba_marseille","lat":43.29529,"lon":5.385581,"is_reserved":false,"is_disabled":false,"rental_uris":{"android":"levelo://app?vid=49576ee1-02bf-4f2f-84c3-c40ffae2a22b","ios":"levelo://app?vid=49576ee1-02bf-4f2f-84c3-c40ffae2a22b"},"vehicle_type_id":"4","last_reported":1705349257,"current_range_meters":15600,"station_id":"ce4bgih2rcd13ifvqba0","pricing_plan_id":"free"},{"bike_id":"1395ba38-ca26-4dd2-acc9-d91bb3eff686","system_id":"levelo_inurba_marseille","lat":43.290779,"lon":5.371482,"is_reserved":false,"is_disabled":false,"rental_uris":{"android":"levelo://app?vid=1395ba38-ca26-4dd2-acc9-d91bb3eff686","ios":"levelo://app?vid=1395ba38-ca26-4dd2-acc9-d91bb3eff686"},"vehicle_type_id":"4","last_reported":1705349257,"current_range_meters":8400,"station_id":"ce4bh5p2rcd13ifvqe4g","pricing_plan_id":"free"},{"bike_id":"a2c97416-fd98-4b78-8575-8a487e54c188","system_id":"levelo_inurba_marseille","lat":43.295194,"lon":5.39397,"is_reserved":false,"is_disabled":false,"rental_uris":{"android":"levelo://app?vid=a2c97416-fd98-4b78-8575-8a487e54c188","ios":"levelo://app?vid=a2c97416-fd98-4b78-8575-8a487e54c188"},"vehicle_type_id":"4","last_reported":1705349257,"current_range_meters":0,"station_id":"ce4bh292rcd13ifvqdf0","pricing_plan_id":"free"},{"bike_id":"00de8398-7329-4cbf-bdb8-2d5a975755f2","system_id":"levelo_inurba_marseille","lat":43.30216,"lon":5.39474,"is_reserved":false,"is_disabled":false,"rental_uris":{"android":"levelo://app?vid=00de8398-7329-4cbf-bdb8-2d5a975755f2","ios":"levelo://app?vid=00de8398-7329-4cbf-bdb8-2d5a975755f2"},"vehicle_type_id":"4","last_reported":1705349257,"current_range_meters":12000,"station_id":"ce4bh0p2rcd13ifvqd70","pricing_plan_id":"free"},{"bike_id":"c0d1411d-5d07-42a7-b61d-84009262b054","system_id":"levelo_inurba_marseille","lat":43.302008,"lon":5.394694,"is_reserved":false,"is_disabled":false,"rental_uris":{"android":"levelo://app?vid=c0d1411d-5d07-42a7-b61d-84009262b054","ios":"levelo://app?vid=c0d1411d-5d07-42a7-b61d-84009262b054"},"vehicle_type_id":"4","last_reported":1705349257,"current_range_meters":27600,"station_id":"ce4bh0p2rcd13ifvqd70","pricing_plan_id":"free"},{"bike_id":"213d0642-0c76-4374-88a7-d97024888068","system_id":"levelo_inurba_marseille","lat":43.30206,"lon":5.39474,"is_reserved":false,"is_disabled":false,"rental_uris":{"android":"levelo://app?vid=213d0642-0c76-4374-88a7-d97024888068","ios":"levelo://app?vid=213d0642-0c76-4374-88a7-d97024888068"},"vehicle_type_id":"4","last_reported":1705349257,"current_range_meters":14800,"station_id":"ce4bh0p2rcd13ifvqd70","pricing_plan_id":"free"},{"bike_id":"996c8dbf-39f7-4581-a093-e31ea9921b42","system_id":"levelo_inurba_marseille","lat":43.290624,"lon":5.359245,"is_reserved":false,"is_disabled":false,"rental_uris":{"android":"levelo://app?vid=996c8dbf-39f7-4581-a093-e31ea9921b42","ios":"levelo://app?vid=996c8dbf-39f7-4581-a093-e31ea9921b42"},"vehicle_type_id":"4","last_reported":1705349257,"current_range_meters":25600,"station_id":"ce4bha92rcd13ifvqeg0","pricing_plan_id":"free"},{"bike_id":"29a57fcc-5c15-4796-9c96-28e3e2a9859f","system_id":"levelo_inurba_marseille","lat":43.290631,"lon":5.359244,"is_reserved":false,"is_disabled":false,"rental_uris":{"android":"levelo://app?vid=29a57fcc-5c15-4796-9c96-28e3e2a9859f","ios":"levelo://app?vid=29a57fcc-5c15-4796-9c96-28e3e2a9859f"},"vehicle_type_id":"4","last_reported":1705349257,"current_range_meters":10800,"station_id":"ce4bha92rcd13ifvqeg0","pricing_plan_id":"free"},{"bike_id":"de559a31-3f51-403b-82f9-e78fe113abd5","system_id":"levelo_inurba_marseille","lat":43.290631,"lon":5.359244,"is_reserved":false,"is_disabled":false,"rental_uris":{"android":"levelo://app?vid=de559a31-3f51-403b-82f9-e78fe113abd5","ios":"levelo://app?vid=de559a31-3f51-403b-82f9-e78fe113abd5"},"vehicle_type_id":"4","last_reported":1705349257,"current_range_meters":17200,"station_id":"ce4bha92rcd13ifvqeg0","pricing_plan_id":"free"},{"bike_id":"6ec6d612-93f0-4f91-bbe1-e14341d18b9e","system_id":"levelo_inurba_marseille","lat":43.290631,"lon":5.359244,"is_reserved":false,"is_disabled":false,"rental_uris":{"android":"levelo://app?vid=6ec6d612-93f0-4f91-bbe1-e14341d18b9e","ios":"levelo://app?vid=6ec6d612-93f0-4f91-bbe1-e14341d18b9e"},"vehicle_type_id":"4","last_reported":1705349257,"current_range_meters":29600,"station_id":"ce4bha92rcd13ifvqeg0","pricing_plan_id":"free"},{"bike_id":"f9989528-8223-4a79-a171-d3c46bc5bdea","system_id":"levelo_inurba_marseille","lat":43.289184,"lon":5.366408,"is_reserved":false,"is_disabled":false,"rental_uris":{"android":"levelo://app?vid=f9989528-8223-4a79-a171-d3c46bc5bdea","ios":"levelo://app?vid=f9989528-8223-4a79-a171-d3c46bc5bdea"},"vehicle_type_id":"4","last_reported":1705349257,"current_range_meters":6800,"station_id":"ce4bhap2rcd13ifvqek0","pricing_plan_id":"free"},{"bike_id":"f73f0cef-7519-43ed-a3ec-dbbdcc85f643","system_id":"levelo_inurba_marseille","lat":43.290327,"lon":5.375711,"is_reserved":false,"is_disabled":false,"rental_uris":{"android":"levelo://app?vid=f73f0cef-7519-43ed-a3ec-dbbdcc85f643","ios":"levelo://app?vid=f73f0cef-7519-43ed-a3ec-dbbdcc85f643"},"vehicle_type_id":"4","last_reported":1705349257,"current_range_meters":7600,"station_id":"ce4bh692rcd13ifvqe90","pricing_plan_id":"free"},{"bike_id":"07cc2c2f-e973-44d0-913b-2b44b1f72033","system_id":"levelo_inurba_marseille","lat":43.2903,"lon":5.37552,"is_reserved":false,"is_disabled":false,"rental_uris":{"android":"levelo://app?vid=07cc2c2f-e973-44d0-913b-2b44b1f72033","ios":"levelo://app?vid=07cc2c2f-e973-44d0-913b-2b44b1f72033"},"vehicle_type_id":"4","last_reported":1705349257,"current_range_meters":0,"station_id":"ce4bh692rcd13ifvqe90","pricing_plan_id":"free"},{"bike_id":"6be50228-7d8a-4482-9243-e68a95846eac","system_id":"levelo_inurba_marseille","lat":43.29415,"lon":5.38624,"is_reserved":false,"is_disabled":false,"rental_uris":{"android":"levelo://app?vid=6be50228-7d8a-4482-9243-e68a95846eac","ios":"levelo://app?vid=6be50228-7d8a-4482-9243-e68a95846eac"},"vehicle_type_id":"4","last_reported":1705349257,"current_range_meters":0,"station_id":"ce4bh2h2rcd13ifvqdh0","pricing_plan_id":"free"},{"bike_id":"c1711fe8-325e-46ad-8d89-e044962df6bd","system_id":"levelo_inurba_marseille","lat":43.294162,"lon":5.386292,"is_reserved":false,"is_disabled":false,"rental_uris":{"android":"levelo://app?vid=c1711fe8-325e-46ad-8d89-e044962df6bd","ios":"levelo://app?vid=c1711fe8-325e-46ad-8d89-e044962df6bd"},"vehicle_type_id":"4","last_reported":1705349257,"current_range_meters":19200,"station_id":"ce4bh2h2rcd13ifvqdh0","pricing_plan_id":"free"},{"bike_id":"7d8a5d63-e1df-4572-a764-a43736ac99d8","system_id":"levelo_inurba_marseille","lat":43.289447,"lon":5.363957,"is_reserved":false,"is_disabled":false,"rental_uris":{"android":"levelo://app?vid=7d8a5d63-e1df-4572-a764-a43736ac99d8","ios":"levelo://app?vid=7d8a5d63-e1df-4572-a764-a43736ac99d8"},"vehicle_type_id":"4","last_reported":1705349257,"current_range_meters":21600,"station_id":"ce4bhc92rcd13ifvqetg","pricing_plan_id":"free"},{"bike_id":"331c0f53-674b-4617-8655-7d9c24e2c064","system_id":"levelo_inurba_marseille","lat":43.289184,"lon":5.366408,"is_reserved":false,"is_disabled":false,"rental_uris":{"android":"levelo://app?vid=331c0f53-674b-4617-8655-7d9c24e2c064","ios":"levelo://app?vid=331c0f53-674b-4617-8655-7d9c24e2c064"},"vehicle_type_id":"4","last_reported":1705349257,"current_range_meters":2000,"station_id":"ce4bhap2rcd13ifvqek0","pricing_plan_id":"free"},{"bike_id":"3fc2f427-77c5-4794-a2d6-7d7ce948db31","system_id":"levelo_inurba_marseille","lat":43.289468,"lon":5.363719,"is_reserved":false,"is_disabled":false,"rental_uris":{"android":"levelo://app?vid=3fc2f427-77c5-4794-a2d6-7d7ce948db31","ios":"levelo://app?vid=3fc2f427-77c5-4794-a2d6-7d7ce948db31"},"vehicle_type_id":"4","last_reported":1705349257,"current_range_meters":0,"station_id":"ce4bhc92rcd13ifvqetg","pricing_plan_id":"free"},{"bike_id":"32ed02f2-ef4f-4f42-9d7b-42bfebfde870","system_id":"levelo_inurba_marseille","lat":43.29273,"lon":5.38442,"is_reserved":false,"is_disabled":false,"rental_uris":{"android":"levelo://app?vid=32ed02f2-ef4f-4f42-9d7b-42bfebfde870","ios":"levelo://app?vid=32ed02f2-ef4f-4f42-9d7b-42bfebfde870"},"vehicle_type_id":"4","last_reported":1705349257,"current_range_meters":400,"station_id":"ce4bh692rcd13ifvqea0","pricing_plan_id":"free"},{"bike_id":"9366f6e4-922e-4d2f-af58-7cde27151ff8","system_id":"levelo_inurba_marseille","lat":43.289468,"lon":5.363719,"is_reserved":false,"is_disabled":false,"rental_uris":{"android":"levelo://app?vid=9366f6e4-922e-4d2f-af58-7cde27151ff8","ios":"levelo://app?vid=9366f6e4-922e-4d2f-af58-7cde27151ff8"},"vehicle_type_id":"4","last_reported":1705349257,"current_range_meters":6000,"station_id":"ce4bhc92rcd13ifvqetg","pricing_plan_id":"free"},{"bike_id":"125717f8-3b83-41f5-9ec1-4bf2eab514ab","system_id":"levelo_inurba_marseille","lat":43.292644,"lon":5.384257,"is_reserved":false,"is_disabled":false,"rental_uris":{"android":"levelo://app?vid=125717f8-3b83-41f5-9ec1-4bf2eab514ab","ios":"levelo://app?vid=125717f8-3b83-41f5-9ec1-4bf2eab514ab"},"vehicle_type_id":"4","last_reported":1705349257,"current_range_meters":2400,"station_id":"ce4bh692rcd13ifvqea0","pricing_plan_id":"free"},{"bike_id":"4ffbc5bc-7668-4937-9470-52b6f70fe71c","system_id":"levelo_inurba_marseille","lat":43.290061,"lon":5.356133,"is_reserved":false,"is_disabled":false,"rental_uris":{"android":"levelo://app?vid=4ffbc5bc-7668-4937-9470-52b6f70fe71c","ios":"levelo://app?vid=4ffbc5bc-7668-4937-9470-52b6f70fe71c"},"vehicle_type_id":"4","last_reported":1705349257,"current_range_meters":26000,"station_id":"ce4bhb92rcd13ifvqen0","pricing_plan_id":"free"},{"bike_id":"dab58d51-78fb-4943-a4d2-4b114eef0413","system_id":"levelo_inurba_marseille","lat":43.290104,"lon":5.356111,"is_reserved":false,"is_disabled":false,"rental_uris":{"android":"levelo://app?vid=dab58d51-78fb-4943-a4d2-4b114eef0413","ios":"levelo://app?vid=dab58d51-78fb-4943-a4d2-4b114eef0413"},"vehicle_type_id":"4","last_reported":1705349257,"current_range_meters":1600,"station_id":"ce4bhb92rcd13ifvqen0","pricing_plan_id":"free"},{"bike_id":"3e5718b7-756d-404c-8e3b-ded3e0fe566a","system_id":"levelo_inurba_marseille","lat":43.29087,"lon":5.38144,"is_reserved":false,"is_disabled":false,"rental_uris":{"android":"levelo://app?vid=3e5718b7-756d-404c-8e3b-ded3e0fe566a","ios":"levelo://app?vid=3e5718b7-756d-404c-8e3b-ded3e0fe566a"},"vehicle_type_id":"4","last_reported":1705349257,"current_range_meters":15600,"station_id":"","pricing_plan_id":"free"},{"bike_id":"83ceab89-2380-481d-8183-50cf9cc8fd89","system_id":"levelo_inurba_marseille","lat":43.29787,"lon":5.39341,"is_reserved":false,"is_disabled":false,"rental_uris":{"android":"levelo://app?vid=83ceab89-2380-481d-8183-50cf9cc8fd89","ios":"levelo://app?vid=83ceab89-2380-481d-8183-50cf9cc8fd89"},"vehicle_type_id":"4","last_reported":1705349257,"current_range_meters":12400,"station_id":"chh1huq6cuj3fo74tm60","pricing_plan_id":"free"},{"bike_id":"73307c33-b5fa-42bb-8d6c-b07930692292","system_id":"levelo_inurba_marseille","lat":43.29791,"lon":5.39349,"is_reserved":false,"is_disabled":false,"rental_uris":{"android":"levelo://app?vid=73307c33-b5fa-42bb-8d6c-b07930692292","ios":"levelo://app?vid=73307c33-b5fa-42bb-8d6c-b07930692292"},"vehicle_type_id":"4","last_reported":1705349257,"current_range_meters":800,"station_id":"chh1huq6cuj3fo74tm60","pricing_plan_id":"free"},{"bike_id":"1db7ec23-8692-4620-8f1f-882011002fb4","system_id":"levelo_inurba_marseille","lat":43.295169,"lon":5.390426,"is_reserved":false,"is_disabled":false,"rental_uris":{"android":"levelo://app?vid=1db7ec23-8692-4620-8f1f-882011002fb4","ios":"levelo://app?vid=1db7ec23-8692-4620-8f1f-882011002fb4"},"vehicle_type_id":"4","last_reported":1705349257,"current_range_meters":13200,"station_id":"ce4bh3p2rcd13ifvqdp0","pricing_plan_id":"free"},{"bike_id":"42fde5db-d54c-4b1d-8b46-33603db2d2d1","system_id":"levelo_inurba_marseille","lat":43.330191,"lon":5.390378,"is_reserved":false,"is_disabled":false,"rental_uris":{"android":"levelo://app?vid=42fde5db-d54c-4b1d-8b46-33603db2d2d1","ios":"levelo://app?vid=42fde5db-d54c-4b1d-8b46-33603db2d2d1"},"vehicle_type_id":"4","last_reported":1705349257,"current_range_meters":13600,"station_id":"ce4bhr92rcd13ifvqhrg","pricing_plan_id":"free"},{"bike_id":"226bb269-1d10-4f64-bdf3-296d273ae135","system_id":"levelo_inurba_marseille","lat":43.330442,"lon":5.389148,"is_reserved":false,"is_disabled":false,"rental_uris":{"android":"levelo://app?vid=226bb269-1d10-4f64-bdf3-296d273ae135","ios":"levelo://app?vid=226bb269-1d10-4f64-bdf3-296d273ae135"},"vehicle_type_id":"4","last_reported":1705349257,"current_range_meters":3600,"station_id":"ce4bhr92rcd13ifvqhrg","pricing_plan_id":"free"},{"bike_id":"5e21ea74-79fb-445f-a1fd-0d2b8da69ae3","system_id":"levelo_inurba_marseille","lat":43.33022,"lon":5.39039,"is_reserved":false,"is_disabled":false,"rental_uris":{"android":"levelo://app?vid=5e21ea74-79fb-445f-a1fd-0d2b8da69ae3","ios":"levelo://app?vid=5e21ea74-79fb-445f-a1fd-0d2b8da69ae3"},"vehicle_type_id":"4","last_reported":1705349257,"current_range_meters":22800,"station_id":"ce4bhr92rcd13ifvqhrg","pricing_plan_id":"free"},{"bike_id":"1c911b6d-8c17-4da7-ab47-9a84f6bf8381","system_id":"levelo_inurba_marseille","lat":43.295169,"lon":5.390426,"is_reserved":false,"is_disabled":false,"rental_uris":{"android":"levelo://app?vid=1c911b6d-8c17-4da7-ab47-9a84f6bf8381","ios":"levelo://app?vid=1c911b6d-8c17-4da7-ab47-9a84f6bf8381"},"vehicle_type_id":"4","last_reported":1705349257,"current_range_meters":21200,"station_id":"ce4bh3p2rcd13ifvqdp0","pricing_plan_id":"free"},{"bike_id":"59bdac10-b5e9-4f03-b04f-68439b974a96","system_id":"levelo_inurba_marseille","lat":43.33025,"lon":5.39039,"is_reserved":false,"is_disabled":false,"rental_uris":{"android":"levelo://app?vid=59bdac10-b5e9-4f03-b04f-68439b974a96","ios":"levelo://app?vid=59bdac10-b5e9-4f03-b04f-68439b974a96"},"vehicle_type_id":"4","last_reported":1705349257,"current_range_meters":18000,"station_id":"ce4bhr92rcd13ifvqhrg","pricing_plan_id":"free"},{"bike_id":"12cf2268-0c09-4f12-b5d8-7ee86d88a231","system_id":"levelo_inurba_marseille","lat":43.330442,"lon":5.389148,"is_reserved":false,"is_disabled":false,"rental_uris":{"android":"levelo://app?vid=12cf2268-0c09-4f12-b5d8-7ee86d88a231","ios":"levelo://app?vid=12cf2268-0c09-4f12-b5d8-7ee86d88a231"},"vehicle_type_id":"4","last_reported":1705349257,"current_range_meters":24800,"station_id":"ce4bhr92rcd13ifvqhrg","pricing_plan_id":"free"},{"bike_id":"7c64a78d-cf44-415c-a807-707bdbdb0e66","system_id":"levelo_inurba_marseille","lat":43.330281,"lon":5.390374,"is_reserved":false,"is_disabled":false,"rental_uris":{"android":"levelo://app?vid=7c64a78d-cf44-415c-a807-707bdbdb0e66","ios":"levelo://app?vid=7c64a78d-cf44-415c-a807-707bdbdb0e66"},"vehicle_type_id":"4","last_reported":1705349257,"current_range_meters":5600,"station_id":"ce4bhr92rcd13ifvqhrg","pricing_plan_id":"free"},{"bike_id":"517b0d0b-d608-45bf-9461-35b6ce418c5d","system_id":"levelo_inurba_marseille","lat":43.330442,"lon":5.389148,"is_reserved":false,"is_disabled":false,"rental_uris":{"android":"levelo://app?vid=517b0d0b-d608-45bf-9461-35b6ce418c5d","ios":"levelo://app?vid=517b0d0b-d608-45bf-9461-35b6ce418c5d"},"vehicle_type_id":"4","last_reported":1705349257,"current_range_meters":1200,"station_id":"ce4bhr92rcd13ifvqhrg","pricing_plan_id":"free"},{"bike_id":"01e38aca-98ec-4cb6-92bd-560feff5052c","system_id":"levelo_inurba_marseille","lat":43.297349,"lon":5.393072,"is_reserved":false,"is_disabled":false,"rental_uris":{"android":"levelo://app?vid=01e38aca-98ec-4cb6-92bd-560feff5052c","ios":"levelo://app?vid=01e38aca-98ec-4cb6-92bd-560feff5052c"},"vehicle_type_id":"4","last_reported":1705349257,"current_range_meters":7600,"station_id":"chh1huq6cuj3fo74tm60","pricing_plan_id":"free"},{"bike_id":"95d7b378-6f0f-43ff-a8e6-7582e575c578","system_id":"levelo_inurba_marseille","lat":43.330442,"lon":5.389148,"is_reserved":false,"is_disabled":false,"rental_uris":{"android":"levelo://app?vid=95d7b378-6f0f-43ff-a8e6-7582e575c578","ios":"levelo://app?vid=95d7b378-6f0f-43ff-a8e6-7582e575c578"},"vehicle_type_id":"4","last_reported":1705349257,"current_range_meters":20000,"station_id":"ce4bhr92rcd13ifvqhrg","pricing_plan_id":"free"},{"bike_id":"371c9102-10ae-492a-86a3-1422da8af1d0","system_id":"levelo_inurba_marseille","lat":43.295169,"lon":5.390426,"is_reserved":false,"is_disabled":false,"rental_uris":{"android":"levelo://app?vid=371c9102-10ae-492a-86a3-1422da8af1d0","ios":"levelo://app?vid=371c9102-10ae-492a-86a3-1422da8af1d0"},"vehicle_type_id":"4","last_reported":1705349257,"current_range_meters":20000,"station_id":"ce4bh3p2rcd13ifvqdp0","pricing_plan_id":"free"},{"bike_id":"cf2a8e79-1286-47b7-b507-ef7bebc2955c","system_id":"levelo_inurba_marseille","lat":43.330442,"lon":5.389148,"is_reserved":false,"is_disabled":false,"rental_uris":{"android":"levelo://app?vid=cf2a8e79-1286-47b7-b507-ef7bebc2955c","ios":"levelo://app?vid=cf2a8e79-1286-47b7-b507-ef7bebc2955c"},"vehicle_type_id":"4","last_reported":1705349257,"current_range_meters":6800,"station_id":"ce4bhr92rcd13ifvqhrg","pricing_plan_id":"free"},{"bike_id":"570bcbcc-059a-425a-9795-e8aa33458b5c","system_id":"levelo_inurba_marseille","lat":43.297946,"lon":5.404063,"is_reserved":false,"is_disabled":false,"rental_uris":{"android":"levelo://app?vid=570bcbcc-059a-425a-9795-e8aa33458b5c","ios":"levelo://app?vid=570bcbcc-059a-425a-9795-e8aa33458b5c"},"vehicle_type_id":"4","last_reported":1705349257,"current_range_meters":20400,"station_id":"ce4bh112rcd13ifvqd90","pricing_plan_id":"free"},{"bike_id":"7f9bdf32-f004-4bb1-9024-ef0ef6de1fae","system_id":"levelo_inurba_marseille","lat":43.295169,"lon":5.390426,"is_reserved":false,"is_disabled":false,"rental_uris":{"android":"levelo://app?vid=7f9bdf32-f004-4bb1-9024-ef0ef6de1fae","ios":"levelo://app?vid=7f9bdf32-f004-4bb1-9024-ef0ef6de1fae"},"vehicle_type_id":"4","last_reported":1705349257,"current_range_meters":2800,"station_id":"ce4bh3p2rcd13ifvqdp0","pricing_plan_id":"free"},{"bike_id":"4653e896-3f04-4ff7-b200-eefbfc87f7fa","system_id":"levelo_inurba_marseille","lat":43.28856,"lon":5.358371,"is_reserved":false,"is_disabled":false,"rental_uris":{"android":"levelo://app?vid=4653e896-3f04-4ff7-b200-eefbfc87f7fa","ios":"levelo://app?vid=4653e896-3f04-4ff7-b200-eefbfc87f7fa"},"vehicle_type_id":"4","last_reported":1705349257,"current_range_meters":20800,"station_id":"ce4bhb12rcd13ifvqem0","pricing_plan_id":"free"},{"bike_id":"c391eac3-7e2f-40f3-bc09-ab8fba2744c8","system_id":"levelo_inurba_marseille","lat":43.28856,"lon":5.358371,"is_reserved":false,"is_disabled":false,"rental_uris":{"android":"levelo://app?vid=c391eac3-7e2f-40f3-bc09-ab8fba2744c8","ios":"levelo://app?vid=c391eac3-7e2f-40f3-bc09-ab8fba2744c8"},"vehicle_type_id":"4","last_reported":1705349257,"current_range_meters":10800,"station_id":"ce4bhb12rcd13ifvqem0","pricing_plan_id":"free"},{"bike_id":"01c8fe3b-8929-45c4-8ddd-cf2f64cb3102","system_id":"levelo_inurba_marseille","lat":43.28856,"lon":5.358371,"is_reserved":false,"is_disabled":false,"rental_uris":{"android":"levelo://app?vid=01c8fe3b-8929-45c4-8ddd-cf2f64cb3102","ios":"levelo://app?vid=01c8fe3b-8929-45c4-8ddd-cf2f64cb3102"},"vehicle_type_id":"4","last_reported":1705349257,"current_range_meters":29600,"station_id":"ce4bhb12rcd13ifvqem0","pricing_plan_id":"free"},{"bike_id":"c980ac14-baa5-4674-b800-34d3caeaa6b2","system_id":"levelo_inurba_marseille","lat":43.28856,"lon":5.358371,"is_reserved":false,"is_disabled":false,"rental_uris":{"android":"levelo://app?vid=c980ac14-baa5-4674-b800-34d3caeaa6b2","ios":"levelo://app?vid=c980ac14-baa5-4674-b800-34d3caeaa6b2"},"vehicle_type_id":"4","last_reported":1705349257,"current_range_meters":6000,"station_id":"ce4bhb12rcd13ifvqem0","pricing_plan_id":"free"},{"bike_id":"59d8c2f5-e469-4c63-8260-12b2c9040799","system_id":"levelo_inurba_marseille","lat":43.28856,"lon":5.358371,"is_reserved":false,"is_disabled":false,"rental_uris":{"android":"levelo://app?vid=59d8c2f5-e469-4c63-8260-12b2c9040799","ios":"levelo://app?vid=59d8c2f5-e469-4c63-8260-12b2c9040799"},"vehicle_type_id":"4","last_reported":1705349257,"current_range_meters":9200,"station_id":"ce4bhb12rcd13ifvqem0","pricing_plan_id":"free"},{"bike_id":"f9b7ee8e-2445-4c91-bb03-462ae3707aa8","system_id":"levelo_inurba_marseille","lat":43.28856,"lon":5.358371,"is_reserved":false,"is_disabled":false,"rental_uris":{"android":"levelo://app?vid=f9b7ee8e-2445-4c91-bb03-462ae3707aa8","ios":"levelo://app?vid=f9b7ee8e-2445-4c91-bb03-462ae3707aa8"},"vehicle_type_id":"4","last_reported":1705349257,"current_range_meters":10000,"station_id":"ce4bhb12rcd13ifvqem0","pricing_plan_id":"free"},{"bike_id":"09eb47b1-ddbd-4e09-88fa-70115c1b472e","system_id":"levelo_inurba_marseille","lat":43.28856,"lon":5.358371,"is_reserved":false,"is_disabled":false,"rental_uris":{"android":"levelo://app?vid=09eb47b1-ddbd-4e09-88fa-70115c1b472e","ios":"levelo://app?vid=09eb47b1-ddbd-4e09-88fa-70115c1b472e"},"vehicle_type_id":"4","last_reported":1705349257,"current_range_meters":3200,"station_id":"ce4bhb12rcd13ifvqem0","pricing_plan_id":"free"},{"bike_id":"60f5f127-2206-4404-874f-8fb8a59b7aad","system_id":"levelo_inurba_marseille","lat":43.28856,"lon":5.358371,"is_reserved":false,"is_disabled":false,"rental_uris":{"android":"levelo://app?vid=60f5f127-2206-4404-874f-8fb8a59b7aad","ios":"levelo://app?vid=60f5f127-2206-4404-874f-8fb8a59b7aad"},"vehicle_type_id":"4","last_reported":1705349257,"current_range_meters":4400,"station_id":"ce4bhb12rcd13ifvqem0","pricing_plan_id":"free"},{"bike_id":"151fe49a-05ca-4c1d-91c4-c37e963fad3d","system_id":"levelo_inurba_marseille","lat":43.28856,"lon":5.358371,"is_reserved":false,"is_disabled":false,"rental_uris":{"android":"levelo://app?vid=151fe49a-05ca-4c1d-91c4-c37e963fad3d","ios":"levelo://app?vid=151fe49a-05ca-4c1d-91c4-c37e963fad3d"},"vehicle_type_id":"4","last_reported":1705349257,"current_range_meters":10800,"station_id":"ce4bhb12rcd13ifvqem0","pricing_plan_id":"free"},{"bike_id":"c28304eb-7d5c-4381-a237-5bd88bba92db","system_id":"levelo_inurba_marseille","lat":43.312609,"lon":5.401662,"is_reserved":false,"is_disabled":false,"rental_uris":{"android":"levelo://app?vid=c28304eb-7d5c-4381-a237-5bd88bba92db","ios":"levelo://app?vid=c28304eb-7d5c-4381-a237-5bd88bba92db"},"vehicle_type_id":"4","last_reported":1705349257,"current_range_meters":0,"station_id":"ce4bh092rcd13ifvqd30","pricing_plan_id":"free"},