{"last_updated":1729793558,"ttl":60,"version":"2.2","data":{"bikes":[{"bike_id":"1568e98d-3e80-4d3a-913a-84af01bba11e","system_id":"levelo_inurba_marseille","lat":43.28153,"lon":5.42637,"is_reserved":false,"is_disabled":false,"rental_uris":{"android":"levelo://app?vid=1568e98d-3e80-4d3a-913a-84af01bba11e","ios":"levelo://app?vid=1568e98d-3e80-4d3a-913a-84af01bba11e"},"vehicle_type_id":"4","last_reported":1729793558,"current_range_meters":4400,"station_id":"ce4bhnh2rcd13ifvqgug","pricing_plan_id":"cebpf4jnsgd1na2vs0mg"},{"bike_id":"4e718520-217c-4986-8e4a-4dbcae9b7210","system_id":"levelo_inurba_marseille","lat":43.27994,"lon":5.41659,"is_reserved":false,"is_disabled":false,"rental_uris":{"android":"levelo://app?vid=4e718520-217c-4986-8e4a-4dbcae9b7210","ios":"levelo://app?vid=4e718520-217c-4986-8e4a-4dbcae9b7210"},"vehicle_type_id":"4","last_reported":1729793558,"current_range_meters":8400,"station_id":"ce4bho12rcd13ifvqh1g","pricing_plan_id":"cebpf4jnsgd1na2vs0mg"},{"bike_id":"12e099f6-5946-49e7-9019-831eb265cb5e","system_id":"levelo_inurba_marseille","lat":43.30139,"lon":5.38779,"is_reserved":false,"is_disabled":false,"rental_uris":{"android":"levelo://app?vid=12e099f6-5946-49e7-9019-831eb265cb5e","ios":"levelo://app?vid=12e099f6-5946-49e7-9019-831eb265cb5e"},"vehicle_type_id":"4","last_reported":1729793558,"current_range_meters":36800,"station_id":"ce4bghh2rcd13ifvqb60","pricing_plan_id":"cebpf4jnsgd1na2vs0mg"},{"bike_id":"02b88303-f07a-410b-8e09-9fbc37dda972","system_id":"levelo_inurba_marseille","lat":43.31061,"lon":5.38342,"is_reserved":false,"is_disabled":false,"rental_uris":{"android":"levelo://app?vid=02b88303-f07a-410b-8e09-9fbc37dda972","ios":"levelo://app?vid=02b88303-f07a-410b-8e09-9fbc37dda972"},"vehicle_type_id":"4","last_reported":1729793558,"current_range_meters":38800,"station_id":"ce4bgv92rcd13ifvqcr0","pricing_plan_id":"cebpf4jnsgd1na2vs0mg"},{"bike_id":"d92add26-76e1-4b54-9d4c-db7be93d0502","system_id":"levelo_inurba_marseille","lat":43.2407,"lon":5.37768,"is_reserved":false,"is_disabled":false,"rental_uris":{"android":"levelo://app?vid=d92add26-76e1-4b54-9d4c-db7be93d0502","ios":"levelo://app?vid=d92add26-76e1-4b54-9d4c-db7be93d0502"},"vehicle_type_id":"4","last_reported":1729793558,"current_range_meters":9600,"station_id":"ce4bhnp2rcd13ifvqgvg","pricing_plan_id":"cebpf4jnsgd1na2vs0mg"},{"bike_id":"f74a0533-091f-43c8-8798-2d3344103983","system_id":"levelo_inurba_marseille","lat":43.25728,"lon":5.41109,"is_reserved":false,"is_disabled":false,"rental_uris":{"android":"levelo://app?vid=f74a0533-091f-43c8-8798-2d3344103983","ios":"levelo://app?vid=f74a0533-091f-43c8-8798-2d3344103983"},"vehicle_type_id":"4","last_reported":1729793558,"current_range_meters":30000,"station_id":"ce4bhkp2rcd13ifvqgd0","pricing_plan_id":"cebpf4jnsgd1na2vs0mg"},{"bike_id":"8be8412e-0a83-4ac4-abd6-b6d8878e679e","system_id":"levelo_inurba_marseille","lat":43.2993,"lon":5.36546,"is_reserved":false,"is_disabled":false,"rental_uris":{"android":"levelo://app?vid=8be8412e-0a83-4ac4-abd6-b6d8878e679e","ios":"levelo://app?vid=8be8412e-0a83-4ac4-abd6-b6d8878e679e"},"vehicle_type_id":"4","last_reported":1729793558,"current_range_meters":24400,"station_id":"ce4bgm92rcd13ifvqbr0","pricing_plan_id":"cebpf4jnsgd1na2vs0mg"},{"bike_id":"d412bf4d-a15c-4572-8e8b-5bfd1e3a3a5b","system_id":"levelo_inurba_marseille","lat":43.23966,"lon":5.36632,"is_reserved":false,"is_disabled":false,"rental_uris":{"android":"levelo://app?vid=d412bf4d-a15c-4572-8e8b-5bfd1e3a3a5b","ios":"levelo://app?vid=d412bf4d-a15c-4572-8e8b-5bfd1e3a3a5b"},"vehicle_type_id":"4","last_reported":1729793558,"current_range_meters":17600,"station_id":"ce4bhi12rcd13ifvqfp0","pricing_plan_id":"cebpf4jnsgd1na2vs0mg"},{"bike_id":"0d780d82-1ae2-4253-9394-4863df867e9f","system_id":"levelo_inurba_marseille","lat":43.29904,"lon":5.37465,"is_reserved":false,"is_disabled":false,"rental_uris":{"android":"levelo://app?vid=0d780d82-1ae2-4253-9394-4863df867e9f","ios":"levelo://app?vid=0d780d82-1ae2-4253-9394-4863df867e9f"},"vehicle_type_id":"4","last_reported":1729793558,"current_range_meters":30800,"station_id":"ce4bgjh2rcd13ifvqbg0","pricing_plan_id":"cebpf4jnsgd1na2vs0mg"},{"bike_id":"86799402-bc68-40db-962d-f4179f21fce0","system_id":"levelo_inurba_marseille","lat":43.28491,"lon":5.38559,"is_reserved":false,"is_disabled":false,"rental_uris":{"android":"levelo://app?vid=86799402-bc68-40db-962d-f4179f21fce0","ios":"levelo://app?vid=86799402-bc68-40db-962d-f4179f21fce0"},"vehicle_type_id":"4","last_reported":1729793558,"current_range_meters":25200,"station_id":"ce4bh8p2rcd13ifvqeb0","pricing_plan_id":"cebpf4jnsgd1na2vs0mg"},{"bike_id":"4d6ebc7f-9e34-49e3-b482-97fc21136545","system_id":"levelo_inurba_marseille","lat":43.25718,"lon":5.41115,"is_reserved":false,"is_disabled":false,"rental_uris":{"android":"levelo://app?vid=4d6ebc7f-9e34-49e3-b482-97fc21136545","ios":"levelo://app?vid=4d6ebc7f-9e34-49e3-b482-97fc21136545"},"vehicle_type_id":"4","last_reported":1729793558,"current_range_meters":27600,"station_id":"ce4bhkp2rcd13ifvqgd0","pricing_plan_id":"cebpf4jnsgd1na2vs0mg"},{"bike_id":"e130cf78-8420-42ef-935c-589ad91611cf","system_id":"levelo_inurba_marseille","lat":43.32653,"lon":5.40994,"is_reserved":false,"is_disabled":false,"rental_uris":{"android":"levelo://app?vid=e130cf78-8420-42ef-935c-589ad91611cf","ios":"levelo://app?vid=e130cf78-8420-42ef-935c-589ad91611cf"},"vehicle_type_id":"4","last_reported":1729793558,"current_range_meters":20400,"station_id":"ce4bhpp2rcd13ifvqhgg","pricing_plan_id":"cebpf4jnsgd1na2vs0mg"},{"bike_id":"20549b49-24c9-4395-a983-66186a1e95ec","system_id":"levelo_inurba_marseille","lat":43.30136,"lon":5.38789,"is_reserved":false,"is_disabled":false,"rental_uris":{"android":"levelo://app?vid=20549b49-24c9-4395-a983-66186a1e95ec","ios":"levelo://app?vid=20549b49-24c9-4395-a983-66186a1e95ec"},"vehicle_type_id":"4","last_reported":1729793558,"current_range_meters":9200,"station_id":"ce4bghh2rcd13ifvqb60","pricing_plan_id":"cebpf4jnsgd1na2vs0mg"},{"bike_id":"0a00dd84-22c8-46bd-9bab-b407cb3b76a6","system_id":"levelo_inurba_marseille","lat":43.28274,"lon":5.35064,"is_reserved":false,"is_disabled":false,"rental_uris":{"android":"levelo://app?vid=0a00dd84-22c8-46bd-9bab-b407cb3b76a6","ios":"levelo://app?vid=0a00dd84-22c8-46bd-9bab-b407cb3b76a6"},"vehicle_type_id":"4","last_reported":1729793558,"current_range_meters":9600,"station_id":"ce4bhbp2rcd13ifvqerg","pricing_plan_id":"cebpf4jnsgd1na2vs0mg"},{"bike_id":"a500d022-298e-4099-8ff9-2d63571d1efc","system_id":"levelo_inurba_marseille","lat":43.290946,"lon":5.381293,"is_reserved":false,"is_disabled":false,"rental_uris":{"android":"levelo://app?vid=a500d022-298e-4099-8ff9-2d63571d1efc","ios":"levelo://app?vid=a500d022-298e-4099-8ff9-2d63571d1efc"},"vehicle_type_id":"4","last_reported":1729793558,"current_range_meters":32000,"station_id":"ce4bh512rcd13ifvqe2g","pricing_plan_id":"cebpf4jnsgd1na2vs0mg"},{"bike_id":"6c4013cf-d5d9-4042-bddc-4c129844519f","system_id":"levelo_inurba_marseille","lat":43.29251,"lon":5.40913,"is_reserved":false,"is_disabled":false,"rental_uris":{"android":"levelo://app?vid=6c4013cf-d5d9-4042-bddc-4c129844519f","ios":"levelo://app?vid=6c4013cf-d5d9-4042-bddc-4c129844519f"},"vehicle_type_id":"4","last_reported":1729793558,"current_range_meters":14400,"station_id":"ce4bh192rcd13ifvqdc0","pricing_plan_id":"cebpf4jnsgd1na2vs0mg"},{"bike_id":"5d7e855d-d0e4-4cc3-8449-d0b666ee367d","system_id":"levelo_inurba_marseille","lat":43.337444,"lon":5.374475,"is_reserved":false,"is_disabled":false,"rental_uris":{"android":"levelo://app?vid=5d7e855d-d0e4-4cc3-8449-d0b666ee367d","ios":"levelo://app?vid=5d7e855d-d0e4-4cc3-8449-d0b666ee367d"},"vehicle_type_id":"4","last_reported":1729793558,"current_range_meters":2800,"station_id":"","pricing_plan_id":"cebpf4jnsgd1na2vs0mg"},{"bike_id":"6b8602cc-4eb5-44a5-bf3c-7af9a7b25d57","system_id":"levelo_inurba_marseille","lat":43.27991,"lon":5.41666,"is_reserved":false,"is_disabled":false,"rental_uris":{"android":"levelo://app?vid=6b8602cc-4eb5-44a5-bf3c-7af9a7b25d57","ios":"levelo://app?vid=6b8602cc-4eb5-44a5-bf3c-7af9a7b25d57"},"vehicle_type_id":"4","last_reported":1729793558,"current_range_meters":34800,"station_id":"ce4bho12rcd13ifvqh1g","pricing_plan_id":"cebpf4jnsgd1na2vs0mg"},{"bike_id":"ce3eef46-b9e3-41dc-9130-106cb5f09144","system_id":"levelo_inurba_marseille","lat":43.24653,"lon":5.38898,"is_reserved":false,"is_disabled":false,"rental_uris":{"android":"levelo://app?vid=ce3eef46-b9e3-41dc-9130-106cb5f09144","ios":"levelo://app?vid=ce3eef46-b9e3-41dc-9130-106cb5f09144"},"vehicle_type_id":"4","last_reported":1729793558,"current_range_meters":30400,"station_id":"ce4bhg12rcd13ifvqf60","pricing_plan_id":"cebpf4jnsgd1na2vs0mg"},{"bike_id":"1919485b-5e18-4db1-9745-b2d591d5e7a3","system_id":"levelo_inurba_marseille","lat":43.26955,"lon":5.38634,"is_reserved":false,"is_disabled":false,"rental_uris":{"android":"levelo://app?vid=1919485b-5e18-4db1-9745-b2d591d5e7a3","ios":"levelo://app?vid=1919485b-5e18-4db1-9745-b2d591d5e7a3"},"vehicle_type_id":"4","last_reported":1729793558,"current_range_meters":16800,"station_id":"ce4bhh92rcd13ifvqfh0","pricing_plan_id":"cebpf4jnsgd1na2vs0mg"},{"bike_id":"0f47b5e4-3d65-447f-a831-706089cb1ae9","system_id":"levelo_inurba_marseille","lat":43.26582,"lon":5.39032,"is_reserved":false,"is_disabled":false,"rental_uris":{"android":"levelo://app?vid=0f47b5e4-3d65-447f-a831-706089cb1ae9","ios":"levelo://app?vid=0f47b5e4-3d65-447f-a831-706089cb1ae9"},"vehicle_type_id":"4","last_reported":1729793558,"current_range_meters":18800,"station_id":"ce4bhe12rcd13ifvqf30","pricing_plan_id":"cebpf4jnsgd1na2vs0mg"},{"bike_id":"97ce6431-cdfe-4c86-8575-534875aed7f5","system_id":"levelo_inurba_marseille","lat":43.3053,"lon":5.36659,"is_reserved":false,"is_disabled":false,"rental_uris":{"android":"levelo://app?vid=97ce6431-cdfe-4c86-8575-534875aed7f5","ios":"levelo://app?vid=97ce6431-cdfe-4c86-8575-534875aed7f5"},"vehicle_type_id":"4","last_reported":1729793558,"current_range_meters":6400,"station_id":"","pricing_plan_id":"cebpf4jnsgd1na2vs0mg"},{"bike_id":"ae543776-75ee-42a8-a677-3e246bf772ec","system_id":"levelo_inurba_marseille","lat":43.31715,"lon":5.43702,"is_reserved":false,"is_disabled":false,"rental_uris":{"android":"levelo://app?vid=ae543776-75ee-42a8-a677-3e246bf772ec","ios":"levelo://app?vid=ae543776-75ee-42a8-a677-3e246bf772ec"},"vehicle_type_id":"4","last_reported":1729793558,"current_range_meters":7200,"station_id":"ce4bhp92rcd13ifvqhcg","pricing_plan_id":"cebpf4jnsgd1na2vs0mg"},{"bike_id":"7b9f784f-560b-4e73-80d3-5cbaef8e2fdf","system_id":"levelo_inurba_marseille","lat":43.287354,"lon":5.361249,"is_reserved":false,"is_disabled":false,"rental_uris":{"android":"levelo://app?vid=7b9f784f-560b-4e73-80d3-5cbaef8e2fdf","ios":"levelo://app?vid=7b9f784f-560b-4e73-80d3-5cbaef8e2fdf"},"vehicle_type_id":"4","last_reported":1729793558,"current_range_meters":28800,"station_id":"cki0cbj6b192h4jlfktg","pricing_plan_id":"cebpf4jnsgd1na2vs0mg"},{"bike_id":"584c9cda-fb74-4298-bfd2-6f06a90b7acc","system_id":"levelo_inurba_marseille","lat":43.26568,"lon":5.39006,"is_reserved":false,"is_disabled":false,"rental_uris":{"android":"levelo://app?vid=584c9cda-fb74-4298-bfd2-6f06a90b7acc","ios":"levelo://app?vid=584c9cda-fb74-4298-bfd2-6f06a90b7acc"},"vehicle_type_id":"4","last_reported":1729793558,"current_range_meters":15200,"station_id":"ce4bhe12rcd13ifvqf30","pricing_plan_id":"cebpf4jnsgd1na2vs0mg"},{"bike_id":"8328022e-20d8-4383-98f8-25a728402a00","system_id":"levelo_inurba_marseille","lat":43.33731,"lon":5.3919,"is_reserved":false,"is_disabled":false,"rental_uris":{"android":"levelo://app?vid=8328022e-20d8-4383-98f8-25a728402a00","ios":"levelo://app?vid=8328022e-20d8-4383-98f8-25a728402a00"},"vehicle_type_id":"4","last_reported":1729793558,"current_range_meters":18800,"station_id":"ce4bhr92rcd13ifvqhsg","pricing_plan_id":"cebpf4jnsgd1na2vs0mg"},{"bike_id":"c70dc1e7-d574-49de-90da-08570e8dcf3b","system_id":"levelo_inurba_marseille","lat":43.29521,"lon":5.38546,"is_reserved":false,"is_disabled":false,"rental_uris":{"android":"levelo://app?vid=c70dc1e7-d574-49de-90da-08570e8dcf3b","ios":"levelo://app?vid=c70dc1e7-d574-49de-90da-08570e8dcf3b"},"vehicle_type_id":"4","last_reported":1729793558,"current_range_meters":38800,"station_id":"ce4bgih2rcd13ifvqba0","pricing_plan_id":"cebpf4jnsgd1na2vs0mg"},{"bike_id":"c47ee947-2909-41a5-bbe0-603cbb5c8694","system_id":"levelo_inurba_marseille","lat":43.27955,"lon":5.41048,"is_reserved":false,"is_disabled":false,"rental_uris":{"android":"levelo://app?vid=c47ee947-2909-41a5-bbe0-603cbb5c8694","ios":"levelo://app?vid=c47ee947-2909-41a5-bbe0-603cbb5c8694"},"vehicle_type_id":"4","last_reported":1729793558,"current_range_meters":16800,"station_id":"ce4bhnp2rcd13ifvqh0g","pricing_plan_id":"cebpf4jnsgd1na2vs0mg"},{"bike_id":"8486fe9d-9ef0-4e60-ba73-6eb6a17c52a8","system_id":"levelo_inurba_marseille","lat":43.31551,"lon":5.40569,"is_reserved":false,"is_disabled":false,"rental_uris":{"android":"levelo://app?vid=8486fe9d-9ef0-4e60-ba73-6eb6a17c52a8","ios":"levelo://app?vid=8486fe9d-9ef0-4e60-ba73-6eb6a17c52a8"},"vehicle_type_id":"4","last_reported":1729793558,"current_range_meters":10800,"station_id":"","pricing_plan_id":"cebpf4jnsgd1na2vs0mg"},{"bike_id":"7d43e1e4-ee26-42aa-8283-f18fe066ef5b","system_id":"levelo_inurba_marseille","lat":43.29561,"lon":5.37496,"is_reserved":false,"is_disabled":false,"rental_uris":{"android":"levelo://app?vid=7d43e1e4-ee26-42aa-8283-f18fe066ef5b","ios":"levelo://app?vid=7d43e1e4-ee26-42aa-8283-f18fe066ef5b"},"vehicle_type_id":"4","last_reported":1729793558,"current_range_meters":38800,"station_id":"ce4bgjh2rcd13ifvqbf0","pricing_plan_id":"cebpf4jnsgd1na2vs0mg"},{"bike_id":"bebdb1d4-3f93-430e-bc66-e7b934875b6d","system_id":"levelo_inurba_marseille","lat":43.30328,"lon":5.40439,"is_reserved":false,"is_disabled":false,"rental_uris":{"android":"levelo://app?vid=bebdb1d4-3f93-430e-bc66-e7b934875b6d","ios":"levelo://app?vid=bebdb1d4-3f93-430e-bc66-e7b934875b6d"},"vehicle_type_id":"4","last_reported":1729793558,"current_range_meters":4800,"station_id":"ce4bh012rcd13ifvqd10","pricing_plan_id":"cebpf4jnsgd1na2vs0mg"},{"bike_id":"400ccb6a-e828-421e-8399-acd3f5ea7a6e","system_id":"levelo_inurba_marseille","lat":43.30149,"lon":5.38077,"is_reserved":false,"is_disabled":false,"rental_uris":{"android":"levelo://app?vid=400ccb6a-e828-421e-8399-acd3f5ea7a6e","ios":"levelo://app?vid=400ccb6a-e828-421e-8399-acd3f5ea7a6e"},"vehicle_type_id":"4","last_reported":1729793558,"current_range_meters":30000,"station_id":"ce4bgjp2rcd13ifvqbh0","pricing_plan_id":"cebpf4jnsgd1na2vs0mg"},{"bike_id":"8dc3d884-ea78-4d85-a7b1-4cc0ca174e23","system_id":"levelo_inurba_marseille","lat":43.29269,"lon":5.38443,"is_reserved":false,"is_disabled":false,"rental_uris":{"android":"levelo://app?vid=8dc3d884-ea78-4d85-a7b1-4cc0ca174e23","ios":"levelo://app?vid=8dc3d884-ea78-4d85-a7b1-4cc0ca174e23"},"vehicle_type_id":"4","last_reported":1729793558,"current_range_meters":11200,"station_id":"ce4bh692rcd13ifvqea0","pricing_plan_id":"cebpf4jnsgd1na2vs0mg"},{"bike_id":"29b25be5-2292-4af8-b85e-04f4a7e72e17","system_id":"levelo_inurba_marseille","lat":43.23171,"lon":5.39995,"is_reserved":false,"is_disabled":false,"rental_uris":{"android":"levelo://app?vid=29b25be5-2292-4af8-b85e-04f4a7e72e17","ios":"levelo://app?vid=29b25be5-2292-4af8-b85e-04f4a7e72e17"},"vehicle_type_id":"4","last_reported":1729793558,"current_range_meters":14400,"station_id":"ce4bhn12rcd13ifvqgqg","pricing_plan_id":"cebpf4jnsgd1na2vs0mg"},{"bike_id":"c200fada-50bd-4d43-a48e-e61cfcc7c610","system_id":"levelo_inurba_marseille","lat":43.25824,"lon":5.3943,"is_reserved":false,"is_disabled":false,"rental_uris":{"android":"levelo://app?vid=c200fada-50bd-4d43-a48e-e61cfcc7c610","ios":"levelo://app?vid=c200fada-50bd-4d43-a48e-e61cfcc7c610"},"vehicle_type_id":"4","last_reported":1729793558,"current_range_meters":28000,"station_id":"ce4bhip2rcd13ifvqft0","pricing_plan_id":"cebpf4jnsgd1na2vs0mg"},{"bike_id":"f9c9b1ee-52de-4087-bfbe-6fd1be150b81","system_id":"levelo_inurba_marseille","lat":43.29554,"lon":5.42284,"is_reserved":false,"is_disabled":false,"rental_uris":{"android":"levelo://app?vid=f9c9b1ee-52de-4087-bfbe-6fd1be150b81","ios":"levelo://app?vid=f9c9b1ee-52de-4087-bfbe-6fd1be150b81"},"vehicle_type_id":"4","last_reported":1729793558,"current_range_meters":24800,"station_id":"ce4bhph2rcd13ifvqhdg","pricing_plan_id":"cebpf4jnsgd1na2vs0mg"},{"bike_id":"933557ef-e951-4c8f-adab-063805190575","system_id":"levelo_inurba_marseille","lat":43.27496,"lon":5.42449,"is_reserved":false,"is_disabled":false,"rental_uris":{"android":"levelo://app?vid=933557ef-e951-4c8f-adab-063805190575","ios":"levelo://app?vid=933557ef-e951-4c8f-adab-063805190575"},"vehicle_type_id":"4","last_reported":1729793558,"current_range_meters":26000,"station_id":"ce4bhn92rcd13ifvqgrg","pricing_plan_id":"cebpf4jnsgd1na2vs0mg"},{"bike_id":"6cbfa692-dd3a-4974-a880-ff78cda0b3ba","system_id":"levelo_inurba_marseille","lat":43.25721,"lon":5.41115,"is_reserved":false,"is_disabled":false,"rental_uris":{"android":"levelo://app?vid=6cbfa692-dd3a-4974-a880-ff78cda0b3ba","ios":"levelo://app?vid=6cbfa692-dd3a-4974-a880-ff78cda0b3ba"},"vehicle_type_id":"4","last_reported":1729793558,"current_range_meters":12400,"station_id":"ce4bhkp2rcd13ifvqgd0","pricing_plan_id":"cebpf4jnsgd1na2vs0mg"},{"bike_id":"407d3a17-511a-4ab6-9df5-e20fc50d90ad","system_id":"levelo_inurba_marseille","lat":43.25582,"lon":5.38235,"is_reserved":false,"is_disabled":false,"rental_uris":{"android":"levelo://app?vid=407d3a17-511a-4ab6-9df5-e20fc50d90ad","ios":"levelo://app?vid=407d3a17-511a-4ab6-9df5-e20fc50d90ad"},"vehicle_type_id":"4","last_reported":1729793558,"current_range_meters":32400,"station_id":"ce4bhih2rcd13ifvqfs0","pricing_plan_id":"cebpf4jnsgd1na2vs0mg"},{"bike_id":"40b6a190-8fcd-4b6f-a8cf-65dcafb7d5cf","system_id":"levelo_inurba_marseille","lat":43.29914,"lon":5.38152,"is_reserved":false,"is_disabled":false,"rental_uris":{"android":"levelo://app?vid=40b6a190-8fcd-4b6f-a8cf-65dcafb7d5cf","ios":"levelo://app?vid=40b6a190-8fcd-4b6f-a8cf-65dcafb7d5cf"},"vehicle_type_id":"4","last_reported":1729793558,"current_range_meters":11200,"station_id":"ce4bgj12rcd13ifvqbc0","pricing_plan_id":"cebpf4jnsgd1na2vs0mg"},{"bike_id":"9beba0bb-73b8-4818-8d27-d144509fb288","system_id":"levelo_inurba_marseille","lat":43.27994,"lon":5.40015,"is_reserved":false,"is_disabled":false,"rental_uris":{"android":"levelo://app?vid=9beba0bb-73b8-4818-8d27-d144509fb288","ios":"levelo://app?vid=9beba0bb-73b8-4818-8d27-d144509fb288"},"vehicle_type_id":"4","last_reported":1729793558,"current_range_meters":9200,"station_id":"ce4bho92rcd13ifvqh4g","pricing_plan_id":"cebpf4jnsgd1na2vs0mg"},{"bike_id":"be8fbca4-3dcd-4e0e-96d2-8c570f59713c","system_id":"levelo_inurba_marseille","lat":43.32479,"lon":5.36571,"is_reserved":false,"is_disabled":false,"rental_uris":{"android":"levelo://app?vid=be8fbca4-3dcd-4e0e-96d2-8c570f59713c","ios":"levelo://app?vid=be8fbca4-3dcd-4e0e-96d2-8c570f59713c"},"vehicle_type_id":"4","last_reported":1729793558,"current_range_meters":24000,"station_id":"ce4bhs12rcd13ifvqhvg","pricing_plan_id":"cebpf4jnsgd1na2vs0mg"},{"bike_id":"db646c8c-54cc-4bdb-b6bd-77b1d86b49e9","system_id":"levelo_inurba_marseille","lat":43.29025,"lon":5.38642,"is_reserved":false,"is_disabled":false,"rental_uris":{"android":"levelo://app?vid=db646c8c-54cc-4bdb-b6bd-77b1d86b49e9","ios":"levelo://app?vid=db646c8c-54cc-4bdb-b6bd-77b1d86b49e9"},"vehicle_type_id":"4","last_reported":1729793558,"current_range_meters":14400,"station_id":"ce4bh4p2rcd13ifvqe0g","pricing_plan_id":"cebpf4jnsgd1na2vs0mg"},{"bike_id":"f6a0b76a-a003-4830-9be9-66274ad91ac1","system_id":"levelo_inurba_marseille","lat":43.28043,"lon":5.36947,"is_reserved":false,"is_disabled":false,"rental_uris":{"android":"levelo://app?vid=f6a0b76a-a003-4830-9be9-66274ad91ac1","ios":"levelo://app?vid=f6a0b76a-a003-4830-9be9-66274ad91ac1"},"vehicle_type_id":"4","last_reported":1729793558,"current_range_meters":3600,"station_id":"ce4bha12rcd13ifvqef0","pricing_plan_id":"cebpf4jnsgd1na2vs0mg"},{"bike_id":"32745b13-c55b-4aa9-82ac-9fbdcc1e90be","system_id":"levelo_inurba_marseille","lat":43.28619,"lon":5.40122,"is_reserved":false,"is_disabled":false,"rental_uris":{"android":"levelo://app?vid=32745b13-c55b-4aa9-82ac-9fbdcc1e90be","ios":"levelo://app?vid=32745b13-c55b-4aa9-82ac-9fbdcc1e90be"},"vehicle_type_id":"4","last_reported":1729793558,"current_range_meters":4000,"station_id":"","pricing_plan_id":"cebpf4jnsgd1na2vs0mg"},{"bike_id":"a389a759-ac16-41bb-a668-b8d634b74462","system_id":"levelo_inurba_marseille","lat":43.27185,"lon":5.40996,"is_reserved":false,"is_disabled":false,"rental_uris":{"android":"levelo://app?vid=a389a759-ac16-41bb-a668-b8d634b74462","ios":"levelo://app?vid=a389a759-ac16-41bb-a668-b8d634b74462"},"vehicle_type_id":"4","last_reported":1729793558,"current_range_meters":10800,"station_id":"ce4bhl12rcd13ifvqgf0","pricing_plan_id":"cebpf4jnsgd1na2vs0mg"},{"bike_id":"1c3303e4-5ddf-4485-b64b-c2fa2ff3c220","system_id":"levelo_inurba_marseille","lat":43.27945,"lon":5.41051,"is_reserved":false,"is_disabled":false,"rental_uris":{"android":"levelo://app?vid=1c3303e4-5ddf-4485-b64b-c2fa2ff3c220","ios":"levelo://app?vid=1c3303e4-5ddf-4485-b64b-c2fa2ff3c220"},"vehicle_type_id":"4","last_reported":1729793558,"current_range_meters":38800,"station_id":"ce4bhnp2rcd13ifvqh0g","pricing_plan_id":"cebpf4jnsgd1na2vs0mg"},{"bike_id":"11d8d8aa-ac8f-4069-9e3e-55f2a628b964","system_id":"levelo_inurba_marseille","lat":43.29598,"lon":5.38109,"is_reserved":false,"is_disabled":false,"rental_uris":{"android":"levelo://app?vid=11d8d8aa-ac8f-4069-9e3e-55f2a628b964","ios":"levelo://app?vid=11d8d8aa-ac8f-4069-9e3e-55f2a628b964"},"vehicle_type_id":"4","last_reported":1729793558,"current_range_meters":22800,"station_id":"ce4bgl12rcd13ifvqbo0","pricing_plan_id":"cebpf4jnsgd1na2vs0mg"},{"bike_id":"1dac7c47-12d7-40e0-9d70-96c609ac1e87","system_id":"levelo_inurba_marseille","lat":43.28938,"lon":5.38399,"is_reserved":false,"is_disabled":false,"rental_uris":{"android":"levelo://app?vid=1dac7c47-12d7-40e0-9d70-96c609ac1e87","ios":"levelo://app?vid=1dac7c47-12d7-40e0-9d70-96c609ac1e87"},"vehicle_type_id":"4","last_reported":1729793558,"current_range_meters":23200,"station_id":"ce4bh612rcd13ifvqe6g","pricing_plan_id":"cebpf4jnsgd1na2vs0mg"},{"bike_id":"932177cf-772d-4579-b56a-07814398fcbc","system_id":"levelo_inurba_marseille","lat":43.30253,"lon":5.40083,"is_reserved":false,"is_disabled":false,"rental_uris":{"android":"levelo://app?vid=932177cf-772d-4579-b56a-07814398fcbc","ios":"levelo://app?vid=932177cf-772d-4579-b56a-07814398fcbc"},"vehicle_type_id":"4","last_reported":1729793558,"current_range_meters":8400,"station_id":"ce4bgvh2rcd13ifvqcs0","pricing_plan_id":"cebpf4jnsgd1na2vs0mg"},{"bike_id":"e8b49c6d-5d85-4d7a-828d-54467c4e3766","system_id":"levelo_inurba_marseille","lat":43.27071,"lon":5.42283,"is_reserved":false,"is_disabled":false,"rental_uris":{"android":"levelo://app?vid=e8b49c6d-5d85-4d7a-828d-54467c4e3766","ios":"levelo://app?vid=e8b49c6d-5d85-4d7a-828d-54467c4e3766"},"vehicle_type_id":"4","last_reported":1729793558,"current_range_meters":21600,"station_id":"ce4bhk92rcd13ifvqgb0","pricing_plan_id":"cebpf4jnsgd1na2vs0mg"},{"bike_id":"b7059ac7-639c-4bfe-bf71-ec84d08ff8ba","system_id":"levelo_inurba_marseille","lat":43.31276,"lon":5.4018,"is_reserved":false,"is_disabled":false,"rental_uris":{"android":"levelo://app?vid=b7059ac7-639c-4bfe-bf71-ec84d08ff8ba","ios":"levelo://app?vid=b7059ac7-639c-4bfe-bf71-ec84d08ff8ba"},"vehicle_type_id":"4","last_reported":1729793558,"current_range_meters":39200,"station_id":"ce4bh092rcd13ifvqd30","pricing_plan_id":"cebpf4jnsgd1na2vs0mg"},{"bike_id":"f0a286fa-865c-404e-97de-1da8f4125132","system_id":"levelo_inurba_marseille","lat":43.29552,"lon":5.42288,"is_reserved":false,"is_disabled":false,"rental_uris":{"android":"levelo://app?vid=f0a286fa-865c-404e-97de-1da8f4125132","ios":"levelo://app?vid=f0a286fa-865c-404e-97de-1da8f4125132"},"vehicle_type_id":"4","last_reported":1729793558,"current_range_meters":38800,"station_id":"ce4bhph2rcd13ifvqhdg","pricing_plan_id":"cebpf4jnsgd1na2vs0mg"},{"bike_id":"255afb77-f8a7-4769-ac47-7a51a567f782","system_id":"levelo_inurba_marseille","lat":43.3013,"lon":5.39844,"is_reserved":false,"is_disabled":false,"rental_uris":{"android":"levelo://app?vid=255afb77-f8a7-4769-ac47-7a51a567f782","ios":"levelo://app?vid=255afb77-f8a7-4769-ac47-7a51a567f782"},"vehicle_type_id":"4","last_reported":1729793558,"current_range_meters":22000,"station_id":"ce4bh0h2rcd13ifvqd40","pricing_plan_id":"cebpf4jnsgd1na2vs0mg"},{"bike_id":"f8c6f1bc-ea44-4ab8-b33c-f75f82cb071b","system_id":"levelo_inurba_marseille","lat":43.23177,"lon":5.39991,"is_reserved":false,"is_disabled":false,"rental_uris":{"android":"levelo://app?vid=f8c6f1bc-ea44-4ab8-b33c-f75f82cb071b","ios":"levelo://app?vid=f8c6f1bc-ea44-4ab8-b33c-f75f82cb071b"},"vehicle_type_id":"4","last_reported":1729793558,"current_range_meters":4400,"station_id":"ce4bhn12rcd13ifvqgqg","pricing_plan_id":"cebpf4jnsgd1na2vs0mg"},{"bike_id":"2313a2ca-cfd0-4930-8303-c58fdf4ebddf","system_id":"levelo_inurba_marseille","lat":43.29263,"lon":5.38437,"is_reserved":false,"is_disabled":false,"rental_uris":{"android":"levelo://app?vid=2313a2ca-cfd0-4930-8303-c58fdf4ebddf","ios":"levelo://app?vid=2313a2ca-cfd0-4930-8303-c58fdf4ebddf"},"vehicle_type_id":"4","last_reported":1729793558,"current_range_meters":11200,"station_id":"ce4bh692rcd13ifvqea0","pricing_plan_id":"cebpf4jnsgd1na2vs0mg"},{"bike_id":"147188f6-300c-45cc-8482-081b3781da34","system_id":"levelo_inurba_marseille","lat":43.28931,"lon":5.38383,"is_reserved":false,"is_disabled":false,"rental_uris":{"android":"levelo://app?vid=147188f6-300c-45cc-8482-081b3781da34","ios":"levelo://app?vid=147188f6-300c-45cc-8482-081b3781da34"},"vehicle_type_id":"4","last_reported":1729793558,"current_range_meters":23200,"station_id":"ce4bh612rcd13ifvqe6g","pricing_plan_id":"cebpf4jnsgd1na2vs0mg"},{"bike_id":"c13e275d-fbf8-437d-88c3-b1f9b5cdab63","system_id":"levelo_inurba_marseille","lat":43.30923,"lon":5.40141,"is_reserved":false,"is_disabled":false,"rental_uris":{"android":"levelo://app?vid=c13e275d-fbf8-437d-88c3-b1f9b5cdab63","ios":"levelo://app?vid=c13e275d-fbf8-437d-88c3-b1f9b5cdab63"},"vehicle_type_id":"4","last_reported":1729793558,"current_range_meters":6800,"station_id":"ce4bgvp2rcd13ifvqct0","pricing_plan_id":"cebpf4jnsgd1na2vs0mg"},{"bike_id":"f554178b-e0c7-42a6-9516-cb565bcc32b3","system_id":"levelo_inurba_marseille","lat":43.24807,"lon":5.37457,"is_reserved":false,"is_disabled":false,"rental_uris":{"android":"levelo://app?vid=f554178b-e0c7-42a6-9516-cb565bcc32b3","ios":"levelo://app?vid=f554178b-e0c7-42a6-9516-cb565bcc32b3"},"vehicle_type_id":"4","last_reported":1729793558,"current_range_meters":10000,"station_id":"ce4bhgh2rcd13ifvqfb0","pricing_plan_id":"cebpf4jnsgd1na2vs0mg"},{"bike_id":"d2b1bdf2-4357-4fe1-9310-b780934b2159","system_id":"levelo_inurba_marseille","lat":43.32044,"lon":5.41564,"is_reserved":false,"is_disabled":false,"rental_uris":{"android":"levelo://app?vid=d2b1bdf2-4357-4fe1-9310-b780934b2159","ios":"levelo://app?vid=d2b1bdf2-4357-4fe1-9310-b780934b2159"},"vehicle_type_id":"4","last_reported":1729793558,"current_range_meters":38800,"station_id":"ce4bhq92rcd13ifvqhkg","pricing_plan_id":"cebpf4jnsgd1na2vs0mg"},{"bike_id":"fca85bc3-c29b-4753-8b5b-cc05b1678629","system_id":"levelo_inurba_marseille","lat":43.30127,"lon":5.39853,"is_reserved":false,"is_disabled":false,"rental_uris":{"android":"levelo://app?vid=fca85bc3-c29b-4753-8b5b-cc05b1678629","ios":"levelo://app?vid=fca85bc3-c29b-4753-8b5b-cc05b1678629"},"vehicle_type_id":"4","last_reported":1729793558,"current_range_meters":32800,"station_id":"ce4bh0h2rcd13ifvqd40","pricing_plan_id":"cebpf4jnsgd1na2vs0mg"},{"bike_id":"e980b18d-e978-4420-8311-0cd0206d9023","system_id":"levelo_inurba_marseille","lat":43.24082,"lon":5.37759,"is_reserved":false,"is_disabled":false,"rental_uris":{"android":"levelo://app?vid=e980b18d-e978-4420-8311-0cd0206d9023","ios":"levelo://app?vid=e980b18d-e978-4420-8311-0cd0206d9023"},"vehicle_type_id":"4","last_reported":1729793558,"current_range_meters":10800,"station_id":"ce4bhnp2rcd13ifvqgvg","pricing_plan_id":"cebpf4jnsgd1na2vs0mg"},{"bike_id":"e8fb18d9-3dc4-481f-aa6a-be41126a152c","system_id":"levelo_inurba_marseille","lat":43.279995,"lon":5.400107,"is_reserved":false,"is_disabled":false,"rental_uris":{"android":"levelo://app?vid=e8fb18d9-3dc4-481f-aa6a-be41126a152c","ios":"levelo://app?vid=e8fb18d9-3dc4-481f-aa6a-be41126a152c"},"vehicle_type_id":"4","last_reported":1729793558,"current_range_meters":30800,"station_id":"ce4bho92rcd13ifvqh4g","pricing_plan_id":"cebpf4jnsgd1na2vs0mg"},{"bike_id":"4df89a2d-944a-4ac9-b9ea-41a3c92d5fbc","system_id":"levelo_inurba_marseille","lat":43.24657,"lon":5.38162,"is_reserved":false,"is_disabled":false,"rental_uris":{"android":"levelo://app?vid=4df89a2d-944a-4ac9-b9ea-41a3c92d5fbc","ios":"levelo://app?vid=4df89a2d-944a-4ac9-b9ea-41a3c92d5fbc"},"vehicle_type_id":"4","last_reported":1729793558,"current_range_meters":33200,"station_id":"ce4bhih2rcd13ifvqfr0","pricing_plan_id":"cebpf4jnsgd1na2vs0mg"},{"bike_id":"3d7ab4da-a673-41d5-ad5c-86ddec2c595a","system_id":"levelo_inurba_marseille","lat":43.296164,"lon":5.377346,"is_reserved":false,"is_disabled":false,"rental_uris":{"android":"levelo://app?vid=3d7ab4da-a673-41d5-ad5c-86ddec2c595a","ios":"levelo://app?vid=3d7ab4da-a673-41d5-ad5c-86ddec2c595a"},"vehicle_type_id":"4","last_reported":1729793558,"current_range_meters":17200,"station_id":"ce4bgi92rcd13ifvqb90","pricing_plan_id":"cebpf4jnsgd1na2vs0mg"},{"bike_id":"0ec032fe-ab3c-4209-9024-d51c1d010b98","system_id":"levelo_inurba_marseille","lat":43.31216,"lon":5.36842,"is_reserved":false,"is_disabled":false,"rental_uris":{"android":"levelo://app?vid=0ec032fe-ab3c-4209-9024-d51c1d010b98","ios":"levelo://app?vid=0ec032fe-ab3c-4209-9024-d51c1d010b98"},"vehicle_type_id":"4","last_reported":1729793558,"current_range_meters":39200,"station_id":"ce4bgl92rcd13ifvqbq0","pricing_plan_id":"cebpf4jnsgd1na2vs0mg"},{"bike_id":"ceb00423-949a-40d8-8e9b-b1588f8df7ea","system_id":"levelo_inurba_marseille","lat":43.28886,"lon":5.36103,"is_reserved":false,"is_disabled":false,"rental_uris":{"android":"levelo://app?vid=ceb00423-949a-40d8-8e9b-b1588f8df7ea","ios":"levelo://app?vid=ceb00423-949a-40d8-8e9b-b1588f8df7ea"},"vehicle_type_id":"4","last_reported":1729793558,"current_range_meters":22000,"station_id":"","pricing_plan_id":"cebpf4jnsgd1na2vs0mg"},{"bike_id":"9da66e77-eb62-4ecf-8d46-3a5c2e9ae4b6","system_id":"levelo_inurba_marseille","lat":43.29025,"lon":5.38635,"is_reserved":false,"is_disabled":false,"rental_uris":{"android":"levelo://app?vid=9da66e77-eb62-4ecf-8d46-3a5c2e9ae4b6","ios":"levelo://app?vid=9da66e77-eb62-4ecf-8d46-3a5c2e9ae4b6"},"vehicle_type_id":"4","last_reported":1729793558,"current_range_meters":6400,"station_id":"ce4bh4p2rcd13ifvqe0g","pricing_plan_id":"cebpf4jnsgd1na2vs0mg"},{"bike_id":"605a6615-397b-4984-b5ce-52e2e66c8501","system_id":"levelo_inurba_marseille","lat":43.25592,"lon":5.38237,"is_reserved":false,"is_disabled":false,"rental_uris":{"android":"levelo://app?vid=605a6615-397b-4984-b5ce-52e2e66c8501","ios":"levelo://app?vid=605a6615-397b-4984-b5ce-52e2e66c8501"},"vehicle_type_id":"4","last_reported":1729793558,"current_range_meters":25600,"station_id":"ce4bhih2rcd13ifvqfs0","pricing_plan_id":"cebpf4jnsgd1na2vs0mg"},{"bike_id":"856d115a-8f1b-4d78-a4f5-e6563030d0a3","system_id":"levelo_inurba_marseille","lat":43.23961,"lon":5.36632,"is_reserved":false,"is_disabled":false,"rental_uris":{"android":"levelo://app?vid=856d115a-8f1b-4d78-a4f5-e6563030d0a3","ios":"levelo://app?vid=856d115a-8f1b-4d78-a4f5-e6563030d0a3"},"vehicle_type_id":"4","last_reported":1729793558,"current_range_meters":36800,"station_id":"ce4bhi12rcd13ifvqfp0","pricing_plan_id":"cebpf4jnsgd1na2vs0mg"},{"bike_id":"327d8b68-ed3b-4d8e-a82b-f862463fe5d6","system_id":"levelo_inurba_marseille","lat":43.29785,"lon":5.37109,"is_reserved":false,"is_disabled":false,"rental_uris":{"android":"levelo://app?vid=327d8b68-ed3b-4d8e-a82b-f862463fe5d6","ios":"levelo://app?vid=327d8b68-ed3b-4d8e-a82b-f862463fe5d6"},"vehicle_type_id":"4","last_reported":1729793558,"current_range_meters":24000,"station_id":"ce4bgop2rcd13ifvqc1g","pricing_plan_id":"cebpf4jnsgd1na2vs0mg"},{"bike_id":"97ec9672-eea4-4d9a-8a25-013f09b65b94","system_id":"levelo_inurba_marseille","lat":43.25574,"lon":5.38236,"is_reserved":false,"is_disabled":false,"rental_uris":{"android":"levelo://app?vid=97ec9672-eea4-4d9a-8a25-013f09b65b94","ios":"levelo://app?vid=97ec9672-eea4-4d9a-8a25-013f09b65b94"},"vehicle_type_id":"4","last_reported":1729793558,"current_range_meters":6400,"station_id":"ce4bhih2rcd13ifvqfs0","pricing_plan_id":"cebpf4jnsgd1na2vs0mg"},{"bike_id":"bebd8251-2a0e-424a-a2c9-94c8dedde414","system_id":"levelo_inurba_marseille","lat":43.28441,"lon":5.39188,"is_reserved":false,"is_disabled":false,"rental_uris":{"android":"levelo://app?vid=bebd8251-2a0e-424a-a2c9-94c8dedde414","ios":"levelo://app?vid=bebd8251-2a0e-424a-a2c9-94c8dedde414"},"vehicle_type_id":"4","last_reported":1729793558,"current_range_meters":2800,"station_id":"ce4bhoh2rcd13ifvqh5g","pricing_plan_id":"cebpf4jnsgd1na2vs0mg"},{"bike_id":"7d32f242-6f39-41d1-84d2-ec6b2939c884","system_id":"levelo_inurba_marseille","lat":43.25574,"lon":5.38239,"is_reserved":false,"is_disabled":false,"rental_uris":{"android":"levelo://app?vid=7d32f242-6f39-41d1-84d2-ec6b2939c884","ios":"levelo://app?vid=7d32f242-6f39-41d1-84d2-ec6b2939c884"},"vehicle_type_id":"4","last_reported":1729793558,"current_range_meters":26800,"station_id":"ce4bhih2rcd13ifvqfs0","pricing_plan_id":"cebpf4jnsgd1na2vs0mg"},{"bike_id":"a6b3076f-8385-4f75-8494-94c297d80c6b","system_id":"levelo_inurba_marseille","lat":43.28473,"lon":5.3843,"is_reserved":false,"is_disabled":false,"rental_uris":{"android":"levelo://app?vid=a6b3076f-8385-4f75-8494-94c297d80c6b","ios":"levelo://app?vid=a6b3076f-8385-4f75-8494-94c297d80c6b"},"vehicle_type_id":"4","last_reported":1729793558,"current_range_meters":4400,"station_id":"ce4bh512rcd13ifvqe3g","pricing_plan_id":"cebpf4jnsgd1na2vs0mg"},{"bike_id":"62614577-a5bf-499c-b571-1fe649c05774","system_id":"levelo_inurba_marseille","lat":43.30634,"lon":5.40095,"is_reserved":false,"is_disabled":false,"rental_uris":{"android":"levelo://app?vid=62614577-a5bf-499c-b571-1fe649c05774","ios":"levelo://app?vid=62614577-a5bf-499c-b571-1fe649c05774"},"vehicle_type_id":"4","last_reported":1729793558,"current_range_meters":16800,"station_id":"ce4bh112rcd13ifvqda0","pricing_plan_id":"cebpf4jnsgd1na2vs0mg"},{"bike_id":"16bd0a14-6126-4d4d-ab5a-55e7218ae5a5","system_id":"levelo_inurba_marseille","lat":43.29702,"lon":5.36336,"is_reserved":false,"is_disabled":false,"rental_uris":{"android":"levelo://app?vid=16bd0a14-6126-4d4d-ab5a-55e7218ae5a5","ios":"levelo://app?vid=16bd0a14-6126-4d4d-ab5a-55e7218ae5a5"},"vehicle_type_id":"4","last_reported":1729793558,"current_range_meters":36800,"station_id":"","pricing_plan_id":"cebpf4jnsgd1na2vs0mg"},{"bike_id":"4ca1bec4-8c28-4521-b183-9cd7fad0bbfd","system_id":"levelo_inurba_marseille","lat":43.29111,"lon":5.4174,"is_reserved":false,"is_disabled":false,"rental_uris":{"android":"levelo://app?vid=4ca1bec4-8c28-4521-b183-9cd7fad0bbfd","ios":"levelo://app?vid=4ca1bec4-8c28-4521-b183-9cd7fad0bbfd"},"vehicle_type_id":"4","last_reported":1729793558,"current_range_meters":15200,"station_id":"","pricing_plan_id":"cebpf4jnsgd1na2vs0mg"},{"bike_id":"9c980766-3696-42be-8e1a-d22fb6edb5c5","system_id":"levelo_inurba_marseille","lat":43.30653,"lon":5.38172,"is_reserved":false,"is_disabled":false,"rental_uris":{"android":"levelo://app?vid=9c980766-3696-42be-8e1a-d22fb6edb5c5","ios":"levelo://app?vid=9c980766-3696-42be-8e1a-d22fb6edb5c5"},"vehicle_type_id":"4","last_reported":1729793558,"current_range_meters":27600,"station_id":"","pricing_plan_id":"cebpf4jnsgd1na2vs0mg"},{"bike_id":"749c1cc4-c7ef-4d26-8cd8-e7ce8b80da88","system_id":"levelo_inurba_marseille","lat":43.292572,"lon":5.409107,"is_reserved":false,"is_disabled":false,"rental_uris":{"android":"levelo://app?vid=749c1cc4-c7ef-4d26-8cd8-e7ce8b80da88","ios":"levelo://app?vid=749c1cc4-c7ef-4d26-8cd8-e7ce8b80da88"},"vehicle_type_id":"4","last_reported":1729793558,"current_range_meters":27200,"station_id":"ce4bh192rcd13ifvqdc0","pricing_plan_id":"cebpf4jnsgd1na2vs0mg"},{"bike_id":"11e7906f-c309-48e4-b38d-e336d5582d42","system_id":"levelo_inurba_marseille","lat":43.311702,"lon":5.387189,"is_reserved":false,"is_disabled":false,"rental_uris":{"android":"levelo://app?vid=11e7906f-c309-48e4-b38d-e336d5582d42","ios":"levelo://app?vid=11e7906f-c309-48e4-b38d-e336d5582d42"},"vehicle_type_id":"4","last_reported":1729793558,"current_range_meters":36800,"station_id":"ce4bgv12rcd13ifvqcp0","pricing_plan_id":"cebpf4jnsgd1na2vs0mg"},{"bike_id":"52f0e4a5-d535-4f96-b297-18be6815ac33","system_id":"levelo_inurba_marseille","lat":43.33719,"lon":5.39182,"is_reserved":false,"is_disabled":false,"rental_uris":{"android":"levelo://app?vid=52f0e4a5-d535-4f96-b297-18be6815ac33","ios":"levelo://app?vid=52f0e4a5-d535-4f96-b297-18be6815ac33"},"vehicle_type_id":"4","last_reported":1729793558,"current_range_meters":35200,"station_id":"ce4bhr92rcd13ifvqhsg","pricing_plan_id":"cebpf4jnsgd1na2vs0mg"},{"bike_id":"754334dc-7c77-42cd-ae7c-2bd7ea4eeedc","system_id":"levelo_inurba_marseille","lat":43.28561,"lon":5.380027,"is_reserved":false,"is_disabled":false,"rental_uris":{"android":"levelo://app?vid=754334dc-7c77-42cd-ae7c-2bd7ea4eeedc","ios":"levelo://app?vid=754334dc-7c77-42cd-ae7c-2bd7ea4eeedc"},"vehicle_type_id":"4","last_reported":1729793558,"current_range_meters":32000,"station_id":"ce4bhm12rcd13ifvqgkg","pricing_plan_id":"cebpf4jnsgd1na2vs0mg"},{"bike_id":"ddc9d34a-3a18-4656-afac-2c40e00335c6","system_id":"levelo_inurba_marseille","lat":43.26488,"lon":5.39557,"is_reserved":false,"is_disabled":false,"rental_uris":{"android":"levelo://app?vid=ddc9d34a-3a18-4656-afac-2c40e00335c6","ios":"levelo://app?vid=ddc9d34a-3a18-4656-afac-2c40e00335c6"},"vehicle_type_id":"4","last_reported":1729793558,"current_range_meters":16800,"station_id":"ce4bhi12rcd13ifvqfq0","pricing_plan_id":"cebpf4jnsgd1na2vs0mg"},{"bike_id":"b367af8b-eda8-41cd-96ef-cd62d93654b8","system_id":"levelo_inurba_marseille","lat":43.29036,"lon":5.37565,"is_reserved":false,"is_disabled":false,"rental_uris":{"android":"levelo://app?vid=b367af8b-eda8-41cd-96ef-cd62d93654b8","ios":"levelo://app?vid=b367af8b-eda8-41cd-96ef-cd62d93654b8"},"vehicle_type_id":"4","last_reported":1729793558,"current_range_meters":37600,"station_id":"ce4bh692rcd13ifvqe90","pricing_plan_id":"cebpf4jnsgd1na2vs0mg"},{"bike_id":"743abaf1-2fda-4a51-9e0a-0c893ab1848c","system_id":"levelo_inurba_marseille","lat":43.25586,"lon":5.38239,"is_reserved":false,"is_disabled":false,"rental_uris":{"android":"levelo://app?vid=743abaf1-2fda-4a51-9e0a-0c893ab1848c","ios":"levelo://app?vid=743abaf1-2fda-4a51-9e0a-0c893ab1848c"},"vehicle_type_id":"4","last_reported":1729793558,"current_range_meters":38000,"station_id":"ce4bhih2rcd13ifvqfs0","pricing_plan_id":"cebpf4jnsgd1na2vs0mg"},{"bike_id":"a4019c57-5f1a-417b-b52c-90925f88c55e","system_id":"levelo_inurba_marseille","lat":43.2885,"lon":5.39314,"is_reserved":false,"is_disabled":false,"rental_uris":{"android":"levelo://app?vid=a4019c57-5f1a-417b-b52c-90925f88c55e","ios":"levelo://app?vid=a4019c57-5f1a-417b-b52c-90925f88c55e"},"vehicle_type_id":"4","last_reported":1729793558,"current_range_meters":27600,"station_id":"ce4bh2p2rcd13ifvqdi0","pricing_plan_id":"cebpf4jnsgd1na2vs0mg"},{"bike_id":"2c1b7433-d417-416b-95fc-5f2de54616d0","system_id":"levelo_inurba_marseille","lat":43.2407,"lon":5.37769,"is_reserved":false,"is_disabled":false,"rental_uris":{"android":"levelo://app?vid=2c1b7433-d417-416b-95fc-5f2de54616d0","ios":"levelo://app?vid=2c1b7433-d417-416b-95fc-5f2de54616d0"},"vehicle_type_id":"4","last_reported":1729793558,"current_range_meters":30800,"station_id":"ce4bhnp2rcd13ifvqgvg","pricing_plan_id":"cebpf4jnsgd1na2vs0mg"},{"bike_id":"a1d755c6-6253-4d59-a472-ff6d9f7f3c94","system_id":"levelo_inurba_marseille","lat":43.28611,"lon":5.35105,"is_reserved":false,"is_disabled":false,"rental_uris":{"android":"levelo://app?vid=a1d755c6-6253-4d59-a472-ff6d9f7f3c94","ios":"levelo://app?vid=a1d755c6-6253-4d59-a472-ff6d9f7f3c94"},"vehicle_type_id":"4","last_reported":1729793558,"current_range_meters":3600,"station_id":"ce4bhch2rcd13ifvqeug","pricing_plan_id":"cebpf4jnsgd1na2vs0mg"},{"bike_id":"0c6fefbc-5a45-42dd-8a73-a1d28a78ea40","system_id":"levelo_inurba_marseille","lat":43.307462,"lon":5.395886,"is_reserved":false,"is_disabled":false,"rental_uris":{"android":"levelo://app?vid=0c6fefbc-5a45-42dd-8a73-a1d28a78ea40","ios":"levelo://app?vid=0c6fefbc-5a45-42dd-8a73-a1d28a78ea40"},"vehicle_type_id":"4","last_reported":1729793558,"current_range_meters":26800,"station_id":"ce4bh012rcd13ifvqcv0","pricing_plan_id":"cebpf4jnsgd1na2vs0mg"},{"bike_id":"feda9bc1-b886-4640-ad92-201ddc16513e","system_id":"levelo_inurba_marseille","lat":43.32289,"lon":5.38267,"is_reserved":false,"is_disabled":false,"rental_uris":{"android":"levelo://app?vid=feda9bc1-b886-4640-ad92-201ddc16513e","ios":"levelo://app?vid=feda9bc1-b886-4640-ad92-201ddc16513e"},"vehicle_type_id":"4","last_reported":1729793558,"current_range_meters":39200,"station_id":"ce4bhr12rcd13ifvqhqg","pricing_plan_id":"cebpf4jnsgd1na2vs0mg"},{"bike_id":"7a7dfc39-5168-4d74-b640-b1c207675bb6","system_id":"levelo_inurba_marseille","lat":43.258255,"lon":5.394363,"is_reserved":false,"is_disabled":false,"rental_uris":{"android":"levelo://app?vid=7a7dfc39-5168-4d74-b640-b1c207675bb6","ios":"levelo://app?vid=7a7dfc39-5168-4d74-b640-b1c207675bb6"},"vehicle_type_id":"4","last_reported":1729793558,"current_range_meters":27600,"station_id":"ce4bhip2rcd13ifvqft0","pricing_plan_id":"cebpf4jnsgd1na2vs0mg"},{"bike_id":"e679989f-4629-4612-bb77-89e354902c42","system_id":"levelo_inurba_marseille","lat":43.31272,"lon":5.40171,"is_reserved":false,"is_disabled":false,"rental_uris":{"android":"levelo://app?vid=e679989f-4629-4612-bb77-89e354902c42","ios":"levelo://app?vid=e679989f-4629-4612-bb77-89e354902c42"},"vehicle_type_id":"4","last_reported":1729793558,"current_range_meters":16800,"station_id":"ce4bh092rcd13ifvqd30","pricing_plan_id":"cebpf4jnsgd1na2vs0mg"},{"bike_id":"b20086f0-571b-47b6-8b80-ef8a62078659","system_id":"levelo_inurba_marseille","lat":43.28859,"lon":5.39305,"is_reserved":false,"is_disabled":false,"rental_uris":{"android":"levelo://app?vid=b20086f0-571b-47b6-8b80-ef8a62078659","ios":"levelo://app?vid=b20086f0-571b-47b6-8b80-ef8a62078659"},"vehicle_type_id":"4","last_reported":1729793558,"current_range_meters":9600,"station_id":"ce4bh2p2rcd13ifvqdi0","pricing_plan_id":"cebpf4jnsgd1na2vs0mg"},{"bike_id":"4eae1563-adbb-433c-9769-81bc03b08dc2","system_id":"levelo_inurba_marseille","lat":43.30419,"lon":5.41287,"is_reserved":false,"is_disabled":false,"rental_uris":{"android":"levelo://app?vid=4eae1563-adbb-433c-9769-81bc03b08dc2","ios":"levelo://app?vid=4eae1563-adbb-433c-9769-81bc03b08dc2"},"vehicle_type_id":"4","last_reported":1729793558,"current_range_meters":17600,"station_id":"ce4bhop2rcd13ifvqh8g","pricing_plan_id":"cebpf4jnsgd1na2vs0mg"},{"bike_id":"2ebd03e7-4a0f-4e72-8fed-e45811dd58da","system_id":"levelo_inurba_marseille","lat":43.27944,"lon":5.41039,"is_reserved":false,"is_disabled":false,"rental_uris":{"android":"levelo://app?vid=2ebd03e7-4a0f-4e72-8fed-e45811dd58da","ios":"levelo://app?vid=2ebd03e7-4a0f-4e72-8fed-e45811dd58da"},"vehicle_type_id":"4","last_reported":1729793558,"current_range_meters":38800,"station_id":"ce4bhnp2rcd13ifvqh0g","pricing_plan_id":"cebpf4jnsgd1na2vs0mg"},{"bike_id":"780933e8-e1de-43da-994e-6eb184719c15","system_id":"levelo_inurba_marseille","lat":43.29417,"lon":5.3863,"is_reserved":false,"is_disabled":false,"rental_uris":{"android":"levelo://app?vid=780933e8-e1de-43da-994e-6eb184719c15","ios":"levelo://app?vid=780933e8-e1de-43da-994e-6eb184719c15"},"vehicle_type_id":"4","last_reported":1729793558,"current_range_meters":28800,"station_id":"ce4bh2h2rcd13ifvqdh0","pricing_plan_id":"cebpf4jnsgd1na2vs0mg"},{"bike_id":"14cec377-7827-4686-b5f3-ffafa4bcb451","system_id":"levelo_inurba_marseille","lat":43.29556,"lon":5.42286,"is_reserved":false,"is_disabled":false,"rental_uris":{"android":"levelo://app?vid=14cec377-7827-4686-b5f3-ffafa4bcb451","ios":"levelo://app?vid=14cec377-7827-4686-b5f3-ffafa4bcb451"},"vehicle_type_id":"4","last_reported":1729793558,"current_range_meters":27600,"station_id":"ce4bhph2rcd13ifvqhdg","pricing_plan_id":"cebpf4jnsgd1na2vs0mg"},{"bike_id":"ed7871e6-6d36-4ef6-add3-59511b26fb6a","system_id":"levelo_inurba_marseille","lat":43.27972,"lon":5.41054,"is_reserved":false,"is_disabled":false,"rental_uris":{"android":"levelo://app?vid=ed7871e6-6d36-4ef6-add3-59511b26fb6a","ios":"levelo://app?vid=ed7871e6-6d36-4ef6-add3-59511b26fb6a"},"vehicle_type_id":"4","last_reported":1729793558,"current_range_meters":38800,"station_id":"ce4bhnp2rcd13ifvqh0g","pricing_plan_id":"cebpf4jnsgd1na2vs0mg"},{"bike_id":"18be3625-dee0-4903-8828-d9ce4854b664","system_id":"levelo_inurba_marseille","lat":43.25583,"lon":5.38242,"is_reserved":false,"is_disabled":false,"rental_uris":{"android":"levelo://app?vid=18be3625-dee0-4903-8828-d9ce4854b664","ios":"levelo://app?vid=18be3625-dee0-4903-8828-d9ce4854b664"},"vehicle_type_id":"4","last_reported":1729793558,"current_range_meters":31200,"station_id":"ce4bhih2rcd13ifvqfs0","pricing_plan_id":"cebpf4jnsgd1na2vs0mg"},{"bike_id":"7691659f-eea1-4b4d-8db5-2728fcde3a23","system_id":"levelo_inurba_marseille","lat":43.3232,"lon":5.38507,"is_reserved":false,"is_disabled":false,"rental_uris":{"android":"levelo://app?vid=7691659f-eea1-4b4d-8db5-2728fcde3a23","ios":"levelo://app?vid=7691659f-eea1-4b4d-8db5-2728fcde3a23"},"vehicle_type_id":"4","last_reported":1729793558,"current_range_meters":28000,"station_id":"ce4bhr12rcd13ifvqhqg","pricing_plan_id":"cebpf4jnsgd1na2vs0mg"},{"bike_id":"3694b4a2-5570-4005-930a-816209d96ccc","system_id":"levelo_inurba_marseille","lat":43.28271,"lon":5.35076,"is_reserved":false,"is_disabled":false,"rental_uris":{"android":"levelo://app?vid=3694b4a2-5570-4005-930a-816209d96ccc","ios":"levelo://app?vid=3694b4a2-5570-4005-930a-816209d96ccc"},"vehicle_type_id":"4","last_reported":1729793558,"current_range_meters":6000,"station_id":"ce4bhbp2rcd13ifvqerg","pricing_plan_id":"cebpf4jnsgd1na2vs0mg"},{"bike_id":"d78a08dc-3ef1-4a84-9259-3846b9cba690","system_id":"levelo_inurba_marseille","lat":43.27943,"lon":5.41057,"is_reserved":false,"is_disabled":false,"rental_uris":{"android":"levelo://app?vid=d78a08dc-3ef1-4a84-9259-3846b9cba690","ios":"levelo://app?vid=d78a08dc-3ef1-4a84-9259-3846b9cba690"},"vehicle_type_id":"4","last_reported":1729793558,"current_range_meters":16000,"station_id":"ce4bhnp2rcd13ifvqh0g","pricing_plan_id":"cebpf4jnsgd1na2vs0mg"},{"bike_id":"228c2a65-a88a-474e-baae-39029ce20359","system_id":"levelo_inurba_marseille","lat":43.24072,"lon":5.37747,"is_reserved":false,"is_disabled":false,"rental_uris":{"android":"levelo://app?vid=228c2a65-a88a-474e-baae-39029ce20359","ios":"levelo://app?vid=228c2a65-a88a-474e-baae-39029ce20359"},"vehicle_type_id":"4","last_reported":1729793558,"current_range_meters":18000,"station_id":"ce4bhnp2rcd13ifvqgvg","pricing_plan_id":"cebpf4jnsgd1na2vs0mg"},{"bike_id":"86c61d06-d4c4-4a2c-9351-357b565e69e7","system_id":"levelo_inurba_marseille","lat":43.29259,"lon":5.38432,"is_reserved":false,"is_disabled":false,"rental_uris":{"android":"levelo://app?vid=86c61d06-d4c4-4a2c-9351-357b565e69e7","ios":"levelo://app?vid=86c61d06-d4c4-4a2c-9351-357b565e69e7"},"vehicle_type_id":"4","last_reported":1729793558,"current_range_meters":27200,"station_id":"ce4bh692rcd13ifvqea0","pricing_plan_id":"cebpf4jnsgd1na2vs0mg"},{"bike_id":"f6725a65-3f44-453e-9350-d809f9d15454","system_id":"levelo_inurba_marseille","lat":43.29422,"lon":5.38617,"is_reserved":false,"is_disabled":false,"rental_uris":{"android":"levelo://app?vid=f6725a65-3f44-453e-9350-d809f9d15454","ios":"levelo://app?vid=f6725a65-3f44-453e-9350-d809f9d15454"},"vehicle_type_id":"4","last_reported":1729793558,"current_range_meters":17200,"station_id":"ce4bh2h2rcd13ifvqdh0","pricing_plan_id":"cebpf4jnsgd1na2vs0mg"},{"bike_id":"5796fc8b-5291-47e2-aead-b08a302e690e","system_id":"levelo_inurba_marseille","lat":43.23193,"lon":5.35551,"is_reserved":false,"is_disabled":false,"rental_uris":{"android":"levelo://app?vid=5796fc8b-5291-47e2-aead-b08a302e690e","ios":"levelo://app?vid=5796fc8b-5291-47e2-aead-b08a302e690e"},"vehicle_type_id":"4","last_reported":1729793558,"current_range_meters":38000,"station_id":"ce4bhu92rcd13ifvqi70","pricing_plan_id":"cebpf4jnsgd1na2vs0mg"},{"bike_id":"6a96fba6-ecdd-499e-b18a-74248ada1898","system_id":"levelo_inurba_marseille","lat":43.29033,"lon":5.38651,"is_reserved":false,"is_disabled":false,"rental_uris":{"android":"levelo://app?vid=6a96fba6-ecdd-499e-b18a-74248ada1898","ios":"levelo://app?vid=6a96fba6-ecdd-499e-b18a-74248ada1898"},"vehicle_type_id":"4","last_reported":1729793558,"current_range_meters":6800,"station_id":"ce4bh4p2rcd13ifvqe0g","pricing_plan_id":"cebpf4jnsgd1na2vs0mg"},{"bike_id":"5291e557-c918-4db6-9386-b480fab8b930","system_id":"levelo_inurba_marseille","lat":43.24805,"lon":5.37459,"is_reserved":false,"is_disabled":false,"rental_uris":{"android":"levelo://app?vid=5291e557-c918-4db6-9386-b480fab8b930","ios":"levelo://app?vid=5291e557-c918-4db6-9386-b480fab8b930"},"vehicle_type_id":"4","last_reported":1729793558,"current_range_meters":10000,"station_id":"ce4bhgh2rcd13ifvqfb0","pricing_plan_id":"cebpf4jnsgd1na2vs0mg"},{"bike_id":"0ac2b4b1-8b19-423d-8023-dbb94d38427f","system_id":"levelo_inurba_marseille","lat":43.24071,"lon":5.37765,"is_reserved":false,"is_disabled":false,"rental_uris":{"android":"levelo://app?vid=0ac2b4b1-8b19-423d-8023-dbb94d38427f","ios":"levelo://app?vid=0ac2b4b1-8b19-423d-8023-dbb94d38427f"},"vehicle_type_id":"4","last_reported":1729793558,"current_range_meters":33600,"station_id":"ce4bhnp2rcd13ifvqgvg","pricing_plan_id":"cebpf4jnsgd1na2vs0mg"},{"bike_id":"fdd12acb-d8d2-418f-97be-fdec237e6fa4","system_id":"levelo_inurba_marseille","lat":43.23962,"lon":5.36624,"is_reserved":false,"is_disabled":false,"rental_uris":{"android":"levelo://app?vid=fdd12acb-d8d2-418f-97be-fdec237e6fa4","ios":"levelo://app?vid=fdd12acb-d8d2-418f-97be-fdec237e6fa4"},"vehicle_type_id":"4","last_reported":1729793558,"current_range_meters":9200,"station_id":"ce4bhi12rcd13ifvqfp0","pricing_plan_id":"cebpf4jnsgd1na2vs0mg"},{"bike_id":"16e3e0e5-bd85-4fd2-b857-f3c660d4ae0d","system_id":"levelo_inurba_marseille","lat":43.24076,"lon":5.37758,"is_reserved":false,"is_disabled":false,"rental_uris":{"android":"levelo://app?vid=16e3e0e5-bd85-4fd2-b857-f3c660d4ae0d","ios":"levelo://app?vid=16e3e0e5-bd85-4fd2-b857-f3c660d4ae0d"},"vehicle_type_id":"4","last_reported":1729793558,"current_range_meters":36800,"station_id":"ce4bhnp2rcd13ifvqgvg","pricing_plan_id":"cebpf4jnsgd1na2vs0mg"},{"bike_id":"62feb3c3-4345-4030-a2f0-4caa57108573","system_id":"levelo_inurba_marseille","lat":43.28705,"lon":5.37395,"is_reserved":false,"is_disabled":false,"rental_uris":{"android":"levelo://app?vid=62feb3c3-4345-4030-a2f0-4caa57108573","ios":"levelo://app?vid=62feb3c3-4345-4030-a2f0-4caa57108573"},"vehicle_type_id":"4","last_reported":1729793558,"current_range_meters":17600,"station_id":"ce4bh3p2rcd13ifvqdq0","pricing_plan_id":"cebpf4jnsgd1na2vs0mg"},{"bike_id":"27dc0bb5-684a-4518-832a-e4e7d7bc2d82","system_id":"levelo_inurba_marseille","lat":43.2827,"lon":5.35069,"is_reserved":false,"is_disabled":false,"rental_uris":{"android":"levelo://app?vid=27dc0bb5-684a-4518-832a-e4e7d7bc2d82","ios":"levelo://app?vid=27dc0bb5-684a-4518-832a-e4e7d7bc2d82"},"vehicle_type_id":"4","last_reported":1729793558,"current_range_meters":6400,"station_id":"ce4bhbp2rcd13ifvqerg","pricing_plan_id":"cebpf4jnsgd1na2vs0mg"},{"bike_id":"bfdaaba9-00ee-4476-b15d-93b7821ab8db","system_id":"levelo_inurba_marseille","lat":43.29255,"lon":5.38442,"is_reserved":false,"is_disabled":false,"rental_uris":{"android":"levelo://app?vid=bfdaaba9-00ee-4476-b15d-93b7821ab8db","ios":"levelo://app?vid=bfdaaba9-00ee-4476-b15d-93b7821ab8db"},"vehicle_type_id":"4","last_reported":1729793558,"current_range_meters":27200,"station_id":"ce4bh692rcd13ifvqea0","pricing_plan_id":"cebpf4jnsgd1na2vs0mg"},{"bike_id":"0bc90dc2-cf8c-457e-a6aa-9b91de95f992","system_id":"levelo_inurba_marseille","lat":43.22757,"lon":5.41577,"is_reserved":false,"is_disabled":false,"rental_uris":{"android":"levelo://app?vid=0bc90dc2-cf8c-457e-a6aa-9b91de95f992","ios":"levelo://app?vid=0bc90dc2-cf8c-457e-a6aa-9b91de95f992"},"vehicle_type_id":"4","last_reported":1729793558,"current_range_meters":31200,"station_id":"","pricing_plan_id":"cebpf4jnsgd1na2vs0mg"},{"bike_id":"6d738138-ef01-4d2d-9c09-514257df8e75","system_id":"levelo_inurba_marseille","lat":43.3065,"lon":5.40088,"is_reserved":false,"is_disabled":false,"rental_uris":{"android":"levelo://app?vid=6d738138-ef01-4d2d-9c09-514257df8e75","ios":"levelo://app?vid=6d738138-ef01-4d2d-9c09-514257df8e75"},"vehicle_type_id":"4","last_reported":1729793558,"current_range_meters":14800,"station_id":"ce4bh112rcd13ifvqda0","pricing_plan_id":"cebpf4jnsgd1na2vs0mg"},{"bike_id":"f139bcbc-8d39-4dfc-921a-74c8b2a95379","system_id":"levelo_inurba_marseille","lat":43.29418,"lon":5.38624,"is_reserved":false,"is_disabled":false,"rental_uris":{"android":"levelo://app?vid=f139bcbc-8d39-4dfc-921a-74c8b2a95379","ios":"levelo://app?vid=f139bcbc-8d39-4dfc-921a-74c8b2a95379"},"vehicle_type_id":"4","last_reported":1729793558,"current_range_meters":29600,"station_id":"ce4bh2h2rcd13ifvqdh0","pricing_plan_id":"cebpf4jnsgd1na2vs0mg"},{"bike_id":"49fb16d2-6117-4fe1-9256-68ae1d341abd","system_id":"levelo_inurba_marseille","lat":43.28154,"lon":5.42649,"is_reserved":false,"is_disabled":false,"rental_uris":{"android":"levelo://app?vid=49fb16d2-6117-4fe1-9256-68ae1d341abd","ios":"levelo://app?vid=49fb16d2-6117-4fe1-9256-68ae1d341abd"},"vehicle_type_id":"4","last_reported":1729793558,"current_range_meters":23200,"station_id":"ce4bhnh2rcd13ifvqgug","pricing_plan_id":"cebpf4jnsgd1na2vs0mg"},{"bike_id":"97016870-edf0-4ee6-8329-29a4610e4f6d","system_id":"levelo_inurba_marseille","lat":43.29424,"lon":5.3862,"is_reserved":false,"is_disabled":false,"rental_uris":{"android":"levelo://app?vid=97016870-edf0-4ee6-8329-29a4610e4f6d","ios":"levelo://app?vid=97016870-edf0-4ee6-8329-29a4610e4f6d"},"vehicle_type_id":"4","last_reported":1729793558,"current_range_meters":15200,"station_id":"ce4bh2h2rcd13ifvqdh0","pricing_plan_id":"cebpf4jnsgd1na2vs0mg"},{"bike_id":"9cc86360-5eab-45ae-a458-952e8a91e43e","system_id":"levelo_inurba_marseille","lat":43.22933,"lon":5.35379,"is_reserved":false,"is_disabled":false,"rental_uris":{"android":"levelo://app?vid=9cc86360-5eab-45ae-a458-952e8a91e43e","ios":"levelo://app?vid=9cc86360-5eab-45ae-a458-952e8a91e43e"},"vehicle_type_id":"4","last_reported":1729793558,"current_range_meters":15200,"station_id":"cpo3532slgdg3j2ikp40","pricing_plan_id":"cebpf4jnsgd1na2vs0mg"},{"bike_id":"7c72f3d4-9f64-4313-b180-ed24ffe9acbd","system_id":"levelo_inurba_marseille","lat":43.29263,"lon":5.38436,"is_reserved":false,"is_disabled":false,"rental_uris":{"android":"levelo://app?vid=7c72f3d4-9f64-4313-b180-ed24ffe9acbd","ios":"levelo://app?vid=7c72f3d4-9f64-4313-b180-ed24ffe9acbd"},"vehicle_type_id":"4","last_reported":1729793558,"current_range_meters":26800,"station_id":"ce4bh692rcd13ifvqea0","pricing_plan_id":"cebpf4jnsgd1na2vs0mg"},{"bike_id":"c9335720-8dc6-4b42-8091-c2e3c0db5306","system_id":"levelo_inurba_marseille","lat":43.28274,"lon":5.35067,"is_reserved":false,"is_disabled":false,"rental_uris":{"android":"levelo://app?vid=c9335720-8dc6-4b42-8091-c2e3c0db5306","ios":"levelo://app?vid=c9335720-8dc6-4b42-8091-c2e3c0db5306"},"vehicle_type_id":"4","last_reported":1729793558,"current_range_meters":20800,"station_id":"ce4bhbp2rcd13ifvqerg","pricing_plan_id":"cebpf4jnsgd1na2vs0mg"},{"bike_id":"4c31a1cc-dfac-4e40-8e3d-0e515c138623","system_id":"levelo_inurba_marseille","lat":43.29276,"lon":5.40114,"is_reserved":false,"is_disabled":false,"rental_uris":{"android":"levelo://app?vid=4c31a1cc-dfac-4e40-8e3d-0e515c138623","ios":"levelo://app?vid=4c31a1cc-dfac-4e40-8e3d-0e515c138623"},"vehicle_type_id":"4","last_reported":1729793558,"current_range_meters":8400,"station_id":"ce4bh312rcd13ifvqdk0","pricing_plan_id":"cebpf4jnsgd1na2vs0mg"},{"bike_id":"6540dced-4a6d-443b-b78e-bb8174f36873","system_id":"levelo_inurba_marseille","lat":43.27186,"lon":5.40998,"is_reserved":false,"is_disabled":false,"rental_uris":{"android":"levelo://app?vid=6540dced-4a6d-443b-b78e-bb8174f36873","ios":"levelo://app?vid=6540dced-4a6d-443b-b78e-bb8174f36873"},"vehicle_type_id":"4","last_reported":1729793558,"current_range_meters":19200,"station_id":"ce4bhl12rcd13ifvqgf0","pricing_plan_id":"cebpf4jnsgd1na2vs0mg"},{"bike_id":"bfc9c85d-34bf-4429-900f-759b9b780caf","system_id":"levelo_inurba_marseille","lat":43.279965,"lon":5.400085,"is_reserved":false,"is_disabled":false,"rental_uris":{"android":"levelo://app?vid=bfc9c85d-34bf-4429-900f-759b9b780caf","ios":"levelo://app?vid=bfc9c85d-34bf-4429-900f-759b9b780caf"},"vehicle_type_id":"4","last_reported":1729793558,"current_range_meters":38800,"station_id":"ce4bho92rcd13ifvqh4g","pricing_plan_id":"cebpf4jnsgd1na2vs0mg"},{"bike_id":"36856ec2-b80b-4ae8-abff-10088c18f7e8","system_id":"levelo_inurba_marseille","lat":43.24167,"lon":5.36398,"is_reserved":false,"is_disabled":false,"rental_uris":{"android":"levelo://app?vid=36856ec2-b80b-4ae8-abff-10088c18f7e8","ios":"levelo://app?vid=36856ec2-b80b-4ae8-abff-10088c18f7e8"},"vehicle_type_id":"4","last_reported":1729793558,"current_range_meters":38800,"station_id":"cpo36qri1sfpv3e86is0","pricing_plan_id":"cebpf4jnsgd1na2vs0mg"},{"bike_id":"de046fd8-7640-4ba0-b4a8-e7f7be94635e","system_id":"levelo_inurba_marseille","lat":43.30535,"lon":5.36711,"is_reserved":false,"is_disabled":false,"rental_uris":{"android":"levelo://app?vid=de046fd8-7640-4ba0-b4a8-e7f7be94635e","ios":"levelo://app?vid=de046fd8-7640-4ba0-b4a8-e7f7be94635e"},"vehicle_type_id":"4","last_reported":1729793558,"current_range_meters":6000,"station_id":"ce4bgrp2rcd13ifvqc9g","pricing_plan_id":"cebpf4jnsgd1na2vs0mg"},{"bike_id":"78dd4c6c-699f-4c6a-8ee5-1aa5251459a8","system_id":"levelo_inurba_marseille","lat":43.29897,"lon":5.43675,"is_reserved":false,"is_disabled":false,"rental_uris":{"android":"levelo://app?vid=78dd4c6c-699f-4c6a-8ee5-1aa5251459a8","ios":"levelo://app?vid=78dd4c6c-699f-4c6a-8ee5-1aa5251459a8"},"vehicle_type_id":"4","last_reported":1729793558,"current_range_meters":27200,"station_id":"ce4bhpp2rcd13ifvqhfg","pricing_plan_id":"cebpf4jnsgd1na2vs0mg"},{"bike_id":"425f1d0d-1db3-497f-9dc5-c23a50550547","system_id":"levelo_inurba_marseille","lat":43.304138,"lon":5.397264,"is_reserved":false,"is_disabled":false,"rental_uris":{"android":"levelo://app?vid=425f1d0d-1db3-497f-9dc5-c23a50550547","ios":"levelo://app?vid=425f1d0d-1db3-497f-9dc5-c23a50550547"},"vehicle_type_id":"4","last_reported":1729793558,"current_range_meters":9200,"station_id":"ce4bh092rcd13ifvqd20","pricing_plan_id":"cebpf4jnsgd1na2vs0mg"},{"bike_id":"79aa6d1e-cc6a-4105-91b5-13648ff11554","system_id":"levelo_inurba_marseille","lat":43.2926,"lon":5.38432,"is_reserved":false,"is_disabled":false,"rental_uris":{"android":"levelo://app?vid=79aa6d1e-cc6a-4105-91b5-13648ff11554","ios":"levelo://app?vid=79aa6d1e-cc6a-4105-91b5-13648ff11554"},"vehicle_type_id":"4","last_reported":1729793558,"current_range_meters":14800,"station_id":"ce4bh692rcd13ifvqea0","pricing_plan_id":"cebpf4jnsgd1na2vs0mg"},{"bike_id":"e7929e66-46ce-4b09-a7b1-72fae69cc5a0","system_id":"levelo_inurba_marseille","lat":43.24664,"lon":5.38168,"is_reserved":false,"is_disabled":false,"rental_uris":{"android":"levelo://app?vid=e7929e66-46ce-4b09-a7b1-72fae69cc5a0","ios":"levelo://app?vid=e7929e66-46ce-4b09-a7b1-72fae69cc5a0"},"vehicle_type_id":"4","last_reported":1729793558,"current_range_meters":12400,"station_id":"ce4bhih2rcd13ifvqfr0","pricing_plan_id":"cebpf4jnsgd1na2vs0mg"},{"bike_id":"3e7c0510-8d6f-46f7-95f7-501c9fece08a","system_id":"levelo_inurba_marseille","lat":43.295691,"lon":5.399688,"is_reserved":false,"is_disabled":false,"rental_uris":{"android":"levelo://app?vid=3e7c0510-8d6f-46f7-95f7-501c9fece08a","ios":"levelo://app?vid=3e7c0510-8d6f-46f7-95f7-501c9fece08a"},"vehicle_type_id":"4","last_reported":1729793558,"current_range_meters":33200,"station_id":"ce4bh312rcd13ifvqdj0","pricing_plan_id":"cebpf4jnsgd1na2vs0mg"},{"bike_id":"66270dfe-641c-42e9-b79a-37269edb6e60","system_id":"levelo_inurba_marseille","lat":43.29269,"lon":5.3844,"is_reserved":false,"is_disabled":false,"rental_uris":{"android":"levelo://app?vid=66270dfe-641c-42e9-b79a-37269edb6e60","ios":"levelo://app?vid=66270dfe-641c-42e9-b79a-37269edb6e60"},"vehicle_type_id":"4","last_reported":1729793558,"current_range_meters":38800,"station_id":"ce4bh692rcd13ifvqea0","pricing_plan_id":"cebpf4jnsgd1na2vs0mg"},{"bike_id":"365a5e76-e012-4983-b8a9-1a07480bde83","system_id":"levelo_inurba_marseille","lat":43.23192,"lon":5.35547,"is_reserved":false,"is_disabled":false,"rental_uris":{"android":"levelo://app?vid=365a5e76-e012-4983-b8a9-1a07480bde83","ios":"levelo://app?vid=365a5e76-e012-4983-b8a9-1a07480bde83"},"vehicle_type_id":"4","last_reported":1729793558,"current_range_meters":38800,"station_id":"ce4bhu92rcd13ifvqi70","pricing_plan_id":"cebpf4jnsgd1na2vs0mg"},{"bike_id":"66b0e393-0cc2-45b1-afab-63a42ec24e44","system_id":"levelo_inurba_marseille","lat":43.29263,"lon":5.38449,"is_reserved":false,"is_disabled":false,"rental_uris":{"android":"levelo://app?vid=66b0e393-0cc2-45b1-afab-63a42ec24e44","ios":"levelo://app?vid=66b0e393-0cc2-45b1-afab-63a42ec24e44"},"vehicle_type_id":"4","last_reported":1729793558,"current_range_meters":25600,"station_id":"ce4bh692rcd13ifvqea0","pricing_plan_id":"cebpf4jnsgd1na2vs0mg"},{"bike_id":"dda31c93-3d20-44c0-9ed8-9896b4024e86","system_id":"levelo_inurba_marseille","lat":43.2979,"lon":5.3934,"is_reserved":false,"is_disabled":false,"rental_uris":{"android":"levelo://app?vid=dda31c93-3d20-44c0-9ed8-9896b4024e86","ios":"levelo://app?vid=dda31c93-3d20-44c0-9ed8-9896b4024e86"},"vehicle_type_id":"4","last_reported":1729793558,"current_range_meters":38800,"station_id":"chh1huq6cuj3fo74tm60","pricing_plan_id":"cebpf4jnsgd1na2vs0mg"},{"bike_id":"e9580576-d55e-47a3-b502-4ebf11d86386","system_id":"levelo_inurba_marseille","lat":43.267792,"lon":5.394205,"is_reserved":false,"is_disabled":false,"rental_uris":{"android":"levelo://app?vid=e9580576-d55e-47a3-b502-4ebf11d86386","ios":"levelo://app?vid=e9580576-d55e-47a3-b502-4ebf11d86386"},"vehicle_type_id":"4","last_reported":1729793558,"current_range_meters":8000,"station_id":"ce4bhh12rcd13ifvqfg0","pricing_plan_id":"cebpf4jnsgd1na2vs0mg"},{"bike_id":"f1e2aa27-13bd-4162-8820-b658bc5c8d2c","system_id":"levelo_inurba_marseille","lat":43.309301,"lon":5.379034,"is_reserved":false,"is_disabled":false,"rental_uris":{"android":"levelo://app?vid=f1e2aa27-13bd-4162-8820-b658bc5c8d2c","ios":"levelo://app?vid=f1e2aa27-13bd-4162-8820-b658bc5c8d2c"},"vehicle_type_id":"4","last_reported":1729793558,"current_range_meters":6400,"station_id":"ce4bgn92rcd13ifvqbvg","pricing_plan_id":"cebpf4jnsgd1na2vs0mg"},{"bike_id":"d4c3f55d-fd45-4f78-9f7c-d19fe141e9b6","system_id":"levelo_inurba_marseille","lat":43.31063,"lon":5.40094,"is_reserved":false,"is_disabled":false,"rental_uris":{"android":"levelo://app?vid=d4c3f55d-fd45-4f78-9f7c-d19fe141e9b6","ios":"levelo://app?vid=d4c3f55d-fd45-4f78-9f7c-d19fe141e9b6"},"vehicle_type_id":"4","last_reported":1729793558,"current_range_meters":34800,"station_id":"ce4bhpp2rcd13ifvqhfg","pricing_plan_id":"cebpf4jnsgd1na2vs0mg"},{"bike_id":"303cd770-aeef-436d-ae1b-fc7137fb207c","system_id":"levelo_inurba_marseille","lat":43.27333,"lon":5.39096,"is_reserved":false,"is_disabled":false,"rental_uris":{"android":"levelo://app?vid=303cd770-aeef-436d-ae1b-fc7137fb207c","ios":"levelo://app?vid=303cd770-aeef-436d-ae1b-fc7137fb207c"},"vehicle_type_id":"4","last_reported":1729793558,"current_range_meters":27600,"station_id":"ce4bhgp2rcd13ifvqfe0","pricing_plan_id":"cebpf4jnsgd1na2vs0mg"},{"bike_id":"94ee68b0-ff0c-49bc-b77b-abe71edd441c","system_id":"levelo_inurba_marseille","lat":43.28823,"lon":5.4103,"is_reserved":false,"is_disabled":false,"rental_uris":{"android":"levelo://app?vid=94ee68b0-ff0c-49bc-b77b-abe71edd441c","ios":"levelo://app?vid=94ee68b0-ff0c-49bc-b77b-abe71edd441c"},"vehicle_type_id":"4","last_reported":1729793558,"current_range_meters":8000,"station_id":"ce4bhn92rcd13ifvqgrg","pricing_plan_id":"cebpf4jnsgd1na2vs0mg"},{"bike_id":"9aa99984-3aab-4a38-a014-145c49eab468","system_id":"levelo_inurba_marseille","lat":43.24649,"lon":5.38891,"is_reserved":false,"is_disabled":false,"rental_uris":{"android":"levelo://app?vid=9aa99984-3aab-4a38-a014-145c49eab468","ios":"levelo://app?vid=9aa99984-3aab-4a38-a014-145c49eab468"},"vehicle_type_id":"4","last_reported":1729793558,"current_range_meters":3200,"station_id":"ce4bhg12rcd13ifvqf60","pricing_plan_id":"cebpf4jnsgd1na2vs0mg"},{"bike_id":"9c78078a-7e8b-4511-8541-a6915ed7654b","system_id":"levelo_inurba_marseille","lat":43.29523,"lon":5.38541,"is_reserved":false,"is_disabled":false,"rental_uris":{"android":"levelo://app?vid=9c78078a-7e8b-4511-8541-a6915ed7654b","ios":"levelo://app?vid=9c78078a-7e8b-4511-8541-a6915ed7654b"},"vehicle_type_id":"4","last_reported":1729793558,"current_range_meters":20800,"station_id":"ce4bgih2rcd13ifvqba0","pricing_plan_id":"cebpf4jnsgd1na2vs0mg"},{"bike_id":"6ad7e5a8-36e1-4fa7-947b-99c622855ecd","system_id":"levelo_inurba_marseille","lat":43.3118,"lon":5.38712,"is_reserved":false,"is_disabled":false,"rental_uris":{"android":"levelo://app?vid=6ad7e5a8-36e1-4fa7-947b-99c622855ecd","ios":"levelo://app?vid=6ad7e5a8-36e1-4fa7-947b-99c622855ecd"},"vehicle_type_id":"4","last_reported":1729793558,"current_range_meters":39200,"station_id":"ce4bgv12rcd13ifvqcp0","pricing_plan_id":"cebpf4jnsgd1na2vs0mg"},{"bike_id":"534c4532-53f4-4e3a-b75c-ff40e4b469a9","system_id":"levelo_inurba_marseille","lat":43.25823,"lon":5.39438,"is_reserved":false,"is_disabled":false,"rental_uris":{"android":"levelo://app?vid=534c4532-53f4-4e3a-b75c-ff40e4b469a9","ios":"levelo://app?vid=534c4532-53f4-4e3a-b75c-ff40e4b469a9"},"vehicle_type_id":"4","last_reported":1729793558,"current_range_meters":11200,"station_id":"ce4bhip2rcd13ifvqft0","pricing_plan_id":"cebpf4jnsgd1na2vs0mg"},{"bike_id":"ef8dca74-d419-4360-a36c-7491baba1d0f","system_id":"levelo_inurba_marseille","lat":43.2904,"lon":5.38631,"is_reserved":false,"is_disabled":false,"rental_uris":{"android":"levelo://app?vid=ef8dca74-d419-4360-a36c-7491baba1d0f","ios":"levelo://app?vid=ef8dca74-d419-4360-a36c-7491baba1d0f"},"vehicle_type_id":"4","last_reported":1729793558,"current_range_meters":31200,"station_id":"ce4bh4p2rcd13ifvqe0g","pricing_plan_id":"cebpf4jnsgd1na2vs0mg"},{"bike_id":"8999d2f1-bd13-4dd6-88c3-2d9050045956","system_id":"levelo_inurba_marseille","lat":43.29901,"lon":5.37479,"is_reserved":false,"is_disabled":false,"rental_uris":{"android":"levelo://app?vid=8999d2f1-bd13-4dd6-88c3-2d9050045956","ios":"levelo://app?vid=8999d2f1-bd13-4dd6-88c3-2d9050045956"},"vehicle_type_id":"4","last_reported":1729793558,"current_range_meters":16400,"station_id":"ce4bgjh2rcd13ifvqbg0","pricing_plan_id":"cebpf4jnsgd1na2vs0mg"},{"bike_id":"6ec444e6-6904-4aed-8695-ce4f4115642b","system_id":"levelo_inurba_marseille","lat":43.29535,"lon":5.38541,"is_reserved":false,"is_disabled":false,"rental_uris":{"android":"levelo://app?vid=6ec444e6-6904-4aed-8695-ce4f4115642b","ios":"levelo://app?vid=6ec444e6-6904-4aed-8695-ce4f4115642b"},"vehicle_type_id":"4","last_reported":1729793558,"current_range_meters":34800,"station_id":"ce4bgih2rcd13ifvqba0","pricing_plan_id":"cebpf4jnsgd1na2vs0mg"},{"bike_id":"64b170f8-2500-48ef-96a3-25f7c0707542","system_id":"levelo_inurba_marseille","lat":43.337444,"lon":5.374475,"is_reserved":false,"is_disabled":false,"rental_uris":{"android":"levelo://app?vid=64b170f8-2500-48ef-96a3-25f7c0707542","ios":"levelo://app?vid=64b170f8-2500-48ef-96a3-25f7c0707542"},"vehicle_type_id":"4","last_reported":1729793558,"current_range_meters":6000,"station_id":"","pricing_plan_id":"cebpf4jnsgd1na2vs0mg"},{"bike_id":"a888a0cf-ccad-4ca6-828d-20d8c81913ab","system_id":"levelo_inurba_marseille","lat":43.29092,"lon":5.3815,"is_reserved":false,"is_disabled":false,"rental_uris":{"android":"levelo://app?vid=a888a0cf-ccad-4ca6-828d-20d8c81913ab","ios":"levelo://app?vid=a888a0cf-ccad-4ca6-828d-20d8c81913ab"},"vehicle_type_id":"4","last_reported":1729793558,"current_range_meters":31200,"station_id":"ce4bh512rcd13ifvqe2g","pricing_plan_id":"cebpf4jnsgd1na2vs0mg"},{"bike_id":"4f409860-e0f7-4877-99ee-a24fed7f0e97","system_id":"levelo_inurba_marseille","lat":43.2781,"lon":5.40718,"is_reserved":false,"is_disabled":false,"rental_uris":{"android":"levelo://app?vid=4f409860-e0f7-4877-99ee-a24fed7f0e97","ios":"levelo://app?vid=4f409860-e0f7-4877-99ee-a24fed7f0e97"},"vehicle_type_id":"4","last_reported":1729793558,"current_range_meters":36000,"station_id":"ce4bhnh2rcd13ifvqgtg","pricing_plan_id":"cebpf4jnsgd1na2vs0mg"},{"bike_id":"8629bbd2-c025-4a07-8726-3ba170e6f41e","system_id":"levelo_inurba_marseille","lat":43.29224,"lon":5.40893,"is_reserved":false,"is_disabled":false,"rental_uris":{"android":"levelo://app?vid=8629bbd2-c025-4a07-8726-3ba170e6f41e","ios":"levelo://app?vid=8629bbd2-c025-4a07-8726-3ba170e6f41e"},"vehicle_type_id":"4","last_reported":1729793558,"current_range_meters":19200,"station_id":"ce4bh192rcd13ifvqdc0","pricing_plan_id":"cebpf4jnsgd1na2vs0mg"},{"bike_id":"875bbeaa-a5f0-407a-a436-d60f492a570b","system_id":"levelo_inurba_marseille","lat":43.27927,"lon":5.38759,"is_reserved":false,"is_disabled":false,"rental_uris":{"android":"levelo://app?vid=875bbeaa-a5f0-407a-a436-d60f492a570b","ios":"levelo://app?vid=875bbeaa-a5f0-407a-a436-d60f492a570b"},"vehicle_type_id":"4","last_reported":1729793558,"current_range_meters":24400,"station_id":"ce4bhg12rcd13ifvqf80","pricing_plan_id":"cebpf4jnsgd1na2vs0mg"},{"bike_id":"f4440a1d-ee27-4881-bf90-2eebe872f779","system_id":"levelo_inurba_marseille","lat":43.30923,"lon":5.40141,"is_reserved":false,"is_disabled":false,"rental_uris":{"android":"levelo://app?vid=f4440a1d-ee27-4881-bf90-2eebe872f779","ios":"levelo://app?vid=f4440a1d-ee27-4881-bf90-2eebe872f779"},"vehicle_type_id":"4","last_reported":1729793558,"current_range_meters":10000,"station_id":"ce4bgvp2rcd13ifvqct0","pricing_plan_id":"cebpf4jnsgd1na2vs0mg"},{"bike_id":"4aed350e-1ca7-498b-8b1c-164e4ecd3d02","system_id":"levelo_inurba_marseille","lat":43.2969,"lon":5.3661,"is_reserved":false,"is_disabled":false,"rental_uris":{"android":"levelo://app?vid=4aed350e-1ca7-498b-8b1c-164e4ecd3d02","ios":"levelo://app?vid=4aed350e-1ca7-498b-8b1c-164e4ecd3d02"},"vehicle_type_id":"4","last_reported":1729793558,"current_range_meters":38800,"station_id":"ce4bgn12rcd13ifvqbt0","pricing_plan_id":"cebpf4jnsgd1na2vs0mg"},{"bike_id":"0f9b9ad0-afce-4bfd-bf57-931acb265786","system_id":"levelo_inurba_marseille","lat":43.24804,"lon":5.37459,"is_reserved":false,"is_disabled":false,"rental_uris":{"android":"levelo://app?vid=0f9b9ad0-afce-4bfd-bf57-931acb265786","ios":"levelo://app?vid=0f9b9ad0-afce-4bfd-bf57-931acb265786"},"vehicle_type_id":"4","last_reported":1729793558,"current_range_meters":9200,"station_id":"ce4bhgh2rcd13ifvqfb0","pricing_plan_id":"cebpf4jnsgd1na2vs0mg"},{"bike_id":"70cc5dbf-de43-4964-810b-c76af75d9682","system_id":"levelo_inurba_marseille","lat":43.30934,"lon":5.40144,"is_reserved":false,"is_disabled":false,"rental_uris":{"android":"levelo://app?vid=70cc5dbf-de43-4964-810b-c76af75d9682","ios":"levelo://app?vid=70cc5dbf-de43-4964-810b-c76af75d9682"},"vehicle_type_id":"4","last_reported":1729793558,"current_range_meters":6800,"station_id":"ce4bgvp2rcd13ifvqct0","pricing_plan_id":"cebpf4jnsgd1na2vs0mg"},{"bike_id":"97c7d666-fc46-4579-afe6-73f465d2d92a","system_id":"levelo_inurba_marseille","lat":43.31461,"lon":5.39203,"is_reserved":false,"is_disabled":false,"rental_uris":{"android":"levelo://app?vid=97c7d666-fc46-4579-afe6-73f465d2d92a","ios":"levelo://app?vid=97c7d666-fc46-4579-afe6-73f465d2d92a"},"vehicle_type_id":"4","last_reported":1729793558,"current_range_meters":14000,"station_id":"","pricing_plan_id":"cebpf4jnsgd1na2vs0mg"},{"bike_id":"d6bf3953-c4f6-4246-8c45-05a22bf0f56f","system_id":"levelo_inurba_marseille","lat":43.29528,"lon":5.38538,"is_reserved":false,"is_disabled":false,"rental_uris":{"android":"levelo://app?vid=d6bf3953-c4f6-4246-8c45-05a22bf0f56f","ios":"levelo://app?vid=d6bf3953-c4f6-4246-8c45-05a22bf0f56f"},"vehicle_type_id":"4","last_reported":1729793558,"current_range_meters":6000,"station_id":"ce4bgih2rcd13ifvqba0","pricing_plan_id":"cebpf4jnsgd1na2vs0mg"},{"bike_id":"ab3ba53f-9bb3-41e4-a57f-78a0e4727cc8","system_id":"levelo_inurba_marseille","lat":43.24667,"lon":5.38155,"is_reserved":false,"is_disabled":false,"rental_uris":{"android":"levelo://app?vid=ab3ba53f-9bb3-41e4-a57f-78a0e4727cc8","ios":"levelo://app?vid=ab3ba53f-9bb3-41e4-a57f-78a0e4727cc8"},"vehicle_type_id":"4","last_reported":1729793558,"current_range_meters":36400,"station_id":"ce4bhih2rcd13ifvqfr0","pricing_plan_id":"cebpf4jnsgd1na2vs0mg"},{"bike_id":"c013d0dc-fb80-477a-a207-766744138875","system_id":"levelo_inurba_marseille","lat":43.279995,"lon":5.400107,"is_reserved":false,"is_disabled":false,"rental_uris":{"android":"levelo://app?vid=c013d0dc-fb80-477a-a207-766744138875","ios":"levelo://app?vid=c013d0dc-fb80-477a-a207-766744138875"},"vehicle_type_id":"4","last_reported":1729793558,"current_range_meters":38800,"station_id":"ce4bho92rcd13ifvqh4g","pricing_plan_id":"cebpf4jnsgd1na2vs0mg"},{"bike_id":"c5c78e07-3039-446a-9e06-97d9817c0d24","system_id":"levelo_inurba_marseille","lat":43.30881,"lon":5.39644,"is_reserved":false,"is_disabled":false,"rental_uris":{"android":"levelo://app?vid=c5c78e07-3039-446a-9e06-97d9817c0d24","ios":"levelo://app?vid=c5c78e07-3039-446a-9e06-97d9817c0d24"},"vehicle_type_id":"4","last_reported":1729793558,"current_range_meters":17200,"station_id":"ce4bh0p2rcd13ifvqd70","pricing_plan_id":"cebpf4jnsgd1na2vs0mg"},{"bike_id":"732e8ca8-b491-4229-912a-ec5a2923fcdb","system_id":"levelo_inurba_marseille","lat":43.29102,"lon":5.38145,"is_reserved":false,"is_disabled":false,"rental_uris":{"android":"levelo://app?vid=732e8ca8-b491-4229-912a-ec5a2923fcdb","ios":"levelo://app?vid=732e8ca8-b491-4229-912a-ec5a2923fcdb"},"vehicle_type_id":"4","last_reported":1729793558,"current_range_meters":3200,"station_id":"ce4bh512rcd13ifvqe2g","pricing_plan_id":"cebpf4jnsgd1na2vs0mg"},{"bike_id":"08f90f0c-e565-4b28-9c5f-1d64f94793d5","system_id":"levelo_inurba_marseille","lat":43.31996,"lon":5.38167,"is_reserved":false,"is_disabled":false,"rental_uris":{"android":"levelo://app?vid=08f90f0c-e565-4b28-9c5f-1d64f94793d5","ios":"levelo://app?vid=08f90f0c-e565-4b28-9c5f-1d64f94793d5"},"vehicle_type_id":"4","last_reported":1729793558,"current_range_meters":22400,"station_id":"ce4bhr12rcd13ifvqhpg","pricing_plan_id":"cebpf4jnsgd1na2vs0mg"},{"bike_id":"8f7856b2-c668-4f5d-940a-4d5f309812ca","system_id":"levelo_inurba_marseille","lat":43.24073,"lon":5.37759,"is_reserved":false,"is_disabled":false,"rental_uris":{"android":"levelo://app?vid=8f7856b2-c668-4f5d-940a-4d5f309812ca","ios":"levelo://app?vid=8f7856b2-c668-4f5d-940a-4d5f309812ca"},"vehicle_type_id":"4","last_reported":1729793558,"current_range_meters":32400,"station_id":"ce4bhnp2rcd13ifvqgvg","pricing_plan_id":"cebpf4jnsgd1na2vs0mg"},{"bike_id":"e6521e86-7046-4d78-addc-5f2f27173cb1","system_id":"levelo_inurba_marseille","lat":43.29263,"lon":5.38442,"is_reserved":false,"is_disabled":false,"rental_uris":{"android":"levelo://app?vid=e6521e86-7046-4d78-addc-5f2f27173cb1","ios":"levelo://app?vid=e6521e86-7046-4d78-addc-5f2f27173cb1"},"vehicle_type_id":"4","last_reported":1729793558,"current_range_meters":19600,"station_id":"ce4bh692rcd13ifvqea0","pricing_plan_id":"cebpf4jnsgd1na2vs0mg"},{"bike_id":"06a00349-ca36-4fa2-b558-23f552e05d70","system_id":"levelo_inurba_marseille","lat":43.31356,"lon":5.38494,"is_reserved":false,"is_disabled":false,"rental_uris":{"android":"levelo://app?vid=06a00349-ca36-4fa2-b558-23f552e05d70","ios":"levelo://app?vid=06a00349-ca36-4fa2-b558-23f552e05d70"},"vehicle_type_id":"4","last_reported":1729793558,"current_range_meters":8400,"station_id":"ce4bgt92rcd13ifvqcf0","pricing_plan_id":"cebpf4jnsgd1na2vs0mg"},{"bike_id":"6108b0e3-d075-4ad1-97a7-9e4b9a1e617b","system_id":"levelo_inurba_marseille","lat":43.31708,"lon":5.37736,"is_reserved":false,"is_disabled":false,"rental_uris":{"android":"levelo://app?vid=6108b0e3-d075-4ad1-97a7-9e4b9a1e617b","ios":"levelo://app?vid=6108b0e3-d075-4ad1-97a7-9e4b9a1e617b"},"vehicle_type_id":"4","last_reported":1729793558,"current_range_meters":6000,"station_id":"ce4bgth2rcd13ifvqch0","pricing_plan_id":"cebpf4jnsgd1na2vs0mg"},{"bike_id":"fc9bbc02-9f9f-4f21-9832-43fdd431acd4","system_id":"levelo_inurba_marseille","lat":43.24662,"lon":5.3817,"is_reserved":false,"is_disabled":false,"rental_uris":{"android":"levelo://app?vid=fc9bbc02-9f9f-4f21-9832-43fdd431acd4","ios":"levelo://app?vid=fc9bbc02-9f9f-4f21-9832-43fdd431acd4"},"vehicle_type_id":"4","last_reported":1729793558,"current_range_meters":37600,"station_id":"ce4bhih2rcd13ifvqfr0","pricing_plan_id":"cebpf4jnsgd1na2vs0mg"},{"bike_id":"a7fb3fd1-a437-4773-92ca-1f833b9fc028","system_id":"levelo_inurba_marseille","lat":43.28152,"lon":5.42643,"is_reserved":false,"is_disabled":false,"rental_uris":{"android":"levelo://app?vid=a7fb3fd1-a437-4773-92ca-1f833b9fc028","ios":"levelo://app?vid=a7fb3fd1-a437-4773-92ca-1f833b9fc028"},"vehicle_type_id":"4","last_reported":1729793558,"current_range_meters":4000,"station_id":"ce4bhnh2rcd13ifvqgug","pricing_plan_id":"cebpf4jnsgd1na2vs0mg"},{"bike_id":"9131424d-5f38-4003-a915-c4f2698059fa","system_id":"levelo_inurba_marseille","lat":43.24084,"lon":5.37742,"is_reserved":false,"is_disabled":false,"rental_uris":{"android":"levelo://app?vid=9131424d-5f38-4003-a915-c4f2698059fa","ios":"levelo://app?vid=9131424d-5f38-4003-a915-c4f2698059fa"},"vehicle_type_id":"4","last_reported":1729793558,"current_range_meters":38000,"station_id":"ce4bhnp2rcd13ifvqgvg","pricing_plan_id":"cebpf4jnsgd1na2vs0mg"},{"bike_id":"3c3283c0-2ab1-46ee-9223-3ddd7f414553","system_id":"levelo_inurba_marseille","lat":43.27841,"lon":5.39207,"is_reserved":false,"is_disabled":false,"rental_uris":{"android":"levelo://app?vid=3c3283c0-2ab1-46ee-9223-3ddd7f414553","ios":"levelo://app?vid=3c3283c0-2ab1-46ee-9223-3ddd7f414553"},"vehicle_type_id":"4","last_reported":1729793558,"current_range_meters":38000,"station_id":"ce4bhjp2rcd13ifvqga0","pricing_plan_id":"cebpf4jnsgd1na2vs0mg"},{"bike_id":"2ae542ef-dd9e-4dc5-b2ec-8d8246ea76bb","system_id":"levelo_inurba_marseille","lat":43.32108,"lon":5.3677,"is_reserved":false,"is_disabled":false,"rental_uris":{"android":"levelo://app?vid=2ae542ef-dd9e-4dc5-b2ec-8d8246ea76bb","ios":"levelo://app?vid=2ae542ef-dd9e-4dc5-b2ec-8d8246ea76bb"},"vehicle_type_id":"4","last_reported":1729793558,"current_range_meters":16400,"station_id":"ce4bhrh2rcd13ifvqhug","pricing_plan_id":"cebpf4jnsgd1na2vs0mg"},{"bike_id":"f630798a-3b93-40e1-8d7b-72b6d9e894d8","system_id":"levelo_inurba_marseille","lat":43.24077,"lon":5.37739,"is_reserved":false,"is_disabled":false,"rental_uris":{"android":"levelo://app?vid=f630798a-3b93-40e1-8d7b-72b6d9e894d8","ios":"levelo://app?vid=f630798a-3b93-40e1-8d7b-72b6d9e894d8"},"vehicle_type_id":"4","last_reported":1729793558,"current_range_meters":36000,"station_id":"ce4bhnp2rcd13ifvqgvg","pricing_plan_id":"cebpf4jnsgd1na2vs0mg"},{"bike_id":"09d73773-95ec-4b03-836b-d0adc0cad919","system_id":"levelo_inurba_marseille","lat":43.28854,"lon":5.39306,"is_reserved":false,"is_disabled":false,"rental_uris":{"android":"levelo://app?vid=09d73773-95ec-4b03-836b-d0adc0cad919","ios":"levelo://app?vid=09d73773-95ec-4b03-836b-d0adc0cad919"},"vehicle_type_id":"4","last_reported":1729793558,"current_range_meters":6800,"station_id":"ce4bh2p2rcd13ifvqdi0","pricing_plan_id":"cebpf4jnsgd1na2vs0mg"},{"bike_id":"1a5c0716-9d38-46ae-9bea-cbda1a338f70","system_id":"levelo_inurba_marseille","lat":43.32484,"lon":5.36577,"is_reserved":false,"is_disabled":false,"rental_uris":{"android":"levelo://app?vid=1a5c0716-9d38-46ae-9bea-cbda1a338f70","ios":"levelo://app?vid=1a5c0716-9d38-46ae-9bea-cbda1a338f70"},"vehicle_type_id":"4","last_reported":1729793558,"current_range_meters":38800,"station_id":"ce4bhs12rcd13ifvqhvg","pricing_plan_id":"cebpf4jnsgd1na2vs0mg"},{"bike_id":"f1f02cfc-9389-4da0-b831-15fe083e14eb","system_id":"levelo_inurba_marseille","lat":43.297,"lon":5.36617,"is_reserved":false,"is_disabled":false,"rental_uris":{"android":"levelo://app?vid=f1f02cfc-9389-4da0-b831-15fe083e14eb","ios":"levelo://app?vid=f1f02cfc-9389-4da0-b831-15fe083e14eb"},"vehicle_type_id":"4","last_reported":1729793558,"current_range_meters":38800,"station_id":"ce4bgn12rcd13ifvqbt0","pricing_plan_id":"cebpf4jnsgd1na2vs0mg"},{"bike_id":"5dac752b-5f3e-449b-8933-09241deb391d","system_id":"levelo_inurba_marseille","lat":43.26823,"lon":5.41106,"is_reserved":false,"is_disabled":false,"rental_uris":{"android":"levelo://app?vid=5dac752b-5f3e-449b-8933-09241deb391d","ios":"levelo://app?vid=5dac752b-5f3e-449b-8933-09241deb391d"},"vehicle_type_id":"4","last_reported":1729793558,"current_range_meters":12800,"station_id":"","pricing_plan_id":"cebpf4jnsgd1na2vs0mg"},{"bike_id":"1b5540d7-3cf3-48bb-a420-484086a5947a","system_id":"levelo_inurba_marseille","lat":43.25083,"lon":5.39518,"is_reserved":false,"is_disabled":false,"rental_uris":{"android":"levelo://app?vid=1b5540d7-3cf3-48bb-a420-484086a5947a","ios":"levelo://app?vid=1b5540d7-3cf3-48bb-a420-484086a5947a"},"vehicle_type_id":"4","last_reported":1729793558,"current_range_meters":26000,"station_id":"ce4bhm12rcd13ifvqgkg","pricing_plan_id":"cebpf4jnsgd1na2vs0mg"},{"bike_id":"69436c81-3c6d-4c01-bd2d-a3852ac2078d","system_id":"levelo_inurba_marseille","lat":43.24162,"lon":5.363997,"is_reserved":false,"is_disabled":false,"rental_uris":{"android":"levelo://app?vid=69436c81-3c6d-4c01-bd2d-a3852ac2078d","ios":"levelo://app?vid=69436c81-3c6d-4c01-bd2d-a3852ac2078d"},"vehicle_type_id":"4","last_reported":1729793558,"current_range_meters":4000,"station_id":"cpo36qri1sfpv3e86is0","pricing_plan_id":"cebpf4jnsgd1na2vs0mg"},{"bike_id":"789bdc9f-283e-494a-b512-547f521154fd","system_id":"levelo_inurba_marseille","lat":43.2942,"lon":5.38622,"is_reserved":false,"is_disabled":false,"rental_uris":{"android":"levelo://app?vid=789bdc9f-283e-494a-b512-547f521154fd","ios":"levelo://app?vid=789bdc9f-283e-494a-b512-547f521154fd"},"vehicle_type_id":"4","last_reported":1729793558,"current_range_meters":4800,"station_id":"ce4bh2h2rcd13ifvqdh0","pricing_plan_id":"cebpf4jnsgd1na2vs0mg"},{"bike_id":"7e63b5c0-5cd2-4a6e-98e0-0082f5383260","system_id":"levelo_inurba_marseille","lat":43.28076,"lon":5.39655,"is_reserved":false,"is_disabled":false,"rental_uris":{"android":"levelo://app?vid=7e63b5c0-5cd2-4a6e-98e0-0082f5383260","ios":"levelo://app?vid=7e63b5c0-5cd2-4a6e-98e0-0082f5383260"},"vehicle_type_id":"4","last_reported":1729793558,"current_range_meters":25200,"station_id":"ce4bho12rcd13ifvqh2g","pricing_plan_id":"cebpf4jnsgd1na2vs0mg"},{"bike_id":"cd8cc058-0f4c-4b68-9703-804e3ffc3c30","system_id":"levelo_inurba_marseille","lat":43.31083,"lon":5.42436,"is_reserved":false,"is_disabled":false,"rental_uris":{"android":"levelo://app?vid=cd8cc058-0f4c-4b68-9703-804e3ffc3c30","ios":"levelo://app?vid=cd8cc058-0f4c-4b68-9703-804e3ffc3c30"},"vehicle_type_id":"4","last_reported":1729793558,"current_range_meters":26800,"station_id":"ce4bhp92rcd13ifvqhag","pricing_plan_id":"cebpf4jnsgd1na2vs0mg"},{"bike_id":"d59691fa-7533-4144-8f05-d29ad84c330d","system_id":"levelo_inurba_marseille","lat":43.29435,"lon":5.39753,"is_reserved":false,"is_disabled":false,"rental_uris":{"android":"levelo://app?vid=d59691fa-7533-4144-8f05-d29ad84c330d","ios":"levelo://app?vid=d59691fa-7533-4144-8f05-d29ad84c330d"},"vehicle_type_id":"4","last_reported":1729793558,"current_range_meters":14400,"station_id":"ce4bh3h2rcd13ifvqdo0","pricing_plan_id":"cebpf4jnsgd1na2vs0mg"},{"bike_id":"13a1d1d8-4b88-4a23-bb6f-8a8025f4ffd6","system_id":"levelo_inurba_marseille","lat":43.29039,"lon":5.3864,"is_reserved":false,"is_disabled":false,"rental_uris":{"android":"levelo://app?vid=13a1d1d8-4b88-4a23-bb6f-8a8025f4ffd6","ios":"levelo://app?vid=13a1d1d8-4b88-4a23-bb6f-8a8025f4ffd6"},"vehicle_type_id":"4","last_reported":1729793558,"current_range_meters":16400,"station_id":"ce4bh4p2rcd13ifvqe0g","pricing_plan_id":"cebpf4jnsgd1na2vs0mg"},{"bike_id":"0a88f589-7b84-4352-8b81-bbbe3fa900cb","system_id":"levelo_inurba_marseille","lat":43.29553,"lon":5.423,"is_reserved":false,"is_disabled":false,"rental_uris":{"android":"levelo://app?vid=0a88f589-7b84-4352-8b81-bbbe3fa900cb","ios":"levelo://app?vid=0a88f589-7b84-4352-8b81-bbbe3fa900cb"},"vehicle_type_id":"4","last_reported":1729793558,"current_range_meters":14800,"station_id":"ce4bhph2rcd13ifvqhdg","pricing_plan_id":"cebpf4jnsgd1na2vs0mg"},{"bike_id":"40670dd6-b6b3-4075-aefc-6af82cc6a566","system_id":"levelo_inurba_marseille","lat":43.273694,"lon":5.362637,"is_reserved":false,"is_disabled":false,"rental_uris":{"android":"levelo://app?vid=40670dd6-b6b3-4075-aefc-6af82cc6a566","ios":"levelo://app?vid=40670dd6-b6b3-4075-aefc-6af82cc6a566"},"vehicle_type_id":"4","last_reported":1729793558,"current_range_meters":30000,"station_id":"ce4bhbh2rcd13ifvqeo0","pricing_plan_id":"cebpf4jnsgd1na2vs0mg"},{"bike_id":"4ec5cf0f-9ad1-450a-9a7a-a128cf1670dd","system_id":"levelo_inurba_marseille","lat":43.26204,"lon":5.37932,"is_reserved":false,"is_disabled":false,"rental_uris":{"android":"levelo://app?vid=4ec5cf0f-9ad1-450a-9a7a-a128cf1670dd","ios":"levelo://app?vid=4ec5cf0f-9ad1-450a-9a7a-a128cf1670dd"},"vehicle_type_id":"4","last_reported":1729793558,"current_range_meters":7200,"station_id":"ce4bhjp2rcd13ifvqg90","pricing_plan_id":"cebpf4jnsgd1na2vs0mg"},{"bike_id":"244e35b8-fc38-4eef-9350-95e21f63534a","system_id":"levelo_inurba_marseille","lat":43.286183,"lon":5.351122,"is_reserved":false,"is_disabled":false,"rental_uris":{"android":"levelo://app?vid=244e35b8-fc38-4eef-9350-95e21f63534a","ios":"levelo://app?vid=244e35b8-fc38-4eef-9350-95e21f63534a"},"vehicle_type_id":"4","last_reported":1729793558,"current_range_meters":18800,"station_id":"ce4bgkh2rcd13ifvqbl0","pricing_plan_id":"cebpf4jnsgd1na2vs0mg"},{"bike_id":"c301fd1a-77dd-4442-bccb-ec3f62803792","system_id":"levelo_inurba_marseille","lat":43.29422,"lon":5.38617,"is_reserved":false,"is_disabled":false,"rental_uris":{"android":"levelo://app?vid=c301fd1a-77dd-4442-bccb-ec3f62803792","ios":"levelo://app?vid=c301fd1a-77dd-4442-bccb-ec3f62803792"},"vehicle_type_id":"4","last_reported":1729793558,"current_range_meters":9600,"station_id":"ce4bh2h2rcd13ifvqdh0","pricing_plan_id":"cebpf4jnsgd1na2vs0mg"},{"bike_id":"fb47bc2c-a7e1-4460-b597-41949cb673f8","system_id":"levelo_inurba_marseille","lat":43.32058,"lon":5.41547,"is_reserved":false,"is_disabled":false,"rental_uris":{"android":"levelo://app?vid=fb47bc2c-a7e1-4460-b597-41949cb673f8","ios":"levelo://app?vid=fb47bc2c-a7e1-4460-b597-41949cb673f8"},"vehicle_type_id":"4","last_reported":1729793558,"current_range_meters":28400,"station_id":"ce4bhq92rcd13ifvqhkg","pricing_plan_id":"cebpf4jnsgd1na2vs0mg"},{"bike_id":"0c1e1ea4-fc94-41a5-af0b-4c574d1e5702","system_id":"levelo_inurba_marseille","lat":43.29036,"lon":5.38647,"is_reserved":false,"is_disabled":false,"rental_uris":{"android":"levelo://app?vid=0c1e1ea4-fc94-41a5-af0b-4c574d1e5702","ios":"levelo://app?vid=0c1e1ea4-fc94-41a5-af0b-4c574d1e5702"},"vehicle_type_id":"4","last_reported":1729793558,"current_range_meters":9200,"station_id":"ce4bh4p2rcd13ifvqe0g","pricing_plan_id":"cebpf4jnsgd1na2vs0mg"},{"bike_id":"33f14442-0259-4edd-bb81-df2c0775d85a","system_id":"levelo_inurba_marseille","lat":43.29894,"lon":5.43663,"is_reserved":false,"is_disabled":false,"rental_uris":{"android":"levelo://app?vid=33f14442-0259-4edd-bb81-df2c0775d85a","ios":"levelo://app?vid=33f14442-0259-4edd-bb81-df2c0775d85a"},"vehicle_type_id":"4","last_reported":1729793558,"current_range_meters":8800,"station_id":"ce4bhpp2rcd13ifvqhfg","pricing_plan_id":"cebpf4jnsgd1na2vs0mg"},{"bike_id":"0e772451-65b0-4a1a-8baf-64618fb79ed6","system_id":"levelo_inurba_marseille","lat":43.27176,"lon":5.40994,"is_reserved":false,"is_disabled":false,"rental_uris":{"android":"levelo://app?vid=0e772451-65b0-4a1a-8baf-64618fb79ed6","ios":"levelo://app?vid=0e772451-65b0-4a1a-8baf-64618fb79ed6"},"vehicle_type_id":"4","last_reported":1729793558,"current_range_meters":19200,"station_id":"ce4bhl12rcd13ifvqgf0","pricing_plan_id":"cebpf4jnsgd1na2vs0mg"},{"bike_id":"62b219e4-fba4-42f9-9d67-7efd9b4fcfce","system_id":"levelo_inurba_marseille","lat":43.308931,"lon":5.372057,"is_reserved":false,"is_disabled":false,"rental_uris":{"android":"levelo://app?vid=62b219e4-fba4-42f9-9d67-7efd9b4fcfce","ios":"levelo://app?vid=62b219e4-fba4-42f9-9d67-7efd9b4fcfce"},"vehicle_type_id":"4","last_reported":1729793558,"current_range_meters":9600,"station_id":"ce4bguh2rcd13ifvqckg","pricing_plan_id":"cebpf4jnsgd1na2vs0mg"},{"bike_id":"a6e8dd35-1b78-4362-aa22-a300b7cf5d01","system_id":"levelo_inurba_marseille","lat":43.27958,"lon":5.38738,"is_reserved":false,"is_disabled":false,"rental_uris":{"android":"levelo://app?vid=a6e8dd35-1b78-4362-aa22-a300b7cf5d01","ios":"levelo://app?vid=a6e8dd35-1b78-4362-aa22-a300b7cf5d01"},"vehicle_type_id":"4","last_reported":1729793558,"current_range_meters":12400,"station_id":"ce4bhg12rcd13ifvqf80","pricing_plan_id":"cebpf4jnsgd1na2vs0mg"},{"bike_id":"70b37b82-ffd3-4550-b2dc-0c2bd872ef9b","system_id":"levelo_inurba_marseille","lat":43.31176,"lon":5.38713,"is_reserved":false,"is_disabled":false,"rental_uris":{"android":"levelo://app?vid=70b37b82-ffd3-4550-b2dc-0c2bd872ef9b","ios":"levelo://app?vid=70b37b82-ffd3-4550-b2dc-0c2bd872ef9b"},"vehicle_type_id":"4","last_reported":1729793558,"current_range_meters":4400,"station_id":"ce4bgv12rcd13ifvqcp0","pricing_plan_id":"cebpf4jnsgd1na2vs0mg"},{"bike_id":"124b2bba-0811-4590-a696-bf44ba8905df","system_id":"levelo_inurba_marseille","lat":43.29262,"lon":5.38444,"is_reserved":false,"is_disabled":false,"rental_uris":{"android":"levelo://app?vid=124b2bba-0811-4590-a696-bf44ba8905df","ios":"levelo://app?vid=124b2bba-0811-4590-a696-bf44ba8905df"},"vehicle_type_id":"4","last_reported":1729793558,"current_range_meters":12800,"station_id":"ce4bh692rcd13ifvqea0","pricing_plan_id":"cebpf4jnsgd1na2vs0mg"},{"bike_id":"069c1014-d063-4c64-bbde-498a2f16f8d3","system_id":"levelo_inurba_marseille","lat":43.29425,"lon":5.38611,"is_reserved":false,"is_disabled":false,"rental_uris":{"android":"levelo://app?vid=069c1014-d063-4c64-bbde-498a2f16f8d3","ios":"levelo://app?vid=069c1014-d063-4c64-bbde-498a2f16f8d3"},"vehicle_type_id":"4","last_reported":1729793558,"current_range_meters":27200,"station_id":"ce4bh2h2rcd13ifvqdh0","pricing_plan_id":"cebpf4jnsgd1na2vs0mg"},{"bike_id":"77b67b4b-2a17-4d24-af32-24e63eddb390","system_id":"levelo_inurba_marseille","lat":43.31721,"lon":5.42395,"is_reserved":false,"is_disabled":false,"rental_uris":{"android":"levelo://app?vid=77b67b4b-2a17-4d24-af32-24e63eddb390","ios":"levelo://app?vid=77b67b4b-2a17-4d24-af32-24e63eddb390"},"vehicle_type_id":"4","last_reported":1729793558,"current_range_meters":39200,"station_id":"ce4bhp92rcd13ifvqhbg","pricing_plan_id":"cebpf4jnsgd1na2vs0mg"},{"bike_id":"8af09d01-6fc0-4799-bd28-ffbc3680e944","system_id":"levelo_inurba_marseille","lat":43.29772,"lon":5.38115,"is_reserved":false,"is_disabled":false,"rental_uris":{"android":"levelo://app?vid=8af09d01-6fc0-4799-bd28-ffbc3680e944","ios":"levelo://app?vid=8af09d01-6fc0-4799-bd28-ffbc3680e944"},"vehicle_type_id":"4","last_reported":1729793558,"current_range_meters":6400,"station_id":"ce4bgip2rcd13ifvqbb0","pricing_plan_id":"cebpf4jnsgd1na2vs0mg"},{"bike_id":"931d7c43-a3cd-46e9-b061-71cfd6762f21","system_id":"levelo_inurba_marseille","lat":43.29518,"lon":5.38535,"is_reserved":false,"is_disabled":false,"rental_uris":{"android":"levelo://app?vid=931d7c43-a3cd-46e9-b061-71cfd6762f21","ios":"levelo://app?vid=931d7c43-a3cd-46e9-b061-71cfd6762f21"},"vehicle_type_id":"4","last_reported":1729793558,"current_range_meters":18800,"station_id":"ce4bgih2rcd13ifvqba0","pricing_plan_id":"cebpf4jnsgd1na2vs0mg"},{"bike_id":"535275f4-463a-4688-9da1-de755c6401d5","system_id":"levelo_inurba_marseille","lat":43.28102,"lon":5.37842,"is_reserved":false,"is_disabled":false,"rental_uris":{"android":"levelo://app?vid=535275f4-463a-4688-9da1-de755c6401d5","ios":"levelo://app?vid=535275f4-463a-4688-9da1-de755c6401d5"},"vehicle_type_id":"4","last_reported":1729793558,"current_range_meters":6400,"station_id":"ce4bha12rcd13ifvqee0","pricing_plan_id":"cebpf4jnsgd1na2vs0mg"},{"bike_id":"8fb77f9b-dfb2-4c5a-9f98-a9d8bda92bed","system_id":"levelo_inurba_marseille","lat":43.324816,"lon":5.365645,"is_reserved":false,"is_disabled":false,"rental_uris":{"android":"levelo://app?vid=8fb77f9b-dfb2-4c5a-9f98-a9d8bda92bed","ios":"levelo://app?vid=8fb77f9b-dfb2-4c5a-9f98-a9d8bda92bed"},"vehicle_type_id":"4","last_reported":1729793558,"current_range_meters":39200,"station_id":"ce4bhs12rcd13ifvqhvg","pricing_plan_id":"cebpf4jnsgd1na2vs0mg"},{"bike_id":"1426aab6-2b98-47eb-8531-0e72c818e023","system_id":"levelo_inurba_marseille","lat":43.30318,"lon":5.40437,"is_reserved":false,"is_disabled":false,"rental_uris":{"android":"levelo://app?vid=1426aab6-2b98-47eb-8531-0e72c818e023","ios":"levelo://app?vid=1426aab6-2b98-47eb-8531-0e72c818e023"},"vehicle_type_id":"4","last_reported":1729793558,"current_range_meters":20400,"station_id":"ce4bh012rcd13ifvqd10","pricing_plan_id":"cebpf4jnsgd1na2vs0mg"},{"bike_id":"a0da52c0-1f92-4940-9c4b-1d1bbfd38381","system_id":"levelo_inurba_marseille","lat":43.27987,"lon":5.41656,"is_reserved":false,"is_disabled":false,"rental_uris":{"android":"levelo://app?vid=a0da52c0-1f92-4940-9c4b-1d1bbfd38381","ios":"levelo://app?vid=a0da52c0-1f92-4940-9c4b-1d1bbfd38381"},"vehicle_type_id":"4","last_reported":1729793558,"current_range_meters":16400,"station_id":"ce4bho12rcd13ifvqh1g","pricing_plan_id":"cebpf4jnsgd1na2vs0mg"},{"bike_id":"b892afc0-a373-4996-b660-449ac7f63a05","system_id":"levelo_inurba_marseille","lat":43.2927,"lon":5.38447,"is_reserved":false,"is_disabled":false,"rental_uris":{"android":"levelo://app?vid=b892afc0-a373-4996-b660-449ac7f63a05","ios":"levelo://app?vid=b892afc0-a373-4996-b660-449ac7f63a05"},"vehicle_type_id":"4","last_reported":1729793558,"current_range_meters":11200,"station_id":"ce4bh692rcd13ifvqea0","pricing_plan_id":"cebpf4jnsgd1na2vs0mg"},{"bike_id":"d0b1b71e-a962-4930-9f71-34cc242a4eb3","system_id":"levelo_inurba_marseille","lat":43.24075,"lon":5.37761,"is_reserved":false,"is_disabled":false,"rental_uris":{"android":"levelo://app?vid=d0b1b71e-a962-4930-9f71-34cc242a4eb3","ios":"levelo://app?vid=d0b1b71e-a962-4930-9f71-34cc242a4eb3"},"vehicle_type_id":"4","last_reported":1729793558,"current_range_meters":13600,"station_id":"ce4bhnp2rcd13ifvqgvg","pricing_plan_id":"cebpf4jnsgd1na2vs0mg"},{"bike_id":"dc0b5618-9e93-4189-92e9-2de9d877017e","system_id":"levelo_inurba_marseille","lat":43.30772,"lon":5.43508,"is_reserved":false,"is_disabled":false,"rental_uris":{"android":"levelo://app?vid=dc0b5618-9e93-4189-92e9-2de9d877017e","ios":"levelo://app?vid=dc0b5618-9e93-4189-92e9-2de9d877017e"},"vehicle_type_id":"4","last_reported":1729793558,"current_range_meters":29600,"station_id":"ce4bhp92rcd13ifvqhcg","pricing_plan_id":"cebpf4jnsgd1na2vs0mg"},{"bike_id":"10bb343b-f9b1-4ab1-be6b-2101f74fb2f5","system_id":"levelo_inurba_marseille","lat":43.27812,"lon":5.40712,"is_reserved":false,"is_disabled":false,"rental_uris":{"android":"levelo://app?vid=10bb343b-f9b1-4ab1-be6b-2101f74fb2f5","ios":"levelo://app?vid=10bb343b-f9b1-4ab1-be6b-2101f74fb2f5"},"vehicle_type_id":"4","last_reported":1729793558,"current_range_meters":16800,"station_id":"ce4bhnh2rcd13ifvqgtg","pricing_plan_id":"cebpf4jnsgd1na2vs0mg"},{"bike_id":"7bb8419e-96dc-4503-bbcd-77aeae4a658a","system_id":"levelo_inurba_marseille","lat":43.3046,"lon":5.3791,"is_reserved":false,"is_disabled":false,"rental_uris":{"android":"levelo://app?vid=7bb8419e-96dc-4503-bbcd-77aeae4a658a","ios":"levelo://app?vid=7bb8419e-96dc-4503-bbcd-77aeae4a658a"},"vehicle_type_id":"4","last_reported":1729793558,"current_range_meters":8000,"station_id":"ce4bgup2rcd13ifvqcn0","pricing_plan_id":"cebpf4jnsgd1na2vs0mg"},{"bike_id":"e24949eb-a34c-4c5c-ada7-82443c0c7712","system_id":"levelo_inurba_marseille","lat":43.31887,"lon":5.40744,"is_reserved":false,"is_disabled":false,"rental_uris":{"android":"levelo://app?vid=e24949eb-a34c-4c5c-ada7-82443c0c7712","ios":"levelo://app?vid=e24949eb-a34c-4c5c-ada7-82443c0c7712"},"vehicle_type_id":"4","last_reported":1729793558,"current_range_meters":8800,"station_id":"ce4bhq12rcd13ifvqhig","pricing_plan_id":"cebpf4jnsgd1na2vs0mg"},{"bike_id":"1268e9ba-fd01-40e2-8360-44cf39aed40d","system_id":"levelo_inurba_marseille","lat":43.29419,"lon":5.38623,"is_reserved":false,"is_disabled":false,"rental_uris":{"android":"levelo://app?vid=1268e9ba-fd01-40e2-8360-44cf39aed40d","ios":"levelo://app?vid=1268e9ba-fd01-40e2-8360-44cf39aed40d"},"vehicle_type_id":"4","last_reported":1729793558,"current_range_meters":15200,"station_id":"ce4bh2h2rcd13ifvqdh0","pricing_plan_id":"cebpf4jnsgd1na2vs0mg"},{"bike_id":"2d8e765c-8d3b-4faa-a249-fca1a2a9f4f5","system_id":"levelo_inurba_marseille","lat":43.29717,"lon":5.36616,"is_reserved":false,"is_disabled":false,"rental_uris":{"android":"levelo://app?vid=2d8e765c-8d3b-4faa-a249-fca1a2a9f4f5","ios":"levelo://app?vid=2d8e765c-8d3b-4faa-a249-fca1a2a9f4f5"},"vehicle_type_id":"4","last_reported":1729793558,"current_range_meters":27200,"station_id":"ce4bgn12rcd13ifvqbt0","pricing_plan_id":"cebpf4jnsgd1na2vs0mg"},{"bike_id":"8bc2afa8-1374-494c-92db-01cdc5f0f052","system_id":"levelo_inurba_marseille","lat":43.30141,"lon":5.37423,"is_reserved":false,"is_disabled":false,"rental_uris":{"android":"levelo://app?vid=8bc2afa8-1374-494c-92db-01cdc5f0f052","ios":"levelo://app?vid=8bc2afa8-1374-494c-92db-01cdc5f0f052"},"vehicle_type_id":"4","last_reported":1729793558,"current_range_meters":3600,"station_id":"ce4bgs92rcd13ifvqcc0","pricing_plan_id":"cebpf4jnsgd1na2vs0mg"},{"bike_id":"eeb68a0d-adae-44f6-990a-722fcc075f2c","system_id":"levelo_inurba_marseille","lat":43.26061,"lon":5.39387,"is_reserved":false,"is_disabled":false,"rental_uris":{"android":"levelo://app?vid=eeb68a0d-adae-44f6-990a-722fcc075f2c","ios":"levelo://app?vid=eeb68a0d-adae-44f6-990a-722fcc075f2c"},"vehicle_type_id":"4","last_reported":1729793558,"current_range_meters":38800,"station_id":"ce4bhh92rcd13ifvqfj0","pricing_plan_id":"cebpf4jnsgd1na2vs0mg"},{"bike_id":"2e4839ef-8e4f-4584-a789-c581c7c993a2","system_id":"levelo_inurba_marseille","lat":43.28928,"lon":5.38403,"is_reserved":false,"is_disabled":false,"rental_uris":{"android":"levelo://app?vid=2e4839ef-8e4f-4584-a789-c581c7c993a2","ios":"levelo://app?vid=2e4839ef-8e4f-4584-a789-c581c7c993a2"},"vehicle_type_id":"4","last_reported":1729793558,"current_range_meters":2000,"station_id":"ce4bh612rcd13ifvqe6g","pricing_plan_id":"cebpf4jnsgd1na2vs0mg"},{"bike_id":"2c66b4b2-5469-4964-a535-4cb0211d7b2d","system_id":"levelo_inurba_marseille","lat":43.29259,"lon":5.38452,"is_reserved":false,"is_disabled":false,"rental_uris":{"android":"levelo://app?vid=2c66b4b2-5469-4964-a535-4cb0211d7b2d","ios":"levelo://app?vid=2c66b4b2-5469-4964-a535-4cb0211d7b2d"},"vehicle_type_id":"4","last_reported":1729793558,"current_range_meters":38800,"station_id":"ce4bh692rcd13ifvqea0","pricing_plan_id":"cebpf4jnsgd1na2vs0mg"},