{"last_updated":1691165280,"ttl":30,"version":"2.2","data":{"bikes":[{"bike_id":"608ff0a3-3e0e-4650-b477-bb45191c4ede","system_id":"levelo_inurba_marseille","lat":43.313391,"lon":5.36706,"is_reserved":false,"is_disabled":false,"rental_uris":{"android":"levelo://app?vid=608ff0a3-3e0e-4650-b477-bb45191c4ede","ios":"levelo://app?vid=608ff0a3-3e0e-4650-b477-bb45191c4ede"},"vehicle_type_id":"4","last_reported":1691165280,"current_range_meters":27200,"station_id":"ce4bgr92rcd13ifvqc6g","pricing_plan_id":"free"},{"bike_id":"04ce7874-6e8f-4949-b838-50d9c5cf9fb4","system_id":"levelo_inurba_marseille","lat":43.309039,"lon":5.371797,"is_reserved":false,"is_disabled":false,"rental_uris":{"android":"levelo://app?vid=04ce7874-6e8f-4949-b838-50d9c5cf9fb4","ios":"levelo://app?vid=04ce7874-6e8f-4949-b838-50d9c5cf9fb4"},"vehicle_type_id":"4","last_reported":1691165280,"current_range_meters":400,"station_id":"ce4bguh2rcd13ifvqckg","pricing_plan_id":"free"},{"bike_id":"87b91bd0-ac09-48a1-b7b5-a6364364a9cb","system_id":"levelo_inurba_marseille","lat":43.309039,"lon":5.371797,"is_reserved":false,"is_disabled":false,"rental_uris":{"android":"levelo://app?vid=87b91bd0-ac09-48a1-b7b5-a6364364a9cb","ios":"levelo://app?vid=87b91bd0-ac09-48a1-b7b5-a6364364a9cb"},"vehicle_type_id":"4","last_reported":1691165280,"current_range_meters":28000,"station_id":"ce4bguh2rcd13ifvqckg","pricing_plan_id":"free"},{"bike_id":"c1431560-12ee-42c8-b6e0-02091999a1c9","system_id":"levelo_inurba_marseille","lat":43.309039,"lon":5.371797,"is_reserved":false,"is_disabled":false,"rental_uris":{"android":"levelo://app?vid=c1431560-12ee-42c8-b6e0-02091999a1c9","ios":"levelo://app?vid=c1431560-12ee-42c8-b6e0-02091999a1c9"},"vehicle_type_id":"4","last_reported":1691165280,"current_range_meters":16000,"station_id":"ce4bguh2rcd13ifvqckg","pricing_plan_id":"free"},{"bike_id":"7cfb81a3-fd7f-41d1-987d-c1037b7c6b4a","system_id":"levelo_inurba_marseille","lat":43.31472,"lon":5.37495,"is_reserved":false,"is_disabled":false,"rental_uris":{"android":"levelo://app?vid=7cfb81a3-fd7f-41d1-987d-c1037b7c6b4a","ios":"levelo://app?vid=7cfb81a3-fd7f-41d1-987d-c1037b7c6b4a"},"vehicle_type_id":"4","last_reported":1691165280,"current_range_meters":17600,"station_id":"","pricing_plan_id":"free"},{"bike_id":"f20ea888-8740-440b-bfeb-8eb2a7c1f652","system_id":"levelo_inurba_marseille","lat":43.305989,"lon":5.37225,"is_reserved":false,"is_disabled":false,"rental_uris":{"android":"levelo://app?vid=f20ea888-8740-440b-bfeb-8eb2a7c1f652","ios":"levelo://app?vid=f20ea888-8740-440b-bfeb-8eb2a7c1f652"},"vehicle_type_id":"4","last_reported":1691165280,"current_range_meters":31200,"station_id":"ce4bgqh2rcd13ifvqc4g","pricing_plan_id":"free"},{"bike_id":"f001917c-c23d-43ad-8984-68b24d74093b","system_id":"levelo_inurba_marseille","lat":43.30789,"lon":5.37653,"is_reserved":false,"is_disabled":false,"rental_uris":{"android":"levelo://app?vid=f001917c-c23d-43ad-8984-68b24d74093b","ios":"levelo://app?vid=f001917c-c23d-43ad-8984-68b24d74093b"},"vehicle_type_id":"4","last_reported":1691165280,"current_range_meters":0,"station_id":"ce4bgv92rcd13ifvqcq0","pricing_plan_id":"free"},{"bike_id":"6e7d2a81-eb04-467b-8744-5fac68edc62a","system_id":"levelo_inurba_marseille","lat":43.30788,"lon":5.37669,"is_reserved":false,"is_disabled":false,"rental_uris":{"android":"levelo://app?vid=6e7d2a81-eb04-467b-8744-5fac68edc62a","ios":"levelo://app?vid=6e7d2a81-eb04-467b-8744-5fac68edc62a"},"vehicle_type_id":"4","last_reported":1691165280,"current_range_meters":4400,"station_id":"ce4bgv92rcd13ifvqcq0","pricing_plan_id":"free"},{"bike_id":"49d7ee15-de43-4db1-ab23-0ab0324132af","system_id":"levelo_inurba_marseille","lat":43.317075,"lon":5.377367,"is_reserved":false,"is_disabled":false,"rental_uris":{"android":"levelo://app?vid=49d7ee15-de43-4db1-ab23-0ab0324132af","ios":"levelo://app?vid=49d7ee15-de43-4db1-ab23-0ab0324132af"},"vehicle_type_id":"4","last_reported":1691165280,"current_range_meters":21200,"station_id":"ce4bgth2rcd13ifvqch0","pricing_plan_id":"free"},{"bike_id":"426870c7-f3df-47ab-a315-49e7a1acd8d2","system_id":"levelo_inurba_marseille","lat":43.315293,"lon":5.380349,"is_reserved":false,"is_disabled":false,"rental_uris":{"android":"levelo://app?vid=426870c7-f3df-47ab-a315-49e7a1acd8d2","ios":"levelo://app?vid=426870c7-f3df-47ab-a315-49e7a1acd8d2"},"vehicle_type_id":"4","last_reported":1691165280,"current_range_meters":10400,"station_id":"ce4bhsp2rcd13ifvqi50","pricing_plan_id":"free"},{"bike_id":"80d20e39-f50e-4a7e-b27f-c94adcc63542","system_id":"levelo_inurba_marseille","lat":43.3223,"lon":5.37629,"is_reserved":false,"is_disabled":false,"rental_uris":{"android":"levelo://app?vid=80d20e39-f50e-4a7e-b27f-c94adcc63542","ios":"levelo://app?vid=80d20e39-f50e-4a7e-b27f-c94adcc63542"},"vehicle_type_id":"4","last_reported":1691165280,"current_range_meters":0,"station_id":"","pricing_plan_id":"free"},{"bike_id":"c5f5a01a-1201-4b1b-b77b-6e123f6f4c50","system_id":"levelo_inurba_marseille","lat":43.304606,"lon":5.379026,"is_reserved":false,"is_disabled":false,"rental_uris":{"android":"levelo://app?vid=c5f5a01a-1201-4b1b-b77b-6e123f6f4c50","ios":"levelo://app?vid=c5f5a01a-1201-4b1b-b77b-6e123f6f4c50"},"vehicle_type_id":"4","last_reported":1691165280,"current_range_meters":28800,"station_id":"ce4bgup2rcd13ifvqcn0","pricing_plan_id":"free"},{"bike_id":"8b4b0c81-1ab0-4a31-b034-bcdeba0f058d","system_id":"levelo_inurba_marseille","lat":43.304606,"lon":5.379026,"is_reserved":false,"is_disabled":false,"rental_uris":{"android":"levelo://app?vid=8b4b0c81-1ab0-4a31-b034-bcdeba0f058d","ios":"levelo://app?vid=8b4b0c81-1ab0-4a31-b034-bcdeba0f058d"},"vehicle_type_id":"4","last_reported":1691165280,"current_range_meters":14000,"station_id":"ce4bgup2rcd13ifvqcn0","pricing_plan_id":"free"},{"bike_id":"61bfeafd-dc38-4dab-8ec1-d42c8e0ed592","system_id":"levelo_inurba_marseille","lat":43.304606,"lon":5.379026,"is_reserved":false,"is_disabled":false,"rental_uris":{"android":"levelo://app?vid=61bfeafd-dc38-4dab-8ec1-d42c8e0ed592","ios":"levelo://app?vid=61bfeafd-dc38-4dab-8ec1-d42c8e0ed592"},"vehicle_type_id":"4","last_reported":1691165280,"current_range_meters":31600,"station_id":"ce4bgup2rcd13ifvqcn0","pricing_plan_id":"free"},{"bike_id":"5d8df7d6-ac12-418a-a2db-e59844ce6558","system_id":"levelo_inurba_marseille","lat":43.304606,"lon":5.379026,"is_reserved":false,"is_disabled":false,"rental_uris":{"android":"levelo://app?vid=5d8df7d6-ac12-418a-a2db-e59844ce6558","ios":"levelo://app?vid=5d8df7d6-ac12-418a-a2db-e59844ce6558"},"vehicle_type_id":"4","last_reported":1691165280,"current_range_meters":19200,"station_id":"ce4bgup2rcd13ifvqcn0","pricing_plan_id":"free"},{"bike_id":"03ea478a-0805-46e5-b7b9-af5f96ff339a","system_id":"levelo_inurba_marseille","lat":43.304606,"lon":5.379026,"is_reserved":false,"is_disabled":false,"rental_uris":{"android":"levelo://app?vid=03ea478a-0805-46e5-b7b9-af5f96ff339a","ios":"levelo://app?vid=03ea478a-0805-46e5-b7b9-af5f96ff339a"},"vehicle_type_id":"4","last_reported":1691165280,"current_range_meters":10000,"station_id":"ce4bgup2rcd13ifvqcn0","pricing_plan_id":"free"},{"bike_id":"f59e4bee-5736-44c2-9549-c01ac668841d","system_id":"levelo_inurba_marseille","lat":43.304606,"lon":5.379026,"is_reserved":false,"is_disabled":false,"rental_uris":{"android":"levelo://app?vid=f59e4bee-5736-44c2-9549-c01ac668841d","ios":"levelo://app?vid=f59e4bee-5736-44c2-9549-c01ac668841d"},"vehicle_type_id":"4","last_reported":1691165280,"current_range_meters":24000,"station_id":"ce4bgup2rcd13ifvqcn0","pricing_plan_id":"free"},{"bike_id":"2a63b2ed-bf7e-4ca4-a780-c03380b4a22c","system_id":"levelo_inurba_marseille","lat":43.304606,"lon":5.379026,"is_reserved":false,"is_disabled":false,"rental_uris":{"android":"levelo://app?vid=2a63b2ed-bf7e-4ca4-a780-c03380b4a22c","ios":"levelo://app?vid=2a63b2ed-bf7e-4ca4-a780-c03380b4a22c"},"vehicle_type_id":"4","last_reported":1691165280,"current_range_meters":400,"station_id":"ce4bgup2rcd13ifvqcn0","pricing_plan_id":"free"},{"bike_id":"d5f7f396-3296-41b5-bc26-a6ef0187ad90","system_id":"levelo_inurba_marseille","lat":43.32004,"lon":5.38155,"is_reserved":false,"is_disabled":false,"rental_uris":{"android":"levelo://app?vid=d5f7f396-3296-41b5-bc26-a6ef0187ad90","ios":"levelo://app?vid=d5f7f396-3296-41b5-bc26-a6ef0187ad90"},"vehicle_type_id":"4","last_reported":1691165280,"current_range_meters":0,"station_id":"ce4bhr12rcd13ifvqhpg","pricing_plan_id":"free"},{"bike_id":"3cb7fd70-121e-4eb5-9a01-ecc8718aa1bb","system_id":"levelo_inurba_marseille","lat":43.29939,"lon":5.36552,"is_reserved":false,"is_disabled":false,"rental_uris":{"android":"levelo://app?vid=3cb7fd70-121e-4eb5-9a01-ecc8718aa1bb","ios":"levelo://app?vid=3cb7fd70-121e-4eb5-9a01-ecc8718aa1bb"},"vehicle_type_id":"4","last_reported":1691165280,"current_range_meters":27200,"station_id":"ce4bgm92rcd13ifvqbr0","pricing_plan_id":"free"},{"bike_id":"30537d43-af02-4a10-b928-7b9b8cf633d2","system_id":"levelo_inurba_marseille","lat":43.30551,"lon":5.38423,"is_reserved":false,"is_disabled":false,"rental_uris":{"android":"levelo://app?vid=30537d43-af02-4a10-b928-7b9b8cf633d2","ios":"levelo://app?vid=30537d43-af02-4a10-b928-7b9b8cf633d2"},"vehicle_type_id":"4","last_reported":1691165280,"current_range_meters":29200,"station_id":"ce4bgg92rcd13ifvqb30","pricing_plan_id":"free"},{"bike_id":"db993b36-ea81-4814-923d-0ea56b9d014c","system_id":"levelo_inurba_marseille","lat":43.311722,"lon":5.387247,"is_reserved":false,"is_disabled":false,"rental_uris":{"android":"levelo://app?vid=db993b36-ea81-4814-923d-0ea56b9d014c","ios":"levelo://app?vid=db993b36-ea81-4814-923d-0ea56b9d014c"},"vehicle_type_id":"4","last_reported":1691165280,"current_range_meters":12000,"station_id":"ce4bgv12rcd13ifvqcp0","pricing_plan_id":"free"},{"bike_id":"e10fae54-9b81-49f4-ba53-a6a6d1ac2154","system_id":"levelo_inurba_marseille","lat":43.311722,"lon":5.387247,"is_reserved":false,"is_disabled":false,"rental_uris":{"android":"levelo://app?vid=e10fae54-9b81-49f4-ba53-a6a6d1ac2154","ios":"levelo://app?vid=e10fae54-9b81-49f4-ba53-a6a6d1ac2154"},"vehicle_type_id":"4","last_reported":1691165280,"current_range_meters":3200,"station_id":"ce4bgv12rcd13ifvqcp0","pricing_plan_id":"free"},{"bike_id":"53034758-d18a-4e0b-a200-fa4baf2b45bc","system_id":"levelo_inurba_marseille","lat":43.311722,"lon":5.387247,"is_reserved":false,"is_disabled":false,"rental_uris":{"android":"levelo://app?vid=53034758-d18a-4e0b-a200-fa4baf2b45bc","ios":"levelo://app?vid=53034758-d18a-4e0b-a200-fa4baf2b45bc"},"vehicle_type_id":"4","last_reported":1691165280,"current_range_meters":800,"station_id":"ce4bgv12rcd13ifvqcp0","pricing_plan_id":"free"},{"bike_id":"6326d6e9-0480-463e-9c21-306783e3f6cf","system_id":"levelo_inurba_marseille","lat":43.297774,"lon":5.370875,"is_reserved":false,"is_disabled":false,"rental_uris":{"android":"levelo://app?vid=6326d6e9-0480-463e-9c21-306783e3f6cf","ios":"levelo://app?vid=6326d6e9-0480-463e-9c21-306783e3f6cf"},"vehicle_type_id":"4","last_reported":1691165280,"current_range_meters":29200,"station_id":"ce4bgop2rcd13ifvqc1g","pricing_plan_id":"free"},{"bike_id":"b4c4e061-88fe-4d15-98a4-26519b8b5a14","system_id":"levelo_inurba_marseille","lat":43.322872,"lon":5.382756,"is_reserved":false,"is_disabled":false,"rental_uris":{"android":"levelo://app?vid=b4c4e061-88fe-4d15-98a4-26519b8b5a14","ios":"levelo://app?vid=b4c4e061-88fe-4d15-98a4-26519b8b5a14"},"vehicle_type_id":"4","last_reported":1691165280,"current_range_meters":26800,"station_id":"ce4bhr12rcd13ifvqhqg","pricing_plan_id":"free"},{"bike_id":"dd789220-e7b5-42c1-b9dc-dc4243148021","system_id":"levelo_inurba_marseille","lat":43.297163,"lon":5.365866,"is_reserved":false,"is_disabled":false,"rental_uris":{"android":"levelo://app?vid=dd789220-e7b5-42c1-b9dc-dc4243148021","ios":"levelo://app?vid=dd789220-e7b5-42c1-b9dc-dc4243148021"},"vehicle_type_id":"4","last_reported":1691165280,"current_range_meters":31200,"station_id":"ce4bgn12rcd13ifvqbt0","pricing_plan_id":"free"},{"bike_id":"0929eb81-d053-4634-849a-5653df7d1019","system_id":"levelo_inurba_marseille","lat":43.32828,"lon":5.36688,"is_reserved":false,"is_disabled":false,"rental_uris":{"android":"levelo://app?vid=0929eb81-d053-4634-849a-5653df7d1019","ios":"levelo://app?vid=0929eb81-d053-4634-849a-5653df7d1019"},"vehicle_type_id":"4","last_reported":1691165280,"current_range_meters":22000,"station_id":"ce4bhs92rcd13ifvqi0g","pricing_plan_id":"free"},{"bike_id":"e92dda2d-d75d-411d-99b3-29f0994a33b8","system_id":"levelo_inurba_marseille","lat":43.328371,"lon":5.366909,"is_reserved":false,"is_disabled":false,"rental_uris":{"android":"levelo://app?vid=e92dda2d-d75d-411d-99b3-29f0994a33b8","ios":"levelo://app?vid=e92dda2d-d75d-411d-99b3-29f0994a33b8"},"vehicle_type_id":"4","last_reported":1691165280,"current_range_meters":12000,"station_id":"ce4bhs92rcd13ifvqi0g","pricing_plan_id":"free"},{"bike_id":"9438db26-d200-4a21-889b-7ead05186414","system_id":"levelo_inurba_marseille","lat":43.296921,"lon":5.376579,"is_reserved":false,"is_disabled":false,"rental_uris":{"android":"levelo://app?vid=9438db26-d200-4a21-889b-7ead05186414","ios":"levelo://app?vid=9438db26-d200-4a21-889b-7ead05186414"},"vehicle_type_id":"4","last_reported":1691165280,"current_range_meters":5600,"station_id":"ce4bgkh2rcd13ifvqbl0","pricing_plan_id":"free"},{"bike_id":"f0b1921d-8fc5-42f6-8214-26455e772ce5","system_id":"levelo_inurba_marseille","lat":43.309589,"lon":5.390258,"is_reserved":false,"is_disabled":false,"rental_uris":{"android":"levelo://app?vid=f0b1921d-8fc5-42f6-8214-26455e772ce5","ios":"levelo://app?vid=f0b1921d-8fc5-42f6-8214-26455e772ce5"},"vehicle_type_id":"4","last_reported":1691165280,"current_range_meters":26000,"station_id":"ce4bgup2rcd13ifvqco0","pricing_plan_id":"free"},{"bike_id":"c070a522-6c17-4333-a9ee-bbef4dc643ed","system_id":"levelo_inurba_marseille","lat":43.317557,"lon":5.390173,"is_reserved":false,"is_disabled":false,"rental_uris":{"android":"levelo://app?vid=c070a522-6c17-4333-a9ee-bbef4dc643ed","ios":"levelo://app?vid=c070a522-6c17-4333-a9ee-bbef4dc643ed"},"vehicle_type_id":"4","last_reported":1691165280,"current_range_meters":31200,"station_id":"ce4bhqp2rcd13ifvqhng","pricing_plan_id":"free"},{"bike_id":"fb5d1b63-b2f2-4d34-b700-b062bf6b4e69","system_id":"levelo_inurba_marseille","lat":43.317557,"lon":5.390173,"is_reserved":false,"is_disabled":false,"rental_uris":{"android":"levelo://app?vid=fb5d1b63-b2f2-4d34-b700-b062bf6b4e69","ios":"levelo://app?vid=fb5d1b63-b2f2-4d34-b700-b062bf6b4e69"},"vehicle_type_id":"4","last_reported":1691165280,"current_range_meters":31200,"station_id":"ce4bhqp2rcd13ifvqhng","pricing_plan_id":"free"},{"bike_id":"90569ba5-8bb9-4d2d-b876-dc35e42f9a0c","system_id":"levelo_inurba_marseille","lat":43.317557,"lon":5.390173,"is_reserved":false,"is_disabled":false,"rental_uris":{"android":"levelo://app?vid=90569ba5-8bb9-4d2d-b876-dc35e42f9a0c","ios":"levelo://app?vid=90569ba5-8bb9-4d2d-b876-dc35e42f9a0c"},"vehicle_type_id":"4","last_reported":1691165280,"current_range_meters":29600,"station_id":"ce4bhqp2rcd13ifvqhng","pricing_plan_id":"free"},{"bike_id":"7c42d25f-0594-4878-9427-296e3ebfad1f","system_id":"levelo_inurba_marseille","lat":43.317557,"lon":5.390173,"is_reserved":false,"is_disabled":false,"rental_uris":{"android":"levelo://app?vid=7c42d25f-0594-4878-9427-296e3ebfad1f","ios":"levelo://app?vid=7c42d25f-0594-4878-9427-296e3ebfad1f"},"vehicle_type_id":"4","last_reported":1691165280,"current_range_meters":26800,"station_id":"ce4bhqp2rcd13ifvqhng","pricing_plan_id":"free"},{"bike_id":"89fc6dd9-3661-4c39-8a5c-4847ce6bebaf","system_id":"levelo_inurba_marseille","lat":43.30438,"lon":5.38882,"is_reserved":false,"is_disabled":false,"rental_uris":{"android":"levelo://app?vid=89fc6dd9-3661-4c39-8a5c-4847ce6bebaf","ios":"levelo://app?vid=89fc6dd9-3661-4c39-8a5c-4847ce6bebaf"},"vehicle_type_id":"4","last_reported":1691165280,"current_range_meters":4400,"station_id":"ce4bgk12rcd13ifvqbi0","pricing_plan_id":"free"},{"bike_id":"d95bcbd3-ec01-4d6d-bdf9-acb636c170d2","system_id":"levelo_inurba_marseille","lat":43.304278,"lon":5.388868,"is_reserved":false,"is_disabled":false,"rental_uris":{"android":"levelo://app?vid=d95bcbd3-ec01-4d6d-bdf9-acb636c170d2","ios":"levelo://app?vid=d95bcbd3-ec01-4d6d-bdf9-acb636c170d2"},"vehicle_type_id":"4","last_reported":1691165280,"current_range_meters":16000,"station_id":"ce4bgk12rcd13ifvqbi0","pricing_plan_id":"free"},{"bike_id":"46670e5c-b698-466f-acff-9d3f394810ab","system_id":"levelo_inurba_marseille","lat":43.3044,"lon":5.38891,"is_reserved":false,"is_disabled":false,"rental_uris":{"android":"levelo://app?vid=46670e5c-b698-466f-acff-9d3f394810ab","ios":"levelo://app?vid=46670e5c-b698-466f-acff-9d3f394810ab"},"vehicle_type_id":"4","last_reported":1691165280,"current_range_meters":20000,"station_id":"ce4bgk12rcd13ifvqbi0","pricing_plan_id":"free"},{"bike_id":"7bd812b0-139c-4b77-84b6-d479562573e8","system_id":"levelo_inurba_marseille","lat":43.30431,"lon":5.38886,"is_reserved":false,"is_disabled":false,"rental_uris":{"android":"levelo://app?vid=7bd812b0-139c-4b77-84b6-d479562573e8","ios":"levelo://app?vid=7bd812b0-139c-4b77-84b6-d479562573e8"},"vehicle_type_id":"4","last_reported":1691165280,"current_range_meters":26400,"station_id":"ce4bgk12rcd13ifvqbi0","pricing_plan_id":"free"},{"bike_id":"0fda17a3-22e0-4868-9c8a-b3c860443038","system_id":"levelo_inurba_marseille","lat":43.29572,"lon":5.37528,"is_reserved":false,"is_disabled":false,"rental_uris":{"android":"levelo://app?vid=0fda17a3-22e0-4868-9c8a-b3c860443038","ios":"levelo://app?vid=0fda17a3-22e0-4868-9c8a-b3c860443038"},"vehicle_type_id":"4","last_reported":1691165280,"current_range_meters":20400,"station_id":"","pricing_plan_id":"free"},{"bike_id":"c09b211a-eb69-483e-817d-00ca0c81ecf0","system_id":"levelo_inurba_marseille","lat":43.304291,"lon":5.389002,"is_reserved":false,"is_disabled":false,"rental_uris":{"android":"levelo://app?vid=c09b211a-eb69-483e-817d-00ca0c81ecf0","ios":"levelo://app?vid=c09b211a-eb69-483e-817d-00ca0c81ecf0"},"vehicle_type_id":"4","last_reported":1691165280,"current_range_meters":16800,"station_id":"ce4bgk12rcd13ifvqbi0","pricing_plan_id":"free"},{"bike_id":"fcc0a13d-1cd8-4e8f-acf9-b9cc6ea917fa","system_id":"levelo_inurba_marseille","lat":43.30432,"lon":5.38903,"is_reserved":false,"is_disabled":false,"rental_uris":{"android":"levelo://app?vid=fcc0a13d-1cd8-4e8f-acf9-b9cc6ea917fa","ios":"levelo://app?vid=fcc0a13d-1cd8-4e8f-acf9-b9cc6ea917fa"},"vehicle_type_id":"4","last_reported":1691165280,"current_range_meters":31200,"station_id":"ce4bgk12rcd13ifvqbi0","pricing_plan_id":"free"},{"bike_id":"db1c6744-ade2-45c4-baa4-ef541d409002","system_id":"levelo_inurba_marseille","lat":43.30432,"lon":5.38903,"is_reserved":false,"is_disabled":false,"rental_uris":{"android":"levelo://app?vid=db1c6744-ade2-45c4-baa4-ef541d409002","ios":"levelo://app?vid=db1c6744-ade2-45c4-baa4-ef541d409002"},"vehicle_type_id":"4","last_reported":1691165280,"current_range_meters":14800,"station_id":"ce4bgk12rcd13ifvqbi0","pricing_plan_id":"free"},{"bike_id":"5b176f91-926f-4a9e-af0f-93072deb02dd","system_id":"levelo_inurba_marseille","lat":43.304456,"lon":5.389303,"is_reserved":false,"is_disabled":false,"rental_uris":{"android":"levelo://app?vid=5b176f91-926f-4a9e-af0f-93072deb02dd","ios":"levelo://app?vid=5b176f91-926f-4a9e-af0f-93072deb02dd"},"vehicle_type_id":"4","last_reported":1691165280,"current_range_meters":13600,"station_id":"ce4bgk12rcd13ifvqbi0","pricing_plan_id":"free"},{"bike_id":"58f5b39a-eb38-49df-97c3-89ee64c399dd","system_id":"levelo_inurba_marseille","lat":43.295279,"lon":5.375048,"is_reserved":false,"is_disabled":false,"rental_uris":{"android":"levelo://app?vid=58f5b39a-eb38-49df-97c3-89ee64c399dd","ios":"levelo://app?vid=58f5b39a-eb38-49df-97c3-89ee64c399dd"},"vehicle_type_id":"4","last_reported":1691165280,"current_range_meters":0,"station_id":"ce4bgkp2rcd13ifvqbmg","pricing_plan_id":"free"},{"bike_id":"b0c7ca86-ee56-4d5b-8ef5-0c1132701ee5","system_id":"levelo_inurba_marseille","lat":43.32365,"lon":5.38872,"is_reserved":false,"is_disabled":false,"rental_uris":{"android":"levelo://app?vid=b0c7ca86-ee56-4d5b-8ef5-0c1132701ee5","ios":"levelo://app?vid=b0c7ca86-ee56-4d5b-8ef5-0c1132701ee5"},"vehicle_type_id":"4","last_reported":1691165280,"current_range_meters":26800,"station_id":"ce4bhqp2rcd13ifvqhog","pricing_plan_id":"free"},{"bike_id":"be3b9c7a-ef73-47f2-8a40-38431e709cbe","system_id":"levelo_inurba_marseille","lat":43.32365,"lon":5.38878,"is_reserved":false,"is_disabled":false,"rental_uris":{"android":"levelo://app?vid=be3b9c7a-ef73-47f2-8a40-38431e709cbe","ios":"levelo://app?vid=be3b9c7a-ef73-47f2-8a40-38431e709cbe"},"vehicle_type_id":"4","last_reported":1691165280,"current_range_meters":28800,"station_id":"ce4bhqp2rcd13ifvqhog","pricing_plan_id":"free"},{"bike_id":"5f1c231d-5549-420b-a974-1b1406435a60","system_id":"levelo_inurba_marseille","lat":43.32367,"lon":5.388836,"is_reserved":false,"is_disabled":false,"rental_uris":{"android":"levelo://app?vid=5f1c231d-5549-420b-a974-1b1406435a60","ios":"levelo://app?vid=5f1c231d-5549-420b-a974-1b1406435a60"},"vehicle_type_id":"4","last_reported":1691165280,"current_range_meters":25200,"station_id":"ce4bhqp2rcd13ifvqhog","pricing_plan_id":"free"},{"bike_id":"3205d0e9-dc07-44ba-8cfe-0b5a882e32d0","system_id":"levelo_inurba_marseille","lat":43.32366,"lon":5.3888,"is_reserved":false,"is_disabled":false,"rental_uris":{"android":"levelo://app?vid=3205d0e9-dc07-44ba-8cfe-0b5a882e32d0","ios":"levelo://app?vid=3205d0e9-dc07-44ba-8cfe-0b5a882e32d0"},"vehicle_type_id":"4","last_reported":1691165280,"current_range_meters":25600,"station_id":"ce4bhqp2rcd13ifvqhog","pricing_plan_id":"free"},{"bike_id":"ee373f4b-d04e-43ef-92b8-3105e264ba5d","system_id":"levelo_inurba_marseille","lat":43.32367,"lon":5.388836,"is_reserved":false,"is_disabled":false,"rental_uris":{"android":"levelo://app?vid=ee373f4b-d04e-43ef-92b8-3105e264ba5d","ios":"levelo://app?vid=ee373f4b-d04e-43ef-92b8-3105e264ba5d"},"vehicle_type_id":"4","last_reported":1691165280,"current_range_meters":26400,"station_id":"ce4bhqp2rcd13ifvqhog","pricing_plan_id":"free"},{"bike_id":"153806a9-c106-4acb-8efe-f81ba29b58d3","system_id":"levelo_inurba_marseille","lat":43.32366,"lon":5.38882,"is_reserved":false,"is_disabled":false,"rental_uris":{"android":"levelo://app?vid=153806a9-c106-4acb-8efe-f81ba29b58d3","ios":"levelo://app?vid=153806a9-c106-4acb-8efe-f81ba29b58d3"},"vehicle_type_id":"4","last_reported":1691165280,"current_range_meters":28000,"station_id":"ce4bhqp2rcd13ifvqhog","pricing_plan_id":"free"},{"bike_id":"3d2edb57-516f-41bc-985e-42a721904578","system_id":"levelo_inurba_marseille","lat":43.32365,"lon":5.38884,"is_reserved":false,"is_disabled":false,"rental_uris":{"android":"levelo://app?vid=3d2edb57-516f-41bc-985e-42a721904578","ios":"levelo://app?vid=3d2edb57-516f-41bc-985e-42a721904578"},"vehicle_type_id":"4","last_reported":1691165280,"current_range_meters":24800,"station_id":"ce4bhqp2rcd13ifvqhog","pricing_plan_id":"free"},{"bike_id":"30c25a80-8532-4667-bc25-2f2365ccbbb3","system_id":"levelo_inurba_marseille","lat":43.323676,"lon":5.388816,"is_reserved":false,"is_disabled":false,"rental_uris":{"android":"levelo://app?vid=30c25a80-8532-4667-bc25-2f2365ccbbb3","ios":"levelo://app?vid=30c25a80-8532-4667-bc25-2f2365ccbbb3"},"vehicle_type_id":"4","last_reported":1691165280,"current_range_meters":10800,"station_id":"","pricing_plan_id":"free"},{"bike_id":"34ef5601-8765-4b80-bdc1-e9818152ffab","system_id":"levelo_inurba_marseille","lat":43.32367,"lon":5.38883,"is_reserved":false,"is_disabled":false,"rental_uris":{"android":"levelo://app?vid=34ef5601-8765-4b80-bdc1-e9818152ffab","ios":"levelo://app?vid=34ef5601-8765-4b80-bdc1-e9818152ffab"},"vehicle_type_id":"4","last_reported":1691165280,"current_range_meters":28800,"station_id":"ce4bhqp2rcd13ifvqhog","pricing_plan_id":"free"},{"bike_id":"ea8035d1-28fe-43e1-9f00-12a102f9e97f","system_id":"levelo_inurba_marseille","lat":43.32363,"lon":5.3889,"is_reserved":false,"is_disabled":false,"rental_uris":{"android":"levelo://app?vid=ea8035d1-28fe-43e1-9f00-12a102f9e97f","ios":"levelo://app?vid=ea8035d1-28fe-43e1-9f00-12a102f9e97f"},"vehicle_type_id":"4","last_reported":1691165280,"current_range_meters":23200,"station_id":"ce4bhqp2rcd13ifvqhog","pricing_plan_id":"free"},{"bike_id":"6be534a9-96c6-4989-b3bb-e9dea76376c4","system_id":"levelo_inurba_marseille","lat":43.3237,"lon":5.38887,"is_reserved":false,"is_disabled":false,"rental_uris":{"android":"levelo://app?vid=6be534a9-96c6-4989-b3bb-e9dea76376c4","ios":"levelo://app?vid=6be534a9-96c6-4989-b3bb-e9dea76376c4"},"vehicle_type_id":"4","last_reported":1691165280,"current_range_meters":10800,"station_id":"ce4bhqp2rcd13ifvqhog","pricing_plan_id":"free"},{"bike_id":"ce290b5d-e0e8-413f-b9ff-1a97815d6b17","system_id":"levelo_inurba_marseille","lat":43.292749,"lon":5.368402,"is_reserved":false,"is_disabled":false,"rental_uris":{"android":"levelo://app?vid=ce290b5d-e0e8-413f-b9ff-1a97815d6b17","ios":"levelo://app?vid=ce290b5d-e0e8-413f-b9ff-1a97815d6b17"},"vehicle_type_id":"4","last_reported":1691165280,"current_range_meters":17200,"station_id":"ce4bhbp2rcd13ifvqesg","pricing_plan_id":"free"},{"bike_id":"c759ecde-16d7-4b9d-a4c6-f33b91424e51","system_id":"levelo_inurba_marseille","lat":43.292772,"lon":5.368438,"is_reserved":false,"is_disabled":false,"rental_uris":{"android":"levelo://app?vid=c759ecde-16d7-4b9d-a4c6-f33b91424e51","ios":"levelo://app?vid=c759ecde-16d7-4b9d-a4c6-f33b91424e51"},"vehicle_type_id":"4","last_reported":1691165280,"current_range_meters":0,"station_id":"","pricing_plan_id":"free"},{"bike_id":"d7cde9d2-197b-4a8b-835e-c32a5bd3795c","system_id":"levelo_inurba_marseille","lat":43.29299,"lon":5.37445,"is_reserved":false,"is_disabled":false,"rental_uris":{"android":"levelo://app?vid=d7cde9d2-197b-4a8b-835e-c32a5bd3795c","ios":"levelo://app?vid=d7cde9d2-197b-4a8b-835e-c32a5bd3795c"},"vehicle_type_id":"4","last_reported":1691165280,"current_range_meters":2000,"station_id":"ce4bgi12rcd13ifvqb70","pricing_plan_id":"free"},{"bike_id":"bd73b7d3-3f97-4e21-aaf9-b8c716a77431","system_id":"levelo_inurba_marseille","lat":43.305994,"lon":5.393687,"is_reserved":false,"is_disabled":false,"rental_uris":{"android":"levelo://app?vid=bd73b7d3-3f97-4e21-aaf9-b8c716a77431","ios":"levelo://app?vid=bd73b7d3-3f97-4e21-aaf9-b8c716a77431"},"vehicle_type_id":"4","last_reported":1691165280,"current_range_meters":10800,"station_id":"ce4bh0p2rcd13ifvqd80","pricing_plan_id":"free"},{"bike_id":"aab123f3-efdd-40ca-9c35-03854964edd6","system_id":"levelo_inurba_marseille","lat":43.302992,"lon":5.392136,"is_reserved":false,"is_disabled":false,"rental_uris":{"android":"levelo://app?vid=aab123f3-efdd-40ca-9c35-03854964edd6","ios":"levelo://app?vid=aab123f3-efdd-40ca-9c35-03854964edd6"},"vehicle_type_id":"4","last_reported":1691165280,"current_range_meters":29200,"station_id":"ce4bgkh2rcd13ifvqbk0","pricing_plan_id":"free"},{"bike_id":"6c0ed678-1c0c-4748-8240-1b3a97e5ad20","system_id":"levelo_inurba_marseille","lat":43.2936,"lon":5.37835,"is_reserved":false,"is_disabled":false,"rental_uris":{"android":"levelo://app?vid=6c0ed678-1c0c-4748-8240-1b3a97e5ad20","ios":"levelo://app?vid=6c0ed678-1c0c-4748-8240-1b3a97e5ad20"},"vehicle_type_id":"4","last_reported":1691165280,"current_range_meters":14400,"station_id":"ce4bgjh2rcd13ifvqbf0","pricing_plan_id":"free"},{"bike_id":"a8b0cd78-80ae-4732-9a7a-cab1ad77ff46","system_id":"levelo_inurba_marseille","lat":43.292311,"lon":5.360731,"is_reserved":false,"is_disabled":false,"rental_uris":{"android":"levelo://app?vid=a8b0cd78-80ae-4732-9a7a-cab1ad77ff46","ios":"levelo://app?vid=a8b0cd78-80ae-4732-9a7a-cab1ad77ff46"},"vehicle_type_id":"4","last_reported":1691165280,"current_range_meters":400,"station_id":"ce4bhbh2rcd13ifvqeqg","pricing_plan_id":"free"},{"bike_id":"a60e544b-d851-492c-bf91-a13db69fa156","system_id":"levelo_inurba_marseille","lat":43.292663,"lon":5.376394,"is_reserved":false,"is_disabled":false,"rental_uris":{"android":"levelo://app?vid=a60e544b-d851-492c-bf91-a13db69fa156","ios":"levelo://app?vid=a60e544b-d851-492c-bf91-a13db69fa156"},"vehicle_type_id":"4","last_reported":1691165280,"current_range_meters":17200,"station_id":"ce4bgi12rcd13ifvqb80","pricing_plan_id":"free"},{"bike_id":"2a738f81-7c95-49d8-acc6-ca5b8bec28ea","system_id":"levelo_inurba_marseille","lat":43.29198,"lon":5.35793,"is_reserved":false,"is_disabled":false,"rental_uris":{"android":"levelo://app?vid=2a738f81-7c95-49d8-acc6-ca5b8bec28ea","ios":"levelo://app?vid=2a738f81-7c95-49d8-acc6-ca5b8bec28ea"},"vehicle_type_id":"4","last_reported":1691165280,"current_range_meters":23200,"station_id":"ce4bhb12rcd13ifvqel0","pricing_plan_id":"free"},{"bike_id":"4fdfb555-10ff-423c-a20c-99a2d4e8f4c7","system_id":"levelo_inurba_marseille","lat":43.29191,"lon":5.358,"is_reserved":false,"is_disabled":false,"rental_uris":{"android":"levelo://app?vid=4fdfb555-10ff-423c-a20c-99a2d4e8f4c7","ios":"levelo://app?vid=4fdfb555-10ff-423c-a20c-99a2d4e8f4c7"},"vehicle_type_id":"4","last_reported":1691165280,"current_range_meters":1200,"station_id":"ce4bhb12rcd13ifvqel0","pricing_plan_id":"free"},{"bike_id":"e7163a7c-6746-47d9-b81e-2792299fa751","system_id":"levelo_inurba_marseille","lat":43.31329,"lon":5.39694,"is_reserved":false,"is_disabled":false,"rental_uris":{"android":"levelo://app?vid=e7163a7c-6746-47d9-b81e-2792299fa751","ios":"levelo://app?vid=e7163a7c-6746-47d9-b81e-2792299fa751"},"vehicle_type_id":"4","last_reported":1691165280,"current_range_meters":22800,"station_id":"ce4bgvp2rcd13ifvqcu0","pricing_plan_id":"free"},{"bike_id":"8b81804e-899d-40b5-87b8-562698704221","system_id":"levelo_inurba_marseille","lat":43.301117,"lon":5.398795,"is_reserved":false,"is_disabled":false,"rental_uris":{"android":"levelo://app?vid=8b81804e-899d-40b5-87b8-562698704221","ios":"levelo://app?vid=8b81804e-899d-40b5-87b8-562698704221"},"vehicle_type_id":"4","last_reported":1691165280,"current_range_meters":24000,"station_id":"ce4bh0h2rcd13ifvqd40","pricing_plan_id":"free"},{"bike_id":"981012dc-80b1-4559-9deb-254ab307b53b","system_id":"levelo_inurba_marseille","lat":43.309038,"lon":5.396546,"is_reserved":false,"is_disabled":false,"rental_uris":{"android":"levelo://app?vid=981012dc-80b1-4559-9deb-254ab307b53b","ios":"levelo://app?vid=981012dc-80b1-4559-9deb-254ab307b53b"},"vehicle_type_id":"4","last_reported":1691165280,"current_range_meters":21200,"station_id":"ce4bh012rcd13ifvqcv0","pricing_plan_id":"free"},{"bike_id":"7b797696-edb1-4c3b-90b0-b872c5993c11","system_id":"levelo_inurba_marseille","lat":43.31331,"lon":5.397,"is_reserved":false,"is_disabled":false,"rental_uris":{"android":"levelo://app?vid=7b797696-edb1-4c3b-90b0-b872c5993c11","ios":"levelo://app?vid=7b797696-edb1-4c3b-90b0-b872c5993c11"},"vehicle_type_id":"4","last_reported":1691165280,"current_range_meters":4000,"station_id":"ce4bgvp2rcd13ifvqcu0","pricing_plan_id":"free"},{"bike_id":"65e397ed-53cf-4e00-8d2a-c38271c9ec8e","system_id":"levelo_inurba_marseille","lat":43.29529,"lon":5.385581,"is_reserved":false,"is_disabled":false,"rental_uris":{"android":"levelo://app?vid=65e397ed-53cf-4e00-8d2a-c38271c9ec8e","ios":"levelo://app?vid=65e397ed-53cf-4e00-8d2a-c38271c9ec8e"},"vehicle_type_id":"4","last_reported":1691165280,"current_range_meters":22000,"station_id":"ce4bgih2rcd13ifvqba0","pricing_plan_id":"free"},{"bike_id":"b9fe3532-0dbf-4e6a-ab55-17863122a6bd","system_id":"levelo_inurba_marseille","lat":43.29766,"lon":5.39052,"is_reserved":false,"is_disabled":false,"rental_uris":{"android":"levelo://app?vid=b9fe3532-0dbf-4e6a-ab55-17863122a6bd","ios":"levelo://app?vid=b9fe3532-0dbf-4e6a-ab55-17863122a6bd"},"vehicle_type_id":"4","last_reported":1691165280,"current_range_meters":16000,"station_id":"chh1huq6cuj3fo74tm60","pricing_plan_id":"free"},{"bike_id":"2f9283a5-95f3-4386-8079-63752cfc67d8","system_id":"levelo_inurba_marseille","lat":43.290631,"lon":5.359244,"is_reserved":false,"is_disabled":false,"rental_uris":{"android":"levelo://app?vid=2f9283a5-95f3-4386-8079-63752cfc67d8","ios":"levelo://app?vid=2f9283a5-95f3-4386-8079-63752cfc67d8"},"vehicle_type_id":"4","last_reported":1691165280,"current_range_meters":9200,"station_id":"ce4bha92rcd13ifvqeg0","pricing_plan_id":"free"},{"bike_id":"620aa0f4-9a9b-4158-9e38-e59f51c540cd","system_id":"levelo_inurba_marseille","lat":43.290624,"lon":5.359245,"is_reserved":false,"is_disabled":false,"rental_uris":{"android":"levelo://app?vid=620aa0f4-9a9b-4158-9e38-e59f51c540cd","ios":"levelo://app?vid=620aa0f4-9a9b-4158-9e38-e59f51c540cd"},"vehicle_type_id":"4","last_reported":1691165280,"current_range_meters":27600,"station_id":"ce4bha92rcd13ifvqeg0","pricing_plan_id":"free"},{"bike_id":"36d260ef-e598-40f8-82d3-d08742794408","system_id":"levelo_inurba_marseille","lat":43.289184,"lon":5.366408,"is_reserved":false,"is_disabled":false,"rental_uris":{"android":"levelo://app?vid=36d260ef-e598-40f8-82d3-d08742794408","ios":"levelo://app?vid=36d260ef-e598-40f8-82d3-d08742794408"},"vehicle_type_id":"4","last_reported":1691165280,"current_range_meters":2800,"station_id":"ce4bhap2rcd13ifvqek0","pricing_plan_id":"free"},{"bike_id":"60c2d0a2-4846-4193-9d21-6f7a5607d57a","system_id":"levelo_inurba_marseille","lat":43.289468,"lon":5.363719,"is_reserved":false,"is_disabled":false,"rental_uris":{"android":"levelo://app?vid=60c2d0a2-4846-4193-9d21-6f7a5607d57a","ios":"levelo://app?vid=60c2d0a2-4846-4193-9d21-6f7a5607d57a"},"vehicle_type_id":"4","last_reported":1691165280,"current_range_meters":0,"station_id":"ce4bhc92rcd13ifvqetg","pricing_plan_id":"free"},{"bike_id":"c2d15b5c-ecaa-44e9-ac37-aa15899c1f1c","system_id":"levelo_inurba_marseille","lat":43.289184,"lon":5.366408,"is_reserved":false,"is_disabled":false,"rental_uris":{"android":"levelo://app?vid=c2d15b5c-ecaa-44e9-ac37-aa15899c1f1c","ios":"levelo://app?vid=c2d15b5c-ecaa-44e9-ac37-aa15899c1f1c"},"vehicle_type_id":"4","last_reported":1691165280,"current_range_meters":0,"station_id":"ce4bhap2rcd13ifvqek0","pricing_plan_id":"free"},{"bike_id":"abd1ea2b-854a-48b6-92fd-3cf437bb4ca1","system_id":"levelo_inurba_marseille","lat":43.304274,"lon":5.397513,"is_reserved":false,"is_disabled":false,"rental_uris":{"android":"levelo://app?vid=abd1ea2b-854a-48b6-92fd-3cf437bb4ca1","ios":"levelo://app?vid=abd1ea2b-854a-48b6-92fd-3cf437bb4ca1"},"vehicle_type_id":"4","last_reported":1691165280,"current_range_meters":8400,"station_id":"ce4bh092rcd13ifvqd20","pricing_plan_id":"free"},{"bike_id":"6cee07b8-b63c-4b52-a71c-569b39c66b01","system_id":"levelo_inurba_marseille","lat":43.292644,"lon":5.384257,"is_reserved":false,"is_disabled":false,"rental_uris":{"android":"levelo://app?vid=6cee07b8-b63c-4b52-a71c-569b39c66b01","ios":"levelo://app?vid=6cee07b8-b63c-4b52-a71c-569b39c66b01"},"vehicle_type_id":"4","last_reported":1691165280,"current_range_meters":18000,"station_id":"ce4bh692rcd13ifvqea0","pricing_plan_id":"free"},{"bike_id":"b10c07f4-0850-410a-83b5-c9f3bc2fed03","system_id":"levelo_inurba_marseille","lat":43.304274,"lon":5.397513,"is_reserved":false,"is_disabled":false,"rental_uris":{"android":"levelo://app?vid=b10c07f4-0850-410a-83b5-c9f3bc2fed03","ios":"levelo://app?vid=b10c07f4-0850-410a-83b5-c9f3bc2fed03"},"vehicle_type_id":"4","last_reported":1691165280,"current_range_meters":8400,"station_id":"ce4bh092rcd13ifvqd20","pricing_plan_id":"free"},{"bike_id":"a805bd24-b6e5-4fd6-bd2b-1a9c05edb2cd","system_id":"levelo_inurba_marseille","lat":43.292642,"lon":5.384254,"is_reserved":false,"is_disabled":false,"rental_uris":{"android":"levelo://app?vid=a805bd24-b6e5-4fd6-bd2b-1a9c05edb2cd","ios":"levelo://app?vid=a805bd24-b6e5-4fd6-bd2b-1a9c05edb2cd"},"vehicle_type_id":"4","last_reported":1691165280,"current_range_meters":31200,"station_id":"ce4bh692rcd13ifvqea0","pricing_plan_id":"free"},{"bike_id":"a39c4d59-3a81-4f90-9212-b0bc44e7c731","system_id":"levelo_inurba_marseille","lat":43.29011,"lon":5.35617,"is_reserved":false,"is_disabled":false,"rental_uris":{"android":"levelo://app?vid=a39c4d59-3a81-4f90-9212-b0bc44e7c731","ios":"levelo://app?vid=a39c4d59-3a81-4f90-9212-b0bc44e7c731"},"vehicle_type_id":"4","last_reported":1691165280,"current_range_meters":4400,"station_id":"ce4bhb92rcd13ifvqen0","pricing_plan_id":"free"},{"bike_id":"16bb14ed-7d88-467c-ab3f-857c5a303700","system_id":"levelo_inurba_marseille","lat":43.33042,"lon":5.38916,"is_reserved":false,"is_disabled":false,"rental_uris":{"android":"levelo://app?vid=16bb14ed-7d88-467c-ab3f-857c5a303700","ios":"levelo://app?vid=16bb14ed-7d88-467c-ab3f-857c5a303700"},"vehicle_type_id":"4","last_reported":1691165280,"current_range_meters":30800,"station_id":"ce4bhr92rcd13ifvqhrg","pricing_plan_id":"free"},{"bike_id":"f67edc25-bcc7-41fb-8431-1add679b0933","system_id":"levelo_inurba_marseille","lat":43.33044,"lon":5.38915,"is_reserved":false,"is_disabled":false,"rental_uris":{"android":"levelo://app?vid=f67edc25-bcc7-41fb-8431-1add679b0933","ios":"levelo://app?vid=f67edc25-bcc7-41fb-8431-1add679b0933"},"vehicle_type_id":"4","last_reported":1691165280,"current_range_meters":20000,"station_id":"ce4bhr92rcd13ifvqhrg","pricing_plan_id":"free"},{"bike_id":"34fc0bae-b089-42d1-99d0-10d5b39f2b41","system_id":"levelo_inurba_marseille","lat":43.33042,"lon":5.38919,"is_reserved":false,"is_disabled":false,"rental_uris":{"android":"levelo://app?vid=34fc0bae-b089-42d1-99d0-10d5b39f2b41","ios":"levelo://app?vid=34fc0bae-b089-42d1-99d0-10d5b39f2b41"},"vehicle_type_id":"4","last_reported":1691165280,"current_range_meters":26000,"station_id":"ce4bhr92rcd13ifvqhrg","pricing_plan_id":"free"},{"bike_id":"e6c6e4e8-edee-449e-8936-76c8ef3752c4","system_id":"levelo_inurba_marseille","lat":43.33042,"lon":5.38919,"is_reserved":false,"is_disabled":false,"rental_uris":{"android":"levelo://app?vid=e6c6e4e8-edee-449e-8936-76c8ef3752c4","ios":"levelo://app?vid=e6c6e4e8-edee-449e-8936-76c8ef3752c4"},"vehicle_type_id":"4","last_reported":1691165280,"current_range_meters":23200,"station_id":"ce4bhr92rcd13ifvqhrg","pricing_plan_id":"free"},{"bike_id":"98f910d2-52f4-4465-977e-10142d8cca43","system_id":"levelo_inurba_marseille","lat":43.33042,"lon":5.38919,"is_reserved":false,"is_disabled":false,"rental_uris":{"android":"levelo://app?vid=98f910d2-52f4-4465-977e-10142d8cca43","ios":"levelo://app?vid=98f910d2-52f4-4465-977e-10142d8cca43"},"vehicle_type_id":"4","last_reported":1691165280,"current_range_meters":20800,"station_id":"ce4bhr92rcd13ifvqhrg","pricing_plan_id":"free"},{"bike_id":"2f2d42a2-8de0-405f-9429-d3eae654394c","system_id":"levelo_inurba_marseille","lat":43.33044,"lon":5.38916,"is_reserved":false,"is_disabled":false,"rental_uris":{"android":"levelo://app?vid=2f2d42a2-8de0-405f-9429-d3eae654394c","ios":"levelo://app?vid=2f2d42a2-8de0-405f-9429-d3eae654394c"},"vehicle_type_id":"4","last_reported":1691165280,"current_range_meters":21200,"station_id":"ce4bhr92rcd13ifvqhrg","pricing_plan_id":"free"},{"bike_id":"976f718a-bfdb-4480-a757-e5b9a5d1a5d6","system_id":"levelo_inurba_marseille","lat":43.33046,"lon":5.38913,"is_reserved":false,"is_disabled":false,"rental_uris":{"android":"levelo://app?vid=976f718a-bfdb-4480-a757-e5b9a5d1a5d6","ios":"levelo://app?vid=976f718a-bfdb-4480-a757-e5b9a5d1a5d6"},"vehicle_type_id":"4","last_reported":1691165280,"current_range_meters":29200,"station_id":"ce4bhr92rcd13ifvqhrg","pricing_plan_id":"free"},{"bike_id":"cedbc9c4-3cd8-4974-be60-104359550a71","system_id":"levelo_inurba_marseille","lat":43.33048,"lon":5.38911,"is_reserved":false,"is_disabled":false,"rental_uris":{"android":"levelo://app?vid=cedbc9c4-3cd8-4974-be60-104359550a71","ios":"levelo://app?vid=cedbc9c4-3cd8-4974-be60-104359550a71"},"vehicle_type_id":"4","last_reported":1691165280,"current_range_meters":12000,"station_id":"ce4bhr92rcd13ifvqhrg","pricing_plan_id":"free"},{"bike_id":"20cf3f6d-acf4-4653-bf24-baa04253f77a","system_id":"levelo_inurba_marseille","lat":43.33046,"lon":5.38915,"is_reserved":false,"is_disabled":false,"rental_uris":{"android":"levelo://app?vid=20cf3f6d-acf4-4653-bf24-baa04253f77a","ios":"levelo://app?vid=20cf3f6d-acf4-4653-bf24-baa04253f77a"},"vehicle_type_id":"4","last_reported":1691165280,"current_range_meters":18400,"station_id":"ce4bhr92rcd13ifvqhrg","pricing_plan_id":"free"},{"bike_id":"00b2dcdc-2882-40a1-9132-89c3ec15cf18","system_id":"levelo_inurba_marseille","lat":43.33045,"lon":5.38918,"is_reserved":false,"is_disabled":false,"rental_uris":{"android":"levelo://app?vid=00b2dcdc-2882-40a1-9132-89c3ec15cf18","ios":"levelo://app?vid=00b2dcdc-2882-40a1-9132-89c3ec15cf18"},"vehicle_type_id":"4","last_reported":1691165280,"current_range_meters":18800,"station_id":"ce4bhr92rcd13ifvqhrg","pricing_plan_id":"free"},{"bike_id":"87a91d50-b0ca-4c64-94ae-7cf78dbb050f","system_id":"levelo_inurba_marseille","lat":43.33041,"lon":5.38924,"is_reserved":false,"is_disabled":false,"rental_uris":{"android":"levelo://app?vid=87a91d50-b0ca-4c64-94ae-7cf78dbb050f","ios":"levelo://app?vid=87a91d50-b0ca-4c64-94ae-7cf78dbb050f"},"vehicle_type_id":"4","last_reported":1691165280,"current_range_meters":17200,"station_id":"ce4bhr92rcd13ifvqhrg","pricing_plan_id":"free"},{"bike_id":"58d9daa4-9c4c-4dbc-a91c-3eee752552f5","system_id":"levelo_inurba_marseille","lat":43.30467,"lon":5.39801,"is_reserved":false,"is_disabled":false,"rental_uris":{"android":"levelo://app?vid=58d9daa4-9c4c-4dbc-a91c-3eee752552f5","ios":"levelo://app?vid=58d9daa4-9c4c-4dbc-a91c-3eee752552f5"},"vehicle_type_id":"4","last_reported":1691165280,"current_range_meters":22000,"station_id":"","pricing_plan_id":"free"},{"bike_id":"9ce62819-7d94-47c9-aff2-f56e39f0ba59","system_id":"levelo_inurba_marseille","lat":43.33044,"lon":5.38925,"is_reserved":false,"is_disabled":false,"rental_uris":{"android":"levelo://app?vid=9ce62819-7d94-47c9-aff2-f56e39f0ba59","ios":"levelo://app?vid=9ce62819-7d94-47c9-aff2-f56e39f0ba59"},"vehicle_type_id":"4","last_reported":1691165280,"current_range_meters":30400,"station_id":"ce4bhr92rcd13ifvqhrg","pricing_plan_id":"free"},{"bike_id":"38c1adea-6867-4940-9699-a628b1958570","system_id":"levelo_inurba_marseille","lat":43.33042,"lon":5.38933,"is_reserved":false,"is_disabled":false,"rental_uris":{"android":"levelo://app?vid=38c1adea-6867-4940-9699-a628b1958570","ios":"levelo://app?vid=38c1adea-6867-4940-9699-a628b1958570"},"vehicle_type_id":"4","last_reported":1691165280,"current_range_meters":31200,"station_id":"ce4bhr92rcd13ifvqhrg","pricing_plan_id":"free"},{"bike_id":"05bf2cc0-c80b-4d3b-9303-5cea93148e89","system_id":"levelo_inurba_marseille","lat":43.290995,"lon":5.381361,"is_reserved":false,"is_disabled":false,"rental_uris":{"android":"levelo://app?vid=05bf2cc0-c80b-4d3b-9303-5cea93148e89","ios":"levelo://app?vid=05bf2cc0-c80b-4d3b-9303-5cea93148e89"},"vehicle_type_id":"4","last_reported":1691165280,"current_range_meters":31200,"station_id":"ce4bh512rcd13ifvqe2g","pricing_plan_id":"free"},{"bike_id":"0c06b9e3-e5eb-45c0-81e8-884c4ecafa95","system_id":"levelo_inurba_marseille","lat":43.297815,"lon":5.393548,"is_reserved":false,"is_disabled":false,"rental_uris":{"android":"levelo://app?vid=0c06b9e3-e5eb-45c0-81e8-884c4ecafa95","ios":"levelo://app?vid=0c06b9e3-e5eb-45c0-81e8-884c4ecafa95"},"vehicle_type_id":"4","last_reported":1691165280,"current_range_meters":1600,"station_id":"chh1huq6cuj3fo74tm60","pricing_plan_id":"free"},{"bike_id":"08feb258-103f-4ff8-941a-a17014396f89","system_id":"levelo_inurba_marseille","lat":43.295169,"lon":5.390426,"is_reserved":false,"is_disabled":false,"rental_uris":{"android":"levelo://app?vid=08feb258-103f-4ff8-941a-a17014396f89","ios":"levelo://app?vid=08feb258-103f-4ff8-941a-a17014396f89"},"vehicle_type_id":"4","last_reported":1691165280,"current_range_meters":1200,"station_id":"ce4bh3p2rcd13ifvqdp0","pricing_plan_id":"free"},{"bike_id":"79cf223b-c286-4dba-924e-fd19bf41a603","system_id":"levelo_inurba_marseille","lat":43.295169,"lon":5.390426,"is_reserved":false,"is_disabled":false,"rental_uris":{"android":"levelo://app?vid=79cf223b-c286-4dba-924e-fd19bf41a603","ios":"levelo://app?vid=79cf223b-c286-4dba-924e-fd19bf41a603"},"vehicle_type_id":"4","last_reported":1691165280,"current_range_meters":6400,"station_id":"ce4bh3p2rcd13ifvqdp0","pricing_plan_id":"free"},{"bike_id":"b4362514-7649-460c-b655-e56d89d0a9c9","system_id":"levelo_inurba_marseille","lat":43.28856,"lon":5.358371,"is_reserved":false,"is_disabled":false,"rental_uris":{"android":"levelo://app?vid=b4362514-7649-460c-b655-e56d89d0a9c9","ios":"levelo://app?vid=b4362514-7649-460c-b655-e56d89d0a9c9"},"vehicle_type_id":"4","last_reported":1691165280,"current_range_meters":18400,"station_id":"ce4bhb12rcd13ifvqem0","pricing_plan_id":"free"},{"bike_id":"375bb14a-7e94-4a22-bddf-7a1887477daa","system_id":"levelo_inurba_marseille","lat":43.30643,"lon":5.40092,"is_reserved":false,"is_disabled":false,"rental_uris":{"android":"levelo://app?vid=375bb14a-7e94-4a22-bddf-7a1887477daa","ios":"levelo://app?vid=375bb14a-7e94-4a22-bddf-7a1887477daa"},"vehicle_type_id":"4","last_reported":1691165280,"current_range_meters":0,"station_id":"ce4bh112rcd13ifvqda0","pricing_plan_id":"free"},{"bike_id":"a856a9bf-2914-4d99-b110-0ae70d1373ec","system_id":"levelo_inurba_marseille","lat":43.33763,"lon":5.37486,"is_reserved":false,"is_disabled":false,"rental_uris":{"android":"levelo://app?vid=a856a9bf-2914-4d99-b110-0ae70d1373ec","ios":"levelo://app?vid=a856a9bf-2914-4d99-b110-0ae70d1373ec"},"vehicle_type_id":"4","last_reported":1691165280,"current_range_meters":22800,"station_id":"","pricing_plan_id":"free"},{"bike_id":"00c3c63c-25e5-4184-8bd2-5aaf495eef18","system_id":"levelo_inurba_marseille","lat":43.30645,"lon":5.401,"is_reserved":false,"is_disabled":false,"rental_uris":{"android":"levelo://app?vid=00c3c63c-25e5-4184-8bd2-5aaf495eef18","ios":"levelo://app?vid=00c3c63c-25e5-4184-8bd2-5aaf495eef18"},"vehicle_type_id":"4","last_reported":1691165280,"current_range_meters":5600,"station_id":"ce4bh112rcd13ifvqda0","pricing_plan_id":"free"},{"bike_id":"75199276-b705-4ad7-b6a9-49aeaa84628a","system_id":"levelo_inurba_marseille","lat":43.286591,"lon":5.363346,"is_reserved":false,"is_disabled":false,"rental_uris":{"android":"levelo://app?vid=75199276-b705-4ad7-b6a9-49aeaa84628a","ios":"levelo://app?vid=75199276-b705-4ad7-b6a9-49aeaa84628a"},"vehicle_type_id":"4","last_reported":1691165280,"current_range_meters":31200,"station_id":"ce4bhah2rcd13ifvqej0","pricing_plan_id":"free"},{"bike_id":"47eed00e-b336-447b-ba94-2258fb12185b","system_id":"levelo_inurba_marseille","lat":43.298681,"lon":5.397225,"is_reserved":false,"is_disabled":false,"rental_uris":{"android":"levelo://app?vid=47eed00e-b336-447b-ba94-2258fb12185b","ios":"levelo://app?vid=47eed00e-b336-447b-ba94-2258fb12185b"},"vehicle_type_id":"4","last_reported":1691165280,"current_range_meters":25200,"station_id":"ce4bh0h2rcd13ifvqd50","pricing_plan_id":"free"},{"bike_id":"0574f94f-a3b3-43aa-b309-067bc1637e3f","system_id":"levelo_inurba_marseille","lat":43.290336,"lon":5.386425,"is_reserved":false,"is_disabled":false,"rental_uris":{"android":"levelo://app?vid=0574f94f-a3b3-43aa-b309-067bc1637e3f","ios":"levelo://app?vid=0574f94f-a3b3-43aa-b309-067bc1637e3f"},"vehicle_type_id":"4","last_reported":1691165280,"current_range_meters":30400,"station_id":"ce4bh4p2rcd13ifvqe0g","pricing_plan_id":"free"},{"bike_id":"646d6e53-837a-41d5-bc29-2011748b28dd","system_id":"levelo_inurba_marseille","lat":43.295196,"lon":5.39397,"is_reserved":false,"is_disabled":false,"rental_uris":{"android":"levelo://app?vid=646d6e53-837a-41d5-bc29-2011748b28dd","ios":"levelo://app?vid=646d6e53-837a-41d5-bc29-2011748b28dd"},"vehicle_type_id":"4","last_reported":1691165280,"current_range_meters":29600,"station_id":"ce4bh292rcd13ifvqdf0","pricing_plan_id":"free"},{"bike_id":"bebefdf3-34da-4b7b-8db7-044bc9b2c443","system_id":"levelo_inurba_marseille","lat":43.295194,"lon":5.39397,"is_reserved":false,"is_disabled":false,"rental_uris":{"android":"levelo://app?vid=bebefdf3-34da-4b7b-8db7-044bc9b2c443","ios":"levelo://app?vid=bebefdf3-34da-4b7b-8db7-044bc9b2c443"},"vehicle_type_id":"4","last_reported":1691165280,"current_range_meters":12800,"station_id":"ce4bh292rcd13ifvqdf0","pricing_plan_id":"free"},{"bike_id":"7b9e2d57-7c2f-4652-8ec0-ee4d147afe24","system_id":"levelo_inurba_marseille","lat":43.302548,"lon":5.400568,"is_reserved":false,"is_disabled":false,"rental_uris":{"android":"levelo://app?vid=7b9e2d57-7c2f-4652-8ec0-ee4d147afe24","ios":"levelo://app?vid=7b9e2d57-7c2f-4652-8ec0-ee4d147afe24"},"vehicle_type_id":"4","last_reported":1691165280,"current_range_meters":14400,"station_id":"","pricing_plan_id":"free"},{"bike_id":"a66ec35d-dd3b-43fa-b686-2c5253743950","system_id":"levelo_inurba_marseille","lat":43.290336,"lon":5.386425,"is_reserved":false,"is_disabled":false,"rental_uris":{"android":"levelo://app?vid=a66ec35d-dd3b-43fa-b686-2c5253743950","ios":"levelo://app?vid=a66ec35d-dd3b-43fa-b686-2c5253743950"},"vehicle_type_id":"4","last_reported":1691165280,"current_range_meters":0,"station_id":"ce4bh4p2rcd13ifvqe0g","pricing_plan_id":"free"},{"bike_id":"de89eb7d-30b2-4af5-add7-c044c50c9fe8","system_id":"levelo_inurba_marseille","lat":43.302759,"lon":5.400793,"is_reserved":false,"is_disabled":false,"rental_uris":{"android":"levelo://app?vid=de89eb7d-30b2-4af5-add7-c044c50c9fe8","ios":"levelo://app?vid=de89eb7d-30b2-4af5-add7-c044c50c9fe8"},"vehicle_type_id":"4","last_reported":1691165280,"current_range_meters":28800,"station_id":"ce4bgvh2rcd13ifvqcs0","pricing_plan_id":"free"},{"bike_id":"59940152-8d78-40bb-b041-43fdc4cf7630","system_id":"levelo_inurba_marseille","lat":43.302759,"lon":5.400793,"is_reserved":false,"is_disabled":false,"rental_uris":{"android":"levelo://app?vid=59940152-8d78-40bb-b041-43fdc4cf7630","ios":"levelo://app?vid=59940152-8d78-40bb-b041-43fdc4cf7630"},"vehicle_type_id":"4","last_reported":1691165280,"current_range_meters":17200,"station_id":"ce4bgvh2rcd13ifvqcs0","pricing_plan_id":"free"},{"bike_id":"1f03f90c-4450-4979-a43b-ace0ee7160f6","system_id":"levelo_inurba_marseille","lat":43.30256,"lon":5.40079,"is_reserved":false,"is_disabled":false,"rental_uris":{"android":"levelo://app?vid=1f03f90c-4450-4979-a43b-ace0ee7160f6","ios":"levelo://app?vid=1f03f90c-4450-4979-a43b-ace0ee7160f6"},"vehicle_type_id":"4","last_reported":1691165280,"current_range_meters":10000,"station_id":"ce4bgvh2rcd13ifvqcs0","pricing_plan_id":"free"},{"bike_id":"6b7c5fe9-b3fb-4058-9b1c-ee4059ab0f77","system_id":"levelo_inurba_marseille","lat":43.286149,"lon":5.370494,"is_reserved":false,"is_disabled":false,"rental_uris":{"android":"levelo://app?vid=6b7c5fe9-b3fb-4058-9b1c-ee4059ab0f77","ios":"levelo://app?vid=6b7c5fe9-b3fb-4058-9b1c-ee4059ab0f77"},"vehicle_type_id":"4","last_reported":1691165280,"current_range_meters":25600,"station_id":"","pricing_plan_id":"free"},{"bike_id":"0eec8b1c-8c3d-43c2-ade4-dab3902c07e9","system_id":"levelo_inurba_marseille","lat":43.286039,"lon":5.370679,"is_reserved":false,"is_disabled":false,"rental_uris":{"android":"levelo://app?vid=0eec8b1c-8c3d-43c2-ade4-dab3902c07e9","ios":"levelo://app?vid=0eec8b1c-8c3d-43c2-ade4-dab3902c07e9"},"vehicle_type_id":"4","last_reported":1691165280,"current_range_meters":25600,"station_id":"ce4bht12rcd13ifvqi60","pricing_plan_id":"free"},{"bike_id":"2a8a8f72-bd42-4be9-a28f-064fdf767de3","system_id":"levelo_inurba_marseille","lat":43.28813,"lon":5.35253,"is_reserved":false,"is_disabled":false,"rental_uris":{"android":"levelo://app?vid=2a8a8f72-bd42-4be9-a28f-064fdf767de3","ios":"levelo://app?vid=2a8a8f72-bd42-4be9-a28f-064fdf767de3"},"vehicle_type_id":"4","last_reported":1691165280,"current_range_meters":26000,"station_id":"","pricing_plan_id":"free"},{"bike_id":"1ff56fe0-1501-4c41-9474-66cb2f3126bd","system_id":"levelo_inurba_marseille","lat":43.28612,"lon":5.37061,"is_reserved":false,"is_disabled":false,"rental_uris":{"android":"levelo://app?vid=1ff56fe0-1501-4c41-9474-66cb2f3126bd","ios":"levelo://app?vid=1ff56fe0-1501-4c41-9474-66cb2f3126bd"},"vehicle_type_id":"4","last_reported":1691165280,"current_range_meters":31200,"station_id":"","pricing_plan_id":"free"},{"bike_id":"2505ec1e-c8d9-40d9-9a56-b5650062f6ff","system_id":"levelo_inurba_marseille","lat":43.286039,"lon":5.370679,"is_reserved":false,"is_disabled":false,"rental_uris":{"android":"levelo://app?vid=2505ec1e-c8d9-40d9-9a56-b5650062f6ff","ios":"levelo://app?vid=2505ec1e-c8d9-40d9-9a56-b5650062f6ff"},"vehicle_type_id":"4","last_reported":1691165280,"current_range_meters":12400,"station_id":"ce4bht12rcd13ifvqi60","pricing_plan_id":"free"},{"bike_id":"e37c329b-8678-480c-8466-a93cd2c2dfd2","system_id":"levelo_inurba_marseille","lat":43.31649,"lon":5.40433,"is_reserved":false,"is_disabled":false,"rental_uris":{"android":"levelo://app?vid=e37c329b-8678-480c-8466-a93cd2c2dfd2","ios":"levelo://app?vid=e37c329b-8678-480c-8466-a93cd2c2dfd2"},"vehicle_type_id":"4","last_reported":1691165280,"current_range_meters":13200,"station_id":"ce4bh012rcd13ifvqd00","pricing_plan_id":"free"},{"bike_id":"c8428019-34ed-4fa0-ab6b-d0660ab7d830","system_id":"levelo_inurba_marseille","lat":43.31648,"lon":5.40438,"is_reserved":false,"is_disabled":false,"rental_uris":{"android":"levelo://app?vid=c8428019-34ed-4fa0-ab6b-d0660ab7d830","ios":"levelo://app?vid=c8428019-34ed-4fa0-ab6b-d0660ab7d830"},"vehicle_type_id":"4","last_reported":1691165280,"current_range_meters":30400,"station_id":"ce4bh012rcd13ifvqd00","pricing_plan_id":"free"},{"bike_id":"35914d27-ef14-4582-a098-3d97a4bb8e7a","system_id":"levelo_inurba_marseille","lat":43.31652,"lon":5.40438,"is_reserved":false,"is_disabled":false,"rental_uris":{"android":"levelo://app?vid=35914d27-ef14-4582-a098-3d97a4bb8e7a","ios":"levelo://app?vid=35914d27-ef14-4582-a098-3d97a4bb8e7a"},"vehicle_type_id":"4","last_reported":1691165280,"current_range_meters":23600,"station_id":"ce4bh012rcd13ifvqd00","pricing_plan_id":"free"},{"bike_id":"0c64b193-fa95-448b-9727-1c76b8e20059","system_id":"levelo_inurba_marseille","lat":43.31648,"lon":5.40443,"is_reserved":false,"is_disabled":false,"rental_uris":{"android":"levelo://app?vid=0c64b193-fa95-448b-9727-1c76b8e20059","ios":"levelo://app?vid=0c64b193-fa95-448b-9727-1c76b8e20059"},"vehicle_type_id":"4","last_reported":1691165280,"current_range_meters":26800,"station_id":"ce4bh012rcd13ifvqd00","pricing_plan_id":"free"},{"bike_id":"8f9662c1-0b02-433e-bfce-ec9b3cfe0c3e","system_id":"levelo_inurba_marseille","lat":43.291994,"lon":5.392907,"is_reserved":false,"is_disabled":false,"rental_uris":{"android":"levelo://app?vid=8f9662c1-0b02-433e-bfce-ec9b3cfe0c3e","ios":"levelo://app?vid=8f9662c1-0b02-433e-bfce-ec9b3cfe0c3e"},"vehicle_type_id":"4","last_reported":1691165280,"current_range_meters":0,"station_id":"ce4bh192rcd13ifvqdd0","pricing_plan_id":"free"},{"bike_id":"250d559c-afd6-4141-a0c3-cf921e99b053","system_id":"levelo_inurba_marseille","lat":43.284538,"lon":5.358657,"is_reserved":false,"is_disabled":false,"rental_uris":{"android":"levelo://app?vid=250d559c-afd6-4141-a0c3-cf921e99b053","ios":"levelo://app?vid=250d559c-afd6-4141-a0c3-cf921e99b053"},"vehicle_type_id":"4","last_reported":1691165280,"current_range_meters":14400,"station_id":"ce4bhah2rcd13ifvqei0","pricing_plan_id":"free"},{"bike_id":"1f21aedb-da70-4618-8dbd-1b9d59083b4e","system_id":"levelo_inurba_marseille","lat":43.28459,"lon":5.35896,"is_reserved":false,"is_disabled":false,"rental_uris":{"android":"levelo://app?vid=1f21aedb-da70-4618-8dbd-1b9d59083b4e","ios":"levelo://app?vid=1f21aedb-da70-4618-8dbd-1b9d59083b4e"},"vehicle_type_id":"4","last_reported":1691165280,"current_range_meters":0,"station_id":"ce4bhah2rcd13ifvqei0","pricing_plan_id":"free"},{"bike_id":"294f6d4b-5050-46e6-bdb3-4a2785c918f9","system_id":"levelo_inurba_marseille","lat":43.284538,"lon":5.358657,"is_reserved":false,"is_disabled":false,"rental_uris":{"android":"levelo://app?vid=294f6d4b-5050-46e6-bdb3-4a2785c918f9","ios":"levelo://app?vid=294f6d4b-5050-46e6-bdb3-4a2785c918f9"},"vehicle_type_id":"4","last_reported":1691165280,"current_range_meters":21600,"station_id":"ce4bhah2rcd13ifvqei0","pricing_plan_id":"free"},{"bike_id":"ad321afe-a2fa-491a-8f65-e587a9259da2","system_id":"levelo_inurba_marseille","lat":43.284538,"lon":5.358657,"is_reserved":false,"is_disabled":false,"rental_uris":{"android":"levelo://app?vid=ad321afe-a2fa-491a-8f65-e587a9259da2","ios":"levelo://app?vid=ad321afe-a2fa-491a-8f65-e587a9259da2"},"vehicle_type_id":"4","last_reported":1691165280,"current_range_meters":11600,"station_id":"ce4bhah2rcd13ifvqei0","pricing_plan_id":"free"},{"bike_id":"7b78d55e-e99c-4fa7-968a-c672d6912f00","system_id":"levelo_inurba_marseille","lat":43.284538,"lon":5.358657,"is_reserved":false,"is_disabled":false,"rental_uris":{"android":"levelo://app?vid=7b78d55e-e99c-4fa7-968a-c672d6912f00","ios":"levelo://app?vid=7b78d55e-e99c-4fa7-968a-c672d6912f00"},"vehicle_type_id":"4","last_reported":1691165280,"current_range_meters":31600,"station_id":"ce4bhah2rcd13ifvqei0","pricing_plan_id":"free"},{"bike_id":"2fc997a4-be97-4bb8-92de-2ff322d5472b","system_id":"levelo_inurba_marseille","lat":43.28623,"lon":5.35101,"is_reserved":false,"is_disabled":false,"rental_uris":{"android":"levelo://app?vid=2fc997a4-be97-4bb8-92de-2ff322d5472b","ios":"levelo://app?vid=2fc997a4-be97-4bb8-92de-2ff322d5472b"},"vehicle_type_id":"4","last_reported":1691165280,"current_range_meters":20400,"station_id":"ce4bhch2rcd13ifvqeug","pricing_plan_id":"free"},{"bike_id":"ee62100e-0166-49db-ba86-f1fc2e14857d","system_id":"levelo_inurba_marseille","lat":43.28621,"lon":5.35106,"is_reserved":false,"is_disabled":false,"rental_uris":{"android":"levelo://app?vid=ee62100e-0166-49db-ba86-f1fc2e14857d","ios":"levelo://app?vid=ee62100e-0166-49db-ba86-f1fc2e14857d"},"vehicle_type_id":"4","last_reported":1691165280,"current_range_meters":17600,"station_id":"ce4bhch2rcd13ifvqeug","pricing_plan_id":"free"},{"bike_id":"bb5a4217-6087-4a60-a2f0-418daf939c72","system_id":"levelo_inurba_marseille","lat":43.28619,"lon":5.3511,"is_reserved":false,"is_disabled":false,"rental_uris":{"android":"levelo://app?vid=bb5a4217-6087-4a60-a2f0-418daf939c72","ios":"levelo://app?vid=bb5a4217-6087-4a60-a2f0-418daf939c72"},"vehicle_type_id":"4","last_reported":1691165280,"current_range_meters":17200,"station_id":"ce4bhch2rcd13ifvqeug","pricing_plan_id":"free"},{"bike_id":"dc22e3a9-b08f-4f1c-9b76-988809e459a8","system_id":"levelo_inurba_marseille","lat":43.28619,"lon":5.3511,"is_reserved":false,"is_disabled":false,"rental_uris":{"android":"levelo://app?vid=dc22e3a9-b08f-4f1c-9b76-988809e459a8","ios":"levelo://app?vid=dc22e3a9-b08f-4f1c-9b76-988809e459a8"},"vehicle_type_id":"4","last_reported":1691165280,"current_range_meters":13200,"station_id":"ce4bhch2rcd13ifvqeug","pricing_plan_id":"free"},{"bike_id":"c4994300-ccc5-4dd1-95ee-24af9a3a780d","system_id":"levelo_inurba_marseille","lat":43.28619,"lon":5.35109,"is_reserved":false,"is_disabled":false,"rental_uris":{"android":"levelo://app?vid=c4994300-ccc5-4dd1-95ee-24af9a3a780d","ios":"levelo://app?vid=c4994300-ccc5-4dd1-95ee-24af9a3a780d"},"vehicle_type_id":"4","last_reported":1691165280,"current_range_meters":19200,"station_id":"ce4bhch2rcd13ifvqeug","pricing_plan_id":"free"},{"bike_id":"a60c5d5b-27ec-4793-b488-c2d9a39bfd54","system_id":"levelo_inurba_marseille","lat":43.28619,"lon":5.35103,"is_reserved":false,"is_disabled":false,"rental_uris":{"android":"levelo://app?vid=a60c5d5b-27ec-4793-b488-c2d9a39bfd54","ios":"levelo://app?vid=a60c5d5b-27ec-4793-b488-c2d9a39bfd54"},"vehicle_type_id":"4","last_reported":1691165280,"current_range_meters":12000,"station_id":"ce4bhch2rcd13ifvqeug","pricing_plan_id":"free"},{"bike_id":"47e421d9-aa57-465a-88ae-e702bc346dc8","system_id":"levelo_inurba_marseille","lat":43.28618,"lon":5.35106,"is_reserved":false,"is_disabled":false,"rental_uris":{"android":"levelo://app?vid=47e421d9-aa57-465a-88ae-e702bc346dc8","ios":"levelo://app?vid=47e421d9-aa57-465a-88ae-e702bc346dc8"},"vehicle_type_id":"4","last_reported":1691165280,"current_range_meters":29600,"station_id":"ce4bhch2rcd13ifvqeug","pricing_plan_id":"free"},{"bike_id":"319080f0-8af2-49ed-9660-710dd9f6b522","system_id":"levelo_inurba_marseille","lat":43.28615,"lon":5.35113,"is_reserved":false,"is_disabled":false,"rental_uris":{"android":"levelo://app?vid=319080f0-8af2-49ed-9660-710dd9f6b522","ios":"levelo://app?vid=319080f0-8af2-49ed-9660-710dd9f6b522"},"vehicle_type_id":"4","last_reported":1691165280,"current_range_meters":18400,"station_id":"ce4bhch2rcd13ifvqeug","pricing_plan_id":"free"},{"bike_id":"0a0a69fe-92e5-4012-834c-267e32afacc2","system_id":"levelo_inurba_marseille","lat":43.28617,"lon":5.35105,"is_reserved":false,"is_disabled":false,"rental_uris":{"android":"levelo://app?vid=0a0a69fe-92e5-4012-834c-267e32afacc2","ios":"levelo://app?vid=0a0a69fe-92e5-4012-834c-267e32afacc2"},"vehicle_type_id":"4","last_reported":1691165280,"current_range_meters":21200,"station_id":"ce4bhch2rcd13ifvqeug","pricing_plan_id":"free"},{"bike_id":"2b3c5eca-4c4a-47ca-98ce-4da798dfbc5d","system_id":"levelo_inurba_marseille","lat":43.28617,"lon":5.35104,"is_reserved":false,"is_disabled":false,"rental_uris":{"android":"levelo://app?vid=2b3c5eca-4c4a-47ca-98ce-4da798dfbc5d","ios":"levelo://app?vid=2b3c5eca-4c4a-47ca-98ce-4da798dfbc5d"},"vehicle_type_id":"4","last_reported":1691165280,"current_range_meters":17200,"station_id":"ce4bhch2rcd13ifvqeug","pricing_plan_id":"free"},{"bike_id":"e88ce4db-1617-4559-83ce-e3543f0c7440","system_id":"levelo_inurba_marseille","lat":43.28616,"lon":5.35106,"is_reserved":false,"is_disabled":false,"rental_uris":{"android":"levelo://app?vid=e88ce4db-1617-4559-83ce-e3543f0c7440","ios":"levelo://app?vid=e88ce4db-1617-4559-83ce-e3543f0c7440"},"vehicle_type_id":"4","last_reported":1691165280,"current_range_meters":30800,"station_id":"ce4bhch2rcd13ifvqeug","pricing_plan_id":"free"},{"bike_id":"63651cd5-5c13-4a6d-a0ea-975e23c412bb","system_id":"levelo_inurba_marseille","lat":43.285856,"lon":5.350771,"is_reserved":false,"is_disabled":false,"rental_uris":{"android":"levelo://app?vid=63651cd5-5c13-4a6d-a0ea-975e23c412bb","ios":"levelo://app?vid=63651cd5-5c13-4a6d-a0ea-975e23c412bb"},"vehicle_type_id":"4","last_reported":1691165280,"current_range_meters":16800,"station_id":"ce4bhch2rcd13ifvqeug","pricing_plan_id":"free"},{"bike_id":"5ca1e765-dc03-4c36-b4fd-dff5a12a2bfa","system_id":"levelo_inurba_marseille","lat":43.28615,"lon":5.35107,"is_reserved":false,"is_disabled":false,"rental_uris":{"android":"levelo://app?vid=5ca1e765-dc03-4c36-b4fd-dff5a12a2bfa","ios":"levelo://app?vid=5ca1e765-dc03-4c36-b4fd-dff5a12a2bfa"},"vehicle_type_id":"4","last_reported":1691165280,"current_range_meters":9600,"station_id":"ce4bhch2rcd13ifvqeug","pricing_plan_id":"free"},{"bike_id":"92cdc47d-a2ef-4625-997a-e72a7110d532","system_id":"levelo_inurba_marseille","lat":43.285856,"lon":5.350771,"is_reserved":false,"is_disabled":false,"rental_uris":{"android":"levelo://app?vid=92cdc47d-a2ef-4625-997a-e72a7110d532","ios":"levelo://app?vid=92cdc47d-a2ef-4625-997a-e72a7110d532"},"vehicle_type_id":"4","last_reported":1691165280,"current_range_meters":30000,"station_id":"ce4bhch2rcd13ifvqeug","pricing_plan_id":"free"},{"bike_id":"dedfa9df-4c2f-47f3-b3e6-a2c0137e0859","system_id":"levelo_inurba_marseille","lat":43.28615,"lon":5.35107,"is_reserved":false,"is_disabled":false,"rental_uris":{"android":"levelo://app?vid=dedfa9df-4c2f-47f3-b3e6-a2c0137e0859","ios":"levelo://app?vid=dedfa9df-4c2f-47f3-b3e6-a2c0137e0859"},"vehicle_type_id":"4","last_reported":1691165280,"current_range_meters":22800,"station_id":"ce4bhch2rcd13ifvqeug","pricing_plan_id":"free"},{"bike_id":"783ac4a2-8853-4297-885c-25b6bd8fad42","system_id":"levelo_inurba_marseille","lat":43.28614,"lon":5.351063,"is_reserved":false,"is_disabled":false,"rental_uris":{"android":"levelo://app?vid=783ac4a2-8853-4297-885c-25b6bd8fad42","ios":"levelo://app?vid=783ac4a2-8853-4297-885c-25b6bd8fad42"},"vehicle_type_id":"4","last_reported":1691165280,"current_range_meters":30000,"station_id":"ce4bhch2rcd13ifvqeug","pricing_plan_id":"free"},{"bike_id":"c607841c-793c-4e99-ae28-75fdb75c32f4","system_id":"levelo_inurba_marseille","lat":43.285856,"lon":5.350771,"is_reserved":false,"is_disabled":false,"rental_uris":{"android":"levelo://app?vid=c607841c-793c-4e99-ae28-75fdb75c32f4","ios":"levelo://app?vid=c607841c-793c-4e99-ae28-75fdb75c32f4"},"vehicle_type_id":"4","last_reported":1691165280,"current_range_meters":27600,"station_id":"ce4bhch2rcd13ifvqeug","pricing_plan_id":"free"},{"bike_id":"0831c029-c4fa-4121-80ff-7bdab63375af","system_id":"levelo_inurba_marseille","lat":43.28611,"lon":5.35104,"is_reserved":false,"is_disabled":false,"rental_uris":{"android":"levelo://app?vid=0831c029-c4fa-4121-80ff-7bdab63375af","ios":"levelo://app?vid=0831c029-c4fa-4121-80ff-7bdab63375af"},"vehicle_type_id":"4","last_reported":1691165280,"current_range_meters":29600,"station_id":"ce4bhch2rcd13ifvqeug","pricing_plan_id":"free"},{"bike_id":"0e513e33-ee31-49cc-8759-659ab9120fdc","system_id":"levelo_inurba_marseille","lat":43.28613,"lon":5.35097,"is_reserved":false,"is_disabled":false,"rental_uris":{"android":"levelo://app?vid=0e513e33-ee31-49cc-8759-659ab9120fdc","ios":"levelo://app?vid=0e513e33-ee31-49cc-8759-659ab9120fdc"},"vehicle_type_id":"4","last_reported":1691165280,"current_range_meters":17200,"station_id":"ce4bhch2rcd13ifvqeug","pricing_plan_id":"free"},{"bike_id":"e7211616-b757-4c85-8e88-403eaf2e4676","system_id":"levelo_inurba_marseille","lat":43.28623,"lon":5.38392,"is_reserved":false,"is_disabled":false,"rental_uris":{"android":"levelo://app?vid=e7211616-b757-4c85-8e88-403eaf2e4676","ios":"levelo://app?vid=e7211616-b757-4c85-8e88-403eaf2e4676"},"vehicle_type_id":"4","last_reported":1691165280,"current_range_meters":18400,"station_id":"","pricing_plan_id":"free"},{"bike_id":"fd8d2354-0817-4a67-af7d-23e5ee9f2c95","system_id":"levelo_inurba_marseille","lat":43.31888,"lon":5.40731,"is_reserved":false,"is_disabled":false,"rental_uris":{"android":"levelo://app?vid=fd8d2354-0817-4a67-af7d-23e5ee9f2c95","ios":"levelo://app?vid=fd8d2354-0817-4a67-af7d-23e5ee9f2c95"},"vehicle_type_id":"4","last_reported":1691165280,"current_range_meters":31200,"station_id":"ce4bhq12rcd13ifvqhig","pricing_plan_id":"free"},{"bike_id":"8daabb4c-3541-4593-9b36-1eadeac41cae","system_id":"levelo_inurba_marseille","lat":43.319179,"lon":5.407725,"is_reserved":false,"is_disabled":false,"rental_uris":{"android":"levelo://app?vid=8daabb4c-3541-4593-9b36-1eadeac41cae","ios":"levelo://app?vid=8daabb4c-3541-4593-9b36-1eadeac41cae"},"vehicle_type_id":"4","last_reported":1691165280,"current_range_meters":16000,"station_id":"ce4bhq12rcd13ifvqhig","pricing_plan_id":"free"},{"bike_id":"eeb02a4a-fc34-4229-a72e-14ead8b86bb9","system_id":"levelo_inurba_marseille","lat":43.31885,"lon":5.40734,"is_reserved":false,"is_disabled":false,"rental_uris":{"android":"levelo://app?vid=eeb02a4a-fc34-4229-a72e-14ead8b86bb9","ios":"levelo://app?vid=eeb02a4a-fc34-4229-a72e-14ead8b86bb9"},"vehicle_type_id":"4","last_reported":1691165280,"current_range_meters":24400,"station_id":"ce4bhq12rcd13ifvqhig","pricing_plan_id":"free"},{"bike_id":"632d4045-2ba1-4d8b-8070-04923aafd128","system_id":"levelo_inurba_marseille","lat":43.319179,"lon":5.407725,"is_reserved":false,"is_disabled":false,"rental_uris":{"android":"levelo://app?vid=632d4045-2ba1-4d8b-8070-04923aafd128","ios":"levelo://app?vid=632d4045-2ba1-4d8b-8070-04923aafd128"},"vehicle_type_id":"4","last_reported":1691165280,"current_range_meters":4800,"station_id":"ce4bhq12rcd13ifvqhig","pricing_plan_id":"free"},{"bike_id":"d7fe841c-6a0f-4218-8c73-d290e823f367","system_id":"levelo_inurba_marseille","lat":43.319179,"lon":5.407725,"is_reserved":false,"is_disabled":false,"rental_uris":{"android":"levelo://app?vid=d7fe841c-6a0f-4218-8c73-d290e823f367","ios":"levelo://app?vid=d7fe841c-6a0f-4218-8c73-d290e823f367"},"vehicle_type_id":"4","last_reported":1691165280,"current_range_meters":12000,"station_id":"ce4bhq12rcd13ifvqhig","pricing_plan_id":"free"},{"bike_id":"430c2063-ded1-4339-9309-d962bc415bc7","system_id":"levelo_inurba_marseille","lat":43.31893,"lon":5.40738,"is_reserved":false,"is_disabled":false,"rental_uris":{"android":"levelo://app?vid=430c2063-ded1-4339-9309-d962bc415bc7","ios":"levelo://app?vid=430c2063-ded1-4339-9309-d962bc415bc7"},"vehicle_type_id":"4","last_reported":1691165280,"current_range_meters":31200,"station_id":"ce4bhq12rcd13ifvqhig","pricing_plan_id":"free"},{"bike_id":"3e563380-a985-451c-801d-2783d7714294","system_id":"levelo_inurba_marseille","lat":43.337168,"lon":5.391825,"is_reserved":false,"is_disabled":false,"rental_uris":{"android":"levelo://app?vid=3e563380-a985-451c-801d-2783d7714294","ios":"levelo://app?vid=3e563380-a985-451c-801d-2783d7714294"},"vehicle_type_id":"4","last_reported":1691165280,"current_range_meters":14400,"station_id":"ce4bhr92rcd13ifvqhsg","pricing_plan_id":"free"},{"bike_id":"9be39f6c-974f-4a4e-90c3-357a4d8fdcc8","system_id":"levelo_inurba_marseille","lat":43.323464,"lon":5.406297,"is_reserved":false,"is_disabled":false,"rental_uris":{"android":"levelo://app?vid=9be39f6c-974f-4a4e-90c3-357a4d8fdcc8","ios":"levelo://app?vid=9be39f6c-974f-4a4e-90c3-357a4d8fdcc8"},"vehicle_type_id":"4","last_reported":1691165280,"current_range_meters":30800,"station_id":"ce4bhq92rcd13ifvqhjg","pricing_plan_id":"free"},{"bike_id":"a3cf389b-f19c-4e75-9e92-40c9195ed245","system_id":"levelo_inurba_marseille","lat":43.33722,"lon":5.39183,"is_reserved":false,"is_disabled":false,"rental_uris":{"android":"levelo://app?vid=a3cf389b-f19c-4e75-9e92-40c9195ed245","ios":"levelo://app?vid=a3cf389b-f19c-4e75-9e92-40c9195ed245"},"vehicle_type_id":"4","last_reported":1691165280,"current_range_meters":0,"station_id":"ce4bhr92rcd13ifvqhsg","pricing_plan_id":"free"},{"bike_id":"1f5722b0-5667-43f6-9dad-3a3b818c5a69","system_id":"levelo_inurba_marseille","lat":43.33724,"lon":5.39182,"is_reserved":false,"is_disabled":false,"rental_uris":{"android":"levelo://app?vid=1f5722b0-5667-43f6-9dad-3a3b818c5a69","ios":"levelo://app?vid=1f5722b0-5667-43f6-9dad-3a3b818c5a69"},"vehicle_type_id":"4","last_reported":1691165280,"current_range_meters":30800,"station_id":"ce4bhr92rcd13ifvqhsg","pricing_plan_id":"free"},{"bike_id":"9d8dc018-8295-487e-aae9-79ce0f469cdf","system_id":"levelo_inurba_marseille","lat":43.33723,"lon":5.39186,"is_reserved":false,"is_disabled":false,"rental_uris":{"android":"levelo://app?vid=9d8dc018-8295-487e-aae9-79ce0f469cdf","ios":"levelo://app?vid=9d8dc018-8295-487e-aae9-79ce0f469cdf"},"vehicle_type_id":"4","last_reported":1691165280,"current_range_meters":24800,"station_id":"ce4bhr92rcd13ifvqhsg","pricing_plan_id":"free"},{"bike_id":"a9671d69-2a62-4abb-9d98-78ee12b6b2d8","system_id":"levelo_inurba_marseille","lat":43.33727,"lon":5.39182,"is_reserved":false,"is_disabled":false,"rental_uris":{"android":"levelo://app?vid=a9671d69-2a62-4abb-9d98-78ee12b6b2d8","ios":"levelo://app?vid=a9671d69-2a62-4abb-9d98-78ee12b6b2d8"},"vehicle_type_id":"4","last_reported":1691165280,"current_range_meters":11600,"station_id":"ce4bhr92rcd13ifvqhsg","pricing_plan_id":"free"},{"bike_id":"65e7209e-43de-4472-85bf-edccad84c81f","system_id":"levelo_inurba_marseille","lat":43.33726,"lon":5.39187,"is_reserved":false,"is_disabled":false,"rental_uris":{"android":"levelo://app?vid=65e7209e-43de-4472-85bf-edccad84c81f","ios":"levelo://app?vid=65e7209e-43de-4472-85bf-edccad84c81f"},"vehicle_type_id":"4","last_reported":1691165280,"current_range_meters":26800,"station_id":"ce4bhr92rcd13ifvqhsg","pricing_plan_id":"free"},{"bike_id":"9ed5c8cd-5716-467d-9a0b-e5002dcb5a2c","system_id":"levelo_inurba_marseille","lat":43.33729,"lon":5.39182,"is_reserved":false,"is_disabled":false,"rental_uris":{"android":"levelo://app?vid=9ed5c8cd-5716-467d-9a0b-e5002dcb5a2c","ios":"levelo://app?vid=9ed5c8cd-5716-467d-9a0b-e5002dcb5a2c"},"vehicle_type_id":"4","last_reported":1691165280,"current_range_meters":30000,"station_id":"ce4bhr92rcd13ifvqhsg","pricing_plan_id":"free"},{"bike_id":"939edbe6-adcc-4f97-ad69-99748df4073d","system_id":"levelo_inurba_marseille","lat":43.33729,"lon":5.39183,"is_reserved":false,"is_disabled":false,"rental_uris":{"android":"levelo://app?vid=939edbe6-adcc-4f97-ad69-99748df4073d","ios":"levelo://app?vid=939edbe6-adcc-4f97-ad69-99748df4073d"},"vehicle_type_id":"4","last_reported":1691165280,"current_range_meters":25200,"station_id":"ce4bhr92rcd13ifvqhsg","pricing_plan_id":"free"},{"bike_id":"f18b4051-8145-4f33-aee1-6f539e29d721","system_id":"levelo_inurba_marseille","lat":43.33732,"lon":5.39179,"is_reserved":false,"is_disabled":false,"rental_uris":{"android":"levelo://app?vid=f18b4051-8145-4f33-aee1-6f539e29d721","ios":"levelo://app?vid=f18b4051-8145-4f33-aee1-6f539e29d721"},"vehicle_type_id":"4","last_reported":1691165280,"current_range_meters":18800,"station_id":"ce4bhr92rcd13ifvqhsg","pricing_plan_id":"free"},{"bike_id":"df82d2f9-f688-4670-ac84-3e543122cedb","system_id":"levelo_inurba_marseille","lat":43.33729,"lon":5.39185,"is_reserved":false,"is_disabled":false,"rental_uris":{"android":"levelo://app?vid=df82d2f9-f688-4670-ac84-3e543122cedb","ios":"levelo://app?vid=df82d2f9-f688-4670-ac84-3e543122cedb"},"vehicle_type_id":"4","last_reported":1691165280,"current_range_meters":13200,"station_id":"ce4bhr92rcd13ifvqhsg","pricing_plan_id":"free"},{"bike_id":"3e2b1177-2c86-434f-b952-b4cf179b745c","system_id":"levelo_inurba_marseille","lat":43.32339,"lon":5.40625,"is_reserved":false,"is_disabled":false,"rental_uris":{"android":"levelo://app?vid=3e2b1177-2c86-434f-b952-b4cf179b745c","ios":"levelo://app?vid=3e2b1177-2c86-434f-b952-b4cf179b745c"},"vehicle_type_id":"4","last_reported":1691165280,"current_range_meters":21600,"station_id":"ce4bhq92rcd13ifvqhjg","pricing_plan_id":"free"},{"bike_id":"37dfae56-2a13-495c-9752-c992e0ad9ccf","system_id":"levelo_inurba_marseille","lat":43.32333,"lon":5.40629,"is_reserved":false,"is_disabled":false,"rental_uris":{"android":"levelo://app?vid=37dfae56-2a13-495c-9752-c992e0ad9ccf","ios":"levelo://app?vid=37dfae56-2a13-495c-9752-c992e0ad9ccf"},"vehicle_type_id":"4","last_reported":1691165280,"current_range_meters":29200,"station_id":"ce4bhq92rcd13ifvqhjg","pricing_plan_id":"free"},{"bike_id":"23dafe58-bc58-41ce-843c-2b5e651c84c2","system_id":"levelo_inurba_marseille","lat":43.32346,"lon":5.40623,"is_reserved":false,"is_disabled":false,"rental_uris":{"android":"levelo://app?vid=23dafe58-bc58-41ce-843c-2b5e651c84c2","ios":"levelo://app?vid=23dafe58-bc58-41ce-843c-2b5e651c84c2"},"vehicle_type_id":"4","last_reported":1691165280,"current_range_meters":30400,"station_id":"ce4bhq92rcd13ifvqhjg","pricing_plan_id":"free"},{"bike_id":"5fd6a347-0a02-4efa-ab4a-06802493ed56","system_id":"levelo_inurba_marseille","lat":43.33731,"lon":5.39189,"is_reserved":false,"is_disabled":false,"rental_uris":{"android":"levelo://app?vid=5fd6a347-0a02-4efa-ab4a-06802493ed56","ios":"levelo://app?vid=5fd6a347-0a02-4efa-ab4a-06802493ed56"},"vehicle_type_id":"4","last_reported":1691165280,"current_range_meters":15200,"station_id":"ce4bhr92rcd13ifvqhsg","pricing_plan_id":"free"},{"bike_id":"8e4ab4c7-b2dc-4e74-b07d-1ff49a416721","system_id":"levelo_inurba_marseille","lat":43.33737,"lon":5.39179,"is_reserved":false,"is_disabled":false,"rental_uris":{"android":"levelo://app?vid=8e4ab4c7-b2dc-4e74-b07d-1ff49a416721","ios":"levelo://app?vid=8e4ab4c7-b2dc-4e74-b07d-1ff49a416721"},"vehicle_type_id":"4","last_reported":1691165280,"current_range_meters":18800,"station_id":"ce4bhr92rcd13ifvqhsg","pricing_plan_id":"free"},{"bike_id":"c59f30af-b7c9-4762-b544-56156d6a8a97","system_id":"levelo_inurba_marseille","lat":43.33736,"lon":5.39181,"is_reserved":false,"is_disabled":false,"rental_uris":{"android":"levelo://app?vid=c59f30af-b7c9-4762-b544-56156d6a8a97","ios":"levelo://app?vid=c59f30af-b7c9-4762-b544-56156d6a8a97"},"vehicle_type_id":"4","last_reported":1691165280,"current_range_meters":21200,"station_id":"ce4bhr92rcd13ifvqhsg","pricing_plan_id":"free"},{"bike_id":"ed9797b8-d925-4a28-9a9e-5f5639c20314","system_id":"levelo_inurba_marseille","lat":43.33734,"lon":5.39187,"is_reserved":false,"is_disabled":false,"rental_uris":{"android":"levelo://app?vid=ed9797b8-d925-4a28-9a9e-5f5639c20314","ios":"levelo://app?vid=ed9797b8-d925-4a28-9a9e-5f5639c20314"},"vehicle_type_id":"4","last_reported":1691165280,"current_range_meters":14000,"station_id":"ce4bhr92rcd13ifvqhsg","pricing_plan_id":"free"},{"bike_id":"dbada9f9-e33c-4a7d-ab43-1cac4e571e70","system_id":"levelo_inurba_marseille","lat":43.284793,"lon":5.384113,"is_reserved":false,"is_disabled":false,"rental_uris":{"android":"levelo://app?vid=dbada9f9-e33c-4a7d-ab43-1cac4e571e70","ios":"levelo://app?vid=dbada9f9-e33c-4a7d-ab43-1cac4e571e70"},"vehicle_type_id":"4","last_reported":1691165280,"current_range_meters":28000,"station_id":"ce4bh512rcd13ifvqe3g","pricing_plan_id":"free"},{"bike_id":"b522bbf9-91f5-4abf-bed9-853a43b7f3b1","system_id":"levelo_inurba_marseille","lat":43.33739,"lon":5.39185,"is_reserved":false,"is_disabled":false,"rental_uris":{"android":"levelo://app?vid=b522bbf9-91f5-4abf-bed9-853a43b7f3b1","ios":"levelo://app?vid=b522bbf9-91f5-4abf-bed9-853a43b7f3b1"},"vehicle_type_id":"4","last_reported":1691165280,"current_range_meters":17600,"station_id":"ce4bhr92rcd13ifvqhsg","pricing_plan_id":"free"},{"bike_id":"c7e85449-eaa3-4076-8853-15e9a7d1c779","system_id":"levelo_inurba_marseille","lat":43.28481,"lon":5.38417,"is_reserved":false,"is_disabled":false,"rental_uris":{"android":"levelo://app?vid=c7e85449-eaa3-4076-8853-15e9a7d1c779","ios":"levelo://app?vid=c7e85449-eaa3-4076-8853-15e9a7d1c779"},"vehicle_type_id":"4","last_reported":1691165280,"current_range_meters":0,"station_id":"ce4bh512rcd13ifvqe3g","pricing_plan_id":"free"},{"bike_id":"ec0c3426-d860-4d67-8df4-ef4b0084a009","system_id":"levelo_inurba_marseille","lat":43.28432,"lon":5.34993,"is_reserved":false,"is_disabled":false,"rental_uris":{"android":"levelo://app?vid=ec0c3426-d860-4d67-8df4-ef4b0084a009","ios":"levelo://app?vid=ec0c3426-d860-4d67-8df4-ef4b0084a009"},"vehicle_type_id":"4","last_reported":1691165280,"current_range_meters":31200,"station_id":"ce4bhbh2rcd13ifvqepg","pricing_plan_id":"free"},{"bike_id":"1cd36677-ba42-48dc-8618-a23a2d946f87","system_id":"levelo_inurba_marseille","lat":43.28432,"lon":5.34993,"is_reserved":false,"is_disabled":false,"rental_uris":{"android":"levelo://app?vid=1cd36677-ba42-48dc-8618-a23a2d946f87","ios":"levelo://app?vid=1cd36677-ba42-48dc-8618-a23a2d946f87"},"vehicle_type_id":"4","last_reported":1691165280,"current_range_meters":24800,"station_id":"ce4bhbh2rcd13ifvqepg","pricing_plan_id":"free"},{"bike_id":"cc1e5e92-f88d-4aad-ab5d-2ac31992f744","system_id":"levelo_inurba_marseille","lat":43.284219,"lon":5.3497,"is_reserved":false,"is_disabled":false,"rental_uris":{"android":"levelo://app?vid=cc1e5e92-f88d-4aad-ab5d-2ac31992f744","ios":"levelo://app?vid=cc1e5e92-f88d-4aad-ab5d-2ac31992f744"},"vehicle_type_id":"4","last_reported":1691165280,"current_range_meters":13600,"station_id":"ce4bhbh2rcd13ifvqepg","pricing_plan_id":"free"},{"bike_id":"67a317f5-9abf-41e0-b0c0-cecc9f59c420","system_id":"levelo_inurba_marseille","lat":43.284219,"lon":5.3497,"is_reserved":false,"is_disabled":false,"rental_uris":{"android":"levelo://app?vid=67a317f5-9abf-41e0-b0c0-cecc9f59c420","ios":"levelo://app?vid=67a317f5-9abf-41e0-b0c0-cecc9f59c420"},"vehicle_type_id":"4","last_reported":1691165280,"current_range_meters":29200,"station_id":"ce4bhbh2rcd13ifvqepg","pricing_plan_id":"free"},{"bike_id":"509f37c7-acb3-4b17-99cf-e4dbe380daa0","system_id":"levelo_inurba_marseille","lat":43.284217,"lon":5.349697,"is_reserved":false,"is_disabled":false,"rental_uris":{"android":"levelo://app?vid=509f37c7-acb3-4b17-99cf-e4dbe380daa0","ios":"levelo://app?vid=509f37c7-acb3-4b17-99cf-e4dbe380daa0"},"vehicle_type_id":"4","last_reported":1691165280,"current_range_meters":31200,"station_id":"ce4bhbh2rcd13ifvqepg","pricing_plan_id":"free"},{"bike_id":"3c636f52-d93a-406f-9228-8e6215e578cb","system_id":"levelo_inurba_marseille","lat":43.28426,"lon":5.34996,"is_reserved":false,"is_disabled":false,"rental_uris":{"android":"levelo://app?vid=3c636f52-d93a-406f-9228-8e6215e578cb","ios":"levelo://app?vid=3c636f52-d93a-406f-9228-8e6215e578cb"},"vehicle_type_id":"4","last_reported":1691165280,"current_range_meters":24400,"station_id":"ce4bhbh2rcd13ifvqepg","pricing_plan_id":"free"},{"bike_id":"dd2b7e53-cee5-42a6-aae9-c2fc15d5e562","system_id":"levelo_inurba_marseille","lat":43.28429,"lon":5.34985,"is_reserved":false,"is_disabled":false,"rental_uris":{"android":"levelo://app?vid=dd2b7e53-cee5-42a6-aae9-c2fc15d5e562","ios":"levelo://app?vid=dd2b7e53-cee5-42a6-aae9-c2fc15d5e562"},"vehicle_type_id":"4","last_reported":1691165280,"current_range_meters":26400,"station_id":"ce4bhbh2rcd13ifvqepg","pricing_plan_id":"free"},{"bike_id":"c8ad0af3-0516-4c01-88ff-a8cd3cc7b692","system_id":"levelo_inurba_marseille","lat":43.28428,"lon":5.34988,"is_reserved":false,"is_disabled":false,"rental_uris":{"android":"levelo://app?vid=c8ad0af3-0516-4c01-88ff-a8cd3cc7b692","ios":"levelo://app?vid=c8ad0af3-0516-4c01-88ff-a8cd3cc7b692"},"vehicle_type_id":"4","last_reported":1691165280,"current_range_meters":17200,"station_id":"ce4bhbh2rcd13ifvqepg","pricing_plan_id":"free"},{"bike_id":"1439854b-9146-46e8-b80d-9755787de961","system_id":"levelo_inurba_marseille","lat":43.28426,"lon":5.34994,"is_reserved":false,"is_disabled":false,"rental_uris":{"android":"levelo://app?vid=1439854b-9146-46e8-b80d-9755787de961","ios":"levelo://app?vid=1439854b-9146-46e8-b80d-9755787de961"},"vehicle_type_id":"4","last_reported":1691165280,"current_range_meters":22400,"station_id":"ce4bhbh2rcd13ifvqepg","pricing_plan_id":"free"},{"bike_id":"1618bc7e-089a-4f2b-b7ef-6a791ca377e1","system_id":"levelo_inurba_marseille","lat":43.28426,"lon":5.34993,"is_reserved":false,"is_disabled":false,"rental_uris":{"android":"levelo://app?vid=1618bc7e-089a-4f2b-b7ef-6a791ca377e1","ios":"levelo://app?vid=1618bc7e-089a-4f2b-b7ef-6a791ca377e1"},"vehicle_type_id":"4","last_reported":1691165280,"current_range_meters":11200,"station_id":"ce4bhbh2rcd13ifvqepg","pricing_plan_id":"free"},{"bike_id":"01a0bcb6-eb2e-4c15-b7fc-739ca9687f6a","system_id":"levelo_inurba_marseille","lat":43.28427,"lon":5.34989,"is_reserved":false,"is_disabled":false,"rental_uris":{"android":"levelo://app?vid=01a0bcb6-eb2e-4c15-b7fc-739ca9687f6a","ios":"levelo://app?vid=01a0bcb6-eb2e-4c15-b7fc-739ca9687f6a"},"vehicle_type_id":"4","last_reported":1691165280,"current_range_meters":20000,"station_id":"ce4bhbh2rcd13ifvqepg","pricing_plan_id":"free"},{"bike_id":"a8bd4e3b-fc8c-465f-bcef-5fb5f18c75eb","system_id":"levelo_inurba_marseille","lat":43.28426,"lon":5.34992,"is_reserved":false,"is_disabled":false,"rental_uris":{"android":"levelo://app?vid=a8bd4e3b-fc8c-465f-bcef-5fb5f18c75eb","ios":"levelo://app?vid=a8bd4e3b-fc8c-465f-bcef-5fb5f18c75eb"},"vehicle_type_id":"4","last_reported":1691165280,"current_range_meters":30000,"station_id":"ce4bhbh2rcd13ifvqepg","pricing_plan_id":"free"},{"bike_id":"f4b48e46-2ef3-4af8-8158-942b0e1cfd9b","system_id":"levelo_inurba_marseille","lat":43.28425,"lon":5.3499,"is_reserved":false,"is_disabled":false,"rental_uris":{"android":"levelo://app?vid=f4b48e46-2ef3-4af8-8158-942b0e1cfd9b","ios":"levelo://app?vid=f4b48e46-2ef3-4af8-8158-942b0e1cfd9b"},"vehicle_type_id":"4","last_reported":1691165280,"current_range_meters":28400,"station_id":"ce4bhbh2rcd13ifvqepg","pricing_plan_id":"free"},{"bike_id":"1002eda9-1961-410c-88cb-04af7fbc34c0","system_id":"levelo_inurba_marseille","lat":43.28425,"lon":5.34988,"is_reserved":false,"is_disabled":false,"rental_uris":{"android":"levelo://app?vid=1002eda9-1961-410c-88cb-04af7fbc34c0","ios":"levelo://app?vid=1002eda9-1961-410c-88cb-04af7fbc34c0"},"vehicle_type_id":"4","last_reported":1691165280,"current_range_meters":22400,"station_id":"ce4bhbh2rcd13ifvqepg","pricing_plan_id":"free"},{"bike_id":"d467766d-3512-465b-a791-caab20aea86b","system_id":"levelo_inurba_marseille","lat":43.28426,"lon":5.34984,"is_reserved":false,"is_disabled":false,"rental_uris":{"android":"levelo://app?vid=d467766d-3512-465b-a791-caab20aea86b","ios":"levelo://app?vid=d467766d-3512-465b-a791-caab20aea86b"},"vehicle_type_id":"4","last_reported":1691165280,"current_range_meters":11600,"station_id":"ce4bhbh2rcd13ifvqepg","pricing_plan_id":"free"},{"bike_id":"9938a22f-106c-4f57-b942-e6b65ab2be54","system_id":"levelo_inurba_marseille","lat":43.28425,"lon":5.34987,"is_reserved":false,"is_disabled":false,"rental_uris":{"android":"levelo://app?vid=9938a22f-106c-4f57-b942-e6b65ab2be54","ios":"levelo://app?vid=9938a22f-106c-4f57-b942-e6b65ab2be54"},"vehicle_type_id":"4","last_reported":1691165280,"current_range_meters":30000,"station_id":"ce4bhbh2rcd13ifvqepg","pricing_plan_id":"free"},{"bike_id":"b8404f9d-96b8-47a8-afdc-c30937cf0727","system_id":"levelo_inurba_marseille","lat":43.28423,"lon":5.34988,"is_reserved":false,"is_disabled":false,"rental_uris":{"android":"levelo://app?vid=b8404f9d-96b8-47a8-afdc-c30937cf0727","ios":"levelo://app?vid=b8404f9d-96b8-47a8-afdc-c30937cf0727"},"vehicle_type_id":"4","last_reported":1691165280,"current_range_meters":12800,"station_id":"ce4bhbh2rcd13ifvqepg","pricing_plan_id":"free"},{"bike_id":"91c3ba0f-7e65-452b-b95b-7b55ee8c0e45","system_id":"levelo_inurba_marseille","lat":43.28423,"lon":5.34986,"is_reserved":false,"is_disabled":false,"rental_uris":{"android":"levelo://app?vid=91c3ba0f-7e65-452b-b95b-7b55ee8c0e45","ios":"levelo://app?vid=91c3ba0f-7e65-452b-b95b-7b55ee8c0e45"},"vehicle_type_id":"4","last_reported":1691165280,"current_range_meters":8800,"station_id":"ce4bhbh2rcd13ifvqepg","pricing_plan_id":"free"},{"bike_id":"237dc8b0-60e8-4978-bff0-f418fae22bf2","system_id":"levelo_inurba_marseille","lat":43.28425,"lon":5.34979,"is_reserved":false,"is_disabled":false,"rental_uris":{"android":"levelo://app?vid=237dc8b0-60e8-4978-bff0-f418fae22bf2","ios":"levelo://app?vid=237dc8b0-60e8-4978-bff0-f418fae22bf2"},"vehicle_type_id":"4","last_reported":1691165280,"current_range_meters":9600,"station_id":"ce4bhbh2rcd13ifvqepg","pricing_plan_id":"free"},{"bike_id":"eb4e3a60-54ee-4577-bc4a-d516ce6ca302","system_id":"levelo_inurba_marseille","lat":43.28423,"lon":5.34985,"is_reserved":false,"is_disabled":false,"rental_uris":{"android":"levelo://app?vid=eb4e3a60-54ee-4577-bc4a-d516ce6ca302","ios":"levelo://app?vid=eb4e3a60-54ee-4577-bc4a-d516ce6ca302"},"vehicle_type_id":"4","last_reported":1691165280,"current_range_meters":10400,"station_id":"ce4bhbh2rcd13ifvqepg","pricing_plan_id":"free"},{"bike_id":"33c7f28c-8bf0-4a12-a367-dbd734724f6e","system_id":"levelo_inurba_marseille","lat":43.28422,"lon":5.34988,"is_reserved":false,"is_disabled":false,"rental_uris":{"android":"levelo://app?vid=33c7f28c-8bf0-4a12-a367-dbd734724f6e","ios":"levelo://app?vid=33c7f28c-8bf0-4a12-a367-dbd734724f6e"},"vehicle_type_id":"4","last_reported":1691165280,"current_range_meters":26000,"station_id":"ce4bhbh2rcd13ifvqepg","pricing_plan_id":"free"},{"bike_id":"0443f1e1-7f20-4dcf-a9be-39c856e9d8d4","system_id":"levelo_inurba_marseille","lat":43.28422,"lon":5.34988,"is_reserved":false,"is_disabled":false,"rental_uris":{"android":"levelo://app?vid=0443f1e1-7f20-4dcf-a9be-39c856e9d8d4","ios":"levelo://app?vid=0443f1e1-7f20-4dcf-a9be-39c856e9d8d4"},"vehicle_type_id":"4","last_reported":1691165280,"current_range_meters":9200,"station_id":"ce4bhbh2rcd13ifvqepg","pricing_plan_id":"free"},{"bike_id":"3aa05bcc-32e2-43ae-9613-f103777781a2","system_id":"levelo_inurba_marseille","lat":43.28422,"lon":5.34987,"is_reserved":false,"is_disabled":false,"rental_uris":{"android":"levelo://app?vid=3aa05bcc-32e2-43ae-9613-f103777781a2","ios":"levelo://app?vid=3aa05bcc-32e2-43ae-9613-f103777781a2"},"vehicle_type_id":"4","last_reported":1691165280,"current_range_meters":20800,"station_id":"ce4bhbh2rcd13ifvqepg","pricing_plan_id":"free"},{"bike_id":"ccb9b454-bd0b-4b57-8e44-0baa695c0f77","system_id":"levelo_inurba_marseille","lat":43.28422,"lon":5.34987,"is_reserved":false,"is_disabled":false,"rental_uris":{"android":"levelo://app?vid=ccb9b454-bd0b-4b57-8e44-0baa695c0f77","ios":"levelo://app?vid=ccb9b454-bd0b-4b57-8e44-0baa695c0f77"},"vehicle_type_id":"4","last_reported":1691165280,"current_range_meters":25600,"station_id":"ce4bhbh2rcd13ifvqepg","pricing_plan_id":"free"},{"bike_id":"a0201101-4167-411b-8383-320c861bb236","system_id":"levelo_inurba_marseille","lat":43.28424,"lon":5.34979,"is_reserved":false,"is_disabled":false,"rental_uris":{"android":"levelo://app?vid=a0201101-4167-411b-8383-320c861bb236","ios":"levelo://app?vid=a0201101-4167-411b-8383-320c861bb236"},"vehicle_type_id":"4","last_reported":1691165280,"current_range_meters":20000,"station_id":"ce4bhbh2rcd13ifvqepg","pricing_plan_id":"free"},{"bike_id":"ad2e5448-3aef-4131-af85-6a76cf505b0f","system_id":"levelo_inurba_marseille","lat":43.28422,"lon":5.34985,"is_reserved":false,"is_disabled":false,"rental_uris":{"android":"levelo://app?vid=ad2e5448-3aef-4131-af85-6a76cf505b0f","ios":"levelo://app?vid=ad2e5448-3aef-4131-af85-6a76cf505b0f"},"vehicle_type_id":"4","last_reported":1691165280,"current_range_meters":23200,"station_id":"ce4bhbh2rcd13ifvqepg","pricing_plan_id":"free"},{"bike_id":"c137ff5c-5fc0-4f95-87cc-1fad6a0c5768","system_id":"levelo_inurba_marseille","lat":43.2842,"lon":5.34991,"is_reserved":false,"is_disabled":false,"rental_uris":{"android":"levelo://app?vid=c137ff5c-5fc0-4f95-87cc-1fad6a0c5768","ios":"levelo://app?vid=c137ff5c-5fc0-4f95-87cc-1fad6a0c5768"},"vehicle_type_id":"4","last_reported":1691165280,"current_range_meters":28000,"station_id":"ce4bhbh2rcd13ifvqepg","pricing_plan_id":"free"},{"bike_id":"b96ed91b-fb24-4bbd-9431-a5f43fe86ec4","system_id":"levelo_inurba_marseille","lat":43.2842,"lon":5.3499,"is_reserved":false,"is_disabled":false,"rental_uris":{"android":"levelo://app?vid=b96ed91b-fb24-4bbd-9431-a5f43fe86ec4","ios":"levelo://app?vid=b96ed91b-fb24-4bbd-9431-a5f43fe86ec4"},"vehicle_type_id":"4","last_reported":1691165280,"current_range_meters":12000,"station_id":"ce4bhbh2rcd13ifvqepg","pricing_plan_id":"free"},{"bike_id":"4781a394-7f0c-465a-8176-781e1b27215c","system_id":"levelo_inurba_marseille","lat":43.28418,"lon":5.34993,"is_reserved":false,"is_disabled":false,"rental_uris":{"android":"levelo://app?vid=4781a394-7f0c-465a-8176-781e1b27215c","ios":"levelo://app?vid=4781a394-7f0c-465a-8176-781e1b27215c"},"vehicle_type_id":"4","last_reported":1691165280,"current_range_meters":21600,"station_id":"ce4bhbh2rcd13ifvqepg","pricing_plan_id":"free"},{"bike_id":"cf105604-e441-4abb-b1a8-17b3200bed95","system_id":"levelo_inurba_marseille","lat":43.2842,"lon":5.34986,"is_reserved":false,"is_disabled":false,"rental_uris":{"android":"levelo://app?vid=cf105604-e441-4abb-b1a8-17b3200bed95","ios":"levelo://app?vid=cf105604-e441-4abb-b1a8-17b3200bed95"},"vehicle_type_id":"4","last_reported":1691165280,"current_range_meters":31200,"station_id":"ce4bhbh2rcd13ifvqepg","pricing_plan_id":"free"},{"bike_id":"7f5efc6b-50ae-4988-aee3-be6a272061ff","system_id":"levelo_inurba_marseille","lat":43.28417,"lon":5.34992,"is_reserved":false,"is_disabled":false,"rental_uris":{"android":"levelo://app?vid=7f5efc6b-50ae-4988-aee3-be6a272061ff","ios":"levelo://app?vid=7f5efc6b-50ae-4988-aee3-be6a272061ff"},"vehicle_type_id":"4","last_reported":1691165280,"current_range_meters":11600,"station_id":"ce4bhbh2rcd13ifvqepg","pricing_plan_id":"free"},{"bike_id":"cbfeb36d-9040-477c-9b1c-9150d51f60cb","system_id":"levelo_inurba_marseille","lat":43.284217,"lon":5.349697,"is_reserved":false,"is_disabled":false,"rental_uris":{"android":"levelo://app?vid=cbfeb36d-9040-477c-9b1c-9150d51f60cb","ios":"levelo://app?vid=cbfeb36d-9040-477c-9b1c-9150d51f60cb"},"vehicle_type_id":"4","last_reported":1691165280,"current_range_meters":31200,"station_id":"ce4bhbh2rcd13ifvqepg","pricing_plan_id":"free"},{"bike_id":"ef871ca1-d89c-4384-bc00-48ed2583bfe6","system_id":"levelo_inurba_marseille","lat":43.28418,"lon":5.34981,"is_reserved":false,"is_disabled":false,"rental_uris":{"android":"levelo://app?vid=ef871ca1-d89c-4384-bc00-48ed2583bfe6","ios":"levelo://app?vid=ef871ca1-d89c-4384-bc00-48ed2583bfe6"},"vehicle_type_id":"4","last_reported":1691165280,"current_range_meters":31200,"station_id":"ce4bhbh2rcd13ifvqepg","pricing_plan_id":"free"},{"bike_id":"f6d1511a-723e-47fb-833a-bc2c2a9de45c","system_id":"levelo_inurba_marseille","lat":43.289363,"lon":5.396322,"is_reserved":false,"is_disabled":false,"rental_uris":{"android":"levelo://app?vid=f6d1511a-723e-47fb-833a-bc2c2a9de45c","ios":"levelo://app?vid=f6d1511a-723e-47fb-833a-bc2c2a9de45c"},"vehicle_type_id":"4","last_reported":1691165280,"current_range_meters":15600,"station_id":"ce4bh3h2rcd13ifvqdn0","pricing_plan_id":"free"},{"bike_id":"f7f5768e-b80f-4da0-8864-86696a8877fb","system_id":"levelo_inurba_marseille","lat":43.32456,"lon":5.40727,"is_reserved":false,"is_disabled":false,"rental_uris":{"android":"levelo://app?vid=f7f5768e-b80f-4da0-8864-86696a8877fb","ios":"levelo://app?vid=f7f5768e-b80f-4da0-8864-86696a8877fb"},"vehicle_type_id":"4","last_reported":1691165280,"current_range_meters":0,"station_id":"","pricing_plan_id":"free"},{"bike_id":"81a08b14-0a8e-4835-96c9-739e70b7c020","system_id":"levelo_inurba_marseille","lat":43.289363,"lon":5.396322,"is_reserved":false,"is_disabled":false,"rental_uris":{"android":"levelo://app?vid=81a08b14-0a8e-4835-96c9-739e70b7c020","ios":"levelo://app?vid=81a08b14-0a8e-4835-96c9-739e70b7c020"},"vehicle_type_id":"4","last_reported":1691165280,"current_range_meters":29600,"station_id":"ce4bh3h2rcd13ifvqdn0","pricing_plan_id":"free"},{"bike_id":"b474d2f3-8ecd-48e9-890b-be173052dabb","system_id":"levelo_inurba_marseille","lat":43.289363,"lon":5.396322,"is_reserved":false,"is_disabled":false,"rental_uris":{"android":"levelo://app?vid=b474d2f3-8ecd-48e9-890b-be173052dabb","ios":"levelo://app?vid=b474d2f3-8ecd-48e9-890b-be173052dabb"},"vehicle_type_id":"4","last_reported":1691165280,"current_range_meters":31200,"station_id":"ce4bh3h2rcd13ifvqdn0","pricing_plan_id":"free"},{"bike_id":"5351aa66-bb75-4cb6-b22f-d5d46d7eb835","system_id":"levelo_inurba_marseille","lat":43.292724,"lon":5.401131,"is_reserved":false,"is_disabled":false,"rental_uris":{"android":"levelo://app?vid=5351aa66-bb75-4cb6-b22f-d5d46d7eb835","ios":"levelo://app?vid=5351aa66-bb75-4cb6-b22f-d5d46d7eb835"},"vehicle_type_id":"4","last_reported":1691165280,"current_range_meters":400,"station_id":"ce4bh312rcd13ifvqdk0","pricing_plan_id":"free"},{"bike_id":"97cc87ab-f5ee-4bcc-8352-ab38155bd94b","system_id":"levelo_inurba_marseille","lat":43.28292,"lon":5.3511,"is_reserved":false,"is_disabled":false,"rental_uris":{"android":"levelo://app?vid=97cc87ab-f5ee-4bcc-8352-ab38155bd94b","ios":"levelo://app?vid=97cc87ab-f5ee-4bcc-8352-ab38155bd94b"},"vehicle_type_id":"4","last_reported":1691165280,"current_range_meters":31200,"station_id":"ce4bhbp2rcd13ifvqerg","pricing_plan_id":"free"},{"bike_id":"e9508747-e0a4-45bc-a17e-1b6399e82ed6","system_id":"levelo_inurba_marseille","lat":43.28288,"lon":5.35068,"is_reserved":false,"is_disabled":false,"rental_uris":{"android":"levelo://app?vid=e9508747-e0a4-45bc-a17e-1b6399e82ed6","ios":"levelo://app?vid=e9508747-e0a4-45bc-a17e-1b6399e82ed6"},"vehicle_type_id":"4","last_reported":1691165280,"current_range_meters":17200,"station_id":"ce4bhbp2rcd13ifvqerg","pricing_plan_id":"free"},{"bike_id":"e986ad85-ad5c-45f0-a1c9-b0b59009cd04","system_id":"levelo_inurba_marseille","lat":43.2829,"lon":5.35054,"is_reserved":false,"is_disabled":false,"rental_uris":{"android":"levelo://app?vid=e986ad85-ad5c-45f0-a1c9-b0b59009cd04","ios":"levelo://app?vid=e986ad85-ad5c-45f0-a1c9-b0b59009cd04"},"vehicle_type_id":"4","last_reported":1691165280,"current_range_meters":30800,"station_id":"ce4bhbp2rcd13ifvqerg","pricing_plan_id":"free"},{"bike_id":"ef690f2f-eebd-4af7-92e9-7e3bcee85238","system_id":"levelo_inurba_marseille","lat":43.28284,"lon":5.35068,"is_reserved":false,"is_disabled":false,"rental_uris":{"android":"levelo://app?vid=ef690f2f-eebd-4af7-92e9-7e3bcee85238","ios":"levelo://app?vid=ef690f2f-eebd-4af7-92e9-7e3bcee85238"},"vehicle_type_id":"4","last_reported":1691165280,"current_range_meters":17200,"station_id":"ce4bhbp2rcd13ifvqerg","pricing_plan_id":"free"},{"bike_id":"e291fc32-24e0-4551-baa8-9b95ed0a2173","system_id":"levelo_inurba_marseille","lat":43.28281,"lon":5.35063,"is_reserved":false,"is_disabled":false,"rental_uris":{"android":"levelo://app?vid=e291fc32-24e0-4551-baa8-9b95ed0a2173","ios":"levelo://app?vid=e291fc32-24e0-4551-baa8-9b95ed0a2173"},"vehicle_type_id":"4","last_reported":1691165280,"current_range_meters":31200,"station_id":"ce4bhbp2rcd13ifvqerg","pricing_plan_id":"free"},{"bike_id":"3aec6651-83ba-4100-bdb2-734b7892c068","system_id":"levelo_inurba_marseille","lat":43.28277,"lon":5.35072,"is_reserved":false,"is_disabled":false,"rental_uris":{"android":"levelo://app?vid=3aec6651-83ba-4100-bdb2-734b7892c068","ios":"levelo://app?vid=3aec6651-83ba-4100-bdb2-734b7892c068"},"vehicle_type_id":"4","last_reported":1691165280,"current_range_meters":31200,"station_id":"ce4bhbp2rcd13ifvqerg","pricing_plan_id":"free"},{"bike_id":"c27c95bc-5972-4412-b672-0cc3a19681fe","system_id":"levelo_inurba_marseille","lat":43.28277,"lon":5.35069,"is_reserved":false,"is_disabled":false,"rental_uris":{"android":"levelo://app?vid=c27c95bc-5972-4412-b672-0cc3a19681fe","ios":"levelo://app?vid=c27c95bc-5972-4412-b672-0cc3a19681fe"},"vehicle_type_id":"4","last_reported":1691165280,"current_range_meters":30800,"station_id":"ce4bhbp2rcd13ifvqerg","pricing_plan_id":"free"},{"bike_id":"8beca3af-8e68-4c04-816d-eb3664ff1f61","system_id":"levelo_inurba_marseille","lat":43.283502,"lon":5.386471,"is_reserved":false,"is_disabled":false,"rental_uris":{"android":"levelo://app?vid=8beca3af-8e68-4c04-816d-eb3664ff1f61","ios":"levelo://app?vid=8beca3af-8e68-4c04-816d-eb3664ff1f61"},"vehicle_type_id":"4","last_reported":1691165280,"current_range_meters":22800,"station_id":"ce4bh492rcd13ifvqdvg","pricing_plan_id":"free"},{"bike_id":"1b9556c1-1187-4788-8eec-5ccb097d4ef1","system_id":"levelo_inurba_marseille","lat":43.28277,"lon":5.35055,"is_reserved":false,"is_disabled":false,"rental_uris":{"android":"levelo://app?vid=1b9556c1-1187-4788-8eec-5ccb097d4ef1","ios":"levelo://app?vid=1b9556c1-1187-4788-8eec-5ccb097d4ef1"},"vehicle_type_id":"4","last_reported":1691165280,"current_range_meters":25600,"station_id":"ce4bhbp2rcd13ifvqerg","pricing_plan_id":"free"},{"bike_id":"421747cf-b2f2-40e5-9c66-3aa746685318","system_id":"levelo_inurba_marseille","lat":43.28271,"lon":5.35066,"is_reserved":false,"is_disabled":false,"rental_uris":{"android":"levelo://app?vid=421747cf-b2f2-40e5-9c66-3aa746685318","ios":"levelo://app?vid=421747cf-b2f2-40e5-9c66-3aa746685318"},"vehicle_type_id":"4","last_reported":1691165280,"current_range_meters":16800,"station_id":"ce4bhbp2rcd13ifvqerg","pricing_plan_id":"free"},{"bike_id":"1f29dcfd-dc2a-4855-ae18-63fad735b264","system_id":"levelo_inurba_marseille","lat":43.28269,"lon":5.3507,"is_reserved":false,"is_disabled":false,"rental_uris":{"android":"levelo://app?vid=1f29dcfd-dc2a-4855-ae18-63fad735b264","ios":"levelo://app?vid=1f29dcfd-dc2a-4855-ae18-63fad735b264"},"vehicle_type_id":"4","last_reported":1691165280,"current_range_meters":26800,"station_id":"ce4bhbp2rcd13ifvqerg","pricing_plan_id":"free"},{"bike_id":"9f149241-a706-4d60-8917-755c6a8e6981","system_id":"levelo_inurba_marseille","lat":43.28269,"lon":5.35069,"is_reserved":false,"is_disabled":false,"rental_uris":{"android":"levelo://app?vid=9f149241-a706-4d60-8917-755c6a8e6981","ios":"levelo://app?vid=9f149241-a706-4d60-8917-755c6a8e6981"},"vehicle_type_id":"4","last_reported":1691165280,"current_range_meters":12400,"station_id":"ce4bhbp2rcd13ifvqerg","pricing_plan_id":"free"},{"bike_id":"0239cf37-243f-4352-a5f2-8aaa5b8fc067","system_id":"levelo_inurba_marseille","lat":43.28271,"lon":5.35061,"is_reserved":false,"is_disabled":false,"rental_uris":{"android":"levelo://app?vid=0239cf37-243f-4352-a5f2-8aaa5b8fc067","ios":"levelo://app?vid=0239cf37-243f-4352-a5f2-8aaa5b8fc067"},"vehicle_type_id":"4","last_reported":1691165280,"current_range_meters":21200,"station_id":"ce4bhbp2rcd13ifvqerg","pricing_plan_id":"free"},