{"last_updated":1725988082,"ttl":30,"version":"2.2","data":{"bikes":[{"bike_id":"7d877363-4448-4b92-8e0a-8d49e7075f50","system_id":"levelo_inurba_marseille","lat":43.27346,"lon":5.36235,"is_reserved":false,"is_disabled":false,"rental_uris":{"android":"levelo://app?vid=7d877363-4448-4b92-8e0a-8d49e7075f50","ios":"levelo://app?vid=7d877363-4448-4b92-8e0a-8d49e7075f50"},"vehicle_type_id":"4","last_reported":1725988082,"current_range_meters":35200,"station_id":"ce4bhbh2rcd13ifvqeo0","pricing_plan_id":"cebpf4jnsgd1na2vs0mg"},{"bike_id":"bbb3d976-3e5d-4afd-b2f0-a1debaa89fae","system_id":"levelo_inurba_marseille","lat":43.29328,"lon":5.41162,"is_reserved":false,"is_disabled":false,"rental_uris":{"android":"levelo://app?vid=bbb3d976-3e5d-4afd-b2f0-a1debaa89fae","ios":"levelo://app?vid=bbb3d976-3e5d-4afd-b2f0-a1debaa89fae"},"vehicle_type_id":"4","last_reported":1725988082,"current_range_meters":25600,"station_id":"","pricing_plan_id":"cebpf4jnsgd1na2vs0mg"},{"bike_id":"95e7fdc8-bf5f-4f9c-aaac-a84bae7d977c","system_id":"levelo_inurba_marseille","lat":43.27074,"lon":5.42282,"is_reserved":false,"is_disabled":false,"rental_uris":{"android":"levelo://app?vid=95e7fdc8-bf5f-4f9c-aaac-a84bae7d977c","ios":"levelo://app?vid=95e7fdc8-bf5f-4f9c-aaac-a84bae7d977c"},"vehicle_type_id":"4","last_reported":1725988082,"current_range_meters":38000,"station_id":"ce4bhk92rcd13ifvqgb0","pricing_plan_id":"cebpf4jnsgd1na2vs0mg"},{"bike_id":"222c27c8-695a-4926-bfd4-7aebbbcb6263","system_id":"levelo_inurba_marseille","lat":43.29574,"lon":5.39961,"is_reserved":false,"is_disabled":false,"rental_uris":{"android":"levelo://app?vid=222c27c8-695a-4926-bfd4-7aebbbcb6263","ios":"levelo://app?vid=222c27c8-695a-4926-bfd4-7aebbbcb6263"},"vehicle_type_id":"4","last_reported":1725988082,"current_range_meters":38800,"station_id":"ce4bh312rcd13ifvqdj0","pricing_plan_id":"cebpf4jnsgd1na2vs0mg"},{"bike_id":"6c3bfa67-465c-40e6-b2e5-e4c616badac9","system_id":"levelo_inurba_marseille","lat":43.3254,"lon":5.41442,"is_reserved":false,"is_disabled":false,"rental_uris":{"android":"levelo://app?vid=6c3bfa67-465c-40e6-b2e5-e4c616badac9","ios":"levelo://app?vid=6c3bfa67-465c-40e6-b2e5-e4c616badac9"},"vehicle_type_id":"4","last_reported":1725988082,"current_range_meters":8400,"station_id":"ce4bhq12rcd13ifvqhhg","pricing_plan_id":"cebpf4jnsgd1na2vs0mg"},{"bike_id":"d75ac907-4e79-4886-8187-9dc067c1491a","system_id":"levelo_inurba_marseille","lat":43.308921,"lon":5.396594,"is_reserved":false,"is_disabled":false,"rental_uris":{"android":"levelo://app?vid=d75ac907-4e79-4886-8187-9dc067c1491a","ios":"levelo://app?vid=d75ac907-4e79-4886-8187-9dc067c1491a"},"vehicle_type_id":"4","last_reported":1725988082,"current_range_meters":38800,"station_id":"ce4bh012rcd13ifvqcv0","pricing_plan_id":"cebpf4jnsgd1na2vs0mg"},{"bike_id":"f34747ce-f309-4326-987e-7bc67d09e8c3","system_id":"levelo_inurba_marseille","lat":43.32289,"lon":5.38259,"is_reserved":false,"is_disabled":false,"rental_uris":{"android":"levelo://app?vid=f34747ce-f309-4326-987e-7bc67d09e8c3","ios":"levelo://app?vid=f34747ce-f309-4326-987e-7bc67d09e8c3"},"vehicle_type_id":"4","last_reported":1725988082,"current_range_meters":36000,"station_id":"ce4bhr12rcd13ifvqhqg","pricing_plan_id":"cebpf4jnsgd1na2vs0mg"},{"bike_id":"962bb7a3-05a7-49bc-9a49-5d193216f960","system_id":"levelo_inurba_marseille","lat":43.31767,"lon":5.38998,"is_reserved":false,"is_disabled":false,"rental_uris":{"android":"levelo://app?vid=962bb7a3-05a7-49bc-9a49-5d193216f960","ios":"levelo://app?vid=962bb7a3-05a7-49bc-9a49-5d193216f960"},"vehicle_type_id":"4","last_reported":1725988082,"current_range_meters":30400,"station_id":"ce4bhqp2rcd13ifvqhng","pricing_plan_id":"cebpf4jnsgd1na2vs0mg"},{"bike_id":"ea5412ad-a33c-408d-97da-78b7dfac20c3","system_id":"levelo_inurba_marseille","lat":43.26213,"lon":5.37445,"is_reserved":false,"is_disabled":false,"rental_uris":{"android":"levelo://app?vid=ea5412ad-a33c-408d-97da-78b7dfac20c3","ios":"levelo://app?vid=ea5412ad-a33c-408d-97da-78b7dfac20c3"},"vehicle_type_id":"4","last_reported":1725988082,"current_range_meters":2000,"station_id":"ce4bhgp2rcd13ifvqfc0","pricing_plan_id":"cebpf4jnsgd1na2vs0mg"},{"bike_id":"3a610c72-f44c-428a-ba87-6ec4a94fc829","system_id":"levelo_inurba_marseille","lat":43.29217,"lon":5.36042,"is_reserved":false,"is_disabled":false,"rental_uris":{"android":"levelo://app?vid=3a610c72-f44c-428a-ba87-6ec4a94fc829","ios":"levelo://app?vid=3a610c72-f44c-428a-ba87-6ec4a94fc829"},"vehicle_type_id":"4","last_reported":1725988082,"current_range_meters":11200,"station_id":"ce4bhbh2rcd13ifvqeqg","pricing_plan_id":"cebpf4jnsgd1na2vs0mg"},{"bike_id":"83856ef0-58e2-4f69-9f15-917a9516b4ad","system_id":"levelo_inurba_marseille","lat":43.2885,"lon":5.39301,"is_reserved":false,"is_disabled":false,"rental_uris":{"android":"levelo://app?vid=83856ef0-58e2-4f69-9f15-917a9516b4ad","ios":"levelo://app?vid=83856ef0-58e2-4f69-9f15-917a9516b4ad"},"vehicle_type_id":"4","last_reported":1725988082,"current_range_meters":36000,"station_id":"ce4bh2p2rcd13ifvqdi0","pricing_plan_id":"cebpf4jnsgd1na2vs0mg"},{"bike_id":"c4ddf7fb-9068-46b3-97ff-de3752ce8d2d","system_id":"levelo_inurba_marseille","lat":43.30135,"lon":5.39874,"is_reserved":false,"is_disabled":false,"rental_uris":{"android":"levelo://app?vid=c4ddf7fb-9068-46b3-97ff-de3752ce8d2d","ios":"levelo://app?vid=c4ddf7fb-9068-46b3-97ff-de3752ce8d2d"},"vehicle_type_id":"4","last_reported":1725988082,"current_range_meters":38800,"station_id":"ce4bh0h2rcd13ifvqd40","pricing_plan_id":"cebpf4jnsgd1na2vs0mg"},{"bike_id":"99383975-d593-4e8f-af56-161b6925a564","system_id":"levelo_inurba_marseille","lat":43.2847,"lon":5.35888,"is_reserved":false,"is_disabled":false,"rental_uris":{"android":"levelo://app?vid=99383975-d593-4e8f-af56-161b6925a564","ios":"levelo://app?vid=99383975-d593-4e8f-af56-161b6925a564"},"vehicle_type_id":"4","last_reported":1725988082,"current_range_meters":2000,"station_id":"ce4bhah2rcd13ifvqei0","pricing_plan_id":"cebpf4jnsgd1na2vs0mg"},{"bike_id":"2781cb8b-38aa-4fd7-8bd8-dfdb823f731b","system_id":"levelo_inurba_marseille","lat":43.28706,"lon":5.39985,"is_reserved":false,"is_disabled":false,"rental_uris":{"android":"levelo://app?vid=2781cb8b-38aa-4fd7-8bd8-dfdb823f731b","ios":"levelo://app?vid=2781cb8b-38aa-4fd7-8bd8-dfdb823f731b"},"vehicle_type_id":"4","last_reported":1725988082,"current_range_meters":4800,"station_id":"ce4bho92rcd13ifvqh3g","pricing_plan_id":"cebpf4jnsgd1na2vs0mg"},{"bike_id":"6ca2c2d6-efff-45bd-9747-2eb2ed42b8bf","system_id":"levelo_inurba_marseille","lat":43.28078,"lon":5.39649,"is_reserved":false,"is_disabled":false,"rental_uris":{"android":"levelo://app?vid=6ca2c2d6-efff-45bd-9747-2eb2ed42b8bf","ios":"levelo://app?vid=6ca2c2d6-efff-45bd-9747-2eb2ed42b8bf"},"vehicle_type_id":"4","last_reported":1725988082,"current_range_meters":25600,"station_id":"ce4bho12rcd13ifvqh2g","pricing_plan_id":"cebpf4jnsgd1na2vs0mg"},{"bike_id":"b93bda09-d810-4833-8722-d45c84419c24","system_id":"levelo_inurba_marseille","lat":43.25826,"lon":5.3944,"is_reserved":false,"is_disabled":false,"rental_uris":{"android":"levelo://app?vid=b93bda09-d810-4833-8722-d45c84419c24","ios":"levelo://app?vid=b93bda09-d810-4833-8722-d45c84419c24"},"vehicle_type_id":"4","last_reported":1725988082,"current_range_meters":4400,"station_id":"ce4bhip2rcd13ifvqft0","pricing_plan_id":"cebpf4jnsgd1na2vs0mg"},{"bike_id":"f4b95bb9-9a0a-4b39-9dc1-9bbec9140bb8","system_id":"levelo_inurba_marseille","lat":43.26942,"lon":5.40204,"is_reserved":false,"is_disabled":false,"rental_uris":{"android":"levelo://app?vid=f4b95bb9-9a0a-4b39-9dc1-9bbec9140bb8","ios":"levelo://app?vid=f4b95bb9-9a0a-4b39-9dc1-9bbec9140bb8"},"vehicle_type_id":"4","last_reported":1725988082,"current_range_meters":27600,"station_id":"cjm6bp8fraef2m0cb0m0","pricing_plan_id":"cebpf4jnsgd1na2vs0mg"},{"bike_id":"6c02a711-e0d4-4009-9d44-fba5428f55b2","system_id":"levelo_inurba_marseille","lat":43.23196,"lon":5.35547,"is_reserved":false,"is_disabled":false,"rental_uris":{"android":"levelo://app?vid=6c02a711-e0d4-4009-9d44-fba5428f55b2","ios":"levelo://app?vid=6c02a711-e0d4-4009-9d44-fba5428f55b2"},"vehicle_type_id":"4","last_reported":1725988082,"current_range_meters":8400,"station_id":"ce4bhu92rcd13ifvqi70","pricing_plan_id":"cebpf4jnsgd1na2vs0mg"},{"bike_id":"9e6532cf-419a-4ec7-bb94-41f3c17b443b","system_id":"levelo_inurba_marseille","lat":43.31526,"lon":5.38028,"is_reserved":false,"is_disabled":false,"rental_uris":{"android":"levelo://app?vid=9e6532cf-419a-4ec7-bb94-41f3c17b443b","ios":"levelo://app?vid=9e6532cf-419a-4ec7-bb94-41f3c17b443b"},"vehicle_type_id":"4","last_reported":1725988082,"current_range_meters":16000,"station_id":"ce4bhsp2rcd13ifvqi50","pricing_plan_id":"cebpf4jnsgd1na2vs0mg"},{"bike_id":"e476a43d-0d2f-4d49-aec0-f11ace9a0a73","system_id":"levelo_inurba_marseille","lat":43.25722,"lon":5.41107,"is_reserved":false,"is_disabled":false,"rental_uris":{"android":"levelo://app?vid=e476a43d-0d2f-4d49-aec0-f11ace9a0a73","ios":"levelo://app?vid=e476a43d-0d2f-4d49-aec0-f11ace9a0a73"},"vehicle_type_id":"4","last_reported":1725988082,"current_range_meters":10000,"station_id":"ce4bhkp2rcd13ifvqgd0","pricing_plan_id":"cebpf4jnsgd1na2vs0mg"},{"bike_id":"54397917-1902-40ca-9c03-02abd1694fe7","system_id":"levelo_inurba_marseille","lat":43.24169,"lon":5.36393,"is_reserved":false,"is_disabled":false,"rental_uris":{"android":"levelo://app?vid=54397917-1902-40ca-9c03-02abd1694fe7","ios":"levelo://app?vid=54397917-1902-40ca-9c03-02abd1694fe7"},"vehicle_type_id":"4","last_reported":1725988082,"current_range_meters":17200,"station_id":"cpo36qri1sfpv3e86is0","pricing_plan_id":"cebpf4jnsgd1na2vs0mg"},{"bike_id":"aa683f29-f91a-49d9-a97e-a2e16fade274","system_id":"levelo_inurba_marseille","lat":43.24656,"lon":5.38892,"is_reserved":false,"is_disabled":false,"rental_uris":{"android":"levelo://app?vid=aa683f29-f91a-49d9-a97e-a2e16fade274","ios":"levelo://app?vid=aa683f29-f91a-49d9-a97e-a2e16fade274"},"vehicle_type_id":"4","last_reported":1725988082,"current_range_meters":7200,"station_id":"ce4bhg12rcd13ifvqf60","pricing_plan_id":"cebpf4jnsgd1na2vs0mg"},{"bike_id":"5405dae3-a811-48d2-ac8b-82e87d7e41eb","system_id":"levelo_inurba_marseille","lat":43.29012,"lon":5.35623,"is_reserved":false,"is_disabled":false,"rental_uris":{"android":"levelo://app?vid=5405dae3-a811-48d2-ac8b-82e87d7e41eb","ios":"levelo://app?vid=5405dae3-a811-48d2-ac8b-82e87d7e41eb"},"vehicle_type_id":"4","last_reported":1725988082,"current_range_meters":19600,"station_id":"ce4bhb92rcd13ifvqen0","pricing_plan_id":"cebpf4jnsgd1na2vs0mg"},{"bike_id":"b59d6bb8-aefb-4db8-b3f2-f169f342ddcd","system_id":"levelo_inurba_marseille","lat":43.32364,"lon":5.38889,"is_reserved":false,"is_disabled":false,"rental_uris":{"android":"levelo://app?vid=b59d6bb8-aefb-4db8-b3f2-f169f342ddcd","ios":"levelo://app?vid=b59d6bb8-aefb-4db8-b3f2-f169f342ddcd"},"vehicle_type_id":"4","last_reported":1725988082,"current_range_meters":7200,"station_id":"ce4bhqp2rcd13ifvqhog","pricing_plan_id":"cebpf4jnsgd1na2vs0mg"},{"bike_id":"e7856795-7181-4708-965e-28de31ac7220","system_id":"levelo_inurba_marseille","lat":43.31722,"lon":5.42393,"is_reserved":false,"is_disabled":false,"rental_uris":{"android":"levelo://app?vid=e7856795-7181-4708-965e-28de31ac7220","ios":"levelo://app?vid=e7856795-7181-4708-965e-28de31ac7220"},"vehicle_type_id":"4","last_reported":1725988082,"current_range_meters":30800,"station_id":"ce4bhp92rcd13ifvqhbg","pricing_plan_id":"cebpf4jnsgd1na2vs0mg"},{"bike_id":"d94cf20d-19e4-4d88-bbb3-72b7a4c6baa3","system_id":"levelo_inurba_marseille","lat":43.32288,"lon":5.38273,"is_reserved":false,"is_disabled":false,"rental_uris":{"android":"levelo://app?vid=d94cf20d-19e4-4d88-bbb3-72b7a4c6baa3","ios":"levelo://app?vid=d94cf20d-19e4-4d88-bbb3-72b7a4c6baa3"},"vehicle_type_id":"4","last_reported":1725988082,"current_range_meters":35600,"station_id":"ce4bhr12rcd13ifvqhqg","pricing_plan_id":"cebpf4jnsgd1na2vs0mg"},{"bike_id":"a1e7b2cc-2899-49f5-888a-a287caa6983d","system_id":"levelo_inurba_marseille","lat":43.29262,"lon":5.40902,"is_reserved":false,"is_disabled":false,"rental_uris":{"android":"levelo://app?vid=a1e7b2cc-2899-49f5-888a-a287caa6983d","ios":"levelo://app?vid=a1e7b2cc-2899-49f5-888a-a287caa6983d"},"vehicle_type_id":"4","last_reported":1725988082,"current_range_meters":6800,"station_id":"ce4bh192rcd13ifvqdc0","pricing_plan_id":"cebpf4jnsgd1na2vs0mg"},{"bike_id":"0349538c-e53e-43a7-a4ea-50844ea05ce8","system_id":"levelo_inurba_marseille","lat":43.31078,"lon":5.42427,"is_reserved":false,"is_disabled":false,"rental_uris":{"android":"levelo://app?vid=0349538c-e53e-43a7-a4ea-50844ea05ce8","ios":"levelo://app?vid=0349538c-e53e-43a7-a4ea-50844ea05ce8"},"vehicle_type_id":"4","last_reported":1725988082,"current_range_meters":6000,"station_id":"ce4bhp92rcd13ifvqhag","pricing_plan_id":"cebpf4jnsgd1na2vs0mg"},{"bike_id":"d88f2e52-8c81-4ab3-9963-8c1e58946083","system_id":"levelo_inurba_marseille","lat":43.28423,"lon":5.34981,"is_reserved":false,"is_disabled":false,"rental_uris":{"android":"levelo://app?vid=d88f2e52-8c81-4ab3-9963-8c1e58946083","ios":"levelo://app?vid=d88f2e52-8c81-4ab3-9963-8c1e58946083"},"vehicle_type_id":"4","last_reported":1725988082,"current_range_meters":38800,"station_id":"ce4bhbh2rcd13ifvqepg","pricing_plan_id":"cebpf4jnsgd1na2vs0mg"},{"bike_id":"2e23597d-e77d-486c-a95e-6cdb71b1bd53","system_id":"levelo_inurba_marseille","lat":43.32368,"lon":5.38875,"is_reserved":false,"is_disabled":false,"rental_uris":{"android":"levelo://app?vid=2e23597d-e77d-486c-a95e-6cdb71b1bd53","ios":"levelo://app?vid=2e23597d-e77d-486c-a95e-6cdb71b1bd53"},"vehicle_type_id":"4","last_reported":1725988082,"current_range_meters":13600,"station_id":"ce4bhqp2rcd13ifvqhog","pricing_plan_id":"cebpf4jnsgd1na2vs0mg"},{"bike_id":"530b0716-a0de-4a4c-a61c-529b6a9a87aa","system_id":"levelo_inurba_marseille","lat":43.27376,"lon":5.36257,"is_reserved":false,"is_disabled":false,"rental_uris":{"android":"levelo://app?vid=530b0716-a0de-4a4c-a61c-529b6a9a87aa","ios":"levelo://app?vid=530b0716-a0de-4a4c-a61c-529b6a9a87aa"},"vehicle_type_id":"4","last_reported":1725988082,"current_range_meters":2800,"station_id":"ce4bhbh2rcd13ifvqeo0","pricing_plan_id":"cebpf4jnsgd1na2vs0mg"},{"bike_id":"a0f777fd-2b64-4158-818c-6e3cb77d56a3","system_id":"levelo_inurba_marseille","lat":43.30796,"lon":5.43522,"is_reserved":false,"is_disabled":false,"rental_uris":{"android":"levelo://app?vid=a0f777fd-2b64-4158-818c-6e3cb77d56a3","ios":"levelo://app?vid=a0f777fd-2b64-4158-818c-6e3cb77d56a3"},"vehicle_type_id":"4","last_reported":1725988082,"current_range_meters":17200,"station_id":"ce4bhph2rcd13ifvqheg","pricing_plan_id":"cebpf4jnsgd1na2vs0mg"},{"bike_id":"d6a9f636-732b-4505-ae50-e7aa8ffcc579","system_id":"levelo_inurba_marseille","lat":43.30892,"lon":5.39656,"is_reserved":false,"is_disabled":false,"rental_uris":{"android":"levelo://app?vid=d6a9f636-732b-4505-ae50-e7aa8ffcc579","ios":"levelo://app?vid=d6a9f636-732b-4505-ae50-e7aa8ffcc579"},"vehicle_type_id":"4","last_reported":1725988082,"current_range_meters":12400,"station_id":"ce4bh012rcd13ifvqcv0","pricing_plan_id":"cebpf4jnsgd1na2vs0mg"},{"bike_id":"4d3d0e82-a6b5-431f-9ac9-d2fa53bd9fb8","system_id":"levelo_inurba_marseille","lat":43.295531,"lon":5.422912,"is_reserved":false,"is_disabled":false,"rental_uris":{"android":"levelo://app?vid=4d3d0e82-a6b5-431f-9ac9-d2fa53bd9fb8","ios":"levelo://app?vid=4d3d0e82-a6b5-431f-9ac9-d2fa53bd9fb8"},"vehicle_type_id":"4","last_reported":1725988082,"current_range_meters":38000,"station_id":"ce4bhph2rcd13ifvqhdg","pricing_plan_id":"cebpf4jnsgd1na2vs0mg"},{"bike_id":"6ac0385a-09c3-4112-8eb3-5351bb9c2a07","system_id":"levelo_inurba_marseille","lat":43.28462,"lon":5.3589,"is_reserved":false,"is_disabled":false,"rental_uris":{"android":"levelo://app?vid=6ac0385a-09c3-4112-8eb3-5351bb9c2a07","ios":"levelo://app?vid=6ac0385a-09c3-4112-8eb3-5351bb9c2a07"},"vehicle_type_id":"4","last_reported":1725988082,"current_range_meters":3200,"station_id":"ce4bhah2rcd13ifvqei0","pricing_plan_id":"cebpf4jnsgd1na2vs0mg"},{"bike_id":"b77681a4-4ed0-4be8-bbd7-2dc7c4cd333c","system_id":"levelo_inurba_marseille","lat":43.31764,"lon":5.39021,"is_reserved":false,"is_disabled":false,"rental_uris":{"android":"levelo://app?vid=b77681a4-4ed0-4be8-bbd7-2dc7c4cd333c","ios":"levelo://app?vid=b77681a4-4ed0-4be8-bbd7-2dc7c4cd333c"},"vehicle_type_id":"4","last_reported":1725988082,"current_range_meters":32800,"station_id":"ce4bhqp2rcd13ifvqhng","pricing_plan_id":"cebpf4jnsgd1na2vs0mg"},{"bike_id":"eb44b977-1582-4dfb-a426-9e21142e357d","system_id":"levelo_inurba_marseille","lat":43.27191,"lon":5.40996,"is_reserved":false,"is_disabled":false,"rental_uris":{"android":"levelo://app?vid=eb44b977-1582-4dfb-a426-9e21142e357d","ios":"levelo://app?vid=eb44b977-1582-4dfb-a426-9e21142e357d"},"vehicle_type_id":"4","last_reported":1725988082,"current_range_meters":28000,"station_id":"ce4bhl12rcd13ifvqgf0","pricing_plan_id":"cebpf4jnsgd1na2vs0mg"},{"bike_id":"b7f41d6f-4b27-4fa1-b7f1-d395fe8a5d40","system_id":"levelo_inurba_marseille","lat":43.279458,"lon":5.410406,"is_reserved":false,"is_disabled":false,"rental_uris":{"android":"levelo://app?vid=b7f41d6f-4b27-4fa1-b7f1-d395fe8a5d40","ios":"levelo://app?vid=b7f41d6f-4b27-4fa1-b7f1-d395fe8a5d40"},"vehicle_type_id":"4","last_reported":1725988082,"current_range_meters":24400,"station_id":"ce4bhnp2rcd13ifvqh0g","pricing_plan_id":"cebpf4jnsgd1na2vs0mg"},{"bike_id":"044c6c19-928b-49be-810d-1a1364296b66","system_id":"levelo_inurba_marseille","lat":43.27811,"lon":5.40711,"is_reserved":false,"is_disabled":false,"rental_uris":{"android":"levelo://app?vid=044c6c19-928b-49be-810d-1a1364296b66","ios":"levelo://app?vid=044c6c19-928b-49be-810d-1a1364296b66"},"vehicle_type_id":"4","last_reported":1725988082,"current_range_meters":23200,"station_id":"ce4bhnh2rcd13ifvqgtg","pricing_plan_id":"cebpf4jnsgd1na2vs0mg"},{"bike_id":"e953970b-d8bb-448f-a6ef-65df4eafb7f2","system_id":"levelo_inurba_marseille","lat":43.25097,"lon":5.39527,"is_reserved":false,"is_disabled":false,"rental_uris":{"android":"levelo://app?vid=e953970b-d8bb-448f-a6ef-65df4eafb7f2","ios":"levelo://app?vid=e953970b-d8bb-448f-a6ef-65df4eafb7f2"},"vehicle_type_id":"4","last_reported":1725988082,"current_range_meters":6000,"station_id":"ce4bhm12rcd13ifvqgkg","pricing_plan_id":"cebpf4jnsgd1na2vs0mg"},{"bike_id":"2574ab51-b598-43d2-ab4f-1b8f8c664d6f","system_id":"levelo_inurba_marseille","lat":43.311594,"lon":5.386031,"is_reserved":false,"is_disabled":false,"rental_uris":{"android":"levelo://app?vid=2574ab51-b598-43d2-ab4f-1b8f8c664d6f","ios":"levelo://app?vid=2574ab51-b598-43d2-ab4f-1b8f8c664d6f"},"vehicle_type_id":"4","last_reported":1725988082,"current_range_meters":14400,"station_id":"ce4bgv12rcd13ifvqcp0","pricing_plan_id":"cebpf4jnsgd1na2vs0mg"},{"bike_id":"fd8d8a6c-f985-45da-a7aa-0a1be3eba506","system_id":"levelo_inurba_marseille","lat":43.2698,"lon":5.39856,"is_reserved":false,"is_disabled":false,"rental_uris":{"android":"levelo://app?vid=fd8d8a6c-f985-45da-a7aa-0a1be3eba506","ios":"levelo://app?vid=fd8d8a6c-f985-45da-a7aa-0a1be3eba506"},"vehicle_type_id":"4","last_reported":1725988082,"current_range_meters":28400,"station_id":"","pricing_plan_id":"cebpf4jnsgd1na2vs0mg"},{"bike_id":"e05c8849-7da7-4b3d-9ec5-acf2037a832b","system_id":"levelo_inurba_marseille","lat":43.28285,"lon":5.35073,"is_reserved":false,"is_disabled":false,"rental_uris":{"android":"levelo://app?vid=e05c8849-7da7-4b3d-9ec5-acf2037a832b","ios":"levelo://app?vid=e05c8849-7da7-4b3d-9ec5-acf2037a832b"},"vehicle_type_id":"4","last_reported":1725988082,"current_range_meters":13600,"station_id":"ce4bhbp2rcd13ifvqerg","pricing_plan_id":"cebpf4jnsgd1na2vs0mg"},{"bike_id":"5d352641-3593-4267-b2f1-8ab039017e05","system_id":"levelo_inurba_marseille","lat":43.23196,"lon":5.35554,"is_reserved":false,"is_disabled":false,"rental_uris":{"android":"levelo://app?vid=5d352641-3593-4267-b2f1-8ab039017e05","ios":"levelo://app?vid=5d352641-3593-4267-b2f1-8ab039017e05"},"vehicle_type_id":"4","last_reported":1725988082,"current_range_meters":3600,"station_id":"ce4bhu92rcd13ifvqi70","pricing_plan_id":"cebpf4jnsgd1na2vs0mg"},{"bike_id":"47dd1fda-477a-43ea-9311-34ffe792faed","system_id":"levelo_inurba_marseille","lat":43.28732,"lon":5.36089,"is_reserved":false,"is_disabled":false,"rental_uris":{"android":"levelo://app?vid=47dd1fda-477a-43ea-9311-34ffe792faed","ios":"levelo://app?vid=47dd1fda-477a-43ea-9311-34ffe792faed"},"vehicle_type_id":"4","last_reported":1725988082,"current_range_meters":36400,"station_id":"cki0cbj6b192h4jlfktg","pricing_plan_id":"cebpf4jnsgd1na2vs0mg"},{"bike_id":"b54ec3c6-9ea2-4108-a2da-aaeba3a5e9b5","system_id":"levelo_inurba_marseille","lat":43.2558,"lon":5.38233,"is_reserved":false,"is_disabled":false,"rental_uris":{"android":"levelo://app?vid=b54ec3c6-9ea2-4108-a2da-aaeba3a5e9b5","ios":"levelo://app?vid=b54ec3c6-9ea2-4108-a2da-aaeba3a5e9b5"},"vehicle_type_id":"4","last_reported":1725988082,"current_range_meters":25200,"station_id":"ce4bhih2rcd13ifvqfs0","pricing_plan_id":"cebpf4jnsgd1na2vs0mg"},{"bike_id":"29f1cbac-77e4-4249-a0a2-be996311df9b","system_id":"levelo_inurba_marseille","lat":43.29725,"lon":5.37886,"is_reserved":false,"is_disabled":false,"rental_uris":{"android":"levelo://app?vid=29f1cbac-77e4-4249-a0a2-be996311df9b","ios":"levelo://app?vid=29f1cbac-77e4-4249-a0a2-be996311df9b"},"vehicle_type_id":"4","last_reported":1725988082,"current_range_meters":12800,"station_id":"","pricing_plan_id":"cebpf4jnsgd1na2vs0mg"},{"bike_id":"7e795d14-f1b5-4f44-b912-ea051c27c09c","system_id":"levelo_inurba_marseille","lat":43.3042,"lon":5.41279,"is_reserved":false,"is_disabled":false,"rental_uris":{"android":"levelo://app?vid=7e795d14-f1b5-4f44-b912-ea051c27c09c","ios":"levelo://app?vid=7e795d14-f1b5-4f44-b912-ea051c27c09c"},"vehicle_type_id":"4","last_reported":1725988082,"current_range_meters":7200,"station_id":"ce4bhop2rcd13ifvqh8g","pricing_plan_id":"cebpf4jnsgd1na2vs0mg"},{"bike_id":"723c073e-5c6a-4fb9-a382-e8ea44a73076","system_id":"levelo_inurba_marseille","lat":43.29554,"lon":5.42287,"is_reserved":false,"is_disabled":false,"rental_uris":{"android":"levelo://app?vid=723c073e-5c6a-4fb9-a382-e8ea44a73076","ios":"levelo://app?vid=723c073e-5c6a-4fb9-a382-e8ea44a73076"},"vehicle_type_id":"4","last_reported":1725988082,"current_range_meters":6000,"station_id":"ce4bhph2rcd13ifvqhdg","pricing_plan_id":"cebpf4jnsgd1na2vs0mg"},{"bike_id":"2aad4b02-945c-4d35-b3a5-85b3d17dc503","system_id":"levelo_inurba_marseille","lat":43.32294,"lon":5.38253,"is_reserved":false,"is_disabled":false,"rental_uris":{"android":"levelo://app?vid=2aad4b02-945c-4d35-b3a5-85b3d17dc503","ios":"levelo://app?vid=2aad4b02-945c-4d35-b3a5-85b3d17dc503"},"vehicle_type_id":"4","last_reported":1725988082,"current_range_meters":8800,"station_id":"ce4bhr12rcd13ifvqhqg","pricing_plan_id":"cebpf4jnsgd1na2vs0mg"},{"bike_id":"128c29a0-042f-448a-bc07-336e5ff9fcaa","system_id":"levelo_inurba_marseille","lat":43.310783,"lon":5.383572,"is_reserved":false,"is_disabled":false,"rental_uris":{"android":"levelo://app?vid=128c29a0-042f-448a-bc07-336e5ff9fcaa","ios":"levelo://app?vid=128c29a0-042f-448a-bc07-336e5ff9fcaa"},"vehicle_type_id":"4","last_reported":1725988082,"current_range_meters":14800,"station_id":"ce4bgv92rcd13ifvqcr0","pricing_plan_id":"cebpf4jnsgd1na2vs0mg"},{"bike_id":"6073408b-b4fc-4eeb-ac9e-351084b1cf63","system_id":"levelo_inurba_marseille","lat":43.24817,"lon":5.37466,"is_reserved":false,"is_disabled":false,"rental_uris":{"android":"levelo://app?vid=6073408b-b4fc-4eeb-ac9e-351084b1cf63","ios":"levelo://app?vid=6073408b-b4fc-4eeb-ac9e-351084b1cf63"},"vehicle_type_id":"4","last_reported":1725988082,"current_range_meters":3200,"station_id":"ce4bhgh2rcd13ifvqfb0","pricing_plan_id":"cebpf4jnsgd1na2vs0mg"},{"bike_id":"9fa182c1-07ad-4705-8c86-26e61dfb3c0e","system_id":"levelo_inurba_marseille","lat":43.26688,"lon":5.38273,"is_reserved":false,"is_disabled":false,"rental_uris":{"android":"levelo://app?vid=9fa182c1-07ad-4705-8c86-26e61dfb3c0e","ios":"levelo://app?vid=9fa182c1-07ad-4705-8c86-26e61dfb3c0e"},"vehicle_type_id":"4","last_reported":1725988082,"current_range_meters":38800,"station_id":"ce4bhg92rcd13ifvqf90","pricing_plan_id":"cebpf4jnsgd1na2vs0mg"},{"bike_id":"f1009423-44b9-46e0-916f-a90ebc93de0a","system_id":"levelo_inurba_marseille","lat":43.31853,"lon":5.37381,"is_reserved":false,"is_disabled":false,"rental_uris":{"android":"levelo://app?vid=f1009423-44b9-46e0-916f-a90ebc93de0a","ios":"levelo://app?vid=f1009423-44b9-46e0-916f-a90ebc93de0a"},"vehicle_type_id":"4","last_reported":1725988082,"current_range_meters":16000,"station_id":"ce4bgup2rcd13ifvqco0","pricing_plan_id":"cebpf4jnsgd1na2vs0mg"},{"bike_id":"d479c876-2159-43b6-a8cf-685fded57ab7","system_id":"levelo_inurba_marseille","lat":43.3237,"lon":5.38882,"is_reserved":false,"is_disabled":false,"rental_uris":{"android":"levelo://app?vid=d479c876-2159-43b6-a8cf-685fded57ab7","ios":"levelo://app?vid=d479c876-2159-43b6-a8cf-685fded57ab7"},"vehicle_type_id":"4","last_reported":1725988082,"current_range_meters":8800,"station_id":"ce4bhqp2rcd13ifvqhog","pricing_plan_id":"cebpf4jnsgd1na2vs0mg"},{"bike_id":"5b1d2702-87a4-4b15-a845-2b8ecd95da07","system_id":"levelo_inurba_marseille","lat":43.29259,"lon":5.38436,"is_reserved":false,"is_disabled":false,"rental_uris":{"android":"levelo://app?vid=5b1d2702-87a4-4b15-a845-2b8ecd95da07","ios":"levelo://app?vid=5b1d2702-87a4-4b15-a845-2b8ecd95da07"},"vehicle_type_id":"4","last_reported":1725988082,"current_range_meters":16400,"station_id":"ce4bh692rcd13ifvqea0","pricing_plan_id":"cebpf4jnsgd1na2vs0mg"},{"bike_id":"70e600d1-8491-4a81-ab80-49f68935e4fc","system_id":"levelo_inurba_marseille","lat":43.28464,"lon":5.35879,"is_reserved":false,"is_disabled":false,"rental_uris":{"android":"levelo://app?vid=70e600d1-8491-4a81-ab80-49f68935e4fc","ios":"levelo://app?vid=70e600d1-8491-4a81-ab80-49f68935e4fc"},"vehicle_type_id":"4","last_reported":1725988082,"current_range_meters":26800,"station_id":"ce4bhah2rcd13ifvqei0","pricing_plan_id":"cebpf4jnsgd1na2vs0mg"},{"bike_id":"e9325df9-e72f-4573-a615-b79136d0be44","system_id":"levelo_inurba_marseille","lat":43.27818,"lon":5.40714,"is_reserved":false,"is_disabled":false,"rental_uris":{"android":"levelo://app?vid=e9325df9-e72f-4573-a615-b79136d0be44","ios":"levelo://app?vid=e9325df9-e72f-4573-a615-b79136d0be44"},"vehicle_type_id":"4","last_reported":1725988082,"current_range_meters":10000,"station_id":"ce4bhnh2rcd13ifvqgtg","pricing_plan_id":"cebpf4jnsgd1na2vs0mg"},{"bike_id":"afcff164-dc45-4c40-889a-436643a8419a","system_id":"levelo_inurba_marseille","lat":43.28459,"lon":5.35875,"is_reserved":false,"is_disabled":false,"rental_uris":{"android":"levelo://app?vid=afcff164-dc45-4c40-889a-436643a8419a","ios":"levelo://app?vid=afcff164-dc45-4c40-889a-436643a8419a"},"vehicle_type_id":"4","last_reported":1725988082,"current_range_meters":28400,"station_id":"ce4bhah2rcd13ifvqei0","pricing_plan_id":"cebpf4jnsgd1na2vs0mg"},{"bike_id":"5fd688c3-34e5-43d3-9141-63b966a3fd7b","system_id":"levelo_inurba_marseille","lat":43.30942,"lon":5.40144,"is_reserved":false,"is_disabled":false,"rental_uris":{"android":"levelo://app?vid=5fd688c3-34e5-43d3-9141-63b966a3fd7b","ios":"levelo://app?vid=5fd688c3-34e5-43d3-9141-63b966a3fd7b"},"vehicle_type_id":"4","last_reported":1725988082,"current_range_meters":6000,"station_id":"ce4bgvp2rcd13ifvqct0","pricing_plan_id":"cebpf4jnsgd1na2vs0mg"},{"bike_id":"8bc18d32-af52-44ff-8773-3ed42bb3c030","system_id":"levelo_inurba_marseille","lat":43.29197,"lon":5.39321,"is_reserved":false,"is_disabled":false,"rental_uris":{"android":"levelo://app?vid=8bc18d32-af52-44ff-8773-3ed42bb3c030","ios":"levelo://app?vid=8bc18d32-af52-44ff-8773-3ed42bb3c030"},"vehicle_type_id":"4","last_reported":1725988082,"current_range_meters":3200,"station_id":"ce4bh192rcd13ifvqdd0","pricing_plan_id":"cebpf4jnsgd1na2vs0mg"},{"bike_id":"0380afc7-0aba-458e-8142-c931c8308351","system_id":"levelo_inurba_marseille","lat":43.255325,"lon":5.409479,"is_reserved":false,"is_disabled":false,"rental_uris":{"android":"levelo://app?vid=0380afc7-0aba-458e-8142-c931c8308351","ios":"levelo://app?vid=0380afc7-0aba-458e-8142-c931c8308351"},"vehicle_type_id":"4","last_reported":1725988082,"current_range_meters":16800,"station_id":"ce4bhkp2rcd13ifvqgd0","pricing_plan_id":"cebpf4jnsgd1na2vs0mg"},{"bike_id":"4b740380-435b-4ce9-9b96-3da5fb37bac6","system_id":"levelo_inurba_marseille","lat":43.30959,"lon":5.40036,"is_reserved":false,"is_disabled":false,"rental_uris":{"android":"levelo://app?vid=4b740380-435b-4ce9-9b96-3da5fb37bac6","ios":"levelo://app?vid=4b740380-435b-4ce9-9b96-3da5fb37bac6"},"vehicle_type_id":"4","last_reported":1725988082,"current_range_meters":12000,"station_id":"ce4bhpp2rcd13ifvqhgg","pricing_plan_id":"cebpf4jnsgd1na2vs0mg"},{"bike_id":"7b2b6aa9-d9ad-475c-a16f-abdf3eec6d77","system_id":"levelo_inurba_marseille","lat":43.229276,"lon":5.353735,"is_reserved":false,"is_disabled":false,"rental_uris":{"android":"levelo://app?vid=7b2b6aa9-d9ad-475c-a16f-abdf3eec6d77","ios":"levelo://app?vid=7b2b6aa9-d9ad-475c-a16f-abdf3eec6d77"},"vehicle_type_id":"4","last_reported":1725988082,"current_range_meters":23200,"station_id":"","pricing_plan_id":"cebpf4jnsgd1na2vs0mg"},{"bike_id":"2c8e647e-6645-4fce-b27e-a37e68dfb606","system_id":"levelo_inurba_marseille","lat":43.31327,"lon":5.39705,"is_reserved":false,"is_disabled":false,"rental_uris":{"android":"levelo://app?vid=2c8e647e-6645-4fce-b27e-a37e68dfb606","ios":"levelo://app?vid=2c8e647e-6645-4fce-b27e-a37e68dfb606"},"vehicle_type_id":"4","last_reported":1725988082,"current_range_meters":38800,"station_id":"ce4bgvp2rcd13ifvqcu0","pricing_plan_id":"cebpf4jnsgd1na2vs0mg"},{"bike_id":"020ab2c2-8dba-49f7-8b1f-88f08634fa8f","system_id":"levelo_inurba_marseille","lat":43.28427,"lon":5.34986,"is_reserved":false,"is_disabled":false,"rental_uris":{"android":"levelo://app?vid=020ab2c2-8dba-49f7-8b1f-88f08634fa8f","ios":"levelo://app?vid=020ab2c2-8dba-49f7-8b1f-88f08634fa8f"},"vehicle_type_id":"4","last_reported":1725988082,"current_range_meters":34800,"station_id":"ce4bhbh2rcd13ifvqepg","pricing_plan_id":"cebpf4jnsgd1na2vs0mg"},{"bike_id":"7f4ea667-56df-4b26-bd46-3e71bc3cc245","system_id":"levelo_inurba_marseille","lat":43.29314,"lon":5.35553,"is_reserved":false,"is_disabled":false,"rental_uris":{"android":"levelo://app?vid=7f4ea667-56df-4b26-bd46-3e71bc3cc245","ios":"levelo://app?vid=7f4ea667-56df-4b26-bd46-3e71bc3cc245"},"vehicle_type_id":"4","last_reported":1725988082,"current_range_meters":8000,"station_id":"","pricing_plan_id":"cebpf4jnsgd1na2vs0mg"},{"bike_id":"bb18f2b7-65b6-4095-bdf5-624671fd31fb","system_id":"levelo_inurba_marseille","lat":43.27318,"lon":5.3907,"is_reserved":false,"is_disabled":false,"rental_uris":{"android":"levelo://app?vid=bb18f2b7-65b6-4095-bdf5-624671fd31fb","ios":"levelo://app?vid=bb18f2b7-65b6-4095-bdf5-624671fd31fb"},"vehicle_type_id":"4","last_reported":1725988082,"current_range_meters":12400,"station_id":"ce4bhgp2rcd13ifvqfe0","pricing_plan_id":"cebpf4jnsgd1na2vs0mg"},{"bike_id":"3b163329-75e0-42ce-a395-e2936b5dfbec","system_id":"levelo_inurba_marseille","lat":43.2953,"lon":5.41842,"is_reserved":false,"is_disabled":false,"rental_uris":{"android":"levelo://app?vid=3b163329-75e0-42ce-a395-e2936b5dfbec","ios":"levelo://app?vid=3b163329-75e0-42ce-a395-e2936b5dfbec"},"vehicle_type_id":"4","last_reported":1725988082,"current_range_meters":8000,"station_id":"ce4bhph2rcd13ifvqhdg","pricing_plan_id":"cebpf4jnsgd1na2vs0mg"},{"bike_id":"274be9f5-2464-454d-90ec-af320abf24be","system_id":"levelo_inurba_marseille","lat":43.29273,"lon":5.38445,"is_reserved":false,"is_disabled":false,"rental_uris":{"android":"levelo://app?vid=274be9f5-2464-454d-90ec-af320abf24be","ios":"levelo://app?vid=274be9f5-2464-454d-90ec-af320abf24be"},"vehicle_type_id":"4","last_reported":1725988082,"current_range_meters":4000,"station_id":"ce4bh692rcd13ifvqea0","pricing_plan_id":"cebpf4jnsgd1na2vs0mg"},{"bike_id":"d3c8ea6e-d01d-4d9e-9557-beffc1884ace","system_id":"levelo_inurba_marseille","lat":43.32293,"lon":5.38273,"is_reserved":false,"is_disabled":false,"rental_uris":{"android":"levelo://app?vid=d3c8ea6e-d01d-4d9e-9557-beffc1884ace","ios":"levelo://app?vid=d3c8ea6e-d01d-4d9e-9557-beffc1884ace"},"vehicle_type_id":"4","last_reported":1725988082,"current_range_meters":39200,"station_id":"ce4bhr12rcd13ifvqhqg","pricing_plan_id":"cebpf4jnsgd1na2vs0mg"},{"bike_id":"0aa3eea0-205e-411b-93f0-03a6d12ce70c","system_id":"levelo_inurba_marseille","lat":43.27811,"lon":5.4071,"is_reserved":false,"is_disabled":false,"rental_uris":{"android":"levelo://app?vid=0aa3eea0-205e-411b-93f0-03a6d12ce70c","ios":"levelo://app?vid=0aa3eea0-205e-411b-93f0-03a6d12ce70c"},"vehicle_type_id":"4","last_reported":1725988082,"current_range_meters":27600,"station_id":"ce4bhnh2rcd13ifvqgtg","pricing_plan_id":"cebpf4jnsgd1na2vs0mg"},{"bike_id":"507f99d3-0b82-4a35-89e2-98eb58769a71","system_id":"levelo_inurba_marseille","lat":43.23192,"lon":5.35549,"is_reserved":false,"is_disabled":false,"rental_uris":{"android":"levelo://app?vid=507f99d3-0b82-4a35-89e2-98eb58769a71","ios":"levelo://app?vid=507f99d3-0b82-4a35-89e2-98eb58769a71"},"vehicle_type_id":"4","last_reported":1725988082,"current_range_meters":16000,"station_id":"ce4bhu92rcd13ifvqi70","pricing_plan_id":"cebpf4jnsgd1na2vs0mg"},{"bike_id":"56dd2d8a-dafa-472a-aa6e-468a29c65df9","system_id":"levelo_inurba_marseille","lat":43.30188,"lon":5.393792,"is_reserved":false,"is_disabled":false,"rental_uris":{"android":"levelo://app?vid=56dd2d8a-dafa-472a-aa6e-468a29c65df9","ios":"levelo://app?vid=56dd2d8a-dafa-472a-aa6e-468a29c65df9"},"vehicle_type_id":"4","last_reported":1725988082,"current_range_meters":4000,"station_id":"ce4bh0p2rcd13ifvqd70","pricing_plan_id":"cebpf4jnsgd1na2vs0mg"},{"bike_id":"1623bb01-8b87-4815-ad43-fa70c93eb34c","system_id":"levelo_inurba_marseille","lat":43.28943,"lon":5.36637,"is_reserved":false,"is_disabled":false,"rental_uris":{"android":"levelo://app?vid=1623bb01-8b87-4815-ad43-fa70c93eb34c","ios":"levelo://app?vid=1623bb01-8b87-4815-ad43-fa70c93eb34c"},"vehicle_type_id":"4","last_reported":1725988082,"current_range_meters":7200,"station_id":"ce4bhap2rcd13ifvqek0","pricing_plan_id":"cebpf4jnsgd1na2vs0mg"},{"bike_id":"78dd917e-6dd1-4a3a-a522-6cc606ed9d16","system_id":"levelo_inurba_marseille","lat":43.29529,"lon":5.39401,"is_reserved":false,"is_disabled":false,"rental_uris":{"android":"levelo://app?vid=78dd917e-6dd1-4a3a-a522-6cc606ed9d16","ios":"levelo://app?vid=78dd917e-6dd1-4a3a-a522-6cc606ed9d16"},"vehicle_type_id":"4","last_reported":1725988082,"current_range_meters":3600,"station_id":"ce4bh292rcd13ifvqdf0","pricing_plan_id":"cebpf4jnsgd1na2vs0mg"},{"bike_id":"3e427be6-34b5-41cd-9256-ee85b7dd2d04","system_id":"levelo_inurba_marseille","lat":43.277163,"lon":5.383612,"is_reserved":false,"is_disabled":false,"rental_uris":{"android":"levelo://app?vid=3e427be6-34b5-41cd-9256-ee85b7dd2d04","ios":"levelo://app?vid=3e427be6-34b5-41cd-9256-ee85b7dd2d04"},"vehicle_type_id":"4","last_reported":1725988082,"current_range_meters":11600,"station_id":"ce4bhh92rcd13ifvqfi0","pricing_plan_id":"cebpf4jnsgd1na2vs0mg"},{"bike_id":"428aa7d9-d691-4d67-ab11-b2b1d7f0cf57","system_id":"levelo_inurba_marseille","lat":43.26784,"lon":5.39419,"is_reserved":false,"is_disabled":false,"rental_uris":{"android":"levelo://app?vid=428aa7d9-d691-4d67-ab11-b2b1d7f0cf57","ios":"levelo://app?vid=428aa7d9-d691-4d67-ab11-b2b1d7f0cf57"},"vehicle_type_id":"4","last_reported":1725988082,"current_range_meters":33200,"station_id":"ce4bhh12rcd13ifvqfg0","pricing_plan_id":"cebpf4jnsgd1na2vs0mg"},{"bike_id":"36e02e03-11f3-41ac-9b0f-93c4017adc48","system_id":"levelo_inurba_marseille","lat":43.27358,"lon":5.4159,"is_reserved":false,"is_disabled":false,"rental_uris":{"android":"levelo://app?vid=36e02e03-11f3-41ac-9b0f-93c4017adc48","ios":"levelo://app?vid=36e02e03-11f3-41ac-9b0f-93c4017adc48"},"vehicle_type_id":"4","last_reported":1725988082,"current_range_meters":6000,"station_id":"","pricing_plan_id":"cebpf4jnsgd1na2vs0mg"},{"bike_id":"e34e7209-2a6a-4ea2-a347-e3d7c893a49b","system_id":"levelo_inurba_marseille","lat":43.29873,"lon":5.3974,"is_reserved":false,"is_disabled":false,"rental_uris":{"android":"levelo://app?vid=e34e7209-2a6a-4ea2-a347-e3d7c893a49b","ios":"levelo://app?vid=e34e7209-2a6a-4ea2-a347-e3d7c893a49b"},"vehicle_type_id":"4","last_reported":1725988082,"current_range_meters":32400,"station_id":"ce4bh0h2rcd13ifvqd50","pricing_plan_id":"cebpf4jnsgd1na2vs0mg"},{"bike_id":"fc1155b4-c230-4be8-a630-1fbbd7c3bd7a","system_id":"levelo_inurba_marseille","lat":43.31324,"lon":5.39686,"is_reserved":false,"is_disabled":false,"rental_uris":{"android":"levelo://app?vid=fc1155b4-c230-4be8-a630-1fbbd7c3bd7a","ios":"levelo://app?vid=fc1155b4-c230-4be8-a630-1fbbd7c3bd7a"},"vehicle_type_id":"4","last_reported":1725988082,"current_range_meters":14800,"station_id":"ce4bgvp2rcd13ifvqcu0","pricing_plan_id":"cebpf4jnsgd1na2vs0mg"},{"bike_id":"36973a74-dcb5-42a3-b6ab-222146836943","system_id":"levelo_inurba_marseille","lat":43.31764,"lon":5.39014,"is_reserved":false,"is_disabled":false,"rental_uris":{"android":"levelo://app?vid=36973a74-dcb5-42a3-b6ab-222146836943","ios":"levelo://app?vid=36973a74-dcb5-42a3-b6ab-222146836943"},"vehicle_type_id":"4","last_reported":1725988082,"current_range_meters":18000,"station_id":"ce4bhqp2rcd13ifvqhng","pricing_plan_id":"cebpf4jnsgd1na2vs0mg"},{"bike_id":"15f61951-a210-4089-aa7d-86a1d53a8e19","system_id":"levelo_inurba_marseille","lat":43.29928,"lon":5.36541,"is_reserved":false,"is_disabled":false,"rental_uris":{"android":"levelo://app?vid=15f61951-a210-4089-aa7d-86a1d53a8e19","ios":"levelo://app?vid=15f61951-a210-4089-aa7d-86a1d53a8e19"},"vehicle_type_id":"4","last_reported":1725988082,"current_range_meters":22800,"station_id":"ce4bgm92rcd13ifvqbr0","pricing_plan_id":"cebpf4jnsgd1na2vs0mg"},{"bike_id":"015c7621-1594-47c0-af5d-b16e222e076c","system_id":"levelo_inurba_marseille","lat":43.29928,"lon":5.37471,"is_reserved":false,"is_disabled":false,"rental_uris":{"android":"levelo://app?vid=015c7621-1594-47c0-af5d-b16e222e076c","ios":"levelo://app?vid=015c7621-1594-47c0-af5d-b16e222e076c"},"vehicle_type_id":"4","last_reported":1725988082,"current_range_meters":9200,"station_id":"ce4bgjh2rcd13ifvqbg0","pricing_plan_id":"cebpf4jnsgd1na2vs0mg"},{"bike_id":"dbc45f34-5fe4-4ae4-9421-b8458e10e7d0","system_id":"levelo_inurba_marseille","lat":43.25593,"lon":5.38233,"is_reserved":false,"is_disabled":false,"rental_uris":{"android":"levelo://app?vid=dbc45f34-5fe4-4ae4-9421-b8458e10e7d0","ios":"levelo://app?vid=dbc45f34-5fe4-4ae4-9421-b8458e10e7d0"},"vehicle_type_id":"4","last_reported":1725988082,"current_range_meters":14000,"station_id":"ce4bhih2rcd13ifvqfs0","pricing_plan_id":"cebpf4jnsgd1na2vs0mg"},{"bike_id":"723b907f-3b8a-47e2-bf9e-15fb16f841a3","system_id":"levelo_inurba_marseille","lat":43.28458,"lon":5.35887,"is_reserved":false,"is_disabled":false,"rental_uris":{"android":"levelo://app?vid=723b907f-3b8a-47e2-bf9e-15fb16f841a3","ios":"levelo://app?vid=723b907f-3b8a-47e2-bf9e-15fb16f841a3"},"vehicle_type_id":"4","last_reported":1725988082,"current_range_meters":13600,"station_id":"ce4bhah2rcd13ifvqei0","pricing_plan_id":"cebpf4jnsgd1na2vs0mg"},{"bike_id":"9042a679-e579-498b-bc4f-3859be122eff","system_id":"levelo_inurba_marseille","lat":43.31766,"lon":5.39016,"is_reserved":false,"is_disabled":false,"rental_uris":{"android":"levelo://app?vid=9042a679-e579-498b-bc4f-3859be122eff","ios":"levelo://app?vid=9042a679-e579-498b-bc4f-3859be122eff"},"vehicle_type_id":"4","last_reported":1725988082,"current_range_meters":7200,"station_id":"ce4bhqp2rcd13ifvqhng","pricing_plan_id":"cebpf4jnsgd1na2vs0mg"},{"bike_id":"b24bcaac-1ebb-42e7-886a-a6b3b2b9eba8","system_id":"levelo_inurba_marseille","lat":43.28457,"lon":5.35886,"is_reserved":false,"is_disabled":false,"rental_uris":{"android":"levelo://app?vid=b24bcaac-1ebb-42e7-886a-a6b3b2b9eba8","ios":"levelo://app?vid=b24bcaac-1ebb-42e7-886a-a6b3b2b9eba8"},"vehicle_type_id":"4","last_reported":1725988082,"current_range_meters":19600,"station_id":"ce4bhah2rcd13ifvqei0","pricing_plan_id":"cebpf4jnsgd1na2vs0mg"},{"bike_id":"b8e26d0b-876d-43b2-b7f6-d07ec32dff07","system_id":"levelo_inurba_marseille","lat":43.31759,"lon":5.39013,"is_reserved":false,"is_disabled":false,"rental_uris":{"android":"levelo://app?vid=b8e26d0b-876d-43b2-b7f6-d07ec32dff07","ios":"levelo://app?vid=b8e26d0b-876d-43b2-b7f6-d07ec32dff07"},"vehicle_type_id":"4","last_reported":1725988082,"current_range_meters":38800,"station_id":"ce4bhqp2rcd13ifvqhng","pricing_plan_id":"cebpf4jnsgd1na2vs0mg"},{"bike_id":"30f8b79f-8c1d-4d37-bcfe-8ff5067191bc","system_id":"levelo_inurba_marseille","lat":43.26203,"lon":5.37933,"is_reserved":false,"is_disabled":false,"rental_uris":{"android":"levelo://app?vid=30f8b79f-8c1d-4d37-bcfe-8ff5067191bc","ios":"levelo://app?vid=30f8b79f-8c1d-4d37-bcfe-8ff5067191bc"},"vehicle_type_id":"4","last_reported":1725988082,"current_range_meters":2000,"station_id":"ce4bhjp2rcd13ifvqg90","pricing_plan_id":"cebpf4jnsgd1na2vs0mg"},{"bike_id":"83d91187-0e5d-4449-94c3-2adf02a5028b","system_id":"levelo_inurba_marseille","lat":43.27377,"lon":5.36258,"is_reserved":false,"is_disabled":false,"rental_uris":{"android":"levelo://app?vid=83d91187-0e5d-4449-94c3-2adf02a5028b","ios":"levelo://app?vid=83d91187-0e5d-4449-94c3-2adf02a5028b"},"vehicle_type_id":"4","last_reported":1725988082,"current_range_meters":35600,"station_id":"ce4bhbh2rcd13ifvqeo0","pricing_plan_id":"cebpf4jnsgd1na2vs0mg"},{"bike_id":"5876c5ef-9fac-478d-bd3c-ea1780c21005","system_id":"levelo_inurba_marseille","lat":43.33762,"lon":5.3745,"is_reserved":false,"is_disabled":false,"rental_uris":{"android":"levelo://app?vid=5876c5ef-9fac-478d-bd3c-ea1780c21005","ios":"levelo://app?vid=5876c5ef-9fac-478d-bd3c-ea1780c21005"},"vehicle_type_id":"4","last_reported":1725988082,"current_range_meters":36000,"station_id":"","pricing_plan_id":"cebpf4jnsgd1na2vs0mg"},{"bike_id":"2263e2de-79bd-44f2-b5ef-4d0243974511","system_id":"levelo_inurba_marseille","lat":43.29205,"lon":5.39326,"is_reserved":false,"is_disabled":false,"rental_uris":{"android":"levelo://app?vid=2263e2de-79bd-44f2-b5ef-4d0243974511","ios":"levelo://app?vid=2263e2de-79bd-44f2-b5ef-4d0243974511"},"vehicle_type_id":"4","last_reported":1725988082,"current_range_meters":1600,"station_id":"ce4bh192rcd13ifvqdd0","pricing_plan_id":"cebpf4jnsgd1na2vs0mg"},{"bike_id":"cc99cdac-c9d1-4a7a-b561-d42bec0b37b3","system_id":"levelo_inurba_marseille","lat":43.28618,"lon":5.35106,"is_reserved":false,"is_disabled":false,"rental_uris":{"android":"levelo://app?vid=cc99cdac-c9d1-4a7a-b561-d42bec0b37b3","ios":"levelo://app?vid=cc99cdac-c9d1-4a7a-b561-d42bec0b37b3"},"vehicle_type_id":"4","last_reported":1725988082,"current_range_meters":30800,"station_id":"ce4bhch2rcd13ifvqeug","pricing_plan_id":"cebpf4jnsgd1na2vs0mg"},{"bike_id":"10657391-6356-4815-b100-38af0bfab8fd","system_id":"levelo_inurba_marseille","lat":43.26214,"lon":5.37445,"is_reserved":false,"is_disabled":false,"rental_uris":{"android":"levelo://app?vid=10657391-6356-4815-b100-38af0bfab8fd","ios":"levelo://app?vid=10657391-6356-4815-b100-38af0bfab8fd"},"vehicle_type_id":"4","last_reported":1725988082,"current_range_meters":7200,"station_id":"ce4bhgp2rcd13ifvqfc0","pricing_plan_id":"cebpf4jnsgd1na2vs0mg"},{"bike_id":"e95f64bd-9364-4406-8d8c-4e1320175930","system_id":"levelo_inurba_marseille","lat":43.32342,"lon":5.40619,"is_reserved":false,"is_disabled":false,"rental_uris":{"android":"levelo://app?vid=e95f64bd-9364-4406-8d8c-4e1320175930","ios":"levelo://app?vid=e95f64bd-9364-4406-8d8c-4e1320175930"},"vehicle_type_id":"4","last_reported":1725988082,"current_range_meters":14400,"station_id":"ce4bhq92rcd13ifvqhjg","pricing_plan_id":"cebpf4jnsgd1na2vs0mg"},{"bike_id":"7abb3655-b461-4e13-bc97-8c353f282d6b","system_id":"levelo_inurba_marseille","lat":43.23185,"lon":5.39978,"is_reserved":false,"is_disabled":false,"rental_uris":{"android":"levelo://app?vid=7abb3655-b461-4e13-bc97-8c353f282d6b","ios":"levelo://app?vid=7abb3655-b461-4e13-bc97-8c353f282d6b"},"vehicle_type_id":"4","last_reported":1725988082,"current_range_meters":10000,"station_id":"ce4bhn12rcd13ifvqgqg","pricing_plan_id":"cebpf4jnsgd1na2vs0mg"},{"bike_id":"3a038820-c952-44f5-84b8-e6d66a00c053","system_id":"levelo_inurba_marseille","lat":43.29422,"lon":5.38619,"is_reserved":false,"is_disabled":false,"rental_uris":{"android":"levelo://app?vid=3a038820-c952-44f5-84b8-e6d66a00c053","ios":"levelo://app?vid=3a038820-c952-44f5-84b8-e6d66a00c053"},"vehicle_type_id":"4","last_reported":1725988082,"current_range_meters":15200,"station_id":"ce4bh2h2rcd13ifvqdh0","pricing_plan_id":"cebpf4jnsgd1na2vs0mg"},{"bike_id":"3bac9b68-6a4d-4a3b-95dd-a896cc6ac7ed","system_id":"levelo_inurba_marseille","lat":43.299654,"lon":5.397374,"is_reserved":false,"is_disabled":false,"rental_uris":{"android":"levelo://app?vid=3bac9b68-6a4d-4a3b-95dd-a896cc6ac7ed","ios":"levelo://app?vid=3bac9b68-6a4d-4a3b-95dd-a896cc6ac7ed"},"vehicle_type_id":"4","last_reported":1725988082,"current_range_meters":30000,"station_id":"ce4bh0h2rcd13ifvqd50","pricing_plan_id":"cebpf4jnsgd1na2vs0mg"},{"bike_id":"c3afc7fa-8a51-4638-a502-0d6d81f966de","system_id":"levelo_inurba_marseille","lat":43.29228,"lon":5.36064,"is_reserved":false,"is_disabled":false,"rental_uris":{"android":"levelo://app?vid=c3afc7fa-8a51-4638-a502-0d6d81f966de","ios":"levelo://app?vid=c3afc7fa-8a51-4638-a502-0d6d81f966de"},"vehicle_type_id":"4","last_reported":1725988082,"current_range_meters":18800,"station_id":"ce4bhbh2rcd13ifvqeqg","pricing_plan_id":"cebpf4jnsgd1na2vs0mg"},{"bike_id":"939e9b6e-f7a0-4777-9967-6d8e970e4b78","system_id":"levelo_inurba_marseille","lat":43.25944,"lon":5.409,"is_reserved":false,"is_disabled":false,"rental_uris":{"android":"levelo://app?vid=939e9b6e-f7a0-4777-9967-6d8e970e4b78","ios":"levelo://app?vid=939e9b6e-f7a0-4777-9967-6d8e970e4b78"},"vehicle_type_id":"4","last_reported":1725988082,"current_range_meters":36800,"station_id":"ce4bhm92rcd13ifvqglg","pricing_plan_id":"cebpf4jnsgd1na2vs0mg"},{"bike_id":"5c4ce785-007f-4d43-9ed8-fb46eb86e96e","system_id":"levelo_inurba_marseille","lat":43.29622,"lon":5.37164,"is_reserved":false,"is_disabled":false,"rental_uris":{"android":"levelo://app?vid=5c4ce785-007f-4d43-9ed8-fb46eb86e96e","ios":"levelo://app?vid=5c4ce785-007f-4d43-9ed8-fb46eb86e96e"},"vehicle_type_id":"4","last_reported":1725988082,"current_range_meters":23200,"station_id":"ce4bgnh2rcd13ifvqc0g","pricing_plan_id":"cebpf4jnsgd1na2vs0mg"},{"bike_id":"16db4608-974a-4ae1-8fff-50830b6f6b67","system_id":"levelo_inurba_marseille","lat":43.28448,"lon":5.35887,"is_reserved":false,"is_disabled":false,"rental_uris":{"android":"levelo://app?vid=16db4608-974a-4ae1-8fff-50830b6f6b67","ios":"levelo://app?vid=16db4608-974a-4ae1-8fff-50830b6f6b67"},"vehicle_type_id":"4","last_reported":1725988082,"current_range_meters":16400,"station_id":"ce4bhah2rcd13ifvqei0","pricing_plan_id":"cebpf4jnsgd1na2vs0mg"},{"bike_id":"59f5a503-d3a8-48a0-b155-f89ab041abbc","system_id":"levelo_inurba_marseille","lat":43.25504,"lon":5.3765,"is_reserved":false,"is_disabled":false,"rental_uris":{"android":"levelo://app?vid=59f5a503-d3a8-48a0-b155-f89ab041abbc","ios":"levelo://app?vid=59f5a503-d3a8-48a0-b155-f89ab041abbc"},"vehicle_type_id":"4","last_reported":1725988082,"current_range_meters":15200,"station_id":"ce4bhh12rcd13ifvqff0","pricing_plan_id":"cebpf4jnsgd1na2vs0mg"},{"bike_id":"1bc6d034-1c4e-4b81-95f7-9274b014bd03","system_id":"levelo_inurba_marseille","lat":43.28454,"lon":5.35901,"is_reserved":false,"is_disabled":false,"rental_uris":{"android":"levelo://app?vid=1bc6d034-1c4e-4b81-95f7-9274b014bd03","ios":"levelo://app?vid=1bc6d034-1c4e-4b81-95f7-9274b014bd03"},"vehicle_type_id":"4","last_reported":1725988082,"current_range_meters":33600,"station_id":"ce4bhah2rcd13ifvqei0","pricing_plan_id":"cebpf4jnsgd1na2vs0mg"},{"bike_id":"f98ce3e9-77c4-4c58-86f3-0ff8d6d55ea1","system_id":"levelo_inurba_marseille","lat":43.29233,"lon":5.36055,"is_reserved":false,"is_disabled":false,"rental_uris":{"android":"levelo://app?vid=f98ce3e9-77c4-4c58-86f3-0ff8d6d55ea1","ios":"levelo://app?vid=f98ce3e9-77c4-4c58-86f3-0ff8d6d55ea1"},"vehicle_type_id":"4","last_reported":1725988082,"current_range_meters":8000,"station_id":"ce4bhbh2rcd13ifvqeqg","pricing_plan_id":"cebpf4jnsgd1na2vs0mg"},{"bike_id":"284b96e1-baec-4796-8bff-9ee732c7f5bd","system_id":"levelo_inurba_marseille","lat":43.270966,"lon":5.423053,"is_reserved":false,"is_disabled":false,"rental_uris":{"android":"levelo://app?vid=284b96e1-baec-4796-8bff-9ee732c7f5bd","ios":"levelo://app?vid=284b96e1-baec-4796-8bff-9ee732c7f5bd"},"vehicle_type_id":"4","last_reported":1725988082,"current_range_meters":11600,"station_id":"ce4bhk92rcd13ifvqgb0","pricing_plan_id":"cebpf4jnsgd1na2vs0mg"},{"bike_id":"c8e0fcb6-1d3f-4d83-b861-1f56e6b3ab2c","system_id":"levelo_inurba_marseille","lat":43.32291,"lon":5.38261,"is_reserved":false,"is_disabled":false,"rental_uris":{"android":"levelo://app?vid=c8e0fcb6-1d3f-4d83-b861-1f56e6b3ab2c","ios":"levelo://app?vid=c8e0fcb6-1d3f-4d83-b861-1f56e6b3ab2c"},"vehicle_type_id":"4","last_reported":1725988082,"current_range_meters":35600,"station_id":"ce4bhr12rcd13ifvqhqg","pricing_plan_id":"cebpf4jnsgd1na2vs0mg"},{"bike_id":"f1b7306e-d9aa-447f-8e57-795048d82efa","system_id":"levelo_inurba_marseille","lat":43.27816,"lon":5.40703,"is_reserved":false,"is_disabled":false,"rental_uris":{"android":"levelo://app?vid=f1b7306e-d9aa-447f-8e57-795048d82efa","ios":"levelo://app?vid=f1b7306e-d9aa-447f-8e57-795048d82efa"},"vehicle_type_id":"4","last_reported":1725988082,"current_range_meters":10000,"station_id":"ce4bhnh2rcd13ifvqgtg","pricing_plan_id":"cebpf4jnsgd1na2vs0mg"},{"bike_id":"9ab0dd18-352e-4441-814a-8293135d0b1f","system_id":"levelo_inurba_marseille","lat":43.30445,"lon":5.38896,"is_reserved":false,"is_disabled":false,"rental_uris":{"android":"levelo://app?vid=9ab0dd18-352e-4441-814a-8293135d0b1f","ios":"levelo://app?vid=9ab0dd18-352e-4441-814a-8293135d0b1f"},"vehicle_type_id":"4","last_reported":1725988082,"current_range_meters":28800,"station_id":"ce4bgk12rcd13ifvqbi0","pricing_plan_id":"cebpf4jnsgd1na2vs0mg"},{"bike_id":"d9fd6a72-24ff-4507-a775-1a7966a151cf","system_id":"levelo_inurba_marseille","lat":43.297863,"lon":5.376701,"is_reserved":false,"is_disabled":false,"rental_uris":{"android":"levelo://app?vid=d9fd6a72-24ff-4507-a775-1a7966a151cf","ios":"levelo://app?vid=d9fd6a72-24ff-4507-a775-1a7966a151cf"},"vehicle_type_id":"4","last_reported":1725988082,"current_range_meters":30800,"station_id":"ce4bgkh2rcd13ifvqbl0","pricing_plan_id":"cebpf4jnsgd1na2vs0mg"},{"bike_id":"fde8b686-25f1-4cb6-9b02-191c4abffffc","system_id":"levelo_inurba_marseille","lat":43.324838,"lon":5.40703,"is_reserved":false,"is_disabled":false,"rental_uris":{"android":"levelo://app?vid=fde8b686-25f1-4cb6-9b02-191c4abffffc","ios":"levelo://app?vid=fde8b686-25f1-4cb6-9b02-191c4abffffc"},"vehicle_type_id":"4","last_reported":1725988082,"current_range_meters":16800,"station_id":"ce4bhq92rcd13ifvqhjg","pricing_plan_id":"cebpf4jnsgd1na2vs0mg"},{"bike_id":"f08e0c57-434b-44d3-aff4-def61fdcf44c","system_id":"levelo_inurba_marseille","lat":43.310729,"lon":5.402099,"is_reserved":false,"is_disabled":false,"rental_uris":{"android":"levelo://app?vid=f08e0c57-434b-44d3-aff4-def61fdcf44c","ios":"levelo://app?vid=f08e0c57-434b-44d3-aff4-def61fdcf44c"},"vehicle_type_id":"4","last_reported":1725988082,"current_range_meters":20400,"station_id":"","pricing_plan_id":"cebpf4jnsgd1na2vs0mg"},{"bike_id":"9bff073f-f5ab-4257-a7fc-3e12904cfcb8","system_id":"levelo_inurba_marseille","lat":43.336578,"lon":5.410232,"is_reserved":false,"is_disabled":false,"rental_uris":{"android":"levelo://app?vid=9bff073f-f5ab-4257-a7fc-3e12904cfcb8","ios":"levelo://app?vid=9bff073f-f5ab-4257-a7fc-3e12904cfcb8"},"vehicle_type_id":"4","last_reported":1725988082,"current_range_meters":8400,"station_id":"ce4bhqh2rcd13ifvqhmg","pricing_plan_id":"cebpf4jnsgd1na2vs0mg"},{"bike_id":"b2aae679-3e99-40e2-820f-725946de1e45","system_id":"levelo_inurba_marseille","lat":43.31718,"lon":5.43706,"is_reserved":false,"is_disabled":false,"rental_uris":{"android":"levelo://app?vid=b2aae679-3e99-40e2-820f-725946de1e45","ios":"levelo://app?vid=b2aae679-3e99-40e2-820f-725946de1e45"},"vehicle_type_id":"4","last_reported":1725988082,"current_range_meters":14400,"station_id":"ce4bhp92rcd13ifvqhcg","pricing_plan_id":"cebpf4jnsgd1na2vs0mg"},{"bike_id":"fc6dc0e2-42aa-4baa-82f9-7acbdbba2aa0","system_id":"levelo_inurba_marseille","lat":43.31328,"lon":5.39685,"is_reserved":false,"is_disabled":false,"rental_uris":{"android":"levelo://app?vid=fc6dc0e2-42aa-4baa-82f9-7acbdbba2aa0","ios":"levelo://app?vid=fc6dc0e2-42aa-4baa-82f9-7acbdbba2aa0"},"vehicle_type_id":"4","last_reported":1725988082,"current_range_meters":32800,"station_id":"ce4bgvp2rcd13ifvqcu0","pricing_plan_id":"cebpf4jnsgd1na2vs0mg"},{"bike_id":"9f26bde2-d24e-479b-ae49-556620c33203","system_id":"levelo_inurba_marseille","lat":43.28466,"lon":5.35879,"is_reserved":false,"is_disabled":false,"rental_uris":{"android":"levelo://app?vid=9f26bde2-d24e-479b-ae49-556620c33203","ios":"levelo://app?vid=9f26bde2-d24e-479b-ae49-556620c33203"},"vehicle_type_id":"4","last_reported":1725988082,"current_range_meters":22000,"station_id":"ce4bhah2rcd13ifvqei0","pricing_plan_id":"cebpf4jnsgd1na2vs0mg"},{"bike_id":"2d01c97f-32b5-40f5-8a2e-28291c32fbdf","system_id":"levelo_inurba_marseille","lat":43.25594,"lon":5.38227,"is_reserved":false,"is_disabled":false,"rental_uris":{"android":"levelo://app?vid=2d01c97f-32b5-40f5-8a2e-28291c32fbdf","ios":"levelo://app?vid=2d01c97f-32b5-40f5-8a2e-28291c32fbdf"},"vehicle_type_id":"4","last_reported":1725988082,"current_range_meters":8000,"station_id":"ce4bhih2rcd13ifvqfs0","pricing_plan_id":"cebpf4jnsgd1na2vs0mg"},{"bike_id":"004cecd3-0f67-46b4-937a-63b59a969347","system_id":"levelo_inurba_marseille","lat":43.29265,"lon":5.40911,"is_reserved":false,"is_disabled":false,"rental_uris":{"android":"levelo://app?vid=004cecd3-0f67-46b4-937a-63b59a969347","ios":"levelo://app?vid=004cecd3-0f67-46b4-937a-63b59a969347"},"vehicle_type_id":"4","last_reported":1725988082,"current_range_meters":19200,"station_id":"ce4bh192rcd13ifvqdc0","pricing_plan_id":"cebpf4jnsgd1na2vs0mg"},{"bike_id":"55145fae-a8cb-41b8-a97f-efce85464954","system_id":"levelo_inurba_marseille","lat":43.33751,"lon":5.37461,"is_reserved":false,"is_disabled":false,"rental_uris":{"android":"levelo://app?vid=55145fae-a8cb-41b8-a97f-efce85464954","ios":"levelo://app?vid=55145fae-a8cb-41b8-a97f-efce85464954"},"vehicle_type_id":"4","last_reported":1725988082,"current_range_meters":33200,"station_id":"","pricing_plan_id":"cebpf4jnsgd1na2vs0mg"},{"bike_id":"f400d370-a20e-4ced-86f0-64f62510749c","system_id":"levelo_inurba_marseille","lat":43.3237,"lon":5.38926,"is_reserved":false,"is_disabled":false,"rental_uris":{"android":"levelo://app?vid=f400d370-a20e-4ced-86f0-64f62510749c","ios":"levelo://app?vid=f400d370-a20e-4ced-86f0-64f62510749c"},"vehicle_type_id":"4","last_reported":1725988082,"current_range_meters":17600,"station_id":"","pricing_plan_id":"cebpf4jnsgd1na2vs0mg"},{"bike_id":"3c17132e-5c3a-441b-8831-b706b7058f34","system_id":"levelo_inurba_marseille","lat":43.29581,"lon":5.375106,"is_reserved":false,"is_disabled":false,"rental_uris":{"android":"levelo://app?vid=3c17132e-5c3a-441b-8831-b706b7058f34","ios":"levelo://app?vid=3c17132e-5c3a-441b-8831-b706b7058f34"},"vehicle_type_id":"4","last_reported":1725988082,"current_range_meters":38400,"station_id":"ce4bgh92rcd13ifvqb50","pricing_plan_id":"cebpf4jnsgd1na2vs0mg"},{"bike_id":"45478836-5b9c-4df3-8951-b0efa0570595","system_id":"levelo_inurba_marseille","lat":43.28684,"lon":5.36359,"is_reserved":false,"is_disabled":false,"rental_uris":{"android":"levelo://app?vid=45478836-5b9c-4df3-8951-b0efa0570595","ios":"levelo://app?vid=45478836-5b9c-4df3-8951-b0efa0570595"},"vehicle_type_id":"4","last_reported":1725988082,"current_range_meters":16800,"station_id":"ce4bhah2rcd13ifvqej0","pricing_plan_id":"cebpf4jnsgd1na2vs0mg"},{"bike_id":"f03f6359-2862-4c38-ade4-de2f32ba1374","system_id":"levelo_inurba_marseille","lat":43.2318,"lon":5.39997,"is_reserved":false,"is_disabled":false,"rental_uris":{"android":"levelo://app?vid=f03f6359-2862-4c38-ade4-de2f32ba1374","ios":"levelo://app?vid=f03f6359-2862-4c38-ade4-de2f32ba1374"},"vehicle_type_id":"4","last_reported":1725988082,"current_range_meters":27600,"station_id":"ce4bhn12rcd13ifvqgqg","pricing_plan_id":"cebpf4jnsgd1na2vs0mg"},{"bike_id":"4f98b9a6-3078-458b-b605-3b0ed6341dd8","system_id":"levelo_inurba_marseille","lat":43.287037,"lon":5.375093,"is_reserved":false,"is_disabled":false,"rental_uris":{"android":"levelo://app?vid=4f98b9a6-3078-458b-b605-3b0ed6341dd8","ios":"levelo://app?vid=4f98b9a6-3078-458b-b605-3b0ed6341dd8"},"vehicle_type_id":"4","last_reported":1725988082,"current_range_meters":32800,"station_id":"","pricing_plan_id":"cebpf4jnsgd1na2vs0mg"},{"bike_id":"8542bf91-30ba-4b78-a115-4736886b8fdc","system_id":"levelo_inurba_marseille","lat":43.32366,"lon":5.38875,"is_reserved":false,"is_disabled":false,"rental_uris":{"android":"levelo://app?vid=8542bf91-30ba-4b78-a115-4736886b8fdc","ios":"levelo://app?vid=8542bf91-30ba-4b78-a115-4736886b8fdc"},"vehicle_type_id":"4","last_reported":1725988082,"current_range_meters":9600,"station_id":"ce4bhqp2rcd13ifvqhog","pricing_plan_id":"cebpf4jnsgd1na2vs0mg"},{"bike_id":"b8c53ace-3353-404c-807f-3367f3e67022","system_id":"levelo_inurba_marseille","lat":43.31765,"lon":5.39015,"is_reserved":false,"is_disabled":false,"rental_uris":{"android":"levelo://app?vid=b8c53ace-3353-404c-807f-3367f3e67022","ios":"levelo://app?vid=b8c53ace-3353-404c-807f-3367f3e67022"},"vehicle_type_id":"4","last_reported":1725988082,"current_range_meters":38800,"station_id":"ce4bhqp2rcd13ifvqhng","pricing_plan_id":"cebpf4jnsgd1na2vs0mg"},{"bike_id":"d5e26685-365b-42b8-a768-9a0a9432d37f","system_id":"levelo_inurba_marseille","lat":43.290036,"lon":5.355774,"is_reserved":false,"is_disabled":false,"rental_uris":{"android":"levelo://app?vid=d5e26685-365b-42b8-a768-9a0a9432d37f","ios":"levelo://app?vid=d5e26685-365b-42b8-a768-9a0a9432d37f"},"vehicle_type_id":"4","last_reported":1725988082,"current_range_meters":27200,"station_id":"ce4bhb92rcd13ifvqen0","pricing_plan_id":"cebpf4jnsgd1na2vs0mg"},{"bike_id":"21dcec27-645b-4877-b774-5201571a951e","system_id":"levelo_inurba_marseille","lat":43.28613,"lon":5.35098,"is_reserved":false,"is_disabled":false,"rental_uris":{"android":"levelo://app?vid=21dcec27-645b-4877-b774-5201571a951e","ios":"levelo://app?vid=21dcec27-645b-4877-b774-5201571a951e"},"vehicle_type_id":"4","last_reported":1725988082,"current_range_meters":28400,"station_id":"ce4bhch2rcd13ifvqeug","pricing_plan_id":"cebpf4jnsgd1na2vs0mg"},{"bike_id":"e3ff2ff2-1096-4b7a-a3a2-7928d38557b8","system_id":"levelo_inurba_marseille","lat":43.27813,"lon":5.40703,"is_reserved":false,"is_disabled":false,"rental_uris":{"android":"levelo://app?vid=e3ff2ff2-1096-4b7a-a3a2-7928d38557b8","ios":"levelo://app?vid=e3ff2ff2-1096-4b7a-a3a2-7928d38557b8"},"vehicle_type_id":"4","last_reported":1725988082,"current_range_meters":14000,"station_id":"ce4bhnh2rcd13ifvqgtg","pricing_plan_id":"cebpf4jnsgd1na2vs0mg"},{"bike_id":"6b6a7c26-1f9f-4077-94ed-87cd26930033","system_id":"levelo_inurba_marseille","lat":43.29971,"lon":5.41321,"is_reserved":false,"is_disabled":false,"rental_uris":{"android":"levelo://app?vid=6b6a7c26-1f9f-4077-94ed-87cd26930033","ios":"levelo://app?vid=6b6a7c26-1f9f-4077-94ed-87cd26930033"},"vehicle_type_id":"4","last_reported":1725988082,"current_range_meters":17200,"station_id":"ce4bhp12rcd13ifvqh9g","pricing_plan_id":"cebpf4jnsgd1na2vs0mg"},{"bike_id":"d0cbc993-bfa5-419a-bdda-e6802906ac12","system_id":"levelo_inurba_marseille","lat":43.3117,"lon":5.38713,"is_reserved":false,"is_disabled":false,"rental_uris":{"android":"levelo://app?vid=d0cbc993-bfa5-419a-bdda-e6802906ac12","ios":"levelo://app?vid=d0cbc993-bfa5-419a-bdda-e6802906ac12"},"vehicle_type_id":"4","last_reported":1725988082,"current_range_meters":28000,"station_id":"ce4bgv12rcd13ifvqcp0","pricing_plan_id":"cebpf4jnsgd1na2vs0mg"},{"bike_id":"c33da793-bbd9-4d19-b3a5-c543ddba70d5","system_id":"levelo_inurba_marseille","lat":43.27813,"lon":5.40706,"is_reserved":false,"is_disabled":false,"rental_uris":{"android":"levelo://app?vid=c33da793-bbd9-4d19-b3a5-c543ddba70d5","ios":"levelo://app?vid=c33da793-bbd9-4d19-b3a5-c543ddba70d5"},"vehicle_type_id":"4","last_reported":1725988082,"current_range_meters":40000,"station_id":"ce4bhnh2rcd13ifvqgtg","pricing_plan_id":"cebpf4jnsgd1na2vs0mg"},{"bike_id":"49f01a57-6ca0-4f1e-92ae-8b3347ed2fa3","system_id":"levelo_inurba_marseille","lat":43.29046,"lon":5.39961,"is_reserved":false,"is_disabled":false,"rental_uris":{"android":"levelo://app?vid=49f01a57-6ca0-4f1e-92ae-8b3347ed2fa3","ios":"levelo://app?vid=49f01a57-6ca0-4f1e-92ae-8b3347ed2fa3"},"vehicle_type_id":"4","last_reported":1725988082,"current_range_meters":12800,"station_id":"ce4bh392rcd13ifvqdm0","pricing_plan_id":"cebpf4jnsgd1na2vs0mg"},{"bike_id":"36f58328-8f54-4fcf-bcca-0a753cccddb2","system_id":"levelo_inurba_marseille","lat":43.23195,"lon":5.35558,"is_reserved":false,"is_disabled":false,"rental_uris":{"android":"levelo://app?vid=36f58328-8f54-4fcf-bcca-0a753cccddb2","ios":"levelo://app?vid=36f58328-8f54-4fcf-bcca-0a753cccddb2"},"vehicle_type_id":"4","last_reported":1725988082,"current_range_meters":20400,"station_id":"ce4bhu92rcd13ifvqi70","pricing_plan_id":"cebpf4jnsgd1na2vs0mg"},{"bike_id":"44f32411-a978-4e5c-8794-5490ed45ba7d","system_id":"levelo_inurba_marseille","lat":43.3376,"lon":5.37435,"is_reserved":false,"is_disabled":false,"rental_uris":{"android":"levelo://app?vid=44f32411-a978-4e5c-8794-5490ed45ba7d","ios":"levelo://app?vid=44f32411-a978-4e5c-8794-5490ed45ba7d"},"vehicle_type_id":"4","last_reported":1725988082,"current_range_meters":38400,"station_id":"","pricing_plan_id":"cebpf4jnsgd1na2vs0mg"},{"bike_id":"90bbcdbf-cbae-4aa2-8ef4-b92509926a0f","system_id":"levelo_inurba_marseille","lat":43.30336,"lon":5.40431,"is_reserved":false,"is_disabled":false,"rental_uris":{"android":"levelo://app?vid=90bbcdbf-cbae-4aa2-8ef4-b92509926a0f","ios":"levelo://app?vid=90bbcdbf-cbae-4aa2-8ef4-b92509926a0f"},"vehicle_type_id":"4","last_reported":1725988082,"current_range_meters":5600,"station_id":"ce4bh012rcd13ifvqd10","pricing_plan_id":"cebpf4jnsgd1na2vs0mg"},{"bike_id":"9df62eea-ae3b-4a9c-9441-7d2065f367d9","system_id":"levelo_inurba_marseille","lat":43.29962,"lon":5.384951,"is_reserved":false,"is_disabled":false,"rental_uris":{"android":"levelo://app?vid=9df62eea-ae3b-4a9c-9441-7d2065f367d9","ios":"levelo://app?vid=9df62eea-ae3b-4a9c-9441-7d2065f367d9"},"vehicle_type_id":"4","last_reported":1725988082,"current_range_meters":38800,"station_id":"ce4bgi12rcd13ifvqb70","pricing_plan_id":"cebpf4jnsgd1na2vs0mg"},{"bike_id":"01a9d190-f5a0-4eda-b7c1-457da88c2b6b","system_id":"levelo_inurba_marseille","lat":43.24667,"lon":5.38172,"is_reserved":false,"is_disabled":false,"rental_uris":{"android":"levelo://app?vid=01a9d190-f5a0-4eda-b7c1-457da88c2b6b","ios":"levelo://app?vid=01a9d190-f5a0-4eda-b7c1-457da88c2b6b"},"vehicle_type_id":"4","last_reported":1725988082,"current_range_meters":14000,"station_id":"ce4bhih2rcd13ifvqfr0","pricing_plan_id":"cebpf4jnsgd1na2vs0mg"},{"bike_id":"8fb9a2de-2e39-4cee-9a2d-1ba3230acc6a","system_id":"levelo_inurba_marseille","lat":43.3176,"lon":5.39018,"is_reserved":false,"is_disabled":false,"rental_uris":{"android":"levelo://app?vid=8fb9a2de-2e39-4cee-9a2d-1ba3230acc6a","ios":"levelo://app?vid=8fb9a2de-2e39-4cee-9a2d-1ba3230acc6a"},"vehicle_type_id":"4","last_reported":1725988082,"current_range_meters":6000,"station_id":"ce4bhqp2rcd13ifvqhng","pricing_plan_id":"cebpf4jnsgd1na2vs0mg"},{"bike_id":"fc9072ad-27f6-40d4-a4a5-13a2ef0d21fd","system_id":"levelo_inurba_marseille","lat":43.25717,"lon":5.41107,"is_reserved":false,"is_disabled":false,"rental_uris":{"android":"levelo://app?vid=fc9072ad-27f6-40d4-a4a5-13a2ef0d21fd","ios":"levelo://app?vid=fc9072ad-27f6-40d4-a4a5-13a2ef0d21fd"},"vehicle_type_id":"4","last_reported":1725988082,"current_range_meters":39200,"station_id":"ce4bhkp2rcd13ifvqgd0","pricing_plan_id":"cebpf4jnsgd1na2vs0mg"},{"bike_id":"407bec1f-a88f-4707-afe0-ba4fa6b4998f","system_id":"levelo_inurba_marseille","lat":43.28958,"lon":5.36417,"is_reserved":false,"is_disabled":false,"rental_uris":{"android":"levelo://app?vid=407bec1f-a88f-4707-afe0-ba4fa6b4998f","ios":"levelo://app?vid=407bec1f-a88f-4707-afe0-ba4fa6b4998f"},"vehicle_type_id":"4","last_reported":1725988082,"current_range_meters":8000,"station_id":"ce4bhc92rcd13ifvqetg","pricing_plan_id":"cebpf4jnsgd1na2vs0mg"},{"bike_id":"90215594-832b-4b45-b39a-3470cb0501d2","system_id":"levelo_inurba_marseille","lat":43.29275,"lon":5.38453,"is_reserved":false,"is_disabled":false,"rental_uris":{"android":"levelo://app?vid=90215594-832b-4b45-b39a-3470cb0501d2","ios":"levelo://app?vid=90215594-832b-4b45-b39a-3470cb0501d2"},"vehicle_type_id":"4","last_reported":1725988082,"current_range_meters":18800,"station_id":"ce4bh692rcd13ifvqea0","pricing_plan_id":"cebpf4jnsgd1na2vs0mg"},{"bike_id":"2cf85840-3f18-4f1b-ba33-40095760a502","system_id":"levelo_inurba_marseille","lat":43.29279,"lon":5.38453,"is_reserved":false,"is_disabled":false,"rental_uris":{"android":"levelo://app?vid=2cf85840-3f18-4f1b-ba33-40095760a502","ios":"levelo://app?vid=2cf85840-3f18-4f1b-ba33-40095760a502"},"vehicle_type_id":"4","last_reported":1725988082,"current_range_meters":8800,"station_id":"ce4bh692rcd13ifvqea0","pricing_plan_id":"cebpf4jnsgd1na2vs0mg"},{"bike_id":"be0846b2-735b-4b30-b9e8-7f954efdedfa","system_id":"levelo_inurba_marseille","lat":43.29871,"lon":5.39732,"is_reserved":false,"is_disabled":false,"rental_uris":{"android":"levelo://app?vid=be0846b2-735b-4b30-b9e8-7f954efdedfa","ios":"levelo://app?vid=be0846b2-735b-4b30-b9e8-7f954efdedfa"},"vehicle_type_id":"4","last_reported":1725988082,"current_range_meters":14000,"station_id":"ce4bh0h2rcd13ifvqd50","pricing_plan_id":"cebpf4jnsgd1na2vs0mg"},{"bike_id":"1648307f-65b6-48d9-8802-a21af0cc0fb1","system_id":"levelo_inurba_marseille","lat":43.29203,"lon":5.3581,"is_reserved":false,"is_disabled":false,"rental_uris":{"android":"levelo://app?vid=1648307f-65b6-48d9-8802-a21af0cc0fb1","ios":"levelo://app?vid=1648307f-65b6-48d9-8802-a21af0cc0fb1"},"vehicle_type_id":"4","last_reported":1725988082,"current_range_meters":16400,"station_id":"ce4bhb12rcd13ifvqel0","pricing_plan_id":"cebpf4jnsgd1na2vs0mg"},{"bike_id":"3bfff435-780c-430e-a884-b7e0a240cebc","system_id":"levelo_inurba_marseille","lat":43.28168,"lon":5.4045,"is_reserved":false,"is_disabled":false,"rental_uris":{"android":"levelo://app?vid=3bfff435-780c-430e-a884-b7e0a240cebc","ios":"levelo://app?vid=3bfff435-780c-430e-a884-b7e0a240cebc"},"vehicle_type_id":"4","last_reported":1725988082,"current_range_meters":26000,"station_id":"","pricing_plan_id":"cebpf4jnsgd1na2vs0mg"},{"bike_id":"4c9f8c2c-1bc0-481e-a8de-eb97024e0ee9","system_id":"levelo_inurba_marseille","lat":43.29273,"lon":5.38431,"is_reserved":false,"is_disabled":false,"rental_uris":{"android":"levelo://app?vid=4c9f8c2c-1bc0-481e-a8de-eb97024e0ee9","ios":"levelo://app?vid=4c9f8c2c-1bc0-481e-a8de-eb97024e0ee9"},"vehicle_type_id":"4","last_reported":1725988082,"current_range_meters":4000,"station_id":"ce4bh692rcd13ifvqea0","pricing_plan_id":"cebpf4jnsgd1na2vs0mg"},{"bike_id":"ecef604d-a5ad-4a77-b53f-7b7e8314c89a","system_id":"levelo_inurba_marseille","lat":43.30097,"lon":5.39089,"is_reserved":false,"is_disabled":false,"rental_uris":{"android":"levelo://app?vid=ecef604d-a5ad-4a77-b53f-7b7e8314c89a","ios":"levelo://app?vid=ecef604d-a5ad-4a77-b53f-7b7e8314c89a"},"vehicle_type_id":"4","last_reported":1725988082,"current_range_meters":2800,"station_id":"ce4bh192rcd13ifvqdb0","pricing_plan_id":"cebpf4jnsgd1na2vs0mg"},{"bike_id":"1f45eadd-e5fc-4b72-a450-667d9484caad","system_id":"levelo_inurba_marseille","lat":43.287312,"lon":5.388891,"is_reserved":false,"is_disabled":false,"rental_uris":{"android":"levelo://app?vid=1f45eadd-e5fc-4b72-a450-667d9484caad","ios":"levelo://app?vid=1f45eadd-e5fc-4b72-a450-667d9484caad"},"vehicle_type_id":"4","last_reported":1725988082,"current_range_meters":25200,"station_id":"","pricing_plan_id":"cebpf4jnsgd1na2vs0mg"},{"bike_id":"f12d439d-6390-43b1-932d-dc232dcae3bf","system_id":"levelo_inurba_marseille","lat":43.23059,"lon":5.35487,"is_reserved":false,"is_disabled":false,"rental_uris":{"android":"levelo://app?vid=f12d439d-6390-43b1-932d-dc232dcae3bf","ios":"levelo://app?vid=f12d439d-6390-43b1-932d-dc232dcae3bf"},"vehicle_type_id":"4","last_reported":1725988082,"current_range_meters":16400,"station_id":"cpo3342slgdg3j2ifvpg","pricing_plan_id":"cebpf4jnsgd1na2vs0mg"},{"bike_id":"f212fa39-678c-47d9-8d82-3beec1e11e8b","system_id":"levelo_inurba_marseille","lat":43.29947,"lon":5.371889,"is_reserved":false,"is_disabled":false,"rental_uris":{"android":"levelo://app?vid=f212fa39-678c-47d9-8d82-3beec1e11e8b","ios":"levelo://app?vid=f212fa39-678c-47d9-8d82-3beec1e11e8b"},"vehicle_type_id":"4","last_reported":1725988082,"current_range_meters":20800,"station_id":"ce4bgr92rcd13ifvqc7g","pricing_plan_id":"cebpf4jnsgd1na2vs0mg"},{"bike_id":"057eda3e-e407-46de-89fb-0689f1715225","system_id":"levelo_inurba_marseille","lat":43.289649,"lon":5.364611,"is_reserved":false,"is_disabled":false,"rental_uris":{"android":"levelo://app?vid=057eda3e-e407-46de-89fb-0689f1715225","ios":"levelo://app?vid=057eda3e-e407-46de-89fb-0689f1715225"},"vehicle_type_id":"4","last_reported":1725988082,"current_range_meters":14400,"station_id":"ce4bhc92rcd13ifvqetg","pricing_plan_id":"cebpf4jnsgd1na2vs0mg"},{"bike_id":"89183a93-eca7-4216-a453-3640acdeee1f","system_id":"levelo_inurba_marseille","lat":43.28933,"lon":5.38395,"is_reserved":false,"is_disabled":false,"rental_uris":{"android":"levelo://app?vid=89183a93-eca7-4216-a453-3640acdeee1f","ios":"levelo://app?vid=89183a93-eca7-4216-a453-3640acdeee1f"},"vehicle_type_id":"4","last_reported":1725988082,"current_range_meters":17600,"station_id":"ce4bh612rcd13ifvqe6g","pricing_plan_id":"cebpf4jnsgd1na2vs0mg"},{"bike_id":"8bef04eb-0349-4fbd-b9df-717e89664ce3","system_id":"levelo_inurba_marseille","lat":43.25584,"lon":5.38225,"is_reserved":false,"is_disabled":false,"rental_uris":{"android":"levelo://app?vid=8bef04eb-0349-4fbd-b9df-717e89664ce3","ios":"levelo://app?vid=8bef04eb-0349-4fbd-b9df-717e89664ce3"},"vehicle_type_id":"4","last_reported":1725988082,"current_range_meters":9600,"station_id":"ce4bhih2rcd13ifvqfs0","pricing_plan_id":"cebpf4jnsgd1na2vs0mg"},{"bike_id":"20e99fee-7f5e-4fd9-8345-d42fb0592de3","system_id":"levelo_inurba_marseille","lat":43.3376,"lon":5.37456,"is_reserved":false,"is_disabled":false,"rental_uris":{"android":"levelo://app?vid=20e99fee-7f5e-4fd9-8345-d42fb0592de3","ios":"levelo://app?vid=20e99fee-7f5e-4fd9-8345-d42fb0592de3"},"vehicle_type_id":"4","last_reported":1725988082,"current_range_meters":19600,"station_id":"","pricing_plan_id":"cebpf4jnsgd1na2vs0mg"},{"bike_id":"b50d82f9-5037-41d5-975a-ed42c505f159","system_id":"levelo_inurba_marseille","lat":43.33729,"lon":5.39185,"is_reserved":false,"is_disabled":false,"rental_uris":{"android":"levelo://app?vid=b50d82f9-5037-41d5-975a-ed42c505f159","ios":"levelo://app?vid=b50d82f9-5037-41d5-975a-ed42c505f159"},"vehicle_type_id":"4","last_reported":1725988082,"current_range_meters":8000,"station_id":"ce4bhr92rcd13ifvqhsg","pricing_plan_id":"cebpf4jnsgd1na2vs0mg"},{"bike_id":"b99289c2-3580-46bd-bdd7-904b67678832","system_id":"levelo_inurba_marseille","lat":43.28076,"lon":5.39654,"is_reserved":false,"is_disabled":false,"rental_uris":{"android":"levelo://app?vid=b99289c2-3580-46bd-bdd7-904b67678832","ios":"levelo://app?vid=b99289c2-3580-46bd-bdd7-904b67678832"},"vehicle_type_id":"4","last_reported":1725988082,"current_range_meters":6400,"station_id":"ce4bho12rcd13ifvqh2g","pricing_plan_id":"cebpf4jnsgd1na2vs0mg"},{"bike_id":"89ce797f-1002-4462-b920-9d9485fd79eb","system_id":"levelo_inurba_marseille","lat":43.298773,"lon":5.397168,"is_reserved":false,"is_disabled":false,"rental_uris":{"android":"levelo://app?vid=89ce797f-1002-4462-b920-9d9485fd79eb","ios":"levelo://app?vid=89ce797f-1002-4462-b920-9d9485fd79eb"},"vehicle_type_id":"4","last_reported":1725988082,"current_range_meters":12400,"station_id":"ce4bh0h2rcd13ifvqd50","pricing_plan_id":"cebpf4jnsgd1na2vs0mg"},{"bike_id":"be58d8d2-042f-4015-a7d7-d6dc9536fe77","system_id":"levelo_inurba_marseille","lat":43.27941,"lon":5.41047,"is_reserved":false,"is_disabled":false,"rental_uris":{"android":"levelo://app?vid=be58d8d2-042f-4015-a7d7-d6dc9536fe77","ios":"levelo://app?vid=be58d8d2-042f-4015-a7d7-d6dc9536fe77"},"vehicle_type_id":"4","last_reported":1725988082,"current_range_meters":19200,"station_id":"ce4bhnp2rcd13ifvqh0g","pricing_plan_id":"cebpf4jnsgd1na2vs0mg"},{"bike_id":"9f050876-159a-47d9-9d0b-cb3a6694cef8","system_id":"levelo_inurba_marseille","lat":43.27956,"lon":5.41046,"is_reserved":false,"is_disabled":false,"rental_uris":{"android":"levelo://app?vid=9f050876-159a-47d9-9d0b-cb3a6694cef8","ios":"levelo://app?vid=9f050876-159a-47d9-9d0b-cb3a6694cef8"},"vehicle_type_id":"4","last_reported":1725988082,"current_range_meters":10800,"station_id":"ce4bhnp2rcd13ifvqh0g","pricing_plan_id":"cebpf4jnsgd1na2vs0mg"},{"bike_id":"352aec20-cfd2-4629-8245-9983247ea3b7","system_id":"levelo_inurba_marseille","lat":43.27677,"lon":5.38895,"is_reserved":false,"is_disabled":false,"rental_uris":{"android":"levelo://app?vid=352aec20-cfd2-4629-8245-9983247ea3b7","ios":"levelo://app?vid=352aec20-cfd2-4629-8245-9983247ea3b7"},"vehicle_type_id":"4","last_reported":1725988082,"current_range_meters":34000,"station_id":"ce4bhi12rcd13ifvqfo0","pricing_plan_id":"cebpf4jnsgd1na2vs0mg"},{"bike_id":"bc59da0e-b043-468c-908a-3ff1120b191d","system_id":"levelo_inurba_marseille","lat":43.287354,"lon":5.352111,"is_reserved":false,"is_disabled":false,"rental_uris":{"android":"levelo://app?vid=bc59da0e-b043-468c-908a-3ff1120b191d","ios":"levelo://app?vid=bc59da0e-b043-468c-908a-3ff1120b191d"},"vehicle_type_id":"4","last_reported":1725988082,"current_range_meters":16400,"station_id":"","pricing_plan_id":"cebpf4jnsgd1na2vs0mg"},{"bike_id":"9affd36d-071a-4203-b5ac-ac86b51a9567","system_id":"levelo_inurba_marseille","lat":43.28615,"lon":5.351,"is_reserved":false,"is_disabled":false,"rental_uris":{"android":"levelo://app?vid=9affd36d-071a-4203-b5ac-ac86b51a9567","ios":"levelo://app?vid=9affd36d-071a-4203-b5ac-ac86b51a9567"},"vehicle_type_id":"4","last_reported":1725988082,"current_range_meters":11200,"station_id":"ce4bhch2rcd13ifvqeug","pricing_plan_id":"cebpf4jnsgd1na2vs0mg"},{"bike_id":"86d3d8e6-2c87-401c-a150-03d8aa5b06e7","system_id":"levelo_inurba_marseille","lat":43.28417,"lon":5.34975,"is_reserved":false,"is_disabled":false,"rental_uris":{"android":"levelo://app?vid=86d3d8e6-2c87-401c-a150-03d8aa5b06e7","ios":"levelo://app?vid=86d3d8e6-2c87-401c-a150-03d8aa5b06e7"},"vehicle_type_id":"4","last_reported":1725988082,"current_range_meters":26800,"station_id":"ce4bhbh2rcd13ifvqepg","pricing_plan_id":"cebpf4jnsgd1na2vs0mg"},{"bike_id":"6083c8fd-673d-4152-81ee-1bcd378ef7c7","system_id":"levelo_inurba_marseille","lat":43.28463,"lon":5.35882,"is_reserved":false,"is_disabled":false,"rental_uris":{"android":"levelo://app?vid=6083c8fd-673d-4152-81ee-1bcd378ef7c7","ios":"levelo://app?vid=6083c8fd-673d-4152-81ee-1bcd378ef7c7"},"vehicle_type_id":"4","last_reported":1725988082,"current_range_meters":16400,"station_id":"ce4bhah2rcd13ifvqei0","pricing_plan_id":"cebpf4jnsgd1na2vs0mg"},{"bike_id":"230e3a22-1a03-408c-b711-7f167a488065","system_id":"levelo_inurba_marseille","lat":43.30572,"lon":5.38151,"is_reserved":false,"is_disabled":false,"rental_uris":{"android":"levelo://app?vid=230e3a22-1a03-408c-b711-7f167a488065","ios":"levelo://app?vid=230e3a22-1a03-408c-b711-7f167a488065"},"vehicle_type_id":"4","last_reported":1725988082,"current_range_meters":12800,"station_id":"ce4bgup2rcd13ifvqcn0","pricing_plan_id":"cebpf4jnsgd1na2vs0mg"},{"bike_id":"c1102846-db9e-4dc7-9add-a9c698ee45f4","system_id":"levelo_inurba_marseille","lat":43.29199,"lon":5.35807,"is_reserved":false,"is_disabled":false,"rental_uris":{"android":"levelo://app?vid=c1102846-db9e-4dc7-9add-a9c698ee45f4","ios":"levelo://app?vid=c1102846-db9e-4dc7-9add-a9c698ee45f4"},"vehicle_type_id":"4","last_reported":1725988082,"current_range_meters":10800,"station_id":"ce4bhb12rcd13ifvqel0","pricing_plan_id":"cebpf4jnsgd1na2vs0mg"},{"bike_id":"7da15048-56a1-4ffc-ad18-dc989b00e289","system_id":"levelo_inurba_marseille","lat":43.293718,"lon":5.387134,"is_reserved":false,"is_disabled":false,"rental_uris":{"android":"levelo://app?vid=7da15048-56a1-4ffc-ad18-dc989b00e289","ios":"levelo://app?vid=7da15048-56a1-4ffc-ad18-dc989b00e289"},"vehicle_type_id":"4","last_reported":1725988082,"current_range_meters":8000,"station_id":"ce4bh2h2rcd13ifvqdh0","pricing_plan_id":"cebpf4jnsgd1na2vs0mg"},{"bike_id":"c4a78325-2026-457c-910a-50eb93fff64e","system_id":"levelo_inurba_marseille","lat":43.338765,"lon":5.391828,"is_reserved":false,"is_disabled":false,"rental_uris":{"android":"levelo://app?vid=c4a78325-2026-457c-910a-50eb93fff64e","ios":"levelo://app?vid=c4a78325-2026-457c-910a-50eb93fff64e"},"vehicle_type_id":"4","last_reported":1725988082,"current_range_meters":24400,"station_id":"ce4bhr92rcd13ifvqhsg","pricing_plan_id":"cebpf4jnsgd1na2vs0mg"},{"bike_id":"2a9160ce-702e-4049-9e47-c7e9b66a6250","system_id":"levelo_inurba_marseille","lat":43.289137,"lon":5.376414,"is_reserved":false,"is_disabled":false,"rental_uris":{"android":"levelo://app?vid=2a9160ce-702e-4049-9e47-c7e9b66a6250","ios":"levelo://app?vid=2a9160ce-702e-4049-9e47-c7e9b66a6250"},"vehicle_type_id":"4","last_reported":1725988082,"current_range_meters":28800,"station_id":"ce4bh692rcd13ifvqe90","pricing_plan_id":"cebpf4jnsgd1na2vs0mg"},{"bike_id":"31cccb43-d26f-4e5b-8296-65be7de4d061","system_id":"levelo_inurba_marseille","lat":43.299605,"lon":5.41325,"is_reserved":false,"is_disabled":false,"rental_uris":{"android":"levelo://app?vid=31cccb43-d26f-4e5b-8296-65be7de4d061","ios":"levelo://app?vid=31cccb43-d26f-4e5b-8296-65be7de4d061"},"vehicle_type_id":"4","last_reported":1725988082,"current_range_meters":31200,"station_id":"ce4bh4p2rcd13ifvqe1g","pricing_plan_id":"cebpf4jnsgd1na2vs0mg"},{"bike_id":"5ffa612f-5594-4a94-ad0b-7477084ec496","system_id":"levelo_inurba_marseille","lat":43.27911,"lon":5.38,"is_reserved":false,"is_disabled":false,"rental_uris":{"android":"levelo://app?vid=5ffa612f-5594-4a94-ad0b-7477084ec496","ios":"levelo://app?vid=5ffa612f-5594-4a94-ad0b-7477084ec496"},"vehicle_type_id":"4","last_reported":1725988082,"current_range_meters":9200,"station_id":"ce4bhf92rcd13ifvqf50","pricing_plan_id":"cebpf4jnsgd1na2vs0mg"},{"bike_id":"80719431-a79b-4a7a-8156-843df6b26d3d","system_id":"levelo_inurba_marseille","lat":43.28424,"lon":5.34982,"is_reserved":false,"is_disabled":false,"rental_uris":{"android":"levelo://app?vid=80719431-a79b-4a7a-8156-843df6b26d3d","ios":"levelo://app?vid=80719431-a79b-4a7a-8156-843df6b26d3d"},"vehicle_type_id":"4","last_reported":1725988082,"current_range_meters":11600,"station_id":"ce4bhbh2rcd13ifvqepg","pricing_plan_id":"cebpf4jnsgd1na2vs0mg"},{"bike_id":"937cd690-7724-421c-a76d-3708e254aebb","system_id":"levelo_inurba_marseille","lat":43.23194,"lon":5.35555,"is_reserved":false,"is_disabled":false,"rental_uris":{"android":"levelo://app?vid=937cd690-7724-421c-a76d-3708e254aebb","ios":"levelo://app?vid=937cd690-7724-421c-a76d-3708e254aebb"},"vehicle_type_id":"4","last_reported":1725988082,"current_range_meters":14000,"station_id":"ce4bhu92rcd13ifvqi70","pricing_plan_id":"cebpf4jnsgd1na2vs0mg"},{"bike_id":"ac6ae558-2b8d-40c5-8647-23140ba17ab8","system_id":"levelo_inurba_marseille","lat":43.31082,"lon":5.42427,"is_reserved":false,"is_disabled":false,"rental_uris":{"android":"levelo://app?vid=ac6ae558-2b8d-40c5-8647-23140ba17ab8","ios":"levelo://app?vid=ac6ae558-2b8d-40c5-8647-23140ba17ab8"},"vehicle_type_id":"4","last_reported":1725988082,"current_range_meters":26000,"station_id":"ce4bhp92rcd13ifvqhag","pricing_plan_id":"cebpf4jnsgd1na2vs0mg"},{"bike_id":"0a0603ea-22e7-4a32-9431-3f46f6f47521","system_id":"levelo_inurba_marseille","lat":43.30925,"lon":5.40145,"is_reserved":false,"is_disabled":false,"rental_uris":{"android":"levelo://app?vid=0a0603ea-22e7-4a32-9431-3f46f6f47521","ios":"levelo://app?vid=0a0603ea-22e7-4a32-9431-3f46f6f47521"},"vehicle_type_id":"4","last_reported":1725988082,"current_range_meters":24000,"station_id":"ce4bgvp2rcd13ifvqct0","pricing_plan_id":"cebpf4jnsgd1na2vs0mg"},{"bike_id":"1b6a7d90-ca7e-42d9-a3af-5ec38f31c2c2","system_id":"levelo_inurba_marseille","lat":43.293058,"lon":5.375682,"is_reserved":false,"is_disabled":false,"rental_uris":{"android":"levelo://app?vid=1b6a7d90-ca7e-42d9-a3af-5ec38f31c2c2","ios":"levelo://app?vid=1b6a7d90-ca7e-42d9-a3af-5ec38f31c2c2"},"vehicle_type_id":"4","last_reported":1725988082,"current_range_meters":9200,"station_id":"ce4bgi12rcd13ifvqb70","pricing_plan_id":"cebpf4jnsgd1na2vs0mg"},{"bike_id":"4e95d02e-577e-4334-9b1a-05bc0ede2ffd","system_id":"levelo_inurba_marseille","lat":43.27814,"lon":5.40712,"is_reserved":false,"is_disabled":false,"rental_uris":{"android":"levelo://app?vid=4e95d02e-577e-4334-9b1a-05bc0ede2ffd","ios":"levelo://app?vid=4e95d02e-577e-4334-9b1a-05bc0ede2ffd"},"vehicle_type_id":"4","last_reported":1725988082,"current_range_meters":25600,"station_id":"ce4bhnh2rcd13ifvqgtg","pricing_plan_id":"cebpf4jnsgd1na2vs0mg"},{"bike_id":"f4b4f936-0437-4ce8-b454-797ad7cc0227","system_id":"levelo_inurba_marseille","lat":43.27369,"lon":5.36259,"is_reserved":false,"is_disabled":false,"rental_uris":{"android":"levelo://app?vid=f4b4f936-0437-4ce8-b454-797ad7cc0227","ios":"levelo://app?vid=f4b4f936-0437-4ce8-b454-797ad7cc0227"},"vehicle_type_id":"4","last_reported":1725988082,"current_range_meters":7200,"station_id":"ce4bhbh2rcd13ifvqeo0","pricing_plan_id":"cebpf4jnsgd1na2vs0mg"},{"bike_id":"4e4f154e-bce2-4cbc-81a6-b885b39a09c8","system_id":"levelo_inurba_marseille","lat":43.28283,"lon":5.35075,"is_reserved":false,"is_disabled":false,"rental_uris":{"android":"levelo://app?vid=4e4f154e-bce2-4cbc-81a6-b885b39a09c8","ios":"levelo://app?vid=4e4f154e-bce2-4cbc-81a6-b885b39a09c8"},"vehicle_type_id":"4","last_reported":1725988082,"current_range_meters":23200,"station_id":"ce4bhbp2rcd13ifvqerg","pricing_plan_id":"cebpf4jnsgd1na2vs0mg"},{"bike_id":"9163e461-a787-48dc-b885-99245462f827","system_id":"levelo_inurba_marseille","lat":43.31329,"lon":5.39684,"is_reserved":false,"is_disabled":false,"rental_uris":{"android":"levelo://app?vid=9163e461-a787-48dc-b885-99245462f827","ios":"levelo://app?vid=9163e461-a787-48dc-b885-99245462f827"},"vehicle_type_id":"4","last_reported":1725988082,"current_range_meters":27600,"station_id":"ce4bgvp2rcd13ifvqcu0","pricing_plan_id":"cebpf4jnsgd1na2vs0mg"},{"bike_id":"26f5bc01-5d0f-45c5-a632-1467b0312cd9","system_id":"levelo_inurba_marseille","lat":43.3237,"lon":5.38885,"is_reserved":false,"is_disabled":false,"rental_uris":{"android":"levelo://app?vid=26f5bc01-5d0f-45c5-a632-1467b0312cd9","ios":"levelo://app?vid=26f5bc01-5d0f-45c5-a632-1467b0312cd9"},"vehicle_type_id":"4","last_reported":1725988082,"current_range_meters":38800,"station_id":"ce4bhqp2rcd13ifvqhog","pricing_plan_id":"cebpf4jnsgd1na2vs0mg"},{"bike_id":"c84efda4-be5d-461e-b1b9-693ce175a40e","system_id":"levelo_inurba_marseille","lat":43.31368,"lon":5.38495,"is_reserved":false,"is_disabled":false,"rental_uris":{"android":"levelo://app?vid=c84efda4-be5d-461e-b1b9-693ce175a40e","ios":"levelo://app?vid=c84efda4-be5d-461e-b1b9-693ce175a40e"},"vehicle_type_id":"4","last_reported":1725988082,"current_range_meters":8000,"station_id":"ce4bgt92rcd13ifvqcf0","pricing_plan_id":"cebpf4jnsgd1na2vs0mg"},{"bike_id":"b7de0091-660c-4e2d-bcb6-5d04f5ed5055","system_id":"levelo_inurba_marseille","lat":43.29896,"lon":5.43659,"is_reserved":false,"is_disabled":false,"rental_uris":{"android":"levelo://app?vid=b7de0091-660c-4e2d-bcb6-5d04f5ed5055","ios":"levelo://app?vid=b7de0091-660c-4e2d-bcb6-5d04f5ed5055"},"vehicle_type_id":"4","last_reported":1725988082,"current_range_meters":35200,"station_id":"ce4bhpp2rcd13ifvqhfg","pricing_plan_id":"cebpf4jnsgd1na2vs0mg"},{"bike_id":"594d7dfb-c862-4c8b-847c-ba9822d4ea6d","system_id":"levelo_inurba_marseille","lat":43.31371,"lon":5.38489,"is_reserved":false,"is_disabled":false,"rental_uris":{"android":"levelo://app?vid=594d7dfb-c862-4c8b-847c-ba9822d4ea6d","ios":"levelo://app?vid=594d7dfb-c862-4c8b-847c-ba9822d4ea6d"},"vehicle_type_id":"4","last_reported":1725988082,"current_range_meters":33200,"station_id":"ce4bgt92rcd13ifvqcf0","pricing_plan_id":"cebpf4jnsgd1na2vs0mg"},{"bike_id":"99a95265-7093-4033-ae35-fd9b444c56bd","system_id":"levelo_inurba_marseille","lat":43.23191,"lon":5.35547,"is_reserved":false,"is_disabled":false,"rental_uris":{"android":"levelo://app?vid=99a95265-7093-4033-ae35-fd9b444c56bd","ios":"levelo://app?vid=99a95265-7093-4033-ae35-fd9b444c56bd"},"vehicle_type_id":"4","last_reported":1725988082,"current_range_meters":4400,"station_id":"ce4bhu92rcd13ifvqi70","pricing_plan_id":"cebpf4jnsgd1na2vs0mg"},{"bike_id":"ca217346-130b-4fd7-a716-904e327ae122","system_id":"levelo_inurba_marseille","lat":43.28154,"lon":5.42654,"is_reserved":false,"is_disabled":false,"rental_uris":{"android":"levelo://app?vid=ca217346-130b-4fd7-a716-904e327ae122","ios":"levelo://app?vid=ca217346-130b-4fd7-a716-904e327ae122"},"vehicle_type_id":"4","last_reported":1725988082,"current_range_meters":4400,"station_id":"ce4bhnh2rcd13ifvqgug","pricing_plan_id":"cebpf4jnsgd1na2vs0mg"},{"bike_id":"4d517bfe-a574-43e9-ace1-9391dfebd111","system_id":"levelo_inurba_marseille","lat":43.32655,"lon":5.40995,"is_reserved":false,"is_disabled":false,"rental_uris":{"android":"levelo://app?vid=4d517bfe-a574-43e9-ace1-9391dfebd111","ios":"levelo://app?vid=4d517bfe-a574-43e9-ace1-9391dfebd111"},"vehicle_type_id":"4","last_reported":1725988082,"current_range_meters":2000,"station_id":"ce4bhpp2rcd13ifvqhgg","pricing_plan_id":"cebpf4jnsgd1na2vs0mg"},{"bike_id":"bd6861c0-40f0-45cf-b348-915330e879a4","system_id":"levelo_inurba_marseille","lat":43.27489,"lon":5.39014,"is_reserved":false,"is_disabled":false,"rental_uris":{"android":"levelo://app?vid=bd6861c0-40f0-45cf-b348-915330e879a4","ios":"levelo://app?vid=bd6861c0-40f0-45cf-b348-915330e879a4"},"vehicle_type_id":"4","last_reported":1725988082,"current_range_meters":4400,"station_id":"","pricing_plan_id":"cebpf4jnsgd1na2vs0mg"},{"bike_id":"ef4a8aff-88b5-4cb5-9439-3e6c0b424172","system_id":"levelo_inurba_marseille","lat":43.28454,"lon":5.35895,"is_reserved":false,"is_disabled":false,"rental_uris":{"android":"levelo://app?vid=ef4a8aff-88b5-4cb5-9439-3e6c0b424172","ios":"levelo://app?vid=ef4a8aff-88b5-4cb5-9439-3e6c0b424172"},"vehicle_type_id":"4","last_reported":1725988082,"current_range_meters":7200,"station_id":"ce4bhah2rcd13ifvqei0","pricing_plan_id":"cebpf4jnsgd1na2vs0mg"},{"bike_id":"f8b0ed67-dcc1-4d42-bad9-59b5e8e72929","system_id":"levelo_inurba_marseille","lat":43.29927,"lon":5.36542,"is_reserved":false,"is_disabled":false,"rental_uris":{"android":"levelo://app?vid=f8b0ed67-dcc1-4d42-bad9-59b5e8e72929","ios":"levelo://app?vid=f8b0ed67-dcc1-4d42-bad9-59b5e8e72929"},"vehicle_type_id":"4","last_reported":1725988082,"current_range_meters":33600,"station_id":"ce4bgm92rcd13ifvqbr0","pricing_plan_id":"cebpf4jnsgd1na2vs0mg"},{"bike_id":"57f21c13-ab3e-41c9-8041-102abe5a3216","system_id":"levelo_inurba_marseille","lat":43.28422,"lon":5.34986,"is_reserved":false,"is_disabled":false,"rental_uris":{"android":"levelo://app?vid=57f21c13-ab3e-41c9-8041-102abe5a3216","ios":"levelo://app?vid=57f21c13-ab3e-41c9-8041-102abe5a3216"},"vehicle_type_id":"4","last_reported":1725988082,"current_range_meters":29600,"station_id":"ce4bhbh2rcd13ifvqepg","pricing_plan_id":"cebpf4jnsgd1na2vs0mg"},{"bike_id":"fb3dc504-f572-41d2-af75-c34b07267650","system_id":"levelo_inurba_marseille","lat":43.26582,"lon":5.39025,"is_reserved":false,"is_disabled":false,"rental_uris":{"android":"levelo://app?vid=fb3dc504-f572-41d2-af75-c34b07267650","ios":"levelo://app?vid=fb3dc504-f572-41d2-af75-c34b07267650"},"vehicle_type_id":"4","last_reported":1725988082,"current_range_meters":10000,"station_id":"ce4bhe12rcd13ifvqf30","pricing_plan_id":"cebpf4jnsgd1na2vs0mg"},{"bike_id":"9640cf56-83da-44b0-823f-95a7ac34628f","system_id":"levelo_inurba_marseille","lat":43.32372,"lon":5.38883,"is_reserved":false,"is_disabled":false,"rental_uris":{"android":"levelo://app?vid=9640cf56-83da-44b0-823f-95a7ac34628f","ios":"levelo://app?vid=9640cf56-83da-44b0-823f-95a7ac34628f"},"vehicle_type_id":"4","last_reported":1725988082,"current_range_meters":30800,"station_id":"ce4bhqp2rcd13ifvqhog","pricing_plan_id":"cebpf4jnsgd1na2vs0mg"},{"bike_id":"6bf3b6b9-0239-45be-a21b-e50daac6736e","system_id":"levelo_inurba_marseille","lat":43.23185,"lon":5.39984,"is_reserved":false,"is_disabled":false,"rental_uris":{"android":"levelo://app?vid=6bf3b6b9-0239-45be-a21b-e50daac6736e","ios":"levelo://app?vid=6bf3b6b9-0239-45be-a21b-e50daac6736e"},"vehicle_type_id":"4","last_reported":1725988082,"current_range_meters":5600,"station_id":"ce4bhn12rcd13ifvqgqg","pricing_plan_id":"cebpf4jnsgd1na2vs0mg"},{"bike_id":"86f2f65c-b081-4dfd-8468-26d1528c429e","system_id":"levelo_inurba_marseille","lat":43.27812,"lon":5.4072,"is_reserved":false,"is_disabled":false,"rental_uris":{"android":"levelo://app?vid=86f2f65c-b081-4dfd-8468-26d1528c429e","ios":"levelo://app?vid=86f2f65c-b081-4dfd-8468-26d1528c429e"},"vehicle_type_id":"4","last_reported":1725988082,"current_range_meters":17200,"station_id":"ce4bhnh2rcd13ifvqgtg","pricing_plan_id":"cebpf4jnsgd1na2vs0mg"},{"bike_id":"8f313995-c99a-4b07-aeef-4e45476b4409","system_id":"levelo_inurba_marseille","lat":43.28468,"lon":5.35888,"is_reserved":false,"is_disabled":false,"rental_uris":{"android":"levelo://app?vid=8f313995-c99a-4b07-aeef-4e45476b4409","ios":"levelo://app?vid=8f313995-c99a-4b07-aeef-4e45476b4409"},"vehicle_type_id":"4","last_reported":1725988082,"current_range_meters":32000,"station_id":"ce4bhah2rcd13ifvqei0","pricing_plan_id":"cebpf4jnsgd1na2vs0mg"},{"bike_id":"e15ea862-a2de-432b-8250-82e23a4e3b80","system_id":"levelo_inurba_marseille","lat":43.23201,"lon":5.35551,"is_reserved":false,"is_disabled":false,"rental_uris":{"android":"levelo://app?vid=e15ea862-a2de-432b-8250-82e23a4e3b80","ios":"levelo://app?vid=e15ea862-a2de-432b-8250-82e23a4e3b80"},"vehicle_type_id":"4","last_reported":1725988082,"current_range_meters":34800,"station_id":"ce4bhu92rcd13ifvqi70","pricing_plan_id":"cebpf4jnsgd1na2vs0mg"},{"bike_id":"ec00ed4c-7b8c-4264-b347-87fd87033a92","system_id":"levelo_inurba_marseille","lat":43.23185,"lon":5.39986,"is_reserved":false,"is_disabled":false,"rental_uris":{"android":"levelo://app?vid=ec00ed4c-7b8c-4264-b347-87fd87033a92","ios":"levelo://app?vid=ec00ed4c-7b8c-4264-b347-87fd87033a92"},"vehicle_type_id":"4","last_reported":1725988082,"current_range_meters":40000,"station_id":"ce4bhn12rcd13ifvqgqg","pricing_plan_id":"cebpf4jnsgd1na2vs0mg"},{"bike_id":"63610373-ca50-40e3-96ae-0bfd7322802b","system_id":"levelo_inurba_marseille","lat":43.30809,"lon":5.3815,"is_reserved":false,"is_disabled":false,"rental_uris":{"android":"levelo://app?vid=63610373-ca50-40e3-96ae-0bfd7322802b","ios":"levelo://app?vid=63610373-ca50-40e3-96ae-0bfd7322802b"},"vehicle_type_id":"4","last_reported":1725988082,"current_range_meters":2800,"station_id":"ce4bgt12rcd13ifvqce0","pricing_plan_id":"cebpf4jnsgd1na2vs0mg"},{"bike_id":"c6c5c8ce-1521-4158-bf38-4c77aaa98fff","system_id":"levelo_inurba_marseille","lat":43.29557,"lon":5.42292,"is_reserved":false,"is_disabled":false,"rental_uris":{"android":"levelo://app?vid=c6c5c8ce-1521-4158-bf38-4c77aaa98fff","ios":"levelo://app?vid=c6c5c8ce-1521-4158-bf38-4c77aaa98fff"},"vehicle_type_id":"4","last_reported":1725988082,"current_range_meters":13600,"station_id":"ce4bhph2rcd13ifvqhdg","pricing_plan_id":"cebpf4jnsgd1na2vs0mg"},{"bike_id":"b0fdb95e-ec8a-4e07-af10-b934b8f4245a","system_id":"levelo_inurba_marseille","lat":43.25121,"lon":5.40319,"is_reserved":false,"is_disabled":false,"rental_uris":{"android":"levelo://app?vid=b0fdb95e-ec8a-4e07-af10-b934b8f4245a","ios":"levelo://app?vid=b0fdb95e-ec8a-4e07-af10-b934b8f4245a"},"vehicle_type_id":"4","last_reported":1725988082,"current_range_meters":2000,"station_id":"ce4bhlh2rcd13ifvqgig","pricing_plan_id":"cebpf4jnsgd1na2vs0mg"},{"bike_id":"eef96c93-45e3-4731-923a-7b8bf5e802da","system_id":"levelo_inurba_marseille","lat":43.26206,"lon":5.37927,"is_reserved":false,"is_disabled":false,"rental_uris":{"android":"levelo://app?vid=eef96c93-45e3-4731-923a-7b8bf5e802da","ios":"levelo://app?vid=eef96c93-45e3-4731-923a-7b8bf5e802da"},"vehicle_type_id":"4","last_reported":1725988082,"current_range_meters":8800,"station_id":"ce4bhjp2rcd13ifvqg90","pricing_plan_id":"cebpf4jnsgd1na2vs0mg"},{"bike_id":"e0ebac91-48bc-4fc3-bdc7-b9016a5d2005","system_id":"levelo_inurba_marseille","lat":43.29541,"lon":5.39396,"is_reserved":false,"is_disabled":false,"rental_uris":{"android":"levelo://app?vid=e0ebac91-48bc-4fc3-bdc7-b9016a5d2005","ios":"levelo://app?vid=e0ebac91-48bc-4fc3-bdc7-b9016a5d2005"},"vehicle_type_id":"4","last_reported":1725988082,"current_range_meters":27200,"station_id":"ce4bh292rcd13ifvqdf0","pricing_plan_id":"cebpf4jnsgd1na2vs0mg"},{"bike_id":"bef9d269-86fb-49e4-8ac1-6425dfce2443","system_id":"levelo_inurba_marseille","lat":43.29235,"lon":5.36068,"is_reserved":false,"is_disabled":false,"rental_uris":{"android":"levelo://app?vid=bef9d269-86fb-49e4-8ac1-6425dfce2443","ios":"levelo://app?vid=bef9d269-86fb-49e4-8ac1-6425dfce2443"},"vehicle_type_id":"4","last_reported":1725988082,"current_range_meters":8000,"station_id":"ce4bhbh2rcd13ifvqeqg","pricing_plan_id":"cebpf4jnsgd1na2vs0mg"},{"bike_id":"d656a4f9-df16-48f8-88c4-a7874c3ae896","system_id":"levelo_inurba_marseille","lat":43.28109,"lon":5.37833,"is_reserved":false,"is_disabled":false,"rental_uris":{"android":"levelo://app?vid=d656a4f9-df16-48f8-88c4-a7874c3ae896","ios":"levelo://app?vid=d656a4f9-df16-48f8-88c4-a7874c3ae896"},"vehicle_type_id":"4","last_reported":1725988082,"current_range_meters":36400,"station_id":"ce4bha12rcd13ifvqee0","pricing_plan_id":"cebpf4jnsgd1na2vs0mg"},{"bike_id":"e35f1d7f-72a8-494b-9971-8db0ca424dec","system_id":"levelo_inurba_marseille","lat":43.23198,"lon":5.35553,"is_reserved":false,"is_disabled":false,"rental_uris":{"android":"levelo://app?vid=e35f1d7f-72a8-494b-9971-8db0ca424dec","ios":"levelo://app?vid=e35f1d7f-72a8-494b-9971-8db0ca424dec"},"vehicle_type_id":"4","last_reported":1725988082,"current_range_meters":14800,"station_id":"ce4bhu92rcd13ifvqi70","pricing_plan_id":"cebpf4jnsgd1na2vs0mg"},{"bike_id":"9c00bb9c-cd30-4804-846e-98aa7fe46a58","system_id":"levelo_inurba_marseille","lat":43.30325,"lon":5.40438,"is_reserved":false,"is_disabled":false,"rental_uris":{"android":"levelo://app?vid=9c00bb9c-cd30-4804-846e-98aa7fe46a58","ios":"levelo://app?vid=9c00bb9c-cd30-4804-846e-98aa7fe46a58"},"vehicle_type_id":"4","last_reported":1725988082,"current_range_meters":27600,"station_id":"ce4bh012rcd13ifvqd10","pricing_plan_id":"cebpf4jnsgd1na2vs0mg"},{"bike_id":"2ac4bcea-a520-47f7-9ad7-e320bc4e29b7","system_id":"levelo_inurba_marseille","lat":43.32296,"lon":5.38252,"is_reserved":false,"is_disabled":false,"rental_uris":{"android":"levelo://app?vid=2ac4bcea-a520-47f7-9ad7-e320bc4e29b7","ios":"levelo://app?vid=2ac4bcea-a520-47f7-9ad7-e320bc4e29b7"},"vehicle_type_id":"4","last_reported":1725988082,"current_range_meters":26000,"station_id":"ce4bhr12rcd13ifvqhqg","pricing_plan_id":"cebpf4jnsgd1na2vs0mg"},{"bike_id":"0e412c79-d229-40ac-be5b-83eb97a9361c","system_id":"levelo_inurba_marseille","lat":43.30109,"lon":5.39854,"is_reserved":false,"is_disabled":false,"rental_uris":{"android":"levelo://app?vid=0e412c79-d229-40ac-be5b-83eb97a9361c","ios":"levelo://app?vid=0e412c79-d229-40ac-be5b-83eb97a9361c"},"vehicle_type_id":"4","last_reported":1725988082,"current_range_meters":24000,"station_id":"ce4bh0h2rcd13ifvqd40","pricing_plan_id":"cebpf4jnsgd1na2vs0mg"},{"bike_id":"aa254dde-c6d4-4856-9b20-66d9e6d69c28","system_id":"levelo_inurba_marseille","lat":43.28425,"lon":5.34986,"is_reserved":false,"is_disabled":false,"rental_uris":{"android":"levelo://app?vid=aa254dde-c6d4-4856-9b20-66d9e6d69c28","ios":"levelo://app?vid=aa254dde-c6d4-4856-9b20-66d9e6d69c28"},"vehicle_type_id":"4","last_reported":1725988082,"current_range_meters":19600,"station_id":"ce4bhbh2rcd13ifvqepg","pricing_plan_id":"cebpf4jnsgd1na2vs0mg"},{"bike_id":"4c400cfc-4171-4b67-839c-b5f1ef6d9f8e","system_id":"levelo_inurba_marseille","lat":43.30308,"lon":5.39222,"is_reserved":false,"is_disabled":false,"rental_uris":{"android":"levelo://app?vid=4c400cfc-4171-4b67-839c-b5f1ef6d9f8e","ios":"levelo://app?vid=4c400cfc-4171-4b67-839c-b5f1ef6d9f8e"},"vehicle_type_id":"4","last_reported":1725988082,"current_range_meters":25600,"station_id":"ce4bhr92rcd13ifvqhrg","pricing_plan_id":"cebpf4jnsgd1na2vs0mg"},{"bike_id":"99eddabc-dc93-4284-bc92-16f39022b6de","system_id":"levelo_inurba_marseille","lat":43.31997,"lon":5.38163,"is_reserved":false,"is_disabled":false,"rental_uris":{"android":"levelo://app?vid=99eddabc-dc93-4284-bc92-16f39022b6de","ios":"levelo://app?vid=99eddabc-dc93-4284-bc92-16f39022b6de"},"vehicle_type_id":"4","last_reported":1725988082,"current_range_meters":14000,"station_id":"ce4bhr12rcd13ifvqhpg","pricing_plan_id":"cebpf4jnsgd1na2vs0mg"},{"bike_id":"f0e2838f-1c11-4b9f-b249-46ede70f3ed7","system_id":"levelo_inurba_marseille","lat":43.28432,"lon":5.34986,"is_reserved":false,"is_disabled":false,"rental_uris":{"android":"levelo://app?vid=f0e2838f-1c11-4b9f-b249-46ede70f3ed7","ios":"levelo://app?vid=f0e2838f-1c11-4b9f-b249-46ede70f3ed7"},"vehicle_type_id":"4","last_reported":1725988082,"current_range_meters":38800,"station_id":"ce4bhbh2rcd13ifvqepg","pricing_plan_id":"cebpf4jnsgd1na2vs0mg"},{"bike_id":"e4b04db2-1195-4874-ac5e-740b540f1836","system_id":"levelo_inurba_marseille","lat":43.27212,"lon":5.39174,"is_reserved":false,"is_disabled":false,"rental_uris":{"android":"levelo://app?vid=e4b04db2-1195-4874-ac5e-740b540f1836","ios":"levelo://app?vid=e4b04db2-1195-4874-ac5e-740b540f1836"},"vehicle_type_id":"4","last_reported":1725988082,"current_range_meters":3200,"station_id":"","pricing_plan_id":"cebpf4jnsgd1na2vs0mg"},{"bike_id":"2c23cea6-e183-4a2f-9009-7283c632f793","system_id":"levelo_inurba_marseille","lat":43.3042,"lon":5.41275,"is_reserved":false,"is_disabled":false,"rental_uris":{"android":"levelo://app?vid=2c23cea6-e183-4a2f-9009-7283c632f793","ios":"levelo://app?vid=2c23cea6-e183-4a2f-9009-7283c632f793"},"vehicle_type_id":"4","last_reported":1725988082,"current_range_meters":25600,"station_id":"ce4bhop2rcd13ifvqh8g","pricing_plan_id":"cebpf4jnsgd1na2vs0mg"},{"bike_id":"8c19b601-8373-43bf-a2b9-477d53d97423","system_id":"levelo_inurba_marseille","lat":43.241711,"lon":5.364022,"is_reserved":false,"is_disabled":false,"rental_uris":{"android":"levelo://app?vid=8c19b601-8373-43bf-a2b9-477d53d97423","ios":"levelo://app?vid=8c19b601-8373-43bf-a2b9-477d53d97423"},"vehicle_type_id":"4","last_reported":1725988082,"current_range_meters":6400,"station_id":"cpo36qri1sfpv3e86is0","pricing_plan_id":"cebpf4jnsgd1na2vs0mg"},{"bike_id":"2976556e-17bb-457f-87e2-6b4d8cf632b5","system_id":"levelo_inurba_marseille","lat":43.28537,"lon":5.41294,"is_reserved":false,"is_disabled":false,"rental_uris":{"android":"levelo://app?vid=2976556e-17bb-457f-87e2-6b4d8cf632b5","ios":"levelo://app?vid=2976556e-17bb-457f-87e2-6b4d8cf632b5"},"vehicle_type_id":"4","last_reported":1725988082,"current_range_meters":9200,"station_id":"","pricing_plan_id":"cebpf4jnsgd1na2vs0mg"},